$GPRMC,210000.6,A,4740.96610,N,12226.35795,W,009.08,015.8,020313,016.6,E*47
$GPRMC,210000.8,A,4740.96656,N,12226.35785,W,009.11,015.3,020313,016.6,E*49
$HCHDG,359.7,0.0,E,,*21
$YXXDR,A,6.2,D,PTCH,A,-0.1,D,ROLL*75
$GPRMC,210001.0,A,4740.96715,N,12226.35770,W,009.11,015.4,020313,016.6,E*4B
$IIMTW,+08.0,C*30
$GPRMC,210001.2,A,4740.96765,N,12226.35751,W,009.11,016.2,020313,016.6,E*48
$IIRMC,210000,A,4740.964,N,12226.358,W,09.0,016,020313,16,E,A*10
$IIVHW,,,,,08.5,N,,*14
$HCHDG,359.2,0.0,E,,*24
$GPRMC,210001.4,A,4740.96816,N,12226.35721,W,009.10,016.0,020313,016.6,E*41
$IIVLW,06187,N,014.6,N*58
$IIDPT,054.5,-1.0,*44
$YXXDR,A,6.3,D,PTCH,A,-1.1,D,ROLL*75
$IIGLL,4740.964,N,12226.358,W,210000,A,A*46
$GPRMC,210001.6,A,4740.96863,N,12226.35694,W,009.07,015.8,020313,016.6,E*43
$GPRMB,A,,,,,4740.4440,N,12220.0640,W,1713.64,17,4.83,*33
$GPRMC,210001.8,A,4740.96909,N,12226.35666,W,009.04,016.0,020313,016.6,E*45
$HCHDG,358.8,0.0,E,,*2F
$YXXDR,A,5.8,D,PTCH,A,-0.8,D,ROLL*75
$GPRMC,210002.0,A,4740.96957,N,12226.35639,W,009.03,015.9,020313,016.6,E*42
$IIMTW,+07.5,C*3A
$GPRMC,210002.2,A,4740.97011,N,12226.35617,W,009.02,015.5,020313,016.6,E*4B
$IIRMC,210000,A,4740.967,N,12226.357,W,09.1,015,020313,16,E,A*1E
$IIVHW,,,,,08.5,N,,*14
$HCHDG,358.9,0.0,E,,*2E
$IIVLW,06187,N,014.6,N*58
$GPRMC,210002.4,A,4740.97064,N,12226.35595,W,009.01,015.7,020313,016.6,E*47
$IIDPT,054.5,-1.0,*44
$YXXDR,A,5.6,D,PTCH,A,-0.2,D,ROLL*71
$IIGLL,4740.967,N,12226.357,W,210000,A,A*4A
$GPRMC,210002.6,A,4740.97115,N,12226.35571,W,009.04,015.1,020313,016.6,E*4B
$GPRMB,A,,,,,4740.4440,N,12220.0640,W,1721.83,17,-8.70,*16
$GPRMC,210002.8,A,4740.97167,N,12226.35550,W,009.07,015.2,020313,016.6,E*43
$HCHDG,358.5,0.0,E,,*22
$YXXDR,A,5.9,D,PTCH,A,0.0,D,ROLL*51
$GPRMC,210003.0,A,4740.97220,N,12226.35528,W,009.27,014.6,020313,016.6,E*42
$IIMTW,+07.5,C*3A
$GPRMC,210003.2,A,4740.97266,N,12226.35502,W,009.30,014.7,020313,016.6,E*4D
$IIRMC,210000,A,4740.969,N,12226.356,W,09.0,015,020313,16,E,A*10
$IIVHW,,,,,08.4,N,,*15
$HCHDG,358.3,0.0,E,,*24
$IIVLW,06187,N,014.6,N*58
$GPRMC,210003.4,A,4740.97315,N,12226.35478,W,009.28,014.5,020313,016.6,E*49
$IIDPT,054.5,-1.0,*44
$YXXDR,A,6.1,D,PTCH,A,0.5,D,ROLL*5F
$IIGLL,4740.969,N,12226.356,W,210000,A,A*45
$GPRMC,210003.6,A,4740.97363,N,12226.35462,W,009.33,014.1,020313,016.6,E*4F
$GPRMB,A,,,,,4740.4440,N,12220.0640,W,1729.89,17,-4.86,*11
$GPRMC,210003.8,A,4740.97409,N,12226.35450,W,009.33,014.6,020313,016.6,E*4C
$HCHDG,357.6,0.0,E,,*2E
$YXXDR,A,6.0,D,PTCH,A,0.6,D,ROLL*5D
$GPRMC,210004.0,A,4740.97456,N,12226.35424,W,009.38,014.2,020313,016.6,E*45
$IIMTW,+07.5,C*3A
$GPRMC,210004.2,A,4740.97505,N,12226.35405,W,009.40,012.9,020313,016.6,E*41
$IIRMC,210000,A,4740.972,N,12226.355,W,09.2,014,020313,16,E,A*1A
$IIVHW,,,,,08.5,N,,*14
$HCHDG,357.2,0.0,E,,*2A
$IIVLW,06187,N,014.6,N*58
$GPRMC,210004.4,A,4740.97557,N,12226.35379,W,009.44,013.7,020313,016.6,E*47
$IIDPT,053.3,-1.0,*45
$YXXDR,A,5.8,D,PTCH,A,1.6,D,ROLL*57
$IIGLL,4740.972,N,12226.355,W,210000,A,A*4C
$GPRMC,210004.6,A,4740.97606,N,12226.35356,W,009.47,013.2,020313,016.6,E*49
$GPRMB,A,,,,,4740.4440,N,12220.0640,W,1737.79,17,6.48,*3C
$GPRMC,210004.8,A,4740.97656,N,12226.35337,W,009.51,013.3,020313,016.6,E*43
$HCHDG,356.9,0.0,E,,*20
$YXXDR,A,5.7,D,PTCH,A,0.8,D,ROLL*57
$GPRMC,210005.0,A,4740.97706,N,12226.35321,W,009.55,013.1,020313,016.6,E*4F
$IIMTW,+08.0,C*30
$GPRMC,210005.2,A,4740.97761,N,12226.35315,W,009.60,012.9,020313,016.6,E*44
$IIRMC,210000,A,4740.974,N,12226.354,W,09.3,014,020313,16,E,A*1C
$IIVHW,,,,,08.6,N,,*17
$HCHDG,357.0,0.0,E,,*28
$IIVLW,06187,N,014.6,N*58
$GPRMC,210005.4,A,4740.97808,N,12226.35300,W,009.62,012.2,020313,016.6,E*4F
$IIDPT,053.3,-1.0,*45
$YXXDR,A,5.7,D,PTCH,A,1.0,D,ROLL*5E
$IIGLL,4740.974,N,12226.354,W,210000,A,A*4B
$GPRMC,210005.6,A,4740.97854,N,12226.35289,W,009.66,012.7,020313,016.6,E*45
$GPRMC,210005.8,A,4740.97901,N,12226.35279,W,009.67,012.7,020313,016.6,E*44
$GPRMB,A,,,,,4740.4440,N,12220.0640,W,1747.41,17,-8.73,*1B
$HCHDG,356.8,0.0,E,,*21
$YXXDR,A,5.5,D,PTCH,A,0.3,D,ROLL*5E
$GPRMC,210006.0,A,4740.97956,N,12226.35252,W,009.69,012.9,020313,016.6,E*44
$IIMTW,+08.0,C*30
$GPRMC,210006.2,A,4740.98007,N,12226.35238,W,009.68,013.4,020313,016.6,E*45
$IIRMC,210000,A,4740.977,N,12226.353,W,09.5,013,020313,16,E,A*19
$IIVHW,,,,,08.7,N,,*16
$HCHDG,356.3,0.0,E,,*2A
$GPRMC,210006.4,A,4740.98058,N,12226.35227,W,009.66,012.8,020313,016.6,E*44
$IIVLW,06187,N,014.6,N*58
$IIDPT,053.3,-1.0,*45
$YXXDR,A,5.3,D,PTCH,A,-0.7,D,ROLL*71
$IIGLL,4740.977,N,12226.353,W,210000,A,A*4F
$GPRMC,210006.6,A,4740.98111,N,12226.35214,W,009.63,013.3,020313,016.6,E*45
$GPRMC,210006.8,A,4740.98168,N,12226.35199,W,009.63,013.4,020313,016.6,E*44
$HCHDG,356.0,0.0,E,,*29
$YXXDR,A,5.4,D,PTCH,A,-1.7,D,ROLL*77
$GPRMC,210007.0,A,4740.98224,N,12226.35178,W,009.63,014.0,020313,016.6,E*4A
$GPRMB,A,,,,,4740.4440,N,12220.0640,W,1757.94,17,-8.59,*1A
$IIMTW,+08.0,C*30
$GPRMC,210007.2,A,4740.98279,N,12226.35157,W,009.64,013.8,020313,016.6,E*45
$IIRMC,210000,A,4740.977,N,12226.353,W,09.5,013,020313,16,E,A*19
$IIVHW,,,,,08.7,N,,*16
$HCHDG,355.7,0.0,E,,*2D
$GPRMC,210007.4,A,4740.98332,N,12226.35131,W,009.67,013.6,020313,016.6,E*40
$IIVLW,06187,N,014.6,N*58
$IIDPT,053.3,-1.0,*45
$YXXDR,A,5.6,D,PTCH,A,-2.0,D,ROLL*71
$IIGLL,4740.977,N,12226.353,W,210000,A,A*4F
$GPRMC,210007.6,A,4740.98389,N,12226.35110,W,009.65,013.3,020313,016.6,E*46
$GPRMB,A,,,,,4740.4440,N,12220.0640,W,1763.30,17,9.32,*32
$GPRMC,210007.8,A,4740.98446,N,12226.35093,W,009.65,014.0,020313,016.6,E*42
$HCHDG,356.3,0.0,E,,*2A
$YXXDR,A,5.7,D,PTCH,A,-2.4,D,ROLL*74
$GPRMC,210008.0,A,4740.98500,N,12226.35075,W,009.61,014.2,020313,016.6,E*48
$IIMTW,+08.0,C*30
$GPRMC,210008.2,A,4740.98560,N,12226.35057,W,009.61,014.5,020313,016.6,E*4B
$IIRMC,210000,A,4740.977,N,12226.353,W,09.5,013,020313,16,E,A*19
$IIVHW,,,,,08.7,N,,*16
$HCHDG,356.2,0.0,E,,*2B
$GPRMC,210008.4,A,4740.98617,N,12226.35031,W,009.59,014.6,020313,016.6,E*46
$IIVLW,06187,N,014.6,N*58
$IIDPT,053.3,-1.0,*45
$YXXDR,A,5.7,D,PTCH,A,-2.7,D,ROLL*77
$IIGLL,4740.977,N,12226.353,W,210000,A,A*4F
$GPRMC,210008.6,A,4740.98670,N,12226.35001,W,009.60,015.0,020313,016.6,E*4B
$GPRMB,A,,,,,4740.4440,N,12220.0640,W,1772.44,17,-9.23,*1C
$GPRMC,210008.8,A,4740.98726,N,12226.34977,W,009.56,015.4,020313,016.6,E*4F
$HCHDG,355.8,0.0,E,,*22
$YXXDR,A,5.4,D,PTCH,A,-2.9,D,ROLL*7A
$GPRMC,210009.0,A,4740.98778,N,12226.34954,W,009.40,015.2,020313,016.6,E*4D
$IIMTW,+08.0,C*30
$GPRMC,210009.2,A,4740.98830,N,12226.34926,W,009.42,015.0,020313,016.6,E*49
$IIRMC,210000,A,4740.985,N,12226.350,W,09.6,014,020313,16,E,A*13
$IIVHW,,,,,08.8,N,,*19
$HCHDG,355.7,0.0,E,,*2D
$IIVLW,06187,N,014.6,N*58
$GPRMC,210009.4,A,4740.98882,N,12226.34902,W,009.45,014.8,020313,016.6,E*4E
$IIDPT,053.3,-1.0,*45
$YXXDR,A,5.6,D,PTCH,A,-2.5,D,ROLL*74
$IIGLL,4740.985,N,12226.350,W,210000,A,A*41
$GPRMC,210009.6,A,4740.98931,N,12226.34874,W,009.50,014.3,020313,016.6,E*4A
$GPRMB,A,,,,,4740.4440,N,12220.0640,W,1780.92,17,5.05,*3F
$GPRMC,210009.8,A,4740.98985,N,12226.34854,W,009.56,014.6,020313,016.6,E*4A
$HCHDG,356.5,0.0,E,,*2C
$YXXDR,A,5.9,D,PTCH,A,-1.7,D,ROLL*7A
$GPRMC,210010.0,A,4740.99038,N,12226.34834,W,009.50,014.9,020313,016.6,E*4B
$IIMTW,+08.0,C*30
$GPRMC,210010.2,A,4740.99094,N,12226.34815,W,009.55,015.2,020313,016.6,E*43
$IIRMC,210000,A,4740.987,N,12226.349,W,09.4,015,020313,16,E,A*1A
$IIVHW,,,,,08.8,N,,*19
$HCHDG,356.4,0.0,E,,*2D
$GPRMC,210010.4,A,4740.99145,N,12226.34791,W,009.54,015.2,020313,016.6,E*4A
$IIVLW,06187,N,014.6,N*58
$IIDPT,053.3,-1.0,*45
$YXXDR,A,6.0,D,PTCH,A,-2.1,D,ROLL*75
$IIGLL,4740.987,N,12226.349,W,210000,A,A*4B
$GPRMC,210010.6,A,4740.99199,N,12226.34771,W,009.51,015.9,020313,016.6,E*49
$GPRMC,210010.8,A,4740.99256,N,12226.34748,W,009.51,016.2,020313,016.6,E*45
$GPRMB,A,,,,,4740.4440,N,12220.0640,W,1791.49,17,-9.48,*11
$HCHDG,356.2,0.0,E,,*2B
$YXXDR,A,5.8,D,PTCH,A,-2.1,D,ROLL*7E
$GPRMC,210011.0,A,4740.99310,N,12226.34723,W,009.54,016.1,020313,016.6,E*44
$IIMTW,+08.0,C*30
$GPRMC,210011.2,A,4740.99363,N,12226.34699,W,009.52,015.0,020313,016.6,E*46
$IIRMC,210000,A,4740.990,N,12226.348,W,09.5,014,020313,16,E,A*1D
$IIVHW,,,,,08.7,N,,*16
$HCHDG,356.8,0.0,E,,*21
$GPRMC,210011.4,A,4740.99416,N,12226.34678,W,009.50,015.0,020313,016.6,E*48
$IIVLW,06187,N,014.6,N*58
$IIDPT,053.3,-1.0,*45
$YXXDR,A,5.9,D,PTCH,A,-1.2,D,ROLL*7F
$IIGLL,4740.990,N,12226.348,W,210000,A,A*4C
$GPRMC,210011.6,A,4740.99465,N,12226.34659,W,009.47,014.7,020313,016.6,E*4D
$GPRMC,210011.8,A,4740.99516,N,12226.34639,W,009.42,014.3,020313,016.6,E*41
$GPRMB,A,,,,,4740.4440,N,12220.0640,W,1799.94,17,5.00,*34
$HCHDG,358.1,0.0,E,,*26
$YXXDR,A,5.9,D,PTCH,A,-0.4,D,ROLL*78
$GPRMC,210012.0,A,4740.99565,N,12226.34620,W,009.39,015.0,020313,016.6,E*48
$IIMTW,+08.0,C*30
$GPRMC,210012.2,A,4740.99618,N,12226.34601,W,009.41,015.2,020313,016.6,E*4D
$IIRMC,210000,A,4740.993,N,12226.347,W,09.5,016,020313,16,E,A*13
$IIVHW,,,,,08.7,N,,*16
$HCHDG,357.9,0.0,E,,*21
$GPRMC,210012.4,A,4740.99670,N,12226.34575,W,009.42,015.9,020313,016.6,E*4D
$IIVLW,06187,N,014.6,N*58
$IIDPT,053.3,-1.0,*45
$YXXDR,A,6.0,D,PTCH,A,-3.6,D,ROLL*73
$IIGLL,4740.993,N,12226.347,W,210000,A,A*40
$GPRMC,210012.6,A,4740.99720,N,12226.34548,W,009.45,017.1,020313,016.6,E*48
$GPRMC,210012.8,A,4740.99773,N,12226.34523,W,009.48,017.2,020313,016.6,E*43
$HCHDG,356.4,0.0,E,,*2D
$YXXDR,A,6.0,D,PTCH,A,-4.0,D,ROLL*72
$GPRMC,210013.0,A,4740.99829,N,12226.34510,W,009.50,017.0,020313,016.6,E*41
$GPRMB,A,,,,,4740.4440,N,12220.0640,W,1810.12,17,1.89,*31
$IIMTW,+08.0,C*30
$GPRMC,210013.2,A,4740.99883,N,12226.34491,W,009.49,017.0,020313,016.6,E*43
$IIRMC,210000,A,4740.995,N,12226.346,W,09.3,015,020313,16,E,A*11
$IIVHW,,,,,08.7,N,,*16
$HCHDG,356.7,0.0,E,,*2E
$GPRMC,210013.4,A,4740.99934,N,12226.34467,W,009.50,016.2,020313,016.6,E*4A
$IIVLW,06187,N,014.6,N*58
$IIDPT,053.3,-1.0,*45
$YXXDR,A,6.0,D,PTCH,A,-2.2,D,ROLL*76
$IIGLL,4740.995,N,12226.346,W,210000,A,A*47
$GPRMC,210013.6,A,4740.99983,N,12226.34443,W,009.49,017.0,020313,016.6,E*49
$GPRMC,210013.8,A,4741.00029,N,12226.34422,W,009.49,016.3,020313,016.6,E*4A
$HCHDG,357.1,0.0,E,,*29
$YXXDR,A,6.0,D,PTCH,A,-2.0,D,ROLL*74
$GPRMC,210014.0,A,4741.00080,N,12226.34402,W,009.47,016.2,020313,016.6,E*4B
$GPRMB,A,,,,,4740.4440,N,12220.0640,W,1818.28,17,-9.44,*14
$IIMTW,+08.0,C*30
$GPRMC,210014.2,A,4741.00132,N,12226.34381,W,009.46,015.8,020313,016.6,E*45
$IIRMC,210000,A,4740.998,N,12226.345,W,09.5,017,020313,16,E,A*1B
$IIVHW,,,,,08.7,N,,*16
$HCHDG,357.7,0.0,E,,*2F
$GPRMC,210014.4,A,4741.00187,N,12226.34357,W,009.47,015.5,020313,016.6,E*4A
$IIVLW,06187,N,014.6,N*58
$IIDPT,053.3,-1.0,*45
$YXXDR,A,6.0,D,PTCH,A,-2.0,D,ROLL*74
$IIGLL,4740.998,N,12226.345,W,210000,A,A*49
$GPRMC,210014.6,A,4741.00239,N,12226.34326,W,009.49,015.8,020313,016.6,E*4B
$GPRMC,210014.8,A,4741.00303,N,12226.34288,W,009.51,015.6,020313,016.6,E*4F
$HCHDG,357.9,0.0,E,,*21
$YXXDR,A,6.1,D,PTCH,A,-1.6,D,ROLL*70
$GPRMC,210015.0,A,4741.00361,N,12226.34265,W,009.52,015.9,020313,016.6,E*4D
$IIMTW,+08.0,C*30
$GPRMC,210015.2,A,4741.00416,N,12226.34243,W,009.50,016.3,020313,016.6,E*47
$GPRMB,A,,,,,4740.4440,N,12220.0640,W,1829.18,17,-7.64,*19
$IIRMC,210000,A,4741.000,N,12226.344,W,09.4,016,020313,16,E,A*13
$IIVHW,,,,,08.7,N,,*16
$HCHDG,358.6,0.0,E,,*21
$IIVLW,06187,N,014.6,N*58
$GPRMC,210015.4,A,4741.00466,N,12226.34228,W,009.47,015.6,020313,016.6,E*4B
$IIDPT,053.3,-1.0,*45
$YXXDR,A,6.2,D,PTCH,A,-1.5,D,ROLL*70
$IIGLL,4741.000,N,12226.344,W,210000,A,A*41
$GPRMC,210015.6,A,4741.00512,N,12226.34214,W,009.46,016.3,020313,016.6,E*43
$GPRMC,210015.8,A,4741.00558,N,12226.34198,W,009.12,016.2,020313,016.6,E*44
$HCHDG,358.5,0.0,E,,*22
$YXXDR,A,5.9,D,PTCH,A,-2.0,D,ROLL*7E
$GPRMC,210016.0,A,4741.00604,N,12226.34180,W,009.17,016.6,020313,016.6,E*4D
$GPRMC,210016.2,A,4741.00651,N,12226.34159,W,009.20,016.6,020313,016.6,E*4F
$HCHDG,358.1,0.0,E,,*26
$GPRMC,210016.4,A,4741.00700,N,12226.34142,W,009.22,016.9,020313,016.6,E*4B
$GPRMB,A,,,,,4740.4440,N,12220.0640,W,1838.43,17,6.31,*3B
$YXXDR,A,5.9,D,PTCH,A,-2.5,D,ROLL*7B
$GPRMC,210016.6,A,4741.00752,N,12226.34117,W,009.22,016.8,020313,016.6,E*4F
$GPRMC,210016.8,A,4741.00802,N,12226.34089,W,009.18,016.6,020313,016.6,E*4A
$HCHDG,358.4,0.0,E,,*23
$YXXDR,A,6.0,D,PTCH,A,-2.4,D,ROLL*70
$GPRMC,210017.0,A,4741.00853,N,12226.34067,W,009.01,016.7,020313,016.6,E*4E
$IIMTW,+07.5,C*3A
$GPRMC,210017.2,A,4741.00899,N,12226.34038,W,009.04,016.9,020313,016.6,E*4B
$IIRMC,210000,A,4741.003,N,12226.342,W,09.5,015,020313,16,E,A*14
$IIVHW,,,,,08.6,N,,*17
$HCHDG,358.3,0.0,E,,*24
$IIVLW,06187,N,014.6,N*58
$GPRMC,210017.4,A,4741.00950,N,12226.34013,W,009.06,017.6,020313,016.6,E*4C
$GPRMB,A,,,,,4740.4440,N,12220.0640,W,1846.54,17,-0.18,*14
$IIDPT,053.3,-1.0,*45
$YXXDR,A,6.2,D,PTCH,A,-2.7,D,ROLL*71
$IIGLL,4741.003,N,12226.342,W,210000,A,A*44
$IIMTW,+07.5,C*3A
$GPRMC,210017.6,A,4741.01001,N,12226.33989,W,009.03,017.7,020313,016.6,E*4B
$IIRMC,210000,A,4741.006,N,12226.341,W,09.1,016,020313,16,E,A*15
$GPRMC,210017.8,A,4741.01046,N,12226.33959,W,008.98,018.2,020313,016.6,E*42
$HCHDG,357.9,0.0,E,,*21
$YXXDR,A,6.1,D,PTCH,A,-3.0,D,ROLL*74
$GPRMC,210018.0,A,4741.01091,N,12226.33935,W,008.97,018.3,020313,016.6,E*4B
$IIVHW,,,,,08.5,N,,*14
$GPRMC,210018.2,A,4741.01141,N,12226.33923,W,008.95,017.9,020313,016.6,E*45
$IIVLW,06187,N,014.6,N*58
$IIDPT,053.3,-1.0,*45
$IIGLL,4741.008,N,12226.340,W,210000,A,A*4D
$HCHDG,358.0,0.0,E,,*27
$GPRMC,210018.4,A,4741.01189,N,12226.33910,W,008.90,017.1,020313,016.6,E*4A
$IIMTW,+07.5,C*3A
$YXXDR,A,6.0,D,PTCH,A,-1.8,D,ROLL*7F
$IIRMC,210000,A,4741.008,N,12226.340,W,09.0,016,020313,16,E,A*1B
$GPRMC,210018.6,A,4741.01235,N,12226.33890,W,008.84,017.3,020313,016.6,E*42
$GPRMB,A,,,,,4740.4440,N,12220.0640,W,1855.80,17,-8.79,*10
$GPRMC,210018.8,A,4741.01280,N,12226.33868,W,008.84,016.9,020313,016.6,E*4E
$HCHDG,358.8,0.0,E,,*2F
$YXXDR,A,6.0,D,PTCH,A,-0.6,D,ROLL*70
$GPRMC,210019.0,A,4741.01329,N,12226.33850,W,008.80,017.2,020313,016.6,E*40
$IIVHW,,,,,08.4,N,,*15
$GPRMC,210019.2,A,4741.01378,N,12226.33829,W,008.77,016.5,020313,016.6,E*46
$IIVLW,06187,N,014.6,N*58
$IIDPT,053.3,-1.0,*45
$IIGLL,4741.010,N,12226.339,W,210000,A,A*4A
$HCHDG,359.3,0.0,E,,*25
$GPRMC,210019.4,A,4741.01420,N,12226.33809,W,008.77,016.5,020313,016.6,E*48
$IIMTW,+07.5,C*3A
$YXXDR,A,6.2,D,PTCH,A,0.0,D,ROLL*59
$IIRMC,210000,A,4741.010,N,12226.339,W,08.9,018,020313,16,E,A*1A
$GPRMC,210019.6,A,4741.01463,N,12226.33798,W,008.75,016.6,020313,016.6,E*4B
$GPRMC,210019.8,A,4741.01509,N,12226.33784,W,008.74,016.3,020313,016.6,E*41
$GPRMB,A,,,,,4740.4440,N,12220.0640,W,1864.71,17,-7.03,*1E
$HCHDG,358.8,0.0,E,,*2F
$YXXDR,A,5.9,D,PTCH,A,0.0,D,ROLL*51
$GPRMC,210020.0,A,4741.01549,N,12226.33766,W,008.76,015.8,020313,016.6,E*41
$IIVHW,,,,,08.3,N,,*12
$GPRMC,210020.2,A,4741.01588,N,12226.33755,W,008.77,015.7,020313,016.6,E*40
$IIVLW,06187,N,014.6,N*58
$IIDPT,053.3,-1.0,*45
$IIGLL,4741.013,N,12226.338,W,210000,A,A*48
$HCHDG,358.3,0.0,E,,*24
$GPRMC,210020.4,A,4741.01632,N,12226.33743,W,008.79,015.8,020313,016.6,E*42
$IIMTW,+07.5,C*3A
$YXXDR,A,6.0,D,PTCH,A,0.3,D,ROLL*58
$IIRMC,210000,A,4741.013,N,12226.338,W,08.8,017,020313,16,E,A*16
$GPRMC,210020.6,A,4741.01678,N,12226.33726,W,008.84,015.3,020313,016.6,E*44
$GPRMC,210020.8,A,4741.01726,N,12226.33702,W,008.88,014.8,020313,016.6,E*40
$GPRMB,A,,,,,4740.4440,N,12220.0640,W,1871.77,17,-1.65,*1A
$HCHDG,358.7,0.0,E,,*20
$YXXDR,A,5.9,D,PTCH,A,1.7,D,ROLL*57
$GPRMC,210021.0,A,4741.01775,N,12226.33676,W,008.93,015.4,020313,016.6,E*4A
$IIVHW,,,,,08.3,N,,*12
$GPRMC,210021.2,A,4741.01823,N,12226.33652,W,009.08,015.1,020313,016.6,E*44
$IIVLW,06187,N,014.6,N*58
$IIDPT,053.3,-1.0,*45
$IIGLL,4741.015,N,12226.337,W,210000,A,A*41
$HCHDG,358.7,0.0,E,,*20
$GPRMC,210021.4,A,4741.01867,N,12226.33634,W,008.88,015.4,020313,016.6,E*4E
$IIMTW,+07.5,C*3A
$YXXDR,A,5.8,D,PTCH,A,1.1,D,ROLL*50
$IIRMC,210000,A,4741.015,N,12226.337,W,08.7,015,020313,16,E,A*12
$GPRMC,210021.6,A,4741.01914,N,12226.33616,W,009.15,015.4,020313,016.6,E*4C
$GPRMC,210021.8,A,4741.01957,N,12226.33599,W,009.15,015.5,020313,016.6,E*40
$HCHDG,357.6,0.0,E,,*2E
$YXXDR,A,5.8,D,PTCH,A,0.8,D,ROLL*58
$GPRMC,210022.0,A,4741.02003,N,12226.33581,W,009.22,014.7,020313,016.6,E*4E
$GPRMB,A,,,,,4740.4440,N,12220.0640,W,1880.76,17,3.31,*3B
$IIVHW,,,,,08.2,N,,*13
$GPRMC,210022.2,A,4741.02049,N,12226.33570,W,009.24,014.6,020313,016.6,E*4B
$IIVLW,06187,N,014.6,N*58
$IIDPT,051.5,-1.0,*41
$IIGLL,4741.017,N,12226.336,W,210000,A,A*42
$HCHDG,358.1,0.0,E,,*26
$GPRMC,210022.4,A,4741.02092,N,12226.33558,W,009.28,014.8,020313,016.6,E*43
$IIMTW,+07.5,C*3A
$YXXDR,A,5.9,D,PTCH,A,1.4,D,ROLL*54
$IIRMC,210000,A,4741.017,N,12226.336,W,08.9,015,020313,16,E,A*1F
$GPRMC,210022.6,A,4741.02143,N,12226.33545,W,009.30,015.0,020313,016.6,E*40
$GPRMC,210022.8,A,4741.02191,N,12226.33533,W,009.34,015.6,020313,016.6,E*42
$HCHDG,357.8,0.0,E,,*20
$YXXDR,A,5.9,D,PTCH,A,0.5,D,ROLL*54
$GPRMC,210023.0,A,4741.02242,N,12226.33507,W,009.35,015.5,020313,016.6,E*43
$GPRMB,A,,,,,4740.4440,N,12220.0640,W,1888.55,17,7.44,*34
$IIVHW,,,,,08.3,N,,*12
$GPRMC,210023.2,A,4741.02293,N,12226.33482,W,009.36,015.2,020313,016.6,E*45
$IIVLW,06187,N,014.6,N*58
$IIDPT,051.5,-1.0,*41
$IIGLL,4741.020,N,12226.335,W,210000,A,A*45
$HCHDG,357.4,0.0,E,,*2C
$GPRMC,210023.4,A,4741.02344,N,12226.33465,W,009.38,015.2,020313,016.6,E*4F
$IIMTW,+07.5,C*3A
$YXXDR,A,5.9,D,PTCH,A,0.2,D,ROLL*53
$IIRMC,210000,A,4741.020,N,12226.335,W,09.2,014,020313,16,E,A*13
$GPRMC,210023.6,A,4741.02395,N,12226.33446,W,009.60,015.6,020313,016.6,E*49
$GPRMC,210023.8,A,4741.02443,N,12226.33421,W,009.42,015.6,020313,016.6,E*4A
$HCHDG,357.2,0.0,E,,*2A
$YXXDR,A,5.6,D,PTCH,A,0.0,D,ROLL*5E
$GPRMC,210024.0,A,4741.02491,N,12226.33398,W,009.47,015.3,020313,016.6,E*4F
$GPRMB,A,,,,,4740.4440,N,12220.0640,W,1896.64,17,-1.76,*13
$IIVHW,,,,,08.3,N,,*12
$GPRMC,210024.2,A,4741.02542,N,12226.33380,W,009.43,015.4,020313,016.6,E*48
$IIVLW,06187,N,014.6,N*58
$IIDPT,051.5,-1.0,*41
$IIGLL,4741.022,N,12226.335,W,210000,A,A*47
$HCHDG,357.1,0.0,E,,*29
$GPRMC,210024.4,A,4741.02591,N,12226.33356,W,009.39,015.2,020313,016.6,E*40
$IIMTW,+07.5,C*3A
$YXXDR,A,5.5,D,PTCH,A,0.0,D,ROLL*5D
$IIRMC,210000,A,4741.022,N,12226.335,W,09.3,015,020313,16,E,A*11
$GPRMC,210024.6,A,4741.02644,N,12226.33330,W,009.38,015.3,020313,016.6,E*49
$GPRMC,210024.8,A,4741.02695,N,12226.33305,W,009.39,015.7,020313,016.6,E*48
$HCHDG,357.0,0.0,E,,*28
$YXXDR,A,5.6,D,PTCH,A,0.0,D,ROLL*5E
$GPRMC,210025.0,A,4741.02744,N,12226.33275,W,009.38,014.8,020313,016.6,E*45
$GPRMB,A,,,,,4740.4440,N,12220.0640,W,1904.84,17,-1.74,*15
$IIVHW,,,,,08.4,N,,*15
$GPRMC,210025.2,A,4741.02797,N,12226.33250,W,009.55,015.3,020313,016.6,E*4F
$IIVLW,06187,N,014.6,N*58
$IIDPT,051.5,-1.0,*41
$IIGLL,4741.024,N,12226.333,W,210000,A,A*47
$HCHDG,357.2,0.0,E,,*2A
$GPRMC,210025.4,A,4741.02850,N,12226.33227,W,009.55,015.1,020313,016.6,E*4F
$IIMTW,+07.5,C*3A
$YXXDR,A,5.7,D,PTCH,A,-0.1,D,ROLL*73
$IIRMC,210000,A,4741.024,N,12226.333,W,09.4,015,020313,16,E,A*16
$GPRMC,210025.6,A,4741.02900,N,12226.33205,W,009.55,015.0,020313,016.6,E*48
$GPRMC,210025.8,A,4741.02952,N,12226.33185,W,009.58,014.9,020313,016.6,E*4F
$HCHDG,357.1,0.0,E,,*29
$YXXDR,A,5.8,D,PTCH,A,0.1,D,ROLL*51
$GPRMC,210026.0,A,4741.03007,N,12226.33167,W,009.61,014.7,020313,016.6,E*44
$GPRMB,A,,,,,4740.4440,N,12220.0640,W,1913.39,17,3.45,*38
$IIVHW,,,,,08.5,N,,*14
$GPRMC,210026.2,A,4741.03053,N,12226.33154,W,009.56,014.3,020313,016.6,E*47
$IIVLW,06187,N,014.6,N*58
$IIDPT,051.5,-1.0,*41
$IIGLL,4741.027,N,12226.332,W,210000,A,A*45
$HCHDG,357.2,0.0,E,,*2A
$GPRMC,210026.4,A,4741.03099,N,12226.33135,W,009.60,014.7,020313,016.6,E*41
$IIMTW,+07.5,C*3A
$YXXDR,A,5.6,D,PTCH,A,0.3,D,ROLL*5D
$IIRMC,210000,A,4741.027,N,12226.332,W,09.3,014,020313,16,E,A*12
$GPRMC,210026.6,A,4741.03148,N,12226.33119,W,009.42,015.2,020313,016.6,E*44
$GPRMC,210026.8,A,4741.03198,N,12226.33104,W,009.45,015.1,020313,016.6,E*4F
$HCHDG,357.0,0.0,E,,*28
$YXXDR,A,5.6,D,PTCH,A,0.0,D,ROLL*5E
$GPRMC,210027.0,A,4741.03252,N,12226.33085,W,009.48,015.4,020313,016.6,E*43
$IIVHW,,,,,08.5,N,,*14
$GPRMC,210027.2,A,4741.03303,N,12226.33066,W,009.52,014.6,020313,016.6,E*41
$GPRMB,A,,,,,4740.4440,N,12220.0640,W,1923.03,17,7.58,*3A
$IIVLW,06187,N,014.6,N*58
$IIDPT,051.5,-1.0,*41
$IIGLL,4741.030,N,12226.331,W,210000,A,A*40
$HCHDG,357.0,0.0,E,,*28
$GPRMC,210027.4,A,4741.03353,N,12226.33043,W,009.46,014.5,020313,016.6,E*43
$IIMTW,+07.5,C*3A
$YXXDR,A,5.5,D,PTCH,A,-0.1,D,ROLL*71
$IIRMC,210000,A,4741.030,N,12226.331,W,09.6,014,020313,16,E,A*12
$GPRMC,210027.6,A,4741.03406,N,12226.33036,W,009.50,015.1,020313,016.6,E*46
$GPRMC,210027.8,A,4741.03460,N,12226.33027,W,009.51,015.5,020313,016.6,E*4D
$HCHDG,356.9,0.0,E,,*20
$YXXDR,A,5.7,D,PTCH,A,-0.4,D,ROLL*76
$GPRMC,210028.0,A,4741.03513,N,12226.33011,W,009.51,015.1,020313,016.6,E*4E
$IIVHW,,,,,08.5,N,,*14
$GPRMC,210028.2,A,4741.03569,N,12226.32986,W,009.52,015.3,020313,016.6,E*46
$IIVLW,06187,N,014.6,N*58
$IIDPT,051.5,-1.0,*41
$IIGLL,4741.032,N,12226.330,W,210000,A,A*43
$HCHDG,356.7,0.0,E,,*2E
$GPRMC,210028.4,A,4741.03619,N,12226.32964,W,009.52,015.5,020313,016.6,E*4E
$GPRMB,A,,,,,4740.4440,N,12220.0640,W,1933.32,17,7.58,*39
$IIMTW,+07.5,C*3A
$YXXDR,A,5.6,D,PTCH,A,-0.4,D,ROLL*77
$IIRMC,210000,A,4741.032,N,12226.330,W,09.4,015,020313,16,E,A*12
$GPRMC,210028.6,A,4741.03670,N,12226.32941,W,009.52,015.2,020313,016.6,E*43
$GPRMC,210028.8,A,4741.03725,N,12226.32915,W,009.50,014.8,020313,016.6,E*44
$HCHDG,357.1,0.0,E,,*29
$YXXDR,A,5.6,D,PTCH,A,0.0,D,ROLL*5E
$GPRMC,210029.0,A,4741.03779,N,12226.32891,W,009.49,014.6,020313,016.6,E*4F
$IIVHW,,,,,08.6,N,,*17
$GPRMC,210029.2,A,4741.03834,N,12226.32865,W,009.47,014.5,020313,016.6,E*4D
$IIVLW,06187,N,014.6,N*58
$IIDPT,051.5,-1.0,*41
$IIGLL,4741.035,N,12226.330,W,210000,A,A*44
$HCHDG,357.0,0.0,E,,*28
$GPRMC,210029.4,A,4741.03886,N,12226.32840,W,009.47,014.8,020313,016.6,E*48
$GPRMB,A,,,,,4740.4440,N,12220.0640,W,1941.98,17,-1.76,*1B
$IIMTW,+07.5,C*3A
$YXXDR,A,5.5,D,PTCH,A,0.0,D,ROLL*5D
$IIRMC,210000,A,4741.035,N,12226.330,W,09.5,015,020313,16,E,A*14
$GPRMC,210029.6,A,4741.03936,N,12226.32825,W,009.47,015.2,020313,016.6,E*48
$GPRMC,210029.8,A,4741.03985,N,12226.32810,W,009.50,015.2,020313,016.6,E*4E
$HCHDG,356.6,0.0,E,,*2F
$YXXDR,A,5.6,D,PTCH,A,0.0,D,ROLL*5E
$GPRMC,210030.0,A,4741.04032,N,12226.32787,W,009.49,014.6,020313,016.6,E*40
$IIVHW,,,,,08.7,N,,*16
$GPRMC,210030.2,A,4741.04076,N,12226.32761,W,009.49,015.1,020313,016.6,E*4C
$IIVLW,06187,N,014.6,N*58
$IIDPT,051.5,-1.0,*41
$IIGLL,4741.035,N,12226.330,W,210000,A,A*44
$HCHDG,356.6,0.0,E,,*2F
$GPRMC,210030.4,A,4741.04124,N,12226.32744,W,009.48,015.0,020313,016.6,E*4B
$GPRMB,A,,,,,4740.4440,N,12220.0640,W,1949.71,17,-9.12,*1E
$IIMTW,+07.5,C*3A
$YXXDR,A,5.9,D,PTCH,A,0.5,D,ROLL*54
$IIRMC,210000,A,4741.035,N,12226.330,W,09.5,015,020313,16,E,A*14
$GPRMC,210030.6,A,4741.04173,N,12226.32725,W,009.47,014.8,020313,016.6,E*4A
$GPRMC,210030.8,A,4741.04218,N,12226.32700,W,009.46,014.6,020313,016.6,E*42
$HCHDG,356.7,0.0,E,,*2E
$YXXDR,A,5.7,D,PTCH,A,0.5,D,ROLL*5A
$GPRMC,210031.0,A,4741.04264,N,12226.32675,W,009.45,014.7,020313,016.6,E*41
$IIVHW,,,,,08.7,N,,*16
$GPRMC,210031.2,A,4741.04313,N,12226.32650,W,009.44,015.2,020313,016.6,E*40
$IIVLW,06187,N,014.6,N*58
$IIDPT,051.5,-1.0,*41
$IIGLL,4741.040,N,12226.327,W,210000,A,A*40
$HCHDG,356.1,0.0,E,,*28
$GPRMC,210031.4,A,4741.04361,N,12226.32629,W,009.41,015.5,020313,016.6,E*4F
$IIMTW,+07.5,C*3A
$YXXDR,A,5.9,D,PTCH,A,-0.5,D,ROLL*79
$IIRMC,210000,A,4741.040,N,12226.327,W,09.4,014,020313,16,E,A*10
$GPRMC,210031.6,A,4741.04411,N,12226.32607,W,009.38,015.1,020313,016.6,E*4B
$GPRMB,A,,,,,4740.4440,N,12220.0640,W,1959.02,17,-9.02,*1A
$GPRMC,210031.8,A,4741.04462,N,12226.32584,W,009.36,015.0,020313,016.6,E*46
$HCHDG,355.8,0.0,E,,*22
$YXXDR,A,5.8,D,PTCH,A,0.1,D,ROLL*51
$GPRMC,210032.0,A,4741.04513,N,12226.32565,W,009.34,015.4,020313,016.6,E*43
$IIVHW,,,,,08.7,N,,*16
$GPRMC,210032.2,A,4741.04563,N,12226.32539,W,009.33,014.7,020313,016.6,E*4A
$IIVLW,06187,N,014.6,N*58
$IIDPT,051.5,-1.0,*41
$IIGLL,4741.042,N,12226.326,W,210000,A,A*43
$HCHDG,356.1,0.0,E,,*28
$GPRMC,210032.4,A,4741.04610,N,12226.32511,W,009.34,015.1,020313,016.6,E*41
$IIMTW,+07.5,C*3A
$YXXDR,A,5.8,D,PTCH,A,0.0,D,ROLL*50
$IIRMC,210000,A,4741.042,N,12226.326,W,09.4,014,020313,16,E,A*13
$GPRMC,210032.6,A,4741.04664,N,12226.32489,W,009.32,014.3,020313,016.6,E*45
$GPRMB,A,,,,,4740.4440,N,12220.0640,W,1967.23,17,4.96,*39
$GPRMC,210032.8,A,4741.04716,N,12226.32471,W,009.29,014.6,020313,016.6,E*47
$HCHDG,356.4,0.0,E,,*2D
$YXXDR,A,5.8,D,PTCH,A,0.0,D,ROLL*50
$GPRMC,210033.0,A,4741.04767,N,12226.32449,W,009.26,014.7,020313,016.6,E*4D
$IIVHW,,,,,08.6,N,,*17
$GPRMC,210033.2,A,4741.04817,N,12226.32428,W,009.25,014.6,020313,016.6,E*42
$IIVLW,06187,N,014.6,N*58
$IIDPT,051.5,-1.0,*41
$IIGLL,4741.045,N,12226.325,W,210000,A,A*47
$HCHDG,356.4,0.0,E,,*2D
$GPRMC,210033.4,A,4741.04871,N,12226.32407,W,009.27,014.7,020313,016.6,E*4A
$IIMTW,+07.5,C*3A
$YXXDR,A,5.6,D,PTCH,A,-0.4,D,ROLL*77
$IIRMC,210000,A,4741.045,N,12226.325,W,09.3,015,020313,16,E,A*11
$GPRMC,210033.6,A,4741.04923,N,12226.32388,W,009.25,014.7,020313,016.6,E*4C
$GPRMC,210033.8,A,4741.04973,N,12226.32363,W,009.25,014.4,020313,016.6,E*41
$HCHDG,356.5,0.0,E,,*2C
$YXXDR,A,5.8,D,PTCH,A,-0.1,D,ROLL*7C
$GPRMC,210034.0,A,4741.05020,N,12226.32338,W,009.23,014.7,020313,016.6,E*4B
$GPRMB,A,,,,,4740.4440,N,12220.0640,W,1978.80,17,3.31,*34
$IIVHW,,,,,08.6,N,,*17
$GPRMC,210034.2,A,4741.05073,N,12226.32315,W,009.25,014.6,020313,016.6,E*47
$IIVLW,06187,N,014.6,N*58
$IIDPT,051.5,-1.0,*41
$IIGLL,4741.047,N,12226.324,W,210000,A,A*44
$HCHDG,357.0,0.0,E,,*28
$GPRMC,210034.4,A,4741.05128,N,12226.32294,W,009.28,015.2,020313,016.6,E*4E
$IIMTW,+07.5,C*3A
$YXXDR,A,6.0,D,PTCH,A,-0.2,D,ROLL*74
$IIRMC,210000,A,4741.047,N,12226.324,W,09.2,014,020313,16,E,A*12
$GPRMC,210034.6,A,4741.05182,N,12226.32276,W,009.32,015.3,020313,016.6,E*4A
$GPRMC,210034.8,A,4741.05232,N,12226.32255,W,009.35,016.0,020313,016.6,E*4A
$HCHDG,356.5,0.0,E,,*2C
$YXXDR,A,6.3,D,PTCH,A,-1.2,D,ROLL*76
$GPRMC,210035.0,A,4741.05280,N,12226.32236,W,009.40,016.5,020313,016.6,E*48
$IIVHW,,,,,08.6,N,,*17
$GPRMC,210035.2,A,4741.05330,N,12226.32220,W,009.43,016.2,020313,016.6,E*43
$GPRMB,A,,,,,4740.4440,N,12220.0640,W,1988.87,17,-9.40,*1D
$IIVLW,06187,N,014.6,N*58
$IIDPT,051.5,-1.0,*41
$IIGLL,4741.050,N,12226.323,W,210000,A,A*45
$HCHDG,355.8,0.0,E,,*22
$GPRMC,210035.4,A,4741.05382,N,12226.32201,W,009.44,016.5,020313,016.6,E*4F
$IIMTW,+07.5,C*3A
$YXXDR,A,6.4,D,PTCH,A,-0.2,D,ROLL*70
$IIRMC,210000,A,4741.050,N,12226.323,W,09.2,014,020313,16,E,A*13
$GPRMC,210035.6,A,4741.05430,N,12226.32173,W,009.43,015.9,020313,016.6,E*4D
$GPRMC,210035.8,A,4741.05478,N,12226.32146,W,009.46,015.6,020313,016.6,E*43
$HCHDG,356.7,0.0,E,,*2E
$YXXDR,A,6.2,D,PTCH,A,0.4,D,ROLL*5D
$GPRMC,210036.0,A,4741.05528,N,12226.32125,W,009.47,015.3,020313,016.6,E*4D
$IIVHW,,,,,08.6,N,,*17
$GPRMC,210036.2,A,4741.05575,N,12226.32107,W,009.45,015.6,020313,016.6,E*40
$IIVLW,06187,N,014.6,N*58
$IIDPT,051.5,-1.0,*41
$IIGLL,4741.052,N,12226.322,W,210000,A,A*46
$HCHDG,356.8,0.0,E,,*21
$GPRMC,210036.4,A,4741.05625,N,12226.32087,W,009.44,015.3,020313,016.6,E*4D
$GPRMB,A,,,,,4740.4440,N,12220.0640,W,1998.45,17,-1.75,*1C
$IIMTW,+07.5,C*3A
$YXXDR,A,6.1,D,PTCH,A,0.5,D,ROLL*5F
$IIRMC,210000,A,4741.052,N,12226.322,W,09.4,016,020313,16,E,A*14
$GPRMC,210036.6,A,4741.05674,N,12226.32068,W,009.44,016.0,020313,016.6,E*4A
$GPRMC,210036.8,A,4741.05724,N,12226.32041,W,009.39,016.1,020313,016.6,E*40
$HCHDG,356.3,0.0,E,,*2A
$YXXDR,A,6.1,D,PTCH,A,0.6,D,ROLL*5C
$GPRMC,210037.0,A,4741.05772,N,12226.32022,W,009.38,015.8,020313,016.6,E*44
$IIVHW,,,,,08.5,N,,*14
$GPRMC,210037.2,A,4741.05826,N,12226.32002,W,009.38,015.8,020313,016.6,E*4A
$IIVLW,06187,N,014.6,N*58
$IIDPT,051.5,-1.0,*41
$IIGLL,4741.055,N,12226.321,W,210000,A,A*42
$HCHDG,356.0,0.0,E,,*29
$GPRMC,210037.4,A,4741.05871,N,12226.31983,W,009.40,015.7,020313,016.6,E*4D
$IIMTW,+07.5,C*3A
$YXXDR,A,6.0,D,PTCH,A,1.1,D,ROLL*5B
$IIRMC,210000,A,4741.055,N,12226.321,W,09.4,015,020313,16,E,A*13
$GPRMC,210037.6,A,4741.05915,N,12226.31967,W,009.37,015.4,020313,016.6,E*45
$GPRMB,A,,,,,4740.4440,N,12220.0640,W,2007.87,17,3.36,*36
$GPRMC,210037.8,A,4741.05961,N,12226.31957,W,009.59,014.9,020313,016.6,E*4F
$HCHDG,356.6,0.0,E,,*2F
$YXXDR,A,6.4,D,PTCH,A,2.3,D,ROLL*5E
$GPRMC,210038.0,A,4741.05996,N,12226.31928,W,009.44,014.8,020313,016.6,E*45
$IIVHW,,,,,08.5,N,,*14
$GPRMC,210038.2,A,4741.06044,N,12226.31908,W,009.50,014.1,020313,016.6,E*4C
$IIVLW,06187,N,014.6,N*58
$IIDPT,051.5,-1.0,*41
$IIGLL,4741.057,N,12226.320,W,210000,A,A*41
$HCHDG,357.2,0.0,E,,*2A
$GPRMC,210038.4,A,4741.06101,N,12226.31896,W,009.57,014.1,020313,016.6,E*4B
$IIMTW,+07.5,C*3A
$YXXDR,A,6.3,D,PTCH,A,2.2,D,ROLL*58
$IIRMC,210000,A,4741.057,N,12226.320,W,09.3,015,020313,16,E,A*17
$GPRMC,210038.6,A,4741.06157,N,12226.31877,W,009.57,013.9,020313,016.6,E*4A
$GPRMC,210038.8,A,4741.06208,N,12226.31856,W,009.57,014.1,020313,016.6,E*41
$GPRMB,A,,,,,4740.4440,N,12220.0640,W,2017.39,17,-4.97,*13
$HCHDG,357.3,0.0,E,,*2B
$YXXDR,A,6.3,D,PTCH,A,1.2,D,ROLL*5B
$GPRMC,210039.0,A,4741.06254,N,12226.31833,W,009.65,014.7,020313,016.6,E*45
$IIVHW,,,,,08.6,N,,*17
$GPRMC,210039.2,A,4741.06307,N,12226.31809,W,009.67,015.1,020313,016.6,E*4C
$IIVLW,06187,N,014.6,N*58
$IIDPT,051.5,-1.0,*41
$IIGLL,4741.059,N,12226.319,W,210000,A,A*45
$HCHDG,356.5,0.0,E,,*2C
$GPRMC,210039.4,A,4741.06363,N,12226.31799,W,009.70,015.4,020313,016.6,E*4D
$IIMTW,+08.0,C*30
$YXXDR,A,6.2,D,PTCH,A,0.4,D,ROLL*5D
$IIRMC,210000,A,4741.059,N,12226.319,W,09.4,014,020313,16,E,A*15
$GPRMC,210039.6,A,4741.06414,N,12226.31777,W,009.73,015.7,020313,016.6,E*48
$GPRMC,210039.8,A,4741.06469,N,12226.31756,W,009.77,016.2,020313,016.6,E*4D
$HCHDG,355.5,0.0,E,,*2F
$YXXDR,A,6.2,D,PTCH,A,0.0,D,ROLL*59
$GPRMC,210040.0,A,4741.06524,N,12226.31733,W,009.78,015.9,020313,016.6,E*47
$GPRMB,A,,,,,4740.4440,N,12220.0640,W,2027.66,17,0.06,*3B
$IIVHW,,,,,08.6,N,,*17
$GPRMC,210040.2,A,4741.06572,N,12226.31715,W,009.77,015.5,020313,016.6,E*41
$IIVLW,06187,N,014.6,N*58
$IIDPT,051.5,-1.0,*41
$IIGLL,4741.062,N,12226.318,W,210000,A,A*4C
$HCHDG,355.4,0.0,E,,*2E
$GPRMC,210040.4,A,4741.06620,N,12226.31695,W,009.78,014.7,020313,016.6,E*46
$IIMTW,+07.5,C*3A
$YXXDR,A,6.3,D,PTCH,A,0.6,D,ROLL*5E
$IIRMC,210000,A,4741.062,N,12226.318,W,09.6,014,020313,16,E,A*1E
$GPRMC,210040.6,A,4741.06675,N,12226.31670,W,009.81,014.4,020313,016.6,E*4A
$GPRMC,210040.8,A,4741.06726,N,12226.31646,W,009.81,014.1,020313,016.6,E*43
$HCHDG,356.3,0.0,E,,*2A
$YXXDR,A,6.2,D,PTCH,A,1.0,D,ROLL*58
$GPRMC,210041.0,A,4741.06782,N,12226.31625,W,009.84,014.1,020313,016.6,E*44
$IIVHW,,,,,08.6,N,,*17
$GPRMC,210041.2,A,4741.06834,N,12226.31602,W,009.84,014.4,020313,016.6,E*44
$GPRMB,A,,,,,4740.4440,N,12220.0640,W,2037.72,17,8.83,*3A
$IIVLW,06187,N,014.6,N*58
$IIDPT,051.5,-1.0,*41
$IIGLL,4741.065,N,12226.317,W,210000,A,A*44
$HCHDG,356.4,0.0,E,,*2D
$GPRMC,210041.4,A,4741.06887,N,12226.31581,W,009.83,014.4,020313,016.6,E*45
$IIMTW,+07.5,C*3A
$YXXDR,A,6.0,D,PTCH,A,-0.5,D,ROLL*73
$IIRMC,210000,A,4741.065,N,12226.317,W,09.7,015,020313,16,E,A*16
$GPRMC,210041.6,A,4741.06942,N,12226.31566,W,009.80,015.0,020313,016.6,E*40
$GPRMC,210041.8,A,4741.06995,N,12226.31546,W,009.80,014.9,020313,016.6,E*4E
$HCHDG,355.6,0.0,E,,*2C
$YXXDR,A,5.8,D,PTCH,A,-1.2,D,ROLL*7E
$GPRMC,210042.0,A,4741.07049,N,12226.31521,W,009.79,014.9,020313,016.6,E*4B
$IIVHW,,,,,08.7,N,,*16
$GPRMC,210042.2,A,4741.07102,N,12226.31501,W,009.78,015.4,020313,016.6,E*48
$IIVLW,06187,N,014.7,N*59
$IIDPT,051.5,-1.0,*41
$IIGLL,4741.065,N,12226.317,W,210000,A,A*44
$HCHDG,355.7,0.0,E,,*2D
$GPRMC,210042.4,A,4741.07151,N,12226.31470,W,009.77,015.3,020313,016.6,E*47
$GPRMB,A,,,,,4740.4440,N,12220.0640,W,2048.02,17,-1.81,*13
$IIMTW,+07.5,C*3A
$YXXDR,A,5.8,D,PTCH,A,-1.1,D,ROLL*7D
$IIRMC,210000,A,4741.065,N,12226.317,W,09.7,015,020313,16,E,A*16
$GPRMC,210042.6,A,4741.07202,N,12226.31452,W,009.76,015.3,020313,016.6,E*41
$GPRMC,210042.8,A,4741.07255,N,12226.31432,W,009.76,014.7,020313,016.6,E*4E
$HCHDG,355.4,0.0,E,,*2E
$YXXDR,A,5.9,D,PTCH,A,0.0,D,ROLL*51
$GPRMC,210043.0,A,4741.07307,N,12226.31412,W,009.73,013.7,020313,016.6,E*41
$IIVHW,,,,,08.8,N,,*19
$GPRMC,210043.2,A,4741.07363,N,12226.31385,W,009.57,013.7,020313,016.6,E*4E
$IIVLW,06187,N,014.7,N*59
$IIDPT,051.5,-1.0,*41
$IIGLL,4741.070,N,12226.315,W,210000,A,A*42
$HCHDG,356.4,0.0,E,,*2D
$GPRMC,210043.4,A,4741.07411,N,12226.31365,W,009.58,013.8,020313,016.6,E*44
$GPRMB,A,,,,,4740.4440,N,12220.0640,W,2056.46,17,-7.71,*15
$IIMTW,+07.5,C*3A
$YXXDR,A,5.8,D,PTCH,A,0.0,D,ROLL*50
$IIRMC,210000,A,4741.070,N,12226.315,W,09.7,014,020313,16,E,A*11
$GPRMC,210043.6,A,4741.07461,N,12226.31347,W,009.56,014.0,020313,016.6,E*40
$GPRMC,210043.8,A,4741.07518,N,12226.31333,W,009.59,014.3,020313,016.6,E*4E
$HCHDG,356.3,0.0,E,,*2A
$YXXDR,A,5.8,D,PTCH,A,-0.6,D,ROLL*7B
$GPRMC,210044.0,A,4741.07567,N,12226.31311,W,009.59,014.2,020313,016.6,E*48
$PGRMT,GPS 18x-5Hz software ver. 3.20,,,,,,,,*30
$IIVHW,,,,,08.8,N,,*19
$GPRMC,210044.2,A,4741.07617,N,12226.31294,W,009.62,014.5,020313,016.6,E*4D
$IIVLW,06187,N,014.7,N*59
$IIDPT,051.5,-1.0,*41
$IIGLL,4741.073,N,12226.314,W,210000,A,A*40
$HCHDG,355.8,0.0,E,,*22
$GPRMC,210044.4,A,4741.07669,N,12226.31273,W,009.63,015.1,020313,016.6,E*4F
$GPRMB,A,,,,,4740.4440,N,12220.0640,W,2064.85,17,-9.26,*17
$IIMTW,+07.5,C*3A
$YXXDR,A,5.8,D,PTCH,A,-1.0,D,ROLL*7C
$IIRMC,210000,A,4741.073,N,12226.314,W,09.7,013,020313,16,E,A*14
$GPRMC,210044.6,A,4741.07718,N,12226.31251,W,009.64,015.0,020313,016.6,E*4C
$GPRMC,210044.8,A,4741.07766,N,12226.31230,W,009.63,015.1,020313,016.6,E*4A
$HCHDG,355.5,0.0,E,,*2F
$YXXDR,A,5.8,D,PTCH,A,-0.6,D,ROLL*7B
$GPRMC,210045.0,A,4741.07816,N,12226.31207,W,009.63,015.0,020313,016.6,E*4E
$IIVHW,,,,,08.8,N,,*19
$GPRMC,210045.2,A,4741.07872,N,12226.31187,W,009.61,014.5,020313,016.6,E*43
$IIVLW,06187,N,014.7,N*59
$IIDPT,056.0,-1.0,*43
$IIGLL,4741.075,N,12226.313,W,210000,A,A*41
$HCHDG,355.6,0.0,E,,*2C
$GPRMC,210045.4,A,4741.07930,N,12226.31167,W,009.58,014.9,020313,016.6,E*4A
$IIMTW,+07.5,C*3A
$YXXDR,A,5.8,D,PTCH,A,-0.3,D,ROLL*7E
$IIRMC,210000,A,4741.075,N,12226.313,W,09.5,014,020313,16,E,A*10
$GPRMC,210045.6,A,4741.07983,N,12226.31143,W,009.55,014.5,020313,016.6,E*47
$GPRMB,A,,,,,4740.4440,N,12220.0640,W,2075.05,17,9.50,*33
$GPRMC,210045.8,A,4741.08034,N,12226.31126,W,009.52,014.5,020313,016.6,E*47
$HCHDG,355.7,0.0,E,,*2D
$YXXDR,A,5.6,D,PTCH,A,-0.1,D,ROLL*72
$GPRMC,210046.0,A,4741.08083,N,12226.31115,W,009.47,014.2,020313,016.6,E*43
$IIVHW,,,,,08.8,N,,*19
$GPRMC,210046.2,A,4741.08136,N,12226.31094,W,009.31,015.0,020313,016.6,E*44
$IIVLW,06187,N,014.7,N*59
$IIDPT,056.0,-1.0,*43
$IIGLL,4741.078,N,12226.312,W,210000,A,A*4D
$HCHDG,356.1,0.0,E,,*28
$GPRMC,210046.4,A,4741.08185,N,12226.31078,W,009.30,014.8,020313,016.6,E*40
$IIMTW,+07.5,C*3A
$YXXDR,A,5.8,D,PTCH,A,-1.1,D,ROLL*7D
$IIRMC,210000,A,4741.078,N,12226.312,W,09.6,015,020313,16,E,A*1E
$GPRMC,210046.6,A,4741.08234,N,12226.31061,W,009.30,014.7,020313,016.6,E*4C
$GPRMB,A,,,,,4740.4440,N,12220.0640,W,2083.22,17,3.33,*30
$GPRMC,210046.8,A,4741.08286,N,12226.31034,W,009.23,014.5,020313,016.6,E*4B
$HCHDG,355.5,0.0,E,,*2F
$YXXDR,A,5.8,D,PTCH,A,-1.4,D,ROLL*78
$GPRMC,210047.0,A,4741.08338,N,12226.31019,W,009.20,014.8,020313,016.6,E*47
$GPRMC,210047.2,A,4741.08387,N,12226.31001,W,009.13,014.2,020313,016.6,E*42
$HCHDG,355.5,0.0,E,,*2F
$GPRMC,210047.4,A,4741.08438,N,12226.30984,W,009.09,014.6,020313,016.6,E*4D
$YXXDR,A,5.7,D,PTCH,A,-1.0,D,ROLL*73
$GPRMC,210047.6,A,4741.08489,N,12226.30962,W,009.03,014.7,020313,016.6,E*46
$GPRMC,210047.8,A,4741.08533,N,12226.30939,W,009.01,015.3,020313,016.6,E*41
$GPRMB,A,,,,,4740.4440,N,12220.0640,W,2092.93,17,-1.67,*14
$HCHDG,355.2,0.0,E,,*28
$YXXDR,A,5.8,D,PTCH,A,-1.1,D,ROLL*7D
$GPRMC,210048.0,A,4741.08583,N,12226.30921,W,009.00,015.2,020313,016.6,E*44
$IIVHW,,,,,08.7,N,,*16
$GPRMC,210048.2,A,4741.08633,N,12226.30902,W,009.02,014.5,020313,016.6,E*4B
$IIVLW,06187,N,014.7,N*59
$IIDPT,056.0,-1.0,*43
$IIGLL,4741.080,N,12226.311,W,210000,A,A*49
$HCHDG,355.4,0.0,E,,*2E
$IIMTW,+07.5,C*3A
$GPRMC,210048.4,A,4741.08678,N,12226.30882,W,009.04,014.9,020313,016.6,E*41
$YXXDR,A,5.9,D,PTCH,A,0.0,D,ROLL*51
$IIRMC,210000,A,4741.080,N,12226.311,W,09.4,014,020313,16,E,A*19
$IIVHW,,,,,08.6,N,,*17
$GPRMC,210048.6,A,4741.08721,N,12226.30860,W,009.08,014.9,020313,016.6,E*4E
$IIVLW,06187,N,014.7,N*59
$IIDPT,056.0,-1.0,*43
$GPRMC,210048.8,A,4741.08769,N,12226.30834,W,009.10,014.9,020313,016.6,E*44
$GPRMB,A,,,,,4740.4440,N,12220.0640,W,2100.58,17,-6.14,*1A
$HCHDG,355.4,0.0,E,,*2E
$YXXDR,A,6.2,D,PTCH,A,0.0,D,ROLL*59
$GPRMC,210049.0,A,4741.08814,N,12226.30815,W,009.12,014.8,020313,016.6,E*48
$GPRMC,210049.2,A,4741.08857,N,12226.30804,W,009.12,014.1,020313,016.6,E*44
$IIGLL,4741.083,N,12226.310,W,210000,A,A*4B
$IIMTW,+07.5,C*3A
$HCHDG,355.4,0.0,E,,*2E
$IIRMC,210000,A,4741.083,N,12226.310,W,09.2,014,020313,16,E,A*1D
$GPRMC,210049.4,A,4741.08903,N,12226.30796,W,009.12,014.7,020313,016.6,E*40
$IIVHW,,,,,08.5,N,,*14
$YXXDR,A,6.3,D,PTCH,A,1.3,D,ROLL*5A
$IIVLW,06187,N,014.7,N*59
$IIDPT,056.0,-1.0,*43
$GPRMC,210049.6,A,4741.08950,N,12226.30792,W,009.12,013.9,020313,016.6,E*49
$GPRMC,210049.8,A,4741.08997,N,12226.30774,W,009.12,013.8,020313,016.6,E*45
$HCHDG,355.1,0.0,E,,*2B
$YXXDR,A,6.2,D,PTCH,A,1.7,D,ROLL*5F
$GPRMC,210050.0,A,4741.09046,N,12226.30749,W,009.15,014.4,020313,016.6,E*43
$GPRMB,A,,,,,4740.4440,N,12220.0640,W,2109.60,17,8.21,*3D
$GPRMC,210050.2,A,4741.09099,N,12226.30733,W,009.18,013.7,020313,016.6,E*47
$IIGLL,4741.088,N,12226.308,W,210000,A,A*49
$IIMTW,+07.5,C*3A
$IIRMC,210000,A,4741.088,N,12226.308,W,09.1,014,020313,16,E,A*1C
$HCHDG,355.3,0.0,E,,*29
$GPRMC,210050.4,A,4741.09145,N,12226.30715,W,009.18,014.2,020313,016.6,E*47
$IIVHW,,,,,08.4,N,,*15
$YXXDR,A,6.1,D,PTCH,A,2.4,D,ROLL*5C
$IIVLW,06187,N,014.7,N*59
$IIDPT,056.0,-1.0,*43
$GPRMC,210050.6,A,4741.09193,N,12226.30696,W,009.16,013.9,020313,016.6,E*46
$GPRMC,210050.8,A,4741.09244,N,12226.30677,W,009.18,014.0,020313,016.6,E*4E
$HCHDG,354.9,0.0,E,,*22
$YXXDR,A,6.1,D,PTCH,A,2.4,D,ROLL*5C
$GPRMC,210051.0,A,4741.09300,N,12226.30665,W,009.16,014.4,020313,016.6,E*4F
$GPRMB,A,,,,,4740.4440,N,12220.0640,W,2117.86,17,8.22,*39
$GPRMC,210051.2,A,4741.09351,N,12226.30646,W,009.19,013.8,020313,016.6,E*4C
$IIGLL,4741.090,N,12226.307,W,210000,A,A*4F
$IIMTW,+07.5,C*3A
$IIRMC,210000,A,4741.090,N,12226.307,W,09.1,014,020313,16,E,A*1A
$HCHDG,354.9,0.0,E,,*22
$GPRMC,210051.4,A,4741.09394,N,12226.30633,W,009.20,013.9,020313,016.6,E*4A
$IIVHW,,,,,08.3,N,,*12
$YXXDR,A,6.6,D,PTCH,A,3.1,D,ROLL*5F
$IIVLW,06187,N,014.7,N*59
$IIDPT,056.0,-1.0,*43
$GPRMC,210051.6,A,4741.09439,N,12226.30624,W,009.20,013.6,020313,016.6,E*41
$GPRMC,210051.8,A,4741.09489,N,12226.30620,W,009.18,013.6,020313,016.6,E*4B
$HCHDG,355.3,0.0,E,,*29
$YXXDR,A,6.5,D,PTCH,A,3.5,D,ROLL*58
$GPRMC,210052.0,A,4741.09541,N,12226.30598,W,009.18,013.5,020313,016.6,E*46
$GPRMC,210052.2,A,4741.09591,N,12226.30580,W,009.14,013.4,020313,016.6,E*4D
$GPRMB,A,,,,,4740.4440,N,12220.0640,W,2127.34,17,8.76,*32
$IIGLL,4741.093,N,12226.306,W,210000,A,A*4D
$IIMTW,+07.5,C*3A
$HCHDG,354.8,0.0,E,,*23
$IIRMC,210000,A,4741.093,N,12226.306,W,09.1,014,020313,16,E,A*18
$GPRMC,210052.4,A,4741.09643,N,12226.30567,W,009.09,013.9,020313,016.6,E*4F
$IIVHW,,,,,08.3,N,,*12
$YXXDR,A,6.2,D,PTCH,A,2.3,D,ROLL*58
$IIVLW,06187,N,014.7,N*59
$IIDPT,056.0,-1.0,*43
$GPRMC,210052.6,A,4741.09694,N,12226.30549,W,009.04,013.9,020313,016.6,E*46
$GPRMC,210052.8,A,4741.09741,N,12226.30526,W,008.88,014.0,020313,016.6,E*43
$HCHDG,354.5,0.0,E,,*2E
$YXXDR,A,6.0,D,PTCH,A,1.4,D,ROLL*5E
$GPRMC,210053.0,A,4741.09786,N,12226.30506,W,008.92,014.0,020313,016.6,E*48
$GPRMC,210053.2,A,4741.09832,N,12226.30487,W,008.90,014.6,020313,016.6,E*46
$GPRMB,A,,,,,4740.4440,N,12220.0640,W,2135.17,17,7.08,*36
$IIGLL,4741.095,N,12226.305,W,210000,A,A*48
$IIMTW,+07.5,C*3A
$IIRMC,210000,A,4741.095,N,12226.305,W,09.1,013,020313,16,E,A*1A
$HCHDG,354.1,0.0,E,,*2A
$GPRMC,210053.4,A,4741.09874,N,12226.30470,W,008.89,014.9,020313,016.6,E*4D
$IIVHW,,,,,08.2,N,,*13
$YXXDR,A,6.0,D,PTCH,A,0.4,D,ROLL*5F
$IIVLW,06187,N,014.7,N*59
$IIDPT,056.0,-1.0,*43
$GPRMC,210053.6,A,4741.09919,N,12226.30450,W,008.83,014.7,020313,016.6,E*43
$GPRMC,210053.8,A,4741.09966,N,12226.30432,W,008.83,015.0,020313,016.6,E*47
$HCHDG,353.9,0.0,E,,*25
$YXXDR,A,6.1,D,PTCH,A,0.0,D,ROLL*5A
$GPRMC,210054.0,A,4741.10014,N,12226.30408,W,008.81,014.8,020313,016.6,E*4E
$GPRMC,210054.2,A,4741.10063,N,12226.30381,W,008.76,014.4,020313,016.6,E*4E
$IIGLL,4741.097,N,12226.305,W,210000,A,A*4A
$IIMTW,+07.5,C*3A
$IIRMC,210000,A,4741.097,N,12226.305,W,08.9,014,020313,16,E,A*16
$HCHDG,354.1,0.0,E,,*2A
$GPRMC,210054.4,A,4741.10114,N,12226.30359,W,008.72,014.4,020313,016.6,E*48
$GPRMB,A,,,,,4740.4440,N,12220.0640,W,2144.31,17,7.83,*37
$IIVHW,,,,,08.1,N,,*10
$YXXDR,A,6.2,D,PTCH,A,0.0,D,ROLL*59
$IIVLW,06187,N,014.7,N*59
$IIDPT,056.0,-1.0,*43
$GPRMC,210054.6,A,4741.10159,N,12226.30336,W,008.69,013.9,020313,016.6,E*4A
$GPRMC,210054.8,A,4741.10213,N,12226.30319,W,008.64,014.0,020313,016.6,E*47
$HCHDG,354.8,0.0,E,,*23
$YXXDR,A,6.1,D,PTCH,A,0.0,D,ROLL*5A
$GPRMC,210055.0,A,4741.10268,N,12226.30300,W,008.61,014.2,020313,016.6,E*4D
$GPRMC,210055.2,A,4741.10320,N,12226.30291,W,008.61,014.3,020313,016.6,E*4A
$IIGLL,4741.100,N,12226.304,W,210000,A,A*44
$IIMTW,+07.5,C*3A
$IIRMC,210000,A,4741.100,N,12226.304,W,08.8,014,020313,16,E,A*19
$HCHDG,354.2,0.0,E,,*29
$GPRMC,210055.4,A,4741.10369,N,12226.30280,W,008.59,014.1,020313,016.6,E*48
$IIVHW,,,,,08.1,N,,*10
$YXXDR,A,6.0,D,PTCH,A,-0.6,D,ROLL*70
$IIVLW,06187,N,014.7,N*59
$GPRMC,210055.6,A,4741.10411,N,12226.30260,W,008.57,014.0,020313,016.6,E*43
$GPRMB,A,,,,,4740.4440,N,12220.0640,W,2153.97,17,-7.64,*19
$GPRMC,210055.8,A,4741.10459,N,12226.30247,W,008.56,013.7,020313,016.6,E*45
$HCHDG,354.5,0.0,E,,*2E
$YXXDR,A,6.0,D,PTCH,A,-0.2,D,ROLL*74
$GPRMC,210056.0,A,4741.10510,N,12226.30230,W,008.55,014.2,020313,016.6,E*43
$GPRMC,210056.2,A,4741.10554,N,12226.30212,W,008.52,014.1,020313,016.6,E*45
$IIGLL,4741.102,N,12226.303,W,210000,A,A*41
$IIMTW,+07.0,C*3F
$IIRMC,210000,A,4741.102,N,12226.303,W,08.6,014,020313,16,E,A*12
$HCHDG,354.8,0.0,E,,*23
$GPRMC,210056.4,A,4741.10593,N,12226.30190,W,008.52,014.2,020313,016.6,E*42
$IIVHW,,,,,08.0,N,,*11
$YXXDR,A,6.0,D,PTCH,A,0.0,D,ROLL*5B
$IIVLW,06187,N,014.7,N*59
$IIDPT,053.3,-1.0,*45
$GPRMC,210056.6,A,4741.10635,N,12226.30169,W,008.54,014.5,020313,016.6,E*48
$GPRMB,A,,,,,4740.4440,N,12220.0640,W,2161.25,17,8.50,*34
$GPRMC,210056.8,A,4741.10678,N,12226.30146,W,008.54,013.5,020313,016.6,E*45
$HCHDG,354.7,0.0,E,,*2C
$YXXDR,A,5.9,D,PTCH,A,0.7,D,ROLL*56
$GPRMC,210057.0,A,4741.10715,N,12226.30128,W,008.57,014.6,020313,016.6,E*49
$GPRMC,210057.2,A,4741.10754,N,12226.30106,W,008.63,014.1,020313,016.6,E*42
$IIGLL,4741.105,N,12226.302,W,210000,A,A*47
$IIMTW,+07.0,C*3F
$IIRMC,210000,A,4741.105,N,12226.302,W,08.5,014,020313,16,E,A*17
$HCHDG,354.7,0.0,E,,*2C
$GPRMC,210057.4,A,4741.10799,N,12226.30090,W,008.65,014.0,020313,016.6,E*4C
$IIVHW,,,,,07.9,N,,*17
$YXXDR,A,6.1,D,PTCH,A,0.8,D,ROLL*52
$IIVLW,06187,N,014.7,N*59
$IIDPT,053.3,-1.0,*45
$GPRMC,210057.6,A,4741.10839,N,12226.30073,W,008.67,014.1,020313,016.6,E*45
$GPRMC,210057.8,A,4741.10882,N,12226.30048,W,008.73,013.9,020313,016.6,E*49
$GPRMB,A,,,,,4740.4440,N,12220.0640,W,2169.25,17,-8.70,*13
$HCHDG,354.5,0.0,E,,*2E
$YXXDR,A,6.2,D,PTCH,A,2.1,D,ROLL*5A
$GPRMC,210058.0,A,4741.10927,N,12226.30031,W,008.75,014.3,020313,016.6,E*45
$GPRMC,210058.2,A,4741.10977,N,12226.30015,W,008.73,014.3,020313,016.6,E*42
$IIGLL,4741.107,N,12226.301,W,210000,A,A*46
$IIMTW,+07.0,C*3F
$IIRMC,210000,A,4741.107,N,12226.301,W,08.5,014,020313,16,E,A*16
$HCHDG,354.2,0.0,E,,*29
$GPRMC,210058.4,A,4741.11021,N,12226.30000,W,008.76,014.0,020313,016.6,E*4D
$IIVHW,,,,,07.9,N,,*17
$YXXDR,A,6.1,D,PTCH,A,1.8,D,ROLL*53
$IIVLW,06187,N,014.7,N*59
$IIDPT,053.3,-1.0,*45
$GPRMC,210058.6,A,4741.11068,N,12226.29975,W,008.76,014.3,020313,016.6,E*42
$GPRMC,210058.8,A,4741.11116,N,12226.29961,W,008.78,013.7,020313,016.6,E*4C
$HCHDG,354.8,0.0,E,,*23
$YXXDR,A,6.1,D,PTCH,A,2.6,D,ROLL*5E
$GPRMC,210059.0,A,4741.11162,N,12226.29943,W,008.81,013.8,020313,016.6,E*4F
$GPRMB,A,,,,,4740.4440,N,12220.0640,W,2178.34,17,-7.09,*12
$GPRMC,210059.2,A,4741.11207,N,12226.29929,W,008.81,014.0,020313,016.6,E*4E
$IIGLL,4741.109,N,12226.300,W,210000,A,A*49
$IIMTW,+07.0,C*3F
$IIRMC,210000,A,4741.109,N,12226.300,W,08.7,014,020313,16,E,A*1B
$HCHDG,354.4,0.0,E,,*2F
$GPRMC,210059.4,A,4741.11254,N,12226.29916,W,008.79,013.6,020313,016.6,E*44
$IIVHW,,,,,07.8,N,,*16
$YXXDR,A,5.8,D,PTCH,A,1.6,D,ROLL*57
$IIVLW,06187,N,014.7,N*59
$IIDPT,053.3,-1.0,*45
$GPRMC,210059.6,A,4741.11306,N,12226.29902,W,008.80,013.5,020313,016.6,E*40
$GPRMC,210059.8,A,4741.11355,N,12226.29890,W,008.80,013.2,020313,016.6,E*45
$HCHDG,354.0,0.0,E,,*2B
$YXXDR,A,6.0,D,PTCH,A,1.1,D,ROLL*5B
$GPRMC,210100.0,A,4741.11404,N,12226.29866,W,008.79,013.4,020313,016.6,E*4A
$GPRMC,210100.2,A,4741.11451,N,12226.29847,W,008.80,013.3,020313,016.6,E*4A
$GPRMB,A,,,,,4740.4440,N,12220.0640,W,2187.74,17,8.50,*38
$IIGLL,4741.111,N,12226.299,W,210000,A,A*41
$IIMTW,+07.0,C*3F
$IIRMC,210000,A,4741.111,N,12226.299,W,08.8,013,020313,16,E,A*1B
$HCHDG,354.2,0.0,E,,*29
$GPRMC,210100.4,A,4741.11498,N,12226.29836,W,008.82,012.8,020313,016.6,E*47
$IIVHW,,,,,07.8,N,,*16
$YXXDR,A,5.9,D,PTCH,A,1.7,D,ROLL*57
$IIVLW,06187,N,014.7,N*59
$IIDPT,053.3,-1.0,*45
$GPRMC,210100.6,A,4741.11538,N,12226.29826,W,008.83,012.7,020313,016.6,E*41
$GPRMC,210100.8,A,4741.11581,N,12226.29820,W,008.84,013.0,020313,016.6,E*4A
$HCHDG,354.3,0.0,E,,*28
$YXXDR,A,6.0,D,PTCH,A,1.0,D,ROLL*5A
$GPRMC,210101.0,A,4741.11628,N,12226.29806,W,008.85,013.0,020313,016.6,E*46
$GPRMC,210101.2,A,4741.11673,N,12226.29795,W,008.86,013.3,020313,016.6,E*4F
$IIGLL,4741.114,N,12226.298,W,210100,A,A*44
$IIMTW,+07.0,C*3F
$IIRMC,210100,A,4741.114,N,12226.298,W,08.7,013,020313,16,E,A*11
$HCHDG,353.9,0.0,E,,*25
$GPRMC,210101.4,A,4741.11719,N,12226.29769,W,008.85,012.7,020313,016.6,E*41
$GPRMB,A,,,,,4740.4440,N,12220.0640,W,2196.47,17,-8.00,*10
$IIVHW,,,,,07.8,N,,*16
$YXXDR,A,5.8,D,PTCH,A,0.0,D,ROLL*50
$IIVLW,06187,N,014.7,N*59
$IIDPT,053.3,-1.0,*45
$GPRMC,210101.6,A,4741.11770,N,12226.29740,W,008.89,013.4,020313,016.6,E*49
$GPRMC,210101.8,A,4741.11818,N,12226.29721,W,008.92,013.0,020313,016.6,E*4F
$HCHDG,354.3,0.0,E,,*28
$YXXDR,A,6.0,D,PTCH,A,0.3,D,ROLL*58
$GPRMC,210102.0,A,4741.11863,N,12226.29700,W,008.95,013.2,020313,016.6,E*4E
$GPRMC,210102.2,A,4741.11911,N,12226.29681,W,008.96,013.5,020313,016.6,E*44
$IIGLL,4741.116,N,12226.298,W,210100,A,A*46
$IIMTW,+07.0,C*3F
$IIRMC,210100,A,4741.116,N,12226.298,W,08.8,013,020313,16,E,A*1C
$HCHDG,354.4,0.0,E,,*2F
$GPRMC,210102.4,A,4741.11961,N,12226.29667,W,008.99,014.1,020313,016.6,E*41
$GPRMB,A,,,,,4740.4440,N,12220.0640,W,2204.32,17,-4.67,*17
$IIVHW,,,,,07.8,N,,*16
$YXXDR,A,6.0,D,PTCH,A,-0.1,D,ROLL*77
$IIVLW,06187,N,014.7,N*59
$IIDPT,053.3,-1.0,*45
$GPRMC,210102.6,A,4741.12009,N,12226.29658,W,009.02,014.2,020313,016.6,E*4B
$GPRMC,210102.8,A,4741.12054,N,12226.29637,W,009.07,014.4,020313,016.6,E*47
$HCHDG,354.0,0.0,E,,*2B
$YXXDR,A,6.3,D,PTCH,A,-0.5,D,ROLL*70
$GPRMC,210103.0,A,4741.12098,N,12226.29621,W,009.10,014.6,020313,016.6,E*4D
$GPRMC,210103.2,A,4741.12146,N,12226.29601,W,009.12,014.1,020313,016.6,E*4A
$IIGLL,4741.118,N,12226.297,W,210100,A,A*47
$IIMTW,+07.0,C*3F
$IIRMC,210100,A,4741.118,N,12226.297,W,08.9,013,020313,16,E,A*1C
$HCHDG,354.3,0.0,E,,*28
$GPRMC,210103.4,A,4741.12192,N,12226.29584,W,009.16,014.3,020313,016.6,E*4D
$GPRMB,A,,,,,4740.4440,N,12220.0640,W,2211.83,17,4.88,*35
$IIVHW,,,,,07.8,N,,*16
$YXXDR,A,5.9,D,PTCH,A,0.4,D,ROLL*55
$IIVLW,06187,N,014.7,N*59
$IIDPT,053.3,-1.0,*45
$GPRMC,210103.6,A,4741.12238,N,12226.29562,W,009.16,014.4,020313,016.6,E*43
$GPRMC,210103.8,A,4741.12284,N,12226.29543,W,009.20,014.4,020313,016.6,E*4C
$HCHDG,354.7,0.0,E,,*2C
$YXXDR,A,5.9,D,PTCH,A,0.7,D,ROLL*56
$GPRMC,210104.0,A,4741.12338,N,12226.29521,W,009.22,013.8,020313,016.6,E*48
$GPRMC,210104.2,A,4741.12389,N,12226.29505,W,009.26,014.3,020313,016.6,E*4E
$IIGLL,4741.120,N,12226.296,W,210100,A,A*4D
$IIMTW,+07.0,C*3F
$IIRMC,210100,A,4741.120,N,12226.296,W,09.1,014,020313,16,E,A*18
$HCHDG,354.4,0.0,E,,*2F
$GPRMC,210104.4,A,4741.12438,N,12226.29484,W,009.26,014.3,020313,016.6,E*4D
$IIVHW,,,,,07.9,N,,*17
$YXXDR,A,6.2,D,PTCH,A,0.4,D,ROLL*5D
$IIVLW,06187,N,014.7,N*59
$IIDPT,053.3,-1.0,*45
$GPRMC,210104.6,A,4741.12485,N,12226.29469,W,009.31,014.4,020313,016.6,E*4B
$GPRMB,A,,,,,4740.4440,N,12220.0640,W,2221.34,17,8.36,*33
$GPRMC,210104.8,A,4741.12533,N,12226.29462,W,009.35,014.0,020313,016.6,E*42
$HCHDG,354.6,0.0,E,,*2D
$YXXDR,A,6.3,D,PTCH,A,1.2,D,ROLL*5B
$GPRMC,210105.0,A,4741.12583,N,12226.29450,W,009.41,013.9,020313,016.6,E*4C
$GPRMC,210105.2,A,4741.12631,N,12226.29436,W,009.43,013.7,020313,016.6,E*48
$IIGLL,4741.123,N,12226.295,W,210100,A,A*4D
$IIMTW,+07.0,C*3F
$IIRMC,210100,A,4741.123,N,12226.295,W,09.2,013,020313,16,E,A*1C
$HCHDG,354.6,0.0,E,,*2D
$GPRMC,210105.4,A,4741.12676,N,12226.29417,W,009.43,013.9,020313,016.6,E*40
$IIVHW,,,,,08.0,N,,*11
$YXXDR,A,6.1,D,PTCH,A,0.8,D,ROLL*52
$IIVLW,06187,N,014.7,N*59
$IIDPT,053.3,-1.0,*45
$GPRMC,210105.6,A,4741.12725,N,12226.29395,W,009.41,014.0,020313,016.6,E*44
$GPRMB,A,,,,,4740.4440,N,12220.0640,W,2229.15,17,-8.38,*1B
$GPRMC,210105.8,A,4741.12779,N,12226.29368,W,009.40,013.7,020313,016.6,E*40
$HCHDG,354.3,0.0,E,,*28
$YXXDR,A,5.9,D,PTCH,A,0.7,D,ROLL*56
$GPRMC,210106.0,A,4741.12836,N,12226.29349,W,009.40,013.1,020313,016.6,E*4A
$GPRMC,210106.2,A,4741.12890,N,12226.29329,W,009.40,013.0,020313,016.6,E*43
$IIGLL,4741.125,N,12226.294,W,210100,A,A*4A
$IIMTW,+07.0,C*3F
$IIRMC,210100,A,4741.125,N,12226.294,W,09.4,013,020313,16,E,A*1D
$HCHDG,355.2,0.0,E,,*28
$GPRMC,210106.4,A,4741.12942,N,12226.29308,W,009.39,013.1,020313,016.6,E*47
$IIVHW,,,,,08.1,N,,*10
$YXXDR,A,5.9,D,PTCH,A,1.2,D,ROLL*52
$IIVLW,06187,N,014.7,N*59
$IIDPT,053.3,-1.0,*45
$GPRMC,210106.6,A,4741.12994,N,12226.29301,W,009.40,013.5,020313,016.6,E*4D
$GPRMB,A,,,,,4740.4440,N,12220.0640,W,2237.90,17,6.24,*37
$GPRMC,210106.8,A,4741.13044,N,12226.29288,W,009.41,013.8,020313,016.6,E*4A
$HCHDG,354.9,0.0,E,,*22
$YXXDR,A,5.9,D,PTCH,A,0.0,D,ROLL*51
$GPRMC,210107.0,A,4741.13092,N,12226.29276,W,009.40,013.6,020313,016.6,E*46
$GPRMC,210107.2,A,4741.13137,N,12226.29268,W,009.43,014.2,020313,016.6,E*45
$IIGLL,4741.128,N,12226.293,W,210100,A,A*40
$IIMTW,+07.5,C*3A
$IIRMC,210100,A,4741.128,N,12226.293,W,09.4,013,020313,16,E,A*17
$HCHDG,354.3,0.0,E,,*28
$GPRMC,210107.4,A,4741.13193,N,12226.29246,W,009.44,014.4,020313,016.6,E*40
$IIVHW,,,,,08.2,N,,*13
$YXXDR,A,6.2,D,PTCH,A,-1.2,D,ROLL*77
$IIVLW,06187,N,014.7,N*59
$IIDPT,053.3,-1.0,*45
$GPRMC,210107.6,A,4741.13247,N,12226.29226,W,009.43,014.4,020313,016.6,E*49
$GPRMB,A,,,,,4740.4440,N,12220.0640,W,2246.13,17,8.47,*31
$GPRMC,210107.8,A,4741.13293,N,12226.29207,W,009.42,014.8,020313,016.6,E*40
$HCHDG,354.0,0.0,E,,*2B
$YXXDR,A,5.8,D,PTCH,A,-1.2,D,ROLL*7E
$GPRMC,210108.0,A,4741.13345,N,12226.29186,W,009.41,014.9,020313,016.6,E*45
$GPRMC,210108.2,A,4741.13402,N,12226.29174,W,009.41,014.8,020313,016.6,E*4F
$IIGLL,4741.130,N,12226.292,W,210100,A,A*48
$IIMTW,+07.5,C*3A
$IIRMC,210100,A,4741.130,N,12226.292,W,09.4,013,020313,16,E,A*1F
$HCHDG,353.9,0.0,E,,*25
$GPRMC,210108.4,A,4741.13453,N,12226.29156,W,009.44,014.3,020313,016.6,E*43
$IIVHW,,,,,08.3,N,,*12
$YXXDR,A,5.8,D,PTCH,A,-0.3,D,ROLL*7E
$IIVLW,06187,N,014.7,N*59
$IIDPT,053.3,-1.0,*45
$GPRMC,210108.6,A,4741.13504,N,12226.29139,W,009.48,014.6,020313,016.6,E*42
$GPRMB,A,,,,,4740.4440,N,12220.0640,W,2254.49,17,7.54,*30
$GPRMC,210108.8,A,4741.13557,N,12226.29117,W,009.49,014.4,020313,016.6,E*45
$HCHDG,354.3,0.0,E,,*28
$YXXDR,A,5.9,D,PTCH,A,0.4,D,ROLL*55
$GPRMC,210109.0,A,4741.13610,N,12226.29089,W,009.70,014.3,020313,016.6,E*47
$GPRMC,210109.2,A,4741.13658,N,12226.29057,W,009.63,014.1,020313,016.6,E*4A
$IIGLL,4741.133,N,12226.291,W,210100,A,A*48
$IIMTW,+07.5,C*3A
$IIRMC,210100,A,4741.133,N,12226.291,W,09.4,014,020313,16,E,A*18
$HCHDG,354.1,0.0,E,,*2A
$GPRMC,210109.4,A,4741.13712,N,12226.29026,W,009.46,014.2,020313,016.6,E*41
$IIVHW,,,,,08.4,N,,*15
$YXXDR,A,6.1,D,PTCH,A,1.4,D,ROLL*5F
$IIVLW,06187,N,014.7,N*59
$IIDPT,053.3,-1.0,*45
$GPRMC,210109.6,A,4741.13768,N,12226.28995,W,009.46,013.8,020313,016.6,E*43
$GPRMC,210109.8,A,4741.13823,N,12226.28972,W,009.45,013.4,020313,016.6,E*4B
$GPRMB,A,,,,,4740.4440,N,12220.0640,W,2264.81,17,9.05,*3D
$HCHDG,354.3,0.0,E,,*28
$YXXDR,A,5.9,D,PTCH,A,1.9,D,ROLL*59
$GPRMC,210110.0,A,4741.13875,N,12226.28943,W,009.42,013.1,020313,016.6,E*48
$GPRMC,210110.2,A,4741.13924,N,12226.28920,W,009.41,013.0,020313,016.6,E*48
$IIGLL,4741.136,N,12226.290,W,210100,A,A*4C
$IIMTW,+07.5,C*3A
$IIRMC,210100,A,4741.136,N,12226.290,W,09.7,014,020313,16,E,A*1F
$HCHDG,354.2,0.0,E,,*29
$GPRMC,210110.4,A,4741.13967,N,12226.28896,W,009.39,013.0,020313,016.6,E*4A
$IIVHW,,,,,08.5,N,,*14
$YXXDR,A,5.7,D,PTCH,A,2.1,D,ROLL*5C
$IIVLW,06187,N,014.7,N*59
$IIDPT,053.3,-1.0,*45
$GPRMC,210110.6,A,4741.14014,N,12226.28878,W,009.37,013.0,020313,016.6,E*4C
$GPRMC,210110.8,A,4741.14059,N,12226.28866,W,009.37,013.0,020313,016.6,E*44
$HCHDG,354.1,0.0,E,,*2A
$YXXDR,A,5.8,D,PTCH,A,2.3,D,ROLL*51
$GPRMC,210111.0,A,4741.14103,N,12226.28854,W,009.37,012.6,020313,016.6,E*45
$GPRMB,A,,,,,4740.4440,N,12220.0640,W,2273.89,17,-5.10,*16
$GPRMC,210111.2,A,4741.14150,N,12226.28836,W,009.34,012.6,020313,016.6,E*46
$IIGLL,4741.138,N,12226.289,W,210100,A,A*4A
$IIMTW,+07.5,C*3A
$IIRMC,210100,A,4741.138,N,12226.289,W,09.4,013,020313,16,E,A*1D
$HCHDG,354.2,0.0,E,,*29
$GPRMC,210111.4,A,4741.14199,N,12226.28821,W,009.34,012.3,020313,016.6,E*46
$IIVHW,,,,,08.5,N,,*14
$YXXDR,A,5.9,D,PTCH,A,1.7,D,ROLL*57
$IIVLW,06187,N,014.7,N*59
$IIDPT,053.3,-1.0,*45
$GPRMC,210111.6,A,4741.14251,N,12226.28797,W,009.30,012.4,020313,016.6,E*42
$GPRMC,210111.8,A,4741.14299,N,12226.28774,W,009.14,012.5,020313,016.6,E*42
$HCHDG,353.2,0.0,E,,*2E
$YXXDR,A,6.0,D,PTCH,A,0.8,D,ROLL*53
$GPRMC,210112.0,A,4741.14350,N,12226.28761,W,009.15,011.8,020313,016.6,E*46
$GPRMB,A,,,,,4740.4440,N,12220.0640,W,2281.91,17,-5.98,*12
$GPRMC,210112.2,A,4741.14400,N,12226.28747,W,009.12,012.2,020313,016.6,E*4C
$IIGLL,4741.141,N,12226.288,W,210100,A,A*45
$IIMTW,+07.5,C*3A
$IIRMC,210100,A,4741.141,N,12226.288,W,09.3,012,020313,16,E,A*14
$HCHDG,353.2,0.0,E,,*2E
$GPRMC,210112.4,A,4741.14450,N,12226.28733,W,009.14,011.9,020313,016.6,E*42
$IIVHW,,,,,08.5,N,,*14
$YXXDR,A,5.8,D,PTCH,A,1.1,D,ROLL*50
$IIVLW,06187,N,014.7,N*59
$IIDPT,053.3,-1.0,*45
$GPRMC,210112.6,A,4741.14497,N,12226.28717,W,009.09,011.7,020313,016.6,E*4F
$GPRMC,210112.8,A,4741.14543,N,12226.28699,W,009.06,011.6,020313,016.6,E*40
$HCHDG,353.1,0.0,E,,*2D
$YXXDR,A,5.6,D,PTCH,A,0.6,D,ROLL*58
$GPRMC,210113.0,A,4741.14588,N,12226.28687,W,009.03,011.8,020313,016.6,E*4A
$GPRMC,210113.2,A,4741.14633,N,12226.28676,W,008.99,011.8,020313,016.6,E*47
$GPRMB,A,,,,,4740.4440,N,12220.0640,W,2291.12,17,-5.87,*16
$IIGLL,4741.143,N,12226.287,W,210100,A,A*48
$IIMTW,+07.5,C*3A
$IIRMC,210100,A,4741.143,N,12226.287,W,09.1,011,020313,16,E,A*18
$HCHDG,352.9,0.0,E,,*24
$GPRMC,210113.4,A,4741.14680,N,12226.28665,W,008.93,012.1,020313,016.6,E*4B
$IIVHW,,,,,08.4,N,,*15
$YXXDR,A,5.8,D,PTCH,A,0.0,D,ROLL*50
$IIVLW,06187,N,014.7,N*59
$IIDPT,053.3,-1.0,*45
$GPRMC,210113.6,A,4741.14733,N,12226.28649,W,008.91,011.9,020313,016.6,E*47
$GPRMC,210113.8,A,4741.14791,N,12226.28625,W,008.86,012.2,020313,016.6,E*45
$HCHDG,353.0,0.0,E,,*2C
$YXXDR,A,5.8,D,PTCH,A,-0.8,D,ROLL*75
$GPRMC,210114.0,A,4741.14843,N,12226.28606,W,008.86,012.8,020313,016.6,E*41
$GPRMC,210114.2,A,4741.14896,N,12226.28595,W,008.83,012.6,020313,016.6,E*49
$GPRMB,A,,,,,4740.4440,N,12220.0640,W,2299.67,17,-4.80,*1A
$IIGLL,4741.145,N,12226.286,W,210100,A,A*4F
$IIMTW,+07.5,C*3A
$IIRMC,210100,A,4741.145,N,12226.286,W,09.0,011,020313,16,E,A*1E
$HCHDG,352.5,0.0,E,,*28
$GPRMC,210114.4,A,4741.14951,N,12226.28574,W,008.81,012.9,020313,016.6,E*47
$IIVHW,,,,,08.3,N,,*12
$YXXDR,A,5.8,D,PTCH,A,-1.8,D,ROLL*74
$IIVLW,06187,N,014.7,N*59
$IIDPT,053.3,-1.0,*45
$GPRMC,210114.6,A,4741.15007,N,12226.28557,W,008.80,013.2,020313,016.6,E*44
$GPRMC,210114.8,A,4741.15056,N,12226.28533,W,008.78,012.4,020313,016.6,E*4C
$HCHDG,352.7,0.0,E,,*2A
$YXXDR,A,5.8,D,PTCH,A,-1.6,D,ROLL*7A
$GPRMC,210115.0,A,4741.15098,N,12226.28506,W,008.73,012.9,020313,016.6,E*47
$GPRMC,210115.2,A,4741.15147,N,12226.28489,W,008.72,012.8,020313,016.6,E*40
$IIGLL,4741.148,N,12226.286,W,210100,A,A*42
$IIMTW,+07.5,C*3A
$IIRMC,210100,A,4741.148,N,12226.286,W,08.8,012,020313,16,E,A*19
$HCHDG,353.9,0.0,E,,*25
$GPRMC,210115.4,A,4741.15196,N,12226.28478,W,008.55,012.2,020313,016.6,E*4B
$GPRMB,A,,,,,4740.4440,N,12220.0640,W,2309.41,17,8.53,*39
$IIVHW,,,,,08.3,N,,*12
$YXXDR,A,5.6,D,PTCH,A,-1.8,D,ROLL*7A
$IIVLW,06187,N,014.7,N*59
$IIDPT,053.3,-1.0,*45
$GPRMC,210115.6,A,4741.15247,N,12226.28468,W,008.58,013.1,020313,016.6,E*48
$GPRMC,210115.8,A,4741.15301,N,12226.28447,W,008.57,013.5,020313,016.6,E*43
$HCHDG,353.9,0.0,E,,*25
$YXXDR,A,5.5,D,PTCH,A,-3.1,D,ROLL*72
$GPRMC,210116.0,A,4741.15353,N,12226.28421,W,008.60,013.9,020313,016.6,E*47
$GPRMC,210116.2,A,4741.15401,N,12226.28400,W,008.57,014.5,020313,016.6,E*49
$IIGLL,4741.150,N,12226.285,W,210100,A,A*48
$IIMTW,+07.5,C*3A
$IIRMC,210100,A,4741.150,N,12226.285,W,08.7,012,020313,16,E,A*1C
$HCHDG,353.0,0.0,E,,*2C
$GPRMC,210116.4,A,4741.15449,N,12226.28376,W,008.58,015.4,020313,016.6,E*4A
$IIVHW,,,,,08.2,N,,*13
$YXXDR,A,5.9,D,PTCH,A,-4.1,D,ROLL*79
$IIVLW,06187,N,014.7,N*59
$IIDPT,053.3,-1.0,*45
$GPRMC,210116.6,A,4741.15500,N,12226.28349,W,008.56,015.5,020313,016.6,E*47
$GPRMB,A,,,,,4740.4440,N,12220.0640,W,2319.27,17,6.82,*3A
$GPRMC,210116.8,A,4741.15551,N,12226.28326,W,008.55,015.4,020313,016.6,E*46
$HCHDG,353.3,0.0,E,,*2F
$YXXDR,A,5.7,D,PTCH,A,-3.2,D,ROLL*73
$GPRMC,210117.0,A,4741.15597,N,12226.28312,W,008.56,015.5,020313,016.6,E*40
$GPRMC,210117.2,A,4741.15644,N,12226.28296,W,008.58,015.9,020313,016.6,E*40
$IIGLL,4741.153,N,12226.284,W,210100,A,A*4A
$IIMTW,+07.5,C*3A
$IIRMC,210100,A,4741.153,N,12226.284,W,08.6,013,020313,16,E,A*1E
$HCHDG,353.6,0.0,E,,*2A
$GPRMC,210117.4,A,4741.15692,N,12226.28281,W,008.60,016.0,020313,016.6,E*4A
$IIVHW,,,,,08.1,N,,*10
$YXXDR,A,5.6,D,PTCH,A,-2.5,D,ROLL*74
$IIVLW,06187,N,014.7,N*59
$IIDPT,051.5,-1.0,*41
$GPRMC,210117.6,A,4741.15739,N,12226.28265,W,008.60,015.7,020313,016.6,E*46
$GPRMB,A,,,,,4740.4440,N,12220.0640,W,2327.04,17,7.71,*3B
$GPRMC,210117.8,A,4741.15788,N,12226.28251,W,008.78,016.5,020313,016.6,E*4D
$HCHDG,354.1,0.0,E,,*2A
$YXXDR,A,6.0,D,PTCH,A,-1.9,D,ROLL*7E
$GPRMC,210118.0,A,4741.15837,N,12226.28234,W,008.78,015.9,020313,016.6,E*4D
$GPRMC,210118.2,A,4741.15884,N,12226.28218,W,008.83,015.8,020313,016.6,E*4C
$HCHDG,354.4,0.0,E,,*2F
$GPRMC,210118.4,A,4741.15926,N,12226.28199,W,008.80,015.7,020313,016.6,E*45
$YXXDR,A,6.1,D,PTCH,A,-0.5,D,ROLL*72
$GPRMC,210118.6,A,4741.15972,N,12226.28184,W,009.05,015.3,020313,016.6,E*42
$GPRMC,210118.8,A,4741.16015,N,12226.28167,W,008.99,015.2,020313,016.6,E*4F
$GPRMB,A,,,,,4740.4440,N,12220.0640,W,2336.00,17,-6.05,*10
$HCHDG,354.9,0.0,E,,*22
$YXXDR,A,6.3,D,PTCH,A,0.6,D,ROLL*5E
$GPRMC,210119.0,A,4741.16062,N,12226.28152,W,009.02,015.0,020313,016.6,E*41
$GPRMC,210119.2,A,4741.16108,N,12226.28138,W,009.06,014.9,020313,016.6,E*4E
$IIGLL,4741.155,N,12226.283,W,210100,A,A*4B
$IIMTW,+07.5,C*3A
$IIRMC,210100,A,4741.155,N,12226.283,W,08.5,015,020313,16,E,A*1A
