$GPRMB,A,,,,,4740.4440,N,12220.0640,W,1402.21,17,-2.41,*14
$HCHDG,205.1,0.0,E,,*2F
$YXXDR,A,3.7,D,PTCH,A,31.2,D,ROLL*69
$GPRMC,190001.0,A,4740.98003,N,12224.74855,W,006.09,232.5,020313,016.6,E*41
$GPRMC,190001.2,A,4740.97978,N,12224.74895,W,006.10,232.3,020313,016.6,E*4B
$IIVHW,,,,,00.0,N,,*19
$HCHDG,204.4,0.0,E,,*2B
$IIVLW,06181,N,008.4,N*51
$YXXDR,A,3.9,D,PTCH,A,32.5,D,ROLL*63
$GPRMC,190001.4,A,4740.97953,N,12224.74935,W,006.07,232.2,020313,016.6,E*48
$GPRMB,A,,,,,4740.4440,N,12220.0640,W,1400.21,17,1.93,*37
$IIDPT,023.0,-1.0,*41
$IIGLL,4740.981,N,12224.746,W,190000,A,A*4F
$IIMTW,+07.5,C*3A
$GPRMC,190001.6,A,4740.97927,N,12224.74970,W,006.01,230.5,020313,016.6,E*4B
$IIRMC,190000,A,4740.981,N,12224.746,W,05.7,230,020313,16,E,A*14
$GPRMC,190001.8,A,4740.97899,N,12224.75006,W,006.00,229.9,020313,016.6,E*4D
$HCHDG,202.1,0.0,E,,*28
$YXXDR,A,3.8,D,PTCH,A,34.5,D,ROLL*64
$GPRMC,190002.0,A,4740.97874,N,12224.75042,W,005.98,228.6,020313,016.6,E*49
$GPRMC,190002.2,A,4740.97847,N,12224.75077,W,005.39,227.1,020313,016.6,E*4E
$IIVHW,,,,,00.0,N,,*19
$HCHDG,198.6,0.0,E,,*2F
$IIVLW,06181,N,008.4,N*51
$YXXDR,A,3.5,D,PTCH,A,35.3,D,ROLL*6E
$GPRMC,190002.4,A,4740.97822,N,12224.75108,W,005.34,223.0,020313,016.6,E*4A
$IIDPT,023.0,-1.0,*41
$IIGLL,4740.978,N,12224.750,W,190000,A,A*4E
$IIMTW,+07.5,C*3A
$GPRMC,190002.6,A,4740.97798,N,12224.75143,W,005.35,221.3,020313,016.6,E*49
$GPRMB,A,,,,,4740.4440,N,12220.0640,W,1395.87,17,1.74,*39
$IIRMC,190000,A,4740.978,N,12224.750,W,05.9,228,020313,16,E,A*12
$GPRMC,190002.8,A,4740.97770,N,12224.75175,W,005.57,219.0,020313,016.6,E*48
$HCHDG,195.3,0.0,E,,*27
$YXXDR,A,3.3,D,PTCH,A,35.1,D,ROLL*6A
$GPRMC,190003.0,A,4740.97744,N,12224.75206,W,005.76,220.2,020313,016.6,E*4A
$GPRMC,190003.2,A,4740.97717,N,12224.75233,W,005.82,218.5,020313,016.6,E*4F
$IIVHW,,,,,00.0,N,,*19
$HCHDG,196.8,0.0,E,,*2F
$IIVLW,06181,N,008.4,N*51
$YXXDR,A,3.7,D,PTCH,A,30.6,D,ROLL*6C
$GPRMC,190003.4,A,4740.97693,N,12224.75267,W,005.76,220.4,020313,016.6,E*44
$IIDPT,023.0,-1.0,*41
$IIGLL,4740.977,N,12224.752,W,190000,A,A*43
$IIMTW,+07.5,C*3A
$GPRMC,190003.6,A,4740.97666,N,12224.75304,W,005.49,219.1,020313,016.6,E*4B
$IIRMC,190000,A,4740.977,N,12224.752,W,05.7,220,020313,16,E,A*19
$GPRMC,190003.8,A,4740.97640,N,12224.75336,W,005.47,221.2,020313,016.6,E*46
$GPRMB,A,,,,,4740.4440,N,12220.0640,W,1391.40,17,4.23,*31
$HCHDG,197.1,0.0,E,,*27
$YXXDR,A,3.6,D,PTCH,A,28.3,D,ROLL*61
$GPRMC,190004.0,A,4740.97629,N,12224.75369,W,005.64,216.2,020313,016.6,E*49
$GPRMC,190004.2,A,4740.97615,N,12224.75409,W,006.10,217.1,020313,016.6,E*47
$IIVHW,,,,,00.0,N,,*19
$HCHDG,199.4,0.0,E,,*2C
$IIVLW,06181,N,008.4,N*51
$YXXDR,A,4.7,D,PTCH,A,23.0,D,ROLL*6F
$GPRMC,190004.4,A,4740.97589,N,12224.75445,W,005.76,218.6,020313,016.6,E*44
$IIDPT,024.1,-1.0,*47
$IIGLL,4740.977,N,12224.752,W,190000,A,A*43
$IIMTW,+07.5,C*3A
$GPRMC,190004.6,A,4740.97566,N,12224.75480,W,006.00,219.9,020313,016.6,E*42
$IIRMC,190000,A,4740.977,N,12224.752,W,05.7,220,020313,16,E,A*19
$GPRMC,190004.8,A,4740.97543,N,12224.75516,W,006.02,220.6,020313,016.6,E*42
$HCHDG,202.5,0.0,E,,*2C
$YXXDR,A,5.1,D,PTCH,A,22.0,D,ROLL*69
$GPRMC,190005.0,A,4740.97518,N,12224.75551,W,006.07,220.0,020313,016.6,E*45
$GPRMB,A,,,,,4740.4440,N,12220.0640,W,1388.15,17,5.75,*3B
$GPRMC,190005.2,A,4740.97502,N,12224.75589,W,006.06,222.1,020313,016.6,E*4B
$IIVHW,,,,,00.0,N,,*19
$HCHDG,203.5,0.0,E,,*2D
$IIVLW,06181,N,008.4,N*51
$YXXDR,A,4.7,D,PTCH,A,23.0,D,ROLL*6F
$GPRMC,190005.4,A,4740.97491,N,12224.75631,W,005.77,222.6,020313,016.6,E*44
$IIDPT,023.4,-1.0,*45
$IIGLL,4740.975,N,12224.755,W,190000,A,A*46
$IIMTW,+07.5,C*3A
$GPRMC,190005.6,A,4740.97472,N,12224.75669,W,005.75,229.0,020313,016.6,E*49
$IIRMC,190000,A,4740.975,N,12224.755,W,06.0,220,020313,16,E,A*18
$GPRMC,190005.8,A,4740.97448,N,12224.75700,W,005.99,227.0,020313,016.6,E*4C
$HCHDG,205.2,0.0,E,,*2C
$YXXDR,A,4.5,D,PTCH,A,22.5,D,ROLL*69
$GPRMC,190006.0,A,4740.97423,N,12224.75736,W,006.06,229.5,020313,016.6,E*41
$GPRMB,A,,,,,4740.4440,N,12220.0640,W,1385.67,17,-5.35,*1A
$GPRMC,190006.2,A,4740.97401,N,12224.75769,W,005.82,231.3,020313,016.6,E*49
$IIVHW,,,,,00.0,N,,*19
$HCHDG,207.3,0.0,E,,*2F
$IIVLW,06181,N,008.4,N*51
$YXXDR,A,4.7,D,PTCH,A,22.1,D,ROLL*6F
$GPRMC,190006.4,A,4740.97378,N,12224.75802,W,005.80,229.6,020313,016.6,E*4A
$IIDPT,023.2,-1.0,*43
$IIGLL,4740.975,N,12224.755,W,190000,A,A*46
$IIMTW,+07.5,C*3A
$GPRMC,190006.6,A,4740.97356,N,12224.75832,W,006.05,229.0,020313,016.6,E*4F
$IIRMC,190000,A,4740.975,N,12224.755,W,06.0,220,020313,16,E,A*18
$GPRMC,190006.8,A,4740.97332,N,12224.75864,W,005.76,228.8,020313,016.6,E*4E
$HCHDG,203.9,0.0,E,,*21
$YXXDR,A,4.0,D,PTCH,A,26.8,D,ROLL*65
$GPRMC,190007.0,A,4740.97307,N,12224.75895,W,005.83,227.5,020313,016.6,E*47
$GPRMB,A,,,,,4740.4440,N,12220.0640,W,1382.44,17,-3.13,*1E
$GPRMC,190007.2,A,4740.97282,N,12224.75929,W,006.03,228.1,020313,016.6,E*4F
$IIVHW,,,,,00.0,N,,*19
$HCHDG,201.4,0.0,E,,*2E
$IIVLW,06181,N,008.4,N*51
$YXXDR,A,4.5,D,PTCH,A,27.5,D,ROLL*6C
$GPRMC,190007.4,A,4740.97263,N,12224.75966,W,005.96,227.2,020313,016.6,E*4E
$IIDPT,023.4,-1.0,*45
$IIGLL,4740.973,N,12224.758,W,190000,A,A*4D
$IIMTW,+07.5,C*3A
$GPRMC,190007.6,A,4740.97240,N,12224.76001,W,005.92,227.0,020313,016.6,E*40
$IIRMC,190000,A,4740.973,N,12224.758,W,05.8,227,020313,16,E,A*1F
$GPRMC,190007.8,A,4740.97222,N,12224.76024,W,005.89,223.6,020313,016.6,E*45
$HCHDG,196.8,0.0,E,,*2F
$YXXDR,A,4.4,D,PTCH,A,29.0,D,ROLL*66
$GPRMC,190008.0,A,4740.97201,N,12224.76056,W,005.58,224.5,020313,016.6,E*4E
$GPRMC,190008.2,A,4740.97178,N,12224.76087,W,005.86,222.6,020313,016.6,E*4B
$GPRMB,A,,,,,4740.4440,N,12220.0640,W,1378.89,17,-3.21,*1B
$IIVHW,,,,,00.0,N,,*19
$HCHDG,191.3,0.0,E,,*23
$IIVLW,06181,N,008.4,N*51
$YXXDR,A,4.8,D,PTCH,A,28.0,D,ROLL*6B
$GPRMC,190008.4,A,4740.97155,N,12224.76116,W,005.66,221.0,020313,016.6,E*40
$IIDPT,023.4,-1.0,*45
$IIGLL,4740.972,N,12224.760,W,190000,A,A*47
$IIMTW,+07.5,C*3A
$GPRMC,190008.6,A,4740.97129,N,12224.76135,W,005.68,220.0,020313,016.6,E*47
$IIRMC,190000,A,4740.972,N,12224.760,W,05.5,224,020313,16,E,A*1B
$GPRMC,190008.8,A,4740.97105,N,12224.76157,W,006.11,217.5,020313,016.6,E*4F
$HCHDG,185.8,0.0,E,,*2D
$YXXDR,A,5.1,D,PTCH,A,24.7,D,ROLL*68
$GPRMC,190009.0,A,4740.97080,N,12224.76182,W,005.86,215.4,020313,016.6,E*4C
$GPRMC,190009.2,A,4740.97055,N,12224.76202,W,005.45,209.5,020313,016.6,E*4E
$IIVHW,,,,,00.0,N,,*19
$HCHDG,177.2,0.0,E,,*2A
$IIVLW,06181,N,008.4,N*51
$YXXDR,A,6.1,D,PTCH,A,23.8,D,ROLL*63
$GPRMC,190009.4,A,4740.97030,N,12224.76224,W,005.40,208.8,020313,016.6,E*46
$GPRMB,A,,,,,4740.4440,N,12220.0640,W,1374.57,17,2.21,*38
$IIDPT,023.4,-1.0,*45
$IIGLL,4740.970,N,12224.761,W,190000,A,A*44
$IIMTW,+07.5,C*3A
$GPRMC,190009.6,A,4740.97005,N,12224.76242,W,005.04,205.8,020313,016.6,E*4F
$IIRMC,190000,A,4740.970,N,12224.761,W,05.8,215,020313,16,E,A*17
$GPRMC,190009.8,A,4740.96977,N,12224.76252,W,004.83,202.4,020313,016.6,E*48
$HCHDG,167.2,0.0,E,,*2B
$YXXDR,A,6.3,D,PTCH,A,20.7,D,ROLL*6D
$GPRMC,190010.0,A,4740.96953,N,12224.76261,W,005.03,200.1,020313,016.6,E*40
$GPRMC,190010.2,A,4740.96928,N,12224.76267,W,004.99,193.1,020313,016.6,E*43
$IIVHW,,,,,00.0,N,,*19
$HCHDG,157.6,0.0,E,,*2C
$IIVLW,06181,N,008.4,N*51
$YXXDR,A,7.0,D,PTCH,A,16.6,D,ROLL*6B
$GPRMC,190010.4,A,4740.96888,N,12224.76288,W,004.98,189.1,020313,016.6,E*45
$GPRMB,A,,,,,4740.4440,N,12220.0640,W,1370.23,17,2.27,*39
$IIDPT,023.4,-1.0,*45
$IIGLL,4740.969,N,12224.762,W,190000,A,A*4F
$IIMTW,+07.5,C*3A
$GPRMC,190010.6,A,4740.96842,N,12224.76313,W,005.01,186.9,020313,016.6,E*44
$IIRMC,190000,A,4740.969,N,12224.762,W,05.0,200,020313,16,E,A*10
$GPRMC,190010.8,A,4740.96814,N,12224.76320,W,004.82,184.0,020313,016.6,E*48
$HCHDG,148.8,0.0,E,,*2C
$YXXDR,A,6.6,D,PTCH,A,10.5,D,ROLL*69
$GPRMC,190011.0,A,4740.96780,N,12224.76330,W,004.86,183.2,020313,016.6,E*43
$GPRMC,190011.2,A,4740.96746,N,12224.76342,W,004.65,180.2,020313,016.6,E*40
$IIVHW,,,,,00.0,N,,*19
$HCHDG,141.8,0.0,E,,*25
$IIVLW,06181,N,008.4,N*51
$YXXDR,A,6.5,D,PTCH,A,2.6,D,ROLL*5A
$GPRMC,190011.4,A,4740.96721,N,12224.76345,W,004.66,173.2,020313,016.6,E*4F
$IIDPT,023.4,-1.0,*45
$IIGLL,4740.967,N,12224.763,W,190000,A,A*40
$IIMTW,+07.5,C*3A
$GPRMC,190011.6,A,4740.96695,N,12224.76341,W,004.70,168.7,020313,016.6,E*4F
$GPRMB,A,,,,,4740.4440,N,12220.0640,W,1364.22,17,2.78,*37
$IIRMC,190000,A,4740.967,N,12224.763,W,04.8,183,020313,16,E,A*1E
$GPRMC,190011.8,A,4740.96663,N,12224.76340,W,004.64,165.3,020313,016.6,E*45
$HCHDG,129.4,0.0,E,,*27
$YXXDR,A,8.2,D,PTCH,A,4.2,D,ROLL*51
$GPRMC,190012.0,A,4740.96642,N,12224.76326,W,004.31,158.8,020313,016.6,E*48
$GPRMC,190012.2,A,4740.96617,N,12224.76312,W,004.25,147.8,020313,016.6,E*46
$IIVHW,,,,,00.0,N,,*19
$HCHDG,124.9,0.0,E,,*27
$IIVLW,06181,N,008.4,N*51
$YXXDR,A,6.0,D,PTCH,A,2.0,D,ROLL*59
$GPRMC,190012.4,A,4740.96596,N,12224.76294,W,004.24,153.0,020313,016.6,E*49
$IIDPT,021.6,-1.0,*45
$IIGLL,4740.966,N,12224.763,W,190000,A,A*41
$IIMTW,+07.5,C*3A
$GPRMC,190012.6,A,4740.96574,N,12224.76276,W,004.25,153.0,020313,016.6,E*4A
$GPRMB,A,,,,,4740.4440,N,12220.0640,W,1360.16,17,4.22,*3D
$IIRMC,190000,A,4740.966,N,12224.763,W,04.3,158,020313,16,E,A*12
$GPRMC,190012.8,A,4740.96555,N,12224.76258,W,004.19,150.2,020313,016.6,E*45
$HCHDG,126.4,0.0,E,,*28
$YXXDR,A,4.5,D,PTCH,A,-1.1,D,ROLL*71
$GPRMC,190013.0,A,4740.96535,N,12224.76237,W,004.19,147.5,020313,016.6,E*42
$GPRMC,190013.2,A,4740.96516,N,12224.76218,W,004.18,145.9,020313,016.6,E*43
$IIVHW,,,,,00.0,N,,*19
$HCHDG,128.0,0.0,E,,*22
$IIVLW,06181,N,008.4,N*51
$YXXDR,A,4.4,D,PTCH,A,-1.6,D,ROLL*77
$GPRMC,190013.4,A,4740.96501,N,12224.76201,W,004.14,151.9,020313,016.6,E*42
$IIDPT,021.4,-1.0,*47
$IIGLL,4740.965,N,12224.762,W,190000,A,A*43
$IIMTW,+07.5,C*3A
$GPRMC,190013.6,A,4740.96478,N,12224.76159,W,004.11,147.2,020313,016.6,E*48
$GPRMB,A,,,,,4740.4440,N,12220.0640,W,1356.74,17,3.43,*3C
$IIRMC,190000,A,4740.965,N,12224.762,W,04.1,147,020313,16,E,A*1C
$GPRMC,190013.8,A,4740.96459,N,12224.76119,W,003.83,146.5,020313,016.6,E*4B
$HCHDG,127.2,0.0,E,,*2F
$YXXDR,A,5.1,D,PTCH,A,-0.1,D,ROLL*75
$GPRMC,190014.0,A,4740.96444,N,12224.76093,W,004.19,144.0,020313,016.6,E*48
$GPRMC,190014.2,A,4740.96433,N,12224.76066,W,004.11,140.5,020313,016.6,E*49
$IIVHW,,,,,00.0,N,,*19
$HCHDG,124.7,0.0,E,,*29
$IIVLW,06181,N,008.4,N*51
$YXXDR,A,5.4,D,PTCH,A,1.4,D,ROLL*59
$GPRMC,190014.4,A,4740.96416,N,12224.76038,W,004.09,140.1,020313,016.6,E*4E
$IIDPT,021.4,-1.0,*47
$IIGLL,4740.964,N,12224.760,W,190000,A,A*40
$IIMTW,+07.5,C*3A
$GPRMC,190014.6,A,4740.96403,N,12224.76009,W,004.10,140.6,020313,016.6,E*45
$GPRMB,A,,,,,4740.4440,N,12220.0640,W,1353.89,17,3.43,*3B
$IIRMC,190000,A,4740.964,N,12224.760,W,04.1,144,020313,16,E,A*1C
$GPRMC,190014.8,A,4740.96391,N,12224.75979,W,004.16,136.9,020313,016.6,E*42
$HCHDG,121.3,0.0,E,,*28
$YXXDR,A,5.9,D,PTCH,A,1.2,D,ROLL*52
$GPRMC,190015.0,A,4740.96376,N,12224.75947,W,004.57,129.1,020313,016.6,E*4C
$GPRMC,190015.2,A,4740.96364,N,12224.75913,W,004.50,130.8,020313,016.6,E*4A
$IIVHW,,,,,00.0,N,,*19
$HCHDG,118.0,0.0,E,,*21
$IIVLW,06181,N,008.4,N*51
$YXXDR,A,5.6,D,PTCH,A,0.8,D,ROLL*56
$GPRMC,190015.4,A,4740.96356,N,12224.75875,W,004.49,126.3,020313,016.6,E*48
$IIDPT,021.4,-1.0,*47
$IIGLL,4740.963,N,12224.759,W,190000,A,A*4D
$IIMTW,+07.5,C*3A
$GPRMC,190015.6,A,4740.96351,N,12224.75833,W,004.53,125.2,020313,016.6,E*46
$IIRMC,190000,A,4740.963,N,12224.759,W,04.5,129,020313,16,E,A*1E
$GPRMC,190015.8,A,4740.96342,N,12224.75796,W,004.70,124.7,020313,016.6,E*4F
$GPRMB,A,,,,,4740.4440,N,12220.0640,W,1351.30,17,4.08,*33
$HCHDG,115.6,0.0,E,,*2A
$YXXDR,A,6.0,D,PTCH,A,0.0,D,ROLL*5B
$GPRMC,190016.0,A,4740.96330,N,12224.75763,W,004.49,122.9,020313,016.6,E*49
$GPRMC,190016.2,A,4740.96321,N,12224.75725,W,004.98,122.0,020313,016.6,E*4C
$IIVHW,,,,,00.0,N,,*19
$HCHDG,115.6,0.0,E,,*2A
$IIVLW,06181,N,008.4,N*51
$YXXDR,A,5.3,D,PTCH,A,-2.4,D,ROLL*70
$GPRMC,190016.4,A,4740.96310,N,12224.75691,W,004.69,119.2,020313,016.6,E*42
$IIDPT,021.3,-1.0,*40
$IIGLL,4740.963,N,12224.759,W,190000,A,A*4D
$IIMTW,+07.5,C*3A
$GPRMC,190016.6,A,4740.96301,N,12224.75655,W,004.66,120.1,020313,016.6,E*4E
$IIRMC,190000,A,4740.963,N,12224.759,W,04.5,129,020313,16,E,A*1E
$GPRMC,190016.8,A,4740.96292,N,12224.75615,W,004.92,117.8,020313,016.6,E*49
$HCHDG,116.4,0.0,E,,*2B
$YXXDR,A,4.8,D,PTCH,A,-6.4,D,ROLL*7E
$GPRMC,190017.0,A,4740.96278,N,12224.75583,W,004.73,120.6,020313,016.6,E*4D
$GPRMB,A,,,,,4740.4440,N,12220.0640,W,1348.61,17,-4.65,*19
$GPRMC,190017.2,A,4740.96266,N,12224.75548,W,005.02,119.3,020313,016.6,E*4F
$IIVHW,,,,,00.0,N,,*19
$HCHDG,117.9,0.0,E,,*27
$IIVLW,06181,N,008.4,N*51
$YXXDR,A,4.8,D,PTCH,A,-11.1,D,ROLL*4D
$GPRMC,190017.4,A,4740.96257,N,12224.75514,W,004.69,120.9,020313,016.6,E*4E
$IIDPT,021.3,-1.0,*40
$IIGLL,4740.962,N,12224.755,W,190000,A,A*40
$IIMTW,+07.5,C*3A
$GPRMC,190017.6,A,4740.96246,N,12224.75480,W,004.87,123.5,020313,016.6,E*4F
$IIRMC,190000,A,4740.962,N,12224.755,W,04.7,120,020313,16,E,A*18
$GPRMC,190017.8,A,4740.96234,N,12224.75449,W,004.90,125.2,020313,016.6,E*46
$HCHDG,119.3,0.0,E,,*23
$YXXDR,A,4.4,D,PTCH,A,-17.5,D,ROLL*43
$GPRMC,190018.0,A,4740.96221,N,12224.75413,W,004.97,128.7,020313,016.6,E*45
$GPRMB,A,,,,,4740.4440,N,12220.0640,W,1346.28,17,-3.89,*1F
$GPRMC,190018.2,A,4740.96206,N,12224.75378,W,005.16,129.4,020313,016.6,E*42
$IIVHW,,,,,00.0,N,,*19
$HCHDG,119.9,0.0,E,,*29
$IIVLW,06181,N,008.4,N*51
$YXXDR,A,5.0,D,PTCH,A,-16.9,D,ROLL*4B
$GPRMC,190018.4,A,4740.96190,N,12224.75343,W,005.10,129.2,020313,016.6,E*40
$IIDPT,021.3,-1.0,*40
$IIGLL,4740.962,N,12224.754,W,190000,A,A*41
$IIMTW,+07.5,C*3A
$GPRMC,190018.6,A,4740.96178,N,12224.75306,W,005.10,129.7,020313,016.6,E*40
$IIRMC,190000,A,4740.962,N,12224.754,W,04.9,128,020313,16,E,A*1F
$GPRMC,190018.8,A,4740.96160,N,12224.75274,W,005.27,128.5,020313,016.6,E*44
$HCHDG,119.3,0.0,E,,*23
$YXXDR,A,4.2,D,PTCH,A,-15.7,D,ROLL*45
$GPRMC,190019.0,A,4740.96145,N,12224.75239,W,005.23,127.9,020313,016.6,E*44
$GPRMB,A,,,,,4740.4440,N,12220.0640,W,1343.32,17,4.27,*3F
$GPRMC,190019.2,A,4740.96130,N,12224.75201,W,005.56,124.4,020313,016.6,E*43
$IIVHW,,,,,00.0,N,,*19
$HCHDG,117.9,0.0,E,,*27
$IIVLW,06181,N,008.4,N*51
$YXXDR,A,4.8,D,PTCH,A,-13.0,D,ROLL*4E
$GPRMC,190019.4,A,4740.96115,N,12224.75165,W,005.24,122.6,020313,016.6,E*42
$IIDPT,021.3,-1.0,*40
$IIGLL,4740.961,N,12224.752,W,190000,A,A*44
$IIMTW,+07.5,C*3A
$GPRMC,190019.6,A,4740.96100,N,12224.75128,W,005.27,124.4,020313,016.6,E*4A
$IIRMC,190000,A,4740.961,N,12224.752,W,05.2,127,020313,16,E,A*1F
$GPRMC,190019.8,A,4740.96085,N,12224.75091,W,005.53,124.8,020313,016.6,E*44
$HCHDG,118.0,0.0,E,,*21
$YXXDR,A,4.6,D,PTCH,A,-14.0,D,ROLL*47
$GPRMC,190020.0,A,4740.96067,N,12224.75056,W,005.53,125.6,020313,016.6,E*4E
$GPRMB,A,,,,,4740.4440,N,12220.0640,W,1340.28,17,3.92,*3E
$GPRMC,190020.2,A,4740.96049,N,12224.75020,W,005.59,126.4,020313,016.6,E*4A
$IIVHW,,,,,00.0,N,,*19
$HCHDG,119.4,0.0,E,,*24
$IIVLW,06181,N,008.4,N*51
$YXXDR,A,4.1,D,PTCH,A,-15.4,D,ROLL*45
$GPRMC,190020.4,A,4740.96031,N,12224.74982,W,005.55,128.5,020313,016.6,E*40
$IIDPT,021.3,-1.0,*40
$IIGLL,4740.960,N,12224.750,W,190000,A,A*47
$IIMTW,+07.5,C*3A
$GPRMC,190020.6,A,4740.96009,N,12224.74948,W,005.56,128.4,020313,016.6,E*4D
$IIRMC,190000,A,4740.960,N,12224.750,W,05.5,125,020313,16,E,A*19
$GPRMC,190020.8,A,4740.95992,N,12224.74912,W,005.60,129.1,020313,016.6,E*45
$HCHDG,120.5,0.0,E,,*2F
$YXXDR,A,4.1,D,PTCH,A,-17.0,D,ROLL*43
$GPRMC,190021.0,A,4740.95973,N,12224.74874,W,005.80,129.9,020313,016.6,E*44
$GPRMC,190021.2,A,4740.95956,N,12224.74838,W,005.61,130.7,020313,016.6,E*40
$GPRMB,A,,,,,4740.4440,N,12220.0640,W,1336.08,17,-3.81,*12
$IIVHW,,,,,00.0,N,,*19
$HCHDG,122.3,0.0,E,,*2B
$IIVLW,06181,N,008.4,N*51
$YXXDR,A,4.5,D,PTCH,A,-17.1,D,ROLL*46
$GPRMC,190021.4,A,4740.95935,N,12224.74805,W,005.68,131.5,020313,016.6,E*47
$IIDPT,021.3,-1.0,*40
$IIGLL,4740.959,N,12224.748,W,190000,A,A*44
$IIMTW,+07.5,C*3A
$GPRMC,190021.6,A,4740.95917,N,12224.74775,W,005.73,132.0,020313,016.6,E*41
$IIRMC,190000,A,4740.959,N,12224.748,W,05.8,129,020313,16,E,A*1B
$GPRMC,190021.8,A,4740.95900,N,12224.74735,W,005.76,136.0,020313,016.6,E*4C
$HCHDG,124.2,0.0,E,,*2C
$YXXDR,A,4.4,D,PTCH,A,-17.7,D,ROLL*41
$GPRMC,190022.0,A,4740.95880,N,12224.74699,W,005.70,137.4,020313,016.6,E*4A
$GPRMC,190022.2,A,4740.95859,N,12224.74665,W,005.64,137.6,020313,016.6,E*48
$IIVHW,,,,,00.0,N,,*19
$HCHDG,126.1,0.0,E,,*2D
$IIVLW,06181,N,008.4,N*51
$YXXDR,A,3.9,D,PTCH,A,-18.9,D,ROLL*4A
$GPRMC,190022.4,A,4740.95837,N,12224.74628,W,006.09,137.8,020313,016.6,E*49
$GPRMB,A,,,,,4740.4440,N,12220.0640,W,1331.65,17,-4.32,*11
$IIDPT,021.3,-1.0,*40
$IIGLL,4740.958,N,12224.746,W,190000,A,A*4B
$IIMTW,+07.5,C*3A
$GPRMC,190022.6,A,4740.95818,N,12224.74592,W,005.79,137.3,020313,016.6,E*4B
$IIRMC,190000,A,4740.958,N,12224.746,W,05.7,137,020313,16,E,A*14
$GPRMC,190022.8,A,4740.95793,N,12224.74563,W,005.77,136.6,020313,016.6,E*4D
$HCHDG,123.7,0.0,E,,*2E
$YXXDR,A,4.2,D,PTCH,A,-13.0,D,ROLL*44
$GPRMC,190023.0,A,4740.95774,N,12224.74528,W,006.03,136.2,020313,016.6,E*46
$GPRMC,190023.2,A,4740.95753,N,12224.74490,W,005.87,136.2,020313,016.6,E*4C
$IIVHW,,,,,00.0,N,,*19
$HCHDG,122.7,0.0,E,,*2F
$IIVLW,06181,N,008.4,N*51
$YXXDR,A,4.1,D,PTCH,A,-13.3,D,ROLL*44
$GPRMC,190023.4,A,4740.95733,N,12224.74452,W,005.91,134.5,020313,016.6,E*40
$IIDPT,021.3,-1.0,*40
$IIGLL,4740.957,N,12224.745,W,190000,A,A*47
$IIMTW,+07.5,C*3A
$GPRMC,190023.6,A,4740.95720,N,12224.74414,W,005.95,134.3,020313,016.6,E*40
$GPRMB,A,,,,,4740.4440,N,12220.0640,W,1327.27,17,-5.76,*11
$IIRMC,190000,A,4740.957,N,12224.745,W,06.0,136,020313,16,E,A*1D
$GPRMC,190023.8,A,4740.95706,N,12224.74373,W,005.98,134.3,020313,016.6,E*41
$HCHDG,121.8,0.0,E,,*23
$YXXDR,A,4.3,D,PTCH,A,-13.2,D,ROLL*47
$GPRMC,190024.0,A,4740.95683,N,12224.74342,W,005.99,134.0,020313,016.6,E*42
$GPRMC,190024.2,A,4740.95660,N,12224.74309,W,006.20,132.9,020313,016.6,E*4C
$IIVHW,,,,,00.0,N,,*19
$HCHDG,121.0,0.0,E,,*2B
$IIVLW,06181,N,008.4,N*51
$YXXDR,A,4.6,D,PTCH,A,-13.3,D,ROLL*43
$GPRMC,190024.4,A,4740.95636,N,12224.74271,W,006.04,134.0,020313,016.6,E*4E
$IIDPT,020.9,-1.0,*4B
$IIGLL,4740.956,N,12224.743,W,190000,A,A*40
$IIMTW,+07.5,C*3A
$GPRMC,190024.6,A,4740.95615,N,12224.74233,W,006.07,133.4,020313,016.6,E*4B
$IIRMC,190000,A,4740.956,N,12224.743,W,05.9,134,020313,16,E,A*12
$GPRMC,190024.8,A,4740.95599,N,12224.74204,W,006.24,134.0,020313,016.6,E*44
$GPRMB,A,,,,,4740.4440,N,12220.0640,W,1322.77,17,-1.02,*16
$HCHDG,120.4,0.0,E,,*2E
$YXXDR,A,4.0,D,PTCH,A,-13.5,D,ROLL*43
$GPRMC,190025.0,A,4740.95576,N,12224.74167,W,006.08,133.6,020313,016.6,E*45
$GPRMC,190025.2,A,4740.95546,N,12224.74118,W,006.24,133.6,020313,016.6,E*42
$IIVHW,,,,,00.0,N,,*19
$HCHDG,120.2,0.0,E,,*28
$IIVLW,06181,N,008.4,N*51
$YXXDR,A,4.3,D,PTCH,A,-13.3,D,ROLL*46
$GPRMC,190025.4,A,4740.95515,N,12224.74071,W,006.30,132.9,020313,016.6,E*47
$IIDPT,021.3,-1.0,*40
$IIGLL,4740.956,N,12224.743,W,190000,A,A*40
$IIMTW,+07.5,C*3A
$GPRMC,190025.6,A,4740.95488,N,12224.74033,W,006.31,132.9,020313,016.6,E*47
$IIRMC,190000,A,4740.956,N,12224.743,W,05.9,134,020313,16,E,A*12
$GPRMC,190025.8,A,4740.95462,N,12224.74003,W,006.31,132.2,020313,016.6,E*45
$GPRMB,A,,,,,4740.4440,N,12220.0640,W,1317.79,17,-2.32,*1E
$HCHDG,120.1,0.0,E,,*2B
$YXXDR,A,4.3,D,PTCH,A,-13.4,D,ROLL*41
$GPRMC,190026.0,A,4740.95436,N,12224.73968,W,006.29,131.6,020313,016.6,E*42
$GPRMC,190026.2,A,4740.95414,N,12224.73933,W,006.32,130.2,020313,016.6,E*41
$IIVHW,,,,,00.0,N,,*19
$HCHDG,120.2,0.0,E,,*28
$IIVLW,06181,N,008.4,N*51
$YXXDR,A,4.3,D,PTCH,A,-12.4,D,ROLL*40
$GPRMC,190026.4,A,4740.95397,N,12224.73898,W,006.35,129.4,020313,016.6,E*42
$IIDPT,020.7,-1.0,*45
$IIGLL,4740.955,N,12224.741,W,190000,A,A*41
$IIMTW,+08.0,C*30
$GPRMC,190026.6,A,4740.95381,N,12224.73865,W,006.34,129.5,020313,016.6,E*45
$IIRMC,190000,A,4740.955,N,12224.741,W,06.0,133,020313,16,E,A*1E
$GPRMC,190026.8,A,4740.95366,N,12224.73830,W,006.38,130.6,020313,016.6,E*45
$HCHDG,121.4,0.0,E,,*2F
$YXXDR,A,4.3,D,PTCH,A,-12.0,D,ROLL*44
$GPRMC,190027.0,A,4740.95344,N,12224.73793,W,006.41,131.6,020313,016.6,E*45
$GPRMB,A,,,,,4740.4440,N,12220.0640,W,1313.40,17,3.39,*37
$GPRMC,190027.2,A,4740.95322,N,12224.73753,W,006.41,133.4,020313,016.6,E*4B
$IIVHW,,,,,00.0,N,,*19
$HCHDG,124.8,0.0,E,,*26
$IIVLW,06181,N,008.4,N*51
$YXXDR,A,4.4,D,PTCH,A,-14.1,D,ROLL*44
$GPRMC,190027.4,A,4740.95298,N,12224.73712,W,006.43,135.9,020313,016.6,E*41
$IIDPT,020.5,-1.0,*47
$IIGLL,4740.953,N,12224.737,W,190000,A,A*46
$IIMTW,+08.0,C*30
$GPRMC,190027.6,A,4740.95274,N,12224.73665,W,006.41,136.2,020313,016.6,E*4A
$IIRMC,190000,A,4740.953,N,12224.737,W,06.4,131,020313,16,E,A*1F
$GPRMC,190027.8,A,4740.95250,N,12224.73625,W,006.39,140.1,020313,016.6,E*4B
$HCHDG,128.3,0.0,E,,*21
$YXXDR,A,4.2,D,PTCH,A,-13.3,D,ROLL*47
$GPRMC,190028.0,A,4740.95229,N,12224.73583,W,006.34,135.7,020313,016.6,E*44
$GPRMC,190028.2,A,4740.95204,N,12224.73548,W,006.29,138.7,020313,016.6,E*4F
$GPRMB,A,,,,,4740.4440,N,12220.0640,W,1308.19,17,-5.45,*11
$IIVHW,,,,,00.0,N,,*19
$HCHDG,131.5,0.0,E,,*2F
$IIVLW,06181,N,008.4,N*51
$YXXDR,A,4.0,D,PTCH,A,-11.6,D,ROLL*42
$GPRMC,190028.4,A,4740.95178,N,12224.73513,W,006.11,138.6,020313,016.6,E*45
$IIDPT,020.5,-1.0,*47
$IIGLL,4740.952,N,12224.735,W,190000,A,A*45
$IIMTW,+08.0,C*30
$GPRMC,190028.6,A,4740.95155,N,12224.73480,W,006.06,140.5,020313,016.6,E*49
$IIRMC,190000,A,4740.952,N,12224.735,W,06.3,135,020313,16,E,A*1F
$GPRMC,190028.8,A,4740.95130,N,12224.73446,W,006.07,140.8,020313,016.6,E*42
$HCHDG,133.8,0.0,E,,*20
$YXXDR,A,4.2,D,PTCH,A,-10.2,D,ROLL*45
$GPRMC,190029.0,A,4740.95106,N,12224.73416,W,006.09,141.9,020313,016.6,E*45
$GPRMC,190029.2,A,4740.95082,N,12224.73389,W,006.12,144.7,020313,016.6,E*4A
$GPRMB,A,,,,,4740.4440,N,12220.0640,W,1303.82,17,-1.77,*1D
$IIVHW,,,,,00.0,N,,*19
$HCHDG,135.5,0.0,E,,*2B
$IIVLW,06181,N,008.4,N*51
$YXXDR,A,4.8,D,PTCH,A,-10.1,D,ROLL*4C
$GPRMC,190029.4,A,4740.95057,N,12224.73360,W,006.10,145.7,020313,016.6,E*40
$IIDPT,020.5,-1.0,*47
$IIGLL,4740.951,N,12224.734,W,190000,A,A*47
$IIMTW,+08.0,C*30
$GPRMC,190029.6,A,4740.95027,N,12224.73324,W,006.09,145.3,020313,016.6,E*49
$IIRMC,190000,A,4740.951,N,12224.734,W,06.0,141,020313,16,E,A*1D
$GPRMC,190029.8,A,4740.95000,N,12224.73292,W,006.08,147.6,020313,016.6,E*48
$HCHDG,136.4,0.0,E,,*29
$YXXDR,A,4.4,D,PTCH,A,-8.7,D,ROLL*7F
$GPRMC,190030.0,A,4740.94975,N,12224.73265,W,006.05,147.3,020313,016.6,E*42
$GPRMC,190030.2,A,4740.94945,N,12224.73242,W,006.07,150.4,020313,016.6,E*45
$IIVHW,,,,,00.0,N,,*19
$HCHDG,137.9,0.0,E,,*25
$IIVLW,06181,N,008.4,N*51
$YXXDR,A,4.3,D,PTCH,A,-9.8,D,ROLL*76
$GPRMC,190030.4,A,4740.94914,N,12224.73216,W,005.75,150.4,020313,016.6,E*40
$GPRMB,A,,,,,4740.4440,N,12220.0640,W,1297.94,17,-0.89,*16
$IIDPT,020.5,-1.0,*47
$IIGLL,4740.949,N,12224.732,W,190000,A,A*48
$IIMTW,+08.0,C*30
$GPRMC,190030.6,A,4740.94887,N,12224.73190,W,005.95,149.9,020313,016.6,E*4F
$IIRMC,190000,A,4740.949,N,12224.732,W,06.0,147,020313,16,E,A*14
$GPRMC,190030.8,A,4740.94860,N,12224.73160,W,005.73,149.5,020313,016.6,E*43
$HCHDG,138.6,0.0,E,,*25
$YXXDR,A,4.0,D,PTCH,A,-10.3,D,ROLL*46
$GPRMC,190031.0,A,4740.94827,N,12224.73125,W,005.75,149.2,020313,016.6,E*49
$GPRMC,190031.2,A,4740.94801,N,12224.73101,W,005.72,147.6,020313,016.6,E*44
$IIVHW,,,,,00.0,N,,*19
$HCHDG,136.3,0.0,E,,*2E
$IIVLW,06181,N,008.4,N*51
$YXXDR,A,4.2,D,PTCH,A,-8.3,D,ROLL*7D
$GPRMC,190031.4,A,4740.94774,N,12224.73076,W,005.75,144.1,020313,016.6,E*4D
$IIDPT,020.2,-1.0,*40
$IIGLL,4740.948,N,12224.731,W,190000,A,A*4A
$IIMTW,+08.0,C*30
$GPRMC,190031.6,A,4740.94747,N,12224.73048,W,005.76,144.7,020313,016.6,E*47
$GPRMB,A,,,,,4740.4440,N,12220.0640,W,1292.11,17,-1.68,*10
$IIRMC,190000,A,4740.948,N,12224.731,W,05.7,149,020313,16,E,A*1C
$GPRMC,190031.8,A,4740.94716,N,12224.73010,W,006.01,144.4,020313,016.6,E*40
$HCHDG,133.7,0.0,E,,*2F
$YXXDR,A,4.5,D,PTCH,A,-7.5,D,ROLL*73
$GPRMC,190032.0,A,4740.94683,N,12224.72978,W,006.02,145.2,020313,016.6,E*44
$GPRMC,190032.2,A,4740.94655,N,12224.72949,W,005.99,147.0,020313,016.6,E*4E
$IIVHW,,,,,00.0,N,,*19
$HCHDG,133.1,0.0,E,,*29
$IIVLW,06181,N,008.4,N*51
$YXXDR,A,4.5,D,PTCH,A,-10.0,D,ROLL*40
$GPRMC,190032.4,A,4740.94628,N,12224.72916,W,005.93,147.1,020313,016.6,E*43
$IIDPT,020.0,-1.0,*42
$IIGLL,4740.946,N,12224.729,W,190000,A,A*4D
$IIMTW,+08.0,C*30
$GPRMC,190032.6,A,4740.94604,N,12224.72889,W,005.86,147.4,020313,016.6,E*49
$GPRMB,A,,,,,4740.4440,N,12220.0640,W,1287.08,17,5.10,*3A
$IIRMC,190000,A,4740.946,N,12224.729,W,06.0,145,020313,16,E,A*13
$GPRMC,190032.8,A,4740.94572,N,12224.72863,W,005.84,146.1,020313,016.6,E*47
$HCHDG,133.5,0.0,E,,*2D
$YXXDR,A,4.4,D,PTCH,A,-11.8,D,ROLL*48
$GPRMC,190033.0,A,4740.94545,N,12224.72835,W,005.83,145.8,020313,016.6,E*44
$GPRMC,190033.2,A,4740.94519,N,12224.72806,W,005.83,144.1,020313,016.6,E*47
$IIVHW,,,,,00.0,N,,*19
$HCHDG,133.0,0.0,E,,*28
$IIVLW,06181,N,008.4,N*51
$YXXDR,A,3.7,D,PTCH,A,-10.6,D,ROLL*43
$GPRMC,190033.4,A,4740.94496,N,12224.72775,W,005.83,144.2,020313,016.6,E*4F
$IIDPT,020.0,-1.0,*42
$IIGLL,4740.945,N,12224.728,W,190000,A,A*4F
$IIMTW,+08.0,C*30
$GPRMC,190033.6,A,4740.94474,N,12224.72747,W,005.67,145.2,020313,016.6,E*4B
$GPRMB,A,,,,,4740.4440,N,12220.0640,W,1282.51,17,3.52,*33
$IIRMC,190000,A,4740.945,N,12224.728,W,05.8,145,020313,16,E,A*1A
$GPRMC,190033.8,A,4740.94458,N,12224.72720,W,005.72,145.8,020313,016.6,E*44
$HCHDG,133.3,0.0,E,,*2B
$YXXDR,A,3.7,D,PTCH,A,-12.2,D,ROLL*45
$GPRMC,190034.0,A,4740.94434,N,12224.72692,W,005.75,146.2,020313,016.6,E*47
$GPRMC,190034.2,A,4740.94409,N,12224.72663,W,005.73,146.2,020313,016.6,E*43
$IIVHW,,,,,00.0,N,,*19
$HCHDG,133.9,0.0,E,,*21
$IIVLW,06181,N,008.4,N*51
$YXXDR,A,3.7,D,PTCH,A,-12.5,D,ROLL*42
$GPRMC,190034.4,A,4740.94387,N,12224.72632,W,005.74,145.9,020313,016.6,E*4F
$IIDPT,020.0,-1.0,*42
$IIGLL,4740.944,N,12224.726,W,190000,A,A*40
$IIMTW,+08.0,C*30
$GPRMC,190034.6,A,4740.94363,N,12224.72604,W,005.90,145.9,020313,016.6,E*48
$GPRMB,A,,,,,4740.4440,N,12220.0640,W,1278.54,17,0.37,*33
$IIRMC,190000,A,4740.944,N,12224.726,W,05.7,146,020313,16,E,A*19
$GPRMC,190034.8,A,4740.94343,N,12224.72574,W,005.86,147.0,020313,016.6,E*4C
$HCHDG,134.1,0.0,E,,*2E
$YXXDR,A,4.1,D,PTCH,A,-11.9,D,ROLL*4C
$GPRMC,190035.0,A,4740.94316,N,12224.72552,W,005.87,148.7,020313,016.6,E*48
$GPRMC,190035.2,A,4740.94291,N,12224.72522,W,005.85,148.0,020313,016.6,E*46
$IIVHW,,,,,00.0,N,,*19
$HCHDG,134.7,0.0,E,,*28
$IIVLW,06181,N,008.4,N*51
$YXXDR,A,4.4,D,PTCH,A,-12.3,D,ROLL*40
$GPRMC,190035.4,A,4740.94268,N,12224.72488,W,005.82,148.8,020313,016.6,E*48
$IIDPT,019.8,-1.0,*40
$IIGLL,4740.943,N,12224.725,W,190000,A,A*44
$IIMTW,+08.0,C*30
$GPRMC,190035.6,A,4740.94247,N,12224.72460,W,005.76,147.3,020313,016.6,E*4E
$IIRMC,190000,A,4740.943,N,12224.725,W,05.8,148,020313,16,E,A*1C
$GPRMC,190035.8,A,4740.94230,N,12224.72437,W,005.59,146.4,020313,016.6,E*49
$GPRMB,A,,,,,4740.4440,N,12220.0640,W,1273.80,17,1.72,*31
$HCHDG,134.3,0.0,E,,*2C
$YXXDR,A,4.3,D,PTCH,A,-10.8,D,ROLL*4E
$GPRMC,190036.0,A,4740.94210,N,12224.72416,W,005.63,145.9,020313,016.6,E*44
$GPRMC,190036.2,A,4740.94186,N,12224.72392,W,005.64,146.4,020313,016.6,E*48
$IIVHW,,,,,00.0,N,,*19
$HCHDG,133.9,0.0,E,,*21
$IIVLW,06181,N,008.4,N*51
$YXXDR,A,4.0,D,PTCH,A,-9.6,D,ROLL*7B
$GPRMC,190036.4,A,4740.94156,N,12224.72364,W,005.57,149.5,020313,016.6,E*44
$IIDPT,019.6,-1.0,*4E
$IIGLL,4740.943,N,12224.725,W,190000,A,A*44
$IIMTW,+08.0,C*30
$GPRMC,190036.6,A,4740.94130,N,12224.72348,W,005.54,152.7,020313,016.6,E*43
$IIRMC,190000,A,4740.943,N,12224.725,W,05.8,148,020313,16,E,A*1C
$GPRMC,190036.8,A,4740.94105,N,12224.72325,W,005.58,150.8,020313,016.6,E*41
$HCHDG,135.4,0.0,E,,*2A
$YXXDR,A,3.9,D,PTCH,A,-12.7,D,ROLL*4E
$GPRMC,190037.0,A,4740.94080,N,12224.72303,W,005.33,152.7,020313,016.6,E*40
$GPRMB,A,,,,,4740.4440,N,12220.0640,W,1268.62,17,0.04,*37
$GPRMC,190037.2,A,4740.94055,N,12224.72279,W,005.27,150.1,020313,016.6,E*47
$IIVHW,,,,,00.0,N,,*19
$HCHDG,134.3,0.0,E,,*2C
$IIVLW,06181,N,008.4,N*51
$YXXDR,A,3.3,D,PTCH,A,-11.3,D,ROLL*43
$GPRMC,190037.4,A,4740.94029,N,12224.72256,W,005.28,147.9,020313,016.6,E*46
$IIDPT,019.6,-1.0,*4E
$IIGLL,4740.940,N,12224.723,W,190000,A,A*41
$IIMTW,+08.0,C*30
$GPRMC,190037.6,A,4740.94009,N,12224.72231,W,005.45,145.7,020313,016.6,E*40
$IIRMC,190000,A,4740.940,N,12224.723,W,05.3,152,020313,16,E,A*19
$GPRMC,190037.8,A,4740.93983,N,12224.72202,W,005.46,142.9,020313,016.6,E*48
$HCHDG,129.3,0.0,E,,*20
$YXXDR,A,4.0,D,PTCH,A,-7.8,D,ROLL*7B
$GPRMC,190038.0,A,4740.93954,N,12224.72178,W,005.45,142.8,020313,016.6,E*49
$GPRMC,190038.2,A,4740.93930,N,12224.72155,W,005.71,141.4,020313,016.6,E*4E
$GPRMB,A,,,,,4740.4440,N,12220.0640,W,1263.40,17,1.58,*34
$IIVHW,,,,,00.0,N,,*19
$HCHDG,125.7,0.0,E,,*28
$IIVLW,06181,N,008.4,N*51
$YXXDR,A,4.6,D,PTCH,A,-9.4,D,ROLL*7F
$GPRMC,190038.4,A,4740.93906,N,12224.72129,W,005.72,140.7,020313,016.6,E*47
$IIDPT,019.6,-1.0,*4E
$IIGLL,4740.939,N,12224.721,W,190000,A,A*4D
$IIMTW,+08.0,C*30
$GPRMC,190038.6,A,4740.93880,N,12224.72092,W,005.72,139.6,020313,016.6,E*44
$IIRMC,190000,A,4740.939,N,12224.721,W,05.4,142,020313,16,E,A*13
$GPRMC,190038.8,A,4740.93858,N,12224.72054,W,005.68,138.4,020313,016.6,E*4D
$HCHDG,124.0,0.0,E,,*2E
$YXXDR,A,4.3,D,PTCH,A,-11.9,D,ROLL*4E
$GPRMC,190039.0,A,4740.93833,N,12224.72023,W,005.76,137.3,020313,016.6,E*4E
$GPRMC,190039.2,A,4740.93805,N,12224.71989,W,005.80,136.7,020313,016.6,E*4F
$IIVHW,,,,,00.0,N,,*19
$HCHDG,122.8,0.0,E,,*20
$IIVLW,06181,N,008.4,N*51
$YXXDR,A,4.4,D,PTCH,A,-12.6,D,ROLL*45
$GPRMC,190039.4,A,4740.93784,N,12224.71965,W,005.78,136.7,020313,016.6,E*4A
$GPRMB,A,,,,,4740.4440,N,12220.0640,W,1258.18,17,-3.30,*10
$IIDPT,019.6,-1.0,*4E
$IIGLL,4740.938,N,12224.720,W,190000,A,A*4D
$IIMTW,+07.5,C*3A
$GPRMC,190039.6,A,4740.93758,N,12224.71927,W,005.81,136.0,020313,016.6,E*4E
$IIRMC,190000,A,4740.938,N,12224.720,W,05.7,137,020313,16,E,A*12
$GPRMC,190039.8,A,4740.93734,N,12224.71891,W,005.80,136.6,020313,016.6,E*41
$HCHDG,123.6,0.0,E,,*2F
$YXXDR,A,3.8,D,PTCH,A,-16.4,D,ROLL*48
$GPRMC,190040.0,A,4740.93710,N,12224.71859,W,005.79,136.4,020313,016.6,E*41
$GPRMC,190040.2,A,4740.93682,N,12224.71829,W,005.78,136.4,020313,016.6,E*4F
$IIVHW,,,,,00.0,N,,*19
$HCHDG,124.9,0.0,E,,*27
$IIVLW,06181,N,008.4,N*51
$YXXDR,A,3.5,D,PTCH,A,-17.0,D,ROLL*40
$GPRMC,190040.4,A,4740.93657,N,12224.71801,W,005.77,137.3,020313,016.6,E*42
$GPRMB,A,,,,,4740.4440,N,12220.0640,W,1253.64,17,2.40,*3B
$IIDPT,019.6,-1.0,*4E
$IIGLL,4740.937,N,12224.718,W,190000,A,A*49
$IIMTW,+07.5,C*3A
$GPRMC,190040.6,A,4740.93637,N,12224.71768,W,005.74,137.0,020313,016.6,E*46
$IIRMC,190000,A,4740.937,N,12224.718,W,05.7,136,020313,16,E,A*17
$GPRMC,190040.8,A,4740.93616,N,12224.71731,W,006.05,136.9,020313,016.6,E*4A
$HCHDG,125.6,0.0,E,,*29
$YXXDR,A,3.6,D,PTCH,A,-17.9,D,ROLL*4A
$GPRMC,190041.0,A,4740.93596,N,12224.71698,W,005.85,137.7,020313,016.6,E*4E
$GPRMC,190041.2,A,4740.93572,N,12224.71669,W,005.87,138.6,020313,016.6,E*44
$IIVHW,,,,,00.0,N,,*19
$HCHDG,126.6,0.0,E,,*2A
$IIVLW,06181,N,008.4,N*51
$YXXDR,A,3.4,D,PTCH,A,-19.2,D,ROLL*4D
$GPRMC,190041.4,A,4740.93543,N,12224.71637,W,005.90,138.5,020313,016.6,E*4E
$GPRMB,A,,,,,4740.4440,N,12220.0640,W,1249.52,17,0.41,*36
$IIDPT,019.5,-1.0,*4D
$IIGLL,4740.935,N,12224.716,W,190000,A,A*45
$IIMTW,+07.5,C*3A
$GPRMC,190041.6,A,4740.93515,N,12224.71605,W,005.91,139.6,020313,016.6,E*4D
$IIRMC,190000,A,4740.935,N,12224.716,W,05.8,137,020313,16,E,A*15
$GPRMC,190041.8,A,4740.93492,N,12224.71576,W,006.07,140.5,020313,016.6,E*4B
$HCHDG,127.7,0.0,E,,*2A
$YXXDR,A,3.6,D,PTCH,A,-20.0,D,ROLL*47
$GPRMC,190042.0,A,4740.93471,N,12224.71547,W,005.86,141.2,020313,016.6,E*43
$GPRMC,190042.2,A,4740.93447,N,12224.71519,W,005.94,140.4,020313,016.6,E*4B
$IIVHW,,,,,00.0,N,,*19
$HCHDG,128.9,0.0,E,,*2B
$IIVLW,06181,N,008.4,N*51
$YXXDR,A,3.2,D,PTCH,A,-20.4,D,ROLL*47
$GPRMC,190042.4,A,4740.93420,N,12224.71493,W,005.89,141.5,020313,016.6,E*43
$GPRMB,A,,,,,4740.4440,N,12220.0640,W,1245.17,17,4.35,*3C
$IIDPT,019.5,-1.0,*4D
$IIGLL,4740.934,N,12224.715,W,190000,A,A*47
$IIMTW,+07.5,C*3A
$GPRMC,190042.6,A,4740.93394,N,12224.71467,W,005.93,142.6,020313,016.6,E*49
$IIRMC,190000,A,4740.934,N,12224.715,W,05.8,141,020313,16,E,A*16
$GPRMC,190042.8,A,4740.93372,N,12224.71434,W,005.92,143.6,020313,016.6,E*49
$HCHDG,129.9,0.0,E,,*2A
$YXXDR,A,2.8,D,PTCH,A,-22.5,D,ROLL*4F
$GPRMC,190043.0,A,4740.93350,N,12224.71402,W,005.85,145.1,020313,016.6,E*42
$GPRMC,190043.2,A,4740.93326,N,12224.71378,W,005.68,145.4,020313,016.6,E*4D
$IIVHW,,,,,00.0,N,,*19
$HCHDG,130.8,0.0,E,,*23
$IIVLW,06181,N,008.4,N*51
$GPRMC,190043.4,A,4740.93299,N,12224.71355,W,005.84,145.4,020313,016.6,E*43
$YXXDR,A,2.4,D,PTCH,A,-22.9,D,ROLL*4F
$IIDPT,019.5,-1.0,*4D
$IIGLL,4740.933,N,12224.714,W,190000,A,A*41
$IIMTW,+07.5,C*3A
$GPRMC,190043.6,A,4740.93268,N,12224.71333,W,005.79,144.7,020313,016.6,E*4F
$GPRMB,A,,,,,4740.4440,N,12220.0640,W,1239.85,17,-1.74,*11
$IIRMC,190000,A,4740.933,N,12224.714,W,05.8,145,020313,16,E,A*14
$GPRMC,190043.8,A,4740.93242,N,12224.71307,W,005.95,141.4,020313,016.6,E*4A
$HCHDG,129.0,0.0,E,,*23
$YXXDR,A,2.6,D,PTCH,A,-22.0,D,ROLL*44
$GPRMC,190044.0,A,4740.93217,N,12224.71282,W,005.90,139.8,020313,016.6,E*4F
$PGRMT,GPS 18x-5Hz software ver. 3.20,,,,,,,,*30
$GPRMC,190044.2,A,4740.93195,N,12224.71250,W,006.08,136.1,020313,016.6,E*4F
$IIVHW,,,,,00.0,N,,*19
$HCHDG,125.7,0.0,E,,*28
$IIVLW,06181,N,008.4,N*51
$YXXDR,A,3.8,D,PTCH,A,-17.4,D,ROLL*49
$GPRMC,190044.4,A,4740.93172,N,12224.71218,W,006.12,134.6,020313,016.6,E*42
$IIDPT,019.5,-1.0,*4D
$IIGLL,4740.932,N,12224.712,W,190000,A,A*46
$IIMTW,+07.5,C*3A
$GPRMC,190044.6,A,4740.93148,N,12224.71186,W,006.30,134.5,020313,016.6,E*4E
$GPRMB,A,,,,,4740.4440,N,12220.0640,W,1235.60,17,-1.40,*11
$IIRMC,190000,A,4740.932,N,12224.712,W,05.9,139,020313,16,E,A*19
$GPRMC,190044.8,A,4740.93123,N,12224.71151,W,006.30,135.2,020313,016.6,E*41
$HCHDG,124.2,0.0,E,,*2C
$YXXDR,A,3.4,D,PTCH,A,-20.1,D,ROLL*44
$GPRMC,190045.0,A,4740.93097,N,12224.71116,W,006.10,137.3,020313,016.6,E*44
$GPRMC,190045.2,A,4740.93070,N,12224.71076,W,006.31,137.6,020313,016.6,E*4E
$IIVHW,,,,,00.0,N,,*19
$HCHDG,126.7,0.0,E,,*2B
$IIVLW,06181,N,008.4,N*51
$YXXDR,A,2.6,D,PTCH,A,-25.2,D,ROLL*41
$GPRMC,190045.4,A,4740.93043,N,12224.71037,W,006.10,140.0,020313,016.6,E*48
$IIDPT,019.5,-1.0,*4D
$IIGLL,4740.930,N,12224.711,W,190000,A,A*47
$IIMTW,+07.5,C*3A
$GPRMC,190045.6,A,4740.93016,N,12224.71003,W,006.14,142.2,020313,016.6,E*49
$GPRMB,A,,,,,4740.4440,N,12220.0640,W,1230.85,17,-6.14,*19
$IIRMC,190000,A,4740.930,N,12224.711,W,06.1,137,020313,16,E,A*1D
$GPRMC,190045.8,A,4740.92988,N,12224.70974,W,006.08,142.5,020313,016.6,E*4A
$HCHDG,130.0,0.0,E,,*2B
$YXXDR,A,2.1,D,PTCH,A,-27.9,D,ROLL*4F
$GPRMC,190046.0,A,4740.92959,N,12224.70937,W,006.12,142.8,020313,016.6,E*4C
$GPRMC,190046.2,A,4740.92932,N,12224.70908,W,006.10,144.1,020313,016.6,E*42
$IIVHW,,,,,00.0,N,,*19
$HCHDG,131.6,0.0,E,,*2C
$IIVLW,06181,N,008.4,N*51
$YXXDR,A,2.1,D,PTCH,A,-28.3,D,ROLL*4A
$GPRMC,190046.4,A,4740.92905,N,12224.70875,W,006.11,144.0,020313,016.6,E*4B
$IIDPT,019.5,-1.0,*4D
$IIGLL,4740.929,N,12224.709,W,190000,A,A*46
$IIMTW,+07.5,C*3A
$GPRMC,190046.6,A,4740.92877,N,12224.70843,W,005.91,143.2,020313,016.6,E*46
$GPRMB,A,,,,,4740.4440,N,12220.0640,W,1225.95,17,-4.30,*18
$IIRMC,190000,A,4740.929,N,12224.709,W,06.1,142,020313,16,E,A*1E
$GPRMC,190046.8,A,4740.92848,N,12224.70816,W,006.10,142.6,020313,016.6,E*4B
$HCHDG,132.0,0.0,E,,*29
$YXXDR,A,2.0,D,PTCH,A,-27.3,D,ROLL*44
$GPRMC,190047.0,A,4740.92822,N,12224.70790,W,006.08,142.8,020313,016.6,E*48
$GPRMC,190047.2,A,4740.92796,N,12224.70760,W,006.32,139.7,020313,016.6,E*4F
$IIVHW,,,,,00.0,N,,*19
$HCHDG,131.5,0.0,E,,*2F
$IIVLW,06181,N,008.4,N*51
$YXXDR,A,2.0,D,PTCH,A,-26.7,D,ROLL*41
$GPRMC,190047.4,A,4740.92769,N,12224.70728,W,006.25,140.7,020313,016.6,E*4D
$IIDPT,019.8,-1.0,*40
$IIGLL,4740.928,N,12224.707,W,190000,A,A*49
$IIMTW,+07.5,C*3A
$GPRMC,190047.6,A,4740.92744,N,12224.70696,W,006.03,143.6,020313,016.6,E*42
$GPRMB,A,,,,,4740.4440,N,12220.0640,W,1221.28,17,-0.69,*12
$IIRMC,190000,A,4740.928,N,12224.707,W,06.0,142,020313,16,E,A*10
$GPRMC,190047.8,A,4740.92720,N,12224.70666,W,006.03,144.4,020313,016.6,E*44
$HCHDG,132.5,0.0,E,,*2C
$YXXDR,A,2.0,D,PTCH,A,-29.5,D,ROLL*4C
$GPRMC,190048.0,A,4740.92697,N,12224.70640,W,006.09,145.6,020313,016.6,E*43
$GPRMC,190048.2,A,4740.92671,N,12224.70615,W,006.17,145.3,020313,016.6,E*43
$IIVHW,,,,,00.0,N,,*19
$HCHDG,133.6,0.0,E,,*2E
$IIVLW,06181,N,008.4,N*51
$YXXDR,A,1.7,D,PTCH,A,-31.4,D,ROLL*40
$GPRMC,190048.4,A,4740.92640,N,12224.70588,W,006.18,145.6,020313,016.6,E*4A
$IIDPT,019.8,-1.0,*40
$IIGLL,4740.926,N,12224.706,W,190000,A,A*46
$IIMTW,+07.5,C*3A
$GPRMC,190048.6,A,4740.92613,N,12224.70566,W,006.23,144.7,020313,016.6,E*46
$IIRMC,190000,A,4740.926,N,12224.706,W,06.0,145,020313,16,E,A*18
$GPRMC,190048.8,A,4740.92587,N,12224.70542,W,006.47,143.7,020313,016.6,E*45
$GPRMB,A,,,,,4740.4440,N,12220.0640,W,1215.83,17,2.75,*36
$HCHDG,133.6,0.0,E,,*2E
$YXXDR,A,1.5,D,PTCH,A,-31.8,D,ROLL*4E
$GPRMC,190049.0,A,4740.92556,N,12224.70514,W,006.48,142.8,020313,016.6,E*42
$GPRMC,190049.2,A,4740.92527,N,12224.70487,W,006.28,145.1,020313,016.6,E*45
$IIVHW,,,,,00.0,N,,*19
$HCHDG,133.9,0.0,E,,*21
$IIVLW,06181,N,008.4,N*51
$YXXDR,A,1.0,D,PTCH,A,-32.9,D,ROLL*49
$GPRMC,190049.4,A,4740.92499,N,12224.70460,W,006.30,144.7,020313,016.6,E*40
$IIDPT,019.8,-1.0,*40
$IIGLL,4740.926,N,12224.706,W,190000,A,A*46
$IIMTW,+07.5,C*3A
$GPRMC,190049.6,A,4740.92471,N,12224.70431,W,006.53,143.8,020313,016.6,E*4D
$IIRMC,190000,A,4740.926,N,12224.706,W,06.0,145,020313,16,E,A*18
$GPRMC,190049.8,A,4740.92440,N,12224.70395,W,006.53,145.0,020313,016.6,E*46
$GPRMB,A,,,,,4740.4440,N,12220.0640,W,1210.71,17,6.37,*3C
$HCHDG,135.1,0.0,E,,*2F
$YXXDR,A,0.8,D,PTCH,A,-34.8,D,ROLL*47
$GPRMC,190050.0,A,4740.92411,N,12224.70359,W,006.56,145.1,020313,016.6,E*46
$GPRMC,190050.2,A,4740.92383,N,12224.70328,W,006.59,145.3,020313,016.6,E*43
$IIVHW,,,,,00.0,N,,*19
$HCHDG,137.1,0.0,E,,*2D
$IIVLW,06181,N,008.4,N*51
$GPRMC,190050.4,A,4740.92355,N,12224.70301,W,006.41,145.3,020313,016.6,E*4C
$YXXDR,A,0.9,D,PTCH,A,-37.5,D,ROLL*48
$IIDPT,019.8,-1.0,*40
$IIGLL,4740.925,N,12224.705,W,190000,A,A*46
$IIMTW,+07.5,C*3A
$GPRMC,190050.6,A,4740.92324,N,12224.70263,W,006.72,147.3,020313,016.6,E*4F
$IIRMC,190000,A,4740.925,N,12224.705,W,06.4,142,020313,16,E,A*1B
$GPRMC,190050.8,A,4740.92292,N,12224.70225,W,006.51,148.3,020313,016.6,E*41
$GPRMB,A,,,,,4740.4440,N,12220.0640,W,1205.50,17,4.53,*3B
$HCHDG,140.4,0.0,E,,*28
$YXXDR,A,0.5,D,PTCH,A,-39.6,D,ROLL*49
$GPRMC,190051.0,A,4740.92263,N,12224.70200,W,006.15,148.5,020313,016.6,E*47
$GPRMC,190051.2,A,4740.92231,N,12224.70169,W,006.46,150.0,020313,016.6,E*44
$IIVHW,,,,,00.0,N,,*19
$HCHDG,145.0,0.0,E,,*29
$IIVLW,06181,N,008.4,N*51
$YXXDR,A,0.6,D,PTCH,A,-40.1,D,ROLL*43
$GPRMC,190051.4,A,4740.92198,N,12224.70138,W,006.16,155.7,020313,016.6,E*41
$IIDPT,020.5,-1.0,*47
$IIGLL,4740.924,N,12224.703,W,190000,A,A*41
$IIMTW,+07.5,C*3A
$GPRMC,190051.6,A,4740.92169,N,12224.70112,W,006.41,157.0,020313,016.6,E*42
$IIRMC,190000,A,4740.924,N,12224.703,W,06.5,145,020313,16,E,A*1A
$GPRMC,190051.8,A,4740.92138,N,12224.70091,W,006.17,160.9,020313,016.6,E*4C
$HCHDG,149.4,0.0,E,,*21
$YXXDR,A,1.2,D,PTCH,A,-39.8,D,ROLL*41
$GPRMC,190052.0,A,4740.92106,N,12224.70076,W,006.39,165.1,020313,016.6,E*42
$GPRMB,A,,,,,4740.4440,N,12220.0640,W,1199.15,17,-2.91,*19
$GPRMC,190052.2,A,4740.92072,N,12224.70063,W,006.44,164.6,020313,016.6,E*4A
$IIVHW,,,,,00.0,N,,*19
$HCHDG,153.2,0.0,E,,*2C
$IIVLW,06181,N,008.4,N*51
$YXXDR,A,0.6,D,PTCH,A,-38.4,D,ROLL*49
$GPRMC,190052.4,A,4740.92037,N,12224.70059,W,006.05,167.1,020313,016.6,E*45
$IIDPT,020.5,-1.0,*47
$IIGLL,4740.921,N,12224.700,W,190000,A,A*47
$IIMTW,+07.5,C*3A
$GPRMC,190052.6,A,4740.92003,N,12224.70048,W,006.07,166.4,020313,016.6,E*46
$IIRMC,190000,A,4740.921,N,12224.700,W,06.3,165,020313,16,E,A*18
$GPRMC,190052.8,A,4740.91970,N,12224.70039,W,006.02,167.6,020313,016.6,E*46
$HCHDG,151.8,0.0,E,,*24
$YXXDR,A,1.4,D,PTCH,A,-33.3,D,ROLL*46
$GPRMC,190053.0,A,4740.91936,N,12224.70026,W,006.07,166.3,020313,016.6,E*42
$GPRMB,A,,,,,4740.4440,N,12220.0640,W,1193.60,17,-0.69,*14
$GPRMC,190053.2,A,4740.91903,N,12224.70012,W,006.04,166.6,020313,016.6,E*47
$IIVHW,,,,,00.0,N,,*19
$HCHDG,147.7,0.0,E,,*2C
$IIVLW,06181,N,008.4,N*51
$YXXDR,A,2.6,D,PTCH,A,-27.4,D,ROLL*45
$GPRMC,190053.4,A,4740.91870,N,12224.69995,W,006.41,163.4,020313,016.6,E*4C
$IIDPT,019.8,-1.0,*40
$IIGLL,4740.919,N,12224.700,W,190000,A,A*4C
$IIMTW,+07.5,C*3A
$GPRMC,190053.6,A,4740.91841,N,12224.69982,W,006.37,160.6,020313,016.6,E*4A
$IIRMC,190000,A,4740.919,N,12224.700,W,06.0,166,020313,16,E,A*13
$GPRMC,190053.8,A,4740.91809,N,12224.69963,W,006.71,161.0,020313,016.6,E*42
$HCHDG,143.6,0.0,E,,*29
$YXXDR,A,3.5,D,PTCH,A,-21.9,D,ROLL*4C
$GPRMC,190054.0,A,4740.91779,N,12224.69946,W,006.78,159.4,020313,016.6,E*44
$GPRMB,A,,,,,4740.4440,N,12220.0640,W,1188.38,17,-3.91,*17
$GPRMC,190054.2,A,4740.91747,N,12224.69923,W,006.72,157.1,020313,016.6,E*49
$IIVHW,,,,,00.0,N,,*19
$HCHDG,141.8,0.0,E,,*25
$IIVLW,06181,N,008.4,N*51
$YXXDR,A,3.7,D,PTCH,A,-18.3,D,ROLL*4E
$GPRMC,190054.4,A,4740.91713,N,12224.69899,W,006.77,157.3,020313,016.6,E*49
$IIDPT,020.0,-1.0,*42
$IIGLL,4740.917,N,12224.699,W,190000,A,A*43
$IIMTW,+07.5,C*3A
$GPRMC,190054.6,A,4740.91676,N,12224.69877,W,006.81,157.3,020313,016.6,E*40
$IIRMC,190000,A,4740.917,N,12224.699,W,06.7,159,020313,16,E,A*17
$GPRMC,190054.8,A,4740.91638,N,12224.69860,W,006.64,159.1,020313,016.6,E*45
$HCHDG,144.1,0.0,E,,*29
$YXXDR,A,3.9,D,PTCH,A,-17.6,D,ROLL*4A
$GPRMC,190055.0,A,4740.91599,N,12224.69845,W,006.70,160.6,020313,016.6,E*4B
$GPRMB,A,,,,,4740.4440,N,12220.0640,W,1182.37,17,-1.70,*1F
$GPRMC,190055.2,A,4740.91563,N,12224.69831,W,006.31,161.4,020313,016.6,E*49
$IIVHW,,,,,00.0,N,,*19
$HCHDG,150.0,0.0,E,,*2D
$IIVLW,06181,N,008.4,N*51
$YXXDR,A,4.5,D,PTCH,A,-16.8,D,ROLL*4E
$GPRMC,190055.4,A,4740.91525,N,12224.69812,W,006.76,164.1,020313,016.6,E*4F
$IIDPT,020.0,-1.0,*42
$IIGLL,4740.915,N,12224.698,W,190000,A,A*40
$IIMTW,+07.5,C*3A
$GPRMC,190055.6,A,4740.91487,N,12224.69794,W,006.39,167.3,020313,016.6,E*4F
$IIRMC,190000,A,4740.915,N,12224.698,W,06.7,160,020313,16,E,A*1E
$GPRMC,190055.8,A,4740.91450,N,12224.69779,W,006.47,171.3,020313,016.6,E*46
$HCHDG,157.4,0.0,E,,*2E
$YXXDR,A,5.3,D,PTCH,A,-13.9,D,ROLL*4D
$GPRMC,190056.0,A,4740.91419,N,12224.69774,W,006.20,169.8,020313,016.6,E*4E
$GPRMC,190056.2,A,4740.91383,N,12224.69767,W,006.22,175.3,020313,016.6,E*4E
$GPRMB,A,,,,,4740.4440,N,12220.0640,W,1175.29,17,-3.30,*1E
$IIVHW,,,,,00.0,N,,*19
$HCHDG,163.8,0.0,E,,*25
$IIVLW,06181,N,008.4,N*51
$YXXDR,A,5.5,D,PTCH,A,-6.4,D,ROLL*72
$GPRMC,190056.4,A,4740.91348,N,12224.69762,W,006.02,172.9,020313,016.6,E*45
$IIDPT,020.0,-1.0,*42
$IIGLL,4740.914,N,12224.697,W,190000,A,A*4E
$IIMTW,+07.5,C*3A
$GPRMC,190056.6,A,4740.91309,N,12224.69766,W,006.07,177.5,020313,016.6,E*4A
$IIRMC,190000,A,4740.914,N,12224.697,W,06.2,169,020313,16,E,A*1C
$GPRMC,190056.8,A,4740.91275,N,12224.69762,W,006.01,177.5,020313,016.6,E*4C
$HCHDG,173.1,0.0,E,,*2D
$YXXDR,A,6.3,D,PTCH,A,-2.8,D,ROLL*7F
$GPRMC,190057.0,A,4740.91244,N,12224.69765,W,005.68,179.7,020313,016.6,E*40
$GPRMC,190057.2,A,4740.91213,N,12224.69769,W,005.34,185.7,020313,016.6,E*46
$IIVHW,,,,,00.0,N,,*19
$HCHDG,181.9,0.0,E,,*28
$IIVLW,06181,N,008.4,N*51
$YXXDR,A,5.5,D,PTCH,A,3.4,D,ROLL*5A
$GPRMC,190057.4,A,4740.91183,N,12224.69772,W,005.37,183.9,020313,016.6,E*4B
$GPRMB,A,,,,,4740.4440,N,12220.0640,W,1168.96,17,0.40,*3F
$IIDPT,020.0,-1.0,*42
$IIGLL,4740.912,N,12224.697,W,190000,A,A*48
$IIMTW,+07.5,C*3A
$GPRMC,190057.6,A,4740.91150,N,12224.69783,W,005.53,192.0,020313,016.6,E*42
$IIRMC,190000,A,4740.912,N,12224.697,W,05.6,179,020313,16,E,A*1C
$GPRMC,190057.8,A,4740.91120,N,12224.69793,W,005.16,193.8,020313,016.6,E*42
$HCHDG,192.1,0.0,E,,*22
$YXXDR,A,6.4,D,PTCH,A,4.3,D,ROLL*58
$GPRMC,190058.0,A,4740.91092,N,12224.69804,W,005.14,195.4,020313,016.6,E*44
$GPRMC,190058.2,A,4740.91064,N,12224.69819,W,005.44,199.9,020313,016.6,E*47
$IIVHW,,,,,00.0,N,,*19
$HCHDG,201.7,0.0,E,,*2D
$IIVLW,06181,N,008.4,N*51
$YXXDR,A,6.6,D,PTCH,A,2.8,D,ROLL*57
$GPRMC,190058.4,A,4740.91042,N,12224.69841,W,005.37,205.1,020313,016.6,E*42
$GPRMB,A,,,,,4740.4440,N,12220.0640,W,1164.70,17,4.66,*3B
$IIDPT,017.1,-1.0,*47
$IIGLL,4740.910,N,12224.698,W,190000,A,A*45
$IIMTW,+07.5,C*3A
$GPRMC,190058.6,A,4740.91027,N,12224.69868,W,005.32,209.0,020313,016.6,E*40
$IIRMC,190000,A,4740.910,N,12224.698,W,05.1,195,020313,16,E,A*14
$GPRMC,190058.8,A,4740.91002,N,12224.69885,W,004.86,206.8,020313,016.6,E*43
$HCHDG,204.8,0.0,E,,*27
$YXXDR,A,6.6,D,PTCH,A,4.2,D,ROLL*5B
$GPRMC,190059.0,A,4740.90979,N,12224.69909,W,005.15,212.3,020313,016.6,E*4E
$GPRMC,190059.2,A,4740.90955,N,12224.69937,W,005.52,212.9,020313,016.6,E*46
$IIVHW,,,,,00.0,N,,*19
$HCHDG,203.1,0.0,E,,*29
$IIVLW,06181,N,008.4,N*51
$YXXDR,A,5.0,D,PTCH,A,8.0,D,ROLL*50
$GPRMC,190059.4,A,4740.90935,N,12224.69963,W,004.93,216.8,020313,016.6,E*4E
$GPRMB,A,,,,,4740.4440,N,12220.0640,W,1161.68,17,0.74,*30
$IIDPT,017.1,-1.0,*47
$IIGLL,4740.909,N,12224.699,W,190000,A,A*4C
$IIMTW,+07.5,C*3A
$GPRMC,190059.6,A,4740.90913,N,12224.69993,W,005.00,214.9,020313,016.6,E*4F
$IIRMC,190000,A,4740.909,N,12224.699,W,05.1,212,020313,16,E,A*11
$GPRMC,190059.8,A,4740.90894,N,12224.70020,W,004.66,218.0,020313,016.6,E*42
$HCHDG,201.9,0.0,E,,*23
$YXXDR,A,5.2,D,PTCH,A,7.4,D,ROLL*59
$GPRMC,190100.0,A,4740.90877,N,12224.70053,W,004.64,212.8,020313,016.6,E*4E
$GPRMC,190100.2,A,4740.90853,N,12224.70075,W,004.99,214.1,020313,016.6,E*43
$IIVHW,,,,,00.0,N,,*19
$HCHDG,200.2,0.0,E,,*29
$IIVLW,06181,N,008.4,N*51
$YXXDR,A,4.7,D,PTCH,A,8.7,D,ROLL*51
$GPRMC,190100.4,A,4740.90831,N,12224.70098,W,005.03,215.7,020313,016.6,E*47
$GPRMB,A,,,,,4740.4440,N,12220.0640,W,1158.80,17,-0.21,*11
$IIDPT,017.1,-1.0,*47
$IIGLL,4740.908,N,12224.700,W,190100,A,A*4D
$IIMTW,+07.5,C*3A
$GPRMC,190100.6,A,4740.90814,N,12224.70130,W,005.05,218.0,020313,016.6,E*4D
$IIRMC,190100,A,4740.908,N,12224.700,W,04.6,212,020313,16,E,A*16
$GPRMC,190100.8,A,4740.90796,N,12224.70158,W,005.02,218.2,020313,016.6,E*4D
$HCHDG,201.5,0.0,E,,*2F
$YXXDR,A,5.1,D,PTCH,A,7.3,D,ROLL*5D
$GPRMC,190101.0,A,4740.90778,N,12224.70194,W,004.82,223.4,020313,016.6,E*43
$GPRMC,190101.2,A,4740.90760,N,12224.70231,W,004.62,225.8,020313,016.6,E*40
$IIVHW,,,,,00.0,N,,*19
$HCHDG,202.8,0.0,E,,*21
$IIVLW,06181,N,008.4,N*51
$YXXDR,A,5.0,D,PTCH,A,8.0,D,ROLL*50
$GPRMC,190101.4,A,4740.90737,N,12224.70260,W,004.80,225.4,020313,016.6,E*40
$IIDPT,017.1,-1.0,*47
$IIGLL,4740.907,N,12224.701,W,190100,A,A*43
$IIMTW,+07.5,C*3A
$GPRMC,190101.6,A,4740.90719,N,12224.70296,W,004.78,222.6,020313,016.6,E*45
$GPRMB,A,,,,,4740.4440,N,12220.0640,W,1155.85,17,-2.46,*1A
$IIRMC,190100,A,4740.907,N,12224.701,W,04.8,223,020313,16,E,A*14
$GPRMC,190101.8,A,4740.90700,N,12224.70327,W,004.80,224.4,020313,016.6,E*4B
$HCHDG,202.5,0.0,E,,*2C
$YXXDR,A,5.1,D,PTCH,A,11.5,D,ROLL*6C
$GPRMC,190102.0,A,4740.90680,N,12224.70359,W,004.73,224.1,020313,016.6,E*49
$GPRMC,190102.2,A,4740.90661,N,12224.70384,W,004.71,222.6,020313,016.6,E*47
$IIVHW,,,,,00.0,N,,*19
$HCHDG,201.8,0.0,E,,*22
$IIVLW,06181,N,008.4,N*51
$YXXDR,A,5.1,D,PTCH,A,12.8,D,ROLL*62
$GPRMC,190102.4,A,4740.90644,N,12224.70411,W,004.75,225.0,020313,016.6,E*48
$GPRMB,A,,,,,4740.4440,N,12220.0640,W,1153.82,17,-4.52,*18
$IIDPT,017.1,-1.0,*47
$IIGLL,4740.906,N,12224.703,W,190100,A,A*40
$IIMTW,+07.5,C*3A
$GPRMC,190102.6,A,4740.90626,N,12224.70446,W,004.70,227.5,020313,016.6,E*4E
$IIRMC,190100,A,4740.906,N,12224.703,W,04.7,224,020313,16,E,A*1F
$GPRMC,190102.8,A,4740.90610,N,12224.70480,W,004.67,229.1,020313,016.6,E*43
$HCHDG,202.5,0.0,E,,*2C
$YXXDR,A,5.1,D,PTCH,A,12.0,D,ROLL*6A
$GPRMC,190103.0,A,4740.90592,N,12224.70508,W,004.84,227.7,020313,016.6,E*47
$GPRMC,190103.2,A,4740.90572,N,12224.70539,W,004.88,225.9,020313,016.6,E*49
$IIVHW,,,,,00.0,N,,*19
$HCHDG,202.2,0.0,E,,*2B
$IIVLW,06181,N,008.4,N*51
$YXXDR,A,5.5,D,PTCH,A,14.6,D,ROLL*6E
$GPRMC,190103.4,A,4740.90554,N,12224.70571,W,005.07,226.4,020313,016.6,E*4F
$IIDPT,017.1,-1.0,*47
$IIGLL,4740.905,N,12224.705,W,190100,A,A*45
$IIMTW,+07.5,C*3A
$GPRMC,190103.6,A,4740.90529,N,12224.70601,W,004.91,226.5,020313,016.6,E*4C
$IIRMC,190100,A,4740.905,N,12224.705,W,04.8,227,020313,16,E,A*16
$GPRMC,190103.8,A,4740.90514,N,12224.70633,W,004.86,226.9,020313,016.6,E*47
$HCHDG,201.3,0.0,E,,*29
$YXXDR,A,5.2,D,PTCH,A,15.9,D,ROLL*67
$GPRMC,190104.0,A,4740.90498,N,12224.70659,W,004.91,226.4,020313,016.6,E*4A
$GPRMB,A,,,,,4740.4440,N,12220.0640,W,1149.95,17,-1.98,*16
$GPRMC,190104.2,A,4740.90474,N,12224.70692,W,004.98,224.1,020313,016.6,E*43
$IIVHW,,,,,00.0,N,,*19
$HCHDG,200.0,0.0,E,,*2B
$IIVLW,06181,N,008.4,N*51
$YXXDR,A,5.0,D,PTCH,A,17.4,D,ROLL*6A
$GPRMC,190104.4,A,4740.90450,N,12224.70718,W,004.70,225.9,020313,016.6,E*4F
$IIDPT,017.1,-1.0,*47
$IIGLL,4740.904,N,12224.706,W,190100,A,A*47
$IIMTW,+07.5,C*3A
$GPRMC,190104.6,A,4740.90426,N,12224.70750,W,004.73,223.6,020313,016.6,E*4A
$IIRMC,190100,A,4740.904,N,12224.706,W,04.9,226,020313,16,E,A*14
$GPRMC,190104.8,A,4740.90403,N,12224.70779,W,005.07,223.8,020313,016.6,E*44
$HCHDG,198.3,0.0,E,,*2A
$YXXDR,A,4.8,D,PTCH,A,18.9,D,ROLL*61
$GPRMC,190105.0,A,4740.90384,N,12224.70808,W,004.91,222.9,020313,016.6,E*42
$GPRMC,190105.2,A,4740.90358,N,12224.70834,W,005.29,221.1,020313,016.6,E*47
$GPRMB,A,,,,,4740.4440,N,12220.0640,W,1146.05,17,5.27,*3D
$IIVHW,,,,,00.0,N,,*19
$HCHDG,197.8,0.0,E,,*2E
$IIVLW,06181,N,008.4,N*51
$YXXDR,A,5.0,D,PTCH,A,19.5,D,ROLL*65
$GPRMC,190105.4,A,4740.90331,N,12224.70864,W,005.24,223.0,020313,016.6,E*45
$IIDPT,017.1,-1.0,*47
$IIGLL,4740.903,N,12224.708,W,190100,A,A*4E
$IIMTW,+07.5,C*3A
$GPRMC,190105.6,A,4740.90304,N,12224.70895,W,005.17,223.0,020313,016.6,E*4F
$IIRMC,190100,A,4740.903,N,12224.708,W,04.9,222,020313,16,E,A*19
$GPRMC,190105.8,A,4740.90276,N,12224.70928,W,005.17,222.5,020313,016.6,E*46
$HCHDG,198.9,0.0,E,,*20
$YXXDR,A,5.3,D,PTCH,A,18.5,D,ROLL*67
$GPRMC,190106.0,A,4740.90250,N,12224.70964,W,004.92,221.2,020313,016.6,E*49
$GPRMC,190106.2,A,4740.90223,N,12224.70994,W,005.15,217.0,020313,016.6,E*49
$IIVHW,,,,,00.0,N,,*19
$HCHDG,197.8,0.0,E,,*2E
$IIVLW,06181,N,008.4,N*51
$YXXDR,A,4.8,D,PTCH,A,20.5,D,ROLL*66
$GPRMC,190106.4,A,4740.90211,N,12224.71025,W,004.98,220.5,020313,016.6,E*49
$GPRMB,A,,,,,4740.4440,N,12220.0640,W,1141.98,17,-4.96,*18
$IIDPT,017.1,-1.0,*47
$IIGLL,4740.902,N,12224.709,W,190100,A,A*4E
$IIMTW,+07.5,C*3A
$GPRMC,190106.6,A,4740.90192,N,12224.71055,W,005.14,221.9,020313,016.6,E*4C
$IIRMC,190100,A,4740.902,N,12224.709,W,04.9,221,020313,16,E,A*1A
$GPRMC,190106.8,A,4740.90171,N,12224.71081,W,005.61,223.8,020313,016.6,E*47
$HCHDG,201.3,0.0,E,,*29
$YXXDR,A,5.5,D,PTCH,A,16.9,D,ROLL*63
$GPRMC,190107.0,A,4740.90145,N,12224.71112,W,005.53,224.3,020313,016.6,E*4F
$GPRMC,190107.2,A,4740.90133,N,12224.71147,W,005.09,223.3,020313,016.6,E*44
$IIVHW,,,,,00.0,N,,*19
$HCHDG,203.8,0.0,E,,*20
$IIVLW,06181,N,008.4,N*51
$YXXDR,A,5.5,D,PTCH,A,16.2,D,ROLL*68
$GPRMC,190107.4,A,4740.90114,N,12224.71184,W,005.39,225.5,020313,016.6,E*4B
$GPRMB,A,,,,,4740.4440,N,12220.0640,W,1139.39,17,4.16,*39
$IIDPT,017.1,-1.0,*47
$IIGLL,4740.901,N,12224.711,W,190100,A,A*44
$IIMTW,+07.5,C*3A
$GPRMC,190107.6,A,4740.90098,N,12224.71225,W,005.13,226.7,020313,016.6,E*4D
$IIRMC,190100,A,4740.901,N,12224.711,W,05.5,224,020313,16,E,A*18
$GPRMC,190107.8,A,4740.90079,N,12224.71262,W,005.49,227.3,020313,016.6,E*45
$HCHDG,204.8,0.0,E,,*27
$YXXDR,A,5.7,D,PTCH,A,16.4,D,ROLL*6C
$GPRMC,190108.0,A,4740.90056,N,12224.71299,W,005.55,229.6,020313,016.6,E*4D
$GPRMC,190108.2,A,4740.90035,N,12224.71332,W,005.36,227.9,020313,016.6,E*4E
$IIVHW,,,,,00.0,N,,*19
$HCHDG,206.1,0.0,E,,*2C
$IIVLW,06181,N,008.4,N*51
$YXXDR,A,5.4,D,PTCH,A,15.5,D,ROLL*6D
$GPRMC,190108.4,A,4740.90012,N,12224.71368,W,005.41,226.6,020313,016.6,E*4C
$GPRMB,A,,,,,4740.4440,N,12220.0640,W,1136.72,17,3.44,*39
$IIDPT,017.1,-1.0,*47
$IIGLL,4740.900,N,12224.712,W,190100,A,A*46
$IIMTW,+07.5,C*3A
$GPRMC,190108.6,A,4740.89986,N,12224.71406,W,005.48,229.5,020313,016.6,E*48
$IIRMC,190100,A,4740.900,N,12224.712,W,05.5,229,020313,16,E,A*17
$GPRMC,190108.8,A,4740.89970,N,12224.71448,W,005.49,230.9,020313,016.6,E*40
$HCHDG,206.5,0.0,E,,*28
$YXXDR,A,5.9,D,PTCH,A,15.7,D,ROLL*62
$GPRMC,190109.0,A,4740.89953,N,12224.71492,W,005.51,228.5,020313,016.6,E*43
$GPRMC,190109.2,A,4740.89933,N,12224.71529,W,005.77,229.5,020313,016.6,E*43
$IIVHW,,,,,00.0,N,,*19
$HCHDG,206.0,0.0,E,,*2D
$IIVLW,06181,N,008.4,N*51
$YXXDR,A,5.7,D,PTCH,A,17.2,D,ROLL*6B
$GPRMC,190109.4,A,4740.89912,N,12224.71571,W,005.79,229.5,020313,016.6,E*45
$IIDPT,017.0,-1.0,*46
$IIGLL,4740.899,N,12224.714,W,190100,A,A*41
$IIMTW,+07.5,C*3A
$GPRMC,190109.6,A,4740.89894,N,12224.71607,W,005.86,228.6,020313,016.6,E*48
$GPRMB,A,,,,,4740.4440,N,12220.0640,W,1133.72,17,-4.23,*17
$IIRMC,190100,A,4740.899,N,12224.714,W,05.5,228,020313,16,E,A*11
$GPRMC,190109.8,A,4740.89871,N,12224.71642,W,005.35,228.7,020313,016.6,E*45
$HCHDG,206.1,0.0,E,,*2C
$YXXDR,A,5.3,D,PTCH,A,17.1,D,ROLL*6C
$GPRMC,190110.0,A,4740.89852,N,12224.71678,W,005.80,231.0,020313,016.6,E*4C
$GPRMC,190110.2,A,4740.89835,N,12224.71722,W,005.83,228.9,020313,016.6,E*43
$IIVHW,,,,,00.0,N,,*19
$HCHDG,205.8,0.0,E,,*26
$IIVLW,06181,N,008.4,N*51
$YXXDR,A,4.9,D,PTCH,A,17.2,D,ROLL*64
$GPRMC,190110.4,A,4740.89814,N,12224.71764,W,005.87,228.2,020313,016.6,E*4B
$IIDPT,017.0,-1.0,*46
$IIGLL,4740.898,N,12224.716,W,190100,A,A*42
$IIMTW,+07.5,C*3A
$GPRMC,190110.6,A,4740.89794,N,12224.71812,W,006.03,229.8,020313,016.6,E*44
$IIRMC,190100,A,4740.898,N,12224.716,W,05.8,231,020313,16,E,A*17
$GPRMC,190110.8,A,4740.89775,N,12224.71853,W,006.01,228.3,020313,016.6,E*48
$GPRMB,A,,,,,4740.4440,N,12220.0640,W,1130.70,17,-3.75,*12
$HCHDG,204.9,0.0,E,,*26
$YXXDR,A,5.1,D,PTCH,A,17.8,D,ROLL*67
$GPRMC,190111.0,A,4740.89759,N,12224.71886,W,006.07,226.3,020313,016.6,E*4F
$GPRMC,190111.2,A,4740.89739,N,12224.71921,W,006.29,228.0,020313,016.6,E*46
$IIVHW,,,,,00.0,N,,*19
$HCHDG,205.1,0.0,E,,*2F
$IIVLW,06181,N,008.4,N*51
$YXXDR,A,5.2,D,PTCH,A,17.3,D,ROLL*6F
$GPRMC,190111.4,A,4740.89714,N,12224.71952,W,005.65,226.6,020313,016.6,E*48
$IIDPT,017.0,-1.0,*46
$IIGLL,4740.898,N,12224.716,W,190100,A,A*42
$IIMTW,+07.5,C*3A
$GPRMC,190111.6,A,4740.89696,N,12224.71990,W,005.73,228.4,020313,016.6,E*44
$IIRMC,190100,A,4740.898,N,12224.716,W,05.8,231,020313,16,E,A*17
$GPRMC,190111.8,A,4740.89675,N,12224.72029,W,005.99,230.7,020313,016.6,E*41
$HCHDG,206.5,0.0,E,,*28
$YXXDR,A,5.1,D,PTCH,A,15.7,D,ROLL*6A
$GPRMC,190112.0,A,4740.89654,N,12224.72074,W,006.20,233.4,020313,016.6,E*40
$GPRMB,A,,,,,4740.4440,N,12220.0640,W,1127.54,17,3.66,*3D
$GPRMC,190112.2,A,4740.89631,N,12224.72116,W,006.28,232.1,020313,016.6,E*48
$IIVHW,,,,,00.0,N,,*19
$HCHDG,209.1,0.0,E,,*23
$IIVLW,06181,N,008.4,N*51
$YXXDR,A,5.2,D,PTCH,A,14.4,D,ROLL*6B
$GPRMC,190112.4,A,4740.89600,N,12224.72159,W,006.31,232.3,020313,016.6,E*4D
$IIDPT,017.0,-1.0,*46
$IIGLL,4740.896,N,12224.720,W,190100,A,A*49
$IIMTW,+07.5,C*3A
$GPRMC,190112.6,A,4740.89578,N,12224.72200,W,006.30,233.5,020313,016.6,E*4A
$IIRMC,190100,A,4740.896,N,12224.720,W,06.2,233,020313,16,E,A*17
$GPRMC,190112.8,A,4740.89558,N,12224.72242,W,006.33,233.1,020313,016.6,E*47
$HCHDG,209.0,0.0,E,,*22
$YXXDR,A,5.4,D,PTCH,A,16.3,D,ROLL*68
$GPRMC,190113.0,A,4740.89535,N,12224.72285,W,006.37,232.4,020313,016.6,E*4E
$GPRMC,190113.2,A,4740.89507,N,12224.72329,W,006.36,231.7,020313,016.6,E*4B
$GPRMB,A,,,,,4740.4440,N,12220.0640,W,1123.67,17,-3.82,*1E
$IIVHW,,,,,00.0,N,,*19
$HCHDG,206.8,0.0,E,,*25
$IIVLW,06181,N,008.4,N*51
$YXXDR,A,5.0,D,PTCH,A,18.3,D,ROLL*62
$GPRMC,190113.4,A,4740.89482,N,12224.72368,W,006.14,230.2,020313,016.6,E*40
$IIDPT,017.0,-1.0,*46
$IIGLL,4740.895,N,12224.722,W,190100,A,A*48
$IIMTW,+07.5,C*3A
$GPRMC,190113.6,A,4740.89459,N,12224.72412,W,006.37,228.2,020313,016.6,E*46
$IIRMC,190100,A,4740.895,N,12224.722,W,06.3,232,020313,16,E,A*16
$GPRMC,190113.8,A,4740.89438,N,12224.72454,W,006.37,227.5,020313,016.6,E*45
$HCHDG,203.7,0.0,E,,*2F
$YXXDR,A,5.1,D,PTCH,A,22.0,D,ROLL*69
$GPRMC,190114.0,A,4740.89422,N,12224.72498,W,006.33,226.4,020313,016.6,E*45
$GPRMC,190114.2,A,4740.89403,N,12224.72540,W,006.27,228.1,020313,016.6,E*4E
$GPRMB,A,,,,,4740.4440,N,12220.0640,W,1121.03,17,2.66,*38
$IIVHW,,,,,00.0,N,,*19
$HCHDG,204.5,0.0,E,,*2A
$IIVLW,06181,N,008.4,N*51
$YXXDR,A,5.1,D,PTCH,A,19.2,D,ROLL*63
$GPRMC,190114.4,A,4740.89381,N,12224.72580,W,006.23,226.6,020313,016.6,E*44
$IIDPT,017.0,-1.0,*46
$IIGLL,4740.894,N,12224.724,W,190100,A,A*4F
$IIMTW,+07.5,C*3A
$GPRMC,190114.6,A,4740.89363,N,12224.72624,W,006.24,228.8,020313,016.6,E*40
$IIRMC,190100,A,4740.894,N,12224.724,W,06.3,226,020313,16,E,A*14
$GPRMC,190114.8,A,4740.89337,N,12224.72666,W,006.18,229.9,020313,016.6,E*46
$HCHDG,205.7,0.0,E,,*29
$YXXDR,A,5.9,D,PTCH,A,15.5,D,ROLL*60
$GPRMC,190115.0,A,4740.89313,N,12224.72705,W,006.14,231.0,020313,016.6,E*41
$GPRMC,190115.2,A,4740.89288,N,12224.72737,W,006.17,231.1,020313,016.6,E*43
$IIVHW,,,,,00.0,N,,*19
$HCHDG,208.1,0.0,E,,*22
$IIVLW,06181,N,008.4,N*51
$YXXDR,A,5.4,D,PTCH,A,14.6,D,ROLL*6F
$GPRMC,190115.4,A,4740.89265,N,12224.72770,W,006.40,231.1,020313,016.6,E*47
$GPRMB,A,,,,,4740.4440,N,12220.0640,W,1117.37,17,2.85,*37
$IIDPT,017.0,-1.0,*46
$IIGLL,4740.893,N,12224.727,W,190100,A,A*4B
$IIMTW,+07.5,C*3A
$GPRMC,190115.6,A,4740.89236,N,12224.72807,W,006.37,231.7,020313,016.6,E*4A
$IIRMC,190100,A,4740.893,N,12224.727,W,06.1,231,020313,16,E,A*14
$GPRMC,190115.8,A,4740.89212,N,12224.72842,W,006.31,232.4,020313,016.6,E*45
$HCHDG,208.4,0.0,E,,*27
$YXXDR,A,6.8,D,PTCH,A,18.2,D,ROLL*68
$GPRMC,190116.0,A,4740.89190,N,12224.72887,W,006.36,232.4,020313,016.6,E*49
$GPRMC,190116.2,A,4740.89164,N,12224.72933,W,006.40,231.8,020313,016.6,E*40
$IIVHW,,,,,00.0,N,,*19
$HCHDG,208.5,0.0,E,,*26
$IIVLW,06181,N,008.4,N*51
$YXXDR,A,5.4,D,PTCH,A,17.6,D,ROLL*6C
$GPRMC,190116.4,A,4740.89140,N,12224.72977,W,006.43,232.3,020313,016.6,E*4B
$GPRMB,A,,,,,4740.4440,N,12220.0640,W,1114.05,17,4.71,*38
$IIDPT,017.0,-1.0,*46
$IIGLL,4740.891,N,12224.728,W,190100,A,A*46
$IIMTW,+07.5,C*3A
$GPRMC,190116.6,A,4740.89122,N,12224.73018,W,006.45,232.9,020313,016.6,E*40
$IIRMC,190100,A,4740.891,N,12224.728,W,06.3,232,020313,16,E,A*18
$GPRMC,190116.8,A,4740.89104,N,12224.73057,W,006.48,231.9,020313,016.6,E*4F
$HCHDG,209.5,0.0,E,,*27
$YXXDR,A,5.3,D,PTCH,A,17.5,D,ROLL*68
$GPRMC,190117.0,A,4740.89074,N,12224.73098,W,006.47,234.2,020313,016.6,E*42
$GPRMC,190117.2,A,4740.89048,N,12224.73144,W,006.49,231.6,020313,016.6,E*40
$IIVHW,,,,,00.0,N,,*19
$HCHDG,209.2,0.0,E,,*20
$IIVLW,06181,N,008.4,N*51
$YXXDR,A,5.1,D,PTCH,A,19.7,D,ROLL*66
$GPRMC,190117.4,A,4740.89013,N,12224.73183,W,006.51,232.8,020313,016.6,E*47
$IIDPT,017.0,-1.0,*46
$IIGLL,4740.890,N,12224.730,W,190100,A,A*4E
$IIMTW,+08.0,C*30
$GPRMC,190117.6,A,4740.88986,N,12224.73225,W,006.50,234.8,020313,016.6,E*49
$GPRMB,A,,,,,4740.4440,N,12220.0640,W,1109.94,17,5.63,*3E
$IIRMC,190100,A,4740.890,N,12224.730,W,06.4,234,020313,16,E,A*11
$GPRMC,190117.8,A,4740.88958,N,12224.73278,W,006.52,232.1,020313,016.6,E*41
$HCHDG,208.9,0.0,E,,*2A
$YXXDR,A,5.0,D,PTCH,A,21.1,D,ROLL*6A
$GPRMC,190118.0,A,4740.88934,N,12224.73329,W,006.49,231.8,020313,016.6,E*49
$GPRMC,190118.2,A,4740.88912,N,12224.73372,W,006.47,233.5,020313,016.6,E*40
$IIVHW,,,,,00.0,N,,*19
$HCHDG,208.5,0.0,E,,*26
$IIVLW,06181,N,008.4,N*51
$YXXDR,A,5.3,D,PTCH,A,22.1,D,ROLL*6A
$GPRMC,190118.4,A,4740.88891,N,12224.73414,W,006.47,231.7,020313,016.6,E*4B
$IIDPT,017.0,-1.0,*46
$IIGLL,4740.889,N,12224.733,W,190100,A,A*45
$IIMTW,+07.0,C*3F
$GPRMC,190118.6,A,4740.88870,N,12224.73456,W,006.45,231.2,020313,016.6,E*47
