$GPRMC,220000.4,A,4743.20029,N,12223.29592,W,006.10,224.6,020313,016.6,E*41
$IIGLL,4743.201,N,12223.293,W,215900,A,A*42
$GPRMC,220000.6,A,4743.20010,N,12223.29624,W,006.10,225.1,020313,016.6,E*41
$HCHDG,203.9,0.0,E,,*21
$YXXDR,A,4.5,D,PTCH,A,15.6,D,ROLL*6E
$GPRMC,220000.8,A,4743.19989,N,12223.29660,W,006.07,223.5,020313,016.6,E*48
$GPRMC,220001.0,A,4743.19967,N,12223.29696,W,006.07,225.1,020313,016.6,E*4A
$GPRMB,A,,,,,4740.4440,N,12220.0640,W,8419.87,377,-4.66,*2D
$IIMTW,+08.0,C*30
$HCHDG,203.1,0.0,E,,*29
$GPRMC,220001.2,A,4743.19947,N,12223.29729,W,006.04,225.0,020313,016.6,E*4D
$IIRMC,220000,A,4743.200,N,12223.295,W,06.1,224,020313,16,E,A*11
$YXXDR,A,4.4,D,PTCH,A,16.8,D,ROLL*62
$IIVHW,,,,,06.4,N,,*1B
$IIVLW,06194,N,022.0,N*59
$IIDPT,049.9,-1.0,*44
$GPRMC,220001.4,A,4743.19929,N,12223.29757,W,006.03,226.4,020313,016.6,E*4A
$IIGLL,4743.200,N,12223.295,W,220000,A,A*4A
$GPRMC,220001.6,A,4743.19908,N,12223.29796,W,006.02,225.5,020313,016.6,E*45
$HCHDG,203.8,0.0,E,,*20
$YXXDR,A,4.8,D,PTCH,A,16.9,D,ROLL*6F
$GPRMC,220001.8,A,4743.19889,N,12223.29830,W,006.03,224.0,020313,016.6,E*45
$GPRMC,220002.0,A,4743.19869,N,12223.29868,W,006.03,224.6,020313,016.6,E*4B
$GPRMB,A,,,,,4740.4440,N,12220.0640,W,8416.63,377,5.72,*01
$IIMTW,+07.5,C*3A
$HCHDG,202.7,0.0,E,,*2E
$GPRMC,220002.2,A,4743.19849,N,12223.29898,W,006.03,223.7,020313,016.6,E*42
$IIRMC,220000,A,4743.200,N,12223.295,W,06.1,224,020313,16,E,A*11
$YXXDR,A,4.7,D,PTCH,A,19.6,D,ROLL*60
$IIVHW,,,,,06.4,N,,*1B
$IIVLW,06194,N,022.0,N*59
$IIDPT,049.9,-1.0,*44
$GPRMC,220002.4,A,4743.19829,N,12223.29929,W,006.02,224.8,020313,016.6,E*40
$IIGLL,4743.200,N,12223.295,W,220000,A,A*4A
$GPRMC,220002.6,A,4743.19807,N,12223.29963,W,005.99,224.7,020313,016.6,E*4E
$HCHDG,202.8,0.0,E,,*21
$YXXDR,A,4.4,D,PTCH,A,20.2,D,ROLL*6D
$GPRMC,220002.8,A,4743.19789,N,12223.29996,W,005.97,224.8,020313,016.6,E*42
$GPRMC,220003.0,A,4743.19769,N,12223.30026,W,005.95,224.9,020313,016.6,E*4C
$GPRMB,A,,,,,4740.4440,N,12220.0640,W,8413.32,377,1.37,*05
$IIMTW,+07.5,C*3A
$HCHDG,203.3,0.0,E,,*2B
$GPRMC,220003.2,A,4743.19746,N,12223.30057,W,005.93,224.9,020313,016.6,E*43
$IIRMC,220000,A,4743.198,N,12223.298,W,06.0,224,020313,16,E,A*1F
$YXXDR,A,4.6,D,PTCH,A,21.1,D,ROLL*6D
$IIVHW,,,,,06.4,N,,*1B
$IIVLW,06194,N,022.0,N*59
$IIDPT,049.9,-1.0,*44
$GPRMC,220003.4,A,4743.19723,N,12223.30092,W,005.92,225.1,020313,016.6,E*47
$IIGLL,4743.198,N,12223.298,W,220000,A,A*45
$GPRMC,220003.6,A,4743.19702,N,12223.30126,W,005.93,224.6,020313,016.6,E*4F
$HCHDG,202.2,0.0,E,,*2B
$YXXDR,A,4.3,D,PTCH,A,22.5,D,ROLL*6F
$GPRMC,220003.8,A,4743.19678,N,12223.30157,W,005.92,225.1,020313,016.6,E*4C
$GPRMC,220004.0,A,4743.19648,N,12223.30192,W,005.92,224.9,020313,016.6,E*40
$IIMTW,+08.0,C*30
$HCHDG,201.6,0.0,E,,*2C
$GPRMC,220004.2,A,4743.19620,N,12223.30230,W,005.91,225.1,020313,016.6,E*4D
$GPRMB,A,,,,,4740.4440,N,12220.0640,W,8408.40,377,-4.54,*27
$IIRMC,220000,A,4743.197,N,12223.300,W,05.9,224,020313,16,E,A*1A
$YXXDR,A,4.1,D,PTCH,A,23.1,D,ROLL*68
$IIVHW,,,,,06.3,N,,*1C
$IIVLW,06194,N,022.0,N*59
$GPRMC,220004.4,A,4743.19594,N,12223.30258,W,005.90,223.5,020313,016.6,E*4A
$IIGLL,4743.197,N,12223.300,W,220000,A,A*4A
$GPRMC,220004.6,A,4743.19567,N,12223.30290,W,005.92,223.3,020313,016.6,E*44
$HCHDG,201.5,0.0,E,,*2F
$YXXDR,A,4.6,D,PTCH,A,23.4,D,ROLL*6A
$GPRMC,220004.8,A,4743.19542,N,12223.30325,W,005.94,222.5,020313,016.6,E*43
$GPRMC,220005.0,A,4743.19514,N,12223.30357,W,005.94,220.6,020313,016.6,E*4D
$IIMTW,+08.0,C*30
$HCHDG,199.6,0.0,E,,*2E
$GPRMC,220005.2,A,4743.19486,N,12223.30385,W,005.95,220.3,020313,016.6,E*4E
$GPRMB,A,,,,,4740.4440,N,12220.0640,W,8403.98,377,3.19,*0A
$IIRMC,220000,A,4743.196,N,12223.301,W,05.9,224,020313,16,E,A*1A
$YXXDR,A,4.1,D,PTCH,A,24.5,D,ROLL*6B
$IIVHW,,,,,06.4,N,,*1B
$IIVLW,06194,N,022.0,N*59
$GPRMC,220005.4,A,4743.19463,N,12223.30414,W,005.95,221.8,020313,016.6,E*46
$IIGLL,4743.196,N,12223.301,W,220000,A,A*4A
$GPRMC,220005.6,A,4743.19439,N,12223.30447,W,005.95,222.7,020313,016.6,E*41
$HCHDG,200.2,0.0,E,,*29
$YXXDR,A,4.4,D,PTCH,A,22.4,D,ROLL*69
$GPRMC,220005.8,A,4743.19413,N,12223.30481,W,005.97,220.8,020313,016.6,E*42
$GPRMC,220006.0,A,4743.19388,N,12223.30509,W,005.99,220.6,020313,016.6,E*4D
$IIMTW,+08.0,C*30
$HCHDG,201.0,0.0,E,,*2A
$GPRMC,220006.2,A,4743.19359,N,12223.30538,W,006.02,219.8,020313,016.6,E*44
$GPRMB,A,,,,,4740.4440,N,12220.0640,W,8399.79,377,-1.15,*22
$IIRMC,220000,A,4743.195,N,12223.303,W,05.9,220,020313,16,E,A*1F
$YXXDR,A,4.8,D,PTCH,A,22.6,D,ROLL*67
$IIVHW,,,,,06.4,N,,*1B
$IIVLW,06194,N,022.0,N*59
$GPRMC,220006.4,A,4743.19334,N,12223.30567,W,006.05,220.2,020313,016.6,E*44
$IIGLL,4743.195,N,12223.303,W,220000,A,A*4B
$GPRMC,220006.6,A,4743.19314,N,12223.30595,W,006.08,220.9,020313,016.6,E*4F
$HCHDG,201.2,0.0,E,,*28
$YXXDR,A,4.3,D,PTCH,A,23.2,D,ROLL*69
$GPRMC,220006.8,A,4743.19293,N,12223.30622,W,006.12,221.7,020313,016.6,E*44
$GPRMC,220007.0,A,4743.19266,N,12223.30657,W,006.15,223.6,020313,016.6,E*41
$IIMTW,+08.0,C*30
$HCHDG,203.0,0.0,E,,*28
$GPRMC,220007.2,A,4743.19234,N,12223.30700,W,005.99,223.8,020313,016.6,E*4E
$IIRMC,220000,A,4743.193,N,12223.305,W,05.9,220,020313,16,E,A*1F
$YXXDR,A,4.3,D,PTCH,A,22.7,D,ROLL*6D
$IIVHW,,,,,06.4,N,,*1B
$IIVLW,06194,N,022.0,N*59
$GPRMC,220007.4,A,4743.19207,N,12223.30742,W,006.24,226.2,020313,016.6,E*44
$GPRMB,A,,,,,4740.4440,N,12220.0640,W,8394.77,377,-3.93,*2D
$IIGLL,4743.193,N,12223.305,W,220000,A,A*4B
$GPRMC,220007.6,A,4743.19183,N,12223.30782,W,006.22,227.2,020313,016.6,E*42
$HCHDG,204.8,0.0,E,,*27
$YXXDR,A,4.5,D,PTCH,A,22.7,D,ROLL*6B
$GPRMC,220007.8,A,4743.19161,N,12223.30816,W,006.18,225.4,020313,016.6,E*4F
$GPRMC,220008.0,A,4743.19139,N,12223.30849,W,006.22,225.4,020313,016.6,E*46
$IIMTW,+08.0,C*30
$HCHDG,203.0,0.0,E,,*28
$GPRMC,220008.2,A,4743.19116,N,12223.30884,W,006.26,224.6,020313,016.6,E*4F
$IIRMC,220000,A,4743.192,N,12223.306,W,06.1,223,020313,16,E,A*15
$YXXDR,A,4.4,D,PTCH,A,26.0,D,ROLL*69
$IIVHW,,,,,06.3,N,,*1C
$IIVLW,06194,N,022.0,N*59
$IIDPT,056.3,-1.0,*40
$GPRMC,220008.4,A,4743.19094,N,12223.30913,W,006.22,224.7,020313,016.6,E*48
$GPRMB,A,,,,,4740.4440,N,12220.0640,W,8391.04,377,6.06,*08
$IIGLL,4743.192,N,12223.306,W,220000,A,A*49
$GPRMC,220008.6,A,4743.19072,N,12223.30941,W,006.21,222.6,020313,016.6,E*41
$HCHDG,200.3,0.0,E,,*28
$YXXDR,A,4.0,D,PTCH,A,27.9,D,ROLL*65
$GPRMC,220008.8,A,4743.19047,N,12223.30981,W,006.04,221.0,020313,016.6,E*47
$GPRMC,220009.0,A,4743.19017,N,12223.31019,W,006.10,222.1,020313,016.6,E*45
$IIMTW,+08.0,C*30
$HCHDG,198.9,0.0,E,,*20
$GPRMC,220009.2,A,4743.18991,N,12223.31056,W,006.12,220.7,020313,016.6,E*4C
$IIRMC,220000,A,4743.191,N,12223.308,W,06.2,225,020313,16,E,A*1D
$YXXDR,A,4.3,D,PTCH,A,27.9,D,ROLL*66
$IIVHW,,,,,06.3,N,,*1C
$IIVLW,06194,N,022.0,N*59
$IIDPT,056.3,-1.0,*40
$GPRMC,220009.4,A,4743.18967,N,12223.31087,W,006.13,219.7,020313,016.6,E*44
$GPRMB,A,,,,,4740.4440,N,12220.0640,W,8386.84,377,-4.16,*28
$IIGLL,4743.191,N,12223.308,W,220000,A,A*44
$GPRMC,220009.6,A,4743.18942,N,12223.31116,W,006.10,218.6,020313,016.6,E*4B
$HCHDG,198.3,0.0,E,,*2A
$YXXDR,A,4.4,D,PTCH,A,27.7,D,ROLL*6F
$GPRMC,220009.8,A,4743.18917,N,12223.31147,W,006.08,217.4,020313,016.6,E*45
$GPRMC,220010.0,A,4743.18891,N,12223.31178,W,006.08,216.6,020313,016.6,E*45
$IIMTW,+08.0,C*30
$HCHDG,197.4,0.0,E,,*22
$GPRMC,220010.2,A,4743.18866,N,12223.31208,W,006.09,218.8,020313,016.6,E*4A
$IIRMC,220000,A,4743.190,N,12223.310,W,06.1,222,020313,16,E,A*11
$YXXDR,A,3.8,D,PTCH,A,27.3,D,ROLL*60
$IIVHW,,,,,06.3,N,,*1C
$IIVLW,06195,N,022.0,N*58
$IIDPT,056.3,-1.0,*40
$GPRMC,220010.4,A,4743.18839,N,12223.31247,W,006.13,220.7,020313,016.6,E*42
$IIGLL,4743.190,N,12223.310,W,220000,A,A*4C
$GPRMC,220010.6,A,4743.18813,N,12223.31281,W,006.13,219.9,020313,016.6,E*46
$GPRMB,A,,,,,4740.4440,N,12220.0640,W,8381.76,377,2.16,*09
$HCHDG,200.7,0.0,E,,*2C
$YXXDR,A,4.9,D,PTCH,A,23.3,D,ROLL*62
$GPRMC,220010.8,A,4743.18787,N,12223.31309,W,006.15,218.8,020313,016.6,E*4D
$GPRMC,220011.0,A,4743.18760,N,12223.31338,W,006.15,219.7,020313,016.6,E*41
$IIMTW,+08.0,C*30
$HCHDG,199.6,0.0,E,,*2E
$GPRMC,220011.2,A,4743.18729,N,12223.31371,W,006.11,217.4,020313,016.6,E*4A
$IIRMC,220000,A,4743.188,N,12223.311,W,06.0,216,020313,16,E,A*1F
$YXXDR,A,4.4,D,PTCH,A,25.6,D,ROLL*6C
$IIVHW,,,,,06.3,N,,*1C
$IIVLW,06195,N,022.0,N*58
$IIDPT,056.3,-1.0,*40
$GPRMC,220011.4,A,4743.18701,N,12223.31409,W,006.11,221.3,020313,016.6,E*4C
$IIGLL,4743.188,N,12223.311,W,220000,A,A*44
$GPRMC,220011.6,A,4743.18674,N,12223.31444,W,006.09,220.8,020313,016.6,E*47
$HCHDG,200.8,0.0,E,,*23
$YXXDR,A,5.3,D,PTCH,A,21.5,D,ROLL*6D
$GPRMC,220011.8,A,4743.18650,N,12223.31477,W,006.08,221.5,020313,016.6,E*42
$GPRMB,A,,,,,4740.4440,N,12220.0640,W,8376.39,377,1.25,*09
$GPRMC,220012.0,A,4743.18620,N,12223.31507,W,006.06,220.5,020313,016.6,E*47
$IIMTW,+08.0,C*30
$HCHDG,201.8,0.0,E,,*22
$GPRMC,220012.2,A,4743.18591,N,12223.31539,W,006.08,222.2,020313,016.6,E*4A
$IIRMC,220000,A,4743.187,N,12223.313,W,06.1,219,020313,16,E,A*1C
$YXXDR,A,4.6,D,PTCH,A,21.9,D,ROLL*65
$IIVHW,,,,,06.4,N,,*1B
$IIVLW,06195,N,022.0,N*58
$IIDPT,056.3,-1.0,*40
$GPRMC,220012.4,A,4743.18564,N,12223.31574,W,006.07,222.4,020313,016.6,E*46
$IIGLL,4743.187,N,12223.313,W,220000,A,A*49
$GPRMC,220012.6,A,4743.18541,N,12223.31612,W,006.09,222.0,020313,016.6,E*4A
$HCHDG,202.1,0.0,E,,*28
$YXXDR,A,4.7,D,PTCH,A,21.4,D,ROLL*69
$GPRMC,220012.8,A,4743.18514,N,12223.31644,W,006.09,221.9,020313,016.6,E*4D
$GPRMC,220013.0,A,4743.18488,N,12223.31676,W,006.10,221.7,020313,016.6,E*47
$GPRMB,A,,,,,4740.4440,N,12220.0640,W,8371.05,377,-4.78,*21
$IIMTW,+08.0,C*30
$HCHDG,202.2,0.0,E,,*2B
$GPRMC,220013.2,A,4743.18462,N,12223.31710,W,006.11,221.5,020313,016.6,E*43
$IIRMC,220000,A,4743.186,N,12223.315,W,06.0,220,020313,16,E,A*10
$YXXDR,A,4.4,D,PTCH,A,21.1,D,ROLL*6F
$IIVHW,,,,,06.4,N,,*1B
$IIVLW,06195,N,022.0,N*58
$IIDPT,056.3,-1.0,*40
$GPRMC,220013.4,A,4743.18438,N,12223.31745,W,006.13,221.9,020313,016.6,E*44
$IIGLL,4743.186,N,12223.315,W,220000,A,A*4E
$GPRMC,220013.6,A,4743.18412,N,12223.31779,W,006.13,222.5,020313,016.6,E*4E
$HCHDG,203.4,0.0,E,,*2C
$YXXDR,A,4.8,D,PTCH,A,18.9,D,ROLL*61
$GPRMC,220013.8,A,4743.18386,N,12223.31814,W,006.16,223.9,020313,016.6,E*46
$GPRMC,220014.0,A,4743.18364,N,12223.31847,W,006.18,223.0,020313,016.6,E*44
$GPRMB,A,,,,,4740.4440,N,12220.0640,W,8366.96,377,-6.00,*20
$IIMTW,+08.0,C*30
$HCHDG,204.8,0.0,E,,*27
$GPRMC,220014.2,A,4743.18342,N,12223.31886,W,006.20,224.4,020313,016.6,E*47
$IIRMC,220000,A,4743.184,N,12223.316,W,06.1,221,020313,16,E,A*11
$YXXDR,A,4.7,D,PTCH,A,18.6,D,ROLL*61
$IIVHW,,,,,06.3,N,,*1C
$IIVLW,06195,N,022.0,N*58
$IIDPT,056.3,-1.0,*40
$GPRMC,220014.4,A,4743.18319,N,12223.31919,W,006.21,222.5,020313,016.6,E*4E
$IIGLL,4743.184,N,12223.316,W,220000,A,A*4F
$GPRMC,220014.6,A,4743.18298,N,12223.31950,W,006.23,224.4,020313,016.6,E*4C
$HCHDG,204.6,0.0,E,,*29
$YXXDR,A,4.7,D,PTCH,A,19.9,D,ROLL*6F
$GPRMC,220014.8,A,4743.18279,N,12223.31984,W,006.25,225.5,020313,016.6,E*42
$GPRMC,220015.0,A,4743.18260,N,12223.32015,W,006.26,225.6,020313,016.6,E*41
$GPRMB,A,,,,,4740.4440,N,12220.0640,W,8363.53,377,3.00,*04
$IIMTW,+07.5,C*3A
$HCHDG,205.5,0.0,E,,*2B
$GPRMC,220015.2,A,4743.18239,N,12223.32046,W,006.25,225.1,020313,016.6,E*4D
$IIRMC,220000,A,4743.184,N,12223.316,W,06.1,221,020313,16,E,A*11
$YXXDR,A,4.2,D,PTCH,A,21.3,D,ROLL*6B
$IIVHW,,,,,06.3,N,,*1C
$IIVLW,06195,N,022.0,N*58
$IIDPT,056.3,-1.0,*40
$GPRMC,220015.4,A,4743.18214,N,12223.32081,W,006.26,224.5,020313,016.6,E*49
$IIGLL,4743.184,N,12223.316,W,220000,A,A*4F
$GPRMC,220015.6,A,4743.18188,N,12223.32114,W,006.26,224.9,020313,016.6,E*4C
$HCHDG,205.3,0.0,E,,*2D
$YXXDR,A,4.6,D,PTCH,A,21.9,D,ROLL*65
$GPRMC,220015.8,A,4743.18164,N,12223.32153,W,006.25,227.2,020313,016.6,E*48
$GPRMC,220016.0,A,4743.18138,N,12223.32197,W,006.28,227.2,020313,016.6,E*4F
$GPRMB,A,,,,,4740.4440,N,12220.0640,W,8359.51,377,0.43,*0B
$IIMTW,+07.5,C*3A
$HCHDG,205.8,0.0,E,,*26
$GPRMC,220016.2,A,4743.18116,N,12223.32235,W,006.26,227.5,020313,016.6,E*43
$IIRMC,220000,A,4743.182,N,12223.320,W,06.2,225,020313,16,E,A*15
$YXXDR,A,4.5,D,PTCH,A,21.9,D,ROLL*66
$IIVHW,,,,,06.3,N,,*1C
$IIVLW,06195,N,022.0,N*58
$IIDPT,056.3,-1.0,*40
$GPRMC,220016.4,A,4743.18094,N,12223.32271,W,006.29,227.2,020313,016.6,E*46
$IIGLL,4743.182,N,12223.320,W,220000,A,A*4C
$GPRMC,220016.6,A,4743.18072,N,12223.32311,W,006.30,227.8,020313,016.6,E*49
$HCHDG,205.3,0.0,E,,*2D
$YXXDR,A,4.4,D,PTCH,A,23.9,D,ROLL*65
$GPRMC,220016.8,A,4743.18046,N,12223.32345,W,006.28,226.4,020313,016.6,E*45
$GPRMC,220017.0,A,4743.18022,N,12223.32385,W,006.26,225.1,020313,016.6,E*4A
$IIMTW,+07.5,C*3A
$HCHDG,203.1,0.0,E,,*29
$GPRMC,220017.2,A,4743.18000,N,12223.32423,W,006.24,224.7,020313,016.6,E*46
$GPRMB,A,,,,,4740.4440,N,12220.0640,W,8354.95,377,6.08,*07
$IIRMC,220000,A,4743.181,N,12223.321,W,06.2,227,020313,16,E,A*15
$YXXDR,A,4.1,D,PTCH,A,25.8,D,ROLL*67
$IIVHW,,,,,06.3,N,,*1C
$IIVLW,06195,N,022.0,N*58
$GPRMC,220017.4,A,4743.17977,N,12223.32457,W,006.22,225.8,020313,016.6,E*4D
$IIGLL,4743.181,N,12223.321,W,220000,A,A*4E
$GPRMC,220017.6,A,4743.17953,N,12223.32495,W,006.21,224.6,020313,016.6,E*4B
$HCHDG,202.9,0.0,E,,*20
$YXXDR,A,4.5,D,PTCH,A,24.5,D,ROLL*6F
$GPRMC,220017.8,A,4743.17926,N,12223.32531,W,006.19,222.8,020313,016.6,E*4B
$GPRMC,220018.0,A,4743.17902,N,12223.32567,W,006.19,222.8,020313,016.6,E*49
$IIMTW,+07.5,C*3A
$HCHDG,201.1,0.0,E,,*2B
$GPRMC,220018.2,A,4743.17875,N,12223.32603,W,006.17,222.4,020313,016.6,E*49
$GPRMB,A,,,,,4740.4440,N,12220.0640,W,8350.84,377,6.16,*0C
$IIRMC,220000,A,4743.180,N,12223.323,W,06.2,225,020313,16,E,A*14
$YXXDR,A,4.3,D,PTCH,A,26.7,D,ROLL*69
$IIVHW,,,,,06.3,N,,*1C
$IIVLW,06195,N,022.0,N*58
$GPRMC,220018.4,A,4743.17852,N,12223.32639,W,006.17,222.5,020313,016.6,E*42
$IIGLL,4743.180,N,12223.323,W,220000,A,A*4D
$GPRMC,220018.6,A,4743.17827,N,12223.32673,W,006.19,222.8,020313,016.6,E*4F
$HCHDG,201.0,0.0,E,,*2A
$YXXDR,A,4.3,D,PTCH,A,25.3,D,ROLL*6E
$GPRMC,220018.8,A,4743.17801,N,12223.32708,W,006.19,221.1,020313,016.6,E*42
$GPRMC,220019.0,A,4743.17775,N,12223.32736,W,006.16,221.8,020313,016.6,E*4C
$IIMTW,+07.5,C*3A
$HCHDG,200.5,0.0,E,,*2E
$GPRMC,220019.2,A,4743.17748,N,12223.32769,W,006.17,222.2,020313,016.6,E*42
$IIRMC,220000,A,4743.179,N,12223.325,W,06.1,222,020313,16,E,A*10
$YXXDR,A,4.2,D,PTCH,A,25.9,D,ROLL*65
$IIVHW,,,,,06.3,N,,*1C
$IIVLW,06195,N,022.0,N*58
$GPRMC,220019.4,A,4743.17720,N,12223.32805,W,006.15,223.9,020313,016.6,E*47
$GPRMB,A,,,,,4740.4440,N,12220.0640,W,8345.73,377,-3.01,*2E
$IIGLL,4743.179,N,12223.325,W,220000,A,A*4D
$GPRMC,220019.6,A,4743.17692,N,12223.32840,W,006.17,223.5,020313,016.6,E*42
$HCHDG,201.4,0.0,E,,*2E
$YXXDR,A,4.6,D,PTCH,A,25.3,D,ROLL*6B
$GPRMC,220019.8,A,4743.17664,N,12223.32874,W,006.16,223.4,020313,016.6,E*42
$GPRMC,220020.0,A,4743.17634,N,12223.32908,W,006.16,222.8,020313,016.6,E*42
$IIMTW,+07.5,C*3A
$HCHDG,201.3,0.0,E,,*29
$GPRMC,220020.2,A,4743.17600,N,12223.32945,W,006.17,221.6,020313,016.6,E*42
$IIRMC,220000,A,4743.177,N,12223.327,W,06.1,221,020313,16,E,A*1F
$YXXDR,A,4.4,D,PTCH,A,25.5,D,ROLL*6F
$IIVHW,,,,,06.3,N,,*1C
$IIVLW,06195,N,022.0,N*58
$GPRMC,220020.4,A,4743.17569,N,12223.32984,W,006.17,222.2,020313,016.6,E*42
$GPRMB,A,,,,,4740.4440,N,12220.0640,W,8340.76,377,3.09,*0B
$IIGLL,4743.177,N,12223.327,W,220000,A,A*41
$GPRMC,220020.6,A,4743.17539,N,12223.33022,W,006.18,221.0,020313,016.6,E*4F
$HCHDG,200.1,0.0,E,,*2A
$YXXDR,A,4.0,D,PTCH,A,25.6,D,ROLL*68
$GPRMC,220020.8,A,4743.17510,N,12223.33064,W,006.18,222.1,020313,016.6,E*4A
$GPRMC,220021.0,A,4743.17482,N,12223.33104,W,006.20,222.2,020313,016.6,E*46
$IIMTW,+07.5,C*3A
$HCHDG,201.4,0.0,E,,*2E
$GPRMC,220021.2,A,4743.17455,N,12223.33144,W,006.23,221.6,020313,016.6,E*4E
$IIRMC,220000,A,4743.176,N,12223.329,W,06.1,222,020313,16,E,A*13
$YXXDR,A,4.5,D,PTCH,A,23.4,D,ROLL*69
$IIVHW,,,,,06.4,N,,*1B
$IIVLW,06195,N,022.0,N*58
$GPRMC,220021.4,A,4743.17431,N,12223.33178,W,006.25,220.2,020313,016.6,E*46
$IIGLL,4743.176,N,12223.329,W,220000,A,A*4E
$GPRMC,220021.6,A,4743.17402,N,12223.33208,W,006.24,219.5,020313,016.6,E*4C
$GPRMB,A,,,,,4740.4440,N,12220.0640,W,8335.26,377,-5.99,*2E
$HCHDG,200.2,0.0,E,,*29
$YXXDR,A,4.3,D,PTCH,A,25.7,D,ROLL*6A
$GPRMC,220021.8,A,4743.17379,N,12223.33239,W,006.24,219.6,020313,016.6,E*48
$GPRMC,220022.0,A,4743.17354,N,12223.33270,W,006.23,219.5,020313,016.6,E*45
$IIMTW,+07.5,C*3A
$HCHDG,200.5,0.0,E,,*2E
$GPRMC,220022.2,A,4743.17329,N,12223.33303,W,006.24,221.0,020313,016.6,E*41
$IIRMC,220000,A,4743.174,N,12223.331,W,06.2,222,020313,16,E,A*1B
$YXXDR,A,4.6,D,PTCH,A,22.5,D,ROLL*6A
$IIVHW,,,,,06.4,N,,*1B
$IIVLW,06195,N,022.0,N*58
$GPRMC,220022.4,A,4743.17304,N,12223.33329,W,006.25,219.7,020313,016.6,E*4D
$IIGLL,4743.174,N,12223.331,W,220000,A,A*45
$GPRMC,220022.6,A,4743.17278,N,12223.33366,W,006.24,219.8,020313,016.6,E*40
$HCHDG,200.3,0.0,E,,*28
$YXXDR,A,4.5,D,PTCH,A,24.5,D,ROLL*6F
$GPRMC,220022.8,A,4743.17252,N,12223.33398,W,006.24,219.9,020313,016.6,E*46
$GPRMB,A,,,,,4740.4440,N,12220.0640,W,8330.32,377,2.18,*0D
$GPRMC,220023.0,A,4743.17228,N,12223.33429,W,006.23,220.0,020313,016.6,E*4B
$IIMTW,+07.5,C*3A
$HCHDG,200.6,0.0,E,,*2D
$GPRMC,220023.2,A,4743.17199,N,12223.33470,W,006.21,220.5,020313,016.6,E*4B
$IIRMC,220000,A,4743.173,N,12223.332,W,06.2,219,020313,16,E,A*17
$YXXDR,A,4.5,D,PTCH,A,23.4,D,ROLL*69
$IIVHW,,,,,06.4,N,,*1B
$IIVLW,06195,N,022.0,N*58
$IIDPT,047.9,-1.0,*4A
$GPRMC,220023.4,A,4743.17169,N,12223.33510,W,006.20,220.1,020313,016.6,E*40
$IIGLL,4743.173,N,12223.332,W,220000,A,A*41
$GPRMC,220023.6,A,4743.17139,N,12223.33541,W,006.19,219.3,020313,016.6,E*41
$HCHDG,201.3,0.0,E,,*29
$YXXDR,A,4.6,D,PTCH,A,22.1,D,ROLL*6E
$GPRMC,220023.8,A,4743.17113,N,12223.33575,W,006.19,220.5,020313,016.6,E*4C
$GPRMB,A,,,,,4740.4440,N,12220.0640,W,8325.75,377,-3.17,*29
$GPRMC,220024.0,A,4743.17086,N,12223.33613,W,006.20,220.6,020313,016.6,E*44
$IIMTW,+07.5,C*3A
$HCHDG,201.2,0.0,E,,*28
$GPRMC,220024.2,A,4743.17057,N,12223.33648,W,006.23,220.3,020313,016.6,E*42
$IIRMC,220000,A,4743.172,N,12223.334,W,06.2,220,020313,16,E,A*1A
$YXXDR,A,4.7,D,PTCH,A,20.7,D,ROLL*6B
$IIVHW,,,,,06.4,N,,*1B
$IIVLW,06195,N,022.0,N*58
$IIDPT,047.9,-1.0,*4A
$GPRMC,220024.4,A,4743.17030,N,12223.33687,W,006.23,220.7,020313,016.6,E*42
$IIGLL,4743.172,N,12223.334,W,220000,A,A*46
$GPRMC,220024.6,A,4743.17008,N,12223.33718,W,006.26,221.5,020313,016.6,E*4A
$HCHDG,202.1,0.0,E,,*28
$YXXDR,A,4.5,D,PTCH,A,19.6,D,ROLL*62
$GPRMC,220024.8,A,4743.16982,N,12223.33753,W,006.28,222.3,020313,016.6,E*4A
$GPRMC,220025.0,A,4743.16958,N,12223.33785,W,006.31,223.3,020313,016.6,E*46
$GPRMB,A,,,,,4740.4440,N,12220.0640,W,8320.65,377,2.05,*02
$IIMTW,+07.5,C*3A
$HCHDG,203.5,0.0,E,,*2D
$GPRMC,220025.2,A,4743.16931,N,12223.33820,W,006.32,220.6,020313,016.6,E*4E
$IIRMC,220000,A,4743.170,N,12223.336,W,06.2,220,020313,16,E,A*1A
$YXXDR,A,4.9,D,PTCH,A,18.9,D,ROLL*60
$IIVHW,,,,,06.4,N,,*1B
$IIVLW,06195,N,022.0,N*58
$IIDPT,047.9,-1.0,*4A
$GPRMC,220025.4,A,4743.16907,N,12223.33855,W,006.51,223.2,020313,016.6,E*4D
$IIGLL,4743.170,N,12223.336,W,220000,A,A*46
$GPRMC,220025.6,A,4743.16882,N,12223.33896,W,006.45,221.8,020313,016.6,E*41
$HCHDG,203.3,0.0,E,,*2B
$YXXDR,A,4.5,D,PTCH,A,20.2,D,ROLL*6C
$GPRMC,220025.8,A,4743.16855,N,12223.33924,W,006.44,222.6,020313,016.6,E*41
$GPRMC,220026.0,A,4743.16831,N,12223.33958,W,006.46,223.3,020313,016.6,E*45
$IIMTW,+07.5,C*3A
$HCHDG,204.0,0.0,E,,*2F
$GPRMC,220026.2,A,4743.16808,N,12223.33986,W,006.41,223.1,020313,016.6,E*4B
$GPRMB,A,,,,,4740.4440,N,12220.0640,W,8315.71,377,-4.50,*2A
$IIRMC,220000,A,4743.169,N,12223.337,W,06.3,223,020313,16,E,A*11
$YXXDR,A,4.7,D,PTCH,A,20.3,D,ROLL*6F
$IIVHW,,,,,06.4,N,,*1B
$IIVLW,06195,N,022.0,N*58
$IIDPT,047.9,-1.0,*4A
$GPRMC,220026.4,A,4743.16782,N,12223.34020,W,006.40,223.4,020313,016.6,E*46
$IIGLL,4743.169,N,12223.337,W,220000,A,A*4F
$GPRMC,220026.6,A,4743.16757,N,12223.34053,W,006.40,225.0,020313,016.6,E*4A
$HCHDG,203.8,0.0,E,,*20
$YXXDR,A,4.7,D,PTCH,A,21.7,D,ROLL*6A
$GPRMC,220026.8,A,4743.16731,N,12223.34081,W,006.39,223.9,020313,016.6,E*4A
$GPRMC,220027.0,A,4743.16704,N,12223.34112,W,006.38,223.1,020313,016.6,E*47
$IIMTW,+07.5,C*3A
$HCHDG,202.8,0.0,E,,*21
$GPRMC,220027.2,A,4743.16675,N,12223.34146,W,006.38,224.0,020313,016.6,E*45
$IIRMC,220000,A,4743.168,N,12223.339,W,06.4,223,020313,16,E,A*19
$YXXDR,A,4.3,D,PTCH,A,24.6,D,ROLL*6A
$IIVHW,,,,,06.4,N,,*1B
$IIVLW,06195,N,022.0,N*58
$IIDPT,047.9,-1.0,*4A
$GPRMC,220027.4,A,4743.16645,N,12223.34181,W,006.14,221.8,020313,016.6,E*48
$GPRMB,A,,,,,4740.4440,N,12220.0640,W,8310.35,377,-6.10,*29
$IIGLL,4743.168,N,12223.339,W,220000,A,A*40
$GPRMC,220027.6,A,4743.16614,N,12223.34223,W,006.35,224.3,020313,016.6,E*48
$HCHDG,200.8,0.0,E,,*23
$YXXDR,A,4.2,D,PTCH,A,26.5,D,ROLL*6A
$GPRMC,220027.8,A,4743.16589,N,12223.34261,W,006.30,224.4,020313,016.6,E*45
$GPRMC,220028.0,A,4743.16564,N,12223.34295,W,006.11,223.9,020313,016.6,E*43
$IIMTW,+07.5,C*3A
$HCHDG,201.5,0.0,E,,*2F
$GPRMC,220028.2,A,4743.16539,N,12223.34330,W,006.17,224.3,020313,016.6,E*4C
$IIRMC,220000,A,4743.167,N,12223.341,W,06.3,223,020313,16,E,A*1E
$YXXDR,A,3.9,D,PTCH,A,26.1,D,ROLL*62
$IIVHW,,,,,06.4,N,,*1B
$IIVLW,06195,N,022.0,N*58
$IIDPT,047.9,-1.0,*4A
$GPRMC,220028.4,A,4743.16516,N,12223.34365,W,006.18,223.8,020313,016.6,E*44
$IIGLL,4743.167,N,12223.341,W,220000,A,A*40
$GPRMC,220028.6,A,4743.16493,N,12223.34400,W,006.24,224.7,020313,016.6,E*49
$GPRMB,A,,,,,4740.4440,N,12220.0640,W,8305.35,377,6.08,*09
$HCHDG,201.0,0.0,E,,*2A
$YXXDR,A,3.9,D,PTCH,A,28.4,D,ROLL*69
$GPRMC,220028.8,A,4743.16469,N,12223.34437,W,006.23,224.6,020313,016.6,E*40
$GPRMC,220029.0,A,4743.16439,N,12223.34472,W,006.27,224.5,020313,016.6,E*4A
$IIMTW,+07.5,C*3A
$HCHDG,200.2,0.0,E,,*29
$GPRMC,220029.2,A,4743.16412,N,12223.34507,W,006.28,225.2,020313,016.6,E*4B
$IIRMC,220000,A,4743.165,N,12223.342,W,06.1,223,020313,16,E,A*1D
$YXXDR,A,4.0,D,PTCH,A,29.7,D,ROLL*65
$IIVHW,,,,,06.4,N,,*1B
$IIVLW,06195,N,022.0,N*58
$IIDPT,047.9,-1.0,*4A
$GPRMC,220029.4,A,4743.16394,N,12223.34537,W,006.27,221.6,020313,016.6,E*48
$IIGLL,4743.165,N,12223.342,W,220000,A,A*41
$GPRMC,220029.6,A,4743.16375,N,12223.34569,W,006.25,223.0,020313,016.6,E*48
$HCHDG,197.9,0.0,E,,*2F
$YXXDR,A,3.7,D,PTCH,A,31.9,D,ROLL*62
$GPRMC,220029.8,A,4743.16353,N,12223.34601,W,006.26,222.7,020313,016.6,E*4A
$GPRMB,A,,,,,4740.4440,N,12220.0640,W,8300.75,377,-0.93,*21
$GPRMC,220030.0,A,4743.16325,N,12223.34635,W,006.26,220.3,020313,016.6,E*4A
$IIMTW,+07.5,C*3A
$HCHDG,195.8,0.0,E,,*2C
$GPRMC,220030.2,A,4743.16302,N,12223.34665,W,006.25,220.0,020313,016.6,E*48
$IIRMC,220000,A,4743.164,N,12223.344,W,06.2,224,020313,16,E,A*1E
$YXXDR,A,3.9,D,PTCH,A,33.5,D,ROLL*62
$IIVHW,,,,,06.3,N,,*1C
$IIVLW,06195,N,022.0,N*58
$IIDPT,047.9,-1.0,*4A
$GPRMC,220030.4,A,4743.16276,N,12223.34692,W,006.25,217.6,020313,016.6,E*46
$IIGLL,4743.164,N,12223.344,W,220000,A,A*46
$GPRMC,220030.6,A,4743.16247,N,12223.34720,W,006.22,216.5,020313,016.6,E*4B
$HCHDG,193.2,0.0,E,,*20
$YXXDR,A,3.9,D,PTCH,A,33.7,D,ROLL*60
$GPRMC,220030.8,A,4743.16218,N,12223.34754,W,006.20,216.0,020313,016.6,E*4B
$GPRMB,A,,,,,4740.4440,N,12220.0640,W,8296.31,377,-4.25,*26
$GPRMC,220031.0,A,4743.16192,N,12223.34782,W,006.18,215.0,020313,016.6,E*40
$IIMTW,+07.5,C*3A
$HCHDG,191.3,0.0,E,,*23
$GPRMC,220031.2,A,4743.16161,N,12223.34817,W,006.18,213.4,020313,016.6,E*4F
$IIRMC,220000,A,4743.163,N,12223.346,W,06.2,220,020313,16,E,A*1F
$YXXDR,A,4.2,D,PTCH,A,32.0,D,ROLL*6A
$IIVHW,,,,,06.3,N,,*1C
$IIVLW,06195,N,022.0,N*58
$IIDPT,047.9,-1.0,*4A
$GPRMC,220031.4,A,4743.16132,N,12223.34844,W,005.98,210.1,020313,016.6,E*44
$IIGLL,4743.163,N,12223.346,W,220000,A,A*43
$GPRMC,220031.6,A,4743.16103,N,12223.34866,W,005.94,207.1,020313,016.6,E*4E
$HCHDG,188.3,0.0,E,,*2B
$YXXDR,A,3.7,D,PTCH,A,31.8,D,ROLL*63
$GPRMC,220031.8,A,4743.16069,N,12223.34889,W,005.90,205.8,020313,016.6,E*43
$GPRMC,220032.0,A,4743.16032,N,12223.34918,W,006.10,207.3,020313,016.6,E*4D
$GPRMB,A,,,,,4740.4440,N,12220.0640,W,8290.20,377,-1.71,*24
$IIMTW,+07.5,C*3A
$HCHDG,189.8,0.0,E,,*21
$GPRMC,220032.2,A,4743.16000,N,12223.34940,W,005.80,207.0,020313,016.6,E*4A
$IIRMC,220000,A,4743.161,N,12223.347,W,06.1,215,020313,16,E,A*19
$YXXDR,A,4.1,D,PTCH,A,26.5,D,ROLL*69
$IIVHW,,,,,06.3,N,,*1C
$IIVLW,06195,N,022.0,N*58
$IIDPT,047.9,-1.0,*4A
$GPRMC,220032.4,A,4743.15968,N,12223.34956,W,006.16,212.0,020313,016.6,E*47
$IIGLL,4743.161,N,12223.347,W,220000,A,A*40
$GPRMC,220032.6,A,4743.15941,N,12223.34983,W,006.13,210.3,020313,016.6,E*42
$HCHDG,193.9,0.0,E,,*2B
$YXXDR,A,4.8,D,PTCH,A,20.4,D,ROLL*67
$GPRMC,220032.8,A,4743.15911,N,12223.35003,W,005.96,211.9,020313,016.6,E*4C
$GPRMC,220033.0,A,4743.15885,N,12223.35032,W,006.21,213.4,020313,016.6,E*4B
$IIMTW,+07.5,C*3A
$HCHDG,195.8,0.0,E,,*2C
$GPRMC,220033.2,A,4743.15857,N,12223.35060,W,006.26,212.3,020313,016.6,E*40
$GPRMB,A,,,,,4740.4440,N,12220.0640,W,8284.45,377,4.82,*06
$IIRMC,220000,A,4743.160,N,12223.349,W,06.1,207,020313,16,E,A*15
$YXXDR,A,4.5,D,PTCH,A,17.4,D,ROLL*6E
$IIVHW,,,,,06.3,N,,*1C
$IIVLW,06195,N,022.0,N*58
$IIDPT,047.9,-1.0,*4A
$GPRMC,220033.4,A,4743.15826,N,12223.35081,W,006.27,212.2,020313,016.6,E*4F
$IIGLL,4743.160,N,12223.349,W,220000,A,A*4F
$GPRMC,220033.6,A,4743.15797,N,12223.35107,W,006.21,212.7,020313,016.6,E*44
$HCHDG,196.5,0.0,E,,*22
$YXXDR,A,4.8,D,PTCH,A,17.2,D,ROLL*65
$GPRMC,220033.8,A,4743.15767,N,12223.35135,W,006.25,212.8,020313,016.6,E*4F
$GPRMC,220034.0,A,4743.15739,N,12223.35164,W,006.32,213.1,020313,016.6,E*41
$IIMTW,+07.5,C*3A
$HCHDG,198.6,0.0,E,,*2F
$GPRMC,220034.2,A,4743.15716,N,12223.35195,W,006.27,214.0,020313,016.6,E*42
$GPRMB,A,,,,,4740.4440,N,12220.0640,W,8279.81,377,-4.88,*2B
$IIRMC,220000,A,4743.158,N,12223.350,W,06.2,213,020313,16,E,A*10
$YXXDR,A,5.1,D,PTCH,A,15.6,D,ROLL*6B
$IIVHW,,,,,06.3,N,,*1C
$IIVLW,06195,N,022.0,N*58
$IIDPT,047.9,-1.0,*4A
$GPRMC,220034.4,A,4743.15685,N,12223.35228,W,006.27,216.9,020313,016.6,E*41
$IIGLL,4743.158,N,12223.350,W,220000,A,A*4C
$GPRMC,220034.6,A,4743.15658,N,12223.35260,W,006.28,217.7,020313,016.6,E*4F
$HCHDG,201.3,0.0,E,,*29
$YXXDR,A,5.2,D,PTCH,A,15.3,D,ROLL*6D
$GPRMC,220034.8,A,4743.15623,N,12223.35300,W,006.28,219.6,020313,016.6,E*45
$GPRMC,220035.0,A,4743.15593,N,12223.35336,W,006.28,221.9,020313,016.6,E*45
$IIMTW,+07.5,C*3A
$HCHDG,202.9,0.0,E,,*20
$GPRMC,220035.2,A,4743.15561,N,12223.35374,W,006.32,222.5,020313,016.6,E*48
$GPRMB,A,,,,,4740.4440,N,12220.0640,W,8274.72,377,5.17,*00
$IIRMC,220000,A,4743.158,N,12223.350,W,06.2,213,020313,16,E,A*10
$YXXDR,A,4.4,D,PTCH,A,17.9,D,ROLL*62
$IIVHW,,,,,06.3,N,,*1C
$IIVLW,06195,N,022.0,N*58
$IIDPT,047.9,-1.0,*4A
$GPRMC,220035.4,A,4743.15530,N,12223.35415,W,006.37,225.2,020313,016.6,E*4F
$IIGLL,4743.158,N,12223.350,W,220000,A,A*4C
$GPRMC,220035.6,A,4743.15504,N,12223.35455,W,006.20,224.4,020313,016.6,E*4F
$HCHDG,204.6,0.0,E,,*29
$YXXDR,A,4.7,D,PTCH,A,19.8,D,ROLL*6E
$GPRMC,220035.8,A,4743.15480,N,12223.35484,W,006.24,224.5,020313,016.6,E*45
$GPRMC,220036.0,A,4743.15456,N,12223.35518,W,006.19,223.1,020313,016.6,E*4C
$IIMTW,+07.5,C*3A
$HCHDG,202.3,0.0,E,,*2A
$GPRMC,220036.2,A,4743.15436,N,12223.35548,W,006.12,222.2,020313,016.6,E*44
$IIRMC,220000,A,4743.155,N,12223.353,W,06.2,221,020313,16,E,A*1F
$YXXDR,A,4.3,D,PTCH,A,24.3,D,ROLL*6F
$IIVHW,,,,,06.4,N,,*1B
$IIVLW,06195,N,022.0,N*58
$IIDPT,047.9,-1.0,*4A
$GPRMC,220036.4,A,4743.15413,N,12223.35582,W,006.10,223.9,020313,016.6,E*4B
$GPRMB,A,,,,,4740.4440,N,12220.0640,W,8269.86,17,-6.03,*19
$IIGLL,4743.155,N,12223.353,W,220000,A,A*42
$GPRMC,220036.6,A,4743.15392,N,12223.35617,W,006.16,224.6,020313,016.6,E*46
$HCHDG,201.0,0.0,E,,*2A
$YXXDR,A,4.2,D,PTCH,A,25.2,D,ROLL*6E
$GPRMC,220036.8,A,4743.15371,N,12223.35648,W,006.12,222.2,020313,016.6,E*49
$GPRMC,220037.0,A,4743.15352,N,12223.35675,W,006.11,219.9,020313,016.6,E*4F
$IIMTW,+07.5,C*3A
$HCHDG,198.3,0.0,E,,*2A
$GPRMC,220037.2,A,4743.15329,N,12223.35706,W,006.12,219.3,020313,016.6,E*4D
$IIRMC,220000,A,4743.155,N,12223.353,W,06.2,221,020313,16,E,A*1F
$YXXDR,A,3.9,D,PTCH,A,28.4,D,ROLL*69
$IIVHW,,,,,06.4,N,,*1B
$IIVLW,06195,N,022.0,N*58
$IIDPT,047.9,-1.0,*4A
$GPRMC,220037.4,A,4743.15307,N,12223.35738,W,006.11,218.1,020313,016.6,E*4A
$IIGLL,4743.155,N,12223.353,W,220000,A,A*42
$GPRMC,220037.6,A,4743.15286,N,12223.35761,W,006.09,218.5,020313,016.6,E*41
$GPRMB,A,,,,,4740.4440,N,12220.0640,W,8265.69,17,0.63,*39
$HCHDG,197.6,0.0,E,,*20
$YXXDR,A,4.2,D,PTCH,A,27.4,D,ROLL*6A
$GPRMC,220037.8,A,4743.15261,N,12223.35792,W,006.09,218.7,020313,016.6,E*48
$GPRMC,220038.0,A,4743.15237,N,12223.35823,W,006.13,219.7,020313,016.6,E*43
$IIMTW,+07.5,C*3A
$HCHDG,198.3,0.0,E,,*2A
$GPRMC,220038.2,A,4743.15212,N,12223.35852,W,006.15,217.9,020313,016.6,E*46
$IIRMC,220000,A,4743.153,N,12223.356,W,06.1,219,020313,16,E,A*14
$YXXDR,A,4.2,D,PTCH,A,26.2,D,ROLL*6D
$IIVHW,,,,,06.4,N,,*1B
$IIVLW,06195,N,022.0,N*58
$IIDPT,047.9,-1.0,*4A
$GPRMC,220038.4,A,4743.15187,N,12223.35880,W,006.19,218.0,020313,016.6,E*4A
$IIGLL,4743.153,N,12223.356,W,220000,A,A*41
$GPRMC,220038.6,A,4743.15161,N,12223.35911,W,006.21,217.7,020313,016.6,E*4A
$HCHDG,197.8,0.0,E,,*2E
$YXXDR,A,4.3,D,PTCH,A,26.7,D,ROLL*69
$GPRMC,220038.8,A,4743.15135,N,12223.35945,W,006.23,217.8,020313,016.6,E*49
$GPRMB,A,,,,,4740.4440,N,12220.0640,W,8260.73,17,3.67,*30
$GPRMC,220039.0,A,4743.15111,N,12223.35975,W,006.22,216.2,020313,016.6,E*4F
$IIMTW,+07.5,C*3A
$HCHDG,198.6,0.0,E,,*2F
$GPRMC,220039.2,A,4743.15088,N,12223.36005,W,006.23,218.4,020313,016.6,E*48
$IIRMC,220000,A,4743.152,N,12223.358,W,06.1,219,020313,16,E,A*1B
$YXXDR,A,4.6,D,PTCH,A,25.1,D,ROLL*69
$IIVHW,,,,,06.4,N,,*1B
$IIVLW,06195,N,022.1,N*59
$GPRMC,220039.4,A,4743.15060,N,12223.36036,W,006.23,218.1,020313,016.6,E*4D
$IIGLL,4743.152,N,12223.358,W,220000,A,A*4E
$GPRMC,220039.6,A,4743.15031,N,12223.36069,W,006.20,217.5,020313,016.6,E*49
$HCHDG,199.1,0.0,E,,*29
$YXXDR,A,4.2,D,PTCH,A,24.1,D,ROLL*6C
$GPRMC,220039.8,A,4743.15000,N,12223.36094,W,006.20,219.2,020313,016.6,E*4E
$GPRMC,220040.0,A,4743.14971,N,12223.36127,W,006.47,221.3,020313,016.6,E*44
$GPRMB,A,,,,,4740.4440,N,12220.0640,W,8255.35,17,0.67,*37
$IIMTW,+07.5,C*3A
$HCHDG,200.5,0.0,E,,*2E
$GPRMC,220040.2,A,4743.14942,N,12223.36161,W,006.23,220.1,020313,016.6,E*45
$IIRMC,220000,A,4743.151,N,12223.359,W,06.2,216,020313,16,E,A*15
$YXXDR,A,4.6,D,PTCH,A,21.9,D,ROLL*65
$IIVHW,,,,,06.4,N,,*1B
$IIVLW,06195,N,022.1,N*59
$GPRMC,220040.4,A,4743.14916,N,12223.36196,W,006.20,219.1,020313,016.6,E*43
$IIGLL,4743.151,N,12223.359,W,220000,A,A*4C
$GPRMC,220040.6,A,4743.14890,N,12223.36229,W,006.20,218.9,020313,016.6,E*40
$HCHDG,200.5,0.0,E,,*2E
$YXXDR,A,4.5,D,PTCH,A,21.8,D,ROLL*67
$GPRMC,220040.8,A,4743.14862,N,12223.36263,W,006.25,220.0,020313,016.6,E*4A
$GPRMC,220041.0,A,4743.14835,N,12223.36300,W,006.24,219.0,020313,016.6,E*4E
$IIMTW,+07.5,C*3A
$HCHDG,200.6,0.0,E,,*2D
$GPRMC,220041.2,A,4743.14803,N,12223.36338,W,006.24,219.8,020313,016.6,E*4A
$GPRMB,A,,,,,4740.4440,N,12220.0640,W,8249.83,17,5.31,*31
$IIRMC,220000,A,4743.149,N,12223.361,W,06.4,221,020313,16,E,A*15
$YXXDR,A,4.5,D,PTCH,A,20.8,D,ROLL*66
$IIVHW,,,,,06.4,N,,*1B
$IIVLW,06195,N,022.1,N*59
$GPRMC,220041.4,A,4743.14776,N,12223.36371,W,006.27,220.0,020313,016.6,E*4D
$IIGLL,4743.149,N,12223.361,W,220000,A,A*4E
$GPRMC,220041.6,A,4743.14744,N,12223.36405,W,006.28,219.2,020313,016.6,E*4D
$HCHDG,200.8,0.0,E,,*23
$YXXDR,A,4.5,D,PTCH,A,21.0,D,ROLL*6F
$GPRMC,220041.8,A,4743.14716,N,12223.36437,W,006.27,219.2,020313,016.6,E*4A
$GPRMC,220042.0,A,4743.14688,N,12223.36465,W,006.27,217.5,020313,016.6,E*49
$IIMTW,+07.5,C*3A
$HCHDG,200.7,0.0,E,,*2C
$GPRMC,220042.2,A,4743.14661,N,12223.36489,W,006.26,218.5,020313,016.6,E*40
$IIRMC,220000,A,4743.148,N,12223.363,W,06.2,219,020313,16,E,A*1B
$YXXDR,A,4.7,D,PTCH,A,21.5,D,ROLL*68
$IIVHW,,,,,06.4,N,,*1B
$IIVLW,06195,N,022.1,N*59
$IIDPT,051.0,-1.0,*44
$GPRMC,220042.4,A,4743.14633,N,12223.36514,W,006.23,218.6,020313,016.6,E*42
$GPRMB,A,,,,,4740.4440,N,12220.0640,W,8244.25,17,3.80,*3C
$IIGLL,4743.148,N,12223.363,W,220000,A,A*4D
$GPRMC,220042.6,A,4743.14608,N,12223.36540,W,006.22,220.9,020313,016.6,E*4C
$HCHDG,201.7,0.0,E,,*2D
$YXXDR,A,4.3,D,PTCH,A,20.8,D,ROLL*60
$GPRMC,220042.8,A,4743.14582,N,12223.36573,W,006.21,222.1,020313,016.6,E*4A
$GPRMC,220043.0,A,4743.14564,N,12223.36601,W,006.22,223.6,020313,016.6,E*48
$IIMTW,+07.5,C*3A
$HCHDG,204.3,0.0,E,,*2C
$GPRMC,220043.2,A,4743.14544,N,12223.36639,W,006.21,222.9,020313,016.6,E*4E
$IIRMC,220000,A,4743.146,N,12223.364,W,06.2,217,020313,16,E,A*1C
$YXXDR,A,4.8,D,PTCH,A,19.4,D,ROLL*6D
$IIVHW,,,,,06.5,N,,*1A
$IIVLW,06195,N,022.1,N*59
$IIDPT,051.0,-1.0,*44
$GPRMC,220043.4,A,4743.14524,N,12223.36668,W,006.22,223.2,020313,016.6,E*43
$IIGLL,4743.146,N,12223.364,W,220000,A,A*44
$GPRMC,220043.6,A,4743.14499,N,12223.36708,W,006.22,222.4,020313,016.6,E*46
$GPRMB,A,,,,,4740.4440,N,12220.0640,W,8239.86,17,1.82,*3F
$HCHDG,203.6,0.0,E,,*2E
$YXXDR,A,4.3,D,PTCH,A,21.8,D,ROLL*61
$GPRMC,220043.8,A,4743.14472,N,12223.36741,W,006.04,222.3,020313,016.6,E*43
$GPRMC,220044.0,A,4743.14449,N,12223.36773,W,006.05,223.7,020313,016.6,E*41
$PGRMT,GPS 18x-5Hz software ver. 3.20,,,,,,,,*30
$IIMTW,+07.5,C*3A
$HCHDG,203.2,0.0,E,,*2A
$GPRMC,220044.2,A,4743.14423,N,12223.36802,W,006.12,225.9,020313,016.6,E*48
$IIRMC,220000,A,4743.145,N,12223.366,W,06.2,223,020313,16,E,A*1A
$YXXDR,A,4.5,D,PTCH,A,21.7,D,ROLL*68
$IIVHW,,,,,06.5,N,,*1A
$IIVLW,06195,N,022.1,N*59
$IIDPT,051.0,-1.0,*44
$GPRMC,220044.4,A,4743.14399,N,12223.36834,W,006.13,224.6,020313,016.6,E*42
$IIGLL,4743.145,N,12223.366,W,220000,A,A*45
$GPRMC,220044.6,A,4743.14376,N,12223.36863,W,006.10,224.3,020313,016.6,E*45
$GPRMB,A,,,,,4740.4440,N,12220.0640,W,8235.82,17,4.36,*3D
$HCHDG,204.1,0.0,E,,*2E
$YXXDR,A,4.4,D,PTCH,A,21.1,D,ROLL*6F
$GPRMC,220044.8,A,4743.14351,N,12223.36896,W,006.09,224.2,020313,016.6,E*4D
$GPRMC,220045.0,A,4743.14326,N,12223.36920,W,006.10,223.1,020313,016.6,E*44
$IIMTW,+07.5,C*3A
$HCHDG,202.7,0.0,E,,*2E
$GPRMC,220045.2,A,4743.14302,N,12223.36956,W,006.08,222.8,020313,016.6,E*40
$IIRMC,220000,A,4743.144,N,12223.367,W,06.0,223,020313,16,E,A*18
$YXXDR,A,4.5,D,PTCH,A,22.2,D,ROLL*6E
$IIVHW,,,,,06.6,N,,*19
$IIVLW,06195,N,022.1,N*59
$IIDPT,051.0,-1.0,*44
$GPRMC,220045.4,A,4743.14279,N,12223.36988,W,006.09,223.3,020313,016.6,E*43
$IIGLL,4743.144,N,12223.367,W,220000,A,A*45
$GPRMC,220045.6,A,4743.14250,N,12223.37023,W,006.09,223.1,020313,016.6,E*41
$HCHDG,202.7,0.0,E,,*2E
$YXXDR,A,4.4,D,PTCH,A,21.5,D,ROLL*6B
$GPRMC,220045.8,A,4743.14223,N,12223.37061,W,006.10,223.0,020313,016.6,E*44
$GPRMB,A,,,,,4740.4440,N,12220.0640,W,8230.80,17,-0.72,*13
$GPRMC,220046.0,A,4743.14197,N,12223.37100,W,006.12,222.5,020313,016.6,E*43
$IIMTW,+07.5,C*3A
$HCHDG,202.8,0.0,E,,*21
$GPRMC,220046.2,A,4743.14176,N,12223.37134,W,006.33,223.5,020313,016.6,E*4B
$IIRMC,220000,A,4743.143,N,12223.369,W,06.1,223,020313,16,E,A*10
$YXXDR,A,4.9,D,PTCH,A,21.4,D,ROLL*67
$IIVHW,,,,,06.5,N,,*1A
$IIVLW,06195,N,022.1,N*59
$IIDPT,051.0,-1.0,*44
$GPRMC,220046.4,A,4743.14157,N,12223.37170,W,006.13,221.4,020313,016.6,E*4F
$IIGLL,4743.143,N,12223.369,W,220000,A,A*4C
$GPRMC,220046.6,A,4743.14135,N,12223.37203,W,005.93,222.4,020313,016.6,E*46
$HCHDG,201.8,0.0,E,,*22
$YXXDR,A,4.1,D,PTCH,A,22.5,D,ROLL*6D
$GPRMC,220046.8,A,4743.14108,N,12223.37235,W,006.21,222.2,020313,016.6,E*4F
$GPRMC,220047.0,A,4743.14083,N,12223.37268,W,006.01,222.9,020313,016.6,E*45
$GPRMB,A,,,,,4740.4440,N,12220.0640,W,8226.21,17,-3.74,*1A
$IIMTW,+07.5,C*3A
$HCHDG,202.9,0.0,E,,*20
$GPRMC,220047.2,A,4743.14055,N,12223.37299,W,006.08,223.8,020313,016.6,E*4B
$IIRMC,220000,A,4743.141,N,12223.371,W,06.1,222,020313,16,E,A*1A
$YXXDR,A,4.6,D,PTCH,A,21.0,D,ROLL*6C
$IIVHW,,,,,06.5,N,,*1A
$IIVLW,06195,N,022.1,N*59
$IIDPT,051.0,-1.0,*44
$GPRMC,220047.4,A,4743.14035,N,12223.37335,W,006.27,226.7,020313,016.6,E*4B
$IIGLL,4743.141,N,12223.371,W,220000,A,A*47
$GPRMC,220047.6,A,4743.14013,N,12223.37371,W,006.10,224.6,020313,016.6,E*4A
$HCHDG,204.3,0.0,E,,*2C
$YXXDR,A,5.1,D,PTCH,A,20.5,D,ROLL*6E
$GPRMC,220047.8,A,4743.13990,N,12223.37406,W,006.09,224.0,020313,016.6,E*48
$GPRMC,220048.0,A,4743.13964,N,12223.37444,W,006.05,223.1,020313,016.6,E*48
$GPRMB,A,,,,,4740.4440,N,12220.0640,W,8222.31,17,2.55,*30
$IIMTW,+07.5,C*3A
$HCHDG,202.9,0.0,E,,*20
$GPRMC,220048.2,A,4743.13940,N,12223.37483,W,006.05,223.8,020313,016.6,E*4E
$IIRMC,220000,A,4743.140,N,12223.372,W,06.0,222,020313,16,E,A*19
$YXXDR,A,4.0,D,PTCH,A,22.5,D,ROLL*6C
$IIVHW,,,,,06.6,N,,*19
$IIVLW,06195,N,022.1,N*59
$IIDPT,051.0,-1.0,*44
$GPRMC,220048.4,A,4743.13919,N,12223.37523,W,006.12,225.3,020313,016.6,E*44
$IIGLL,4743.140,N,12223.372,W,220000,A,A*45
$GPRMC,220048.6,A,4743.13895,N,12223.37557,W,006.09,224.9,020313,016.6,E*41
$HCHDG,203.8,0.0,E,,*20
$YXXDR,A,4.6,D,PTCH,A,20.6,D,ROLL*6B
$GPRMC,220048.8,A,4743.13872,N,12223.37590,W,006.08,223.7,020313,016.6,E*45
$GPRMC,220049.0,A,4743.13846,N,12223.37624,W,006.07,223.3,020313,016.6,E*4C
$IIMTW,+07.5,C*3A
$HCHDG,202.9,0.0,E,,*20
$GPRMC,220049.2,A,4743.13818,N,12223.37659,W,006.07,221.5,020313,016.6,E*4B
$GPRMB,A,,,,,4740.4440,N,12220.0640,W,8217.53,17,-5.11,*18
$IIRMC,220000,A,4743.139,N,12223.374,W,06.0,223,020313,16,E,A*10
$YXXDR,A,4.4,D,PTCH,A,22.2,D,ROLL*6F
$IIVHW,,,,,06.6,N,,*19
$IIVLW,06195,N,022.1,N*59
$IIDPT,051.0,-1.0,*44
$GPRMC,220049.4,A,4743.13795,N,12223.37695,W,006.05,221.2,020313,016.6,E*42
$IIGLL,4743.139,N,12223.374,W,220000,A,A*4D
$GPRMC,220049.6,A,4743.13768,N,12223.37728,W,006.28,221.8,020313,016.6,E*40
$HCHDG,202.1,0.0,E,,*28
$YXXDR,A,4.4,D,PTCH,A,22.4,D,ROLL*69
$GPRMC,220049.8,A,4743.13744,N,12223.37760,W,006.28,224.3,020313,016.6,E*42
$GPRMC,220050.0,A,4743.13716,N,12223.37799,W,006.24,222.1,020313,016.6,E*4B
$IIMTW,+07.5,C*3A
$HCHDG,203.3,0.0,E,,*2B
$GPRMC,220050.2,A,4743.13688,N,12223.37832,W,006.22,221.3,020313,016.6,E*46
$GPRMB,A,,,,,4740.4440,N,12220.0640,W,8213.27,17,0.66,*37
$IIRMC,220000,A,4743.138,N,12223.376,W,06.0,223,020313,16,E,A*13
$YXXDR,A,4.8,D,PTCH,A,20.9,D,ROLL*6A
$IIVHW,,,,,06.6,N,,*19
$IIVLW,06195,N,022.1,N*59
$IIDPT,051.0,-1.0,*44
$GPRMC,220050.4,A,4743.13660,N,12223.37865,W,006.20,221.6,020313,016.6,E*43
$IIGLL,4743.138,N,12223.376,W,220000,A,A*4E
$GPRMC,220050.6,A,4743.13637,N,12223.37904,W,006.22,220.9,020313,016.6,E*49
$HCHDG,201.9,0.0,E,,*23
$YXXDR,A,4.4,D,PTCH,A,23.2,D,ROLL*6E
$GPRMC,220050.8,A,4743.13611,N,12223.37932,W,006.17,221.8,020313,016.6,E*40
$GPRMC,220051.0,A,4743.13585,N,12223.37968,W,006.15,222.9,020313,016.6,E*48
$IIMTW,+08.0,C*30
$HCHDG,202.7,0.0,E,,*2E
$GPRMC,220051.2,A,4743.13559,N,12223.37997,W,006.14,224.5,020313,016.6,E*40
$GPRMB,A,,,,,4740.4440,N,12220.0640,W,8209.04,17,5.81,*31
$IIRMC,220000,A,4743.137,N,12223.377,W,06.2,222,020313,16,E,A*1E
$YXXDR,A,4.3,D,PTCH,A,21.8,D,ROLL*61
$IIVHW,,,,,06.6,N,,*19
$IIVLW,06195,N,022.1,N*59
$IIDPT,051.0,-1.0,*44
$GPRMC,220051.4,A,4743.13533,N,12223.38032,W,006.15,224.7,020313,016.6,E*40
$IIGLL,4743.137,N,12223.377,W,220000,A,A*40
$GPRMC,220051.6,A,4743.13505,N,12223.38068,W,006.18,224.8,020313,016.6,E*4A
$HCHDG,204.4,0.0,E,,*2B
$YXXDR,A,4.7,D,PTCH,A,21.1,D,ROLL*6C
$GPRMC,220051.8,A,4743.13477,N,12223.38109,W,006.19,224.7,020313,016.6,E*48
$GPRMC,220052.0,A,4743.13455,N,12223.38147,W,006.16,222.8,020313,016.6,E*4F
$IIMTW,+08.0,C*30
$HCHDG,203.7,0.0,E,,*2F
$GPRMC,220052.2,A,4743.13429,N,12223.38181,W,006.11,224.8,020313,016.6,E*4D
$GPRMB,A,,,,,4740.4440,N,12220.0640,W,8204.78,17,-2.49,*19
$IIRMC,220000,A,4743.135,N,12223.379,W,06.1,222,020313,16,E,A*11
$YXXDR,A,4.5,D,PTCH,A,23.4,D,ROLL*69
$IIVHW,,,,,06.6,N,,*19
$IIVLW,06195,N,022.1,N*59
$IIDPT,051.0,-1.0,*44
$GPRMC,220052.4,A,4743.13408,N,12223.38221,W,006.08,225.8,020313,016.6,E*48
$IIGLL,4743.135,N,12223.379,W,220000,A,A*4C
$GPRMC,220052.6,A,4743.13384,N,12223.38256,W,006.05,226.4,020313,016.6,E*4B
$HCHDG,204.1,0.0,E,,*2E
$YXXDR,A,4.2,D,PTCH,A,22.2,D,ROLL*69
$GPRMC,220052.8,A,4743.13358,N,12223.38293,W,006.25,227.3,020313,016.6,E*49
$GPRMC,220053.0,A,4743.13334,N,12223.38333,W,006.18,224.8,020313,016.6,E*47
$IIMTW,+08.0,C*30
$HCHDG,204.7,0.0,E,,*28
$GPRMC,220053.2,A,4743.13309,N,12223.38369,W,006.14,224.4,020313,016.6,E*44
$IIRMC,220000,A,4743.134,N,12223.381,W,06.1,222,020313,16,E,A*17
$YXXDR,A,4.9,D,PTCH,A,22.0,D,ROLL*60
$IIVHW,,,,,06.6,N,,*19
$IIVLW,06195,N,022.1,N*59
$IIDPT,051.0,-1.0,*44
$GPRMC,220053.4,A,4743.13282,N,12223.38406,W,006.08,223.6,020313,016.6,E*46
$GPRMB,A,,,,,4740.4440,N,12220.0640,W,8199.97,17,-0.37,*14
$IIGLL,4743.134,N,12223.381,W,220000,A,A*4A
$GPRMC,220053.6,A,4743.13257,N,12223.38432,W,006.07,220.5,020313,016.6,E*44
$HCHDG,202.1,0.0,E,,*28
$YXXDR,A,4.5,D,PTCH,A,24.4,D,ROLL*6E
$GPRMC,220053.8,A,4743.13233,N,12223.38462,W,006.11,220.9,020313,016.6,E*46
$GPRMC,220054.0,A,4743.13205,N,12223.38493,W,006.06,222.6,020313,016.6,E*49
$IIMTW,+08.0,C*30
$HCHDG,201.8,0.0,E,,*22
$GPRMC,220054.2,A,4743.13184,N,12223.38521,W,006.08,224.2,020313,016.6,E*45
$IIRMC,220000,A,4743.133,N,12223.383,W,06.1,224,020313,16,E,A*14
$YXXDR,A,4.4,D,PTCH,A,23.3,D,ROLL*6F
$IIVHW,,,,,06.6,N,,*19
$IIVLW,06195,N,022.1,N*59
$IIDPT,047.9,-1.0,*4A
$GPRMC,220054.4,A,4743.13164,N,12223.38551,W,006.11,223.8,020313,016.6,E*4F
$IIGLL,4743.133,N,12223.383,W,220000,A,A*4F
$GPRMC,220054.6,A,4743.13141,N,12223.38587,W,006.09,220.7,020313,016.6,E*44
$GPRMB,A,,,,,4740.4440,N,12220.0640,W,8195.36,17,-1.72,*13
$HCHDG,203.2,0.0,E,,*2A
$YXXDR,A,4.7,D,PTCH,A,23.2,D,ROLL*6D
$GPRMC,220054.8,A,4743.13118,N,12223.38627,W,006.05,222.3,020313,016.6,E*45
$GPRMC,220055.0,A,4743.13099,N,12223.38668,W,006.06,222.2,020313,016.6,E*4D
$IIMTW,+08.0,C*30
$HCHDG,203.4,0.0,E,,*2C
$GPRMC,220055.2,A,4743.13072,N,12223.38703,W,006.07,224.7,020313,016.6,E*44
$IIRMC,220000,A,4743.132,N,12223.384,W,06.0,222,020313,16,E,A*15
$YXXDR,A,4.8,D,PTCH,A,22.8,D,ROLL*69
$IIVHW,,,,,06.6,N,,*19
$IIVLW,06195,N,022.1,N*59
$IIDPT,047.9,-1.0,*4A
$GPRMC,220055.4,A,4743.13049,N,12223.38738,W,006.09,224.9,020313,016.6,E*42
$IIGLL,4743.132,N,12223.384,W,220000,A,A*49
$GPRMC,220055.6,A,4743.13026,N,12223.38776,W,006.11,225.9,020313,016.6,E*4B
$HCHDG,205.8,0.0,E,,*26
$YXXDR,A,5.0,D,PTCH,A,20.3,D,ROLL*69
$GPRMC,220055.8,A,4743.13004,N,12223.38819,W,006.12,226.4,020313,016.6,E*4E
$GPRMB,A,,,,,4740.4440,N,12220.0640,W,8190.88,17,-0.90,*1E
$GPRMC,220056.0,A,4743.12976,N,12223.38852,W,006.11,226.3,020313,016.6,E*43
$IIMTW,+08.0,C*30
$HCHDG,206.5,0.0,E,,*28
$GPRMC,220056.2,A,4743.12955,N,12223.38897,W,006.12,226.9,020313,016.6,E*40
$IIRMC,220000,A,4743.130,N,12223.386,W,06.0,222,020313,16,E,A*15
$YXXDR,A,4.8,D,PTCH,A,19.9,D,ROLL*60
$IIVHW,,,,,06.6,N,,*19
$IIVLW,06195,N,022.1,N*59
$IIDPT,047.9,-1.0,*4A
$GPRMC,220056.4,A,4743.12924,N,12223.38935,W,006.16,225.8,020313,016.6,E*4F
$IIGLL,4743.130,N,12223.386,W,220000,A,A*49
$GPRMC,220056.6,A,4743.12895,N,12223.38975,W,006.18,225.7,020313,016.6,E*43
$HCHDG,205.6,0.0,E,,*28
$YXXDR,A,4.7,D,PTCH,A,20.7,D,ROLL*6B
$GPRMC,220056.8,A,4743.12873,N,12223.39005,W,006.21,225.6,020313,016.6,E*41
$GPRMC,220057.0,A,4743.12849,N,12223.39043,W,006.22,225.0,020313,016.6,E*46
$GPRMB,A,,,,,4740.4440,N,12220.0640,W,8185.80,17,-6.21,*1E
$IIMTW,+08.0,C*30
$HCHDG,205.1,0.0,E,,*2F
$GPRMC,220057.2,A,4743.12824,N,12223.39073,W,006.21,224.6,020313,016.6,E*48
$IIRMC,220000,A,4743.129,N,12223.388,W,06.1,226,020313,16,E,A*16
$YXXDR,A,4.8,D,PTCH,A,20.6,D,ROLL*65
$IIVHW,,,,,06.6,N,,*19
$IIVLW,06195,N,022.1,N*59
$IIDPT,047.9,-1.0,*4A
$GPRMC,220057.4,A,4743.12802,N,12223.39110,W,006.22,224.6,020313,016.6,E*4D
$IIGLL,4743.129,N,12223.388,W,220000,A,A*4F
$GPRMC,220057.6,A,4743.12780,N,12223.39147,W,006.23,224.6,020313,016.6,E*49
$HCHDG,204.4,0.0,E,,*2B
$YXXDR,A,4.7,D,PTCH,A,21.5,D,ROLL*68
$GPRMC,220057.8,A,4743.12757,N,12223.39186,W,006.26,223.8,020313,016.6,E*4C
$GPRMC,220058.0,A,4743.12731,N,12223.39232,W,006.27,225.5,020313,016.6,E*4D
$GPRMB,A,,,,,4740.4440,N,12220.0640,W,8181.95,17,5.73,*37
$IIMTW,+08.0,C*30
$HCHDG,204.1,0.0,E,,*2E
$GPRMC,220058.2,A,4743.12708,N,12223.39270,W,006.26,224.7,020313,016.6,E*41
$IIRMC,220000,A,4743.128,N,12223.390,W,06.2,225,020313,16,E,A*1E
$YXXDR,A,4.7,D,PTCH,A,22.7,D,ROLL*69
$IIVHW,,,,,06.6,N,,*19
$IIVLW,06195,N,022.1,N*59
$IIDPT,047.9,-1.0,*4A
$GPRMC,220058.4,A,4743.12685,N,12223.39306,W,006.27,226.1,020313,016.6,E*46
$IIGLL,4743.128,N,12223.390,W,220000,A,A*47
$GPRMC,220058.6,A,4743.12662,N,12223.39345,W,006.24,224.8,020313,016.6,E*42
$HCHDG,203.4,0.0,E,,*2C
$YXXDR,A,4.8,D,PTCH,A,23.5,D,ROLL*65
$GPRMC,220058.8,A,4743.12640,N,12223.39383,W,006.21,223.5,020313,016.6,E*49
$GPRMC,220059.0,A,4743.12618,N,12223.39417,W,006.00,223.6,020313,016.6,E*47
$IIMTW,+08.0,C*30
$HCHDG,201.9,0.0,E,,*23
$GPRMC,220059.2,A,4743.12597,N,12223.39455,W,006.36,225.7,020313,016.6,E*45
$GPRMB,A,,,,,4740.4440,N,12220.0640,W,8177.57,17,4.91,*3D
$IIRMC,220000,A,4743.127,N,12223.392,W,06.2,225,020313,16,E,A*13
$YXXDR,A,4.0,D,PTCH,A,25.7,D,ROLL*69
$IIVHW,,,,,06.6,N,,*19
$IIVLW,06195,N,022.1,N*59
$IIDPT,048.8,-1.0,*44
$GPRMC,220059.4,A,4743.12574,N,12223.39485,W,006.08,225.1,020313,016.6,E*48
$IIGLL,4743.127,N,12223.392,W,220000,A,A*4A
$GPRMC,220059.6,A,4743.12549,N,12223.39522,W,006.10,225.5,020313,016.6,E*45
$HCHDG,203.1,0.0,E,,*29
$YXXDR,A,4.7,D,PTCH,A,22.5,D,ROLL*6B
$GPRMC,220059.8,A,4743.12527,N,12223.39554,W,006.07,224.7,020313,016.6,E*47
$GPRMC,220100.0,A,4743.12505,N,12223.39588,W,006.08,223.2,020313,016.6,E*4E
$IIMTW,+08.0,C*30
$HCHDG,201.4,0.0,E,,*2E
$GPRMC,220100.2,A,4743.12477,N,12223.39617,W,006.06,222.6,020313,016.6,E*46
$IIRMC,220000,A,4743.126,N,12223.394,W,06.0,223,020313,16,E,A*10
$YXXDR,A,4.1,D,PTCH,A,25.9,D,ROLL*66
$IIVHW,,,,,06.6,N,,*19
$IIVLW,06195,N,022.1,N*59
$IIDPT,048.8,-1.0,*44
$GPRMC,220100.4,A,4743.12444,N,12223.39652,W,006.07,222.3,020313,016.6,E*45
$GPRMB,A,,,,,4740.4440,N,12220.0640,W,8172.56,17,4.58,*3C
$IIGLL,4743.126,N,12223.394,W,220000,A,A*4D
$GPRMC,220100.6,A,4743.12416,N,12223.39693,W,006.06,222.5,020313,016.6,E*4A
$HCHDG,200.3,0.0,E,,*28
$YXXDR,A,3.8,D,PTCH,A,26.2,D,ROLL*60
$GPRMC,220100.8,A,4743.12388,N,12223.39730,W,006.04,221.5,020313,016.6,E*4D
$GPRMC,220101.0,A,4743.12363,N,12223.39759,W,006.06,223.2,020313,016.6,E*49
$IIMTW,+08.0,C*30
$HCHDG,200.1,0.0,E,,*2A
$GPRMC,220101.2,A,4743.12339,N,12223.39791,W,006.05,220.2,020313,016.6,E*40
$IIRMC,220100,A,4743.125,N,12223.395,W,06.0,223,020313,16,E,A*13
$YXXDR,A,4.1,D,PTCH,A,26.5,D,ROLL*69
$IIVHW,,,,,06.6,N,,*19
$IIVLW,06195,N,022.1,N*59
$IIDPT,048.8,-1.0,*44
$GPRMC,220101.4,A,4743.12313,N,12223.39829,W,006.08,221.0,020313,016.6,E*4C
$IIGLL,4743.125,N,12223.395,W,220100,A,A*4E
$GPRMC,220101.6,A,4743.12287,N,12223.39862,W,006.09,220.1,020313,016.6,E*4C
$GPRMB,A,,,,,4740.4440,N,12220.0640,W,8167.43,17,2.75,*35
$HCHDG,199.0,0.0,E,,*28
$YXXDR,A,4.3,D,PTCH,A,28.1,D,ROLL*61
$GPRMC,220101.8,A,4743.12261,N,12223.39898,W,006.13,220.8,020313,016.6,E*4D
$GPRMC,220102.0,A,4743.12236,N,12223.39935,W,006.13,219.3,020313,016.6,E*43
$IIMTW,+08.0,C*30
$HCHDG,197.3,0.0,E,,*25
$GPRMC,220102.2,A,4743.12211,N,12223.39968,W,006.13,218.8,020313,016.6,E*46
$IIRMC,220100,A,4743.123,N,12223.397,W,06.0,223,020313,16,E,A*17
$YXXDR,A,4.5,D,PTCH,A,30.2,D,ROLL*6D
$IIVHW,,,,,06.6,N,,*19
$IIVLW,06195,N,022.1,N*59
$IIDPT,048.8,-1.0,*44
$GPRMC,220102.4,A,4743.12186,N,12223.40000,W,006.09,218.1,020313,016.6,E*46
$IIGLL,4743.123,N,12223.397,W,220100,A,A*4A
$GPRMC,220102.6,A,4743.12158,N,12223.40032,W,006.10,220.0,020313,016.6,E*44
$GPRMB,A,,,,,4740.4440,N,12220.0640,W,8163.21,17,5.20,*32
$HCHDG,196.7,0.0,E,,*20
$YXXDR,A,4.3,D,PTCH,A,27.8,D,ROLL*67
$GPRMC,220102.8,A,4743.12135,N,12223.40066,W,006.08,218.1,020313,016.6,E*43
$GPRMC,220103.0,A,4743.12111,N,12223.40099,W,006.08,217.1,020313,016.6,E*43
$IIMTW,+08.0,C*30
$HCHDG,196.2,0.0,E,,*25
$GPRMC,220103.2,A,4743.12089,N,12223.40126,W,005.87,214.9,020313,016.6,E*4B
$IIRMC,220100,A,4743.122,N,12223.399,W,06.1,219,020313,16,E,A*10
$YXXDR,A,4.6,D,PTCH,A,26.1,D,ROLL*6A
$IIVHW,,,,,06.5,N,,*1A
$IIVLW,06195,N,022.1,N*59
$IIDPT,048.8,-1.0,*44
$GPRMC,220103.4,A,4743.12062,N,12223.40165,W,006.05,213.4,020313,016.6,E*4C
$IIGLL,4743.122,N,12223.399,W,220100,A,A*45
$GPRMC,220103.6,A,4743.12035,N,12223.40190,W,005.85,211.4,020313,016.6,E*4F
$HCHDG,193.9,0.0,E,,*2B
$YXXDR,A,4.2,D,PTCH,A,25.6,D,ROLL*6A
$GPRMC,220103.8,A,4743.12008,N,12223.40214,W,005.85,212.1,020313,016.6,E*46
$GPRMB,A,,,,,4740.4440,N,12220.0640,W,8158.31,17,4.09,*31
$GPRMC,220104.0,A,4743.11982,N,12223.40237,W,005.86,212.1,020313,016.6,E*43
$IIMTW,+08.0,C*30
$HCHDG,196.0,0.0,E,,*27
$GPRMC,220104.2,A,4743.11955,N,12223.40259,W,005.82,211.2,020313,016.6,E*47
$IIRMC,220100,A,4743.121,N,12223.400,W,06.0,217,020313,16,E,A*1B
$YXXDR,A,4.4,D,PTCH,A,20.6,D,ROLL*69
$IIVHW,,,,,06.5,N,,*1A
$IIVLW,06195,N,022.1,N*59
$IIDPT,050.2,-1.0,*47
$GPRMC,220104.4,A,4743.11927,N,12223.40283,W,005.88,213.7,020313,016.6,E*4E
$IIGLL,4743.121,N,12223.400,W,220100,A,A*41
$GPRMC,220104.6,A,4743.11903,N,12223.40309,W,005.88,214.6,020313,016.6,E*4F
$HCHDG,198.6,0.0,E,,*2F
$YXXDR,A,4.4,D,PTCH,A,17.1,D,ROLL*6A
$GPRMC,220104.8,A,4743.11877,N,12223.40342,W,005.92,215.9,020313,016.6,E*49
$GPRMC,220105.0,A,4743.11852,N,12223.40372,W,005.95,217.0,020313,016.6,E*48
$GPRMB,A,,,,,4740.4440,N,12220.0640,W,8153.20,17,-5.59,*13
$IIMTW,+08.0,C*30
$HCHDG,202.3,0.0,E,,*2A
$GPRMC,220105.2,A,4743.11820,N,12223.40398,W,005.99,218.6,020313,016.6,E*4E
$IIRMC,220100,A,4743.119,N,12223.402,W,05.8,212,020313,16,E,A*1C
$YXXDR,A,5.3,D,PTCH,A,12.3,D,ROLL*6B
$IIVHW,,,,,06.5,N,,*1A
$IIVLW,06195,N,022.1,N*59
$IIDPT,050.2,-1.0,*47
$GPRMC,220105.4,A,4743.11790,N,12223.40436,W,006.01,219.7,020313,016.6,E*4D
$IIGLL,4743.119,N,12223.402,W,220100,A,A*48
$GPRMC,220105.6,A,4743.11761,N,12223.40468,W,006.04,219.3,020313,016.6,E*4B
$HCHDG,204.1,0.0,E,,*2E
$YXXDR,A,5.1,D,PTCH,A,12.5,D,ROLL*6F
$GPRMC,220105.8,A,4743.11728,N,12223.40508,W,006.08,220.6,020313,016.6,E*4C
$GPRMB,A,,,,,4740.4440,N,12220.0640,W,8149.15,17,-4.54,*12
$GPRMC,220106.0,A,4743.11697,N,12223.40542,W,006.08,220.6,020313,016.6,E*4C
$IIMTW,+08.0,C*30
$HCHDG,204.2,0.0,E,,*2D
$GPRMC,220106.2,A,4743.11673,N,12223.40580,W,006.09,221.7,020313,016.6,E*4B
$IIRMC,220100,A,4743.118,N,12223.403,W,05.9,217,020313,16,E,A*18
$YXXDR,A,4.9,D,PTCH,A,13.2,D,ROLL*60
$IIVHW,,,,,06.4,N,,*1B
$IIVLW,06195,N,022.1,N*59
$IIDPT,050.2,-1.0,*47
$GPRMC,220106.4,A,4743.11651,N,12223.40614,W,006.09,222.8,020313,016.6,E*4F
$IIGLL,4743.118,N,12223.403,W,220100,A,A*48
$GPRMC,220106.6,A,4743.11626,N,12223.40652,W,006.06,223.2,020313,016.6,E*4B
$HCHDG,205.3,0.0,E,,*2D
$YXXDR,A,5.1,D,PTCH,A,11.8,D,ROLL*61
$GPRMC,220106.8,A,4743.11604,N,12223.40690,W,006.04,223.2,020313,016.6,E*49
$GPRMC,220107.0,A,4743.11580,N,12223.40726,W,006.03,222.2,020313,016.6,E*45
$IIMTW,+08.0,C*30
$HCHDG,204.4,0.0,E,,*2B
$GPRMC,220107.2,A,4743.11559,N,12223.40763,W,005.99,222.2,020313,016.6,E*42
$GPRMB,A,,,,,4740.4440,N,12220.0640,W,8143.63,17,5.91,*3C
$IIRMC,220100,A,4743.116,N,12223.405,W,06.0,220,020313,16,E,A*1E
$YXXDR,A,4.7,D,PTCH,A,13.0,D,ROLL*6C
$IIVHW,,,,,06.5,N,,*1A
$IIVLW,06195,N,022.1,N*59
$IIDPT,050.2,-1.0,*47
$GPRMC,220107.4,A,4743.11533,N,12223.40805,W,005.97,223.8,020313,016.6,E*42
$IIGLL,4743.116,N,12223.405,W,220100,A,A*40
$GPRMC,220107.6,A,4743.11514,N,12223.40843,W,005.94,224.1,020313,016.6,E*4A
$HCHDG,204.6,0.0,E,,*29
$YXXDR,A,4.7,D,PTCH,A,12.2,D,ROLL*6F
$GPRMC,220107.8,A,4743.11494,N,12223.40878,W,005.93,225.8,020313,016.6,E*4A
$GPRMC,220108.0,A,4743.11473,N,12223.40913,W,005.89,224.2,020313,016.6,E*48
$IIMTW,+07.5,C*3A
$HCHDG,205.6,0.0,E,,*28
$GPRMC,220108.2,A,4743.11450,N,12223.40952,W,005.87,223.0,020313,016.6,E*45
$GPRMB,A,,,,,4740.4440,N,12220.0640,W,8140.08,17,-0.72,*17
$IIRMC,220100,A,4743.115,N,12223.407,W,06.0,222,020313,16,E,A*1D
$YXXDR,A,4.8,D,PTCH,A,12.2,D,ROLL*60
$IIVHW,,,,,06.5,N,,*1A
$IIVLW,06195,N,022.1,N*59
$IIDPT,050.2,-1.0,*47
$GPRMC,220108.4,A,4743.11431,N,12223.40998,W,005.87,223.8,020313,016.6,E*4A
$IIGLL,4743.115,N,12223.407,W,220100,A,A*41
$GPRMC,220108.6,A,4743.11405,N,12223.41030,W,005.87,223.7,020313,016.6,E*4A
$HCHDG,205.2,0.0,E,,*2C
$YXXDR,A,4.4,D,PTCH,A,13.7,D,ROLL*68
$GPRMC,220108.8,A,4743.11381,N,12223.41059,W,005.86,224.7,020313,016.6,E*46
$GPRMC,220109.0,A,4743.11359,N,12223.41091,W,005.88,226.3,020313,016.6,E*46
$IIMTW,+07.5,C*3A
$HCHDG,206.5,0.0,E,,*28
$GPRMC,220109.2,A,4743.11337,N,12223.41120,W,005.90,226.8,020313,016.6,E*45
$GPRMB,A,,,,,4740.4440,N,12220.0640,W,8136.39,17,5.20,*3B
$IIRMC,220100,A,4743.114,N,12223.409,W,05.8,224,020313,16,E,A*1F
$YXXDR,A,5.0,D,PTCH,A,12.4,D,ROLL*6F
$IIVHW,,,,,06.4,N,,*1B
$IIVLW,06195,N,022.1,N*59
$IIDPT,050.2,-1.0,*47
$GPRMC,220109.4,A,4743.11313,N,12223.41153,W,005.92,225.9,020313,016.6,E*41
$IIGLL,4743.114,N,12223.409,W,220100,A,A*4E
$GPRMC,220109.6,A,4743.11293,N,12223.41185,W,005.91,227.0,020313,016.6,E*49
$HCHDG,206.8,0.0,E,,*25
$YXXDR,A,4.5,D,PTCH,A,14.6,D,ROLL*6F
$GPRMC,220109.8,A,4743.11271,N,12223.41213,W,005.90,227.3,020313,016.6,E*45
$GPRMC,220110.0,A,4743.11247,N,12223.41247,W,005.92,227.4,020313,016.6,E*44
$IIMTW,+07.5,C*3A
$HCHDG,207.0,0.0,E,,*2C
$GPRMC,220110.2,A,4743.11223,N,12223.41291,W,005.94,228.7,020313,016.6,E*45
$IIRMC,220100,A,4743.113,N,12223.410,W,05.8,226,020313,16,E,A*12
$YXXDR,A,4.8,D,PTCH,A,14.2,D,ROLL*66
$IIVHW,,,,,06.4,N,,*1B
$IIVLW,06195,N,022.1,N*59
$IIDPT,050.2,-1.0,*47
$GPRMC,220110.4,A,4743.11199,N,12223.41324,W,005.95,227.9,020313,016.6,E*4E
$GPRMB,A,,,,,4740.4440,N,12220.0640,W,8131.89,17,5.68,*3B
$IIGLL,4743.113,N,12223.410,W,220100,A,A*41
$GPRMC,220110.6,A,4743.11178,N,12223.41359,W,005.95,228.4,020313,016.6,E*4B
$HCHDG,207.4,0.0,E,,*28
$YXXDR,A,5.0,D,PTCH,A,13.7,D,ROLL*6D
$GPRMC,220110.8,A,4743.11157,N,12223.41388,W,005.92,228.5,020313,016.6,E*42
$GPRMC,220111.0,A,4743.11139,N,12223.41429,W,005.87,227.1,020313,016.6,E*40
$IIMTW,+07.5,C*3A
$HCHDG,206.5,0.0,E,,*28
$GPRMC,220111.2,A,4743.11121,N,12223.41463,W,005.88,228.1,020313,016.6,E*45
$IIRMC,220100,A,4743.113,N,12223.410,W,05.8,226,020313,16,E,A*12
$YXXDR,A,4.6,D,PTCH,A,14.7,D,ROLL*6D
$IIVHW,,,,,06.5,N,,*1A
$IIVLW,06195,N,022.1,N*59
$IIDPT,050.2,-1.0,*47
$GPRMC,220111.4,A,4743.11100,N,12223.41514,W,005.89,228.8,020313,016.6,E*49
$GPRMB,A,,,,,4740.4440,N,12220.0640,W,8128.66,17,3.18,*33
$IIGLL,4743.113,N,12223.410,W,220100,A,A*41
$GPRMC,220111.6,A,4743.11079,N,12223.41551,W,005.86,226.3,020313,016.6,E*4F
$HCHDG,205.8,0.0,E,,*26
$YXXDR,A,4.6,D,PTCH,A,15.5,D,ROLL*6E
$GPRMC,220111.8,A,4743.11057,N,12223.41588,W,005.83,225.7,020313,016.6,E*4B
$GPRMC,220112.0,A,4743.11037,N,12223.41619,W,005.81,226.1,020313,016.6,E*4A
$IIMTW,+07.5,C*3A
$HCHDG,204.9,0.0,E,,*26
$GPRMC,220112.2,A,4743.11012,N,12223.41663,W,005.80,224.7,020313,016.6,E*47
$IIRMC,220100,A,4743.113,N,12223.410,W,05.8,226,020313,16,E,A*12
$YXXDR,A,4.8,D,PTCH,A,15.6,D,ROLL*63
$IIVHW,,,,,06.4,N,,*1B
$IIVLW,06195,N,022.1,N*59
$IIDPT,050.2,-1.0,*47
$GPRMC,220112.4,A,4743.10987,N,12223.41700,W,005.83,226.7,020313,016.6,E*40
$GPRMB,A,,,,,4740.4440,N,12220.0640,W,8124.98,17,5.82,*3B
$IIGLL,4743.113,N,12223.410,W,220100,A,A*41
$GPRMC,220112.6,A,4743.10966,N,12223.41734,W,005.82,225.5,020313,016.6,E*4A
$HCHDG,206.2,0.0,E,,*2F
$YXXDR,A,5.0,D,PTCH,A,14.6,D,ROLL*6B
$GPRMC,220112.8,A,4743.10947,N,12223.41767,W,005.84,226.0,020313,016.6,E*41
$GPRMC,220113.0,A,4743.10925,N,12223.41804,W,005.82,227.3,020313,016.6,E*42
$IIMTW,+07.5,C*3A
$HCHDG,206.8,0.0,E,,*25
$GPRMC,220113.2,A,4743.10903,N,12223.41849,W,005.81,227.4,020313,016.6,E*49
$IIRMC,220100,A,4743.110,N,12223.416,W,05.8,226,020313,16,E,A*17
$YXXDR,A,4.8,D,PTCH,A,15.0,D,ROLL*65
$IIVHW,,,,,06.4,N,,*1B
$IIVLW,06195,N,022.1,N*59
$IIDPT,050.2,-1.0,*47
$GPRMC,220113.4,A,4743.10875,N,12223.41892,W,005.82,228.7,020313,016.6,E*46
$IIGLL,4743.110,N,12223.416,W,220100,A,A*44
$GPRMC,220113.6,A,4743.10855,N,12223.41932,W,005.86,229.9,020313,016.6,E*46
$GPRMB,A,,,,,4740.4440,N,12220.0640,W,8120.68,17,2.15,*39
$HCHDG,208.5,0.0,E,,*26
$YXXDR,A,4.8,D,PTCH,A,14.7,D,ROLL*63
$GPRMC,220113.8,A,4743.10838,N,12223.41966,W,005.85,229.5,020313,016.6,E*4D
$GPRMC,220114.0,A,4743.10817,N,12223.42010,W,005.87,229.8,020313,016.6,E*4B
$IIMTW,+08.0,C*30
$HCHDG,208.8,0.0,E,,*2B
$GPRMC,220114.2,A,4743.10796,N,12223.42048,W,005.87,230.0,020313,016.6,E*42
$IIRMC,220100,A,4743.109,N,12223.418,W,05.8,227,020313,16,E,A*10
$YXXDR,A,4.6,D,PTCH,A,16.8,D,ROLL*60
$IIVHW,,,,,06.4,N,,*1B
$IIVLW,06195,N,022.1,N*59
$IIDPT,050.2,-1.0,*47
$GPRMC,220114.4,A,4743.10775,N,12223.42087,W,005.88,228.8,020313,016.6,E*44
$IIGLL,4743.109,N,12223.418,W,220100,A,A*42
$GPRMC,220114.6,A,4743.10753,N,12223.42121,W,005.89,229.4,020313,016.6,E*43
$HCHDG,207.7,0.0,E,,*2B
$YXXDR,A,4.6,D,PTCH,A,17.8,D,ROLL*61
$GPRMC,220114.8,A,4743.10729,N,12223.42160,W,005.90,230.5,020313,016.6,E*44
$GPRMB,A,,,,,4740.4440,N,12220.0640,W,8116.59,17,-3.11,*16
$GPRMC,220115.0,A,4743.10703,N,12223.42207,W,005.92,229.7,020313,016.6,E*4F
$IIMTW,+07.5,C*3A
$HCHDG,207.0,0.0,E,,*2C
$GPRMC,220115.2,A,4743.10681,N,12223.42244,W,005.90,226.9,020313,016.6,E*42
$IIRMC,220100,A,4743.108,N,12223.420,W,05.8,229,020313,16,E,A*14
$YXXDR,A,4.4,D,PTCH,A,18.2,D,ROLL*66
$IIVHW,,,,,06.4,N,,*1B
$IIVLW,06195,N,022.1,N*59
$IIDPT,048.1,-1.0,*4D
$GPRMC,220115.4,A,4743.10657,N,12223.42271,W,005.90,227.5,020313,016.6,E*44
$IIGLL,4743.108,N,12223.420,W,220100,A,A*48
$GPRMC,220115.6,A,4743.10633,N,12223.42294,W,005.89,227.3,020313,016.6,E*41
$HCHDG,205.7,0.0,E,,*29
$YXXDR,A,4.6,D,PTCH,A,20.0,D,ROLL*6D
$GPRMC,220115.8,A,4743.10612,N,12223.42319,W,005.90,226.6,020313,016.6,E*44
$GPRMB,A,,,,,4740.4440,N,12220.0640,W,8112.77,17,4.82,*3E
$GPRMC,220116.0,A,4743.10587,N,12223.42356,W,005.91,227.1,020313,016.6,E*4C
$IIMTW,+07.5,C*3A
$HCHDG,205.8,0.0,E,,*26
$GPRMC,220116.2,A,4743.10560,N,12223.42389,W,005.90,225.4,020313,016.6,E*43
$IIRMC,220100,A,4743.107,N,12223.422,W,05.9,229,020313,16,E,A*18
$YXXDR,A,4.6,D,PTCH,A,20.0,D,ROLL*6D
$IIVHW,,,,,06.4,N,,*1B
$IIVLW,06195,N,022.1,N*59
$IIDPT,048.1,-1.0,*4D
$GPRMC,220116.4,A,4743.10532,N,12223.42424,W,005.89,225.9,020313,016.6,E*47
$IIGLL,4743.107,N,12223.422,W,220100,A,A*45
$GPRMC,220116.6,A,4743.10504,N,12223.42457,W,005.90,226.6,020313,016.6,E*40
$HCHDG,205.3,0.0,E,,*2D
$YXXDR,A,4.6,D,PTCH,A,21.0,D,ROLL*6C
$GPRMC,220116.8,A,4743.10480,N,12223.42492,W,005.89,228.6,020313,016.6,E*4C
$GPRMC,220117.0,A,4743.10456,N,12223.42526,W,005.88,228.2,020313,016.6,E*45
$GPRMB,A,,,,,4740.4440,N,12220.0640,W,8107.68,17,-2.23,*14
$IIMTW,+07.5,C*3A
$HCHDG,206.5,0.0,E,,*28
$GPRMC,220117.2,A,4743.10433,N,12223.42561,W,005.85,228.6,020313,016.6,E*4E
$IIRMC,220100,A,4743.107,N,12223.422,W,05.9,229,020313,16,E,A*18
$YXXDR,A,4.4,D,PTCH,A,20.4,D,ROLL*6B
$IIVHW,,,,,06.4,N,,*1B
$IIVLW,06195,N,022.1,N*59
$IIDPT,048.1,-1.0,*4D
$GPRMC,220117.4,A,4743.10404,N,12223.42604,W,005.86,227.9,020313,016.6,E*4F
$IIGLL,4743.107,N,12223.422,W,220100,A,A*45
$GPRMC,220117.6,A,4743.10381,N,12223.42644,W,005.90,228.6,020313,016.6,E*44
$HCHDG,206.3,0.0,E,,*2E
$YXXDR,A,4.5,D,PTCH,A,21.3,D,ROLL*6C
$GPRMC,220117.8,A,4743.10360,N,12223.42681,W,005.93,229.8,020313,016.6,E*40
$GPRMC,220118.0,A,4743.10333,N,12223.42719,W,006.09,229.6,020313,016.6,E*4F
$GPRMB,A,,,,,4740.4440,N,12220.0640,W,8103.68,17,-5.84,*1A
$IIMTW,+07.5,C*3A
$HCHDG,206.1,0.0,E,,*2C
$GPRMC,220118.2,A,4743.10305,N,12223.42754,W,006.05,227.8,020313,016.6,E*4D
$IIRMC,220100,A,4743.104,N,12223.425,W,05.8,228,020313,16,E,A*1C
$YXXDR,A,4.5,D,PTCH,A,22.2,D,ROLL*6E
$IIVHW,,,,,06.4,N,,*1B
$IIVLW,06195,N,022.1,N*59
$IIDPT,048.1,-1.0,*4D
$GPRMC,220118.4,A,4743.10280,N,12223.42795,W,006.01,227.2,020313,016.6,E*44
$IIGLL,4743.104,N,12223.425,W,220100,A,A*41
$GPRMC,220118.6,A,4743.10259,N,12223.42826,W,006.02,226.6,020313,016.6,E*43
$HCHDG,204.0,0.0,E,,*2F
$YXXDR,A,4.5,D,PTCH,A,23.1,D,ROLL*6C
