$YXXDR,A,5.1,D,PTCH,A,3.9,D,ROLL*53
$GPRMC,172145.6,V,4740.76893,N,12224.33551,W,,,020313,016.6,E*6F
$GPRMC,172145.8,V,4740.76893,N,12224.33551,W,,,020313,016.6,E*61
$HCHDG,181.2,0.0,E,,*23
$YXXDR,A,4.2,D,PTCH,A,4.2,D,ROLL*5D
$GPRMC,172146.0,V,4740.76893,N,12224.33551,W,,,020313,016.6,E*6A
$GPRMC,172146.2,V,4740.76893,N,12224.33551,W,,,020313,016.6,E*68
$HCHDG,181.9,0.0,E,,*28
$GPRMC,172146.4,V,4740.76893,N,12224.33551,W,,,020313,016.6,E*6E
$YXXDR,A,4.8,D,PTCH,A,3.0,D,ROLL*52
$GPRMC,172146.6,V,4740.76893,N,12224.33551,W,,,020313,016.6,E*6C
$GPRMC,172146.8,V,4740.76893,N,12224.33551,W,,,020313,016.6,E*62
$HCHDG,182.0,0.0,E,,*22
$YXXDR,A,4.9,D,PTCH,A,3.2,D,ROLL*51
$GPRMC,172147.0,V,4740.76893,N,12224.33551,W,,,020313,016.6,E*6B
$GPRMC,172147.2,V,4740.76893,N,12224.33551,W,,,020313,016.6,E*69
$HCHDG,181.8,0.0,E,,*29
$GPRMC,172147.4,V,4740.76893,N,12224.33551,W,,,020313,016.6,E*6F
$YXXDR,A,4.3,D,PTCH,A,3.3,D,ROLL*5A
$GPRMC,172147.6,V,4740.76893,N,12224.33551,W,,,020313,016.6,E*6D
$GPRMC,172147.8,V,4740.76893,N,12224.33551,W,,,020313,016.6,E*63
$HCHDG,182.8,0.0,E,,*2A
$YXXDR,A,4.8,D,PTCH,A,1.8,D,ROLL*58
$GPRMC,172148.0,V,4740.76893,N,12224.33551,W,,,020313,016.6,E*64
$GPRMC,172148.2,V,4740.76893,N,12224.33551,W,,,020313,016.6,E*66
$HCHDG,182.3,0.0,E,,*21
$GPRMC,172148.4,V,4740.76893,N,12224.33551,W,,,020313,016.6,E*60
$YXXDR,A,5.0,D,PTCH,A,2.9,D,ROLL*53
$GPRMC,172148.6,V,4740.76893,N,12224.33551,W,,,020313,016.6,E*62
$GPRMC,172148.8,V,4740.76893,N,12224.33551,W,,,020313,016.6,E*6C
$HCHDG,181.0,0.0,E,,*21
$YXXDR,A,4.3,D,PTCH,A,3.9,D,ROLL*50
$GPRMC,172149.0,V,4740.76893,N,12224.33551,W,,,020313,016.6,E*65
$GPRMC,172149.2,V,4740.76893,N,12224.33551,W,,,020313,016.6,E*67
$HCHDG,183.0,0.0,E,,*23
$GPRMC,172149.4,V,4740.76893,N,12224.33551,W,,,020313,016.6,E*61
$YXXDR,A,4.8,D,PTCH,A,1.3,D,ROLL*53
$GPRMC,172149.6,V,4740.76893,N,12224.33551,W,,,020313,016.6,E*63
$GPRMC,172149.8,V,4740.76893,N,12224.33551,W,,,020313,016.6,E*6D
$HCHDG,184.0,0.0,E,,*24
$YXXDR,A,4.2,D,PTCH,A,0.5,D,ROLL*5E
$GPRMC,172150.0,V,4740.76893,N,12224.33551,W,,,020313,016.6,E*6D
$GPRMC,172150.2,V,4740.76893,N,12224.33551,W,,,020313,016.6,E*6F
$HCHDG,183.1,0.0,E,,*22
$GPRMC,172150.4,V,4740.76893,N,12224.33551,W,,,020313,016.6,E*69
$YXXDR,A,4.7,D,PTCH,A,3.8,D,ROLL*55
$GPRMC,172150.6,V,4740.76893,N,12224.33551,W,,,020313,016.6,E*6B
$GPRMC,172150.8,V,4740.76893,N,12224.33551,W,,,020313,016.6,E*65
$HCHDG,183.4,0.0,E,,*27
$YXXDR,A,4.9,D,PTCH,A,3.1,D,ROLL*52
$GPRMC,172151.0,V,4740.76893,N,12224.33551,W,,,020313,016.6,E*6C
$GPRMC,172151.2,V,4740.76893,N,12224.33551,W,,,020313,016.6,E*6E
$HCHDG,184.5,0.0,E,,*21
$GPRMC,172151.4,V,4740.76893,N,12224.33551,W,,,020313,016.6,E*68
$YXXDR,A,4.8,D,PTCH,A,2.2,D,ROLL*51
$GPRMC,172151.6,V,4740.76893,N,12224.33551,W,,,020313,016.6,E*6A
$GPRMC,172151.8,V,4740.76893,N,12224.33551,W,,,020313,016.6,E*64
$HCHDG,185.2,0.0,E,,*27
$YXXDR,A,4.5,D,PTCH,A,2.1,D,ROLL*5F
$GPRMC,172152.0,V,4740.76893,N,12224.33551,W,,,020313,016.6,E*6F
$GPRMC,172152.2,V,4740.76893,N,12224.33551,W,,,020313,016.6,E*6D
$HCHDG,186.1,0.0,E,,*27
$GPRMC,172152.4,V,4740.76893,N,12224.33551,W,,,020313,016.6,E*6B
$YXXDR,A,4.8,D,PTCH,A,1.8,D,ROLL*58
$GPRMC,172152.6,V,4740.76893,N,12224.33551,W,,,020313,016.6,E*69
$GPRMC,172152.8,V,4740.76893,N,12224.33551,W,,,020313,016.6,E*67
$HCHDG,185.7,0.0,E,,*22
$YXXDR,A,4.8,D,PTCH,A,2.3,D,ROLL*50
$GPRMC,172153.0,V,4740.76893,N,12224.33551,W,,,020313,016.6,E*6E
$GPRMC,172153.2,V,4740.76893,N,12224.33551,W,,,020313,016.6,E*6C
$HCHDG,184.8,0.0,E,,*2C
$GPRMC,172153.4,V,4740.76893,N,12224.33551,W,,,020313,016.6,E*6A
$YXXDR,A,4.2,D,PTCH,A,3.1,D,ROLL*59
$GPRMC,172153.6,V,4740.76893,N,12224.33551,W,,,020313,016.6,E*68
$GPRMC,172153.8,V,4740.76893,N,12224.33551,W,,,020313,016.6,E*66
$HCHDG,184.2,0.0,E,,*26
$YXXDR,A,4.2,D,PTCH,A,3.5,D,ROLL*5D
$GPRMC,172154.0,V,4740.76893,N,12224.33551,W,,,020313,016.6,E*69
$GPRMC,172154.2,V,4740.76893,N,12224.33551,W,,,020313,016.6,E*6B
$HCHDG,185.5,0.0,E,,*20
$GPRMC,172154.4,V,4740.76893,N,12224.33551,W,,,020313,016.6,E*6D
$YXXDR,A,5.0,D,PTCH,A,2.1,D,ROLL*5B
$GPRMC,172154.6,V,4740.76893,N,12224.33551,W,,,020313,016.6,E*6F
3.6,020313,016.6,E*43
98,N,12224.38848,W,001.76,202.9,020313,016.6,E*44
$GPRMC,172257.2,A,4741.24889,N,12224.38855,W,001.60,203.6,020313,016.6,E*43
$GPRMB,A,,,,,4740.4440,N,12220.0640,W,2167.06,17,-1.18,*1B
$HCHDG,179.8,0.0,E,,*2E
$GPRMC,172257.4,A,4741.24883,N,12224.38862,W,001.54,208.0,020313,016.6,E*41
$YXXDR,A,5.0,D,PTCH,A,1.0,D,ROLL*59
$GPRMC,172257.6,A,4741.24876,N,12224.38871,W,001.51,201.8,020313,016.6,E*4F
$GPRMC,172257.8,A,4741.24869,N,12224.38878,W,001.50,205.8,020313,016.6,E*43
$HCHDG,177.6,0.0,E,,*2E
$YXXDR,A,4.7,D,PTCH,A,2.3,D,ROLL*5F
$GPRMC,172258.0,A,4741.24862,N,12224.38891,W,002.06,216.3,020313,016.6,E*41
$GPRMC,172258.2,A,4741.24854,N,12224.38897,W,001.57,197.9,020313,016.6,E*47
$HCHDG,176.9,0.0,E,,*20
$GPRMC,172258.4,A,4741.24845,N,12224.38903,W,001.82,210.5,020313,016.6,E*45
$YXXDR,A,4.2,D,PTCH,A,1.7,D,ROLL*5D
$GPRMC,172258.6,A,4741.24836,N,12224.38908,W,001.75,201.0,020313,016.6,E*45
$GPRMC,172258.8,A,4741.24832,N,12224.38915,W,001.47,217.1,020313,016.6,E*44
$HCHDG,176.5,0.0,E,,*2C
$YXXDR,A,4.5,D,PTCH,A,1.8,D,ROLL*55
$GPRMC,172259.0,A,4741.24826,N,12224.38924,W,001.43,208.3,020313,016.6,E*42
$GPRMC,172259.2,A,4741.24819,N,12224.38925,W,001.47,196.9,020313,016.6,E*47
$HCHDG,175.7,0.0,E,,*2D
$GPRMC,172259.4,A,4741.24809,N,12224.38927,W,001.53,206.0,020313,016.6,E*44
$YXXDR,A,4.8,D,PTCH,A,3.0,D,ROLL*52
$GPRMC,172259.6,A,4741.24798,N,12224.38935,W,001.79,194.6,020313,016.6,E*44
$GPRMC,172259.8,A,4741.24785,N,12224.38944,W,001.74,193.9,020313,016.6,E*45
$HCHDG,175.2,0.0,E,,*28
$YXXDR,A,4.6,D,PTCH,A,3.1,D,ROLL*5D
$GPRMC,172300.0,A,4741.24775,N,12224.38948,W,001.72,196.2,020313,016.6,E*4B
$GPRMC,172300.2,A,4741.24767,N,12224.38947,W,001.67,201.6,020313,016.6,E*48
$HCHDG,175.8,0.0,E,,*22
$GPRMC,172300.4,A,4741.24757,N,12224.38937,W,002.11,202.5,020313,016.6,E*48
$YXXDR,A,4.5,D,PTCH,A,1.9,D,ROLL*54
$GPRMC,172300.6,A,4741.24752,N,12224.38938,W,001.25,209.0,020313,016.6,E*4A
$GPRMC,172300.8,A,4741.24742,N,12224.38943,W,001.30,216.6,020313,016.6,E*45
$HCHDG,177.0,0.0,E,,*28
$YXXDR,A,5.1,D,PTCH,A,1.3,D,ROLL*5B
$GPRMC,172301.0,A,4741.24738,N,12224.38953,W,001.49,206.8,020313,016.6,E*41
$GPRMC,172301.2,A,4741.24725,N,12224.38954,W,001.50,212.3,020313,016.6,E*4E
$HCHDG,175.7,0.0,E,,*2D
$GPRMC,172301.4,A,4741.24713,N,12224.38964,W,001.71,207.4,020313,016.6,E*4E
$YXXDR,A,5.3,D,PTCH,A,4.8,D,ROLL*57
$GPRMC,172301.6,A,4741.24700,N,12224.38967,W,001.71,193.7,020313,016.6,E*40
$GPRMC,172301.8,A,4741.24690,N,12224.38977,W,001.71,197.8,020313,016.6,E*4C
$HCHDG,174.1,0.0,E,,*2A
$YXXDR,A,3.9,D,PTCH,A,4.1,D,ROLL*52
$GPRMC,172302.0,A,4741.24686,N,12224.38974,W,001.68,197.0,020313,016.6,E*43
$GPRMC,172302.2,A,4741.24673,N,12224.38978,W,001.26,202.6,020313,016.6,E*44
$HCHDG,174.7,0.0,E,,*2C
$GPRMC,172302.4,A,4741.24665,N,12224.38982,W,001.57,211.6,020313,016.6,E*44
$YXXDR,A,5.0,D,PTCH,A,0.9,D,ROLL*51
$GPRMC,172302.6,A,4741.24646,N,12224.38996,W,001.58,195.7,020313,016.6,E*43
$GPRMC,172302.8,A,4741.24632,N,12224.39014,W,001.74,201.0,020313,016.6,E*4B
$HCHDG,174.8,0.0,E,,*23
$YXXDR,A,5.3,D,PTCH,A,-0.2,D,ROLL*74
$GPRMC,172303.0,A,4741.24620,N,12224.39030,W,001.71,208.1,020313,016.6,E*4A
$GPRMC,172303.2,A,4741.24606,N,12224.39051,W,001.46,192.8,020313,016.6,E*46
$HCHDG,172.7,0.0,E,,*2A
$GPRMC,172303.4,A,4741.24598,N,12224.39060,W,001.47,200.3,020313,016.6,E*44
$GPRMB,A,,,,,4740.4440,N,12220.0640,W,2158.14,17,-0.37,*18
$YXXDR,A,4.4,D,PTCH,A,0.9,D,ROLL*54
$GPRMC,172303.6,A,4741.24585,N,12224.39076,W,001.46,203.0,020313,016.6,E*4C
$GPRMC,172303.8,A,4741.24577,N,12224.39083,W,001.48,188.7,020313,016.6,E*4C
$HCHDG,171.4,0.0,E,,*2A
$YXXDR,A,4.5,D,PTCH,A,0.2,D,ROLL*5E
$GPRMC,172304.0,A,4741.24573,N,12224.39084,W,001.45,197.3,020313,016.6,E*47
$GPRMC,172304.2,A,4741.24566,N,12224.39087,W,001.64,190.6,020313,016.6,E*43
$HCHDG,171.6,0.0,E,,*28
$GPRMC,172304.4,A,4741.24566,N,12224.39090,W,001.59,197.0,020313,016.6,E*4C
$YXXDR,A,4.6,D,PTCH,A,-0.7,D,ROLL*75
$GPRMC,172304.6,A,4741.24562,N,12224.39096,W,001.36,194.0,020313,016.6,E*46
$GPRMC,172304.8,A,4741.24554,N,12224.39101,W,001.74,190.5,020313,016.6,E*45
$HCHDG,170.9,0.0,E,,*26
$YXXDR,A,4.5,D,PTCH,A,0.2,D,ROLL*5E
$GPRMC,172305.0,A,4741.24548,N,12224.39105,W,001.44,199.7,020313,016.6,E*4D
213,W,000.81,170.9,020313,016.6,E*4E
07,N,12224.39217,W,000.57,169.4,020313,016.6,E*40
$GPRMC,172319.2,A,4741.24101,N,12224.39213,W,000.81,170.9,020313,016.6,E*4E
$HCHDG,167.5,0.0,E,,*2C
$GPRMC,172319.4,A,4741.24086,N,12224.39203,W,001.53,146.7,020313,016.6,E*42
$YXXDR,A,5.2,D,PTCH,A,1.7,D,ROLL*5C
$GPRMC,172319.6,A,4741.24080,N,12224.39209,W,001.04,164.2,020313,016.6,E*4B
$GPRMC,172319.8,A,4741.24074,N,12224.39207,W,001.07,160.9,020313,016.6,E*4C
$HCHDG,165.8,0.0,E,,*23
$YXXDR,A,2.7,D,PTCH,A,2.2,D,ROLL*58
$GPRMC,172320.0,A,4741.24070,N,12224.39205,W,000.50,160.9,020313,016.6,E*4B
$GPRMB,A,,,,,4740.4440,N,12220.0640,W,2141.33,17,0.50,*39
$GPRMC,172320.2,A,4741.24064,N,12224.39202,W,000.83,146.5,020313,016.6,E*4D
$HCHDG,166.9,0.0,E,,*21
$GPRMC,172320.4,A,4741.24060,N,12224.39196,W,000.79,152.9,020313,016.6,E*4D
$YXXDR,A,3.6,D,PTCH,A,-1.4,D,ROLL*70
$GPRMC,172320.6,A,4741.24055,N,12224.39186,W,000.79,156.3,020313,016.6,E*46
$GPRMC,172320.8,A,4741.24051,N,12224.39179,W,000.72,168.5,020313,016.6,E*4C
$HCHDG,168.2,0.0,E,,*24
$YXXDR,A,4.9,D,PTCH,A,-1.2,D,ROLL*7E
$GPRMC,172321.0,A,4741.24049,N,12224.39173,W,000.66,171.7,020313,016.6,E*49
$GPRMC,172321.2,A,4741.24046,N,12224.39169,W,000.68,156.1,020313,016.6,E*42
$GPRMB,A,,,,,4740.4440,N,12220.0640,W,2140.45,17,0.07,*3B
$HCHDG,168.3,0.0,E,,*25
$GPRMC,172321.4,A,4741.24042,N,12224.39166,W,000.68,165.0,020313,016.6,E*4E
$YXXDR,A,4.3,D,PTCH,A,0.2,D,ROLL*58
$GPRMC,172321.6,A,4741.24038,N,12224.39160,W,000.69,148.6,020313,016.6,E*4F
$GPRMC,172321.8,A,4741.24035,N,12224.39155,W,000.74,156.6,020313,016.6,E*49
$HCHDG,169.0,0.0,E,,*27
$YXXDR,A,4.2,D,PTCH,A,0.6,D,ROLL*5D
$GPRMC,172322.0,A,4741.24030,N,12224.39144,W,000.77,137.8,020313,016.6,E*4D
$GPRMC,172322.2,A,4741.24030,N,12224.39140,W,000.54,137.8,020313,016.6,E*4A
$HCHDG,170.2,0.0,E,,*2D
$GPRMC,172322.4,A,4741.24030,N,12224.39133,W,000.57,154.3,020313,016.6,E*45
$GPRMB,A,,,,,4740.4440,N,12220.0640,W,2139.83,17,0.24,*3E
$YXXDR,A,4.6,D,PTCH,A,0.2,D,ROLL*5D
$GPRMC,172322.6,A,4741.24029,N,12224.39129,W,000.55,154.3,020313,016.6,E*46
$GPRMC,172322.8,A,4741.24028,N,12224.39129,W,000.60,179.5,020313,016.6,E*46
$HCHDG,171.6,0.0,E,,*28
$YXXDR,A,5.1,D,PTCH,A,-0.4,D,ROLL*70
$GPRMC,172323.0,A,4741.24025,N,12224.39130,W,000.57,179.5,020313,016.6,E*4E
$GPRMC,172323.2,A,4741.24017,N,12224.39126,W,000.80,174.6,020313,016.6,E*4E
$HCHDG,172.8,0.0,E,,*25
$GPRMC,172323.4,A,4741.24010,N,12224.39120,W,000.74,171.4,020313,016.6,E*45
$YXXDR,A,4.8,D,PTCH,A,0.3,D,ROLL*52
$GPRMC,172323.6,A,4741.24004,N,12224.39116,W,000.68,150.9,020313,016.6,E*44
$GPRMB,A,,,,,4740.4440,N,12220.0640,W,2138.94,17,0.28,*35
$GPRMC,172323.8,A,4741.23996,N,12224.39104,W,000.50,150.9,020313,016.6,E*47
$HCHDG,173.5,0.0,E,,*29
$YXXDR,A,4.7,D,PTCH,A,1.6,D,ROLL*59
$GPRMC,172324.0,A,4741.23989,N,12224.39092,W,000.68,172.2,020313,016.6,E*48
$GPRMC,172324.2,A,4741.23983,N,12224.39083,W,000.64,160.6,020313,016.6,E*4B
$HCHDG,174.8,0.0,E,,*23
$GPRMC,172324.4,A,4741.23978,N,12224.39073,W,000.61,182.5,020313,016.6,E*4C
$YXXDR,A,5.0,D,PTCH,A,0.1,D,ROLL*59
$GPRMC,172324.6,A,4741.23973,N,12224.39067,W,000.78,197.8,020313,016.6,E*41
$GPRMC,172324.8,A,4741.23969,N,12224.39060,W,000.62,202.0,020313,016.6,E*4F
$GPRMB,A,,,,,4740.4440,N,12220.0640,W,2137.65,17,0.16,*39
$HCHDG,176.0,0.0,E,,*29
$YXXDR,A,5.3,D,PTCH,A,0.1,D,ROLL*5A
$GPRMC,172325.0,A,4741.23961,N,12224.39047,W,000.62,166.1,020313,016.6,E*4B
$GPRMC,172325.2,A,4741.23961,N,12224.39043,W,000.45,166.1,020313,016.6,E*48
$HCHDG,176.2,0.0,E,,*2B
$GPRMC,172325.4,A,4741.23961,N,12224.39045,W,000.50,166.1,020313,016.6,E*4C
$YXXDR,A,5.2,D,PTCH,A,0.9,D,ROLL*53
$GPRMC,172325.6,A,4741.23960,N,12224.39043,W,000.56,184.5,020313,016.6,E*47
$GPRMC,172325.8,A,4741.23960,N,12224.39051,W,000.59,193.3,020313,016.6,E*45
$GPRMB,A,,,,,4740.4440,N,12220.0640,W,2137.34,17,-0.57,*15
$HCHDG,176.6,0.0,E,,*2F
$YXXDR,A,4.0,D,PTCH,A,0.3,D,ROLL*5A
$GPRMC,172326.0,A,4741.23953,N,12224.39040,W,000.62,189.3,020313,016.6,E*4D
$GPRMC,172326.2,A,4741.23952,N,12224.39041,W,000.35,189.3,020313,016.6,E*4D
$HCHDG,177.7,0.0,E,,*2F
$GPRMC,172326.4,A,4741.23951,N,12224.39041,W,000.56,189.3,020313,016.6,E*4D
$YXXDR,A,4.3,D,PTCH,A,0.1,D,ROLL*5B
$GPRMC,172326.6,A,4741.23946,N,12224.39036,W,000.38,189.3,020313,016.6,E*41
$GPRMC,172326.8,A,4741.23942,N,12224.39031,W,000.41,189.3,020313,016.6,E*42
$GPRMB,A,,,,,4740.4440,N,12220.0640,W,2136.70,17,0.41,*3E
$HCHDG,178.7,0.0,E,,*20
$YXXDR,A,5.1,D,PTCH,A,0.4,D,ROLL*5D
$GPRMC,172327.0,A,4741.23949,N,12224.39037,W,000.60,192.5,020313,016.6,E*49
$GPRMC,172327.2,A,4741.23948,N,12224.39051,W,000.82,201.4,020313,016.6,E*4E
$HCHDG,178.6,0.0,E,,*21
$GPRMC,172327.4,A,4741.23950,N,12224.39060,W,000.75,187.4,020313,016.6,E*46
$YXXDR,A,4.5,D,PTCH,A,1.1,D,ROLL*5C
$GPRMC,172327.6,A,4741.23955,N,12224.39063,W,000.69,201.1,020313,016.6,E*47
$GPRMC,172327.8,A,4741.23953,N,12224.39058,W,000.75,203.5,020313,016.6,E*4C
$HCHDG,178.4,0.0,E,,*23
$YXXDR,A,3.5,D,PTCH,A,2.0,D,ROLL*59
$GPRMC,172328.0,A,4741.23952,N,12224.39060,W,000.77,174.5,020313,016.6,E*40
$GPRMB,A,,,,,4740.4440,N,12220.0640,W,2137.10,17,0.76,*3D
$GPRMC,172328.2,A,4741.23953,N,12224.39060,W,000.53,174.5,020313,016.6,E*45
$HCHDG,179.2,0.0,E,,*24
$GPRMC,172328.4,A,4741.23954,N,12224.39063,W,000.49,174.5,020313,016.6,E*4C
$YXXDR,A,4.5,D,PTCH,A,1.8,D,ROLL*55
$GPRMC,172328.6,A,4741.23955,N,12224.39062,W,000.46,174.5,020313,016.6,E*41
$GPRMC,172328.8,A,4741.23961,N,12224.39070,W,000.75,223.0,020313,016.6,E*4F
$HCHDG,180.6,0.0,E,,*26
$YXXDR,A,4.9,D,PTCH,A,1.4,D,ROLL*55
$GPRMC,172329.0,A,4741.23962,N,12224.39075,W,000.52,223.0,020313,016.6,E*45
$GPRMC,172329.2,A,4741.23956,N,12224.39069,W,000.54,223.0,020313,016.6,E*4B
$GPRMB,A,,,,,4740.4440,N,12220.0640,W,2137.25,17,-0.13,*15
$HCHDG,179.9,0.0,E,,*2F
$GPRMC,172329.4,A,4741.23953,N,12224.39068,W,000.58,207.2,020313,016.6,E*41
$YXXDR,A,4.5,D,PTCH,A,3.7,D,ROLL*58
$GPRMC,172329.6,A,4741.23949,N,12224.39055,W,000.32,207.2,020313,016.6,E*4A
$GPRMC,172329.8,A,4741.23945,N,12224.39056,W,000.39,207.2,020313,016.6,E*40
$HCHDG,180.0,0.0,E,,*20
$YXXDR,A,4.5,D,PTCH,A,3.7,D,ROLL*58
$GPRMC,172330.0,A,4741.23947,N,12224.39068,W,000.34,207.2,020313,016.6,E*42
$GPRMC,172330.2,A,4741.23948,N,12224.39073,W,000.38,207.2,020313,016.6,E*49
$HCHDG,181.3,0.0,E,,*22
$GPRMC,172330.4,A,4741.23947,N,12224.39074,W,000.36,207.2,020313,016.6,E*49
$GPRMB,A,,,,,4740.4440,N,12220.0640,W,2136.97,17,0.09,*3B
$YXXDR,A,4.0,D,PTCH,A,2.8,D,ROLL*53
$GPRMC,172330.6,A,4741.23941,N,12224.39079,W,000.39,207.2,020313,016.6,E*4F
$GPRMC,172330.8,A,4741.23940,N,12224.39079,W,000.38,207.2,020313,016.6,E*41
$HCHDG,181.8,0.0,E,,*29
$YXXDR,A,4.6,D,PTCH,A,3.0,D,ROLL*5C
$GPRMC,172331.0,A,4741.23937,N,12224.39080,W,000.39,207.2,020313,016.6,E*4F
$GPRMC,172331.2,A,4741.23937,N,12224.39080,W,000.40,207.2,020313,016.6,E*43
$HCHDG,182.8,0.0,E,,*2A
$GPRMC,172331.4,A,4741.23937,N,12224.39076,W,000.59,218.3,020313,016.6,E*4B
$GPRMB,A,,,,,4740.4440,N,12220.0640,W,2136.65,17,-0.53,*14
$YXXDR,A,4.4,D,PTCH,A,2.0,D,ROLL*5F
$GPRMC,172331.6,A,4741.23935,N,12224.39076,W,000.52,218.3,020313,016.6,E*40
$GPRMC,172331.8,A,4741.23933,N,12224.39078,W,000.51,218.3,020313,016.6,E*45
$HCHDG,183.6,0.0,E,,*25
$YXXDR,A,4.7,D,PTCH,A,2.1,D,ROLL*5D
$GPRMC,172332.0,A,4741.23931,N,12224.39082,W,000.50,218.3,020313,016.6,E*48
$GPRMC,172332.2,A,4741.23930,N,12224.39081,W,000.33,218.3,020313,016.6,E*4D
$HCHDG,183.3,0.0,E,,*20
$GPRMC,172332.4,A,4741.23927,N,12224.39084,W,000.38,218.3,020313,016.6,E*43
$GPRMB,A,,,,,4740.4440,N,12220.0640,W,2136.35,17,-0.34,*10
$YXXDR,A,4.6,D,PTCH,A,4.1,D,ROLL*5A
$GPRMC,172332.6,A,4741.23925,N,12224.39090,W,000.42,218.3,020313,016.6,E*4B
$GPRMC,172332.8,A,4741.23914,N,12224.39096,W,000.46,218.3,020313,016.6,E*45
$HCHDG,185.0,0.0,E,,*25
$YXXDR,A,4.5,D,PTCH,A,3.7,D,ROLL*58
$GPRMC,172333.0,A,4741.23902,N,12224.39101,W,000.84,250.0,020313,016.6,E*45
$GPRMC,172333.2,A,4741.23888,N,12224.39105,W,000.55,250.0,020313,016.6,E*4C
$HCHDG,187.2,0.0,E,,*25
$GPRMC,172333.4,A,4741.23890,N,12224.39108,W,000.49,250.0,020313,016.6,E*43
$GPRMB,A,,,,,4740.4440,N,12220.0640,W,2135.21,17,-0.49,*1C
$YXXDR,A,4.4,D,PTCH,A,2.6,D,ROLL*59
$GPRMC,172333.6,A,4741.23888,N,12224.39113,W,000.53,250.0,020313,016.6,E*49
$GPRMC,172333.8,A,4741.23881,N,12224.39123,W,000.70,244.2,020313,016.6,E*4B
$HCHDG,186.4,0.0,E,,*22
$YXXDR,A,5.1,D,PTCH,A,7.5,D,ROLL*5B
$GPRMC,172334.0,A,4741.23874,N,12224.39127,W,000.44,244.2,020313,016.6,E*4D
$GPRMC,172334.2,A,4741.23879,N,12224.39133,W,000.50,244.2,020313,016.6,E*42
$HCHDG,185.2,0.0,E,,*27
$GPRMC,172334.4,A,4741.23877,N,12224.39140,W,000.21,244.2,020313,016.6,E*48
$GPRMB,A,,,,,4740.4440,N,12220.0640,W,2134.87,17,-0.16,*1B
$YXXDR,A,4.4,D,PTCH,A,6.7,D,ROLL*5C
$GPRMC,172334.6,A,4741.23869,N,12224.39142,W,000.27,244.2,020313,016.6,E*41
$GPRMC,172334.8,A,4741.23867,N,12224.39148,W,000.52,244.2,020313,016.6,E*49
$HCHDG,186.1,0.0,E,,*27
$YXXDR,A,4.5,D,PTCH,A,4.6,D,ROLL*5E
$GPRMC,172335.0,A,4741.23860,N,12224.39150,W,000.60,255.3,020313,016.6,E*4E
$GPRMC,172335.2,A,4741.23853,N,12224.39158,W,001.04,255.9,020313,016.6,E*4D
$HCHDG,188.0,0.0,E,,*28
$GPRMC,172335.4,A,4741.23852,N,12224.39163,W,000.49,255.9,020313,016.6,E*4A
$YXXDR,A,5.0,D,PTCH,A,2.9,D,ROLL*53
$GPRMC,172335.6,A,4741.23856,N,12224.39166,W,000.56,258.0,020313,016.6,E*43
$GPRMB,A,,,,,4740.4440,N,12220.0640,W,2134.26,17,-0.53,*11
$GPRMC,172335.8,A,4741.23847,N,12224.39165,W,000.73,248.8,020313,016.6,E*40
$HCHDG,187.3,0.0,E,,*24
$YXXDR,A,5.0,D,PTCH,A,4.2,D,ROLL*5E
$GPRMC,172336.0,A,4741.23846,N,12224.39170,W,000.32,248.8,020313,016.6,E*4B
$GPRMC,172336.2,A,4741.23843,N,12224.39180,W,000.51,248.8,020313,016.6,E*46
$HCHDG,185.8,0.0,E,,*2D
$GPRMC,172336.4,A,4741.23837,N,12224.39182,W,000.49,248.8,020313,016.6,E*48
$YXXDR,A,3.8,D,PTCH,A,4.9,D,ROLL*5B
$GPRMC,172336.6,A,4741.23836,N,12224.39182,W,000.46,248.8,020313,016.6,E*44
$GPRMC,172336.8,A,4741.23835,N,12224.39186,W,000.85,256.6,020313,016.6,E*43
$GPRMB,A,,,,,4740.4440,N,12220.0640,W,2133.63,17,-0.34,*16
$HCHDG,187.2,0.0,E,,*25
$YXXDR,A,4.8,D,PTCH,A,0.7,D,ROLL*56
$GPRMC,172337.0,A,4741.23826,N,12224.39195,W,000.53,256.6,020313,016.6,E*41
$GPRMC,172337.2,A,4741.23813,N,12224.39199,W,000.58,261.3,020313,016.6,E*43
$HCHDG,188.6,0.0,E,,*2E
$GPRMC,172337.4,A,4741.23809,N,12224.39209,W,000.80,257.4,020313,016.6,E*43
$YXXDR,A,4.2,D,PTCH,A,2.6,D,ROLL*5F
$GPRMC,172337.6,A,4741.23807,N,12224.39216,W,000.63,251.6,020313,016.6,E*48
$GPRMC,172337.8,A,4741.23800,N,12224.39226,W,000.66,248.3,020313,016.6,E*4A
$HCHDG,188.2,0.0,E,,*2A
$YXXDR,A,4.4,D,PTCH,A,3.3,D,ROLL*5D
$GPRMC,172338.0,A,4741.23795,N,12224.39234,W,000.67,245.9,020313,016.6,E*4B
$GPRMB,A,,,,,4740.4440,N,12220.0640,W,2132.45,17,0.51,*3D
$GPRMC,172338.2,A,4741.23800,N,12224.39242,W,000.62,245.9,020313,016.6,E*4E
$HCHDG,188.9,0.0,E,,*21
$GPRMC,172338.4,A,4741.23793,N,12224.39245,W,000.65,253.5,020313,016.6,E*46
$YXXDR,A,4.3,D,PTCH,A,3.1,D,ROLL*58
$GPRMC,172338.6,A,4741.23783,N,12224.39246,W,000.64,248.6,020313,016.6,E*4E
$GPRMC,172338.8,A,4741.23780,N,12224.39250,W,000.60,248.6,020313,016.6,E*40
$HCHDG,189.3,0.0,E,,*2A
$YXXDR,A,4.4,D,PTCH,A,3.5,D,ROLL*5B
$GPRMC,172339.0,A,4741.23774,N,12224.39253,W,000.79,256.9,020313,016.6,E*49
$GPRMB,A,,,,,4740.4440,N,12220.0640,W,2131.82,17,-0.69,*13
$GPRMC,172339.2,A,4741.23765,N,12224.39254,W,000.61,246.5,020313,016.6,E*48
$HCHDG,189.7,0.0,E,,*2E
$GPRMC,172339.4,A,4741.23766,N,12224.39248,W,000.85,262.8,020313,016.6,E*41
$YXXDR,A,4.5,D,PTCH,A,3.7,D,ROLL*58
$GPRMC,172339.6,A,4741.23769,N,12224.39261,W,000.63,264.8,020313,016.6,E*49
$GPRMC,172339.8,A,4741.23769,N,12224.39269,W,000.94,248.0,020313,016.6,E*41
$HCHDG,191.2,0.0,E,,*22
$YXXDR,A,4.9,D,PTCH,A,3.1,D,ROLL*52
$GPRMC,172340.0,A,4741.23769,N,12224.39274,W,000.87,257.5,020313,016.6,E*42
$GPRMB,A,,,,,4740.4440,N,12220.0640,W,2131.71,17,0.68,*33
$GPRMC,172340.2,A,4741.23772,N,12224.39273,W,000.63,265.2,020313,016.6,E*41
$HCHDG,191.2,0.0,E,,*22
$GPRMC,172340.4,A,4741.23763,N,12224.39276,W,000.61,256.6,020313,016.6,E*44
$YXXDR,A,4.3,D,PTCH,A,4.3,D,ROLL*5D
$GPRMC,172340.6,A,4741.23759,N,12224.39283,W,000.60,256.4,020313,016.6,E*46
$GPRMC,172340.8,A,4741.23757,N,12224.39284,W,000.54,256.4,020313,016.6,E*46
$HCHDG,190.6,0.0,E,,*27
$YXXDR,A,3.8,D,PTCH,A,4.9,D,ROLL*5B
$GPRMC,172341.0,A,4741.23758,N,12224.39280,W,000.61,259.5,020313,016.6,E*4C
$GPRMC,172341.2,A,4741.23758,N,12224.39274,W,000.68,256.4,020313,016.6,E*42
$GPRMB,A,,,,,4740.4440,N,12220.0640,W,2131.36,17,0.44,*3E
$HCHDG,191.8,0.0,E,,*28
$GPRMC,172341.4,A,4741.23757,N,12224.39283,W,000.67,263.3,020313,016.6,E*4D
$YXXDR,A,4.3,D,PTCH,A,3.9,D,ROLL*50
$GPRMC,172341.6,A,4741.23754,N,12224.39290,W,001.02,255.6,020313,016.6,E*4C
$GPRMC,172341.8,A,4741.23752,N,12224.39294,W,000.98,272.7,020313,016.6,E*46
$HCHDG,193.1,0.0,E,,*23
$YXXDR,A,4.7,D,PTCH,A,3.7,D,ROLL*5A
$GPRMC,172342.0,A,4741.23745,N,12224.39301,W,000.97,265.8,020313,016.6,E*40
$GPRMC,172342.2,A,4741.23744,N,12224.39316,W,000.94,264.8,020313,016.6,E*47
$GPRMB,A,,,,,4740.4440,N,12220.0640,W,2131.01,17,-0.91,*1F
$HCHDG,193.4,0.0,E,,*26
$GPRMC,172342.4,A,4741.23741,N,12224.39337,W,000.74,269.3,020313,016.6,E*4F
$YXXDR,A,4.4,D,PTCH,A,4.7,D,ROLL*5E
$GPRMC,172342.6,A,4741.23741,N,12224.39356,W,000.81,268.1,020313,016.6,E*43
$GPRMC,172342.8,A,4741.23742,N,12224.39366,W,000.77,260.3,020313,016.6,E*4E
$HCHDG,193.3,0.0,E,,*21
$YXXDR,A,4.4,D,PTCH,A,5.7,D,ROLL*5F
$GPRMC,172343.0,A,4741.23743,N,12224.39373,W,000.74,266.0,020313,016.6,E*44
$GPRMC,172343.2,A,4741.23746,N,12224.39390,W,000.74,267.1,020313,016.6,E*4E
$GPRMB,A,,,,,4740.4440,N,12220.0640,W,2131.28,17,-0.68,*12
$HCHDG,193.5,0.0,E,,*27
$GPRMC,172343.4,A,4741.23746,N,12224.39400,W,000.70,267.4,020313,016.6,E*47
$YXXDR,A,4.7,D,PTCH,A,5.5,D,ROLL*5E
$GPRMC,172343.6,A,4741.23746,N,12224.39405,W,000.71,256.1,020313,016.6,E*46
$GPRMC,172343.8,A,4741.23742,N,12224.39408,W,000.99,262.6,020313,016.6,E*47
$HCHDG,194.7,0.0,E,,*22
$YXXDR,A,5.0,D,PTCH,A,4.8,D,ROLL*54
$GPRMC,172344.0,A,4741.23743,N,12224.39417,W,000.80,262.6,020313,016.6,E*4F
$PGRMT,GPS 18x-5Hz software ver. 3.20,,,,,,,,*30
$GPRMC,172344.2,A,4741.23743,N,12224.39423,W,001.20,269.7,020313,016.6,E*4B
$GPRMB,A,,,,,4740.4440,N,12220.0640,W,2131.27,17,0.75,*3C
$HCHDG,195.3,0.0,E,,*27
$GPRMC,172344.4,A,4741.23743,N,12224.39429,W,001.15,257.3,020313,016.6,E*48
$YXXDR,A,5.1,D,PTCH,A,4.7,D,ROLL*5A
$GPRMC,172344.6,A,4741.23742,N,12224.39437,W,000.94,268.0,020313,016.6,E*43
$GPRMC,172344.8,A,4741.23741,N,12224.39445,W,001.11,262.0,020313,016.6,E*4D
$HCHDG,196.3,0.0,E,,*24
$YXXDR,A,5.6,D,PTCH,A,3.7,D,ROLL*5A
$GPRMC,172345.0,A,4741.23740,N,12224.39457,W,001.08,258.5,020313,016.6,E*42
$GPRMC,172345.2,A,4741.23740,N,12224.39468,W,000.91,256.6,020313,016.6,E*40
$HCHDG,196.0,0.0,E,,*27
$GPRMC,172345.4,A,4741.23738,N,12224.39482,W,000.94,256.2,020313,016.6,E*4C
$GPRMB,A,,,,,4740.4440,N,12220.0640,W,2131.26,17,0.91,*37
$YXXDR,A,5.5,D,PTCH,A,4.0,D,ROLL*59
$GPRMC,172345.6,A,4741.23738,N,12224.39485,W,000.95,257.6,020313,016.6,E*4D
$GPRMC,172345.8,A,4741.23740,N,12224.39497,W,000.96,267.2,020313,016.6,E*4B
$HCHDG,195.2,0.0,E,,*26
$YXXDR,A,3.8,D,PTCH,A,4.2,D,ROLL*50
$GPRMC,172346.0,A,4741.23739,N,12224.39515,W,001.01,264.7,020313,016.6,E*4C
$GPRMC,172346.2,A,4741.23739,N,12224.39523,W,001.30,269.2,020313,016.6,E*41
$HCHDG,196.9,0.0,E,,*2E
$GPRMC,172346.4,A,4741.23740,N,12224.39534,W,001.33,268.5,020313,016.6,E*4A
$GPRMB,A,,,,,4740.4440,N,12220.0640,W,2131.47,17,0.41,*3D
$YXXDR,A,5.2,D,PTCH,A,1.3,D,ROLL*58
$GPRMC,172346.6,A,4741.23743,N,12224.39544,W,001.33,261.3,020313,016.6,E*43
$GPRMC,172346.8,A,4741.23743,N,12224.39558,W,001.10,258.9,020313,016.6,E*41
$HCHDG,196.5,0.0,E,,*22
$YXXDR,A,6.5,D,PTCH,A,2.6,D,ROLL*5A
$GPRMC,172347.0,A,4741.23735,N,12224.39571,W,001.26,248.7,020313,016.6,E*48
$GPRMC,172347.2,A,4741.23727,N,12224.39579,W,001.34,253.4,020313,016.6,E*4B
$HCHDG,194.3,0.0,E,,*26
$GPRMC,172347.4,A,4741.23728,N,12224.39591,W,001.06,244.8,020313,016.6,E*4F
$YXXDR,A,6.5,D,PTCH,A,4.5,D,ROLL*5F
$GPRMC,172347.6,A,4741.23738,N,12224.39611,W,001.00,249.0,020313,016.6,E*44
$GPRMB,A,,,,,4740.4440,N,12220.0640,W,2131.61,17,-0.73,*15
$GPRMC,172347.8,A,4741.23734,N,12224.39634,W,000.81,258.8,020313,016.6,E*41
$HCHDG,192.7,0.0,E,,*24
$YXXDR,A,4.3,D,PTCH,A,4.3,D,ROLL*5D
$GPRMC,172348.0,A,4741.23730,N,12224.39637,W,001.02,247.1,020313,016.6,E*4C
$GPRMC,172348.2,A,4741.23733,N,12224.39633,W,001.79,246.9,020313,016.6,E*4C
$HCHDG,193.1,0.0,E,,*23
$GPRMC,172348.4,A,4741.23729,N,12224.39644,W,001.40,249.3,020313,016.6,E*4E
$YXXDR,A,5.6,D,PTCH,A,3.7,D,ROLL*5A
$GPRMC,172348.6,A,4741.23728,N,12224.39659,W,001.46,250.4,020313,016.6,E*48
$GPRMB,A,,,,,4740.4440,N,12220.0640,W,2131.42,17,0.88,*3D
$GPRMC,172348.8,A,4741.23728,N,12224.39671,W,001.47,250.0,020313,016.6,E*49
$HCHDG,193.6,0.0,E,,*24
$YXXDR,A,6.1,D,PTCH,A,3.2,D,ROLL*5B
$GPRMC,172349.0,A,4741.23724,N,12224.39687,W,001.62,250.4,020313,016.6,E*46
$GPRMC,172349.2,A,4741.23715,N,12224.39696,W,001.32,244.0,020313,016.6,E*42
$HCHDG,192.2,0.0,E,,*21
$GPRMC,172349.4,A,4741.23712,N,12224.39703,W,001.28,237.6,020313,016.6,E*47
$YXXDR,A,5.5,D,PTCH,A,4.7,D,ROLL*5E
$GPRMC,172349.6,A,4741.23705,N,12224.39704,W,001.26,239.6,020313,016.6,E*44
$GPRMB,A,,,,,4740.4440,N,12220.0640,W,2130.79,17,-0.65,*1A
$GPRMC,172349.8,A,4741.23699,N,12224.39709,W,001.28,240.6,020313,016.6,E*43
$HCHDG,190.7,0.0,E,,*26
$YXXDR,A,4.7,D,PTCH,A,5.1,D,ROLL*5A
$GPRMC,172350.0,A,4741.23688,N,12224.39717,W,001.11,234.2,020313,016.6,E*41
$GPRMC,172350.2,A,4741.23682,N,12224.39724,W,001.35,242.7,020313,016.6,E*4B
$HCHDG,190.8,0.0,E,,*29
$GPRMC,172350.4,A,4741.23675,N,12224.39735,W,001.38,246.8,020313,016.6,E*43
$YXXDR,A,4.9,D,PTCH,A,3.0,D,ROLL*53
$GPRMC,172350.6,A,4741.23668,N,12224.39739,W,001.38,242.2,020313,016.6,E*4F
$GPRMB,A,,,,,4740.4440,N,12220.0640,W,2129.68,17,-0.96,*1E
$GPRMC,172350.8,A,4741.23661,N,12224.39747,W,001.76,241.9,020313,016.6,E*43
$HCHDG,190.6,0.0,E,,*27
$YXXDR,A,6.8,D,PTCH,A,2.6,D,ROLL*57
$GPRMC,172351.0,A,4741.23653,N,12224.39749,W,001.27,241.4,020313,016.6,E*4C
$GPRMC,172351.2,A,4741.23642,N,12224.39757,W,001.21,226.9,020313,016.6,E*4B
$HCHDG,188.1,0.0,E,,*29
$GPRMC,172351.4,A,4741.23644,N,12224.39768,W,001.43,235.6,020313,016.6,E*4E
$YXXDR,A,4.8,D,PTCH,A,3.3,D,ROLL*51
$GPRMC,172351.6,A,4741.23648,N,12224.39786,W,001.37,224.7,020313,016.6,E*42
$GPRMC,172351.8,A,4741.23642,N,12224.39794,W,001.35,229.6,020313,016.6,E*4B
$GPRMB,A,,,,,4740.4440,N,12220.0640,W,2128.98,17,-1.33,*1E
$HCHDG,186.7,0.0,E,,*21
$YXXDR,A,5.9,D,PTCH,A,2.7,D,ROLL*54
$GPRMC,172352.0,A,4741.23635,N,12224.39801,W,001.37,227.5,020313,016.6,E*4C
$GPRMC,172352.2,A,4741.23633,N,12224.39814,W,001.38,229.5,020313,016.6,E*4D
$HCHDG,185.5,0.0,E,,*20
$GPRMC,172352.4,A,4741.23630,N,12224.39818,W,001.36,214.9,020313,016.6,E*48
$YXXDR,A,5.5,D,PTCH,A,2.3,D,ROLL*5C
$GPRMC,172352.6,A,4741.23620,N,12224.39829,W,001.57,226.5,020313,016.6,E*43
$GPRMC,172352.8,A,4741.23613,N,12224.39835,W,001.51,218.7,020313,016.6,E*49
$HCHDG,184.2,0.0,E,,*26
$YXXDR,A,3.9,D,PTCH,A,3.4,D,ROLL*50
$GPRMC,172353.0,A,4741.23607,N,12224.39847,W,001.50,209.7,020313,016.6,E*41
$GPRMB,A,,,,,4740.4440,N,12220.0640,W,2127.98,17,1.50,*39
$GPRMC,172353.2,A,4741.23596,N,12224.39852,W,001.27,209.3,020313,016.6,E*48
$HCHDG,184.7,0.0,E,,*23
$GPRMC,172353.4,A,4741.23584,N,12224.39859,W,001.77,220.0,020313,016.6,E*4B
$YXXDR,A,6.1,D,PTCH,A,2.6,D,ROLL*5E
$GPRMC,172353.6,A,4741.23582,N,12224.39867,W,001.49,210.7,020313,016.6,E*4B
$GPRMC,172353.8,A,4741.23575,N,12224.39872,W,001.47,216.1,020313,016.6,E*47
$HCHDG,184.8,0.0,E,,*2C
$YXXDR,A,4.5,D,PTCH,A,3.1,D,ROLL*5E
$GPRMC,172354.0,A,4741.23565,N,12224.39882,W,001.76,220.3,020313,016.6,E*43
$GPRMC,172354.2,A,4741.23565,N,12224.39892,W,001.31,213.6,020313,016.6,E*46
$GPRMB,A,,,,,4740.4440,N,12220.0640,W,2126.74,17,-1.18,*1B
$HCHDG,184.7,0.0,E,,*23
$GPRMC,172354.4,A,4741.23565,N,12224.39894,W,001.62,219.2,020313,016.6,E*4E
$YXXDR,A,4.4,D,PTCH,A,3.0,D,ROLL*5E
$GPRMC,172354.6,A,4741.23549,N,12224.39902,W,001.66,215.8,020313,016.6,E*4E
$GPRMC,172354.8,A,4741.23539,N,12224.39914,W,001.66,223.9,020313,016.6,E*44
$HCHDG,184.9,0.0,E,,*2D
$YXXDR,A,4.0,D,PTCH,A,2.2,D,ROLL*59
$GPRMC,172355.0,A,4741.23534,N,12224.39920,W,001.61,219.3,020313,016.6,E*43
$GPRMC,172355.2,A,4741.23519,N,12224.39931,W,001.68,224.3,020313,016.6,E*49
$GPRMB,A,,,,,4740.4440,N,12220.0640,W,2125.34,17,1.04,*3C
$HCHDG,186.1,0.0,E,,*27
$GPRMC,172355.4,A,4741.23508,N,12224.39938,W,001.66,221.9,020313,016.6,E*47
$YXXDR,A,5.1,D,PTCH,A,0.4,D,ROLL*5D
$GPRMC,172355.6,A,4741.23507,N,12224.39948,W,001.63,228.8,020313,016.6,E*40
$GPRMC,172355.8,A,4741.23503,N,12224.39959,W,001.62,225.8,020313,016.6,E*46
$HCHDG,185.3,0.0,E,,*26
$YXXDR,A,6.1,D,PTCH,A,1.4,D,ROLL*5F
$GPRMC,172356.0,A,4741.23494,N,12224.39968,W,001.64,215.2,020313,016.6,E*4F
$GPRMC,172356.2,A,4741.23485,N,12224.39974,W,001.66,219.1,020313,016.6,E*4D
$GPRMB,A,,,,,4740.4440,N,12220.0640,W,2124.35,17,-0.25,*13
$HCHDG,183.2,0.0,E,,*21
$GPRMC,172356.4,A,4741.23476,N,12224.39979,W,001.66,219.8,020313,016.6,E*43
$YXXDR,A,5.1,D,PTCH,A,2.8,D,ROLL*53
$GPRMC,172356.6,A,4741.23463,N,12224.40008,W,001.83,218.6,020313,016.6,E*40
$GPRMC,172356.8,A,4741.23459,N,12224.40014,W,001.56,216.7,020313,016.6,E*4D
$HCHDG,182.3,0.0,E,,*21
$YXXDR,A,4.4,D,PTCH,A,2.5,D,ROLL*5A
$GPRMC,172357.0,A,4741.23454,N,12224.40020,W,001.80,220.8,020313,016.6,E*4F
$GPRMC,172357.2,A,4741.23447,N,12224.40032,W,001.85,222.0,020313,016.6,E*43
$HCHDG,182.0,0.0,E,,*22
$GPRMC,172357.4,A,4741.23442,N,12224.40040,W,001.80,209.5,020313,016.6,E*4C
$GPRMB,A,,,,,4740.4440,N,12220.0640,W,2123.13,17,0.72,*3F
$YXXDR,A,5.4,D,PTCH,A,1.8,D,ROLL*55
$GPRMC,172357.6,A,4741.23435,N,12224.40045,W,001.83,215.1,020313,016.6,E*41
$GPRMC,172357.8,A,4741.23424,N,12224.40054,W,001.79,217.4,020313,016.6,E*4D
$HCHDG,180.5,0.0,E,,*25
$YXXDR,A,4.7,D,PTCH,A,3.1,D,ROLL*5C
$GPRMC,172358.0,A,4741.23413,N,12224.40061,W,001.79,202.3,020313,016.6,E*4B
$GPRMC,172358.2,A,4741.23400,N,12224.40068,W,001.78,204.2,020313,016.6,E*44
$HCHDG,177.9,0.0,E,,*21
$GPRMC,172358.4,A,4741.23392,N,12224.40075,W,001.76,205.6,020313,016.6,E*49
$YXXDR,A,4.0,D,PTCH,A,4.7,D,ROLL*5A
$GPRMC,172358.6,A,4741.23381,N,12224.40078,W,001.74,191.7,020313,016.6,E*49
$GPRMB,A,,,,,4740.4440,N,12220.0640,W,2121.25,17,1.18,*35
$GPRMC,172358.8,A,4741.23377,N,12224.40084,W,001.73,204.3,020313,016.6,E*41
$HCHDG,177.6,0.0,E,,*2E
$YXXDR,A,4.6,D,PTCH,A,3.5,D,ROLL*59
$GPRMC,172359.0,A,4741.23371,N,12224.40096,W,001.72,210.9,020313,016.6,E*43
$GPRMC,172359.2,A,4741.23358,N,12224.40106,W,001.90,212.1,020313,016.6,E*44
$HCHDG,179.8,0.0,E,,*2E
$GPRMC,172359.4,A,4741.23348,N,12224.40109,W,001.90,204.8,020313,016.6,E*42
$YXXDR,A,5.3,D,PTCH,A,0.2,D,ROLL*59
$GPRMC,172359.6,A,4741.23338,N,12224.40117,W,002.06,209.0,020313,016.6,E*41
$GPRMC,172359.8,A,4741.23330,N,12224.40126,W,001.91,204.8,020313,016.6,E*4D
$GPRMB,A,,,,,4740.4440,N,12220.0640,W,2119.72,17,-0.87,*16
$HCHDG,179.9,0.0,E,,*2F
$YXXDR,A,5.2,D,PTCH,A,2.3,D,ROLL*5B
$GPRMC,172400.0,A,4741.23322,N,12224.40131,W,001.72,198.5,020313,016.6,E*4D
$GPRMC,172400.2,A,4741.23315,N,12224.40139,W,001.91,204.2,020313,016.6,E*4F
$HCHDG,179.1,0.0,E,,*27
$GPRMC,172400.4,A,4741.23305,N,12224.40146,W,001.95,207.0,020313,016.6,E*45
$YXXDR,A,4.5,D,PTCH,A,3.1,D,ROLL*5E
$GPRMC,172400.6,A,4741.23301,N,12224.40156,W,001.89,206.3,020313,016.6,E*4D
$GPRMC,172400.8,A,4741.23291,N,12224.40162,W,002.06,210.6,020313,016.6,E*4A
$HCHDG,179.1,0.0,E,,*27
$YXXDR,A,4.2,D,PTCH,A,2.4,D,ROLL*5D
$GPRMC,172401.0,A,4741.23281,N,12224.40166,W,002.00,200.5,020313,016.6,E*42
$GPRMB,A,,,,,4740.4440,N,12220.0640,W,2118.23,17,1.50,*35
$GPRMC,172401.2,A,4741.23274,N,12224.40164,W,001.99,211.9,020313,016.6,E*47
$HCHDG,178.6,0.0,E,,*21
$GPRMC,172401.4,A,4741.23264,N,12224.40173,W,001.94,198.5,020313,016.6,E*45
$YXXDR,A,4.5,D,PTCH,A,3.0,D,ROLL*5F
$GPRMC,172401.6,A,4741.23254,N,12224.40177,W,002.20,203.2,020313,016.6,E*4A
$GPRMC,172401.8,A,4741.23240,N,12224.40176,W,002.14,199.1,020313,016.6,E*44
$HCHDG,178.2,0.0,E,,*25
$YXXDR,A,5.0,D,PTCH,A,2.8,D,ROLL*52
$GPRMC,172402.0,A,4741.23227,N,12224.40175,W,002.14,197.3,020313,016.6,E*41
$GPRMB,A,,,,,4740.4440,N,12220.0640,W,2116.50,17,1.96,*35
$GPRMC,172402.2,A,4741.23218,N,12224.40185,W,002.09,200.4,020313,016.6,E*46
$HCHDG,177.3,0.0,E,,*2B
$GPRMC,172402.4,A,4741.23207,N,12224.40190,W,002.06,198.9,020313,016.6,E*4A
$YXXDR,A,4.3,D,PTCH,A,2.9,D,ROLL*51
$GPRMC,172402.6,A,4741.23190,N,12224.40189,W,002.08,200.2,020313,016.6,E*4A
$GPRMC,172402.8,A,4741.23175,N,12224.40192,W,002.25,201.5,020313,016.6,E*4C
$HCHDG,177.1,0.0,E,,*29
$YXXDR,A,4.5,D,PTCH,A,2.2,D,ROLL*5C
$GPRMC,172403.0,A,4741.23160,N,12224.40203,W,002.20,203.4,020313,016.6,E*4C
$GPRMB,A,,,,,4740.4440,N,12220.0640,W,2114.39,17,-2.05,*1C
$GPRMC,172403.2,A,4741.23147,N,12224.40212,W,002.15,201.1,020313,016.6,E*4A
$HCHDG,177.7,0.0,E,,*2F
$GPRMC,172403.4,A,4741.23139,N,12224.40216,W,002.11,201.4,020313,016.6,E*40
$YXXDR,A,5.0,D,PTCH,A,1.2,D,ROLL*5B
$GPRMC,172403.6,A,4741.23133,N,12224.40214,W,002.46,197.7,020313,016.6,E*47
$GPRMC,172403.8,A,4741.23122,N,12224.40214,W,001.94,201.6,020313,016.6,E*48
$HCHDG,176.9,0.0,E,,*20
$YXXDR,A,4.6,D,PTCH,A,2.5,D,ROLL*58
$GPRMC,172404.0,A,4741.23111,N,12224.40223,W,002.11,209.4,020313,016.6,E*47
$GPRMB,A,,,,,4740.4440,N,12220.0640,W,2112.85,17,-0.30,*19
$GPRMC,172404.2,A,4741.23097,N,12224.40227,W,002.31,198.0,020313,016.6,E*43
$HCHDG,177.2,0.0,E,,*2A
$GPRMC,172404.4,A,4741.23085,N,12224.40228,W,002.32,202.1,020313,016.6,E*4B
$YXXDR,A,4.8,D,PTCH,A,1.8,D,ROLL*58
$GPRMC,172404.6,A,4741.23074,N,12224.40231,W,002.13,204.8,020313,016.6,E*43
$GPRMC,172404.8,A,4741.23062,N,12224.40239,W,002.38,193.6,020313,016.6,E*48
$HCHDG,177.7,0.0,E,,*2F
$YXXDR,A,5.0,D,PTCH,A,1.8,D,ROLL*51
$GPRMC,172405.0,A,4741.23050,N,12224.40249,W,002.35,206.5,020313,016.6,E*46
$GPRMB,A,,,,,4740.4440,N,12220.0640,W,2110.93,17,1.11,*33
$GPRMC,172405.2,A,4741.23040,N,12224.40250,W,002.32,194.6,020313,016.6,E*41
$HCHDG,176.6,0.0,E,,*2F
$GPRMC,172405.4,A,4741.23029,N,12224.40250,W,002.28,190.9,020313,016.6,E*48
$YXXDR,A,4.4,D,PTCH,A,2.6,D,ROLL*59
$GPRMC,172405.6,A,4741.23020,N,12224.40254,W,002.33,193.8,020313,016.6,E*4F
$GPRMC,172405.8,A,4741.23002,N,12224.40265,W,002.37,188.0,020313,016.6,E*45
$HCHDG,177.4,0.0,E,,*2C
$YXXDR,A,4.6,D,PTCH,A,1.0,D,ROLL*5E
$GPRMC,172406.0,A,4741.22989,N,12224.40262,W,002.34,209.0,020313,016.6,E*4B
$GPRMC,172406.2,A,4741.22979,N,12224.40254,W,002.37,201.6,020313,016.6,E*4E
$GPRMB,A,,,,,4740.4440,N,12220.0640,W,2108.64,17,1.45,*33
$HCHDG,177.9,0.0,E,,*21
$GPRMC,172406.4,A,4741.22967,N,12224.40254,W,002.59,198.0,020313,016.6,E*4A
$YXXDR,A,4.6,D,PTCH,A,0.8,D,ROLL*57
$GPRMC,172406.6,A,4741.22952,N,12224.40263,W,002.03,200.4,020313,016.6,E*43
$GPRMC,172406.8,A,4741.22941,N,12224.40272,W,002.54,193.8,020313,016.6,E*48
$HCHDG,177.6,0.0,E,,*2E
$YXXDR,A,4.1,D,PTCH,A,2.0,D,ROLL*5A
$GPRMC,172407.0,A,4741.22929,N,12224.40275,W,002.50,196.1,020313,016.6,E*40
$GPRMC,172407.2,A,4741.22916,N,12224.40287,W,002.52,205.2,020313,016.6,E*4B
$HCHDG,178.5,0.0,E,,*22
$GPRMC,172407.4,A,4741.22901,N,12224.40299,W,002.48,205.3,020313,016.6,E*4E
$GPRMB,A,,,,,4740.4440,N,12220.0640,W,2106.22,17,1.86,*30
$YXXDR,A,4.7,D,PTCH,A,2.1,D,ROLL*5D
$GPRMC,172407.6,A,4741.22889,N,12224.40311,W,002.50,208.2,020313,016.6,E*49
$GPRMC,172407.8,A,4741.22878,N,12224.40321,W,002.43,196.8,020313,016.6,E*46
$HCHDG,179.6,0.0,E,,*20
$YXXDR,A,4.3,D,PTCH,A,3.3,D,ROLL*5A
$GPRMC,172408.0,A,4741.22864,N,12224.40327,W,002.46,197.0,020313,016.6,E*46
$GPRMC,172408.2,A,4741.22852,N,12224.40336,W,002.48,198.6,020313,016.6,E*46
$HCHDG,179.2,0.0,E,,*24
$GPRMC,172408.4,A,4741.22840,N,12224.40346,W,002.49,201.0,020313,016.6,E*40
$YXXDR,A,5.5,D,PTCH,A,5.6,D,ROLL*5E
$GPRMC,172408.6,A,4741.22835,N,12224.40366,W,002.50,196.5,020313,016.6,E*42
$GPRMB,A,,,,,4740.4440,N,12220.0640,W,2104.25,17,-1.61,*11
$GPRMC,172408.8,A,4741.22831,N,12224.40386,W,002.53,201.5,020313,016.6,E*48
$HCHDG,179.6,0.0,E,,*20
$YXXDR,A,4.6,D,PTCH,A,4.1,D,ROLL*5A
$GPRMC,172409.0,A,4741.22819,N,12224.40400,W,002.54,202.9,020313,016.6,E*4A
$GPRMC,172409.2,A,4741.22806,N,12224.40409,W,002.54,201.7,020313,016.6,E*42
$HCHDG,179.7,0.0,E,,*21
$GPRMC,172409.4,A,4741.22793,N,12224.40417,W,002.55,206.8,020313,016.6,E*41
$YXXDR,A,4.3,D,PTCH,A,4.0,D,ROLL*5E
$GPRMC,172409.6,A,4741.22782,N,12224.40422,W,002.27,198.7,020313,016.6,E*4B
$GPRMB,A,,,,,4740.4440,N,12220.0640,W,2102.68,17,-0.69,*17
$GPRMC,172409.8,A,4741.22771,N,12224.40427,W,002.82,204.0,020313,016.6,E*42
$HCHDG,180.7,0.0,E,,*27
$YXXDR,A,4.5,D,PTCH,A,2.7,D,ROLL*59
$GPRMC,172410.0,A,4741.22758,N,12224.40435,W,002.38,199.7,020313,016.6,E*4B
$GPRMC,172410.2,A,4741.22745,N,12224.40447,W,002.72,207.6,020313,016.6,E*4B
$HCHDG,180.0,0.0,E,,*20
$GPRMC,172410.4,A,4741.22739,N,12224.40469,W,002.91,192.6,020313,016.6,E*48
$YXXDR,A,4.8,D,PTCH,A,4.2,D,ROLL*57
$GPRMC,172410.6,A,4741.22725,N,12224.40474,W,002.91,198.7,020313,016.6,E*40
$GPRMC,172410.8,A,4741.22715,N,12224.40487,W,002.94,195.6,020313,016.6,E*48
$GPRMB,A,,,,,4740.4440,N,12220.0640,W,2100.67,17,-2.68,*19
$HCHDG,178.4,0.0,E,,*23
$YXXDR,A,3.9,D,PTCH,A,4.8,D,ROLL*5B
$GPRMC,172411.0,A,4741.22699,N,12224.40494,W,002.86,195.0,020313,016.6,E*43
$GPRMC,172411.2,A,4741.22687,N,12224.40507,W,002.68,195.1,020313,016.6,E*44
$HCHDG,180.2,0.0,E,,*22
$GPRMC,172411.4,A,4741.22670,N,12224.40517,W,002.61,200.5,020313,016.6,E*49
$YXXDR,A,3.8,D,PTCH,A,-0.4,D,ROLL*7F
$GPRMC,172411.6,A,4741.22650,N,12224.40528,W,002.65,194.7,020313,016.6,E*4D
$GPRMC,172411.8,A,4741.22636,N,12224.40533,W,002.62,189.8,020313,016.6,E*4D
$HCHDG,181.3,0.0,E,,*22
$YXXDR,A,5.3,D,PTCH,A,5.0,D,ROLL*5E
$GPRMC,172412.0,A,4741.22621,N,12224.40545,W,002.67,195.1,020313,016.6,E*40
$GPRMB,A,,,,,4740.4440,N,12220.0640,W,2097.77,17,1.86,*39
$GPRMC,172412.2,A,4741.22606,N,12224.40552,W,002.73,195.9,020313,016.6,E*4C
$HCHDG,182.4,0.0,E,,*26
$GPRMC,172412.4,A,4741.22591,N,12224.40558,W,002.72,194.9,020313,016.6,E*4D
$YXXDR,A,4.4,D,PTCH,A,3.7,D,ROLL*59
$GPRMC,172412.6,A,4741.22571,N,12224.40562,W,002.72,200.2,020313,016.6,E*4D
$GPRMC,172412.8,A,4741.22552,N,12224.40570,W,002.69,205.2,020313,016.6,E*4E
$HCHDG,187.2,0.0,E,,*25
$YXXDR,A,4.4,D,PTCH,A,0.3,D,ROLL*5E
$GPRMC,172413.0,A,4741.22535,N,12224.40581,W,002.65,207.3,020313,016.6,E*47
$GPRMB,A,,,,,4740.4440,N,12220.0640,W,2095.07,17,1.89,*33
$GPRMC,172413.2,A,4741.22520,N,12224.40595,W,002.61,206.0,020313,016.6,E*42
$HCHDG,189.5,0.0,E,,*2C
$GPRMC,172413.4,A,4741.22503,N,12224.40606,W,002.64,205.4,020313,016.6,E*4E
$YXXDR,A,4.6,D,PTCH,A,1.5,D,ROLL*5B
$GPRMC,172413.6,A,4741.22484,N,12224.40627,W,002.67,201.9,020313,016.6,E*4B
$GPRMC,172413.8,A,4741.22472,N,12224.40638,W,002.70,205.7,020313,016.6,E*4E
$HCHDG,191.7,0.0,E,,*27
$YXXDR,A,4.7,D,PTCH,A,1.9,D,ROLL*56
$GPRMC,172414.0,A,4741.22458,N,12224.40649,W,002.73,205.1,020313,016.6,E*4A
$GPRMB,A,,,,,4740.4440,N,12220.0640,W,2092.75,17,2.53,*35
$GPRMC,172414.2,A,4741.22443,N,12224.40660,W,002.77,212.5,020313,016.6,E*4F
$HCHDG,194.7,0.0,E,,*22
$GPRMC,172414.4,A,4741.22433,N,12224.40673,W,002.76,211.6,020313,016.6,E*4D
$YXXDR,A,3.9,D,PTCH,A,2.3,D,ROLL*56
$GPRMC,172414.6,A,4741.22420,N,12224.40689,W,002.73,215.8,020313,016.6,E*47
$GPRMC,172414.8,A,4741.22408,N,12224.40704,W,002.99,217.4,020313,016.6,E*4D
$HCHDG,198.2,0.0,E,,*2B
$YXXDR,A,4.6,D,PTCH,A,2.0,D,ROLL*5D
$GPRMC,172415.0,A,4741.22397,N,12224.40712,W,002.57,213.4,020313,016.6,E*44
$GPRMB,A,,,,,4740.4440,N,12220.0640,W,2090.93,17,-0.02,*14
$GPRMC,172415.2,A,4741.22386,N,12224.40728,W,002.64,215.6,020313,016.6,E*4B
$HCHDG,199.9,0.0,E,,*21
$GPRMC,172415.4,A,4741.22379,N,12224.40744,W,002.99,215.1,020313,016.6,E*42
$YXXDR,A,4.6,D,PTCH,A,5.4,D,ROLL*5E
$GPRMC,172415.6,A,4741.22367,N,12224.40758,W,002.97,214.6,020313,016.6,E*4A
$GPRMC,172415.8,A,4741.22355,N,12224.40773,W,002.75,222.0,020313,016.6,E*43
$HCHDG,202.9,0.0,E,,*20
$YXXDR,A,4.5,D,PTCH,A,6.6,D,ROLL*5C
$GPRMC,172416.0,A,4741.22344,N,12224.40798,W,002.78,224.8,020313,016.6,E*4E
$GPRMC,172416.2,A,4741.22334,N,12224.40823,W,003.09,225.3,020313,016.6,E*49
$GPRMB,A,,,,,4740.4440,N,12220.0640,W,2089.18,17,-0.26,*19
$HCHDG,206.6,0.0,E,,*2B
$GPRMC,172416.4,A,4741.22322,N,12224.40840,W,003.12,229.5,020313,016.6,E*4D
$YXXDR,A,4.6,D,PTCH,A,6.8,D,ROLL*51
$GPRMC,172416.6,A,4741.22309,N,12224.40854,W,003.08,227.1,020313,016.6,E*42
$GPRMC,172416.8,A,4741.22296,N,12224.40879,W,003.44,233.8,020313,016.6,E*40
$HCHDG,209.0,0.0,E,,*22
$YXXDR,A,4.6,D,PTCH,A,8.9,D,ROLL*5E
$GPRMC,172417.0,A,4741.22287,N,12224.40897,W,003.24,235.5,020313,016.6,E*44
$GPRMC,172417.2,A,4741.22280,N,12224.40921,W,003.22,231.8,020313,016.6,E*42
$GPRMB,A,,,,,4740.4440,N,12220.0640,W,2087.69,17,-3.14,*13
$HCHDG,210.5,0.0,E,,*2F
$GPRMC,172417.4,A,4741.22268,N,12224.40943,W,003.25,236.9,020313,016.6,E*47
$YXXDR,A,4.9,D,PTCH,A,10.8,D,ROLL*69
$GPRMC,172417.6,A,4741.22257,N,12224.40969,W,003.53,235.1,020313,016.6,E*4B
$GPRMC,172417.8,A,4741.22243,N,12224.40985,W,003.49,236.0,020313,016.6,E*4B
$HCHDG,211.7,0.0,E,,*2C
$YXXDR,A,4.8,D,PTCH,A,13.2,D,ROLL*61
$GPRMC,172418.0,A,4741.22235,N,12224.41011,W,003.43,238.4,020313,016.6,E*48
$GPRMC,172418.2,A,4741.22232,N,12224.41039,W,003.66,235.2,020313,016.6,E*4B
$GPRMB,A,,,,,4740.4440,N,12220.0640,W,2086.45,17,-3.54,*18
$HCHDG,212.2,0.0,E,,*2A
$GPRMC,172418.4,A,4741.22225,N,12224.41063,W,003.95,235.0,020313,016.6,E*4A
$YXXDR,A,4.1,D,PTCH,A,15.5,D,ROLL*69
$GPRMC,172418.6,A,4741.22213,N,12224.41090,W,004.13,229.0,020313,016.6,E*45
$GPRMC,172418.8,A,4741.22203,N,12224.41116,W,003.57,243.2,020313,016.6,E*4C
$HCHDG,214.1,0.0,E,,*2F
$YXXDR,A,4.7,D,PTCH,A,16.6,D,ROLL*6F
$GPRMC,172419.0,A,4741.22186,N,12224.41142,W,004.27,234.6,020313,016.6,E*4E
$GPRMC,172419.2,A,4741.22173,N,12224.41171,W,003.94,244.1,020313,016.6,E*49
$HCHDG,215.1,0.0,E,,*2E
$GPRMC,172419.4,A,4741.22160,N,12224.41207,W,004.20,237.6,020313,016.6,E*44
$GPRMB,A,,,,,4740.4440,N,12220.0640,W,2084.56,17,-3.76,*18
$YXXDR,A,4.8,D,PTCH,A,19.1,D,ROLL*68
$GPRMC,172419.6,A,4741.22146,N,12224.41243,W,004.40,239.2,020313,016.6,E*4E
$GPRMC,172419.8,A,4741.22134,N,12224.41281,W,004.41,240.0,020313,016.6,E*46
$HCHDG,214.9,0.0,E,,*27
$YXXDR,A,4.2,D,PTCH,A,21.6,D,ROLL*6E
$GPRMC,172420.0,A,4741.22120,N,12224.41318,W,004.79,241.7,020313,016.6,E*4D
$GPRMC,172420.2,A,4741.22109,N,12224.41355,W,004.72,241.2,020313,016.6,E*43
$HCHDG,216.2,0.0,E,,*2E
$GPRMC,172420.4,A,4741.22100,N,12224.41389,W,004.42,247.4,020313,016.6,E*4E
$GPRMB,A,,,,,4740.4440,N,12220.0640,W,2083.11,17,1.14,*37
$YXXDR,A,4.8,D,PTCH,A,22.2,D,ROLL*63
$GPRMC,172420.6,A,4741.22090,N,12224.41420,W,004.46,246.8,020313,016.6,E*49
$GPRMC,172420.8,A,4741.22072,N,12224.41450,W,005.07,240.2,020313,016.6,E*44
$HCHDG,214.7,0.0,E,,*29
$YXXDR,A,4.7,D,PTCH,A,25.1,D,ROLL*68
$GPRMC,172421.0,A,4741.22061,N,12224.41483,W,004.80,242.6,020313,016.6,E*49
$GPRMC,172421.2,A,4741.22050,N,12224.41514,W,005.27,244.6,020313,016.6,E*4C
$HCHDG,211.3,0.0,E,,*28
$GPRMC,172421.4,A,4741.22041,N,12224.41546,W,004.76,239.9,020313,016.6,E*4D
$YXXDR,A,5.2,D,PTCH,A,27.0,D,ROLL*6F
$GPRMC,172421.6,A,4741.22022,N,12224.41584,W,005.16,235.6,020313,016.6,E*40
$GPRMB,A,,,,,4740.4440,N,12220.0640,W,2081.10,17,1.94,*3C
$GPRMC,172421.8,A,4741.22007,N,12224.41617,W,004.92,236.6,020313,016.6,E*4E
$HCHDG,208.5,0.0,E,,*26
$YXXDR,A,5.0,D,PTCH,A,24.1,D,ROLL*6F
$GPRMC,172422.0,A,4741.21994,N,12224.41649,W,004.99,237.3,020313,016.6,E*41
$GPRMC,172422.2,A,4741.21977,N,12224.41684,W,005.06,233.3,020313,016.6,E*4C
$HCHDG,205.6,0.0,E,,*28
$GPRMC,172422.4,A,4741.21957,N,12224.41719,W,005.29,231.5,020313,016.6,E*44
$YXXDR,A,4.8,D,PTCH,A,20.6,D,ROLL*65
$GPRMC,172422.6,A,4741.21941,N,12224.41748,W,005.26,228.4,020313,016.6,E*43
$GPRMB,A,,,,,4740.4440,N,12220.0640,W,2078.91,17,-5.15,*13
$GPRMC,172422.8,A,4741.21920,N,12224.41776,W,005.05,227.2,020313,016.6,E*4F
$HCHDG,202.5,0.0,E,,*2C
$YXXDR,A,5.0,D,PTCH,A,16.3,D,ROLL*6C
$GPRMC,172423.0,A,4741.21898,N,12224.41809,W,005.27,227.1,020313,016.6,E*40
$GPRMC,172423.2,A,4741.21875,N,12224.41846,W,004.96,223.8,020313,016.6,E*4C
$HCHDG,199.5,0.0,E,,*2D
$GPRMC,172423.4,A,4741.21853,N,12224.41878,W,005.30,225.4,020313,016.6,E*44
$YXXDR,A,5.5,D,PTCH,A,11.7,D,ROLL*6A
$GPRMC,172423.6,A,4741.21828,N,12224.41906,W,005.10,221.1,020313,016.6,E*41
$GPRMC,172423.8,A,4741.21795,N,12224.41931,W,005.12,226.5,020313,016.6,E*43
$GPRMB,A,,,,,4740.4440,N,12220.0640,W,2074.66,17,1.38,*31
$HCHDG,197.8,0.0,E,,*2E
$YXXDR,A,5.0,D,PTCH,A,6.5,D,ROLL*5B
$GPRMC,172424.0,A,4741.21774,N,12224.41958,W,005.07,222.7,020313,016.6,E*4E
$GPRMC,172424.2,A,4741.21753,N,12224.41979,W,005.12,219.2,020313,016.6,E*43
$HCHDG,195.5,0.0,E,,*21
$GPRMC,172424.4,A,4741.21727,N,12224.42002,W,005.48,221.0,020313,016.6,E*46
$YXXDR,A,3.6,D,PTCH,A,1.4,D,ROLL*5D
$GPRMC,172424.6,A,4741.21708,N,12224.42029,W,005.04,219.9,020313,016.6,E*4A
$GPRMC,172424.8,A,4741.21688,N,12224.42061,W,005.02,219.0,020313,016.6,E*4E
$GPRMB,A,,,,,4740.4440,N,12220.0640,W,2071.53,17,1.99,*39
$HCHDG,193.6,0.0,E,,*24
$YXXDR,A,3.6,D,PTCH,A,0.0,D,ROLL*58
$GPRMC,172425.0,A,4741.21659,N,12224.42069,W,004.83,219.5,020313,016.6,E*4E
$GPRMC,172425.2,A,4741.21635,N,12224.42091,W,004.88,219.6,020313,016.6,E*49
$HCHDG,191.6,0.0,E,,*26
$GPRMC,172425.4,A,4741.21610,N,12224.42114,W,005.31,217.5,020313,016.6,E*4A
$YXXDR,A,4.3,D,PTCH,A,0.1,D,ROLL*5B
$GPRMC,172425.6,A,4741.21585,N,12224.42138,W,004.78,214.5,020313,016.6,E*46
$GPRMC,172425.8,A,4741.21558,N,12224.42155,W,004.94,212.0,020313,016.6,E*42
$HCHDG,191.0,0.0,E,,*20
$YXXDR,A,4.6,D,PTCH,A,1.7,D,ROLL*59
$GPRMC,172426.0,A,4741.21535,N,12224.42176,W,004.69,215.8,020313,016.6,E*4E
$GPRMB,A,,,,,4740.4440,N,12220.0640,W,2066.87,17,-3.11,*19
$GPRMC,172426.2,A,4741.21512,N,12224.42199,W,004.72,215.7,020313,016.6,E*4D
$HCHDG,193.3,0.0,E,,*21
$GPRMC,172426.4,A,4741.21490,N,12224.42229,W,004.99,223.9,020313,016.6,E*46
$YXXDR,A,4.3,D,PTCH,A,1.1,D,ROLL*5A
$GPRMC,172426.6,A,4741.21469,N,12224.42255,W,004.79,215.3,020313,016.6,E*48
$GPRMC,172426.8,A,4741.21448,N,12224.42273,W,004.60,220.0,020313,016.6,E*4C
$HCHDG,197.7,0.0,E,,*21
$YXXDR,A,5.7,D,PTCH,A,0.4,D,ROLL*5B
$GPRMC,172427.0,A,4741.21428,N,12224.42298,W,004.84,220.9,020313,016.6,E*45
$GPRMC,172427.2,A,4741.21406,N,12224.42328,W,004.78,219.9,020313,016.6,E*48
$GPRMB,A,,,,,4740.4440,N,12220.0640,W,2063.09,17,4.73,*34
$HCHDG,200.7,0.0,E,,*2C
$GPRMC,172427.4,A,4741.21383,N,12224.42355,W,004.73,221.9,020313,016.6,E*4E
$YXXDR,A,5.4,D,PTCH,A,3.7,D,ROLL*58
$GPRMC,172427.6,A,4741.21362,N,12224.42381,W,004.79,222.6,020313,016.6,E*4C
$GPRMC,172427.8,A,4741.21343,N,12224.42411,W,004.59,223.7,020313,016.6,E*4D
$HCHDG,204.2,0.0,E,,*2D
$YXXDR,A,5.0,D,PTCH,A,4.4,D,ROLL*58
$GPRMC,172428.0,A,4741.21327,N,12224.42440,W,004.60,227.0,020313,016.6,E*45
$GPRMC,172428.2,A,4741.21310,N,12224.42467,W,004.43,224.5,020313,016.6,E*41
$GPRMB,A,,,,,4740.4440,N,12220.0640,W,2060.35,17,4.35,*3A
$HCHDG,207.3,0.0,E,,*2F
$GPRMC,172428.4,A,4741.21295,N,12224.42497,W,004.69,227.6,020313,016.6,E*4C
$YXXDR,A,4.8,D,PTCH,A,5.8,D,ROLL*5C
$GPRMC,172428.6,A,4741.21276,N,12224.42521,W,004.70,227.8,020313,016.6,E*49
$GPRMC,172428.8,A,4741.21255,N,12224.42544,W,004.69,227.3,020313,016.6,E*46
$HCHDG,209.9,0.0,E,,*2B
$YXXDR,A,3.8,D,PTCH,A,7.6,D,ROLL*57
$GPRMC,172429.0,A,4741.21235,N,12224.42568,W,004.66,230.5,020313,016.6,E*48
$GPRMC,172429.2,A,4741.21213,N,12224.42597,W,004.63,229.5,020313,016.6,E*43
$HCHDG,213.7,0.0,E,,*2E
$GPRMC,172429.4,A,4741.21197,N,12224.42619,W,004.85,232.6,020313,016.6,E*4E
$GPRMB,A,,,,,4740.4440,N,12220.0640,W,2057.09,17,2.40,*35
$YXXDR,A,4.7,D,PTCH,A,8.6,D,ROLL*50
$GPRMC,172429.6,A,4741.21179,N,12224.42644,W,004.31,233.2,020313,016.6,E*4E
$GPRMC,172429.8,A,4741.21160,N,12224.42668,W,004.92,232.7,020313,016.6,E*4B
$HCHDG,217.8,0.0,E,,*25
$YXXDR,A,4.8,D,PTCH,A,9.0,D,ROLL*58
$GPRMC,172430.0,A,4741.21144,N,12224.42699,W,004.61,235.8,020313,016.6,E*47
$GPRMC,172430.2,A,4741.21130,N,12224.42735,W,004.76,237.4,020313,016.6,E*49
$HCHDG,220.9,0.0,E,,*20
$GPRMC,172430.4,A,4741.21113,N,12224.42775,W,004.74,237.4,020313,016.6,E*48
$YXXDR,A,5.6,D,PTCH,A,11.0,D,ROLL*6E
$GPRMC,172430.6,A,4741.21099,N,12224.42808,W,004.52,242.6,020313,016.6,E*48
$GPRMB,A,,,,,4740.4440,N,12220.0640,W,2054.42,17,4.48,*37
$GPRMC,172430.8,A,4741.21088,N,12224.42851,W,004.87,238.1,020313,016.6,E*48
$HCHDG,226.1,0.0,E,,*2E
$YXXDR,A,6.7,D,PTCH,A,9.7,D,ROLL*52
$GPRMC,172431.0,A,4741.21083,N,12224.42897,W,004.80,245.1,020313,016.6,E*4D
$GPRMC,172431.2,A,4741.21070,N,12224.42930,W,004.85,245.5,020313,016.6,E*4E
$HCHDG,230.2,0.0,E,,*2A
$GPRMC,172431.4,A,4741.21062,N,12224.42976,W,004.83,245.4,020313,016.6,E*4E
$YXXDR,A,5.7,D,PTCH,A,9.8,D,ROLL*5E
$GPRMC,172431.6,A,4741.21052,N,12224.43014,W,004.84,247.8,020313,016.6,E*4A
$GPRMC,172431.8,A,4741.21043,N,12224.43049,W,004.65,247.1,020313,016.6,E*4A
$GPRMB,A,,,,,4740.4440,N,12220.0640,W,2053.26,17,4.36,*3B
$HCHDG,236.1,0.0,E,,*2F
$YXXDR,A,6.3,D,PTCH,A,8.6,D,ROLL*56
$GPRMC,172432.0,A,4741.21034,N,12224.43091,W,005.31,253.2,020313,016.6,E*42
$GPRMC,172432.2,A,4741.21027,N,12224.43132,W,004.85,254.7,020313,016.6,E*46
$HCHDG,241.5,0.0,E,,*2B
$GPRMC,172432.4,A,4741.21022,N,12224.43171,W,005.18,253.6,020313,016.6,E*41
$YXXDR,A,4.9,D,PTCH,A,7.0,D,ROLL*57
$GPRMC,172432.6,A,4741.21017,N,12224.43219,W,005.40,257.4,020313,016.6,E*43
$GPRMC,172432.8,A,4741.21010,N,12224.43262,W,005.18,260.7,020313,016.6,E*4C
$GPRMB,A,,,,,4740.4440,N,12220.0640,W,2052.77,17,4.64,*39
$HCHDG,246.7,0.0,E,,*2E
$YXXDR,A,5.8,D,PTCH,A,6.9,D,ROLL*5F
$GPRMC,172433.0,A,4741.21005,N,12224.43304,W,005.45,261.7,020313,016.6,E*49
$GPRMC,172433.2,A,4741.21002,N,12224.43351,W,005.88,262.5,020313,016.6,E*4C
$HCHDG,251.9,0.0,E,,*26
$GPRMC,172433.4,A,4741.20997,N,12224.43404,W,005.82,269.6,020313,016.6,E*4B
$YXXDR,A,4.8,D,PTCH,A,6.6,D,ROLL*51
$GPRMC,172433.6,A,4741.20995,N,12224.43451,W,005.82,264.7,020313,016.6,E*47
$GPRMC,172433.8,A,4741.20996,N,12224.43500,W,005.75,269.9,020313,016.6,E*44
$GPRMB,A,,,,,4740.4440,N,12220.0640,W,2052.97,17,5.63,*31
$HCHDG,256.3,0.0,E,,*2B
$YXXDR,A,5.4,D,PTCH,A,6.5,D,ROLL*5F
$GPRMC,172434.0,A,4741.20999,N,12224.43549,W,005.91,272.8,020313,016.6,E*48
$GPRMC,172434.2,A,4741.20999,N,12224.43600,W,005.89,272.5,020313,016.6,E*40
$HCHDG,262.1,0.0,E,,*2E
$GPRMC,172434.4,A,4741.21003,N,12224.43646,W,005.50,276.5,020313,016.6,E*4F
$YXXDR,A,6.2,D,PTCH,A,6.2,D,ROLL*5D
$GPRMC,172434.6,A,4741.21007,N,12224.43695,W,005.87,278.3,020313,016.6,E*45
$GPRMC,172434.8,A,4741.21014,N,12224.43744,W,006.13,279.1,020313,016.6,E*49
$HCHDG,268.9,0.0,E,,*2C
$YXXDR,A,7.8,D,PTCH,A,6.2,D,ROLL*56
$GPRMC,172435.0,A,4741.21021,N,12224.43794,W,006.21,284.3,020313,016.6,E*4A
$GPRMB,A,,,,,4740.4440,N,12220.0640,W,2054.59,17,-1.16,*1E
$GPRMC,172435.2,A,4741.21032,N,12224.43843,W,006.43,285.8,020313,016.6,E*41
$HCHDG,274.4,0.0,E,,*2C
$GPRMC,172435.4,A,4741.21043,N,12224.43895,W,006.44,288.0,020313,016.6,E*48
$YXXDR,A,6.2,D,PTCH,A,3.9,D,ROLL*53
$GPRMC,172435.6,A,4741.21055,N,12224.43947,W,006.43,288.7,020313,016.6,E*43
$GPRMC,172435.8,A,4741.21068,N,12224.44000,W,006.17,292.3,020313,016.6,E*40
$HCHDG,278.1,0.0,E,,*25
$YXXDR,A,5.8,D,PTCH,A,2.9,D,ROLL*5B
$GPRMC,172436.0,A,4741.21084,N,12224.44047,W,006.22,291.6,020313,016.6,E*4A
$GPRMB,A,,,,,4740.4440,N,12220.0640,W,2057.34,17,3.59,*32
$GPRMC,172436.2,A,4741.21096,N,12224.44108,W,006.17,293.1,020313,016.6,E*42
$HCHDG,281.4,0.0,E,,*26
$GPRMC,172436.4,A,4741.21112,N,12224.44155,W,006.38,296.9,020313,016.6,E*41
$YXXDR,A,4.0,D,PTCH,A,1.2,D,ROLL*5A
$GPRMC,172436.6,A,4741.21131,N,12224.44201,W,006.65,300.6,020313,016.6,E*49
$GPRMC,172436.8,A,4741.21156,N,12224.44247,W,007.00,304.5,020313,016.6,E*41
$HCHDG,285.2,0.0,E,,*24
$YXXDR,A,4.5,D,PTCH,A,-3.2,D,ROLL*70
$GPRMC,172437.0,A,4741.21183,N,12224.44293,W,007.04,308.1,020313,016.6,E*45
$GPRMC,172437.2,A,4741.21210,N,12224.44337,W,006.87,310.3,020313,016.6,E*40
$GPRMB,A,,,,,4740.4440,N,12220.0640,W,2062.23,17,-4.75,*16
$HCHDG,288.5,0.0,E,,*2E
$GPRMC,172437.4,A,4741.21241,N,12224.44378,W,006.92,311.0,020313,016.6,E*4F
$YXXDR,A,4.6,D,PTCH,A,-6.5,D,ROLL*71
$GPRMC,172437.6,A,4741.21269,N,12224.44418,W,006.96,313.0,020313,016.6,E*40
$GPRMC,172437.8,A,4741.21296,N,12224.44458,W,006.96,314.7,020313,016.6,E*4A
$HCHDG,291.1,0.0,E,,*22
$YXXDR,A,4.3,D,PTCH,A,-7.3,D,ROLL*73
$GPRMC,172438.0,A,4741.21328,N,12224.44495,W,007.21,317.3,020313,016.6,E*42
$GPRMC,172438.2,A,4741.21360,N,12224.44531,W,007.16,320.2,020313,016.6,E*42
$GPRMB,A,,,,,4740.4440,N,12220.0640,W,2067.65,17,-4.26,*17
$HCHDG,292.6,0.0,E,,*26
$GPRMC,172438.4,A,4741.21394,N,12224.44570,W,007.17,321.0,020313,016.6,E*48
$YXXDR,A,4.3,D,PTCH,A,-9.5,D,ROLL*7B
$GPRMC,172438.6,A,4741.21426,N,12224.44612,W,007.24,323.5,020313,016.6,E*44
$GPRMC,172438.8,A,4741.21458,N,12224.44649,W,007.24,324.3,020313,016.6,E*4C
$HCHDG,292.7,0.0,E,,*27
$YXXDR,A,4.0,D,PTCH,A,-7.8,D,ROLL*7B
$GPRMC,172439.0,A,4741.21492,N,12224.44686,W,007.16,325.7,020313,016.6,E*44
$GPRMC,172439.2,A,4741.21528,N,12224.44731,W,007.20,325.7,020313,016.6,E*4E
$HCHDG,293.4,0.0,E,,*25
$GPRMC,172439.4,A,4741.21558,N,12224.44769,W,007.42,324.8,020313,016.6,E*48
$GPRMB,A,,,,,4740.4440,N,12220.0640,W,2074.75,17,-6.12,*11
$YXXDR,A,4.3,D,PTCH,A,-3.8,D,ROLL*7C
$GPRMC,172439.6,A,4741.21587,N,12224.44821,W,007.44,325.1,020313,016.6,E*45
$GPRMC,172439.8,A,4741.21617,N,12224.44848,W,007.37,326.0,020313,016.6,E*48
$HCHDG,294.0,0.0,E,,*26
$YXXDR,A,3.8,D,PTCH,A,0.4,D,ROLL*52
$GPRMC,172440.0,A,4741.21650,N,12224.44871,W,007.17,325.3,020313,016.6,E*45
$GPRMC,172440.2,A,4741.21686,N,12224.44896,W,007.23,323.8,020313,016.6,E*4F
$HCHDG,293.8,0.0,E,,*29
$GPRMC,172440.4,A,4741.21727,N,12224.44921,W,007.40,323.3,020313,016.6,E*40
$GPRMB,A,,,,,4740.4440,N,12220.0640,W,2080.66,17,6.42,*30
$YXXDR,A,3.8,D,PTCH,A,3.8,D,ROLL*5D
$GPRMC,172440.6,A,4741.21766,N,12224.44951,W,007.36,322.5,020313,016.6,E*46
$GPRMC,172440.8,A,4741.21799,N,12224.44984,W,007.06,322.2,020313,016.6,E*44
$HCHDG,292.8,0.0,E,,*28
$YXXDR,A,3.4,D,PTCH,A,6.6,D,ROLL*5A
$GPRMC,172441.0,A,4741.21833,N,12224.45019,W,007.64,320.6,020313,016.6,E*4C
$GPRMC,172441.2,A,4741.21869,N,12224.45054,W,007.27,320.1,020313,016.6,E*48
$HCHDG,292.5,0.0,E,,*25
$GPRMC,172441.4,A,4741.21902,N,12224.45090,W,007.23,316.9,020313,016.6,E*43
$YXXDR,A,4.5,D,PTCH,A,9.1,D,ROLL*54
$GPRMC,172441.6,A,4741.21936,N,12224.45126,W,007.46,315.9,020313,016.6,E*4A
$GPRMB,A,,,,,4740.4440,N,12220.0640,W,2088.03,17,-6.89,*11
$GPRMC,172441.8,A,4741.21965,N,12224.45166,W,007.15,316.4,020313,016.6,E*4E
$HCHDG,293.7,0.0,E,,*26
$YXXDR,A,4.6,D,PTCH,A,10.5,D,ROLL*6B
$GPRMC,172442.0,A,4741.21995,N,12224.45202,W,007.09,317.3,020313,016.6,E*40
$GPRMC,172442.2,A,4741.22025,N,12224.45241,W,007.52,316.1,020313,016.6,E*49
$HCHDG,292.4,0.0,E,,*24
$GPRMC,172442.4,A,4741.22056,N,12224.45283,W,007.54,316.7,020313,016.6,E*45
$YXXDR,A,3.8,D,PTCH,A,8.5,D,ROLL*5B
$GPRMC,172442.6,A,4741.22089,N,12224.45310,W,007.19,316.4,020313,016.6,E*44
$GPRMC,172442.8,A,4741.22123,N,12224.45347,W,007.54,314.1,020313,016.6,E*47
$GPRMB,A,,,,,4740.4440,N,12220.0640,W,2094.72,17,7.46,*35
$HCHDG,292.1,0.0,E,,*21
$YXXDR,A,4.3,D,PTCH,A,8.4,D,ROLL*56
$GPRMC,172443.0,A,4741.22153,N,12224.45390,W,007.52,314.2,020313,016.6,E*46
$GPRMC,172443.2,A,4741.22183,N,12224.45433,W,007.36,313.5,020313,016.6,E*45
$HCHDG,291.9,0.0,E,,*2A
$GPRMC,172443.4,A,4741.22216,N,12224.45475,W,007.39,315.2,020313,016.6,E*40
$YXXDR,A,3.9,D,PTCH,A,7.1,D,ROLL*51
$GPRMC,172443.6,A,4741.22250,N,12224.45517,W,007.39,315.8,020313,016.6,E*4F
$GPRMC,172443.8,A,4741.22281,N,12224.45557,W,007.36,316.4,020313,016.6,E*49
$HCHDG,291.3,0.0,E,,*20
$YXXDR,A,4.5,D,PTCH,A,6.3,D,ROLL*59
$GPRMC,172444.0,A,4741.22308,N,12224.45601,W,007.44,315.7,020313,016.6,E*43
$GPRMB,A,,,,,4740.4440,N,12220.0640,W,2101.45,17,-5.63,*14
$PGRMT,GPS 18x-5Hz software ver. 3.20,,,,,,,,*30
$GPRMC,172444.2,A,4741.22333,N,12224.45647,W,007.39,315.8,020313,016.6,E*4E
$HCHDG,291.7,0.0,E,,*24
$GPRMC,172444.4,A,4741.22356,N,12224.45694,W,007.64,313.3,020313,016.6,E*40
$YXXDR,A,4.9,D,PTCH,A,7.8,D,ROLL*5F
$GPRMC,172444.6,A,4741.22385,N,12224.45735,W,007.29,314.3,020313,016.6,E*48
$GPRMC,172444.8,A,4741.22417,N,12224.45774,W,007.28,311.8,020313,016.6,E*40
$HCHDG,291.7,0.0,E,,*24
$YXXDR,A,4.6,D,PTCH,A,7.1,D,ROLL*59
$GPRMC,172445.0,A,4741.22445,N,12224.45818,W,007.50,314.0,020313,016.6,E*49
$GPRMC,172445.2,A,4741.22476,N,12224.45855,W,007.47,315.1,020313,016.6,E*44
$GPRMB,A,,,,,4740.4440,N,12220.0640,W,2107.62,17,4.69,*31
$HCHDG,290.8,0.0,E,,*2A
$GPRMC,172445.4,A,4741.22504,N,12224.45899,W,007.41,315.3,020313,016.6,E*42
$YXXDR,A,4.6,D,PTCH,A,4.7,D,ROLL*5C
$GPRMC,172445.6,A,4741.22532,N,12224.45938,W,007.21,316.3,020313,016.6,E*4A
$GPRMC,172445.8,A,4741.22563,N,12224.45975,W,007.42,315.7,020313,016.6,E*4B
$HCHDG,290.3,0.0,E,,*21
$YXXDR,A,3.3,D,PTCH,A,5.5,D,ROLL*5D
$GPRMC,172446.0,A,4741.22592,N,12224.46011,W,007.05,314.9,020313,016.6,E*4A
$GPRMC,172446.2,A,4741.22623,N,12224.46050,W,007.68,312.2,020313,016.6,E*42
$GPRMB,A,,,,,4740.4440,N,12220.0640,W,2112.94,17,-2.51,*1C
$HCHDG,290.8,0.0,E,,*2A
$GPRMC,172446.4,A,4741.22655,N,12224.46090,W,007.05,314.7,020313,016.6,E*41
$YXXDR,A,4.3,D,PTCH,A,6.4,D,ROLL*58
$GPRMC,172446.6,A,4741.22683,N,12224.46130,W,007.12,315.2,020313,016.6,E*41
$GPRMC,172446.8,A,4741.22712,N,12224.46177,W,007.32,314.6,020313,016.6,E*42
$HCHDG,289.9,0.0,E,,*23
$YXXDR,A,3.1,D,PTCH,A,4.8,D,ROLL*53
$GPRMC,172447.0,A,4741.22742,N,12224.46225,W,007.39,316.1,020313,016.6,E*44
$GPRMC,172447.2,A,4741.22773,N,12224.46268,W,007.07,317.3,020313,016.6,E*43
$GPRMB,A,,,,,4740.4440,N,12220.0640,W,2118.43,17,2.04,*31
$HCHDG,287.9,0.0,E,,*2D
$GPRMC,172447.4,A,4741.22803,N,12224.46307,W,007.04,317.5,020313,016.6,E*40
$YXXDR,A,2.0,D,PTCH,A,5.5,D,ROLL*5F
$GPRMC,172447.6,A,4741.22831,N,12224.46349,W,006.82,315.6,020313,016.6,E*47
$GPRMC,172447.8,A,4741.22858,N,12224.46392,W,006.88,314.2,020313,016.6,E*4F
$HCHDG,289.8,0.0,E,,*22
$YXXDR,A,3.9,D,PTCH,A,7.6,D,ROLL*56
$GPRMC,172448.0,A,4741.22883,N,12224.46434,W,006.92,314.4,020313,016.6,E*48
$GPRMC,172448.2,A,4741.22913,N,12224.46474,W,006.85,313.9,020313,016.6,E*4A
$GPRMB,A,,,,,4740.4440,N,12220.0640,W,2123.55,17,2.15,*3E
$HCHDG,289.0,0.0,E,,*2A
$GPRMC,172448.4,A,4741.22941,N,12224.46512,W,006.88,313.4,020313,016.6,E*4A
$YXXDR,A,1.6,D,PTCH,A,7.2,D,ROLL*5F
$GPRMC,172448.6,A,4741.22969,N,12224.46553,W,006.84,313.5,020313,016.6,E*4A
$GPRMC,172448.8,A,4741.22996,N,12224.46596,W,006.52,311.5,020313,016.6,E*44
$HCHDG,289.2,0.0,E,,*28
$YXXDR,A,4.0,D,PTCH,A,6.8,D,ROLL*57
$GPRMC,172449.0,A,4741.23022,N,12224.46638,W,006.94,313.0,020313,016.6,E*40
$GPRMC,172449.2,A,4741.23056,N,12224.46686,W,006.88,313.7,020313,016.6,E*4E
$HCHDG,288.9,0.0,E,,*22
$GPRMC,172449.4,A,4741.23082,N,12224.46727,W,006.66,314.7,020313,016.6,E*4C
$GPRMB,A,,,,,4740.4440,N,12220.0640,W,2129.76,17,-6.66,*18
$YXXDR,A,4.0,D,PTCH,A,6.0,D,ROLL*5F
$GPRMC,172449.6,A,4741.23111,N,12224.46784,W,006.67,314.4,020313,016.6,E*4E
$GPRMC,172449.8,A,4741.23139,N,12224.46822,W,006.70,313.3,020313,016.6,E*4F
$HCHDG,290.1,0.0,E,,*23
$YXXDR,A,5.5,D,PTCH,A,6.7,D,ROLL*5C
$GPRMC,172450.0,A,4741.23165,N,12224.46860,W,006.36,316.3,020313,016.6,E*47
$GPRMC,172450.2,A,4741.23190,N,12224.46901,W,006.68,312.6,020313,016.6,E*43
$HCHDG,290.4,0.0,E,,*26
