$GPRMB,A,,,,,4740.4440,N,12220.0640,W,2538.56,17,-1.40,*1D
$IIVHW,,,,,04.4,N,,*19
$IIVLW,06175,N,002.9,N*5D
$IIDPT,042.0,-1.0,*46
$GPRMC,180000.8,A,4741.35105,N,12224.52556,W,003.91,145.9,020313,016.6,E*49
$GPRMC,180001.0,A,4741.35083,N,12224.52534,W,003.93,145.9,020313,016.6,E*49
$HCHDG,134.3,0.0,E,,*2C
$YXXDR,A,4.2,D,PTCH,A,-13.4,D,ROLL*40
$GPRMC,180001.2,A,4741.35067,N,12224.52512,W,003.94,148.1,020313,016.6,E*47
$GPRMC,180001.4,A,4741.35049,N,12224.52496,W,003.92,149.0,020313,016.6,E*46
$IIGLL,4741.350,N,12224.525,W,180000,A,A*4E
$IIMTW,+08.0,C*30
$HCHDG,134.5,0.0,E,,*2A
$IIRMC,180000,A,4741.350,N,12224.525,W,03.9,145,020313,16,E,A*1C
$YXXDR,A,4.2,D,PTCH,A,-14.2,D,ROLL*41
$GPRMC,180001.6,A,4741.35029,N,12224.52484,W,003.92,148.4,020313,016.6,E*44
$GPRMB,A,,,,,4740.4440,N,12220.0640,W,2535.01,17,3.90,*30
$IIVHW,,,,,04.4,N,,*19
$IIVLW,06175,N,002.9,N*5D
$IIDPT,041.8,-1.0,*4D
$GPRMC,180001.8,A,4741.35012,N,12224.52476,W,003.92,147.2,020313,016.6,E*46
$GPRMC,180002.0,A,4741.34995,N,12224.52460,W,003.94,148.8,020313,016.6,E*4E
$HCHDG,134.4,0.0,E,,*2B
$YXXDR,A,4.2,D,PTCH,A,-12.8,D,ROLL*4D
$GPRMC,180002.2,A,4741.34974,N,12224.52441,W,004.17,146.4,020313,016.6,E*4E
$GPRMC,180002.4,A,4741.34957,N,12224.52430,W,003.93,144.3,020313,016.6,E*41
$IIGLL,4741.349,N,12224.524,W,180000,A,A*47
$IIMTW,+08.0,C*30
$HCHDG,133.6,0.0,E,,*2E
$IIRMC,180000,A,4741.349,N,12224.524,W,03.9,148,020313,16,E,A*18
$YXXDR,A,4.2,D,PTCH,A,-11.7,D,ROLL*41
$GPRMC,180002.6,A,4741.34942,N,12224.52415,W,003.90,144.1,020313,016.6,E*41
$GPRMB,A,,,,,4740.4440,N,12220.0640,W,2531.98,17,1.35,*39
$IIVHW,,,,,04.4,N,,*19
$IIVLW,06175,N,002.9,N*5D
$IIDPT,042.0,-1.0,*46
$GPRMC,180002.8,A,4741.34920,N,12224.52395,W,004.09,145.0,020313,016.6,E*43
$GPRMC,180003.0,A,4741.34903,N,12224.52381,W,003.70,145.3,020313,016.6,E*44
$HCHDG,133.0,0.0,E,,*28
$YXXDR,A,4.2,D,PTCH,A,-11.2,D,ROLL*44
$GPRMC,180003.2,A,4741.34884,N,12224.52365,W,003.88,150.3,020313,016.6,E*41
$IIGLL,4741.349,N,12224.523,W,180000,A,A*40
$GPRMC,180003.4,A,4741.34867,N,12224.52349,W,003.87,151.9,020313,016.6,E*40
$IIMTW,+08.0,C*30
$HCHDG,133.6,0.0,E,,*2E
$IIRMC,180000,A,4741.349,N,12224.523,W,03.7,145,020313,16,E,A*1C
$YXXDR,A,4.4,D,PTCH,A,-13.8,D,ROLL*4A
$GPRMC,180003.6,A,4741.34852,N,12224.52332,W,003.84,153.2,020313,016.6,E*42
$GPRMB,A,,,,,4740.4440,N,12220.0640,W,2528.81,17,0.92,*35
$IIVHW,,,,,04.5,N,,*18
$IIVLW,06175,N,002.9,N*5D
$IIDPT,042.2,-1.0,*44
$GPRMC,180003.8,A,4741.34839,N,12224.52321,W,003.90,153.0,020313,016.6,E*44
$GPRMC,180004.0,A,4741.34825,N,12224.52306,W,004.14,148.5,020313,016.6,E*47
$HCHDG,133.1,0.0,E,,*29
$YXXDR,A,4.7,D,PTCH,A,-11.8,D,ROLL*4B
$GPRMC,180004.2,A,4741.34807,N,12224.52286,W,004.45,144.9,020313,016.6,E*48
$GPRMC,180004.4,A,4741.34792,N,12224.52259,W,004.21,140.0,020313,016.6,E*40
$IIGLL,4741.348,N,12224.523,W,180000,A,A*41
$IIMTW,+08.0,C*30
$HCHDG,129.8,0.0,E,,*2B
$IIRMC,180000,A,4741.348,N,12224.523,W,04.1,148,020313,16,E,A*11
$YXXDR,A,4.0,D,PTCH,A,-7.3,D,ROLL*70
$GPRMC,180004.6,A,4741.34777,N,12224.52234,W,003.77,136.5,020313,016.6,E*42
$GPRMB,A,,,,,4740.4440,N,12220.0640,W,2526.09,17,-3.77,*1E
$IIVHW,,,,,04.5,N,,*18
$IIVLW,06175,N,002.9,N*5D
$IIDPT,041.3,-1.0,*46
$GPRMC,180004.8,A,4741.34761,N,12224.52208,W,003.60,141.4,020313,016.6,E*43
$GPRMC,180005.0,A,4741.34743,N,12224.52183,W,003.44,142.3,020313,016.6,E*48
$HCHDG,128.7,0.0,E,,*25
$YXXDR,A,4.0,D,PTCH,A,-8.9,D,ROLL*75
$GPRMC,180005.2,A,4741.34724,N,12224.52160,W,003.22,144.0,020313,016.6,E*43
$GPRMC,180005.4,A,4741.34709,N,12224.52141,W,003.52,146.1,020313,016.6,E*4D
$IIGLL,4741.347,N,12224.521,W,180000,A,A*4C
$IIMTW,+08.0,C*30
$HCHDG,129.6,0.0,E,,*25
$IIRMC,180000,A,4741.347,N,12224.521,W,03.4,142,020313,16,E,A*14
$YXXDR,A,4.1,D,PTCH,A,-12.5,D,ROLL*43
$GPRMC,180005.6,A,4741.34693,N,12224.52122,W,003.85,144.3,020313,016.6,E*42
$IIVHW,,,,,04.4,N,,*19
$IIVLW,06175,N,002.9,N*5D
$IIDPT,040.4,-1.0,*40
$GPRMC,180005.8,A,4741.34674,N,12224.52098,W,003.89,143.1,020313,016.6,E*4C
$GPRMB,A,,,,,4740.4440,N,12220.0640,W,2522.35,17,-1.49,*1A
$GPRMC,180006.0,A,4741.34658,N,12224.52080,W,003.93,142.2,020313,016.6,E*49
$HCHDG,128.7,0.0,E,,*25
$YXXDR,A,4.1,D,PTCH,A,-10.9,D,ROLL*4D
$GPRMC,180006.2,A,4741.34643,N,12224.52064,W,003.92,141.1,020313,016.6,E*4A
$GPRMC,180006.4,A,4741.34625,N,12224.52043,W,003.94,138.0,020313,016.6,E*40
$IIGLL,4741.346,N,12224.520,W,180000,A,A*4C
$IIMTW,+08.0,C*30
$HCHDG,127.7,0.0,E,,*2A
$IIRMC,180000,A,4741.346,N,12224.520,W,03.9,142,020313,16,E,A*19
$YXXDR,A,4.2,D,PTCH,A,-9.8,D,ROLL*77
$GPRMC,180006.6,A,4741.34610,N,12224.52024,W,003.88,135.1,020313,016.6,E*44
$IIVHW,,,,,04.4,N,,*19
$IIVLW,06175,N,002.9,N*5D
$IIDPT,040.4,-1.0,*40
$GPRMC,180006.8,A,4741.34598,N,12224.52003,W,003.90,135.8,020313,016.6,E*4C
$GPRMB,A,,,,,4740.4440,N,12220.0640,W,2519.60,17,2.85,*3C
$GPRMC,180007.0,A,4741.34583,N,12224.51985,W,003.86,134.0,020313,016.6,E*45
$HCHDG,126.5,0.0,E,,*29
$YXXDR,A,4.2,D,PTCH,A,-11.7,D,ROLL*41
$GPRMC,180007.2,A,4741.34568,N,12224.51962,W,003.81,135.8,020313,016.6,E*45
$GPRMC,180007.4,A,4741.34551,N,12224.51942,W,003.79,136.1,020313,016.6,E*46
$IIGLL,4741.345,N,12224.519,W,180000,A,A*45
$IIMTW,+08.0,C*30
$HCHDG,126.5,0.0,E,,*29
$IIRMC,180000,A,4741.345,N,12224.519,W,03.8,134,020313,16,E,A*10
$YXXDR,A,4.5,D,PTCH,A,-15.2,D,ROLL*47
$GPRMC,180007.6,A,4741.34537,N,12224.51914,W,003.75,136.7,020313,016.6,E*4D
$IIVHW,,,,,04.4,N,,*19
$IIVLW,06175,N,002.9,N*5D
$IIDPT,039.9,-1.0,*43
$GPRMC,180007.8,A,4741.34522,N,12224.51889,W,003.56,138.5,020313,016.6,E*4F
$GPRMC,180008.0,A,4741.34503,N,12224.51867,W,003.85,141.8,020313,016.6,E*46
$GPRMB,A,,,,,4740.4440,N,12220.0640,W,2516.12,17,1.92,*33
$HCHDG,127.2,0.0,E,,*2F
$YXXDR,A,3.7,D,PTCH,A,-17.0,D,ROLL*42
$GPRMC,180008.2,A,4741.34490,N,12224.51840,W,003.80,142.0,020313,016.6,E*44
$GPRMC,180008.4,A,4741.34476,N,12224.51815,W,003.87,141.1,020313,016.6,E*4F
$IIGLL,4741.345,N,12224.518,W,180000,A,A*44
$IIMTW,+08.0,C*30
$HCHDG,126.6,0.0,E,,*2A
$IIRMC,180000,A,4741.345,N,12224.518,W,03.8,141,020313,16,E,A*13
$YXXDR,A,3.9,D,PTCH,A,-16.3,D,ROLL*4E
$GPRMC,180008.6,A,4741.34464,N,12224.51781,W,004.07,140.1,020313,016.6,E*42
$IIVHW,,,,,04.4,N,,*19
$IIVLW,06175,N,002.9,N*5D
$IIDPT,039.9,-1.0,*43
$GPRMC,180008.8,A,4741.34450,N,12224.51759,W,004.10,137.4,020313,016.6,E*4D
$GPRMC,180009.0,A,4741.34435,N,12224.51731,W,004.12,136.0,020313,016.6,E*4E
$HCHDG,125.0,0.0,E,,*2F
$YXXDR,A,3.9,D,PTCH,A,-16.3,D,ROLL*4E
$GPRMC,180009.2,A,4741.34420,N,12224.51709,W,004.38,134.7,020313,016.6,E*4E
$GPRMB,A,,,,,4740.4440,N,12220.0640,W,2512.97,17,3.72,*36
$GPRMC,180009.4,A,4741.34405,N,12224.51681,W,004.31,130.8,020313,016.6,E*4C
$IIGLL,4741.344,N,12224.517,W,180000,A,A*4A
$IIMTW,+08.0,C*30
$HCHDG,124.4,0.0,E,,*2A
$IIRMC,180000,A,4741.344,N,12224.517,W,04.1,136,020313,16,E,A*13
$YXXDR,A,3.6,D,PTCH,A,-17.2,D,ROLL*41
$GPRMC,180009.6,A,4741.34386,N,12224.51655,W,004.09,130.6,020313,016.6,E*4E
$IIVHW,,,,,04.4,N,,*19
$IIVLW,06175,N,002.9,N*5D
$IIDPT,039.9,-1.0,*43
$GPRMC,180009.8,A,4741.34367,N,12224.51633,W,004.27,133.4,020313,016.6,E*42
$GPRMC,180010.0,A,4741.34356,N,12224.51606,W,003.90,135.8,020313,016.6,E*47
$HCHDG,125.3,0.0,E,,*2C
$YXXDR,A,3.3,D,PTCH,A,-19.6,D,ROLL*4E
$GPRMC,180010.2,A,4741.34343,N,12224.51581,W,003.93,136.9,020313,016.6,E*4C
$GPRMC,180010.4,A,4741.34324,N,12224.51557,W,004.27,142.3,020313,016.6,E*41
$GPRMB,A,,,,,4740.4440,N,12220.0640,W,2509.41,17,-3.33,*1F
$IIGLL,4741.343,N,12224.516,W,180000,A,A*4C
$IIMTW,+08.0,C*30
$HCHDG,127.8,0.0,E,,*25
$IIRMC,180000,A,4741.343,N,12224.516,W,03.9,135,020313,16,E,A*19
$YXXDR,A,3.5,D,PTCH,A,-21.5,D,ROLL*40
$GPRMC,180010.6,A,4741.34307,N,12224.51531,W,004.11,144.7,020313,016.6,E*45
$IIVHW,,,,,04.5,N,,*18
$IIVLW,06175,N,002.9,N*5D
$IIDPT,039.9,-1.0,*43
$GPRMC,180010.8,A,4741.34296,N,12224.51504,W,004.10,144.9,020313,016.6,E*4B
$GPRMC,180011.0,A,4741.34277,N,12224.51488,W,004.14,145.6,020313,016.6,E*42
$HCHDG,128.9,0.0,E,,*2B
$YXXDR,A,3.8,D,PTCH,A,-20.5,D,ROLL*4C
$GPRMC,180011.2,A,4741.34258,N,12224.51469,W,004.41,144.7,020313,016.6,E*42
$GPRMC,180011.4,A,4741.34236,N,12224.51449,W,004.57,140.7,020313,016.6,E*4D
$IIGLL,4741.342,N,12224.514,W,180000,A,A*4F
$IIMTW,+08.0,C*30
$HCHDG,128.7,0.0,E,,*25
$IIRMC,180000,A,4741.342,N,12224.514,W,04.1,145,020313,16,E,A*12
$YXXDR,A,3.7,D,PTCH,A,-17.0,D,ROLL*42
$GPRMC,180011.6,A,4741.34219,N,12224.51422,W,004.51,141.5,020313,016.6,E*4A
$GPRMB,A,,,,,4740.4440,N,12220.0640,W,2505.61,17,3.69,*33
$IIVHW,,,,,04.6,N,,*1B
$IIVLW,06175,N,002.9,N*5D
$IIDPT,040.4,-1.0,*40
$GPRMC,180011.8,A,4741.34198,N,12224.51396,W,004.43,140.0,020313,016.6,E*41
$GPRMC,180012.0,A,4741.34179,N,12224.51378,W,003.81,138.6,020313,016.6,E*45
$HCHDG,127.9,0.0,E,,*24
$YXXDR,A,4.0,D,PTCH,A,-15.3,D,ROLL*43
$GPRMC,180012.2,A,4741.34159,N,12224.51352,W,003.99,142.3,020313,016.6,E*4C
$GPRMC,180012.4,A,4741.34144,N,12224.51332,W,003.98,143.7,020313,016.6,E*44
$IIGLL,4741.341,N,12224.513,W,180000,A,A*4B
$IIMTW,+08.0,C*30
$HCHDG,128.4,0.0,E,,*26
$IIRMC,180000,A,4741.341,N,12224.513,W,03.8,138,020313,16,E,A*12
$YXXDR,A,3.6,D,PTCH,A,-16.9,D,ROLL*4B
$GPRMC,180012.6,A,4741.34120,N,12224.51318,W,004.15,144.4,020313,016.6,E*4A
$IIVHW,,,,,04.6,N,,*1B
$IIVLW,06175,N,002.9,N*5D
$IIDPT,040.4,-1.0,*40
$GPRMC,180012.8,A,4741.34097,N,12224.51301,W,004.20,142.5,020313,016.6,E*40
$GPRMB,A,,,,,4740.4440,N,12220.0640,W,2501.29,17,0.89,*36
$GPRMC,180013.0,A,4741.34077,N,12224.51280,W,004.36,141.2,020313,016.6,E*4C
$HCHDG,127.7,0.0,E,,*2A
$YXXDR,A,3.9,D,PTCH,A,-16.0,D,ROLL*4D
$GPRMC,180013.2,A,4741.34056,N,12224.51260,W,004.39,139.3,020313,016.6,E*42
$GPRMC,180013.4,A,4741.34040,N,12224.51243,W,004.39,138.6,020313,016.6,E*46
$IIGLL,4741.340,N,12224.512,W,180000,A,A*4B
$IIMTW,+08.0,C*30
$HCHDG,126.1,0.0,E,,*2D
$IIRMC,180000,A,4741.340,N,12224.512,W,04.3,141,020313,16,E,A*10
$YXXDR,A,3.7,D,PTCH,A,-15.2,D,ROLL*42
$GPRMC,180013.6,A,4741.34017,N,12224.51225,W,004.35,138.2,020313,016.6,E*4E
$IIVHW,,,,,04.6,N,,*1B
$IIVLW,06175,N,002.9,N*5D
$IIDPT,040.4,-1.0,*40
$GPRMC,180013.8,A,4741.34003,N,12224.51201,W,004.31,134.4,020313,016.6,E*4D
$GPRMC,180014.0,A,4741.33992,N,12224.51173,W,004.29,134.8,020313,016.6,E*47
$GPRMB,A,,,,,4740.4440,N,12220.0640,W,2497.51,17,4.29,*39
$HCHDG,125.4,0.0,E,,*2B
$YXXDR,A,3.7,D,PTCH,A,-17.2,D,ROLL*40
$GPRMC,180014.2,A,4741.33978,N,12224.51139,W,004.29,134.7,020313,016.6,E*40
$IIGLL,4741.339,N,12224.511,W,180000,A,A*46
$GPRMC,180014.4,A,4741.33965,N,12224.51106,W,004.28,135.5,020313,016.6,E*44
$IIMTW,+08.0,C*30
$HCHDG,126.3,0.0,E,,*2F
$IIRMC,180000,A,4741.339,N,12224.511,W,04.2,134,020313,16,E,A*1E
$YXXDR,A,3.3,D,PTCH,A,-20.1,D,ROLL*43
$GPRMC,180014.6,A,4741.33953,N,12224.51078,W,004.26,137.5,020313,016.6,E*47
$IIVHW,,,,,04.6,N,,*1B
$IIVLW,06175,N,002.9,N*5D
$IIDPT,040.4,-1.0,*40
$GPRMC,180014.8,A,4741.33942,N,12224.51050,W,004.29,138.9,020313,016.6,E*4F
$GPRMC,180015.0,A,4741.33924,N,12224.51020,W,004.48,140.5,020313,016.6,E*45
$GPRMB,A,,,,,4740.4440,N,12220.0640,W,2494.87,17,4.44,*3A
$HCHDG,128.1,0.0,E,,*23
$YXXDR,A,2.8,D,PTCH,A,-22.2,D,ROLL*48
$GPRMC,180015.2,A,4741.33898,N,12224.50999,W,004.30,141.8,020313,016.6,E*48
$GPRMC,180015.4,A,4741.33878,N,12224.50975,W,004.47,143.5,020313,016.6,E*4D
$IIGLL,4741.339,N,12224.510,W,180000,A,A*47
$IIMTW,+08.0,C*30
$HCHDG,129.6,0.0,E,,*25
$IIRMC,180000,A,4741.339,N,12224.510,W,04.4,140,020313,16,E,A*1A
$YXXDR,A,3.2,D,PTCH,A,-22.8,D,ROLL*49
$GPRMC,180015.6,A,4741.33865,N,12224.50953,W,004.43,144.1,020313,016.6,E*40
$IIVHW,,,,,04.6,N,,*1B
$IIVLW,06175,N,002.9,N*5D
$IIDPT,040.4,-1.0,*40
$GPRMC,180015.8,A,4741.33844,N,12224.50935,W,004.50,143.9,020313,016.6,E*40
$GPRMC,180016.0,A,4741.33821,N,12224.50912,W,004.53,141.1,020313,016.6,E*44
$GPRMB,A,,,,,4740.4440,N,12220.0640,W,2491.21,17,-4.31,*1C
$HCHDG,130.2,0.0,E,,*29
$YXXDR,A,3.6,D,PTCH,A,-20.9,D,ROLL*4E
$GPRMC,180016.2,A,4741.33799,N,12224.50899,W,004.78,142.9,020313,016.6,E*4A
$GPRMC,180016.4,A,4741.33780,N,12224.50875,W,004.74,141.7,020313,016.6,E*47
$IIGLL,4741.338,N,12224.509,W,180000,A,A*4E
$IIMTW,+08.0,C*30
$HCHDG,130.3,0.0,E,,*28
$IIRMC,180000,A,4741.338,N,12224.509,W,04.5,141,020313,16,E,A*13
$YXXDR,A,3.3,D,PTCH,A,-18.5,D,ROLL*4C
$GPRMC,180016.6,A,4741.33756,N,12224.50851,W,004.56,143.5,020313,016.6,E*48
$IIVHW,,,,,04.7,N,,*1A
$IIVLW,06175,N,002.9,N*5D
$IIDPT,038.8,-1.0,*43
$GPRMC,180016.8,A,4741.33731,N,12224.50829,W,004.26,145.1,020313,016.6,E*4D
$GPRMC,180017.0,A,4741.33711,N,12224.50816,W,004.32,146.6,020313,016.6,E*4B
$GPRMB,A,,,,,4740.4440,N,12220.0640,W,2487.35,17,-3.43,*1C
$HCHDG,131.0,0.0,E,,*2A
$YXXDR,A,4.2,D,PTCH,A,-19.2,D,ROLL*4C
$GPRMC,180017.2,A,4741.33692,N,12224.50803,W,004.61,149.2,020313,016.6,E*4A
$GPRMC,180017.4,A,4741.33669,N,12224.50785,W,004.58,149.6,020313,016.6,E*47
$IIGLL,4741.337,N,12224.508,W,180000,A,A*40
$IIMTW,+08.0,C*30
$HCHDG,132.5,0.0,E,,*2C
$IIRMC,180000,A,4741.337,N,12224.508,W,04.3,146,020313,16,E,A*1C
$GPRMC,180017.6,A,4741.33649,N,12224.50771,W,004.55,148.2,020313,016.6,E*44
$YXXDR,A,3.7,D,PTCH,A,-18.7,D,ROLL*4A
$IIVHW,,,,,04.8,N,,*15
$IIVLW,06175,N,002.9,N*5D
$IIDPT,038.8,-1.0,*43
$GPRMC,180017.8,A,4741.33628,N,12224.50760,W,004.51,146.0,020313,016.6,E*45
$GPRMC,180018.0,A,4741.33613,N,12224.50741,W,004.50,143.8,020313,016.6,E*45
$HCHDG,131.5,0.0,E,,*2F
$YXXDR,A,4.0,D,PTCH,A,-15.0,D,ROLL*40
$GPRMC,180018.2,A,4741.33583,N,12224.50714,W,004.48,141.5,020313,016.6,E*4B
$GPRMB,A,,,,,4740.4440,N,12220.0640,W,2482.89,17,3.67,*35
$GPRMC,180018.4,A,4741.33566,N,12224.50692,W,004.26,140.9,020313,016.6,E*4C
$IIGLL,4741.336,N,12224.507,W,180000,A,A*4E
$IIMTW,+08.0,C*30
$HCHDG,129.7,0.0,E,,*24
$IIRMC,180000,A,4741.336,N,12224.507,W,04.5,143,020313,16,E,A*11
$GPRMC,180018.6,A,4741.33549,N,12224.50670,W,004.07,140.1,020313,016.6,E*44
$YXXDR,A,3.8,D,PTCH,A,-12.0,D,ROLL*48
$IIVHW,,,,,04.8,N,,*15
$IIVLW,06175,N,002.9,N*5D
$IIDPT,038.8,-1.0,*43
$GPRMC,180018.8,A,4741.33531,N,12224.50650,W,004.06,142.3,020313,016.6,E*46
$GPRMC,180019.0,A,4741.33509,N,12224.50627,W,004.44,145.6,020313,016.6,E*40
$HCHDG,130.2,0.0,E,,*29
$YXXDR,A,3.4,D,PTCH,A,-13.5,D,ROLL*40
$GPRMC,180019.2,A,4741.33489,N,12224.50606,W,003.97,144.2,020313,016.6,E*44
$GPRMB,A,,,,,4740.4440,N,12220.0640,W,2479.52,17,-0.78,*17
$GPRMC,180019.4,A,4741.33474,N,12224.50590,W,004.37,146.5,020313,016.6,E*44
$IIGLL,4741.335,N,12224.506,W,180000,A,A*4C
$IIMTW,+08.0,C*30
$HCHDG,131.3,0.0,E,,*29
$IIRMC,180000,A,4741.335,N,12224.506,W,04.4,145,020313,16,E,A*14
$GPRMC,180019.6,A,4741.33452,N,12224.50577,W,004.43,143.8,020313,016.6,E*40
$YXXDR,A,4.0,D,PTCH,A,-14.4,D,ROLL*45
$IIVHW,,,,,04.7,N,,*1A
$IIVLW,06175,N,002.9,N*5D
$IIDPT,038.8,-1.0,*43
$GPRMC,180019.8,A,4741.33429,N,12224.50563,W,004.51,141.4,020313,016.6,E*4A
$GPRMC,180020.0,A,4741.33410,N,12224.50547,W,004.47,137.9,020313,016.6,E*4F
$HCHDG,131.5,0.0,E,,*2F
$YXXDR,A,4.3,D,PTCH,A,-13.5,D,ROLL*40
$GPRMC,180020.2,A,4741.33399,N,12224.50538,W,004.55,139.3,020313,016.6,E*44
$GPRMC,180020.4,A,4741.33382,N,12224.50518,W,004.54,139.5,020313,016.6,E*4D
$GPRMB,A,,,,,4740.4440,N,12220.0640,W,2475.79,17,2.88,*32
$IIGLL,4741.334,N,12224.505,W,180000,A,A*4E
$IIMTW,+08.0,C*30
$HCHDG,131.4,0.0,E,,*2E
$IIRMC,180000,A,4741.334,N,12224.505,W,04.4,137,020313,16,E,A*13
$GPRMC,180020.6,A,4741.33364,N,12224.50503,W,004.16,139.1,020313,016.6,E*4F
$YXXDR,A,3.8,D,PTCH,A,-13.4,D,ROLL*4D
$IIVHW,,,,,04.8,N,,*15
$IIVLW,06175,N,002.9,N*5D
$IIDPT,038.8,-1.0,*43
$GPRMC,180020.8,A,4741.33343,N,12224.50486,W,004.13,143.9,020313,016.6,E*48
$GPRMC,180021.0,A,4741.33329,N,12224.50468,W,004.20,145.8,020313,016.6,E*4A
$HCHDG,134.3,0.0,E,,*2C
$YXXDR,A,3.8,D,PTCH,A,-16.6,D,ROLL*4A
$GPRMC,180021.2,A,4741.33311,N,12224.50453,W,004.03,148.6,020313,016.6,E*49
$GPRMC,180021.4,A,4741.33292,N,12224.50451,W,004.08,150.0,020313,016.6,E*43
$IIGLL,4741.333,N,12224.504,W,180000,A,A*48
$IIMTW,+08.0,C*30
$HCHDG,136.1,0.0,E,,*2C
$IIRMC,180000,A,4741.333,N,12224.504,W,04.2,145,020313,16,E,A*16
$YXXDR,A,4.6,D,PTCH,A,-18.0,D,ROLL*4B
$GPRMC,180021.6,A,4741.33271,N,12224.50454,W,004.39,151.2,020313,016.6,E*48
$GPRMB,A,,,,,4740.4440,N,12220.0640,W,2471.99,17,-4.17,*15
$IIVHW,,,,,04.8,N,,*15
$IIVLW,06175,N,002.9,N*5D
$IIDPT,037.2,-1.0,*46
$GPRMC,180021.8,A,4741.33250,N,12224.50433,W,004.54,149.5,020313,016.6,E*41
$GPRMC,180022.0,A,4741.33232,N,12224.50417,W,004.54,148.3,020313,016.6,E*4F
$HCHDG,136.9,0.0,E,,*24
$YXXDR,A,4.2,D,PTCH,A,-15.7,D,ROLL*45
$GPRMC,180022.2,A,4741.33207,N,12224.50401,W,004.27,146.6,020313,016.6,E*43
$GPRMC,180022.4,A,4741.33182,N,12224.50381,W,004.28,148.7,020313,016.6,E*44
$IIGLL,4741.332,N,12224.504,W,180000,A,A*49
$IIMTW,+08.0,C*30
$HCHDG,137.4,0.0,E,,*28
$IIRMC,180000,A,4741.332,N,12224.504,W,04.5,148,020313,16,E,A*1D
$YXXDR,A,3.6,D,PTCH,A,-14.3,D,ROLL*43
$GPRMC,180022.6,A,4741.33162,N,12224.50361,W,004.27,147.8,020313,016.6,E*49
$GPRMB,A,,,,,4740.4440,N,12220.0640,W,2468.18,17,-4.09,*1B
$IIVHW,,,,,04.8,N,,*15
$IIVLW,06175,N,002.9,N*5D
$IIDPT,037.2,-1.0,*46
$GPRMC,180022.8,A,4741.33145,N,12224.50344,W,004.03,149.9,020313,016.6,E*4C
$GPRMC,180023.0,A,4741.33120,N,12224.50329,W,004.19,148.6,020313,016.6,E*48
$HCHDG,138.9,0.0,E,,*2A
$YXXDR,A,4.1,D,PTCH,A,-15.3,D,ROLL*42
$GPRMC,180023.2,A,4741.33097,N,12224.50312,W,004.25,148.8,020313,016.6,E*4E
$GPRMC,180023.4,A,4741.33080,N,12224.50295,W,004.09,148.6,020313,016.6,E*40
$IIGLL,4741.331,N,12224.503,W,180000,A,A*4D
$IIMTW,+08.0,C*30
$HCHDG,139.9,0.0,E,,*2B
$IIRMC,180000,A,4741.331,N,12224.503,W,04.1,148,020313,16,E,A*1D
$GPRMC,180023.6,A,4741.33062,N,12224.50279,W,004.16,152.5,020313,016.6,E*4A
$YXXDR,A,3.9,D,PTCH,A,-15.0,D,ROLL*4E
$IIVHW,,,,,04.7,N,,*1A
$IIVLW,06175,N,002.9,N*5D
$IIDPT,037.2,-1.0,*46
$GPRMC,180023.8,A,4741.33043,N,12224.50262,W,004.12,154.5,020313,016.6,E*4F
$GPRMB,A,,,,,4740.4440,N,12220.0640,W,2464.02,17,-2.56,*10
$GPRMC,180024.0,A,4741.33021,N,12224.50248,W,004.12,156.9,020313,016.6,E*42
$HCHDG,142.3,0.0,E,,*2D
$YXXDR,A,4.5,D,PTCH,A,-16.9,D,ROLL*4F
$GPRMC,180024.2,A,4741.33002,N,12224.50236,W,004.13,157.2,020313,016.6,E*43
$GPRMC,180024.4,A,4741.32979,N,12224.50226,W,004.16,156.7,020313,016.6,E*41
$IIGLL,4741.330,N,12224.502,W,180000,A,A*4D
$IIMTW,+08.0,C*30
$HCHDG,143.7,0.0,E,,*28
$IIRMC,180000,A,4741.330,N,12224.502,W,04.1,156,020313,16,E,A*12
$GPRMC,180024.6,A,4741.32958,N,12224.50215,W,004.17,155.8,020313,016.6,E*4D
$YXXDR,A,4.2,D,PTCH,A,-14.6,D,ROLL*45
$IIVHW,,,,,04.7,N,,*1A
$IIVLW,06175,N,002.9,N*5D
$IIDPT,035.4,-1.0,*42
$GPRMC,180024.8,A,4741.32937,N,12224.50206,W,004.18,155.2,020313,016.6,E*4D
$GPRMC,180025.0,A,4741.32920,N,12224.50188,W,004.16,155.7,020313,016.6,E*4C
$GPRMB,A,,,,,4740.4440,N,12220.0640,W,2459.81,17,-3.57,*15
$HCHDG,143.4,0.0,E,,*2B
$YXXDR,A,3.9,D,PTCH,A,-11.1,D,ROLL*4B
$GPRMC,180025.2,A,4741.32899,N,12224.50173,W,004.18,159.0,020313,016.6,E*4C
$GPRMC,180025.4,A,4741.32876,N,12224.50158,W,004.15,161.0,020313,016.6,E*44
$IIGLL,4741.329,N,12224.501,W,180000,A,A*46
$IIMTW,+08.0,C*30
$HCHDG,144.3,0.0,E,,*2B
$IIRMC,180000,A,4741.329,N,12224.501,W,04.1,155,020313,16,E,A*1A
$GPRMC,180025.6,A,4741.32853,N,12224.50151,W,003.90,160.3,020313,016.6,E*40
$YXXDR,A,4.4,D,PTCH,A,-11.3,D,ROLL*43
$IIVHW,,,,,04.7,N,,*1A
$IIVLW,06175,N,002.9,N*5D
$IIDPT,034.5,-1.0,*42
$GPRMC,180025.8,A,4741.32841,N,12224.50142,W,004.22,160.0,020313,016.6,E*42
$GPRMC,180026.0,A,4741.32823,N,12224.50130,W,004.15,159.1,020313,016.6,E*47
$GPRMB,A,,,,,4740.4440,N,12220.0640,W,2456.48,17,-3.50,*18
$HCHDG,144.7,0.0,E,,*2F
$YXXDR,A,4.4,D,PTCH,A,-9.9,D,ROLL*70
$GPRMC,180026.2,A,4741.32803,N,12224.50124,W,004.15,159.8,020313,016.6,E*4B
$GPRMC,180026.4,A,4741.32778,N,12224.50114,W,004.10,163.5,020313,016.6,E*4C
$IIGLL,4741.328,N,12224.501,W,180000,A,A*47
$IIMTW,+08.0,C*30
$HCHDG,144.7,0.0,E,,*2F
$IIRMC,180000,A,4741.328,N,12224.501,W,04.1,159,020313,16,E,A*17
$GPRMC,180026.6,A,4741.32752,N,12224.50099,W,004.12,161.6,020313,016.6,E*41
$YXXDR,A,4.5,D,PTCH,A,-9.1,D,ROLL*79
$IIVHW,,,,,04.7,N,,*1A
$IIVLW,06175,N,002.9,N*5D
$IIDPT,034.5,-1.0,*42
$GPRMC,180026.8,A,4741.32724,N,12224.50083,W,004.31,161.3,020313,016.6,E*41
$GPRMC,180027.0,A,4741.32700,N,12224.50069,W,003.86,161.0,020313,016.6,E*42
$GPRMB,A,,,,,4740.4440,N,12220.0640,W,2452.30,17,3.34,*3C
$HCHDG,143.8,0.0,E,,*27
$YXXDR,A,4.9,D,PTCH,A,-10.0,D,ROLL*4C
$GPRMC,180027.2,A,4741.32683,N,12224.50065,W,003.82,156.6,020313,016.6,E*40
$GPRMC,180027.4,A,4741.32669,N,12224.50059,W,004.04,154.5,020313,016.6,E*45
$IIGLL,4741.327,N,12224.500,W,180000,A,A*49
$IIMTW,+08.0,C*30
$HCHDG,141.5,0.0,E,,*28
$IIRMC,180000,A,4741.327,N,12224.500,W,03.8,161,020313,16,E,A*1C
$YXXDR,A,4.1,D,PTCH,A,-9.0,D,ROLL*7C
$GPRMC,180027.6,A,4741.32651,N,12224.50052,W,003.86,152.9,020313,016.6,E*40
$IIVHW,,,,,04.7,N,,*1A
$IIVLW,06175,N,002.9,N*5D
$IIDPT,034.5,-1.0,*42
$GPRMC,180027.8,A,4741.32628,N,12224.50033,W,004.07,154.7,020313,016.6,E*41
$GPRMC,180028.0,A,4741.32609,N,12224.50018,W,003.86,154.1,020313,016.6,E*44
$HCHDG,139.4,0.0,E,,*26
$YXXDR,A,4.1,D,PTCH,A,-10.3,D,ROLL*47
$GPRMC,180028.2,A,4741.32596,N,12224.50010,W,003.85,155.8,020313,016.6,E*40
$GPRMB,A,,,,,4740.4440,N,12220.0640,W,2448.75,17,-3.85,*11
$GPRMC,180028.4,A,4741.32579,N,12224.50006,W,003.87,158.0,020313,016.6,E*47
$IIGLL,4741.326,N,12224.500,W,180000,A,A*48
$IIMTW,+08.0,C*30
$HCHDG,140.1,0.0,E,,*2D
$IIRMC,180000,A,4741.326,N,12224.500,W,03.8,154,020313,16,E,A*1B
$GPRMC,180028.6,A,4741.32557,N,12224.49996,W,004.12,156.8,020313,016.6,E*4C
$YXXDR,A,4.5,D,PTCH,A,-13.3,D,ROLL*40
$IIVHW,,,,,04.6,N,,*1B
$IIVLW,06175,N,002.9,N*5D
$IIDPT,033.2,-1.0,*42
$GPRMC,180028.8,A,4741.32552,N,12224.49979,W,004.10,156.9,020313,016.6,E*45
$GPRMC,180029.0,A,4741.32532,N,12224.49963,W,003.89,154.1,020313,016.6,E*4C
$HCHDG,140.0,0.0,E,,*2C
$YXXDR,A,4.7,D,PTCH,A,-14.4,D,ROLL*42
$GPRMC,180029.2,A,4741.32515,N,12224.49941,W,004.07,149.2,020313,016.6,E*45
$GPRMC,180029.4,A,4741.32500,N,12224.49926,W,004.07,146.3,020313,016.6,E*48
$GPRMB,A,,,,,4740.4440,N,12220.0640,W,2445.38,17,2.75,*36
$IIGLL,4741.325,N,12224.499,W,180000,A,A*4A
$IIMTW,+08.0,C*30
$HCHDG,137.7,0.0,E,,*2B
$IIRMC,180000,A,4741.325,N,12224.499,W,03.8,154,020313,16,E,A*19
$YXXDR,A,3.7,D,PTCH,A,-12.5,D,ROLL*42
$GPRMC,180029.6,A,4741.32478,N,12224.49906,W,003.85,145.1,020313,016.6,E*4A
$IIVHW,,,,,04.6,N,,*1B
$IIVLW,06175,N,002.9,N*5D
$IIDPT,033.2,-1.0,*42
$GPRMC,180029.8,A,4741.32463,N,12224.49891,W,003.59,144.7,020313,016.6,E*47
$GPRMC,180030.0,A,4741.32440,N,12224.49870,W,003.87,147.4,020313,016.6,E*4A
$HCHDG,136.9,0.0,E,,*24
$YXXDR,A,3.3,D,PTCH,A,-14.6,D,ROLL*43
$GPRMC,180030.2,A,4741.32419,N,12224.49843,W,003.59,149.9,020313,016.6,E*44
$GPRMC,180030.4,A,4741.32400,N,12224.49824,W,003.92,155.2,020313,016.6,E*4A
$GPRMB,A,,,,,4740.4440,N,12220.0640,W,2441.84,17,3.87,*39
$IIGLL,4741.324,N,12224.498,W,180000,A,A*4A
$IIMTW,+08.0,C*30
$HCHDG,138.6,0.0,E,,*25
$IIRMC,180000,A,4741.324,N,12224.498,W,03.8,147,020313,16,E,A*1B
$YXXDR,A,3.7,D,PTCH,A,-18.8,D,ROLL*45
$GPRMC,180030.6,A,4741.32382,N,12224.49804,W,004.10,156.2,020313,016.6,E*49
$IIVHW,,,,,04.6,N,,*1B
$IIVLW,06175,N,002.9,N*5D
$IIDPT,033.2,-1.0,*42
$GPRMC,180030.8,A,4741.32359,N,12224.49791,W,004.05,156.6,020313,016.6,E*42
$GPRMC,180031.0,A,4741.32340,N,12224.49780,W,004.10,154.4,020313,016.6,E*47
$HCHDG,139.9,0.0,E,,*2B
$YXXDR,A,3.6,D,PTCH,A,-18.9,D,ROLL*45
$GPRMC,180031.2,A,4741.32322,N,12224.49765,W,004.14,153.8,020313,016.6,E*45
$GPRMC,180031.4,A,4741.32303,N,12224.49753,W,004.07,151.6,020313,016.6,E*4B
$IIGLL,4741.323,N,12224.497,W,180000,A,A*42
$IIMTW,+08.0,C*30
$HCHDG,138.8,0.0,E,,*2B
$IIRMC,180000,A,4741.323,N,12224.497,W,04.1,154,020313,16,E,A*1F
$YXXDR,A,3.9,D,PTCH,A,-16.3,D,ROLL*4E
$GPRMC,180031.6,A,4741.32289,N,12224.49736,W,004.34,150.9,020313,016.6,E*47
$GPRMB,A,,,,,4740.4440,N,12220.0640,W,2437.98,17,1.73,*3C
$IIVHW,,,,,04.6,N,,*1B
$IIVLW,06175,N,002.9,N*5D
$IIDPT,033.2,-1.0,*42
$GPRMC,180031.8,A,4741.32271,N,12224.49720,W,004.11,150.3,020313,016.6,E*44
$GPRMC,180032.0,A,4741.32253,N,12224.49698,W,004.10,150.1,020313,016.6,E*4E
$HCHDG,138.5,0.0,E,,*26
$YXXDR,A,3.8,D,PTCH,A,-16.2,D,ROLL*4E
$GPRMC,180032.2,A,4741.32231,N,12224.49681,W,003.90,151.4,020313,016.6,E*4B
$GPRMC,180032.4,A,4741.32212,N,12224.49657,W,003.97,153.2,020313,016.6,E*44
$IIGLL,4741.322,N,12224.496,W,180000,A,A*42
$IIMTW,+08.0,C*30
$HCHDG,139.1,0.0,E,,*23
$IIRMC,180000,A,4741.322,N,12224.496,W,04.1,150,020313,16,E,A*1B
$GPRMC,180032.6,A,4741.32193,N,12224.49636,W,004.04,156.3,020313,016.6,E*42
$YXXDR,A,3.5,D,PTCH,A,-16.8,D,ROLL*49
$IIVHW,,,,,04.6,N,,*1B
$IIVLW,06175,N,002.9,N*5D
$IIDPT,033.2,-1.0,*42
$GPRMC,180032.8,A,4741.32171,N,12224.49616,W,004.10,157.7,020313,016.6,E*42
$GPRMB,A,,,,,4740.4440,N,12220.0640,W,2433.79,17,1.84,*3F
$GPRMC,180033.0,A,4741.32149,N,12224.49596,W,004.08,158.0,020313,016.6,E*4A
$HCHDG,139.8,0.0,E,,*2A
$YXXDR,A,4.0,D,PTCH,A,-16.4,D,ROLL*47
$GPRMC,180033.2,A,4741.32129,N,12224.49579,W,004.14,158.8,020313,016.6,E*4A
$GPRMC,180033.4,A,4741.32111,N,12224.49567,W,004.18,154.3,020313,016.6,E*43
$IIGLL,4741.321,N,12224.495,W,180000,A,A*42
$IIMTW,+08.0,C*30
$HCHDG,140.1,0.0,E,,*2D
$IIRMC,180000,A,4741.321,N,12224.495,W,04.0,158,020313,16,E,A*12
$YXXDR,A,3.8,D,PTCH,A,-14.6,D,ROLL*48
$GPRMC,180033.6,A,4741.32093,N,12224.49547,W,004.18,155.0,020313,016.6,E*4A
$IIVHW,,,,,04.6,N,,*1B
$IIVLW,06175,N,002.9,N*5D
$IIDPT,033.2,-1.0,*42
$GPRMC,180033.8,A,4741.32075,N,12224.49532,W,004.21,152.7,020313,016.6,E*44
$GPRMB,A,,,,,4740.4440,N,12220.0640,W,2430.43,17,0.54,*39
$GPRMC,180034.0,A,4741.32056,N,12224.49520,W,004.24,152.7,020313,016.6,E*4C
$HCHDG,139.1,0.0,E,,*23
$YXXDR,A,4.1,D,PTCH,A,-12.7,D,ROLL*41
$GPRMC,180034.2,A,4741.32032,N,12224.49505,W,004.24,153.2,020313,016.6,E*4F
$GPRMC,180034.4,A,4741.32011,N,12224.49491,W,003.94,153.0,020313,016.6,E*4A
$IIGLL,4741.320,N,12224.495,W,180000,A,A*43
$IIMTW,+08.0,C*30
$HCHDG,139.3,0.0,E,,*21
$IIRMC,180000,A,4741.320,N,12224.495,W,04.2,152,020313,16,E,A*1B
$YXXDR,A,4.0,D,PTCH,A,-13.4,D,ROLL*42
$GPRMC,180034.6,A,4741.31986,N,12224.49485,W,004.18,154.9,020313,016.6,E*44
$IIVHW,,,,,04.5,N,,*18
$IIVLW,06175,N,002.9,N*5D
$IIDPT,033.2,-1.0,*42
$GPRMC,180034.8,A,4741.31966,N,12224.49478,W,004.16,154.4,020313,016.6,E*45
$GPRMB,A,,,,,4740.4440,N,12220.0640,W,2426.73,17,-0.48,*1D
$GPRMC,180035.0,A,4741.31948,N,12224.49473,W,004.12,154.4,020313,016.6,E*4F
$HCHDG,139.9,0.0,E,,*2B
$YXXDR,A,4.0,D,PTCH,A,-13.2,D,ROLL*44
$GPRMC,180035.2,A,4741.31927,N,12224.49460,W,004.15,154.9,020313,016.6,E*4C
$GPRMC,180035.4,A,4741.31907,N,12224.49454,W,004.11,155.1,020313,016.6,E*42
$IIGLL,4741.319,N,12224.494,W,180000,A,A*48
$IIMTW,+08.0,C*30
$HCHDG,140.1,0.0,E,,*2D
$IIRMC,180000,A,4741.319,N,12224.494,W,04.1,154,020313,16,E,A*15
$YXXDR,A,4.1,D,PTCH,A,-12.7,D,ROLL*41
$GPRMC,180035.6,A,4741.31889,N,12224.49444,W,004.08,155.2,020313,016.6,E*4D
$IIVHW,,,,,04.5,N,,*18
$IIVLW,06175,N,002.9,N*5D
$IIDPT,032.5,-1.0,*44
$GPRMC,180035.8,A,4741.31864,N,12224.49432,W,004.32,157.0,020313,016.6,E*48
$GPRMC,180036.0,A,4741.31842,N,12224.49426,W,004.00,156.4,020313,016.6,E*46
$GPRMB,A,,,,,4740.4440,N,12220.0640,W,2422.54,17,3.93,*34
$HCHDG,140.9,0.0,E,,*25
$YXXDR,A,4.1,D,PTCH,A,-13.3,D,ROLL*44
$GPRMC,180036.2,A,4741.31821,N,12224.49415,W,004.17,158.0,020313,016.6,E*4D
$GPRMC,180036.4,A,4741.31800,N,12224.49405,W,004.18,156.9,020313,016.6,E*41
$IIGLL,4741.318,N,12224.494,W,180000,A,A*49
$IIMTW,+08.0,C*30
$HCHDG,140.9,0.0,E,,*25
$IIRMC,180000,A,4741.318,N,12224.494,W,04.0,156,020313,16,E,A*17
$YXXDR,A,4.2,D,PTCH,A,-11.3,D,ROLL*45
$GPRMC,180036.6,A,4741.31780,N,12224.49393,W,004.16,157.8,020313,016.6,E*42
$IIVHW,,,,,04.6,N,,*1B
$IIVLW,06175,N,002.9,N*5D
$IIDPT,031.6,-1.0,*44
$GPRMC,180036.8,A,4741.31756,N,12224.49384,W,004.13,154.6,020313,016.6,E*49
$GPRMC,180037.0,A,4741.31738,N,12224.49368,W,004.09,153.2,020313,016.6,E*42
$GPRMB,A,,,,,4740.4440,N,12220.0640,W,2418.99,17,0.99,*35
$HCHDG,140.2,0.0,E,,*2E
$YXXDR,A,4.1,D,PTCH,A,-10.4,D,ROLL*40
$GPRMC,180037.2,A,4741.31722,N,12224.49354,W,004.33,152.3,020313,016.6,E*4D
$GPRMC,180037.4,A,4741.31707,N,12224.49335,W,004.14,151.9,020313,016.6,E*47
$IIGLL,4741.317,N,12224.493,W,180000,A,A*41
$IIMTW,+08.0,C*30
$HCHDG,139.5,0.0,E,,*27
$IIRMC,180000,A,4741.317,N,12224.493,W,04.0,153,020313,16,E,A*1A
$YXXDR,A,4.1,D,PTCH,A,-10.4,D,ROLL*40
$GPRMC,180037.6,A,4741.31686,N,12224.49312,W,004.12,153.4,020313,016.6,E*41
$IIVHW,,,,,04.5,N,,*18
$IIVLW,06175,N,002.9,N*5D
$IIDPT,031.1,-1.0,*43
$GPRMC,180037.8,A,4741.31663,N,12224.49295,W,004.08,153.9,020313,016.6,E*4C
$GPRMC,180038.0,A,4741.31629,N,12224.49266,W,004.11,152.7,020313,016.6,E*4E
$HCHDG,140.4,0.0,E,,*28
$YXXDR,A,4.1,D,PTCH,A,-11.6,D,ROLL*43
$GPRMC,180038.2,A,4741.31606,N,12224.49252,W,004.09,157.7,020313,016.6,E*4A
$GPRMB,A,,,,,4740.4440,N,12220.0640,W,2414.36,17,1.83,*36
$IIGLL,4741.316,N,12224.492,W,180000,A,A*41
$GPRMC,180038.4,A,4741.31584,N,12224.49241,W,004.14,158.4,020313,016.6,E*47
$IIMTW,+08.0,C*30
$HCHDG,141.6,0.0,E,,*2B
$IIRMC,180000,A,4741.316,N,12224.492,W,04.1,152,020313,16,E,A*1A
$YXXDR,A,4.7,D,PTCH,A,-13.4,D,ROLL*45
$GPRMC,180038.6,A,4741.31560,N,12224.49232,W,004.09,158.6,020313,016.6,E*45
$IIVHW,,,,,04.6,N,,*1B
$IIVLW,06175,N,002.9,N*5D
$IIDPT,030.4,-1.0,*47
$GPRMC,180038.8,A,4741.31532,N,12224.49226,W,003.92,158.9,020313,016.6,E*43
$GPRMC,180039.0,A,4741.31511,N,12224.49211,W,003.92,157.8,020313,016.6,E*41
$HCHDG,142.0,0.0,E,,*2E
$YXXDR,A,4.3,D,PTCH,A,-12.7,D,ROLL*43
$GPRMC,180039.2,A,4741.31488,N,12224.49201,W,003.99,156.1,020313,016.6,E*40
$GPRMC,180039.4,A,4741.31468,N,12224.49185,W,004.06,151.6,020313,016.6,E*46
$GPRMB,A,,,,,4740.4440,N,12220.0640,W,2409.68,17,1.29,*31
$IIGLL,4741.315,N,12224.492,W,180000,A,A*42
$IIMTW,+08.0,C*30
$HCHDG,140.2,0.0,E,,*2E
$IIRMC,180000,A,4741.315,N,12224.492,W,03.9,157,020313,16,E,A*13
$YXXDR,A,3.4,D,PTCH,A,-9.5,D,ROLL*7B
$GPRMC,180039.6,A,4741.31446,N,12224.49172,W,004.36,153.1,020313,016.6,E*46
$IIVHW,,,,,04.5,N,,*18
$IIVLW,06175,N,002.9,N*5D
$IIDPT,030.4,-1.0,*47
$GPRMC,180039.8,A,4741.31429,N,12224.49153,W,003.80,152.6,020313,016.6,E*4E
$GPRMC,180040.0,A,4741.31405,N,12224.49142,W,003.87,154.2,020313,016.6,E*43
$HCHDG,139.8,0.0,E,,*2A
$YXXDR,A,4.2,D,PTCH,A,-9.9,D,ROLL*76
$GPRMC,180040.2,A,4741.31380,N,12224.49130,W,003.91,155.7,020313,016.6,E*4D
$GPRMC,180040.4,A,4741.31357,N,12224.49123,W,004.13,155.9,020313,016.6,E*40
$IIGLL,4741.314,N,12224.491,W,180000,A,A*40
$IIMTW,+08.0,C*30
$HCHDG,141.6,0.0,E,,*2B
$IIRMC,180000,A,4741.314,N,12224.491,W,03.8,154,020313,16,E,A*13
$YXXDR,A,4.3,D,PTCH,A,-12.1,D,ROLL*45
$GPRMC,180040.6,A,4741.31334,N,12224.49107,W,004.06,157.9,020313,016.6,E*47
$GPRMB,A,,,,,4740.4440,N,12220.0640,W,2405.09,17,-2.43,*18
$IIVHW,,,,,04.5,N,,*18
$IIVLW,06175,N,002.9,N*5D
$IIDPT,030.6,-1.0,*45
$GPRMC,180040.8,A,4741.31312,N,12224.49097,W,004.12,156.0,020313,016.6,E*48
$GPRMC,180041.0,A,4741.31293,N,12224.49087,W,004.07,155.9,020313,016.6,E*46
$HCHDG,141.9,0.0,E,,*24
$YXXDR,A,4.3,D,PTCH,A,-11.1,D,ROLL*46
$GPRMC,180041.2,A,4741.31281,N,12224.49076,W,004.06,156.7,020313,016.6,E*45
$GPRMC,180041.4,A,4741.31264,N,12224.49071,W,004.03,156.4,020313,016.6,E*49
$IIGLL,4741.312,N,12224.490,W,180000,A,A*47
$IIMTW,+08.0,C*30
$HCHDG,142.3,0.0,E,,*2D
$IIRMC,180000,A,4741.312,N,12224.490,W,04.0,155,020313,16,E,A*1A
$YXXDR,A,4.1,D,PTCH,A,-10.4,D,ROLL*40
$GPRMC,180041.6,A,4741.31245,N,12224.49062,W,004.03,156.3,020313,016.6,E*4D
$IIVHW,,,,,04.6,N,,*1B
$IIVLW,06175,N,002.9,N*5D
$IIDPT,029.7,-1.0,*4C
$GPRMC,180041.8,A,4741.31226,N,12224.49052,W,004.02,156.1,020313,016.6,E*46
$GPRMB,A,,,,,4740.4440,N,12220.0640,W,2401.42,17,0.41,*3E
$GPRMC,180042.0,A,4741.31206,N,12224.49036,W,004.01,156.1,020313,016.6,E*4E
$HCHDG,142.2,0.0,E,,*2C
$YXXDR,A,4.1,D,PTCH,A,-10.8,D,ROLL*4C
$GPRMC,180042.2,A,4741.31181,N,12224.49019,W,004.00,156.2,020313,016.6,E*4F
$GPRMC,180042.4,A,4741.31159,N,12224.49006,W,004.00,155.8,020313,016.6,E*4B
$IIGLL,4741.312,N,12224.490,W,180000,A,A*47
$IIMTW,+08.0,C*30
$HCHDG,142.4,0.0,E,,*2A
$IIRMC,180000,A,4741.312,N,12224.490,W,04.0,156,020313,16,E,A*19
$YXXDR,A,4.2,D,PTCH,A,-9.9,D,ROLL*76
$GPRMC,180042.6,A,4741.31135,N,12224.48986,W,003.99,158.3,020313,016.6,E*42
$IIVHW,,,,,04.5,N,,*18
$IIVLW,06175,N,002.9,N*5D
$IIDPT,029.7,-1.0,*4C
$GPRMC,180042.8,A,4741.31109,N,12224.48965,W,004.01,162.1,020313,016.6,E*43
$GPRMB,A,,,,,4740.4440,N,12220.0640,W,2397.37,17,3.79,*3C
$GPRMC,180043.0,A,4741.31079,N,12224.48949,W,004.00,161.6,020313,016.6,E*47
$HCHDG,143.7,0.0,E,,*28
$YXXDR,A,4.7,D,PTCH,A,-10.3,D,ROLL*41
$GPRMC,180043.2,A,4741.31049,N,12224.48933,W,003.80,161.3,020313,016.6,E*41
$GPRMC,180043.4,A,4741.31007,N,12224.48916,W,004.03,160.3,020313,016.6,E*47
$IIGLL,4741.310,N,12224.489,W,180000,A,A*4D
$IIMTW,+08.0,C*30
$HCHDG,144.2,0.0,E,,*2A
$IIRMC,180000,A,4741.310,N,12224.489,W,04.0,161,020313,16,E,A*17
$YXXDR,A,4.5,D,PTCH,A,-9.4,D,ROLL*7C
$GPRMC,180043.6,A,4741.30974,N,12224.48901,W,003.72,157.9,020313,016.6,E*40
$IIVHW,,,,,04.5,N,,*18
$IIVLW,06175,N,002.9,N*5D
$IIDPT,029.7,-1.0,*4C
$GPRMC,180043.8,A,4741.30948,N,12224.48882,W,003.77,155.8,020313,016.6,E*4D
$GPRMB,A,,,,,4740.4440,N,12220.0640,W,2391.89,17,-3.77,*1C
$GPRMC,180044.0,A,4741.30925,N,12224.48862,W,003.82,158.1,020313,016.6,E*49
$HCHDG,143.3,0.0,E,,*2C
$PGRMT,GPS 18x-5Hz software ver. 3.20,,,,,,,,*30
$YXXDR,A,4.0,D,PTCH,A,-7.6,D,ROLL*75
$GPRMC,180044.2,A,4741.30901,N,12224.48840,W,003.76,155.5,020313,016.6,E*4F
$GPRMC,180044.4,A,4741.30877,N,12224.48816,W,003.83,160.6,020313,016.6,E*45
$IIGLL,4741.309,N,12224.488,W,180000,A,A*44
$IIMTW,+08.0,C*30
$HCHDG,143.4,0.0,E,,*2B
$IIRMC,180000,A,4741.309,N,12224.488,W,03.8,158,020313,16,E,A*1B
$YXXDR,A,4.4,D,PTCH,A,-8.7,D,ROLL*7F
$GPRMC,180044.6,A,4741.30855,N,12224.48798,W,003.81,159.0,020313,016.6,E*40
$IIVHW,,,,,04.5,N,,*18
$IIVLW,06175,N,002.9,N*5D
$IIDPT,029.7,-1.0,*4C
$GPRMC,180044.8,A,4741.30825,N,12224.48777,W,003.78,158.2,020313,016.6,E*4D
$GPRMC,180045.0,A,4741.30803,N,12224.48758,W,003.78,159.6,020313,016.6,E*48
$GPRMB,A,,,,,4740.4440,N,12220.0640,W,2386.82,17,2.22,*3D
$HCHDG,144.3,0.0,E,,*2B
$YXXDR,A,4.8,D,PTCH,A,-9.9,D,ROLL*7C
$GPRMC,180045.2,A,4741.30783,N,12224.48742,W,003.79,158.9,020313,016.6,E*49
$GPRMC,180045.4,A,4741.30758,N,12224.48728,W,003.80,160.2,020313,016.6,E*43
$IIGLL,4741.308,N,12224.487,W,180000,A,A*4A
$IIMTW,+08.0,C*30
$HCHDG,145.3,0.0,E,,*2A
$IIRMC,180000,A,4741.308,N,12224.487,W,03.7,159,020313,16,E,A*1B
$YXXDR,A,4.6,D,PTCH,A,-10.1,D,ROLL*42
$GPRMC,180045.6,A,4741.30737,N,12224.48724,W,003.82,158.8,020313,016.6,E*47
$IIVHW,,,,,04.5,N,,*18
$IIVLW,06175,N,002.9,N*5D
$IIDPT,028.4,-1.0,*4E
$GPRMC,180045.8,A,4741.30719,N,12224.48710,W,003.86,160.9,020313,016.6,E*4C
$GPRMC,180046.0,A,4741.30697,N,12224.48696,W,003.87,161.1,020313,016.6,E*47
$GPRMB,A,,,,,4740.4440,N,12220.0640,W,2383.19,17,1.83,*32
$HCHDG,145.5,0.0,E,,*2C
$YXXDR,A,4.5,D,PTCH,A,-9.9,D,ROLL*71
$GPRMC,180046.2,A,4741.30676,N,12224.48678,W,003.87,160.5,020313,016.6,E*4F
$GPRMC,180046.4,A,4741.30655,N,12224.48668,W,003.88,161.0,020313,016.6,E*42
$IIGLL,4741.306,N,12224.486,W,180000,A,A*45
$IIMTW,+08.0,C*30
$HCHDG,146.0,0.0,E,,*2A
$IIRMC,180000,A,4741.306,N,12224.486,W,03.8,161,020313,16,E,A*10
$YXXDR,A,4.3,D,PTCH,A,-10.1,D,ROLL*47
$GPRMC,180046.6,A,4741.30626,N,12224.48641,W,003.86,161.5,020313,016.6,E*44
$IIVHW,,,,,04.4,N,,*19
$IIVLW,06175,N,002.9,N*5D
$IIDPT,028.4,-1.0,*4E
$GPRMC,180046.8,A,4741.30604,N,12224.48624,W,003.84,160.8,020313,016.6,E*47
$GPRMC,180047.0,A,4741.30581,N,12224.48613,W,003.84,162.6,020313,016.6,E*48
$GPRMB,A,,,,,4740.4440,N,12220.0640,W,2379.18,17,-3.84,*1E
$HCHDG,146.3,0.0,E,,*29
$YXXDR,A,4.0,D,PTCH,A,-9.6,D,ROLL*7B
$GPRMC,180047.2,A,4741.30561,N,12224.48605,W,003.80,164.2,020313,016.6,E*45
$GPRMC,180047.4,A,4741.30544,N,12224.48593,W,003.78,161.3,020313,016.6,E*4B
$IIGLL,4741.305,N,12224.486,W,180000,A,A*46
$IIMTW,+08.0,C*30
$HCHDG,146.6,0.0,E,,*2C
$IIRMC,180000,A,4741.305,N,12224.486,W,03.8,162,020313,16,E,A*10
$YXXDR,A,4.8,D,PTCH,A,-8.9,D,ROLL*7D
$GPRMC,180047.6,A,4741.30531,N,12224.48581,W,003.77,161.9,020313,016.6,E*4D
$IIVHW,,,,,04.4,N,,*19
$IIVLW,06175,N,002.9,N*5D
$IIDPT,028.4,-1.0,*4E
$GPRMC,180047.8,A,4741.30506,N,12224.48572,W,003.79,161.4,020313,016.6,E*48
$GPRMC,180048.0,A,4741.30483,N,12224.48559,W,003.80,160.9,020313,016.6,E*40
$HCHDG,147.0,0.0,E,,*2B
$YXXDR,A,4.7,D,PTCH,A,-7.6,D,ROLL*72
$GPRMC,180048.2,A,4741.30463,N,12224.48547,W,003.81,161.9,020313,016.6,E*43
$GPRMB,A,,,,,4740.4440,N,12220.0640,W,2375.15,17,2.72,*3A
$GPRMC,180048.4,A,4741.30441,N,12224.48532,W,003.80,163.1,020313,016.6,E*4C
$IIGLL,4741.304,N,12224.485,W,180000,A,A*44
$IIMTW,+08.0,C*30
$HCHDG,147.4,0.0,E,,*2F
$IIRMC,180000,A,4741.304,N,12224.485,W,03.8,160,020313,16,E,A*10
$YXXDR,A,4.8,D,PTCH,A,-6.6,D,ROLL*7C
$GPRMC,180048.6,A,4741.30419,N,12224.48521,W,003.57,163.1,020313,016.6,E*4B
$IIVHW,,,,,04.4,N,,*19
$IIVLW,06175,N,002.9,N*5D
$IIDPT,028.4,-1.0,*4E
$GPRMC,180048.8,A,4741.30399,N,12224.48510,W,003.56,164.1,020313,016.6,E*4E
$GPRMC,180049.0,A,4741.30381,N,12224.48501,W,003.58,164.7,020313,016.6,E*46
$HCHDG,148.0,0.0,E,,*24
$YXXDR,A,4.5,D,PTCH,A,-6.5,D,ROLL*72
$GPRMC,180049.2,A,4741.30364,N,12224.48494,W,003.61,164.8,020313,016.6,E*47
$GPRMC,180049.4,A,4741.30347,N,12224.48491,W,003.61,165.7,020313,016.6,E*4B
$GPRMB,A,,,,,4740.4440,N,12220.0640,W,2371.22,17,0.57,*3F
$IIGLL,4741.303,N,12224.485,W,180000,A,A*43
$IIMTW,+08.0,C*30
$HCHDG,148.3,0.0,E,,*27
$IIRMC,180000,A,4741.303,N,12224.485,W,03.5,164,020313,16,E,A*1E
$GPRMC,180049.6,A,4741.30336,N,12224.48481,W,003.62,164.4,020313,016.6,E*4F
$YXXDR,A,4.7,D,PTCH,A,-6.3,D,ROLL*76
$IIVHW,,,,,04.3,N,,*1E
$IIVLW,06175,N,002.9,N*5D
$IIDPT,027.7,-1.0,*42
$GPRMC,180049.8,A,4741.30318,N,12224.48468,W,003.62,162.9,020313,016.6,E*41
$GPRMC,180050.0,A,4741.30304,N,12224.48448,W,003.60,162.8,020313,016.6,E*4D
$HCHDG,148.3,0.0,E,,*27
$YXXDR,A,4.7,D,PTCH,A,-6.2,D,ROLL*77
$GPRMC,180050.2,A,4741.30287,N,12224.48439,W,003.58,161.8,020313,016.6,E*4B
$IIGLL,4741.303,N,12224.484,W,180000,A,A*42
$GPRMC,180050.4,A,4741.30272,N,12224.48428,W,003.56,160.7,020313,016.6,E*47
$GPRMB,A,,,,,4740.4440,N,12220.0640,W,2368.60,17,1.50,*37
$IIMTW,+08.0,C*30
$HCHDG,148.0,0.0,E,,*24
$IIRMC,180000,A,4741.303,N,12224.484,W,03.6,162,020313,16,E,A*1A
$YXXDR,A,4.1,D,PTCH,A,-5.1,D,ROLL*71
$GPRMC,180050.6,A,4741.30248,N,12224.48415,W,003.55,161.6,020313,016.6,E*41
$IIVHW,,,,,04.3,N,,*1E
$IIVLW,06175,N,003.0,N*55
$IIDPT,027.3,-1.0,*46
$GPRMC,180050.8,A,4741.30224,N,12224.48404,W,003.53,163.1,020313,016.6,E*46
$GPRMC,180051.0,A,4741.30208,N,12224.48392,W,003.49,165.9,020313,016.6,E*4C
$HCHDG,148.8,0.0,E,,*2C
$YXXDR,A,4.6,D,PTCH,A,-5.5,D,ROLL*72
$GPRMC,180051.2,A,4741.30197,N,12224.48380,W,003.27,166.7,020313,016.6,E*4D
$IIGLL,4741.302,N,12224.483,W,180000,A,A*44
$GPRMC,180051.4,A,4741.30179,N,12224.48374,W,003.32,167.1,020313,016.6,E*43
$IIMTW,+08.0,C*30
$HCHDG,150.0,0.0,E,,*2D
$IIRMC,180000,A,4741.302,N,12224.483,W,03.4,165,020313,16,E,A*19
$YXXDR,A,5.1,D,PTCH,A,-4.7,D,ROLL*77
$GPRMC,180051.6,A,4741.30169,N,12224.48361,W,003.57,164.6,020313,016.6,E*43
$GPRMB,A,,,,,4740.4440,N,12220.0640,W,2365.05,17,-0.12,*13
$IIVHW,,,,,04.2,N,,*1F
$IIVLW,06175,N,003.0,N*55
$IIDPT,027.3,-1.0,*46
$GPRMC,180051.8,A,4741.30160,N,12224.48346,W,003.41,164.8,020313,016.6,E*48
$GPRMC,180052.0,A,4741.30142,N,12224.48331,W,003.43,168.3,020313,016.6,E*46
$HCHDG,149.9,0.0,E,,*2C
$YXXDR,A,4.7,D,PTCH,A,-2.9,D,ROLL*78
$GPRMC,180052.2,A,4741.30115,N,12224.48319,W,003.42,170.8,020313,016.6,E*4F
$GPRMC,180052.4,A,4741.30101,N,12224.48316,W,003.17,172.9,020313,016.6,E*40
$IIGLL,4741.301,N,12224.483,W,180000,A,A*47
$IIMTW,+08.0,C*30
$HCHDG,149.9,0.0,E,,*2C
$IIRMC,180000,A,4741.301,N,12224.483,W,03.4,168,020313,16,E,A*17
$YXXDR,A,4.9,D,PTCH,A,-2.6,D,ROLL*79
$GPRMC,180052.6,A,4741.30089,N,12224.48312,W,003.17,171.7,020313,016.6,E*4A
$IIVHW,,,,,04.1,N,,*1C
$IIVLW,06175,N,003.0,N*55
$IIDPT,027.2,-1.0,*47
$GPRMC,180052.8,A,4741.30072,N,12224.48300,W,002.84,167.6,020313,016.6,E*4E
$GPRMB,A,,,,,4740.4440,N,12220.0640,W,2361.72,17,2.28,*31
$GPRMC,180053.0,A,4741.30059,N,12224.48288,W,003.18,164.5,020313,016.6,E*4B
$HCHDG,147.4,0.0,E,,*2F
$YXXDR,A,5.0,D,PTCH,A,0.5,D,ROLL*5D
$GPRMC,180053.2,A,4741.30044,N,12224.48289,W,003.26,163.3,020313,016.6,E*48
$GPRMC,180053.4,A,4741.30028,N,12224.48281,W,003.27,161.3,020313,016.6,E*4F
$IIGLL,4741.300,N,12224.482,W,180000,A,A*47
$IIMTW,+08.0,C*30
$HCHDG,144.7,0.0,E,,*2F
$IIRMC,180000,A,4741.300,N,12224.482,W,03.1,164,020313,16,E,A*1E
$GPRMC,180053.6,A,4741.30012,N,12224.48273,W,003.23,162.8,020313,016.6,E*45
$YXXDR,A,4.8,D,PTCH,A,1.1,D,ROLL*51
$IIVHW,,,,,04.1,N,,*1C
$IIVLW,06175,N,003.0,N*55
$IIDPT,026.6,-1.0,*42
$GPRMC,180053.8,A,4741.29998,N,12224.48260,W,003.21,161.4,020313,016.6,E*47
$GPRMB,A,,,,,4740.4440,N,12220.0640,W,2359.20,17,-2.95,*16
$GPRMC,180054.0,A,4741.29983,N,12224.48245,W,003.14,159.3,020313,016.6,E*4F
$HCHDG,143.0,0.0,E,,*2F
$YXXDR,A,5.3,D,PTCH,A,-0.3,D,ROLL*75
$GPRMC,180054.2,A,4741.29968,N,12224.48240,W,002.96,159.8,020313,016.6,E*4D
$GPRMC,180054.4,A,4741.29952,N,12224.48238,W,002.99,163.0,020313,016.6,E*43
$IIGLL,4741.299,N,12224.482,W,180000,A,A*46
$IIMTW,+08.0,C*30
$HCHDG,141.4,0.0,E,,*29
$IIRMC,180000,A,4741.299,N,12224.482,W,03.1,159,020313,16,E,A*11
$YXXDR,A,5.2,D,PTCH,A,-1.2,D,ROLL*74
$GPRMC,180054.6,A,4741.29939,N,12224.48233,W,002.99,162.3,020313,016.6,E*45
$IIVHW,,,,,04.0,N,,*1D
$IIVLW,06175,N,003.0,N*55
$IIDPT,026.6,-1.0,*42
$GPRMC,180054.8,A,4741.29926,N,12224.48228,W,003.01,162.3,020313,016.6,E*4F
$GPRMC,180055.0,A,4741.29910,N,12224.48221,W,002.95,158.4,020313,016.6,E*48
$GPRMB,A,,,,,4740.4440,N,12220.0640,W,2356.23,17,0.78,*36
$HCHDG,139.7,0.0,E,,*25
$YXXDR,A,4.9,D,PTCH,A,-0.9,D,ROLL*74
$GPRMC,180055.2,A,4741.29900,N,12224.48217,W,002.95,155.3,020313,016.6,E*44
$GPRMC,180055.4,A,4741.29886,N,12224.48214,W,003.14,153.7,020313,016.6,E*44
$IIGLL,4741.299,N,12224.482,W,180000,A,A*46
$IIMTW,+08.0,C*30
$HCHDG,137.0,0.0,E,,*2C
$IIRMC,180000,A,4741.299,N,12224.482,W,02.9,158,020313,16,E,A*19
$YXXDR,A,5.0,D,PTCH,A,-0.5,D,ROLL*70
$GPRMC,180055.6,A,4741.29872,N,12224.48206,W,003.07,150.6,020313,016.6,E*4E
$IIVHW,,,,,03.9,N,,*13
$IIVLW,06175,N,003.0,N*55
$IIDPT,026.6,-1.0,*42
$GPRMC,180055.8,A,4741.29855,N,12224.48200,W,003.07,150.2,020313,016.6,E*47
$GPRMC,180056.0,A,4741.29839,N,12224.48187,W,003.00,147.8,020313,016.6,E*41
$GPRMB,A,,,,,4740.4440,N,12220.0640,W,2353.82,17,-2.87,*17
$HCHDG,134.8,0.0,E,,*27
$YXXDR,A,5.1,D,PTCH,A,-2.3,D,ROLL*75
$GPRMC,180056.2,A,4741.29822,N,12224.48174,W,002.78,148.1,020313,016.6,E*4D
$GPRMC,180056.4,A,4741.29809,N,12224.48161,W,002.83,151.8,020313,016.6,E*43
$IIGLL,4741.298,N,12224.481,W,180000,A,A*44
$IIMTW,+08.0,C*30
$HCHDG,134.0,0.0,E,,*2F
$IIRMC,180000,A,4741.298,N,12224.481,W,03.0,147,020313,16,E,A*1D
$YXXDR,A,5.1,D,PTCH,A,-5.0,D,ROLL*71
$GPRMC,180056.6,A,4741.29796,N,12224.48153,W,002.80,152.7,020313,016.6,E*46
$IIVHW,,,,,03.9,N,,*13
$IIVLW,06175,N,003.0,N*55
$IIDPT,026.3,-1.0,*47
$GPRMC,180056.8,A,4741.29781,N,12224.48141,W,002.83,150.1,020313,016.6,E*4A
$GPRMC,180057.0,A,4741.29765,N,12224.48131,W,003.09,149.0,020313,016.6,E*44
$HCHDG,132.2,0.0,E,,*2B
$YXXDR,A,4.7,D,PTCH,A,-5.9,D,ROLL*7F
$GPRMC,180057.2,A,4741.29750,N,12224.48121,W,003.12,143.3,020313,016.6,E*42
$GPRMB,A,,,,,4740.4440,N,12220.0640,W,2350.73,17,-3.11,*14
$GPRMC,180057.4,A,4741.29738,N,12224.48104,W,003.07,139.5,020313,016.6,E*42
$IIGLL,4741.297,N,12224.481,W,180000,A,A*4B
$IIMTW,+08.0,C*30
$HCHDG,130.3,0.0,E,,*28
$IIRMC,180000,A,4741.297,N,12224.481,W,03.0,149,020313,16,E,A*1C
$YXXDR,A,4.8,D,PTCH,A,-6.0,D,ROLL*7A
$GPRMC,180057.6,A,4741.29727,N,12224.48094,W,003.10,139.9,020313,016.6,E*4C
$IIVHW,,,,,03.8,N,,*12
$IIVLW,06175,N,003.0,N*55
$IIDPT,026.3,-1.0,*47
$GPRMC,180057.8,A,4741.29714,N,12224.48077,W,003.11,140.3,020313,016.6,E*4A
$GPRMC,180058.0,A,4741.29704,N,12224.48062,W,003.05,140.9,020313,016.6,E*47
$HCHDG,128.9,0.0,E,,*2B
$YXXDR,A,4.9,D,PTCH,A,-8.1,D,ROLL*74
$GPRMC,180058.2,A,4741.29689,N,12224.48048,W,003.04,143.5,020313,016.6,E*47
$GPRMC,180058.4,A,4741.29675,N,12224.48035,W,003.04,143.8,020313,016.6,E*45
$GPRMB,A,,,,,4740.4440,N,12220.0640,W,2348.05,17,2.74,*33
$IIGLL,4741.297,N,12224.480,W,180000,A,A*4A
$IIMTW,+08.0,C*30
$HCHDG,128.6,0.0,E,,*24
$IIRMC,180000,A,4741.297,N,12224.480,W,03.0,140,020313,16,E,A*14
$YXXDR,A,4.5,D,PTCH,A,-11.2,D,ROLL*43
$GPRMC,180058.6,A,4741.29662,N,12224.48027,W,002.99,144.8,020313,016.6,E*40
$IIVHW,,,,,03.7,N,,*1D
$IIVLW,06175,N,003.0,N*55
$IIDPT,026.3,-1.0,*47
$GPRMC,180058.8,A,4741.29647,N,12224.48009,W,002.98,144.7,020313,016.6,E*4B
$GPRMC,180059.0,A,4741.29638,N,12224.47994,W,002.98,144.0,020313,016.6,E*4F
$HCHDG,127.9,0.0,E,,*24
$YXXDR,A,4.6,D,PTCH,A,-11.2,D,ROLL*40
$GPRMC,180059.2,A,4741.29625,N,12224.47972,W,003.14,141.2,020313,016.6,E*4B
$GPRMC,180059.4,A,4741.29610,N,12224.47955,W,003.20,139.4,020313,016.6,E*40
$IIGLL,4741.296,N,12224.479,W,180000,A,A*4D
$IIMTW,+08.0,C*30
$HCHDG,126.5,0.0,E,,*29
$IIRMC,180000,A,4741.296,N,12224.479,W,02.9,144,020313,16,E,A*1F
$YXXDR,A,4.6,D,PTCH,A,-10.5,D,ROLL*46
$GPRMC,180059.6,A,4741.29593,N,12224.47934,W,003.44,136.8,020313,016.6,E*4C
$GPRMB,A,,,,,4740.4440,N,12220.0640,W,2345.10,17,0.23,*3A
$IIVHW,,,,,03.7,N,,*1D
$IIVLW,06175,N,003.0,N*55
$IIDPT,026.1,-1.0,*45
$GPRMC,180059.8,A,4741.29581,N,12224.47916,W,003.44,134.8,020313,016.6,E*43
$GPRMC,180100.0,A,4741.29567,N,12224.47901,W,003.44,133.3,020313,016.6,E*44
$HCHDG,124.9,0.0,E,,*27
$YXXDR,A,4.5,D,PTCH,A,-9.8,D,ROLL*70
$GPRMC,180100.2,A,4741.29557,N,12224.47887,W,003.42,134.8,020313,016.6,E*40
$GPRMC,180100.4,A,4741.29548,N,12224.47866,W,003.11,132.3,020313,016.6,E*4C
$IIGLL,4741.295,N,12224.479,W,180100,A,A*4F
$IIMTW,+08.0,C*30
$HCHDG,124.4,0.0,E,,*2A
$IIRMC,180100,A,4741.295,N,12224.479,W,03.4,133,020313,16,E,A*11
$YXXDR,A,4.7,D,PTCH,A,-11.0,D,ROLL*43
$GPRMC,180100.6,A,4741.29539,N,12224.47843,W,003.16,134.5,020313,016.6,E*48
$GPRMB,A,,,,,4740.4440,N,12220.0640,W,2343.09,17,-0.31,*1A
$IIVHW,,,,,03.7,N,,*1D
$IIVLW,06175,N,003.0,N*55
$IIDPT,026.1,-1.0,*45
$GPRMC,180100.8,A,4741.29529,N,12224.47823,W,003.18,138.5,020313,016.6,E*43
$GPRMC,180101.0,A,4741.29519,N,12224.47802,W,003.54,137.9,020313,016.6,E*41
$HCHDG,125.6,0.0,E,,*29
$YXXDR,A,4.7,D,PTCH,A,-12.5,D,ROLL*45
$GPRMC,180101.2,A,4741.29512,N,12224.47781,W,003.48,140.0,020313,016.6,E*48
$GPRMC,180101.4,A,4741.29495,N,12224.47763,W,003.71,138.0,020313,016.6,E*49
$IIGLL,4741.295,N,12224.478,W,180100,A,A*4E
$IIMTW,+08.0,C*30
$HCHDG,126.0,0.0,E,,*2C
$IIRMC,180100,A,4741.295,N,12224.478,W,03.5,137,020313,16,E,A*15
$YXXDR,A,4.8,D,PTCH,A,-11.2,D,ROLL*4E
$GPRMC,180101.6,A,4741.29484,N,12224.47740,W,003.71,138.2,020313,016.6,E*48
$GPRMB,A,,,,,4740.4440,N,12220.0640,W,2341.01,17,3.71,*3A
$IIVHW,,,,,03.7,N,,*1D
$IIVLW,06175,N,003.0,N*55
$IIDPT,026.1,-1.0,*45
$GPRMC,180101.8,A,4741.29474,N,12224.47715,W,003.55,137.9,020313,016.6,E*4B
$GPRMC,180102.0,A,4741.29463,N,12224.47691,W,003.50,137.0,020313,016.6,E*47
$HCHDG,126.0,0.0,E,,*2C
$YXXDR,A,4.6,D,PTCH,A,-11.4,D,ROLL*46
$GPRMC,180102.2,A,4741.29454,N,12224.47668,W,003.43,136.9,020313,016.6,E*4D
$GPRMC,180102.4,A,4741.29443,N,12224.47644,W,003.49,135.8,020313,016.6,E*4B
$IIGLL,4741.294,N,12224.476,W,180100,A,A*41
$IIMTW,+08.0,C*30
$HCHDG,125.9,0.0,E,,*26
$IIRMC,180100,A,4741.294,N,12224.476,W,03.5,137,020313,16,E,A*1A
$YXXDR,A,4.5,D,PTCH,A,-11.9,D,ROLL*48
$GPRMC,180102.6,A,4741.29429,N,12224.47622,W,003.56,134.4,020313,016.6,E*46
$GPRMB,A,,,,,4740.4440,N,12220.0640,W,2338.89,17,-2.16,*19
$IIVHW,,,,,03.7,N,,*1D
$IIVLW,06175,N,003.0,N*55
$IIDPT,025.7,-1.0,*40
$GPRMC,180102.8,A,4741.29413,N,12224.47604,W,003.78,134.3,020313,016.6,E*4E
$GPRMC,180103.0,A,4741.29398,N,12224.47583,W,003.77,134.1,020313,016.6,E*42
$HCHDG,125.7,0.0,E,,*28
$YXXDR,A,4.3,D,PTCH,A,-11.5,D,ROLL*42
$GPRMC,180103.2,A,4741.29380,N,12224.47561,W,003.73,133.1,020313,016.6,E*46
$IIGLL,4741.293,N,12224.475,W,180100,A,A*45
$GPRMC,180103.4,A,4741.29364,N,12224.47540,W,003.67,135.1,020313,016.6,E*4A
$IIMTW,+08.0,C*30
$HCHDG,126.0,0.0,E,,*2C
$IIRMC,180100,A,4741.293,N,12224.475,W,03.7,134,020313,16,E,A*1F
$YXXDR,A,4.6,D,PTCH,A,-13.6,D,ROLL*46
$GPRMC,180103.6,A,4741.29350,N,12224.47515,W,003.61,137.5,020313,016.6,E*4F
$IIVHW,,,,,03.8,N,,*12
$IIVLW,06175,N,003.0,N*55
$IIDPT,025.7,-1.0,*40
$GPRMC,180103.8,A,4741.29333,N,12224.47493,W,003.53,141.3,020313,016.6,E*4D
$GPRMB,A,,,,,4740.4440,N,12220.0640,W,2335.40,17,-0.54,*15
$GPRMC,180104.0,A,4741.29319,N,12224.47475,W,003.53,142.2,020313,016.6,E*40
$HCHDG,127.7,0.0,E,,*2A
$YXXDR,A,4.8,D,PTCH,A,-15.4,D,ROLL*4C
$GPRMC,180104.2,A,4741.29303,N,12224.47459,W,003.88,142.3,020313,016.6,E*40
$GPRMC,180104.4,A,4741.29291,N,12224.47436,W,003.90,139.4,020313,016.6,E*47
$IIGLL,4741.293,N,12224.474,W,180100,A,A*44
$IIMTW,+08.0,C*30
$HCHDG,127.3,0.0,E,,*2E
$IIRMC,180100,A,4741.293,N,12224.474,W,03.5,142,020313,16,E,A*1D
$YXXDR,A,4.7,D,PTCH,A,-11.4,D,ROLL*47
$GPRMC,180104.6,A,4741.29279,N,12224.47412,W,003.93,136.4,020313,016.6,E*49
$IIVHW,,,,,03.8,N,,*12
$IIVLW,06175,N,003.0,N*55
$IIDPT,025.7,-1.0,*40
$GPRMC,180104.8,A,4741.29264,N,12224.47384,W,003.95,133.4,020313,016.6,E*40
$GPRMC,180105.0,A,4741.29245,N,12224.47357,W,003.96,133.9,020313,016.6,E*4A
$GPRMB,A,,,,,4740.4440,N,12220.0640,W,2332.16,17,1.09,*35
$HCHDG,126.6,0.0,E,,*2A
$YXXDR,A,3.9,D,PTCH,A,-11.0,D,ROLL*4A
$GPRMC,180105.2,A,4741.29232,N,12224.47338,W,003.75,133.1,020313,016.6,E*44
$GPRMC,180105.4,A,4741.29220,N,12224.47315,W,003.80,136.4,020313,016.6,E*44
$IIGLL,4741.292,N,12224.473,W,180100,A,A*42
$IIMTW,+08.0,C*30
$HCHDG,127.3,0.0,E,,*2E
$IIRMC,180100,A,4741.292,N,12224.473,W,03.9,133,020313,16,E,A*11
$YXXDR,A,4.2,D,PTCH,A,-13.7,D,ROLL*43
$GPRMC,180105.6,A,4741.29204,N,12224.47298,W,003.72,136.7,020313,016.6,E*4A
$IIVHW,,,,,03.9,N,,*13
$IIVLW,06175,N,003.0,N*55
$IIDPT,025.4,-1.0,*43
$GPRMC,180105.8,A,4741.29186,N,12224.47283,W,003.73,142.5,020313,016.6,E*47
$GPRMC,180106.0,A,4741.29169,N,12224.47264,W,003.74,143.1,020313,016.6,E*46
$GPRMB,A,,,,,4740.4440,N,12220.0640,W,2329.42,17,-1.41,*1F
$HCHDG,129.2,0.0,E,,*21
$YXXDR,A,4.7,D,PTCH,A,-16.9,D,ROLL*4D
$GPRMC,180106.2,A,4741.29151,N,12224.47242,W,003.79,144.2,020313,016.6,E*42
$GPRMC,180106.4,A,4741.29135,N,12224.47226,W,003.80,144.8,020313,016.6,E*48
$IIGLL,4741.291,N,12224.472,W,180100,A,A*40
$IIMTW,+08.0,C*30
$HCHDG,130.4,0.0,E,,*2F
$IIRMC,180100,A,4741.291,N,12224.472,W,03.7,143,020313,16,E,A*1A
$YXXDR,A,4.3,D,PTCH,A,-16.3,D,ROLL*43
$GPRMC,180106.6,A,4741.29118,N,12224.47209,W,004.11,145.1,020313,016.6,E*4F
$IIVHW,,,,,04.0,N,,*1D
$IIVLW,06175,N,003.0,N*55
$IIDPT,025.4,-1.0,*43
$GPRMC,180106.8,A,4741.29109,N,12224.47187,W,004.11,143.6,020313,016.6,E*45
$GPRMC,180107.0,A,4741.29097,N,12224.47165,W,004.10,140.5,020313,016.6,E*47
$HCHDG,130.2,0.0,E,,*29
$YXXDR,A,3.8,D,PTCH,A,-14.4,D,ROLL*4A
$GPRMC,180107.2,A,4741.29080,N,12224.47149,W,004.14,139.2,020313,016.6,E*40
$GPRMB,A,,,,,4740.4440,N,12220.0640,W,2326.20,17,2.93,*35
$GPRMC,180107.4,A,4741.29065,N,12224.47128,W,004.15,138.3,020313,016.6,E*4B
$IIGLL,4741.290,N,12224.471,W,180100,A,A*42
$IIMTW,+08.0,C*30
$HCHDG,129.1,0.0,E,,*22
$IIRMC,180100,A,4741.290,N,12224.471,W,04.1,140,020313,16,E,A*1A
$YXXDR,A,4.5,D,PTCH,A,-12.3,D,ROLL*41
$GPRMC,180107.6,A,4741.29049,N,12224.47102,W,003.91,137.0,020313,016.6,E*48
$IIVHW,,,,,04.1,N,,*1C
$IIVLW,06175,N,003.0,N*55
$IIDPT,025.0,-1.0,*47
$GPRMC,180107.8,A,4741.29026,N,12224.47074,W,004.08,139.0,020313,016.6,E*46
$GPRMC,180108.0,A,4741.29012,N,12224.47051,W,004.13,141.4,020313,016.6,E*40
$HCHDG,130.0,0.0,E,,*2B
$YXXDR,A,4.3,D,PTCH,A,-15.6,D,ROLL*45
$GPRMC,180108.2,A,4741.28997,N,12224.47033,W,004.15,144.3,020313,016.6,E*47
$GPRMC,180108.4,A,4741.28981,N,12224.47014,W,004.19,143.5,020313,016.6,E*4E
$GPRMB,A,,,,,4740.4440,N,12220.0640,W,2322.61,17,-2.15,*17
$IIGLL,4741.290,N,12224.470,W,180100,A,A*43
$IIMTW,+08.0,C*30
$HCHDG,131.9,0.0,E,,*23
$IIRMC,180100,A,4741.290,N,12224.470,W,04.1,141,020313,16,E,A*1A
$GPRMC,180108.6,A,4741.28968,N,12224.47000,W,004.22,143.8,020313,016.6,E*4B
$YXXDR,A,4.1,D,PTCH,A,-17.6,D,ROLL*45
$IIVHW,,,,,04.1,N,,*1C
$IIVLW,06175,N,003.0,N*55
$IIDPT,025.0,-1.0,*47
$GPRMC,180108.8,A,4741.28951,N,12224.46984,W,004.20,145.8,020313,016.6,E*4F
$GPRMC,180109.0,A,4741.28932,N,12224.46962,W,004.24,146.2,020313,016.6,E*46
$HCHDG,132.8,0.0,E,,*21
$YXXDR,A,3.9,D,PTCH,A,-17.6,D,ROLL*4A
$GPRMC,180109.2,A,4741.28906,N,12224.46943,W,004.26,147.8,020313,016.6,E*49
$GPRMC,180109.4,A,4741.28885,N,12224.46924,W,004.49,147.5,020313,016.6,E*40
$IIGLL,4741.289,N,12224.469,W,180100,A,A*43
$IIMTW,+08.0,C*30
$HCHDG,133.2,0.0,E,,*2A
$IIRMC,180100,A,4741.289,N,12224.469,W,04.2,146,020313,16,E,A*1E
$GPRMC,180109.6,A,4741.28862,N,12224.46911,W,004.15,145.8,020313,016.6,E*4B
$GPRMB,A,,,,,4740.4440,N,12220.0640,W,2318.44,17,-1.51,*1A
$YXXDR,A,4.4,D,PTCH,A,-18.2,D,ROLL*4B
$IIVHW,,,,,04.2,N,,*1F
$IIVLW,06175,N,003.0,N*55
$IIDPT,025.0,-1.0,*47
$GPRMC,180109.8,A,4741.28843,N,12224.46901,W,004.22,144.3,020313,016.6,E*49
$GPRMC,180110.0,A,4741.28825,N,12224.46886,W,004.38,145.1,020313,016.6,E*4F
$HCHDG,133.1,0.0,E,,*29
$YXXDR,A,3.5,D,PTCH,A,-16.3,D,ROLL*42
$GPRMC,180110.2,A,4741.28807,N,12224.46870,W,004.40,143.2,020313,016.6,E*4E
$GPRMC,180110.4,A,4741.28797,N,12224.46858,W,004.38,143.0,020313,016.6,E*49
$IIGLL,4741.288,N,12224.468,W,180100,A,A*43
$IIMTW,+08.0,C*30
$HCHDG,132.6,0.0,E,,*2F
$IIRMC,180100,A,4741.288,N,12224.468,W,04.3,145,020313,16,E,A*1C
$GPRMC,180110.6,A,4741.28788,N,12224.46839,W,004.35,142.7,020313,016.6,E*49
$GPRMB,A,,,,,4740.4440,N,12220.0640,W,2315.83,17,4.21,*33
$YXXDR,A,3.3,D,PTCH,A,-15.1,D,ROLL*45
$IIVHW,,,,,04.3,N,,*1E
$IIVLW,06175,N,003.0,N*55
$IIDPT,025.0,-1.0,*47
$GPRMC,180110.8,A,4741.28769,N,12224.46819,W,004.05,143.8,020313,016.6,E*47
$GPRMC,180111.0,A,4741.28749,N,12224.46803,W,003.98,145.6,020313,016.6,E*4C
$HCHDG,133.8,0.0,E,,*20
$YXXDR,A,4.1,D,PTCH,A,-16.8,D,ROLL*4A
$GPRMC,180111.2,A,4741.28728,N,12224.46789,W,004.16,149.8,020313,016.6,E*47
$GPRMC,180111.4,A,4741.28713,N,12224.46776,W,004.22,152.7,020313,016.6,E*4B
$IIGLL,4741.287,N,12224.468,W,180100,A,A*4C
$IIMTW,+08.0,C*30
$HCHDG,136.9,0.0,E,,*24
$IIRMC,180100,A,4741.287,N,12224.468,W,03.9,145,020313,16,E,A*1E
$GPRMC,180111.6,A,4741.28693,N,12224.46758,W,004.49,153.8,020313,016.6,E*4F
$YXXDR,A,4.0,D,PTCH,A,-19.2,D,ROLL*4E
$IIVHW,,,,,04.4,N,,*19
$IIVLW,06175,N,003.0,N*55
$IIDPT,025.0,-1.0,*47
$GPRMC,180111.8,A,4741.28668,N,12224.46750,W,004.43,155.8,020313,016.6,E*41
$GPRMB,A,,,,,4740.4440,N,12220.0640,W,2311.68,17,-4.43,*1B
$GPRMC,180112.0,A,4741.28644,N,12224.46737,W,004.49,153.2,020313,016.6,E*43
$HCHDG,138.1,0.0,E,,*22
$YXXDR,A,4.3,D,PTCH,A,-15.8,D,ROLL*4B
$GPRMC,180112.2,A,4741.28623,N,12224.46723,W,004.51,152.4,020313,016.6,E*4B
$GPRMC,180112.4,A,4741.28604,N,12224.46709,W,004.51,151.0,020313,016.6,E*47
$IIGLL,4741.286,N,12224.467,W,180100,A,A*42
$IIMTW,+08.0,C*30
$HCHDG,137.2,0.0,E,,*2E
$IIRMC,180100,A,4741.286,N,12224.467,W,04.4,153,020313,16,E,A*1D
$GPRMC,180112.6,A,4741.28582,N,12224.46698,W,004.45,149.1,020313,016.6,E*4C
$YXXDR,A,4.3,D,PTCH,A,-11.4,D,ROLL*43
$IIVHW,,,,,04.4,N,,*19
$IIVLW,06175,N,003.0,N*55
$IIDPT,025.0,-1.0,*47
$GPRMC,180112.8,A,4741.28561,N,12224.46689,W,004.29,150.1,020313,016.6,E*4D
$GPRMC,180113.0,A,4741.28536,N,12224.46671,W,004.27,150.5,020313,016.6,E*4B
$GPRMB,A,,,,,4740.4440,N,12220.0640,W,2307.16,17,2.10,*38
$HCHDG,136.8,0.0,E,,*25
$YXXDR,A,4.4,D,PTCH,A,-10.2,D,ROLL*43
$GPRMC,180113.2,A,4741.28508,N,12224.46654,W,004.05,152.8,020313,016.6,E*4C
$GPRMC,180113.4,A,4741.28484,N,12224.46634,W,004.05,154.1,020313,016.6,E*46
$IIGLL,4741.285,N,12224.466,W,180100,A,A*40
$IIMTW,+08.0,C*30
$HCHDG,138.1,0.0,E,,*22
$IIRMC,180100,A,4741.285,N,12224.466,W,04.2,150,020313,16,E,A*1A
$YXXDR,A,4.3,D,PTCH,A,-10.6,D,ROLL*40
$GPRMC,180113.6,A,4741.28464,N,12224.46617,W,004.02,156.4,020313,016.6,E*4B
$IIVHW,,,,,04.5,N,,*18
$IIVLW,06175,N,003.0,N*55
$IIDPT,025.0,-1.0,*47
$GPRMC,180113.8,A,4741.28444,N,12224.46603,W,004.29,156.0,020313,016.6,E*4F
$GPRMC,180114.0,A,4741.28423,N,12224.46583,W,004.37,154.9,020313,016.6,E*4E
$HCHDG,138.5,0.0,E,,*26
$YXXDR,A,4.5,D,PTCH,A,-9.3,D,ROLL*7B
$GPRMC,180114.2,A,4741.28403,N,12224.46566,W,004.38,152.5,020313,016.6,E*40
$GPRMB,A,,,,,4740.4440,N,12220.0640,W,2302.53,17,-3.64,*13
$GPRMC,180114.4,A,4741.28382,N,12224.46553,W,004.37,150.3,020313,016.6,E*45
$IIGLL,4741.284,N,12224.465,W,180100,A,A*42
$IIMTW,+08.0,C*30
$HCHDG,137.3,0.0,E,,*2F
$IIRMC,180100,A,4741.284,N,12224.465,W,04.3,154,020313,16,E,A*1D
$YXXDR,A,4.6,D,PTCH,A,-6.4,D,ROLL*70
$GPRMC,180114.6,A,4741.28358,N,12224.46531,W,004.08,150.6,020313,016.6,E*4D
$IIVHW,,,,,04.6,N,,*1B
$IIVLW,06175,N,003.0,N*55
$IIDPT,023.4,-1.0,*45
$GPRMC,180114.8,A,4741.28340,N,12224.46515,W,004.12,151.1,020313,016.6,E*41
$GPRMC,180115.0,A,4741.28320,N,12224.46494,W,004.19,152.6,020313,016.6,E*49
$HCHDG,136.8,0.0,E,,*25
$YXXDR,A,4.5,D,PTCH,A,-6.7,D,ROLL*70
$GPRMC,180115.2,A,4741.28300,N,12224.46478,W,003.89,152.6,020313,016.6,E*45
$GPRMC,180115.4,A,4741.28280,N,12224.46459,W,003.89,150.3,020313,016.6,E*4E
$GPRMB,A,,,,,4740.4440,N,12220.0640,W,2298.23,17,-2.18,*1C
$IIGLL,4741.283,N,12224.464,W,180100,A,A*44
$IIMTW,+08.0,C*30
$HCHDG,137.2,0.0,E,,*2E
$IIRMC,180100,A,4741.283,N,12224.464,W,04.1,152,020313,16,E,A*1F
$GPRMC,180115.6,A,4741.28260,N,12224.46440,W,004.18,152.3,020313,016.6,E*47
$YXXDR,A,4.6,D,PTCH,A,-6.9,D,ROLL*7D
$IIVHW,,,,,04.5,N,,*18
$IIVLW,06175,N,003.0,N*55
$IIDPT,023.4,-1.0,*45
$GPRMC,180115.8,A,4741.28239,N,12224.46416,W,004.12,151.1,020313,016.6,E*4D
$GPRMC,180116.0,A,4741.28219,N,12224.46397,W,004.12,151.9,020313,016.6,E*42
$HCHDG,136.9,0.0,E,,*24
$YXXDR,A,4.6,D,PTCH,A,-6.4,D,ROLL*70
$GPRMC,180116.2,A,4741.28196,N,12224.46381,W,004.16,153.6,020313,016.6,E*4A
$GPRMC,180116.4,A,4741.28173,N,12224.46361,W,003.99,151.9,020313,016.6,E*44
$GPRMB,A,,,,,4740.4440,N,12220.0640,W,2294.48,17,3.66,*38
$IIGLL,4741.282,N,12224.463,W,180100,A,A*42
$IIMTW,+08.0,C*30
$HCHDG,137.0,0.0,E,,*2C
$IIRMC,180100,A,4741.282,N,12224.463,W,04.1,151,020313,16,E,A*1A
$YXXDR,A,4.8,D,PTCH,A,-6.4,D,ROLL*7E
$GPRMC,180116.6,A,4741.28152,N,12224.46344,W,004.04,151.1,020313,016.6,E*49
$IIVHW,,,,,04.5,N,,*18
$IIVLW,06175,N,003.0,N*55
$IIDPT,022.9,-1.0,*49
$GPRMC,180116.8,A,4741.28133,N,12224.46330,W,004.06,150.6,020313,016.6,E*47
$GPRMC,180117.0,A,4741.28112,N,12224.46310,W,004.06,149.6,020313,016.6,E*47
$HCHDG,136.8,0.0,E,,*25
$YXXDR,A,4.7,D,PTCH,A,-6.4,D,ROLL*71
$GPRMC,180117.2,A,4741.28090,N,12224.46287,W,004.09,148.1,020313,016.6,E*48
$GPRMC,180117.4,A,4741.28070,N,12224.46267,W,003.86,150.0,020313,016.6,E*46
$IIGLL,4741.281,N,12224.463,W,180100,A,A*41
$IIMTW,+08.0,C*30
$HCHDG,136.4,0.0,E,,*29
$IIRMC,180100,A,4741.281,N,12224.463,W,04.0,149,020313,16,E,A*11
$GPRMC,180117.6,A,4741.28047,N,12224.46249,W,003.86,150.0,020313,016.6,E*4C
$GPRMB,A,,,,,4740.4440,N,12220.0640,W,2290.06,17,-2.99,*1A
$YXXDR,A,4.6,D,PTCH,A,-7.3,D,ROLL*76
$IIVHW,,,,,04.5,N,,*18
$IIVLW,06175,N,003.0,N*55
$IIDPT,022.7,-1.0,*47
$GPRMC,180117.8,A,4741.28025,N,12224.46231,W,003.86,149.9,020313,016.6,E*48
$GPRMC,180118.0,A,4741.28006,N,12224.46214,W,003.84,150.0,020313,016.6,E*4A
$HCHDG,136.9,0.0,E,,*24
$YXXDR,A,4.5,D,PTCH,A,-8.5,D,ROLL*7C
$GPRMC,180118.2,A,4741.27984,N,12224.46204,W,003.83,150.9,020313,016.6,E*4B
$GPRMC,180118.4,A,4741.27960,N,12224.46198,W,003.98,151.0,020313,016.6,E*43
$IIGLL,4741.280,N,12224.462,W,180100,A,A*41
$IIMTW,+08.0,C*30
$HCHDG,136.8,0.0,E,,*25
$IIRMC,180100,A,4741.280,N,12224.462,W,03.8,150,020313,16,E,A*16
