$GPRMC,200000.4,A,4737.01886,N,12228.76116,W,006.01,226.1,020313,016.6,E*42
$IIMTW,+07.0,C*3F
$IIRMC,195900,A,4737.020,N,12228.759,W,05.7,219,020313,16,E,A*13
$HCHDG,203.6,0.0,E,,*2E
$GPRMC,200000.6,A,4737.01866,N,12228.76152,W,005.96,229.0,020313,016.6,E*4D
$GPRMB,A,,,,,4740.4440,N,12220.0640,W,9864.38,377,4.18,*0A
$YXXDR,A,3.6,D,PTCH,A,20.9,D,ROLL*63
$GPRMC,200000.8,A,4737.01840,N,12228.76189,W,005.48,229.1,020313,016.6,E*43
$GPRMC,200001.0,A,4737.01818,N,12228.76229,W,006.00,227.3,020313,016.6,E*4D
$HCHDG,204.5,0.0,E,,*2A
$YXXDR,A,3.9,D,PTCH,A,22.5,D,ROLL*62
$GPRMC,200001.2,A,4737.01798,N,12228.76264,W,005.67,222.8,020313,016.6,E*4D
$IIVHW,,,,,00.0,N,,*19
$IIVLW,06181,N,008.4,N*51
$IIGLL,4737.019,N,12228.760,W,200000,A,A*45
$GPRMC,200001.4,A,4737.01779,N,12228.76294,W,005.51,221.1,020313,016.6,E*44
$IIMTW,+07.0,C*3F
$IIRMC,200000,A,4737.019,N,12228.760,W,05.9,221,020313,16,E,A*10
$HCHDG,200.2,0.0,E,,*29
$GPRMC,200001.6,A,4737.01754,N,12228.76319,W,005.56,217.2,020313,016.6,E*4C
$GPRMB,A,,,,,4740.4440,N,12220.0640,W,9860.51,377,-5.50,*21
$YXXDR,A,4.6,D,PTCH,A,28.8,D,ROLL*6D
$GPRMC,200001.8,A,4737.01728,N,12228.76345,W,005.77,216.3,020313,016.6,E*43
$GPRMC,200002.0,A,4737.01704,N,12228.76367,W,005.75,216.9,020313,016.6,E*4E
$HCHDG,198.5,0.0,E,,*2C
$YXXDR,A,4.4,D,PTCH,A,28.3,D,ROLL*64
$GPRMC,200002.2,A,4737.01681,N,12228.76391,W,005.98,220.6,020313,016.6,E*40
$IIVHW,,,,,00.0,N,,*19
$IIVLW,06181,N,008.4,N*51
$IIGLL,4737.018,N,12228.762,W,200000,A,A*46
$GPRMC,200002.4,A,4737.01656,N,12228.76425,W,005.97,224.2,020313,016.6,E*4B
$IIMTW,+07.0,C*3F
$IIRMC,200000,A,4737.018,N,12228.762,W,06.0,227,020313,16,E,A*1F
$HCHDG,202.1,0.0,E,,*28
$GPRMC,200002.6,A,4737.01634,N,12228.76454,W,005.90,225.7,020313,016.6,E*48
$YXXDR,A,3.9,D,PTCH,A,23.2,D,ROLL*64
$GPRMC,200002.8,A,4737.01614,N,12228.76482,W,005.66,227.2,020313,016.6,E*41
$GPRMB,A,,,,,4740.4440,N,12220.0640,W,9855.77,377,-1.32,*23
$GPRMC,200003.0,A,4737.01590,N,12228.76511,W,005.60,224.6,020313,016.6,E*4D
$HCHDG,203.6,0.0,E,,*2E
$YXXDR,A,4.6,D,PTCH,A,24.8,D,ROLL*61
$GPRMC,200003.2,A,4737.01567,N,12228.76533,W,005.53,220.0,020313,016.6,E*45
$IIVHW,,,,,00.0,N,,*19
$IIVLW,06181,N,008.4,N*51
$IIGLL,4737.017,N,12228.763,W,200000,A,A*48
$GPRMC,200003.4,A,4737.01545,N,12228.76551,W,005.32,220.5,020313,016.6,E*45
$IIMTW,+07.0,C*3F
$IIRMC,200000,A,4737.017,N,12228.763,W,05.7,216,020313,16,E,A*17
$HCHDG,200.0,0.0,E,,*2B
$GPRMC,200003.6,A,4737.01525,N,12228.76573,W,005.66,217.7,020313,016.6,E*46
$YXXDR,A,4.1,D,PTCH,A,29.4,D,ROLL*67
$GPRMC,200003.8,A,4737.01501,N,12228.76593,W,005.65,217.2,020313,016.6,E*46
$GPRMC,200004.0,A,4737.01480,N,12228.76617,W,005.47,220.1,020313,016.6,E*49
$GPRMB,A,,,,,4740.4440,N,12220.0640,W,9851.27,377,5.36,*0F
$HCHDG,200.6,0.0,E,,*2D
$YXXDR,A,3.6,D,PTCH,A,26.8,D,ROLL*64
$GPRMC,200004.2,A,4737.01458,N,12228.76643,W,005.46,222.4,020313,016.6,E*49
$IIVHW,,,,,00.0,N,,*19
$IIVLW,06181,N,008.4,N*51
$IIGLL,4737.015,N,12228.765,W,200000,A,A*4C
$GPRMC,200004.4,A,4737.01436,N,12228.76677,W,005.48,223.4,020313,016.6,E*4F
$IIMTW,+07.0,C*3F
$IIRMC,200000,A,4737.015,N,12228.765,W,05.6,224,020313,16,E,A*13
$HCHDG,203.9,0.0,E,,*21
$GPRMC,200004.6,A,4737.01414,N,12228.76700,W,005.50,221.6,020313,016.6,E*45
$YXXDR,A,4.1,D,PTCH,A,23.5,D,ROLL*6C
$GPRMC,200004.8,A,4737.01388,N,12228.76729,W,005.78,223.2,020313,016.6,E*4E
$GPRMC,200005.0,A,4737.01363,N,12228.76760,W,005.53,223.4,020313,016.6,E*40
$GPRMB,A,,,,,4740.4440,N,12220.0640,W,9847.29,377,5.12,*00
$HCHDG,203.6,0.0,E,,*2E
$YXXDR,A,4.1,D,PTCH,A,26.4,D,ROLL*68
$GPRMC,200005.2,A,4737.01341,N,12228.76795,W,005.53,222.5,020313,016.6,E*48
$IIVHW,,,,,00.0,N,,*19
$IIVLW,06181,N,008.4,N*51
$IIGLL,4737.014,N,12228.766,W,200000,A,A*4E
$GPRMC,200005.4,A,4737.01321,N,12228.76826,W,005.53,222.5,020313,016.6,E*4F
$IIMTW,+07.0,C*3F
$IIRMC,200000,A,4737.014,N,12228.766,W,05.4,220,020313,16,E,A*17
$HCHDG,202.9,0.0,E,,*20
$GPRMC,200005.6,A,4737.01302,N,12228.76859,W,005.72,223.6,020313,016.6,E*45
$YXXDR,A,4.4,D,PTCH,A,26.7,D,ROLL*6E
$GPRMC,200005.8,A,4737.01277,N,12228.76895,W,005.73,224.6,020313,016.6,E*4E
$GPRMC,200006.0,A,4737.01252,N,12228.76932,W,005.97,224.7,020313,016.6,E*45
$GPRMB,A,,,,,4740.4440,N,12220.0640,W,9843.43,377,5.16,*0C
$HCHDG,203.4,0.0,E,,*2C
$YXXDR,A,4.0,D,PTCH,A,25.1,D,ROLL*6F
$GPRMC,200006.2,A,4737.01229,N,12228.76974,W,005.35,225.9,020313,016.6,E*4E
$IIVHW,,,,,00.0,N,,*19
$IIVLW,06181,N,008.4,N*51
$IIGLL,4737.013,N,12228.767,W,200000,A,A*48
$GPRMC,200006.4,A,4737.01208,N,12228.77007,W,005.68,228.4,020313,016.6,E*4F
$IIMTW,+07.0,C*3F
$IIRMC,200000,A,4737.013,N,12228.767,W,05.5,223,020313,16,E,A*13
$HCHDG,203.7,0.0,E,,*2F
$GPRMC,200006.6,A,4737.01189,N,12228.77039,W,005.67,224.6,020313,016.6,E*4B
$YXXDR,A,4.3,D,PTCH,A,25.1,D,ROLL*6C
$GPRMC,200006.8,A,4737.01170,N,12228.77069,W,005.19,222.2,020313,016.6,E*4D
$GPRMC,200007.0,A,4737.01152,N,12228.77099,W,005.21,219.7,020313,016.6,E*4D
$HCHDG,200.8,0.0,E,,*23
$YXXDR,A,4.8,D,PTCH,A,28.4,D,ROLL*6F
$GPRMC,200007.2,A,4737.01128,N,12228.77136,W,005.41,216.2,020313,016.6,E*4A
$GPRMB,A,,,,,4740.4440,N,12220.0640,W,9839.09,377,-4.49,*29
$IIVHW,,,,,00.0,N,,*19
$IIVLW,06181,N,008.4,N*51
$IIGLL,4737.012,N,12228.769,W,200000,A,A*47
$GPRMC,200007.4,A,4737.01101,N,12228.77158,W,005.66,216.1,020313,016.6,E*49
$IIMTW,+07.0,C*3F
$IIRMC,200000,A,4737.012,N,12228.769,W,05.9,224,020313,16,E,A*17
$HCHDG,199.9,0.0,E,,*21
$GPRMC,200007.6,A,4737.01080,N,12228.77180,W,005.71,219.5,020313,016.6,E*4B
$YXXDR,A,3.9,D,PTCH,A,26.5,D,ROLL*66
$GPRMC,200007.8,A,4737.01065,N,12228.77202,W,005.72,223.8,020313,016.6,E*40
$GPRMC,200008.0,A,4737.01038,N,12228.77253,W,006.01,227.8,020313,016.6,E*48
$HCHDG,204.4,0.0,E,,*2B
$YXXDR,A,3.8,D,PTCH,A,20.1,D,ROLL*65
$GPRMC,200008.2,A,4737.01016,N,12228.77286,W,006.02,229.6,020313,016.6,E*4D
$IIVHW,,,,,00.0,N,,*19
$IIVLW,06181,N,008.4,N*51
$IIGLL,4737.011,N,12228.770,W,200000,A,A*4C
$GPRMC,200008.4,A,4737.00997,N,12228.77325,W,005.97,229.9,020313,016.6,E*42
$GPRMB,A,,,,,4740.4440,N,12220.0640,W,9834.56,377,-3.04,*20
$IIMTW,+07.0,C*3F
$IIRMC,200000,A,4737.011,N,12228.770,W,05.2,219,020313,16,E,A*19
$GPRMC,200008.6,A,4737.00980,N,12228.77365,W,005.93,229.2,020313,016.6,E*4D
$HCHDG,205.5,0.0,E,,*2B
$YXXDR,A,4.5,D,PTCH,A,20.7,D,ROLL*69
$GPRMC,200008.8,A,4737.00960,N,12228.77400,W,005.47,225.2,020313,016.6,E*4C
$GPRMC,200009.0,A,4737.00937,N,12228.77434,W,005.26,222.0,020313,016.6,E*42
$HCHDG,200.1,0.0,E,,*2A
$YXXDR,A,4.8,D,PTCH,A,27.8,D,ROLL*6C
$GPRMC,200009.2,A,4737.00909,N,12228.77469,W,005.00,218.2,020313,016.6,E*4A
$IIVHW,,,,,00.0,N,,*19
$IIVLW,06181,N,008.4,N*51
$IIGLL,4737.010,N,12228.772,W,200000,A,A*4F
$GPRMC,200009.4,A,4737.00884,N,12228.77501,W,004.93,214.5,020313,016.6,E*47
$GPRMB,A,,,,,4740.4440,N,12220.0640,W,9830.63,377,4.06,*0A
$IIMTW,+07.0,C*3F
$IIRMC,200000,A,4737.010,N,12228.772,W,06.0,227,020313,16,E,A*16
$HCHDG,198.0,0.0,E,,*29
$GPRMC,200009.6,A,4737.00862,N,12228.77526,W,004.91,214.0,020313,016.6,E*4F
$YXXDR,A,5.0,D,PTCH,A,27.5,D,ROLL*68
$GPRMC,200009.8,A,4737.00836,N,12228.77550,W,004.98,215.3,020313,016.6,E*4A
$GPRMC,200010.0,A,4737.00819,N,12228.77569,W,004.95,218.0,020313,016.6,E*4E
$HCHDG,201.8,0.0,E,,*22
$YXXDR,A,3.8,D,PTCH,A,20.2,D,ROLL*66
$GPRMC,200010.2,A,4737.00799,N,12228.77591,W,005.03,222.0,020313,016.6,E*4B
$IIVHW,,,,,00.0,N,,*19
$IIVLW,06181,N,008.4,N*51
$IIGLL,4737.009,N,12228.774,W,200000,A,A*41
$GPRMC,200010.4,A,4737.00779,N,12228.77622,W,005.28,223.8,020313,016.6,E*48
$IIMTW,+07.0,C*3F
$IIRMC,200000,A,4737.009,N,12228.774,W,05.2,222,020313,16,E,A*1C
$GPRMC,200010.6,A,4737.00760,N,12228.77640,W,005.24,225.9,020313,016.6,E*4D
$GPRMB,A,,,,,4740.4440,N,12220.0640,W,9826.43,377,3.34,*09
$HCHDG,207.9,0.0,E,,*25
$YXXDR,A,4.1,D,PTCH,A,16.2,D,ROLL*6D
$GPRMC,200010.8,A,4737.00743,N,12228.77681,W,005.30,229.0,020313,016.6,E*4F
$GPRMC,200011.0,A,4737.00728,N,12228.77711,W,005.30,228.3,020313,016.6,E*41
$HCHDG,210.3,0.0,E,,*29
$YXXDR,A,5.2,D,PTCH,A,18.3,D,ROLL*60
$GPRMC,200011.2,A,4737.00717,N,12228.77735,W,005.36,231.9,020313,016.6,E*4D
$IIVHW,,,,,00.0,N,,*19
$IIVLW,06181,N,008.4,N*51
$IIGLL,4737.008,N,12228.775,W,200000,A,A*41
$GPRMC,200011.4,A,4737.00699,N,12228.77762,W,005.55,231.8,020313,016.6,E*4A
$IIMTW,+07.0,C*3F
$IIRMC,200000,A,4737.008,N,12228.775,W,04.9,218,020313,16,E,A*1F
$HCHDG,211.4,0.0,E,,*2F
$GPRMC,200011.6,A,4737.00684,N,12228.77789,W,005.71,235.0,020313,016.6,E*4B
$GPRMB,A,,,,,4740.4440,N,12220.0640,W,9823.71,377,3.12,*09
$YXXDR,A,4.6,D,PTCH,A,20.2,D,ROLL*6F
$GPRMC,200011.8,A,4737.00667,N,12228.77823,W,005.55,236.6,020313,016.6,E*44
$GPRMC,200012.0,A,4737.00653,N,12228.77861,W,005.20,238.6,020313,016.6,E*42
$HCHDG,214.1,0.0,E,,*2F
$YXXDR,A,4.6,D,PTCH,A,18.9,D,ROLL*6F
$GPRMC,200012.2,A,4737.00638,N,12228.77893,W,005.14,234.8,020313,016.6,E*45
$IIVHW,,,,,00.0,N,,*19
$IIVLW,06181,N,008.4,N*51
$IIGLL,4737.007,N,12228.777,W,200000,A,A*4C
$GPRMC,200012.4,A,4737.00617,N,12228.77925,W,005.10,229.5,020313,016.6,E*47
$IIMTW,+07.0,C*3F
$IIRMC,200000,A,4737.007,N,12228.777,W,05.3,228,020313,16,E,A*1A
$HCHDG,210.2,0.0,E,,*28
$GPRMC,200012.6,A,4737.00590,N,12228.77963,W,005.31,227.1,020313,016.6,E*42
$YXXDR,A,4.6,D,PTCH,A,25.5,D,ROLL*6D
$GPRMC,200012.8,A,4737.00564,N,12228.78004,W,005.34,223.2,020313,016.6,E*42
$GPRMB,A,,,,,4740.4440,N,12220.0640,W,9819.46,377,0.36,*01
$GPRMC,200013.0,A,4737.00545,N,12228.78032,W,005.66,225.4,020313,016.6,E*4A
$HCHDG,208.3,0.0,E,,*20
$YXXDR,A,4.7,D,PTCH,A,22.7,D,ROLL*69
$GPRMC,200013.2,A,4737.00524,N,12228.78059,W,005.90,226.3,020313,016.6,E*4F
$IIVHW,,,,,00.0,N,,*19
$IIVLW,06181,N,008.4,N*51
$IIGLL,4737.006,N,12228.778,W,200000,A,A*42
$GPRMC,200013.4,A,4737.00502,N,12228.78086,W,005.92,228.3,020313,016.6,E*43
$IIMTW,+07.0,C*3F
$IIRMC,200000,A,4737.006,N,12228.778,W,05.2,238,020313,16,E,A*14
$HCHDG,210.2,0.0,E,,*28
$GPRMC,200013.6,A,4737.00486,N,12228.78118,W,005.98,231.2,020313,016.6,E*49
$YXXDR,A,4.0,D,PTCH,A,19.9,D,ROLL*68
$GPRMC,200013.8,A,4737.00471,N,12228.78148,W,006.02,232.9,020313,016.6,E*42
$GPRMB,A,,,,,4740.4440,N,12220.0640,W,9816.22,377,-2.12,*25
$GPRMC,200014.0,A,4737.00456,N,12228.78188,W,005.97,234.3,020313,016.6,E*47
$HCHDG,212.0,0.0,E,,*28
$YXXDR,A,4.6,D,PTCH,A,20.5,D,ROLL*68
$GPRMC,200014.2,A,4737.00439,N,12228.78227,W,005.77,233.9,020313,016.6,E*49
$IIVHW,,,,,00.0,N,,*19
$IIVLW,06181,N,008.4,N*51
$IIGLL,4737.005,N,12228.780,W,200000,A,A*46
$GPRMC,200014.4,A,4737.00424,N,12228.78255,W,005.59,232.7,020313,016.6,E*45
$IIMTW,+07.0,C*3F
$IIRMC,200000,A,4737.005,N,12228.780,W,05.6,225,020313,16,E,A*18
$HCHDG,210.3,0.0,E,,*29
$GPRMC,200014.6,A,4737.00406,N,12228.78291,W,005.56,230.5,020313,016.6,E*40
$YXXDR,A,4.8,D,PTCH,A,23.2,D,ROLL*62
$GPRMC,200014.8,A,4737.00391,N,12228.78325,W,005.52,228.6,020313,016.6,E*47
$GPRMB,A,,,,,4740.4440,N,12220.0640,W,9813.32,377,-5.48,*29
$GPRMC,200015.0,A,4737.00372,N,12228.78362,W,005.48,228.1,020313,016.6,E*4C
$HCHDG,208.3,0.0,E,,*20
$YXXDR,A,5.0,D,PTCH,A,24.6,D,ROLL*68
$GPRMC,200015.2,A,4737.00353,N,12228.78400,W,005.24,228.8,020313,016.6,E*4D
$IIVHW,,,,,00.0,N,,*19
$IIVLW,06181,N,008.4,N*51
$IIGLL,4737.004,N,12228.781,W,200000,A,A*46
$GPRMC,200015.4,A,4737.00330,N,12228.78443,W,005.42,228.8,020313,016.6,E*49
$IIMTW,+07.0,C*3F
$IIRMC,200000,A,4737.004,N,12228.781,W,05.9,234,020313,16,E,A*17
$HCHDG,209.1,0.0,E,,*23
$GPRMC,200015.6,A,4737.00310,N,12228.78491,W,005.20,231.5,020313,016.6,E*47
$YXXDR,A,3.9,D,PTCH,A,21.8,D,ROLL*6C
$GPRMC,200015.8,A,4737.00292,N,12228.78535,W,005.15,233.2,020313,016.6,E*4E
$GPRMB,A,,,,,4740.4440,N,12220.0640,W,9809.74,377,-4.64,*2F
$GPRMC,200016.0,A,4737.00270,N,12228.78584,W,005.15,231.4,020313,016.6,E*47
$HCHDG,211.1,0.0,E,,*2A
$YXXDR,A,4.1,D,PTCH,A,21.1,D,ROLL*6A
$GPRMC,200016.2,A,4737.00252,N,12228.78621,W,005.35,229.4,020313,016.6,E*42
$IIVHW,,,,,00.0,N,,*19
$IIVLW,06181,N,008.4,N*51
$IIGLL,4737.003,N,12228.783,W,200000,A,A*43
$GPRMC,200016.4,A,4737.00235,N,12228.78659,W,005.41,231.2,020313,016.6,E*46
$IIMTW,+07.0,C*3F
$IIRMC,200000,A,4737.003,N,12228.783,W,05.4,228,020313,16,E,A*12
$GPRMC,200016.6,A,4737.00216,N,12228.78698,W,005.79,232.0,020313,016.6,E*42
$HCHDG,212.2,0.0,E,,*2A
$YXXDR,A,4.7,D,PTCH,A,22.7,D,ROLL*69
$GPRMC,200016.8,A,4737.00201,N,12228.78728,W,005.84,234.4,020313,016.6,E*40
$GPRMC,200017.0,A,4737.00181,N,12228.78772,W,005.87,234.5,020313,016.6,E*4F
$GPRMB,A,,,,,4740.4440,N,12220.0640,W,9805.72,377,-1.23,*23
$HCHDG,214.1,0.0,E,,*2F
$YXXDR,A,4.5,D,PTCH,A,21.9,D,ROLL*66
$GPRMC,200017.2,A,4737.00165,N,12228.78822,W,005.85,238.0,020313,016.6,E*46
$IIVHW,,,,,00.0,N,,*19
$IIVLW,06181,N,008.4,N*51
$IIGLL,4737.002,N,12228.785,W,200000,A,A*44
$GPRMC,200017.4,A,4737.00147,N,12228.78870,W,005.79,238.7,020313,016.6,E*43
$IIMTW,+07.0,C*3F
$IIRMC,200000,A,4737.002,N,12228.785,W,05.1,231,020313,16,E,A*18
$HCHDG,216.3,0.0,E,,*2F
$GPRMC,200017.6,A,4737.00128,N,12228.78921,W,005.74,241.6,020313,016.6,E*4F
$YXXDR,A,4.4,D,PTCH,A,21.5,D,ROLL*6B
$GPRMC,200017.8,A,4737.00112,N,12228.78970,W,005.34,241.4,020313,016.6,E*4A
$GPRMC,200018.0,A,4737.00101,N,12228.79014,W,005.28,241.2,020313,016.6,E*4E
$GPRMB,A,,,,,4740.4440,N,12220.0640,W,9802.67,377,-3.86,*2D
$HCHDG,215.2,0.0,E,,*2D
$YXXDR,A,4.5,D,PTCH,A,25.4,D,ROLL*6F
$GPRMC,200018.2,A,4737.00089,N,12228.79048,W,005.24,235.4,020313,016.6,E*4D
$IIVHW,,,,,00.0,N,,*19
$IIVLW,06181,N,008.4,N*51
$IIGLL,4737.001,N,12228.787,W,200000,A,A*45
$GPRMC,200018.4,A,4737.00073,N,12228.79084,W,005.26,233.4,020313,016.6,E*4A
$IIMTW,+07.0,C*3F
$IIRMC,200000,A,4737.001,N,12228.787,W,05.8,234,020313,16,E,A*15
$HCHDG,211.7,0.0,E,,*2C
$GPRMC,200018.6,A,4737.00062,N,12228.79115,W,005.23,232.1,020313,016.6,E*40
$YXXDR,A,4.4,D,PTCH,A,28.0,D,ROLL*67
$GPRMC,200018.8,A,4737.00049,N,12228.79144,W,005.21,229.7,020313,016.6,E*4D
$GPRMC,200019.0,A,4737.00035,N,12228.79171,W,005.21,230.1,020313,016.6,E*47
$HCHDG,210.0,0.0,E,,*2A
$YXXDR,A,4.6,D,PTCH,A,25.8,D,ROLL*60
$GPRMC,200019.2,A,4737.00018,N,12228.79204,W,005.21,230.4,020313,016.6,E*4E
$GPRMB,A,,,,,4740.4440,N,12220.0640,W,9799.64,377,4.15,*03
$IIVHW,,,,,00.0,N,,*19
$IIVLW,06181,N,008.4,N*51
$IIGLL,4737.001,N,12228.790,W,200000,A,A*43
$GPRMC,200019.4,A,4737.00005,N,12228.79236,W,005.38,230.4,020313,016.6,E*4D
$IIMTW,+07.0,C*3F
$IIRMC,200000,A,4737.001,N,12228.790,W,05.2,241,020313,16,E,A*1B
$HCHDG,211.0,0.0,E,,*2B
$GPRMC,200019.6,A,4736.99991,N,12228.79268,W,005.43,231.7,020313,016.6,E*4F
$YXXDR,A,4.1,D,PTCH,A,23.0,D,ROLL*69
$GPRMC,200019.8,A,4736.99977,N,12228.79302,W,005.46,233.3,020313,016.6,E*47
$GPRMC,200020.0,A,4736.99958,N,12228.79338,W,005.66,233.4,020313,016.6,E*44
$HCHDG,212.6,0.0,E,,*2E
$YXXDR,A,4.6,D,PTCH,A,22.2,D,ROLL*6D
$GPRMC,200020.2,A,4736.99936,N,12228.79374,W,005.60,233.1,020313,016.6,E*45
$IIVHW,,,,,00.0,N,,*19
$IIVLW,06181,N,008.4,N*51
$IIGLL,4737.000,N,12228.791,W,200000,A,A*43
$GPRMC,200020.4,A,4736.99914,N,12228.79413,W,005.66,232.4,020313,016.6,E*47
$GPRMB,A,,,,,4740.4440,N,12220.0640,W,9795.90,377,3.76,*06
$IIMTW,+07.0,C*3F
$IIRMC,200000,A,4737.000,N,12228.791,W,05.2,230,020313,16,E,A*1D
$HCHDG,212.4,0.0,E,,*2C
$GPRMC,200020.6,A,4736.99893,N,12228.79449,W,005.87,232.9,020313,016.6,E*46
$YXXDR,A,5.4,D,PTCH,A,23.2,D,ROLL*6F
$GPRMC,200020.8,A,4736.99875,N,12228.79490,W,005.82,233.4,020313,016.6,E*4D
$GPRMC,200021.0,A,4736.99855,N,12228.79536,W,005.59,234.1,020313,016.6,E*4F
$HCHDG,212.9,0.0,E,,*21
$YXXDR,A,5.1,D,PTCH,A,23.2,D,ROLL*6A
$GPRMC,200021.2,A,4736.99839,N,12228.79580,W,005.58,234.9,020313,016.6,E*43
$IIVHW,,,,,00.0,N,,*19
$IIVLW,06181,N,008.4,N*51
$IIGLL,4736.999,N,12228.793,W,200000,A,A*49
$GPRMC,200021.4,A,4736.99826,N,12228.79619,W,005.55,234.5,020313,016.6,E*49
$GPRMB,A,,,,,4740.4440,N,12220.0640,W,9792.68,377,-1.19,*20
$IIMTW,+07.0,C*3F
$IIRMC,200000,A,4736.999,N,12228.793,W,05.6,233,020313,16,E,A*10
$HCHDG,213.6,0.0,E,,*2F
$GPRMC,200021.6,A,4736.99809,N,12228.79653,W,005.28,232.1,020313,016.6,E*40
$YXXDR,A,4.8,D,PTCH,A,22.6,D,ROLL*67
$GPRMC,200021.8,A,4736.99797,N,12228.79689,W,005.25,232.1,020313,016.6,E*4C
$GPRMC,200022.0,A,4736.99783,N,12228.79723,W,005.41,231.0,020313,016.6,E*43
$HCHDG,213.0,0.0,E,,*29
$YXXDR,A,4.0,D,PTCH,A,22.8,D,ROLL*61
$GPRMC,200022.2,A,4736.99769,N,12228.79764,W,005.40,232.4,020313,016.6,E*40
$IIVHW,,,,,00.0,N,,*19
$IIVLW,06181,N,008.4,N*51
$IIGLL,4736.998,N,12228.795,W,200000,A,A*4E
$GPRMC,200022.4,A,4736.99743,N,12228.79811,W,005.57,232.8,020313,016.6,E*49
$GPRMB,A,,,,,4740.4440,N,12220.0640,W,9789.64,377,1.13,*01
$IIMTW,+07.0,C*3F
$IIRMC,200000,A,4736.998,N,12228.795,W,05.5,234,020313,16,E,A*13
$HCHDG,215.3,0.0,E,,*2C
$GPRMC,200022.6,A,4736.99725,N,12228.79859,W,005.81,234.9,020313,016.6,E*4B
$YXXDR,A,5.0,D,PTCH,A,18.1,D,ROLL*60
$GPRMC,200022.8,A,4736.99705,N,12228.79898,W,005.80,235.1,020313,016.6,E*42
$GPRMC,200023.0,A,4736.99688,N,12228.79940,W,005.88,236.1,020313,016.6,E*40
$HCHDG,216.8,0.0,E,,*24
$YXXDR,A,4.9,D,PTCH,A,17.8,D,ROLL*6E
$GPRMC,200023.2,A,4736.99673,N,12228.79976,W,005.91,236.3,020313,016.6,E*49
$IIVHW,,,,,00.0,N,,*19
$IIVLW,06181,N,008.4,N*51
$IIGLL,4736.997,N,12228.797,W,200000,A,A*43
$GPRMC,200023.4,A,4736.99653,N,12228.80020,W,005.92,238.3,020313,016.6,E*4C
$IIMTW,+07.0,C*3F
$IIRMC,200000,A,4736.997,N,12228.797,W,05.4,231,020313,16,E,A*1A
$HCHDG,216.9,0.0,E,,*25
$GPRMC,200023.6,A,4736.99631,N,12228.80067,W,005.76,237.6,020313,016.6,E*49
$GPRMB,A,,,,,4740.4440,N,12220.0640,W,9785.54,377,-5.44,*25
$YXXDR,A,5.3,D,PTCH,A,18.5,D,ROLL*67
$GPRMC,200023.8,A,4736.99607,N,12228.80097,W,005.70,236.5,020313,016.6,E*49
$GPRMC,200024.0,A,4736.99588,N,12228.80133,W,005.47,238.4,020313,016.6,E*46
$HCHDG,215.6,0.0,E,,*29
$YXXDR,A,5.0,D,PTCH,A,19.6,D,ROLL*66
$GPRMC,200024.2,A,4736.99563,N,12228.80180,W,005.46,236.8,020313,016.6,E*4A
$IIVHW,,,,,00.0,N,,*19
$IIVLW,06181,N,008.4,N*51
$IIGLL,4736.996,N,12228.799,W,200000,A,A*4C
$GPRMC,200024.4,A,4736.99538,N,12228.80231,W,005.43,236.6,020313,016.6,E*40
$IIMTW,+07.0,C*3F
$IIRMC,200000,A,4736.996,N,12228.799,W,05.8,236,020313,16,E,A*1E
$HCHDG,215.1,0.0,E,,*2E
$GPRMC,200024.6,A,4736.99515,N,12228.80281,W,005.16,236.9,020313,016.6,E*49
$YXXDR,A,4.5,D,PTCH,A,18.8,D,ROLL*6D
$GPRMC,200024.8,A,4736.99487,N,12228.80328,W,005.17,233.8,020313,016.6,E*4A
$GPRMB,A,,,,,4740.4440,N,12220.0640,W,9780.42,377,4.22,*0B
$GPRMC,200025.0,A,4736.99454,N,12228.80373,W,005.44,232.0,020313,016.6,E*4C
$HCHDG,214.9,0.0,E,,*27
$YXXDR,A,4.8,D,PTCH,A,18.7,D,ROLL*6F
$GPRMC,200025.2,A,4736.99434,N,12228.80420,W,005.40,232.8,020313,016.6,E*45
$IIVHW,,,,,00.0,N,,*19
$IIVLW,06181,N,008.4,N*51
$IIGLL,4736.995,N,12228.801,W,200000,A,A*41
$GPRMC,200025.4,A,4736.99416,N,12228.80470,W,005.68,232.7,020313,016.6,E*43
$IIMTW,+07.0,C*3F
$IIRMC,200000,A,4736.995,N,12228.801,W,05.4,238,020313,16,E,A*11
$GPRMC,200025.6,A,4736.99394,N,12228.80530,W,005.69,234.2,020313,016.6,E*4B
$HCHDG,216.2,0.0,E,,*2E
$YXXDR,A,4.6,D,PTCH,A,17.4,D,ROLL*6D
$GPRMC,200025.8,A,4736.99373,N,12228.80587,W,005.89,235.0,020313,016.6,E*4D
$GPRMC,200026.0,A,4736.99353,N,12228.80644,W,005.96,240.4,020313,016.6,E*40
$GPRMB,A,,,,,4740.4440,N,12220.0640,W,9775.50,377,5.09,*0A
$HCHDG,219.1,0.0,E,,*22
$YXXDR,A,3.9,D,PTCH,A,14.8,D,ROLL*6A
$GPRMC,200026.2,A,4736.99336,N,12228.80693,W,005.94,241.0,020313,016.6,E*4C
$IIVHW,,,,,00.0,N,,*19
$IIVLW,06181,N,008.4,N*51
$IIGLL,4736.994,N,12228.803,W,200000,A,A*42
$GPRMC,200026.4,A,4736.99316,N,12228.80746,W,005.92,241.9,020313,016.6,E*4E
$IIMTW,+07.0,C*3F
$IIRMC,200000,A,4736.994,N,12228.803,W,05.4,232,020313,16,E,A*18
$HCHDG,220.9,0.0,E,,*20
$GPRMC,200026.6,A,4736.99304,N,12228.80788,W,005.70,243.4,020313,016.6,E*4E
$YXXDR,A,4.3,D,PTCH,A,15.0,D,ROLL*6E
$GPRMC,200026.8,A,4736.99292,N,12228.80839,W,005.68,245.0,020313,016.6,E*40
$GPRMC,200027.0,A,4736.99280,N,12228.80890,W,005.70,242.6,020313,016.6,E*41
$HCHDG,219.2,0.0,E,,*21
$YXXDR,A,5.7,D,PTCH,A,19.5,D,ROLL*62
$GPRMC,200027.2,A,4736.99265,N,12228.80936,W,005.76,239.6,020313,016.6,E*4F
$GPRMB,A,,,,,4740.4440,N,12220.0640,W,9772.08,377,1.50,*08
$IIVHW,,,,,00.0,N,,*19
$IIVLW,06181,N,008.4,N*51
$IIGLL,4736.993,N,12228.806,W,200000,A,A*40
$GPRMC,200027.4,A,4736.99252,N,12228.80979,W,005.78,238.3,020313,016.6,E*4C
$IIMTW,+07.0,C*3F
$IIRMC,200000,A,4736.993,N,12228.806,W,05.9,240,020313,16,E,A*12
$HCHDG,216.6,0.0,E,,*2A
$GPRMC,200027.6,A,4736.99232,N,12228.81029,W,005.84,238.6,020313,016.6,E*43
$YXXDR,A,5.0,D,PTCH,A,22.0,D,ROLL*68
$GPRMC,200027.8,A,4736.99212,N,12228.81084,W,005.82,238.5,020313,016.6,E*4D
$GPRMC,200028.0,A,4736.99193,N,12228.81134,W,005.43,238.4,020313,016.6,E*46
$HCHDG,217.1,0.0,E,,*2C
$YXXDR,A,4.8,D,PTCH,A,20.4,D,ROLL*67
$GPRMC,200028.2,A,4736.99174,N,12228.81182,W,005.40,238.3,020313,016.6,E*44
$IIVHW,,,,,00.0,N,,*19
$IIVLW,06181,N,008.4,N*51
$IIGLL,4736.992,N,12228.808,W,200000,A,A*4F
$GPRMC,200028.4,A,4736.99155,N,12228.81229,W,005.47,238.0,020313,016.6,E*47
$GPRMB,A,,,,,4740.4440,N,12220.0640,W,9767.97,377,1.62,*0B
$IIMTW,+07.0,C*3F
$IIRMC,200000,A,4736.992,N,12228.808,W,05.7,242,020313,16,E,A*11
$HCHDG,218.1,0.0,E,,*23
$GPRMC,200028.6,A,4736.99139,N,12228.81267,W,005.47,237.4,020313,016.6,E*4E
$YXXDR,A,4.0,D,PTCH,A,21.2,D,ROLL*68
$GPRMC,200028.8,A,4736.99128,N,12228.81308,W,005.49,238.5,020313,016.6,E*48
$GPRMC,200029.0,A,4736.99110,N,12228.81348,W,005.52,238.8,020313,016.6,E*49
$HCHDG,219.3,0.0,E,,*20
$YXXDR,A,4.1,D,PTCH,A,20.3,D,ROLL*69
$GPRMC,200029.2,A,4736.99095,N,12228.81396,W,005.54,244.3,020313,016.6,E*42
$IIVHW,,,,,00.0,N,,*19
$IIVLW,06181,N,008.4,N*51
$IIGLL,4736.991,N,12228.811,W,200000,A,A*44
$GPRMC,200029.4,A,4736.99080,N,12228.81436,W,005.58,243.9,020313,016.6,E*4C
$IIMTW,+07.0,C*3F
$IIRMC,200000,A,4736.991,N,12228.811,W,05.4,238,020313,16,E,A*14
$HCHDG,221.0,0.0,E,,*28
$GPRMC,200029.6,A,4736.99062,N,12228.81481,W,005.60,246.3,020313,016.6,E*4A
$GPRMB,A,,,,,4740.4440,N,12220.0640,W,9764.48,377,4.30,*08
$YXXDR,A,3.9,D,PTCH,A,19.1,D,ROLL*6E
$GPRMC,200029.8,A,4736.99048,N,12228.81525,W,005.40,248.1,020313,016.6,E*4D
$GPRMC,200030.0,A,4736.99037,N,12228.81569,W,005.38,245.8,020313,016.6,E*46
$HCHDG,219.7,0.0,E,,*24
$YXXDR,A,4.4,D,PTCH,A,23.5,D,ROLL*69
$GPRMC,200030.2,A,4736.99020,N,12228.81610,W,005.64,242.0,020313,016.6,E*49
$IIVHW,,,,,00.0,N,,*19
$IIVLW,06181,N,008.4,N*51
$IIGLL,4736.991,N,12228.813,W,200000,A,A*46
$GPRMC,200030.4,A,4736.99005,N,12228.81652,W,005.34,242.4,020313,016.6,E*4F
$IIMTW,+07.0,C*3F
$IIRMC,200000,A,4736.991,N,12228.813,W,05.5,238,020313,16,E,A*17
$HCHDG,216.1,0.0,E,,*2D
$GPRMC,200030.6,A,4736.98992,N,12228.81682,W,005.37,243.3,020313,016.6,E*43
$YXXDR,A,4.4,D,PTCH,A,28.0,D,ROLL*67
$GPRMC,200030.8,A,4736.98979,N,12228.81714,W,005.34,241.5,020313,016.6,E*41
$GPRMB,A,,,,,4740.4440,N,12220.0640,W,9761.34,377,3.92,*09
$GPRMC,200031.0,A,4736.98961,N,12228.81741,W,005.29,237.4,020313,016.6,E*4D
$HCHDG,213.6,0.0,E,,*2F
$YXXDR,A,4.4,D,PTCH,A,28.9,D,ROLL*6E
$GPRMC,200031.2,A,4736.98947,N,12228.81769,W,005.24,238.2,020313,016.6,E*45
$IIVHW,,,,,00.0,N,,*19
$IIVLW,06181,N,008.4,N*51
$IIGLL,4736.990,N,12228.815,W,200000,A,A*41
$GPRMC,200031.4,A,4736.98935,N,12228.81803,W,005.41,234.8,020313,016.6,E*40
$IIMTW,+07.0,C*3F
$IIRMC,200000,A,4736.990,N,12228.815,W,05.3,245,020313,16,E,A*1C
$GPRMC,200031.6,A,4736.98926,N,12228.81837,W,005.38,231.8,020313,016.6,E*4C
$HCHDG,212.2,0.0,E,,*2A
$YXXDR,A,5.1,D,PTCH,A,28.0,D,ROLL*63
$GPRMC,200031.8,A,4736.98910,N,12228.81864,W,005.65,229.1,020313,016.6,E*49
$GPRMB,A,,,,,4740.4440,N,12220.0640,W,9758.83,377,5.43,*05
$GPRMC,200032.0,A,4736.98892,N,12228.81892,W,005.67,228.9,020313,016.6,E*4B
$HCHDG,211.4,0.0,E,,*2F
$YXXDR,A,4.8,D,PTCH,A,26.8,D,ROLL*6D
$GPRMC,200032.2,A,4736.98875,N,12228.81924,W,005.94,231.3,020313,016.6,E*42
$IIVHW,,,,,00.0,N,,*19
$IIVLW,06181,N,008.4,N*51
$IIGLL,4736.989,N,12228.817,W,200000,A,A*4B
$GPRMC,200032.4,A,4736.98859,N,12228.81953,W,005.95,233.5,020313,016.6,E*4F
$IIMTW,+07.0,C*3F
$IIRMC,200000,A,4736.989,N,12228.817,W,05.2,237,020313,16,E,A*12
$HCHDG,214.9,0.0,E,,*27
$GPRMC,200032.6,A,4736.98843,N,12228.81988,W,005.91,237.6,020313,016.6,E*43
$GPRMB,A,,,,,4740.4440,N,12220.0640,W,9756.44,377,-5.56,*29
$YXXDR,A,4.5,D,PTCH,A,21.5,D,ROLL*6A
$GPRMC,200032.8,A,4736.98823,N,12228.82017,W,005.70,240.2,020313,016.6,E*4C
$GPRMC,200033.0,A,4736.98811,N,12228.82050,W,005.65,241.7,020313,016.6,E*47
$HCHDG,217.9,0.0,E,,*24
$YXXDR,A,4.7,D,PTCH,A,19.7,D,ROLL*61
$GPRMC,200033.2,A,4736.98796,N,12228.82086,W,005.58,238.6,020313,016.6,E*4F
$IIVHW,,,,,00.0,N,,*19
$IIVLW,06181,N,008.4,N*51
$IIGLL,4736.988,N,12228.818,W,200000,A,A*45
$GPRMC,200033.4,A,4736.98782,N,12228.82117,W,005.53,236.6,020313,016.6,E*40
$IIMTW,+07.0,C*3F
$IIRMC,200000,A,4736.988,N,12228.818,W,05.6,228,020313,16,E,A*16
$GPRMC,200033.6,A,4736.98764,N,12228.82164,W,005.53,235.3,020313,016.6,E*48
$HCHDG,216.1,0.0,E,,*2D
$YXXDR,A,4.4,D,PTCH,A,26.6,D,ROLL*6F
$GPRMC,200033.8,A,4736.98749,N,12228.82206,W,005.51,236.4,020313,016.6,E*48
$GPRMC,200034.0,A,4736.98736,N,12228.82246,W,005.50,237.6,020313,016.6,E*49
$HCHDG,215.4,0.0,E,,*2B
$YXXDR,A,4.2,D,PTCH,A,25.9,D,ROLL*65
$GPRMC,200034.2,A,4736.98724,N,12228.82284,W,005.29,239.4,020313,016.6,E*44
$GPRMB,A,,,,,4740.4440,N,12220.0640,W,9752.03,377,5.19,*08
$IIVHW,,,,,00.0,N,,*19
$IIVLW,06181,N,008.4,N*51
$IIGLL,4736.988,N,12228.820,W,200000,A,A*4E
$GPRMC,200034.4,A,4736.98713,N,12228.82327,W,005.65,241.8,020313,016.6,E*45
$IIMTW,+07.0,C*3F
$IIRMC,200000,A,4736.988,N,12228.820,W,05.6,241,020313,16,E,A*12
$HCHDG,218.0,0.0,E,,*22
$GPRMC,200034.6,A,4736.98700,N,12228.82363,W,005.70,243.3,020313,016.6,E*48
$YXXDR,A,4.0,D,PTCH,A,22.8,D,ROLL*61
$GPRMC,200034.8,A,4736.98691,N,12228.82401,W,005.64,243.9,020313,016.6,E*43
$GPRMC,200035.0,A,4736.98677,N,12228.82449,W,005.59,242.9,020313,016.6,E*41
$HCHDG,217.5,0.0,E,,*28
$YXXDR,A,3.7,D,PTCH,A,25.4,D,ROLL*6A
$GPRMC,200035.2,A,4736.98666,N,12228.82485,W,005.35,241.6,020313,016.6,E*45
$IIVHW,,,,,00.0,N,,*19
$IIVLW,06181,N,008.4,N*51
$IIGLL,4736.987,N,12228.822,W,200000,A,A*43
$GPRMC,200035.4,A,4736.98652,N,12228.82534,W,005.38,241.6,020313,016.6,E*42
$GPRMB,A,,,,,4740.4440,N,12220.0640,W,9749.21,377,5.28,*00
$IIMTW,+07.0,C*3F
$IIRMC,200000,A,4736.987,N,12228.822,W,05.5,237,020313,16,E,A*1D
$HCHDG,214.5,0.0,E,,*2B
$GPRMC,200035.6,A,4736.98642,N,12228.82571,W,005.11,240.8,020313,016.6,E*44
$YXXDR,A,3.9,D,PTCH,A,31.7,D,ROLL*62
$GPRMC,200035.8,A,4736.98628,N,12228.82605,W,005.33,237.4,020313,016.6,E*4A
$GPRMC,200036.0,A,4736.98612,N,12228.82645,W,005.68,235.3,020313,016.6,E*47
$HCHDG,211.6,0.0,E,,*2D
$YXXDR,A,3.8,D,PTCH,A,32.1,D,ROLL*66
$GPRMC,200036.2,A,4736.98593,N,12228.82691,W,005.64,235.1,020313,016.6,E*48
$IIVHW,,,,,00.0,N,,*19
$IIVLW,06181,N,008.4,N*51
$IIGLL,4736.986,N,12228.824,W,200000,A,A*44
$GPRMC,200036.4,A,4736.98576,N,12228.82728,W,005.66,233.3,020313,016.6,E*40
$IIMTW,+07.0,C*3F
$IIRMC,200000,A,4736.986,N,12228.824,W,05.5,242,020313,16,E,A*18
$HCHDG,209.9,0.0,E,,*2B
$GPRMC,200036.6,A,4736.98556,N,12228.82766,W,005.71,233.1,020313,016.6,E*4E
$GPRMB,A,,,,,4740.4440,N,12220.0640,W,9745.67,377,-5.66,*29
$YXXDR,A,3.9,D,PTCH,A,32.2,D,ROLL*64
$GPRMC,200036.8,A,4736.98537,N,12228.82799,W,005.71,233.4,020313,016.6,E*42
$GPRMC,200037.0,A,4736.98515,N,12228.82831,W,005.52,232.7,020313,016.6,E*45
$HCHDG,209.5,0.0,E,,*27
$YXXDR,A,4.5,D,PTCH,A,32.3,D,ROLL*6E
$GPRMC,200037.2,A,4736.98495,N,12228.82862,W,005.73,232.2,020313,016.6,E*4E
$IIVHW,,,,,00.0,N,,*19
$IIVLW,06181,N,008.4,N*51
$IIGLL,4736.986,N,12228.826,W,200000,A,A*46
$GPRMC,200037.4,A,4736.98478,N,12228.82889,W,005.45,231.9,020313,016.6,E*43
$IIMTW,+07.0,C*3F
$IIRMC,200000,A,4736.986,N,12228.826,W,05.6,235,020313,16,E,A*19
$HCHDG,209.2,0.0,E,,*20
$GPRMC,200037.6,A,4736.98458,N,12228.82919,W,005.45,231.5,020313,016.6,E*47
$YXXDR,A,4.3,D,PTCH,A,32.6,D,ROLL*6D
$GPRMC,200037.8,A,4736.98436,N,12228.82949,W,005.67,230.0,020313,016.6,E*40
$GPRMB,A,,,,,4740.4440,N,12220.0640,W,9741.47,377,-0.08,*22
$GPRMC,200038.0,A,4736.98410,N,12228.82981,W,005.36,232.6,020313,016.6,E*47
$HCHDG,210.2,0.0,E,,*28
$YXXDR,A,3.6,D,PTCH,A,31.2,D,ROLL*68
$GPRMC,200038.2,A,4736.98383,N,12228.83011,W,005.43,231.9,020313,016.6,E*47
$IIVHW,,,,,00.0,N,,*19
$IIVLW,06181,N,008.4,N*51
$IIGLL,4736.985,N,12228.828,W,200000,A,A*4B
$GPRMC,200038.4,A,4736.98354,N,12228.83044,W,005.51,232.6,020313,016.6,E*44
$IIMTW,+07.0,C*3F
$IIRMC,200000,A,4736.985,N,12228.828,W,05.5,232,020313,16,E,A*10
$GPRMC,200038.6,A,4736.98328,N,12228.83076,W,005.77,232.2,020313,016.6,E*4C
$HCHDG,212.3,0.0,E,,*2B
$YXXDR,A,3.9,D,PTCH,A,29.9,D,ROLL*65
$GPRMC,200038.8,A,4736.98305,N,12228.83121,W,005.79,232.7,020313,016.6,E*45
$GPRMB,A,,,,,4740.4440,N,12220.0640,W,9736.94,377,4.06,*0B
$GPRMC,200039.0,A,4736.98283,N,12228.83160,W,006.00,229.9,020313,016.6,E*4F
$HCHDG,211.5,0.0,E,,*2E
$YXXDR,A,3.8,D,PTCH,A,32.1,D,ROLL*66
$GPRMC,200039.2,A,4736.98260,N,12228.83198,W,005.98,234.8,020313,016.6,E*48
$IIVHW,,,,,00.0,N,,*19
$IIVLW,06181,N,008.4,N*51
$IIDPT,026.4,-1.0,*40
$GPRMC,200039.4,A,4736.98241,N,12228.83242,W,006.18,232.0,020313,016.6,E*4C
$IIGLL,4736.984,N,12228.829,W,200000,A,A*4B
$IIMTW,+07.0,C*3F
$HCHDG,211.6,0.0,E,,*2D
$GPRMC,200039.6,A,4736.98220,N,12228.83287,W,006.16,232.8,020313,016.6,E*46
$IIRMC,200000,A,4736.984,N,12228.829,W,05.3,232,020313,16,E,A*16
$YXXDR,A,3.4,D,PTCH,A,32.6,D,ROLL*6D
$GPRMC,200039.8,A,4736.98200,N,12228.83332,W,006.09,235.9,020313,016.6,E*4D
$GPRMB,A,,,,,4740.4440,N,12220.0640,W,9733.15,377,5.74,*03
$GPRMC,200040.0,A,4736.98178,N,12228.83383,W,005.91,236.9,020313,016.6,E*4C
$HCHDG,211.5,0.0,E,,*2E
$YXXDR,A,3.2,D,PTCH,A,34.2,D,ROLL*69
$GPRMC,200040.2,A,4736.98155,N,12228.83434,W,005.84,235.0,020313,016.6,E*44
$IIVHW,,,,,00.0,N,,*19
$IIVLW,06181,N,008.4,N*51
$IIDPT,025.6,-1.0,*41
$GPRMC,200040.4,A,4736.98133,N,12228.83466,W,005.84,231.1,020313,016.6,E*40
$IIGLL,4736.982,N,12228.831,W,200000,A,A*44
$IIMTW,+07.0,C*3F
$HCHDG,207.7,0.0,E,,*2B
$GPRMC,200040.6,A,4736.98115,N,12228.83491,W,005.82,231.4,020313,016.6,E*4D
$IIRMC,200000,A,4736.982,N,12228.831,W,06.0,229,020313,16,E,A*13
$YXXDR,A,3.0,D,PTCH,A,40.9,D,ROLL*63
$GPRMC,200040.8,A,4736.98091,N,12228.83522,W,005.86,229.0,020313,016.6,E*4E
$GPRMC,200041.0,A,4736.98065,N,12228.83566,W,005.82,230.6,020313,016.6,E*46
$GPRMB,A,,,,,4740.4440,N,12220.0640,W,9728.36,377,-0.94,*2E
$HCHDG,205.5,0.0,E,,*2B
$YXXDR,A,3.3,D,PTCH,A,38.9,D,ROLL*6F
$GPRMC,200041.2,A,4736.98044,N,12228.83603,W,005.81,231.2,020313,016.6,E*41
$IIVHW,,,,,00.0,N,,*19
$IIVLW,06181,N,008.4,N*51
$IIDPT,026.3,-1.0,*47
$GPRMC,200041.4,A,4736.98019,N,12228.83644,W,005.84,230.2,020313,016.6,E*48
$IIGLL,4736.981,N,12228.833,W,200000,A,A*45
$IIMTW,+07.0,C*3F
$GPRMC,200041.6,A,4736.97999,N,12228.83680,W,005.83,229.1,020313,016.6,E*40
$HCHDG,204.3,0.0,E,,*2C
$IIRMC,200000,A,4736.981,N,12228.833,W,05.9,236,020313,16,E,A*16
$YXXDR,A,3.6,D,PTCH,A,37.2,D,ROLL*6E
$GPRMC,200041.8,A,4736.97979,N,12228.83718,W,005.67,225.8,020313,016.6,E*4F
$GPRMC,200042.0,A,4736.97959,N,12228.83752,W,005.60,224.4,020313,016.6,E*42
$GPRMB,A,,,,,4740.4440,N,12220.0640,W,9724.60,377,2.15,*07
$HCHDG,200.7,0.0,E,,*2C
$YXXDR,A,3.0,D,PTCH,A,38.1,D,ROLL*64
$GPRMC,200042.2,A,4736.97940,N,12228.83785,W,005.53,225.4,020313,016.6,E*43
$IIVHW,,,,,00.0,N,,*19
$IIVLW,06181,N,008.4,N*51
$IIDPT,026.3,-1.0,*47
$GPRMC,200042.4,A,4736.97915,N,12228.83827,W,005.32,224.3,020313,016.6,E*43
$IIGLL,4736.980,N,12228.835,W,200000,A,A*42
$IIMTW,+07.0,C*3F
$GPRMC,200042.6,A,4736.97889,N,12228.83862,W,005.37,221.9,020313,016.6,E*4E
$HCHDG,200.2,0.0,E,,*29
$IIRMC,200000,A,4736.980,N,12228.835,W,05.8,230,020313,16,E,A*16
$YXXDR,A,3.2,D,PTCH,A,35.2,D,ROLL*68
$GPRMC,200042.8,A,4736.97869,N,12228.83887,W,005.43,219.0,020313,016.6,E*44
$GPRMC,200043.0,A,4736.97846,N,12228.83911,W,005.64,219.1,020313,016.6,E*4A
$GPRMB,A,,,,,4740.4440,N,12220.0640,W,9720.67,377,3.52,*06
$HCHDG,199.4,0.0,E,,*2C
$YXXDR,A,3.5,D,PTCH,A,33.5,D,ROLL*6E
$GPRMC,200043.2,A,4736.97816,N,12228.83944,W,005.58,219.6,020313,016.6,E*45
$IIVHW,,,,,00.0,N,,*19
$IIVLW,06181,N,008.4,N*51
$IIDPT,026.3,-1.0,*47
$GPRMC,200043.4,A,4736.97786,N,12228.83979,W,005.52,220.3,020313,016.6,E*4E
$IIGLL,4736.979,N,12228.837,W,200000,A,A*46
$IIMTW,+07.0,C*3F
$HCHDG,200.5,0.0,E,,*2E
$GPRMC,200043.6,A,4736.97759,N,12228.84021,W,005.91,220.8,020313,016.6,E*49
$IIRMC,200000,A,4736.979,N,12228.837,W,05.6,224,020313,16,E,A*19
$YXXDR,A,4.0,D,PTCH,A,30.2,D,ROLL*68
$GPRMC,200043.8,A,4736.97734,N,12228.84055,W,005.73,220.1,020313,016.6,E*4A
$GPRMC,200044.0,A,4736.97706,N,12228.84077,W,005.76,220.6,020313,016.6,E*46
$PGRMT,GPS 18x-5Hz software ver. 3.20,,,,,,,,*30
$HCHDG,201.4,0.0,E,,*2E
$YXXDR,A,4.2,D,PTCH,A,29.1,D,ROLL*61
$GPRMC,200044.2,A,4736.97680,N,12228.84101,W,005.70,220.9,020313,016.6,E*42
$GPRMB,A,,,,,4740.4440,N,12220.0640,W,9714.98,377,-0.77,*28
$IIVHW,,,,,00.0,N,,*19
$IIVLW,06181,N,008.4,N*51
$IIDPT,026.3,-1.0,*47
$GPRMC,200044.4,A,4736.97658,N,12228.84123,W,005.87,220.2,020313,016.6,E*42
$IIGLL,4736.979,N,12228.837,W,200000,A,A*46
$IIMTW,+07.0,C*3F
$GPRMC,200044.6,A,4736.97632,N,12228.84150,W,005.83,221.2,020313,016.6,E*4D
$HCHDG,202.2,0.0,E,,*2B
$IIRMC,200000,A,4736.979,N,12228.837,W,05.6,224,020313,16,E,A*19
$YXXDR,A,4.1,D,PTCH,A,27.9,D,ROLL*64
$GPRMC,200044.8,A,4736.97604,N,12228.84181,W,005.83,219.3,020313,016.6,E*40
$GPRMC,200045.0,A,4736.97578,N,12228.84211,W,005.81,219.2,020313,016.6,E*48
$HCHDG,203.1,0.0,E,,*29
$YXXDR,A,4.2,D,PTCH,A,27.0,D,ROLL*6E
$GPRMC,200045.2,A,4736.97551,N,12228.84247,W,005.82,218.8,020313,016.6,E*4A
$IIVHW,,,,,00.0,N,,*19
$IIVLW,06181,N,008.4,N*51
$IIDPT,026.3,-1.0,*47
$GPRMC,200045.4,A,4736.97530,N,12228.84271,W,005.85,219.5,020313,016.6,E*45
$GPRMB,A,,,,,4740.4440,N,12220.0640,W,9709.85,377,-5.85,*20
$IIGLL,4736.977,N,12228.840,W,200000,A,A*48
$IIMTW,+07.0,C*3F
$HCHDG,203.7,0.0,E,,*2F
$GPRMC,200045.6,A,4736.97511,N,12228.84291,W,005.84,219.8,020313,016.6,E*46
$IIRMC,200000,A,4736.977,N,12228.840,W,05.7,220,020313,16,E,A*12
$YXXDR,A,4.4,D,PTCH,A,26.5,D,ROLL*6C
$GPRMC,200045.8,A,4736.97489,N,12228.84312,W,005.86,222.3,020313,016.6,E*43
$GPRMC,200046.0,A,4736.97465,N,12228.84345,W,005.68,222.0,020313,016.6,E*4B
$HCHDG,205.9,0.0,E,,*27
$YXXDR,A,4.2,D,PTCH,A,25.0,D,ROLL*6C
$GPRMC,200046.2,A,4736.97444,N,12228.84374,W,005.73,224.8,020313,016.6,E*4C
$IIVHW,,,,,00.0,N,,*19
$IIVLW,06181,N,008.4,N*51
$IIDPT,026.3,-1.0,*47
$GPRMC,200046.4,A,4736.97428,N,12228.84396,W,005.77,223.9,020313,016.6,E*4E
$GPRMB,A,,,,,4740.4440,N,12220.0640,W,9706.34,377,-3.99,*2E
$IIGLL,4736.975,N,12228.842,W,200000,A,A*48
$IIMTW,+07.0,C*3F
$GPRMC,200046.6,A,4736.97407,N,12228.84420,W,005.79,225.3,020313,016.6,E*49
$HCHDG,207.6,0.0,E,,*2A
$IIRMC,200000,A,4736.975,N,12228.842,W,05.8,219,020313,16,E,A*17
$YXXDR,A,4.1,D,PTCH,A,26.2,D,ROLL*6E
$GPRMC,200046.8,A,4736.97386,N,12228.84459,W,005.74,224.9,020313,016.6,E*41
$GPRMC,200047.0,A,4736.97359,N,12228.84496,W,005.72,226.1,020313,016.6,E*45
$HCHDG,208.6,0.0,E,,*25
$YXXDR,A,3.8,D,PTCH,A,27.4,D,ROLL*67
$GPRMC,200047.2,A,4736.97337,N,12228.84533,W,005.75,226.7,020313,016.6,E*40
$IIVHW,,,,,00.0,N,,*19
$IIVLW,06181,N,008.4,N*51
$IIDPT,026.3,-1.0,*47
$GPRMC,200047.4,A,4736.97315,N,12228.84575,W,005.75,228.8,020313,016.6,E*45
$IIGLL,4736.974,N,12228.843,W,200000,A,A*48
$IIMTW,+07.0,C*3F
$GPRMC,200047.6,A,4736.97288,N,12228.84617,W,006.05,228.5,020313,016.6,E*4C
$GPRMB,A,,,,,4740.4440,N,12220.0640,W,9701.41,377,-5.38,*26
$HCHDG,209.0,0.0,E,,*22
$IIRMC,200000,A,4736.974,N,12228.843,W,05.6,222,020313,16,E,A*11
$YXXDR,A,3.6,D,PTCH,A,29.1,D,ROLL*62
$GPRMC,200047.8,A,4736.97264,N,12228.84659,W,005.97,231.2,020313,016.6,E*4D
$GPRMC,200048.0,A,4736.97243,N,12228.84692,W,006.16,229.3,020313,016.6,E*4A
$HCHDG,208.5,0.0,E,,*26
$YXXDR,A,3.7,D,PTCH,A,30.4,D,ROLL*6E
$GPRMC,200048.2,A,4736.97220,N,12228.84718,W,005.96,230.6,020313,016.6,E*48
$IIVHW,,,,,00.0,N,,*19
$IIVLW,06181,N,008.4,N*51
$IIDPT,026.3,-1.0,*47
$GPRMC,200048.4,A,4736.97192,N,12228.84750,W,006.00,229.8,020313,016.6,E*42
$IIGLL,4736.973,N,12228.844,W,200000,A,A*48
$IIMTW,+07.0,C*3F
$GPRMC,200048.6,A,4736.97161,N,12228.84797,W,006.04,226.4,020313,016.6,E*40
$HCHDG,206.6,0.0,E,,*2B
$IIRMC,200000,A,4736.973,N,12228.844,W,05.7,226,020313,16,E,A*14
$YXXDR,A,4.1,D,PTCH,A,34.1,D,ROLL*6E
$GPRMC,200048.8,A,4736.97132,N,12228.84837,W,005.78,224.6,020313,016.6,E*45
$GPRMB,A,,,,,4740.4440,N,12220.0640,W,9695.97,377,5.76,*06
$GPRMC,200049.0,A,4736.97108,N,12228.84872,W,005.61,225.5,020313,016.6,E*4E
$HCHDG,204.2,0.0,E,,*2D
$YXXDR,A,3.4,D,PTCH,A,36.5,D,ROLL*6A
$GPRMC,200049.2,A,4736.97080,N,12228.84900,W,005.82,221.0,020313,016.6,E*45
$IIVHW,,,,,00.0,N,,*19
$IIVLW,06181,N,008.4,N*51
$IIGLL,4736.972,N,12228.846,W,200000,A,A*4B
$GPRMC,200049.4,A,4736.97056,N,12228.84931,W,005.77,220.2,020313,016.6,E*43
$IIMTW,+07.0,C*3F
$IIRMC,200000,A,4736.972,N,12228.846,W,06.1,229,020313,16,E,A*1D
$GPRMC,200049.6,A,4736.97034,N,12228.84958,W,005.95,219.6,020313,016.6,E*48
$HCHDG,201.6,0.0,E,,*2C
$YXXDR,A,3.8,D,PTCH,A,37.2,D,ROLL*60
$GPRMC,200049.8,A,4736.97019,N,12228.84996,W,005.89,221.7,020313,016.6,E*4C
$GPRMB,A,,,,,4740.4440,N,12220.0640,W,9692.04,377,-5.37,*23
$GPRMC,200050.0,A,4736.96997,N,12228.85038,W,005.97,223.8,020313,016.6,E*4C
$HCHDG,202.2,0.0,E,,*2B
$YXXDR,A,3.9,D,PTCH,A,33.5,D,ROLL*62
$GPRMC,200050.2,A,4736.96977,N,12228.85083,W,005.94,227.1,020313,016.6,E*4E
$IIVHW,,,,,00.0,N,,*19
$IIVLW,06181,N,008.4,N*51
$IIGLL,4736.971,N,12228.848,W,200000,A,A*46
$GPRMC,200050.4,A,4736.96954,N,12228.85127,W,006.11,229.3,020313,016.6,E*44
$IIMTW,+07.0,C*3F
$IIRMC,200000,A,4736.971,N,12228.848,W,05.6,225,020313,16,E,A*18
$HCHDG,205.3,0.0,E,,*2D
$GPRMC,200050.6,A,4736.96940,N,12228.85159,W,005.66,230.4,020313,016.6,E*46
$YXXDR,A,3.8,D,PTCH,A,28.9,D,ROLL*65
$GPRMC,200050.8,A,4736.96925,N,12228.85189,W,005.72,231.1,020313,016.6,E*47
$GPRMB,A,,,,,4740.4440,N,12220.0640,W,9688.63,377,-1.27,*2C
$GPRMC,200051.0,A,4736.96900,N,12228.85232,W,005.39,228.4,020313,016.6,E*48
$HCHDG,204.2,0.0,E,,*2D
$YXXDR,A,3.7,D,PTCH,A,32.7,D,ROLL*6F
$GPRMC,200051.2,A,4736.96876,N,12228.85265,W,005.82,224.1,020313,016.6,E*41
$IIVHW,,,,,00.0,N,,*19
$IIVLW,06181,N,008.4,N*51
$IIGLL,4736.969,N,12228.850,W,200000,A,A*46
$GPRMC,200051.4,A,4736.96856,N,12228.85295,W,005.81,218.8,020313,016.6,E*4F
$IIMTW,+07.0,C*3F
$IIRMC,200000,A,4736.969,N,12228.850,W,05.9,223,020313,16,E,A*11
$GPRMC,200051.6,A,4736.96834,N,12228.85317,W,005.31,221.3,020313,016.6,E*48
$HCHDG,199.6,0.0,E,,*2E
$YXXDR,A,4.3,D,PTCH,A,37.9,D,ROLL*67
$GPRMC,200051.8,A,4736.96812,N,12228.85346,W,005.87,215.3,020313,016.6,E*4C
$GPRMB,A,,,,,4740.4440,N,12220.0640,W,9684.69,377,1.57,*00
$GPRMC,200052.0,A,4736.96785,N,12228.85389,W,005.94,218.1,020313,016.6,E*48
$HCHDG,199.3,0.0,E,,*2B
$YXXDR,A,3.2,D,PTCH,A,35.4,D,ROLL*6E
$GPRMC,200052.2,A,4736.96760,N,12228.85433,W,006.40,221.5,020313,016.6,E*43
$IIVHW,,,,,00.0,N,,*19
$IIVLW,06181,N,008.4,N*51
$IIGLL,4736.969,N,12228.852,W,200000,A,A*44
$GPRMC,200052.4,A,4736.96737,N,12228.85481,W,006.23,226.7,020313,016.6,E*4E
$IIMTW,+07.0,C*3F
$IIRMC,200000,A,4736.969,N,12228.852,W,05.3,228,020313,16,E,A*12
$GPRMC,200052.6,A,4736.96712,N,12228.85536,W,006.29,231.2,020313,016.6,E*4F
$HCHDG,206.5,0.0,E,,*28
$YXXDR,A,3.3,D,PTCH,A,29.1,D,ROLL*67
$GPRMC,200052.8,A,4736.96691,N,12228.85590,W,006.23,233.5,020313,016.6,E*48
$GPRMC,200053.0,A,4736.96673,N,12228.85634,W,006.19,232.6,020313,016.6,E*4B
$GPRMB,A,,,,,4740.4440,N,12220.0640,W,9679.65,377,6.04,*0F
$HCHDG,209.3,0.0,E,,*21
$YXXDR,A,3.5,D,PTCH,A,30.9,D,ROLL*61
$GPRMC,200053.2,A,4736.96655,N,12228.85676,W,006.12,231.9,020313,016.6,E*4C
$IIVHW,,,,,00.0,N,,*19
$IIVLW,06181,N,008.4,N*51
$IIGLL,4736.967,N,12228.853,W,200000,A,A*4B
$GPRMC,200053.4,A,4736.96633,N,12228.85715,W,006.15,228.6,020313,016.6,E*4E
$IIMTW,+07.0,C*3F
$IIRMC,200000,A,4736.967,N,12228.853,W,05.9,218,020313,16,E,A*14
$HCHDG,204.8,0.0,E,,*27
$GPRMC,200053.6,A,4736.96612,N,12228.85751,W,006.12,227.4,020313,016.6,E*45
$YXXDR,A,3.6,D,PTCH,A,37.0,D,ROLL*6C
$GPRMC,200053.8,A,4736.96586,N,12228.85785,W,006.09,226.8,020313,016.6,E*4B
$GPRMC,200054.0,A,4736.96562,N,12228.85821,W,006.09,221.9,020313,016.6,E*49
$HCHDG,200.6,0.0,E,,*2D
$YXXDR,A,3.7,D,PTCH,A,37.5,D,ROLL*68
$GPRMC,200054.2,A,4736.96539,N,12228.85848,W,006.05,219.8,020313,016.6,E*4C
$GPRMB,A,,,,,4740.4440,N,12220.0640,W,9674.92,377,0.28,*02
$IIVHW,,,,,00.0,N,,*19
$IIVLW,06181,N,008.4,N*51
$IIDPT,015.5,-1.0,*41
$GPRMC,200054.4,A,4736.96515,N,12228.85871,W,005.99,217.5,020313,016.6,E*4B
$IIGLL,4736.966,N,12228.856,W,200000,A,A*4F
$IIMTW,+07.0,C*3F
$GPRMC,200054.6,A,4736.96489,N,12228.85896,W,005.97,212.8,020313,016.6,E*42
$HCHDG,196.3,0.0,E,,*24
$IIRMC,200000,A,4736.966,N,12228.856,W,06.1,232,020313,16,E,A*13
$YXXDR,A,3.9,D,PTCH,A,36.4,D,ROLL*66
$GPRMC,200054.8,A,4736.96460,N,12228.85924,W,006.16,210.1,020313,016.6,E*42
$GPRMC,200055.0,A,4736.96436,N,12228.85956,W,006.16,211.6,020313,016.6,E*4B
$HCHDG,193.5,0.0,E,,*27
$YXXDR,A,3.3,D,PTCH,A,33.4,D,ROLL*69
$GPRMC,200055.2,A,4736.96411,N,12228.85984,W,005.73,211.5,020313,016.6,E*40
$GPRMB,A,,,,,4740.4440,N,12220.0640,W,9670.55,377,-5.38,*24
$IIVHW,,,,,00.0,N,,*19
$IIVLW,06181,N,008.4,N*51
$IIDPT,015.5,-1.0,*41
$GPRMC,200055.4,A,4736.96390,N,12228.86005,W,005.72,213.4,020313,016.6,E*49
$IIGLL,4736.965,N,12228.858,W,200000,A,A*42
$IIMTW,+07.0,C*3F
$GPRMC,200055.6,A,4736.96371,N,12228.86017,W,005.46,215.0,020313,016.6,E*42
$HCHDG,196.6,0.0,E,,*21
$IIRMC,200000,A,4736.965,N,12228.858,W,06.0,221,020313,16,E,A*1D
$YXXDR,A,4.1,D,PTCH,A,27.0,D,ROLL*6D
$GPRMC,200055.8,A,4736.96349,N,12228.86038,W,005.65,215.6,020313,016.6,E*4D
$GPRMC,200056.0,A,4736.96324,N,12228.86062,W,005.72,213.9,020313,016.6,E*4D
$HCHDG,199.7,0.0,E,,*2F
$YXXDR,A,4.8,D,PTCH,A,23.2,D,ROLL*62
$GPRMC,200056.2,A,4736.96304,N,12228.86087,W,005.74,218.2,020313,016.6,E*40
$IIVHW,,,,,00.0,N,,*19
$IIVLW,06181,N,008.4,N*51
$IIDPT,014.4,-1.0,*41
$GPRMC,200056.4,A,4736.96282,N,12228.86111,W,005.67,219.2,020313,016.6,E*44
$GPRMB,A,,,,,4740.4440,N,12220.0640,W,9666.16,377,0.76,*06
$IIGLL,4736.964,N,12228.859,W,200000,A,A*42
$IIMTW,+07.0,C*3F
$GPRMC,200056.6,A,4736.96256,N,12228.86138,W,005.73,220.4,020313,016.6,E*4D
$HCHDG,204.2,0.0,E,,*2D
$IIRMC,200000,A,4736.964,N,12228.859,W,06.1,211,020313,16,E,A*1F
$YXXDR,A,5.1,D,PTCH,A,18.6,D,ROLL*66
$GPRMC,200056.8,A,4736.96232,N,12228.86168,W,005.70,221.6,020313,016.6,E*44
$GPRMC,200057.0,A,4736.96209,N,12228.86198,W,005.91,222.9,020313,016.6,E*49
$HCHDG,206.7,0.0,E,,*2A
$YXXDR,A,4.4,D,PTCH,A,16.1,D,ROLL*6B
$GPRMC,200057.2,A,4736.96188,N,12228.86228,W,005.97,225.0,020313,016.6,E*41
$IIVHW,,,,,00.0,N,,*19
$IIVLW,06181,N,008.4,N*51
$IIDPT,014.4,-1.0,*41
$GPRMC,200057.4,A,4736.96166,N,12228.86266,W,006.25,226.3,020313,016.6,E*47
$GPRMB,A,,,,,4740.4440,N,12220.0640,W,9662.13,377,-6.22,*2D
$IIGLL,4736.963,N,12228.860,W,200000,A,A*4F
$IIMTW,+07.0,C*3F
$GPRMC,200057.6,A,4736.96151,N,12228.86299,W,005.75,225.9,020313,016.6,E*4E
$HCHDG,207.2,0.0,E,,*2E
$IIRMC,200000,A,4736.963,N,12228.860,W,05.7,213,020313,16,E,A*15
$YXXDR,A,4.3,D,PTCH,A,16.2,D,ROLL*6F
$GPRMC,200057.8,A,4736.96129,N,12228.86331,W,005.92,225.8,020313,016.6,E*44
$GPRMC,200058.0,A,4736.96107,N,12228.86365,W,005.75,224.9,020313,016.6,E*47
$HCHDG,205.3,0.0,E,,*2D
$YXXDR,A,4.6,D,PTCH,A,20.6,D,ROLL*6B
$GPRMC,200058.2,A,4736.96085,N,12228.86391,W,005.72,222.8,020313,016.6,E*45
$IIVHW,,,,,00.0,N,,*19
$IIVLW,06181,N,008.4,N*51
$IIDPT,014.4,-1.0,*41
$GPRMC,200058.4,A,4736.96067,N,12228.86423,W,005.76,224.9,020313,016.6,E*42
$IIGLL,4736.962,N,12228.861,W,200000,A,A*4F
$IIMTW,+07.0,C*3F
$GPRMC,200058.6,A,4736.96047,N,12228.86450,W,005.57,224.9,020313,016.6,E*45
$GPRMB,A,,,,,4740.4440,N,12220.0640,W,9657.94,377,-0.01,*23
$HCHDG,204.4,0.0,E,,*2B
$IIRMC,200000,A,4736.962,N,12228.861,W,05.9,222,020313,16,E,A*19
$YXXDR,A,4.5,D,PTCH,A,22.4,D,ROLL*68
$GPRMC,200058.8,A,4736.96027,N,12228.86468,W,005.54,225.7,020313,016.6,E*4A
$GPRMC,200059.0,A,4736.96010,N,12228.86487,W,005.55,227.2,020313,016.6,E*40
$HCHDG,205.6,0.0,E,,*28
$YXXDR,A,4.5,D,PTCH,A,21.5,D,ROLL*6A
$GPRMC,200059.2,A,4736.95988,N,12228.86506,W,005.59,225.9,020313,016.6,E*44
$IIVHW,,,,,00.0,N,,*19
$IIVLW,06181,N,008.4,N*51
$IIDPT,011.7,-1.0,*47
$GPRMC,200059.4,A,4736.95969,N,12228.86527,W,005.62,227.2,020313,016.6,E*4F
$IIGLL,4736.961,N,12228.863,W,200000,A,A*4E
$IIMTW,+07.0,C*3F
$GPRMC,200059.6,A,4736.95955,N,12228.86557,W,005.67,227.8,020313,016.6,E*4A
$GPRMB,A,,,,,4740.4440,N,12220.0640,W,9654.78,377,1.93,*05
$HCHDG,207.1,0.0,E,,*2D
$IIRMC,200000,A,4736.961,N,12228.863,W,05.7,224,020313,16,E,A*10
$YXXDR,A,4.5,D,PTCH,A,21.4,D,ROLL*6B
$GPRMC,200059.8,A,4736.95939,N,12228.86581,W,005.84,227.4,020313,016.6,E*44
$GPRMC,200100.0,A,4736.95917,N,12228.86609,W,005.87,228.4,020313,016.6,E*42
$HCHDG,207.1,0.0,E,,*2D
$YXXDR,A,4.6,D,PTCH,A,22.8,D,ROLL*67
$GPRMC,200100.2,A,4736.95895,N,12228.86648,W,005.90,228.6,020313,016.6,E*4A
$IIVHW,,,,,00.0,N,,*19
$IIVLW,06181,N,008.4,N*51
$IIDPT,011.4,-1.0,*44
$GPRMC,200100.4,A,4736.95876,N,12228.86688,W,005.91,228.5,020313,016.6,E*4F
$IIGLL,4736.960,N,12228.864,W,200000,A,A*48
$IIMTW,+07.0,C*3F
$GPRMC,200100.6,A,4736.95857,N,12228.86718,W,005.89,226.2,020313,016.6,E*46
$GPRMB,A,,,,,4740.4440,N,12220.0640,W,9651.30,377,-4.67,*2F
$HCHDG,205.6,0.0,E,,*28
$IIRMC,200000,A,4736.960,N,12228.864,W,05.5,227,020313,16,E,A*17
$YXXDR,A,4.7,D,PTCH,A,23.7,D,ROLL*68
$GPRMC,200100.8,A,4736.95838,N,12228.86748,W,005.67,225.8,020313,016.6,E*4D
$GPRMC,200101.0,A,4736.95815,N,12228.86784,W,005.73,222.3,020313,016.6,E*42
$HCHDG,202.7,0.0,E,,*2E
$YXXDR,A,4.7,D,PTCH,A,25.8,D,ROLL*61
$GPRMC,200101.2,A,4736.95791,N,12228.86817,W,005.71,222.0,020313,016.6,E*47
$IIVHW,,,,,00.0,N,,*19
$IIVLW,06181,N,008.4,N*51
$IIDPT,011.0,-1.0,*40
$GPRMC,200101.4,A,4736.95767,N,12228.86847,W,005.75,221.0,020313,016.6,E*4A
$IIGLL,4736.959,N,12228.866,W,200100,A,A*41
$IIMTW,+07.0,C*3F
$GPRMC,200101.6,A,4736.95743,N,12228.86873,W,005.75,220.4,020313,016.6,E*4C
$HCHDG,201.2,0.0,E,,*28
$IIRMC,200100,A,4736.959,N,12228.866,W,05.8,228,020313,16,E,A*1C
$YXXDR,A,5.0,D,PTCH,A,25.0,D,ROLL*6F
$GPRMC,200101.8,A,4736.95719,N,12228.86901,W,005.79,219.0,020313,016.6,E*4B
$GPRMB,A,,,,,4740.4440,N,12220.0640,W,9646.51,377,5.49,*0E
$GPRMC,200102.0,A,4736.95697,N,12228.86929,W,005.77,221.5,020313,016.6,E*4D
$HCHDG,201.5,0.0,E,,*2F
$YXXDR,A,4.8,D,PTCH,A,24.5,D,ROLL*62
$GPRMC,200102.2,A,4736.95678,N,12228.86961,W,005.57,222.4,020313,016.6,E*42
$IIVHW,,,,,00.0,N,,*19
$IIVLW,06181,N,008.4,N*51
$IIDPT,011.2,-1.0,*42
$GPRMC,200102.4,A,4736.95653,N,12228.86993,W,005.74,222.8,020313,016.6,E*4D
$IIGLL,4736.959,N,12228.866,W,200100,A,A*41
$IIMTW,+07.0,C*3F
$GPRMC,200102.6,A,4736.95622,N,12228.87034,W,006.01,224.2,020313,016.6,E*41
$HCHDG,203.7,0.0,E,,*2F
$IIRMC,200100,A,4736.959,N,12228.866,W,05.8,228,020313,16,E,A*1C
$YXXDR,A,4.4,D,PTCH,A,23.5,D,ROLL*69
$GPRMC,200102.8,A,4736.95596,N,12228.87072,W,005.98,226.0,020313,016.6,E*42
$GPRMC,200103.0,A,4736.95569,N,12228.87110,W,005.95,225.8,020313,016.6,E*48
$GPRMB,A,,,,,4740.4440,N,12220.0640,W,9641.27,377,5.74,*06
$HCHDG,206.0,0.0,E,,*2D
$YXXDR,A,4.3,D,PTCH,A,23.5,D,ROLL*6E
$GPRMC,200103.2,A,4736.95540,N,12228.87138,W,005.94,226.2,020313,016.6,E*43
$IIVHW,,,,,00.0,N,,*19
$IIVLW,06181,N,008.4,N*51
$IIDPT,010.9,-1.0,*48
$GPRMC,200103.4,A,4736.95514,N,12228.87178,W,005.97,228.0,020313,016.6,E*4F
$IIGLL,4736.959,N,12228.866,W,200100,A,A*41
$IIMTW,+07.0,C*3F
$GPRMC,200103.6,A,4736.95494,N,12228.87216,W,006.01,228.5,020313,016.6,E*46
$HCHDG,206.1,0.0,E,,*2C
$IIRMC,200100,A,4736.959,N,12228.866,W,05.8,228,020313,16,E,A*1C
$YXXDR,A,4.4,D,PTCH,A,25.6,D,ROLL*6C
$GPRMC,200103.8,A,4736.95475,N,12228.87261,W,006.02,228.8,020313,016.6,E*49
$GPRMC,200104.0,A,4736.95455,N,12228.87305,W,006.03,228.4,020313,016.6,E*4A
$HCHDG,206.4,0.0,E,,*29
$YXXDR,A,4.9,D,PTCH,A,25.7,D,ROLL*60
$GPRMC,200104.2,A,4736.95433,N,12228.87348,W,005.84,228.7,020313,016.6,E*4E
$GPRMB,A,,,,,4740.4440,N,12220.0640,W,9636.42,377,-4.78,*25
$IIVHW,,,,,00.0,N,,*19
$IIVLW,06181,N,008.4,N*51
$IIDPT,011.2,-1.0,*42
$GPRMC,200104.4,A,4736.95410,N,12228.87389,W,005.84,226.2,020313,016.6,E*4F
$IIGLL,4736.955,N,12228.871,W,200100,A,A*4B
$IIMTW,+07.0,C*3F
$GPRMC,200104.6,A,4736.95389,N,12228.87419,W,005.84,224.9,020313,016.6,E*4D
$HCHDG,204.7,0.0,E,,*28
$IIRMC,200100,A,4736.955,N,12228.871,W,05.9,225,020313,16,E,A*1A
$YXXDR,A,4.9,D,PTCH,A,26.3,D,ROLL*67
$GPRMC,200104.8,A,4736.95371,N,12228.87446,W,005.87,223.8,020313,016.6,E*4B
$GPRMC,200105.0,A,4736.95351,N,12228.87471,W,005.83,223.5,020313,016.6,E*4D
$HCHDG,203.7,0.0,E,,*2F
$YXXDR,A,4.8,D,PTCH,A,23.6,D,ROLL*66
$GPRMC,200105.2,A,4736.95330,N,12228.87502,W,006.03,222.1,020313,016.6,E*43
$IIVHW,,,,,00.0,N,,*19
$IIVLW,06181,N,008.4,N*51
$IIDPT,011.0,-1.0,*40
$GPRMC,200105.4,A,4736.95309,N,12228.87533,W,005.97,221.5,020313,016.6,E*44
$GPRMB,A,,,,,4740.4440,N,12220.0640,W,9632.06,377,-0.13,*28
$IIGLL,4736.954,N,12228.873,W,200100,A,A*48
$IIMTW,+07.0,C*3F
$GPRMC,200105.6,A,4736.95290,N,12228.87561,W,005.91,221.2,020313,016.6,E*41
$HCHDG,203.9,0.0,E,,*21
$IIRMC,200100,A,4736.954,N,12228.873,W,06.0,228,020313,16,E,A*1E
$YXXDR,A,5.1,D,PTCH,A,20.2,D,ROLL*69
$GPRMC,200105.8,A,4736.95266,N,12228.87588,W,006.12,221.6,020313,016.6,E*4D
$GPRMC,200106.0,A,4736.95239,N,12228.87618,W,006.10,219.5,020313,016.6,E*4C
$HCHDG,203.4,0.0,E,,*2C
$YXXDR,A,5.0,D,PTCH,A,18.3,D,ROLL*62
$GPRMC,200106.2,A,4736.95218,N,12228.87643,W,006.05,222.8,020313,016.6,E*42
$IIVHW,,,,,00.0,N,,*19
$IIVLW,06181,N,008.4,N*51
$IIDPT,011.2,-1.0,*42
$GPRMC,200106.4,A,4736.95193,N,12228.87675,W,006.00,222.9,020313,016.6,E*45
$GPRMB,A,,,,,4740.4440,N,12220.0640,W,9628.05,377,-5.98,*26
$IIGLL,4736.953,N,12228.874,W,200100,A,A*48
$IIMTW,+07.0,C*3F
$GPRMC,200106.6,A,4736.95173,N,12228.87707,W,005.96,223.7,020313,016.6,E*4E
$HCHDG,204.8,0.0,E,,*27
$IIRMC,200100,A,4736.953,N,12228.874,W,05.8,223,020313,16,E,A*1E
$YXXDR,A,4.8,D,PTCH,A,15.6,D,ROLL*63
$GPRMC,200106.8,A,4736.95150,N,12228.87741,W,005.79,225.8,020313,016.6,E*4B
$GPRMC,200107.0,A,4736.95129,N,12228.87768,W,005.38,223.8,020313,016.6,E*44
$HCHDG,207.8,0.0,E,,*24
$YXXDR,A,4.8,D,PTCH,A,14.7,D,ROLL*63
$GPRMC,200107.2,A,4736.95107,N,12228.87804,W,005.46,225.2,020313,016.6,E*4A
$IIVHW,,,,,00.0,N,,*19
$IIVLW,06181,N,008.4,N*51
$IIDPT,010.5,-1.0,*44
$GPRMC,200107.4,A,4736.95089,N,12228.87838,W,005.78,227.7,020313,016.6,E*4E
$IIGLL,4736.952,N,12228.876,W,200100,A,A*4B
$IIMTW,+07.0,C*3F
$GPRMC,200107.6,A,4736.95069,N,12228.87871,W,005.83,228.5,020313,016.6,E*46
$GPRMB,A,,,,,4740.4440,N,12220.0640,W,9623.67,377,-5.12,*2B
$HCHDG,211.0,0.0,E,,*2B
$IIRMC,200100,A,4736.952,N,12228.876,W,06.1,219,020313,16,E,A*1E
$YXXDR,A,4.9,D,PTCH,A,14.5,D,ROLL*60
$GPRMC,200107.8,A,4736.95051,N,12228.87908,W,006.08,232.1,020313,016.6,E*43
$GPRMC,200108.0,A,4736.95033,N,12228.87942,W,006.04,233.3,020313,016.6,E*41
$HCHDG,214.7,0.0,E,,*29
$YXXDR,A,4.9,D,PTCH,A,14.7,D,ROLL*62
$GPRMC,200108.2,A,4736.95014,N,12228.87985,W,006.05,233.7,020313,016.6,E*48
$IIVHW,,,,,00.0,N,,*19
$IIVLW,06181,N,008.4,N*51
$IIDPT,010.5,-1.0,*44
$GPRMC,200108.4,A,4736.94996,N,12228.88030,W,006.08,235.0,020313,016.6,E*48
$IIGLL,4736.951,N,12228.877,W,200100,A,A*49
$IIMTW,+07.0,C*3F
$GPRMC,200108.6,A,4736.94976,N,12228.88070,W,006.15,234.2,020313,016.6,E*4F
$HCHDG,215.4,0.0,E,,*2B
$IIRMC,200100,A,4736.951,N,12228.877,W,05.3,223,020313,16,E,A*14
$YXXDR,A,5.0,D,PTCH,A,18.5,D,ROLL*64
$GPRMC,200108.8,A,4736.94958,N,12228.88114,W,006.09,237.3,020313,016.6,E*41
$GPRMB,A,,,,,4740.4440,N,12220.0640,W,9619.60,377,2.79,*02
$GPRMC,200109.0,A,4736.94939,N,12228.88156,W,006.10,236.1,020313,016.6,E*42
$HCHDG,214.7,0.0,E,,*29
$GPRMC,200109.2,A,4736.94922,N,12228.88196,W,006.07,241.3,020313,016.6,E*42
$YXXDR,A,4.3,D,PTCH,A,22.8,D,ROLL*62
$IIVHW,,,,,00.0,N,,*19
$IIVLW,06181,N,008.4,N*51
$IIDPT,009.8,-1.0,*41
$GPRMC,200109.4,A,4736.94906,N,12228.88244,W,006.05,237.6,020313,016.6,E*48
$IIGLL,4736.950,N,12228.879,W,200100,A,A*46
$IIMTW,+07.0,C*3F
$GPRMC,200109.6,A,4736.94890,N,12228.88288,W,006.03,237.2,020313,016.6,E*46
$HCHDG,214.7,0.0,E,,*29
$IIRMC,200100,A,4736.950,N,12228.879,W,06.0,233,020313,16,E,A*1A
$YXXDR,A,4.3,D,PTCH,A,25.5,D,ROLL*68
$GPRMC,200109.8,A,4736.94878,N,12228.88330,W,006.02,238.7,020313,016.6,E*47
$GPRMC,200110.0,A,4736.94859,N,12228.88383,W,006.00,236.8,020313,016.6,E*4F
$GPRMB,A,,,,,4740.4440,N,12220.0640,W,9615.86,377,-0.62,*23
$HCHDG,212.4,0.0,E,,*2C
$YXXDR,A,3.5,D,PTCH,A,29.7,D,ROLL*67
$GPRMC,200110.2,A,4736.94840,N,12228.88435,W,006.02,235.6,020313,016.6,E*40
$IIVHW,,,,,00.0,N,,*19
$IIVLW,06181,N,008.4,N*51
$IIDPT,010.3,-1.0,*42
$GPRMC,200110.4,A,4736.94824,N,12228.88482,W,005.99,234.1,020313,016.6,E*4F
$IIGLL,4736.949,N,12228.881,W,200100,A,A*49
$IIMTW,+07.0,C*3F
$GPRMC,200110.6,A,4736.94807,N,12228.88525,W,006.19,232.3,020313,016.6,E*4F
$HCHDG,210.9,0.0,E,,*23
$IIRMC,200100,A,4736.949,N,12228.881,W,06.1,236,020313,16,E,A*11
$YXXDR,A,4.1,D,PTCH,A,31.8,D,ROLL*62
$GPRMC,200110.8,A,4736.94786,N,12228.88569,W,005.97,231.1,020313,016.6,E*4B
$GPRMC,200111.0,A,4736.94764,N,12228.88617,W,006.32,230.2,020313,016.6,E*4A
$GPRMB,A,,,,,4740.4440,N,12220.0640,W,9612.32,377,5.50,*02
$HCHDG,208.7,0.0,E,,*24
$YXXDR,A,4.2,D,PTCH,A,34.3,D,ROLL*6F
$GPRMC,200111.2,A,4736.94742,N,12228.88665,W,006.33,230.7,020313,016.6,E*4D
$IIVHW,,,,,00.0,N,,*19
$IIVLW,06181,N,008.4,N*51
$IIDPT,010.3,-1.0,*42
$GPRMC,200111.4,A,4736.94720,N,12228.88711,W,006.40,232.7,020313,016.6,E*4B
$IIGLL,4736.948,N,12228.883,W,200100,A,A*4A
$IIMTW,+07.0,C*3F
$GPRMC,200111.6,A,4736.94701,N,12228.88762,W,006.38,236.4,020313,016.6,E*46
$HCHDG,208.4,0.0,E,,*27
$IIRMC,200100,A,4736.948,N,12228.883,W,06.0,236,020313,16,E,A*13
$YXXDR,A,3.4,D,PTCH,A,32.4,D,ROLL*6F
$GPRMC,200111.8,A,4736.94684,N,12228.88807,W,006.22,236.1,020313,016.6,E*46
$GPRMC,200112.0,A,4736.94664,N,12228.88856,W,006.04,235.5,020313,016.6,E*44
$HCHDG,207.3,0.0,E,,*2F
$YXXDR,A,3.3,D,PTCH,A,32.4,D,ROLL*68
$GPRMC,200112.2,A,4736.94641,N,12228.88895,W,006.01,232.0,020313,016.6,E*49
$GPRMB,A,,,,,4740.4440,N,12220.0640,W,9607.80,377,-6.01,*25
$IIVHW,,,,,00.0,N,,*19
$IIVLW,06181,N,008.4,N*51
$IIDPT,011.2,-1.0,*42
$GPRMC,200112.4,A,4736.94616,N,12228.88938,W,006.06,228.9,020313,016.6,E*4E
$IIGLL,4736.947,N,12228.886,W,200100,A,A*40
$IIMTW,+07.0,C*3F
$GPRMC,200112.6,A,4736.94597,N,12228.88970,W,005.85,226.1,020313,016.6,E*44
$HCHDG,202.1,0.0,E,,*28
$IIRMC,200100,A,4736.947,N,12228.886,W,06.3,230,020313,16,E,A*1C
$YXXDR,A,3.9,D,PTCH,A,38.0,D,ROLL*6C
$GPRMC,200112.8,A,4736.94574,N,12228.89008,W,006.04,224.5,020313,016.6,E*4C
$GPRMC,200113.0,A,4736.94555,N,12228.89037,W,006.02,224.8,020313,016.6,E*41
$HCHDG,198.8,0.0,E,,*21
$YXXDR,A,3.4,D,PTCH,A,37.0,D,ROLL*6E
$GPRMC,200113.2,A,4736.94531,N,12228.89072,W,005.99,223.8,020313,016.6,E*46
$GPRMB,A,,,,,4740.4440,N,12220.0640,W,9603.90,377,-1.08,*2E
$IIVHW,,,,,00.0,N,,*19
$IIVLW,06181,N,008.4,N*51
$IIDPT,010.7,-1.0,*46
$GPRMC,200113.4,A,4736.94510,N,12228.89104,W,006.01,224.2,020313,016.6,E*4C
$IIGLL,4736.946,N,12228.888,W,200100,A,A*4F
$IIMTW,+08.0,C*30
$GPRMC,200113.6,A,4736.94492,N,12228.89133,W,005.47,224.4,020313,016.6,E*46
$HCHDG,198.9,0.0,E,,*20
$IIRMC,200100,A,4736.946,N,12228.888,W,06.0,235,020313,16,E,A*15
$YXXDR,A,3.9,D,PTCH,A,33.2,D,ROLL*65
$GPRMC,200113.8,A,4736.94471,N,12228.89159,W,005.76,221.5,020313,016.6,E*4F
$GPRMC,200114.0,A,4736.94448,N,12228.89190,W,005.92,220.0,020313,016.6,E*41
$HCHDG,196.7,0.0,E,,*20
$YXXDR,A,4.1,D,PTCH,A,34.1,D,ROLL*6E
$GPRMC,200114.2,A,4736.94428,N,12228.89214,W,005.63,218.2,020313,016.6,E*4D
$IIVHW,,,,,00.0,N,,*19
$IIVLW,06181,N,008.4,N*51
$IIDPT,010.7,-1.0,*46
$GPRMC,200114.4,A,4736.94402,N,12228.89235,W,005.87,217.7,020313,016.6,E*40
$GPRMB,A,,,,,4740.4440,N,12220.0640,W,9599.42,377,4.84,*0D
$IIGLL,4736.945,N,12228.890,W,200100,A,A*45
$IIMTW,+07.5,C*3A
$GPRMC,200114.6,A,4736.94378,N,12228.89267,W,006.21,221.7,020313,016.6,E*45
$HCHDG,195.9,0.0,E,,*2D
$IIRMC,200100,A,4736.945,N,12228.890,W,06.0,224,020313,16,E,A*1F
$YXXDR,A,4.3,D,PTCH,A,30.4,D,ROLL*6D
$GPRMC,200114.8,A,4736.94355,N,12228.89298,W,006.23,222.1,020313,016.6,E*43
$GPRMC,200115.0,A,4736.94329,N,12228.89332,W,006.30,221.2,020313,016.6,E*42
$HCHDG,196.4,0.0,E,,*23
$YXXDR,A,4.1,D,PTCH,A,26.2,D,ROLL*6E
$GPRMC,200115.2,A,4736.94307,N,12228.89364,W,006.26,221.4,020313,016.6,E*4E
$IIVHW,,,,,00.0,N,,*19
$IIVLW,06181,N,008.4,N*51
$IIDPT,010.3,-1.0,*42
$GPRMC,200115.4,A,4736.94286,N,12228.89388,W,005.87,221.3,020313,016.6,E*4D
$GPRMB,A,,,,,4740.4440,N,12220.0640,W,9595.39,377,5.22,*00
$IIGLL,4736.944,N,12228.891,W,200100,A,A*45
$IIMTW,+07.5,C*3A
$GPRMC,200115.6,A,4736.94264,N,12228.89418,W,005.52,217.6,020313,016.6,E*45
$HCHDG,193.7,0.0,E,,*25
$IIRMC,200100,A,4736.944,N,12228.891,W,05.9,220,020313,16,E,A*11
$YXXDR,A,5.6,D,PTCH,A,24.9,D,ROLL*61
$GPRMC,200115.8,A,4736.94240,N,12228.89443,W,005.47,212.8,020313,016.6,E*4C
$GPRMC,200116.0,A,4736.94213,N,12228.89471,W,005.45,212.5,020313,016.6,E*4F
$HCHDG,187.3,0.0,E,,*24
$YXXDR,A,5.2,D,PTCH,A,22.9,D,ROLL*63
$GPRMC,200116.2,A,4736.94189,N,12228.89497,W,005.78,210.0,020313,016.6,E*4C
$GPRMC,200116.4,A,4736.94161,N,12228.89521,W,005.76,209.2,020313,016.6,E*44
$GPRMC,200116.6,A,4736.94138,N,12228.89537,W,005.29,210.9,020313,016.6,E*44
$GPRMB,A,,,,,4740.4440,N,12220.0640,W,9590.33,377,4.51,*0A
$HCHDG,184.1,0.0,E,,*25
$YXXDR,A,4.9,D,PTCH,A,13.4,D,ROLL*66
$GPRMC,200116.8,A,4736.94112,N,12228.89558,W,005.26,208.4,020313,016.6,E*40
$GPRMC,200117.0,A,4736.94085,N,12228.89577,W,005.03,212.7,020313,016.6,E*44
$HCHDG,179.4,0.0,E,,*22
$YXXDR,A,5.3,D,PTCH,A,7.1,D,ROLL*5D
$GPRMC,200117.2,A,4736.94063,N,12228.89596,W,004.16,213.3,020313,016.6,E*41
$IIVHW,,,,,00.0,N,,*19
$IIVLW,06181,N,008.4,N*51
$IIDPT,010.3,-1.0,*42
$GPRMC,200117.4,A,4736.94040,N,12228.89610,W,004.23,209.8,020313,016.6,E*4D
$IIGLL,4736.943,N,12228.893,W,200100,A,A*40
$IIMTW,+07.5,C*3A
$GPRMC,200117.6,A,4736.94011,N,12228.89616,W,003.91,201.0,020313,016.6,E*43
$GPRMB,A,,,,,4740.4440,N,12220.0640,W,9586.09,377,1.46,*07
$HCHDG,172.4,0.0,E,,*29
$IIRMC,200100,A,4736.943,N,12228.893,W,06.3,221,020313,16,E,A*1C
$IIVHW,,,,,00.0,N,,*19
$YXXDR,A,6.0,D,PTCH,A,1.3,D,ROLL*59
$IIVLW,06181,N,008.4,N*51
$IIDPT,010.3,-1.0,*42
$GPRMC,200117.8,A,4736.93982,N,12228.89623,W,004.45,198.8,020313,016.6,E*4A
$GPRMC,200118.0,A,4736.93959,N,12228.89633,W,004.29,193.7,020313,016.6,E*44
$HCHDG,163.5,0.0,E,,*28
$YXXDR,A,6.2,D,PTCH,A,-1.5,D,ROLL*70
$GPRMC,200118.2,A,4736.93935,N,12228.89645,W,004.08,197.0,020313,016.6,E*4D
$IIGLL,4736.940,N,12228.895,W,200100,A,A*45
$IIMTW,+07.5,C*3A
$GPRMC,200118.4,A,4736.93915,N,12228.89656,W,003.86,196.1,020313,016.6,E*4A
$IIRMC,200100,A,4736.940,N,12228.895,W,05.0,212,020313,16,E,A*19
$IIVHW,,,,,00.0,N,,*19
$IIVLW,06181,N,008.4,N*51
$GPRMC,200118.6,A,4736.93901,N,12228.89666,W,003.32,198.3,020313,016.6,E*4D
$GPRMB,A,,,,,4740.4440,N,12220.0640,W,9582.46,377,1.23,*0B
$HCHDG,155.7,0.0,E,,*2F
$IIDPT,010.3,-1.0,*42
$YXXDR,A,5.1,D,PTCH,A,-5.0,D,ROLL*71
$GPRMC,200118.8,A,4736.93879,N,12228.89678,W,003.37,193.9,020313,016.6,E*46
$GPRMC,200119.0,A,4736.93856,N,12228.89686,W,003.80,185.6,020313,016.6,E*47
$HCHDG,149.1,0.0,E,,*24
$YXXDR,A,5.3,D,PTCH,A,-8.9,D,ROLL*77
$GPRMC,200119.2,A,4736.93830,N,12228.89683,W,004.36,177.2,020313,016.6,E*43
$IIGLL,4736.939,N,12228.896,W,200100,A,A*48
$IIMTW,+07.5,C*3A
$GPRMC,200119.4,A,4736.93804,N,12228.89678,W,004.56,170.3,020313,016.6,E*46
$IIRMC,200100,A,4736.939,N,12228.896,W,04.2,193,020313,16,E,A*1D
$IIVHW,,,,,00.0,N,,*19
$IIVLW,06181,N,008.4,N*51
$GPRMC,200119.6,A,4736.93784,N,12228.89661,W,004.58,161.7,020313,016.6,E*41
$HCHDG,137.1,0.0,E,,*2D
$IIDPT,008.7,-1.0,*4F
