$HCHDG,177.9,0.0,E,,*21
$PTAK,FFP1,HEEL,@*07
$IIMTW,+08.0,C*30
$GPRMC,182429.6,V,4740.75776,N,12224.33789,W,,,130413,016.6,E*68
$IIVHW,,,,,00.0,N,,*19
$YXXDR,A,6.0,D,PTCH,A,-1.5,D,ROLL*72
$IIVLW,06210,N,000.0,N*56
$GPRMC,182429.8,V,4740.75776,N,12224.33789,W,,,130413,016.6,E*66
$GPRMC,182430.0,V,4740.75776,N,12224.33789,W,,,130413,016.6,E*66
$HCHDG,174.5,0.0,E,,*2E
$YXXDR,A,4.0,D,PTCH,A,3.0,D,ROLL*5A
$GPRMC,182430.2,V,4740.75776,N,12224.33789,W,,,130413,016.6,E*64
$GPRMC,182430.4,V,4740.75776,N,12224.33789,W,,,130413,016.6,E*62
$HCHDG,172.3,0.0,E,,*2E
$IIMTW,+08.0,C*30
$GPRMC,182430.6,V,4740.75776,N,12224.33789,W,,,130413,016.6,E*60
$IIVHW,,,,,00.0,N,,*19
$YXXDR,A,2.3,D,PTCH,A,1.9,D,ROLL*54
$IIVLW,06210,N,000.0,N*56
$GPRMC,182430.8,V,4740.75776,N,12224.33789,W,,,130413,016.6,E*6E
$GPRMC,182431.0,V,4740.75776,N,12224.33789,W,,,130413,016.6,E*67
$HCHDG,175.9,0.0,E,,*23
$YXXDR,A,4.8,D,PTCH,A,-3.4,D,ROLL*7B
$GPRMC,182431.2,V,4740.75776,N,12224.33789,W,,,130413,016.6,E*65
$GPRMC,182431.4,V,4740.75776,N,12224.33789,W,,,130413,016.6,E*63
$HCHDG,177.0,0.0,E,,*28
$IIMTW,+08.0,C*30
$GPRMC,182431.6,V,4740.75776,N,12224.33789,W,,,130413,016.6,E*61
$IIVHW,,,,,00.0,N,,*19
$YXXDR,A,5.4,D,PTCH,A,-2.3,D,ROLL*70
$IIVLW,06210,N,000.0,N*56
$GPRMC,182431.8,V,4740.75776,N,12224.33789,W,,,130413,016.6,E*6F
$GPRMC,182432.0,V,4740.75776,N,12224.33789,W,,,130413,016.6,E*64
$HCHDG,174.2,0.0,E,,*29
$YXXDR,A,4.2,D,PTCH,A,1.0,D,ROLL*5A
$GPRMC,182432.2,V,4740.75776,N,12224.33789,W,,,130413,016.6,E*66
$HCHDG,174.3,0.0,E,,*28
$IIMTW,+08.0,C*30
$GPRMC,182432.6,V,4740.75776,N,12224.33789,W,,,130413,016.6,E*62
$IIVHW,,,,,00.0,N,,*19
$YXXDR,A,3.3,D,PTCH,A,0.0,D,ROLL*5D
$IIVLW,06210,N,000.0,N*56
$GPRMC,182432.8,V,4740.75776,N,12224.33789,W,,,130413,016.6,E*6C
$GPRMC,182433.0,V,4740.75776,N,12224.33789,W,,,130413,016.6,E*65
$HCHDG,174.8,0.0,E,,*23
$YXXDR,A,4.0,D,PTCH,A,0.0,D,ROLL*59
$GPRMC,182433.2,V,4740.75776,N,12224.33789,W,,,130413,016.6,E*67
$GPRMC,182433.4,V,4740.75776,N,12224.33789,W,,,130413,016.6,E*61
$HCHDG,177.2,0.0,E,,*2A
$GPRMC,182433.6,V,4740.75776,N,12224.33789,W,,,130413,016.6,E*63
$YXXDR,A,5.2,D,PTCH,A,-1.5,D,ROLL*73
$GPRMC,182433.8,V,4740.75776,N,12224.33789,W,,,130413,016.6,E*6D
$GPRMC,182434.0,V,4740.75776,N,12224.33789,W,,,130413,016.6,E*62
$HCHDG,177.8,0.0,E,,*20
$YXXDR,A,5.1,D,PTCH,A,0.0,D,ROLL*59
$GPRMC,182434.2,V,4740.75776,N,12224.33789,W,,,130413,016.6,E*60
$GPRMC,182434.4,V,4740.75776,N,12224.33789,W,,,130413,016.6,E*66
$HCHDG,178.8,0.0,E,,*2F
$IIMTW,+08.0,C*30
$GPRMC,182434.6,V,4740.75776,N,12224.33789,W,,,130413,016.6,E*64
$IIVHW,,,,,00.0,N,,*19
$YXXDR,A,3.9,D,PTCH,A,0.2,D,ROLL*55
$IIVLW,06210,N,000.0,N*56
$IIMTW,+08.0,C*30
$IIVHW,,,,,00.0,N,,*19
$GPRMC,182434.8,V,4740.75776,N,12224.33789,W,,,130413,016.6,E*6A
$IIVLW,06210,N,000.0,N*56
$GPRMC,182435.0,V,4740.75776,N,12224.33789,W,,,130413,016.6,E*63
$HCHDG,179.5,0.0,E,,*23
$YXXDR,A,4.3,D,PTCH,A,0.3,D,ROLL*59
$GPRMC,182435.2,V,4740.75776,N,12224.33789,W,,,130413,016.6,E*61
$GPRMC,182435.4,V,4740.75776,N,12224.33789,W,,,130413,016.6,E*67
$HCHDG,179.7,0.0,E,,*21
$IIMTW,+08.0,C*30
$GPRMC,182435.6,V,4740.75776,N,12224.33789,W,,,130413,016.6,E*65
$IIVHW,,,,,00.0,N,,*19
$YXXDR,A,4.3,D,PTCH,A,1.5,D,ROLL*5E
$IIVLW,06210,N,000.0,N*56
$GPRMC,182435.8,V,4740.75776,N,12224.33789,W,,,130413,016.6,E*6B
$GPRMC,182436.0,V,4740.75776,N,12224.33789,W,,,130413,016.6,E*60
$HCHDG,179.7,0.0,E,,*21
$YXXDR,A,5.5,D,PTCH,A,1.7,D,ROLL*5B
$GPRMC,182436.2,V,4740.75776,N,12224.33789,W,,,130413,016.6,E*62
$GPRMC,182436.4,V,4740.75776,N,12224.33789,W,,,130413,016.6,E*64
$HCHDG,180.8,0.0,E,,*28
$IIMTW,+08.0,C*30
$GPRMC,182436.6,V,4740.75776,N,12224.33789,W,,,130413,016.6,E*66
$IIVHW,,,,,00.0,N,,*19
$YXXDR,A,6.1,D,PTCH,A,0.0,D,ROLL*5A
$IIVLW,06210,N,000.0,N*56
$GPRMC,182436.8,V,4740.75776,N,12224.33789,W,,,130413,016.6,E*68
$GPRMC,18243
$GPRMC,182443.2,V,4740.75776,N,12224.33789,W,,,130413,016.6,E*60
HCHDG,175.4,0.0,E,,*2E
$YXXDR,A,4.3,D,PTCH,A,-0.3,D,ROLL*74
$GPRMC,182443.2,V,4740.75776,N,12224.33789,W,,,130413,016.6,E*60
$GPRMC,182443.4,V,4740.75776,N,12224.33789,W,,,130413,016.6,E*66
$HCHDG,177.5,0.0,E,,*2D
$IIMTW,+08.0,C*30
$GPRMC,182443.6,V,4740.75776,N,12224.33789,W,,,130413,016.6,E*64
$IIVHW,,,,,00.0,N,,*19
$YXXDR,A,5.9,D,PTCH,A,-1.2,D,ROLL*7F
$IIVLW,06210,N,000.0,N*56
$GPRMC,182443.8,V,4740.75776,N,12224.33789,W,,,130413,016.6,E*6A
$GPRMC,182444.0,V,4740.75776,N,12224.33789,W,,,130413,016.6,E*65
$PGRMT,GPS 18x-5Hz software ver. 3.20,,,,,,,,*30
$HCHDG,178.3,0.0,E,,*24
$YXXDR,A,6.3,D,PTCH,A,-0.1,D,ROLL*74
$GPRMC,182444.2,V,4740.75776,N,12224.33789,W,,,130413,016.6,E*67
$GPRMC,182444.4,V,4740.75776,N,12224.33789,W,,,130413,016.6,E*61
$HCHDG,179.1,0.0,E,,*27
$IIMTW,+08.0,C*30
$GPRMC,182444.6,V,4740.75776,N,12224.33789,W,,,130413,016.6,E*63
$IIVHW,,,,,00.0,N,,*19
$YXXDR,A,4.5,D,PTCH,A,-0.2,D,ROLL*73
$IIVLW,06210,N,000.0,N*56
$GPRMC,182444.8,V,4740.75776,N,12224.33789,W,,,130413,016.6,E*6D
$GPRMC,182445.0,V,4740.75776,N,12224.33789,W,,,130413,016.6,E*64
$HCHDG,179.8,0.0,E,,*2E
$YXXDR,A,3.6,D,PTCH,A,0.6,D,ROLL*5E
$GPRMC,182445.2,V,4740.75776,N,12224.33789,W,,,130413,016.6,E*66
$GPRMC,182445.4,V,4740.75776,N,12224.33789,W,,,130413,016.6,E*60
$HCHDG,182.5,0.0,E,,*27
$IIMTW,+08.0,C*30
$GPRMC,182445.6,V,4740.75776,N,12224.33789,W,,,130413,016.6,E*62
$IIVHW,,,,,00.0,N,,*19
$YXXDR,A,4.5,D,PTCH,A,0.6,D,ROLL*5A
$IIVLW,06210,N,000.0,N*56
$GPRMC,182445.8,V,4740.75776,N,12224.33789,W,,,130413,016.6,E*6C
$GPRMC,182446.0,V,4740.75776,N,12224.33789,W,,,130413,016.6,E*67
$HCHDG,184.8,0.0,E,,*2C
$YXXDR,A,5.1,D,PTCH,A,2.0,D,ROLL*5B
$GPRMC,182446.2,V,4740.75776,N,12224.33789,W,,,130413,016.6,E*65
$GPRMC,182446.4,V,4740.75776,N,12224.33789,W,,,130413,016.6,E*63
$HCHDG,187.3,0.0,E,,*24
$IIMTW,+08.0,C*30
$GPRMC,182446.6,V,4740.75776,N,12224.33789,W,,,130413,016.6,E*61
$IIVHW,,,,,00.0,N,,*19
$YXXDR,A,5.6,D,PTCH,A,3.0,D,ROLL*5D
$IIVLW,06210,N,000.0,N*56
$GPRMC,182446.8,V,4740.75776,N,12224.33789,W,,,130413,016.6,E*6F
$GPRMC,182447.0,V,4740.75776,N,12224.33789,W,,,130413,016.6,E*66
$HCHDG,190.4,0.0,E,,*25
$YXXDR,A,5.2,D,PTCH,A,3.1,D,ROLL*58
$GPRMC,182447.2,V,4740.75776,N,12224.33789,W,,,130413,016.6,E*64
$GPRMC,182447.4,V,4740.75776,N,12224.33789,W,,,130413,016.6,E*62
$HCHDG,194.2,0.0,E,,*27
$IIMTW,+08.0,C*30
$GPRMC,182447.6,V,4740.75776,N,12224.33789,W,,,130413,016.6,E*60
$IIVHW,,,,,00.0,N,,*19
$YXXDR,A,4.9,D,PTCH,A,2.7,D,ROLL*55
$IIVLW,06210,N,000.0,N*56
$GPRMC,182447.8,V,4740.75776,N,12224.33789,W,,,130413,016.6,E*6E
$GPRMC,182448.0,V,4740.75776,N,12224.33789,W,,,130413,016.6,E*69
$HCHDG,196.7,0.0,E,,*20
$YXXDR,A,3.6,D,PTCH,A,4.3,D,ROLL*5F
$GPRMC,182448.2,V,4740.75776,N,12224.33789,W,,,130413,016.6,E*6B
$GPRMC,182448.4,V,4740.75776,N,12224.33789,W,,,130413,016.6,E*6D
$HCHDG,196.7,0.0,E,,*20
$IIMTW,+08.0,C*30
$GPRMC,182448.6,V,4740.75776,N,12224.33789,W,,,130413,016.6,E*6F
$IIVHW,,,,,00.0,N,,*19
$YXXDR,A,4.4,D,PTCH,A,7.2,D,ROLL*58
$IIVLW,06210,N,000.0,N*56
$GPRMC,182448.8,V,4740.75776,N,12224.33789,W,,,130413,016.6,E*61
$GPRMC,182449.0,V,4740.75776,N,12224.33789,W,,,130413,016.6,E*68
$HCHDG,196.8,0.0,E,,*2F
$YXXDR,A,5.3,D,PTCH,A,7.8,D,ROLL*54
$GPRMC,182449.2,V,4740.75776,N,12224.33789,W,,,130413,016.6,E*6A
$GPRMC,182449.4,V,4740.75776,N,12224.33789,W,,,130413,016.6,E*6C
$HCHDG,195.3,0.0,E,,*27
$IIMTW,+08.0,C*30
$GPRMC,182449.6,V,4740.75776,N,12224.33789,W,,,130413,016.6,E*6E
$IIVHW,,,,,00.0,N,,*19
$YXXDR,A,5.1,D,PTCH,A,8.6,D,ROLL*57
$IIVLW,06210,N,000.0,N*56
$GPRMC,182449.8,V,4740.75776,N,12224.33789,W,,,130413,016.6,E*60
$GPRMC,182450.0,V,4740.75776,N,12224.33789,W,,,130413,016.6,E*60
$HCHDG,195.7,0.0,E,,*23
$YXXDR,A,4.3,D,PTCH,A,6.2,D,ROLL*5E
$GPRMC,182450.2,V,4740.75776,N,12224.33789,W,,,130413,016.6,E*62
$GPRMC,182450.4,V,4740.75776,N,12224.33789,W,,,130413,016.6,E*64
$HCHDG,196.5,0.0,E,,*22
$IIMTW,+08.0,C*30
$GPRMC,182450.6,V,4740.75776,N,12224.33789,W,,,130413,016.6,E*66
$IIVHW,,,,,00.0,N,,*19
$YXXDR,A,4.2,D,PTCH,A,5.9,D,ROLL*57
$IIVLW,06210,N,000.0,N*56
$GPRMC,182450.8,V,4740.75776,N,12224.33789,W,,,130413,016.6,E*68
$GPRMC,182451.0,V,4740.75776,N,12224.33789,W,,,130413,016.6,E*61
$HCHDG,195.8,0.0,E,,*2C
$YXXDR,A,4.6,D,PTCH,A,8.0,D,ROLL*57
$GPRMC,182451.2,V,4740.75776,N,12224.33789,W,,,130413,016.6,E*63
$GPRMC,182451.4,V,4740.75776,N,12224.33789,W,,,130413,016.6,E*65
$HCHDG,196.2,0.0,E,,*25
$IIMTW,+08.0,C*30
$GPRMC,182451.6,V,4740.75776,N,12224.33789,W,,,130413,016.6,E*67
$IIVHW,,,,,00.0,N,,*19
$YXXDR,A,5.0,D,PTCH,A,8.0,D,ROLL*50
$IIVLW,06210,N,000.0,N*56
$GPRMC,182451.8,V,4740.75776,N,12224.33789,W,,,130413,016.6,E*69
$GPRMC,182452.0,V,4740.75776,N,12224.33789,W,,,130413,016.6,E*62
$HCHDG,194.8,0.0,E,,*2D
$YXXDR,A,4.4,D,PTCH,A,9.4,D,ROLL*50
$GPRMC,182452.2,V,4740.75776,N,12224.33789,W,,,130413,016.6,E*60
$GPRMC,182452.4,V,4740.75776,N,12224.33789,W,,,130413,016.6,E*66
$HCHDG,196.8,0.0,E,,*2F
$IIMTW,+08.0,C*30
$GPRMC,182452.6,V,4740.75776,N,12224.33789,W,,,130413,016.6,E*64
$IIVHW,,,,,00.0,N,,*19
$YXXDR,A,5.0,D,PTCH,A,6.8,D,ROLL*56
$IIVLW,06210,N,000.0,N*56
$GPRMC,182452.8,V,4740.75776,N,12224.33789,W,,,130413,016.6,E*6A
$GPRMC,182453.0,V,4740.75776,N,12224.33789,W,,,130413,016.6,E*63
$HCHDG,197.1,0.0,E,,*27
$YXXDR,A,5.6,D,PTCH,A,7.6,D,ROLL*5F
$GPRMC,182453.2,V,4740.75776,N,12224.33789,W,,,130413,016.6,E*61
$GPRMC,182453.4,V,4740.75776,N,12224.33789,W,,,130413,016.6,E*67
$HCHDG,196.2,0.0,E,,*25
$IIMTW,+08.0,C*30
$GPRMC,182453.6,V,4740.75776,N,12224.33789,W,,,130413,016.6,E*65
$IIVHW,,,,,00.0,N,,*19
$YXXDR,A,4.5,D,PTCH,A,9.1,D,ROLL*54
$IIVLW,06210,N,000.0,N*56
$GPRMC,182453.8,V,4740.75776,N,12224.33789,W,,,130413,016.6,E*6B
$GPRMC,182454.0,V,4740.75776,N,12224.33789,W,,,130413,016.6,E*64
$HCHDG,197.5,0.0,E,,*23
$YXXDR,A,4.6,D,PTCH,A,7.5,D,ROLL*5D
$GPRMC,182454.2,V,4740.75776,N,12224.33789,W,,,130413,016.6,E*66
$GPRMC,182454.4,V,4740.75776,N,12224.33789,W,,,130413,016.6,E*60
$HCHDG,197.0,0.0,E,,*26
$IIMTW,+08.0,C*30
$GPRMC,182454.6,V,4740.75776,N,12224.33789,W,,,130413,016.6,E*62
$IIVHW,,,,,00.0,N,,*19
$YXXDR,A,5.2,D,PTCH,A,8.5,D,ROLL*57
$IIVLW,06210,N,000.0,N*56
$IIDPT,056.2,-1.0,*41
$GPRMC,182454.8,V,4740.75776,N,12224.33789,W,,,130413,016.6,E*6C
$GPRMC,182455.0,V,4740.75776,N,12224.33789,W,,,130413,016.6,E*65
$HCHDG,197.3,0.0,E,,*25
$YXXDR,A,4.2,D,PTCH,A,7.1,D,ROLL*5D
$GPRMC,182455.2,V,4740.75776,N,12224.33789,W,,,130413,016.6,E*67
$GPRMC,182455.4,V,4740.75776,N,12224.33789,W,,,130413,016.6,E*61
$HCHDG,198.3,0.0,E,,*2A
$IIMTW,+08.0,C*30
$GPRMC,182455.6,V,4740.75776,N,12224.33789,W,,,130413,016.6,E*63
$IIVHW,,,,,00.0,N,,*19
$YXXDR,A,5.1,D,PTCH,A,5.9,D,ROLL*55
$IIVLW,06210,N,000.0,N*56
$IIDPT,056.2,-1.0,*41
$GPRMC,182455.8,V,4740.75776,N,12224.33789,W,,,130413,016.6,E*6D
$GPRMC,182456.0,V,4740.75776,N,12224.33789,W,,,130413,016.6,E*66
$HCHDG,196.7,0.0,E,,*20
$YXXDR,A,4.3,D,PTCH,A,7.4,D,ROLL*59
$GPRMC,182456.2,V,4740.75776,N,12224.33789,W,,,130413,016.6,E*64
$GPRMC,182456.4,V,4740.75776,N,12224.33789,W,,,130413,016.6,E*62
$HCHDG,195.2,0.0,E,,*26
$PTAK,FFP1,HEEL,@*07
$IIMTW,+08.0,C*30
$GPRMC,182456.6,V,4740.75776,N,12224.33789,W,,,130413,016.6,E*60
$IIVHW,,,,,00.0,N,,*19
$YXXDR,A,3.7,D,PTCH,A,7.5,D,ROLL*5B
$IIVLW,06210,N,000.0,N*56
$IIDPT,056.2,-1.0,*41
$GPRMC,182456.8,V,4740.75776,N,12224.33789,W,,,130413,016.6,E*6E
$GPRMC,182457.0,V,4740.75776,N,12224.33789,W,,,130413,016.6,E*67
$HCHDG,196.7,0.0,E,,*20
$YXXDR,A,5.4,D,PTCH,A,5.5,D,ROLL*5C
$GPRMC,182457.2,V,4740.75776,N,12224.33789,W,,,130413,016.6,E*65
$GPRMC,182457.4,V,4740.75776,N,12224.33789,W,,,130413,016.6,E*63
$HCHDG,196.2,0.0,E,,*25
$IIMTW,+08.0,C*30
$GPRMC,182457.6,V,4740.75776,N,12224.33789,W,,,130413,016.6,E*61
$IIVHW,,,,,00.0,N,,*19
$YXXDR,A,5.9,D,PTCH,A,6.6,D,ROLL*51
$IIVLW,06210,N,000.0,N*56
$IIDPT,056.2,-1.0,*41
$GPRMC,182457.8,V,4740.75776,N,12224.33789,W,,,130413,016.6,E*6F
$GPRMC,182458.0,V,4740.75776,N,12224.33789,W,,,130413,016.6,E*68
$HCHDG,194.1,0.0,E,,*24
$YXXDR,A,3.2,D,PTCH,A,8.1,D,ROLL*55
$GPRMC,182458.2,V,4740.75776,N,12224.33789,W,,,130413,016.6,E*6A
$GPRMC,182458.4,V,4740.75776,N,12224.33789,W,,,130413,016.6,E*6C
$HCHDG,195.2,0.0,E,,*26
$IIMTW,+08.0,C*30
$GPRMC,182458.6,V,4740.75776,N,12224.33789,W,,,130413,016.6,E*6E
$IIVHW,,,,,00.0,N,,*19
$YXXDR,A,6.0,D,PTCH,A,7.1,D,ROLL*5D
$IIVLW,06210,N,000.0,N*56
$IIDPT,056.2,-1.0,*41
$GPRMC,182458.8,V,4740.75776,N,12224.33789,W,,,130413,016.6,E*60
$GPRMC,182459.0,V,4740.75776,N,12224.33789,W,,,130413,016.6,E*69
$HCHDG,195.5,0.0,E,,*21
$YXXDR,A,6.9,D,PTCH,A,6.1,D,ROLL*55
$GPRMC,182459.2,V,4740.75776,N,12224.33789,W,,,130413,016.6,E*6B
$GPRMC,182459.4,V,4740.75776,N,12224.33789,W,,,130413,016.6,E*6D
$HCHDG,190.4,0.0,E,,*25
$IIMTW,+08.0,C*30
$GPRMC,182459.6,V,4740.75776,N,12224.33789,W,,,130413,016.6,E*6F
$IIVHW,,,,,00.0,N,,*19
$YXXDR,A,4.9,D,PTCH,A,9.0,D,ROLL*59
$IIVLW,06210,N,000.0,N*56
$IIDPT,056.2,-1.0,*41
$GPRMC,182459.8,V,4740.75776,N,12224.33789,W,,,130413,016.6,E*61
$GPRMC,182500.0,V,4740.75776,N,12224.33789,W,,,130413,016.6,E*64
$HCHDG,188.2,0.0,E,,*2A
$YXXDR,A,3.6,D,PTCH,A,8.3,D,ROLL*53
$GPRMC,182500.2,V,4740.75776,N,12224.33789,W,,,130413,016.6,E*66
$GPRMC,182500.4,V,4740.75776,N,12224.33789,W,,,130413,016.6,E*60
$IIMTW,+08.0,C*30
$HCHDG,195.0,0.0,E,,*24
$PTAK,FFP1,HEEL,@*07
$GPRMC,182500.6,V,4740.75776,N,12224.33789,W,,,130413,016.6,E*62
$IIVHW,,,,,00.0,N,,*19
$YXXDR,A,9.4,D,PTCH,A,2.2,D,ROLL*50
$IIVLW,06210,N,000.0,N*56
$IIDPT,056.2,-1.0,*41
$GPRMC,182500.8,V,4740.75776,N,12224.33789,W,,,130413,016.6,E*6C
$GPRMC,182501.0,V,4740.75776,N,12224.33789,W,,,130413,016.6,E*65
$HCHDG,194.1,0.0,E,,*24
$YXXDR,A,9.0,D,PTCH,A,5.7,D,ROLL*56
$GPRMC,182501.2,V,4740.75776,N,12224.33789,W,,,130413,016.6,E*67
$GPRMC,182501.4,V,4740.75776,N,12224.33789,W,,,130413,016.6,E*61
$HCHDG,190.1,0.0,E,,*20
$IIMTW,+08.0,C*30
$GPRMC,182501.6,V,4740.75776,N,12224.33789,W,,,130413,016.6,E*63
$IIVHW,,,,,00.0,N,,*19
$YXXDR,A,5.0,D,PTCH,A,9.0,D,ROLL*51
$IIVLW,06210,N,000.0,N*56
$IIDPT,056.2,-1.0,*41
$GPRMC,182501.8,V,4740.75776,N,12224.33789,W,,,130413,016.6,E*6D
$GPRMC,182502.0,V,4740.75776,N,12224.33789,W,,,130413,016.6,E*66
$HCHDG,191.8,0.0,E,,*28
$YXXDR,A,3.5,D,PTCH,A,6.6,D,ROLL*5B
$GPRMC,182502.2,V,4740.75776,N,12224.33789,W,,,130413,016.6,E*64
$GPRMC,182502.4,V,4740.75776,N,12224.33789,W,,,130413,016.6,E*62
$HCHDG,197.3,0.0,E,,*25
$IIMTW,+08.0,C*30
$GPRMC,182502.6,V,4740.75776,N,12224.33789,W,,,130413,016.6,E*60
$IIVHW,,,,,00.0,N,,*19
$YXXDR,A,5.6,D,PTCH,A,2.7,D,ROLL*5B
$IIVLW,06210,N,000.0,N*56
$IIDPT,056.2,-1.0,*41
$GPRMC,182502.8,V,4740.75776,N,12224.33789,W,,,130413,016.6,E*6E
$GPRMC,182503.0,V,4740.75776,N,12224.33789,W,,,130413,016.6,E*67
$HCHDG,198.7,0.0,E,,*2E
$YXXDR,A,6.4,D,PTCH,A,4.8,D,ROLL*53
$GPRMC,182503.2,V,4740.75776,N,12224.33789,W,,,130413,016.6,E*65
$GPRMC,182503.4,V,4740.75776,N,12224.33789,W,,,130413,016.6,E*63
$HCHDG,197.0,0.0,E,,*26
$IIMTW,+08.0,C*30
$GPRMC,182503.6,V,4740.75776,N,12224.33789,W,,,130413,016.6,E*61
$IIVHW,,,,,00.0,N,,*19
$YXXDR,A,5.8,D,PTCH,A,7.5,D,ROLL*52
$IIVLW,06210,N,000.0,N*56
$IIDPT,057.8,-1.0,*4A
$GPRMC,182503.8,V,4740.75776,N,12224.33789,W,,,130413,016.6,E*6F
$GPRMC,182504.0,V,4740.75776,N,12224.33789,W,,,130413,016.6,E*60
$HCHDG,196.4,0.0,E,,*23
$YXXDR,A,4.7,D,PTCH,A,6.3,D,ROLL*5B
$GPRMC,182504.2,V,4740.75776,N,12224.33789,W,,,130413,016.6,E*62
$GPRMC,182504.4,V,4740.75776,N,12224.33789,W,,,130413,016.6,E*64
$HCHDG,197.7,0.0,E,,*21
$GPRMC,182504.6,V,4740.75776,N,12224.33789,W,,,130413,016.6,E*66
$YXXDR,A,3.5,D,PTCH,A,4.8,D,ROLL*57
$GPRMC,182504.8,V,4740.75776,N,12224.33789,W,,,130413,016.6,E*68
$PTAK,FFP1,HEEL,@*07
$GPRMC,182505.0,V,4740.75776,N,12224.33789,W,,,130413,016.6,E*61
$HCHDG,198.6,0.0,E,,*2F
$YXXDR,A,5.0,D,PTCH,A,5.0,D,ROLL*5D
$GPRMC,182505.2,V,4740.75776,N,12224.33789,W,,,130413,016.6,E*63
$GPRMC,182505.4,V,4740.75776,N,12224.33789,W,,,130413,016.6,E*65
$HCHDG,198.6,0.0,E,,*2F
$IIMTW,+08.0,C*30
$GPRMC,182505.6,V,4740.75776,N,12224.33789,W,,,130413,016.6,E*67
$IIVHW,,,,,00.0,N,,*19
$YXXDR,A,5.4,D,PTCH,A,6.5,D,ROLL*5F
$IIVLW,06210,N,000.0,N*56
$IIDPT,057.8,-1.0,*4A
$IIMTW,+08.0,C*30
$GPRMC,182505.8,V,4740.75776,N,12224.33789,W,,,130413,016.6,E*69
$IIVHW,,,,,00.0,N,,*19
$IIVLW,06210,N,000.0,N*56
$IIDPT,057.8,-1.0,*4A
$GPRMC,182506.0,V,4740.75776,N,12224.33789,W,,,130413,016.6,E*62
$HCHDG,197.6,0.0,E,,*20
$YXXDR,A,5.4,D,PTCH,A,8.3,D,ROLL*57
$GPRMC,182506.2,V,4740.75776,N,12224.33789,W,,,130413,016.6,E*60
$GPRMC,182506.4,V,4740.75776,N,12224.33789,W,,,130413,016.6,E*66
$HCHDG,198.5,0.0,E,,*2C
$IIMTW,+08.0,C*30
$GPRMC,182506.6,V,4740.75776,N,12224.33789,W,,,130413,016.6,E*64
$IIVHW,,,,,00.0,N,,*19
$YXXDR,A,5.3,D,PTCH,A,6.9,D,ROLL*54
$IIVLW,06210,N,000.0,N*56
$IIDPT,057.8,-1.0,*4A
$GPRMC,182506.8,V,4740.75776,N,12224.33789,W,,,130413,016.6,E*6A
$GPRMC,182507.0,V,4740.75776,N,12224.33789,W,,,130413,016.6,E*63
$HCHDG,199.7,0.0,E,,*2F
$YXXDR,A,5.6,D,PTCH,A,6.1,D,ROLL*59
$GPRMC,182507.2,V,4740.75776,N,12224.33789,W,,,130413,016.6,E*61
$GPRMC,182507.4,V,4740.75776,N,12224.33789,W,,,130413,016.6,E*67
$HCHDG,197.8,0.0,E,,*2E
$IIMTW,+08.0,C*30
$GPRMC,182507.6,V,4740.75776,N,12224.33789,W,,,130413,016.6,E*65
$IIVHW,,,,,00.0,N,,*19
$YXXDR,A,4.3,D,PTCH,A,8.2,D,ROLL*50
$IIVLW,06210,N,000.0,N*56
$IIDPT,057.8,-1.0,*4A
$GPRMC,182507.8,V,4740.75776,N,12224.33789,W,,,130413,016.6,E*6B
$GPRMC,182508.0,V,4740.75776,N,12224.33789,W,,,130413,016.6,E*6C
$HCHDG,196.6,0.0,E,,*21
$YXXDR,A,3.3,D,PTCH,A,8.5,D,ROLL*50
$GPRMC,182508.2,V,4740.75776,N,12224.33789,W,,,130413,016.6,E*6E
$GPRMC,182508.4,V,4740.75776,N,12224.33789,W,,,130413,016.6,E*68
$HCHDG,200.8,0.0,E,,*23
$IIMTW,+08.0,C*30
$GPRMC,182508.6,V,4740.75776,N,12224.33789,W,,,130413,016.6,E*6A
$IIVHW,,,,,00.0,N,,*19
$YXXDR,A,6.4,D,PTCH,A,5.1,D,ROLL*5B
$IIVLW,06210,N,000.0,N*56
$IIDPT,057.8,-1.0,*4A
$GPRMC,182508.8,V,4740.75776,N,12224.33789,W,,,130413,016.6,E*64
$PTAK,FFP1,HEEL,@*07
$GPRMC,182509.0,V,4740.75776,N,12224.33789,W,,,130413,016.6,E*6D
$HCHDG,202.1,0.0,E,,*28
$YXXDR,A,7.2,D,PTCH,A,4.4,D,ROLL*58
$GPRMC,182509.2,V,4740.75776,N,12224.33789,W,,,130413,016.6,E*6F
$GPRMC,182509.4,V,4740.75776,N,12224.33789,W,,,130413,016.6,E*69
$HCHDG,197.1,0.0,E,,*27
$IIMTW,+08.0,C*30
$GPRMC,182509.6,V,4740.75776,N,12224.33789,W,,,130413,016.6,E*6B
$IIVHW,,,,,00.0,N,,*19
$YXXDR,A,5.0,D,PTCH,A,8.4,D,ROLL*54
$IIVLW,06210,N,000.0,N*56
$IIDPT,057.8,-1.0,*4A
$GPRMC,182509.8,V,4740.75776,N,12224.33789,W,,,130413,016.6,E*65
$GPRMC,182510.0,V,4740.75776,N,12224.33789,W,,,130413,016.6,E*65
$HCHDG,194.5,0.0,E,,*20
$YXXDR,A,3.5,D,PTCH,A,8.5,D,ROLL*56
$GPRMC,182510.2,V,4740.75776,N,12224.33789,W,,,130413,016.6,E*67
$GPRMC,182510.4,V,4740.75776,N,12224.33789,W,,,130413,016.6,E*61
$HCHDG,198.9,0.0,E,,*20
$IIMTW,+08.0,C*30
$GPRMC,182510.6,V,4740.75776,N,12224.33789,W,,,130413,016.6,E*63
$IIVHW,,,,,00.0,N,,*19
$YXXDR,A,5.6,D,PTCH,A,4.2,D,ROLL*58
$IIVLW,06210,N,000.0,N*56
$IIDPT,057.8,-1.0,*4A
$GPRMC,182510.8,V,4740.75776,N,12224.33789,W,,,130413,016.6,E*6D
$GPRMC,182511.0,V,4740.75776,N,12224.33789,W,,,130413,016.6,E*64
$HCHDG,201.0,0.0,E,,*2A
$YXXDR,A,6.6,D,PTCH,A,5.5,D,ROLL*5D
$GPRMC,182511.2,V,4740.75776,N,12224.33789,W,,,130413,016.6,E*66
$GPRMC,182511.4,V,4740.75776,N,12224.33789,W,,,130413,016.6,E*60
$HCHDG,200.9,0.0,E,,*22
$IIMTW,+08.0,C*30
$GPRMC,182511.6,V,4740.75776,N,12224.33789,W,,,130413,016.6,E*62
$IIVHW,,,,,00.0,N,,*19
$YXXDR,A,6.4,D,PTCH,A,7.2,D,ROLL*5A
$IIVLW,06210,N,000.0,N*56
$IIDPT,057.8,-1.0,*4A
$GPRMC,182511.8,V,4740.75776,N,12224.33789,W,,,130413,016.6,E*6C
$GPRMC,182512.0,V,4740.75776,N,12224.33789,W,,,130413,016.6,E*67
$HCHDG,200.3,0.0,E,,*28
$YXXDR,A,5.4,D,PTCH,A,8.2,D,ROLL*56
$GPRMC,182512.2,V,4740.75776,N,12224.33789,W,,,130413,016.6,E*65
$GPRMC,182512.4,V,4740.75776,N,12224.33789,W,,,130413,016.6,E*63
$HCHDG,200.8,0.0,E,,*23
$IIMTW,+08.0,C*30
$GPRMC,182512.6,V,4740.75776,N,12224.33789,W,,,130413,016.6,E*61
$IIVHW,,,,,00.0,N,,*19
$YXXDR,A,4.3,D,PTCH,A,7.5,D,ROLL*58
$IIVLW,06210,N,000.0,N*56
$GPRMC,182512.8,V,4740.75776,N,12224.33789,W,,,130413,016.6,E*6F
$GPRMC,182513.0,V,4740.75776,N,12224.33789,W,,,130413,016.6,E*66
$HCHDG,201.9,0.0,E,,*23
$PTAK,FFP1,HEEL,@*07
$YXXDR,A,4.2,D,PTCH,A,7.0,D,ROLL*5C
$GPRMC,182513.2,V,4740.75776,N,12224.33789,W,,,130413,016.6,E*64
$GPRMC,182513.4,V,4740.75776,N,12224.33789,W,,,130413,016.6,E*62
$HCHDG,203.6,0.0,E,,*2E
$IIMTW,+08.0,C*30
$GPRMC,182513.6,V,4740.75776,N,12224.33789,W,,,130413,016.6,E*60
$IIVHW,,,,,00.0,N,,*19
$YXXDR,A,5.2,D,PTCH,A,6.3,D,ROLL*5F
$IIVLW,06210,N,000.0,N*56
$GPRMC,182513.8,V,4740.75776,N,12224.33789,W,,,130413,016.6,E*6E
$GPRMC,182514.0,V,4740.75776,N,12224.33789,W,,,130413,016.6,E*61
$HCHDG,206.0,0.0,E,,*2D
$YXXDR,A,5.8,D,PTCH,A,5.3,D,ROLL*56
$GPRMC,182514.2,V,4740.75776,N,12224.33789,W,,,130413,016.6,E*63
$GPRMC,182514.4,V,4740.75776,N,12224.33789,W,,,130413,016.6,E*65
$HCHDG,206.4,0.0,E,,*29
$IIMTW,+08.0,C*30
$GPRMC,182514.6,V,4740.75776,N,12224.33789,W,,,130413,016.6,E*67
$IIVHW,,,,,00.0,N,,*19
$YXXDR,A,6.2,D,PTCH,A,6.6,D,ROLL*59
$IIVLW,06210,N,000.0,N*56
$GPRMC,182514.8,V,4740.75776,N,12224.33789,W,,,130413,016.6,E*69
$GPRMC,182515.0,V,4740.75776,N,12224.33789,W,,,130413,016.6,E*60
$HCHDG,205.4,0.0,E,,*2A
$YXXDR,A,5.0,D,PTCH,A,6.8,D,ROLL*56
$GPRMC,182515.2,V,4740.75776,N,12224.33789,W,,,130413,016.6,E*62
$GPRMC,182515.4,V,4740.75776,N,12224.33789,W,,,130413,016.6,E*64
$HCHDG,205.9,0.0,E,,*27
$IIMTW,+08.0,C*30
$GPRMC,182515.6,V,4740.75776,N,12224.33789,W,,,130413,016.6,E*66
$IIVHW,,,,,00.0,N,,*19
$YXXDR,A,3.0,D,PTCH,A,6.1,D,ROLL*59
$IIVLW,06210,N,000.0,N*56
$GPRMC,182515.8,V,4740.75776,N,12224.33789,W,,,130413,016.6,E*68
$GPRMC,182516.0,V,4740.75776,N,12224.33789,W,,,130413,016.6,E*63
$HCHDG,208.3,0.0,E,,*20
$YXXDR,A,4.3,D,PTCH,A,3.9,D,ROLL*50
$GPRMC,182516.2,V,4740.75776,N,12224.33789,W,,,130413,016.6,E*61
$GPRMC,182516.4,V,4740.75776,N,12224.33789,W,,,130413,016.6,E*67
$IIMTW,+08.0,C*30
$HCHDG,210.4,0.0,E,,*2E
$GPRMC,182516.6,V,4740.75776,N,12224.33789,W,,,130413,016.6,E*65
$IIVHW,,,,,00.0,N,,*19
$YXXDR,A,5.4,D,PTCH,A,4.0,D,ROLL*58
$IIVLW,06210,N,000.0,N*56
$GPRMC,182516.8,V,4740.75776,N,12224.33789,W,,,130413,016.6,E*6B
$GPRMC,182517.0,V,4740.75776,N,12224.33789,W,,,130413,016.6,E*62
$HCHDG,210.7,0.0,E,,*2D
$YXXDR,A,6.7,D,PTCH,A,4.8,D,ROLL*50
$GPRMC,182517.2,V,4740.75776,N,12224.33789,W,,,130413,016.6,E*60
$PTAK,FFP1,HEEL,@*07
$GPRMC,182517.4,V,4740.75776,N,12224.33789,W,,,130413,016.6,E*66
$HCHDG,207.5,0.0,E,,*29
$IIMTW,+08.0,C*30
$GPRMC,182517.6,V,4740.75776,N,12224.33789,W,,,130413,016.6,E*64
$IIVHW,,,,,00.0,N,,*19
$YXXDR,A,5.4,D,PTCH,A,7.5,D,ROLL*5E
$IIVLW,06210,N,000.0,N*56
$IIDPT,049.0,-1.0,*4D
$GPRMC,182517.8,V,4740.75776,N,12224.33789,W,,,130413,016.6,E*6A
$GPRMC,182518.0,V,4740.75776,N,12224.33789,W,,,130413,016.6,E*6D
$HCHDG,203.7,0.0,E,,*2F
$YXXDR,A,3.4,D,PTCH,A,10.1,D,ROLL*6A
$GPRMC,182518.2,V,4740.75776,N,12224.33789,W,,,130413,016.6,E*6F
$GPRMC,182518.4,V,4740.75776,N,12224.33789,W,,,130413,016.6,E*69
$HCHDG,207.5,0.0,E,,*29
$IIMTW,+08.0,C*30
$GPRMC,182518.6,V,4740.75776,N,12224.33789,W,,,130413,016.6,E*6B
$IIVHW,,,,,00.0,N,,*19
$YXXDR,A,6.0,D,PTCH,A,2.7,D,ROLL*5E
$IIVLW,06210,N,000.0,N*56
$IIDPT,049.0,-1.0,*4D
$GPRMC,182518.8,V,4740.75776,N,12224.33789,W,,,130413,016.6,E*65
$GPRMC,182519.0,V,4740.75776,N,12224.33789,W,,,130413,016.6,E*6C
$HCHDG,210.5,0.0,E,,*2F
$YXXDR,A,6.2,D,PTCH,A,5.6,D,ROLL*5A
$GPRMC,182519.2,V,4740.75776,N,12224.33789,W,,,130413,016.6,E*6E
$GPRMC,182519.4,V,4740.75776,N,12224.33789,W,,,130413,016.6,E*68
$HCHDG,213.2,0.0,E,,*2B
$IIMTW,+08.0,C*30
$GPRMC,182519.6,V,4740.75776,N,12224.33789,W,,,130413,016.6,E*6A
$IIVHW,,,,,00.0,N,,*19
$YXXDR,A,5.5,D,PTCH,A,5.3,D,ROLL*5B
$IIVLW,06210,N,000.0,N*56
$IIDPT,049.0,-1.0,*4D
$GPRMC,182519.8,V,4740.75776,N,12224.33789,W,,,130413,016.6,E*64
$GPRMC,182520.0,V,4740.75776,N,12224.33789,W,,,130413,016.6,E*66
$HCHDG,216.2,0.0,E,,*2E
$YXXDR,A,5.4,D,PTCH,A,4.2,D,ROLL*5A
$GPRMC,182520.2,V,4740.75776,N,12224.33789,W,,,130413,016.6,E*64
$GPRMC,182520.4,V,4740.75776,N,12224.33789,W,,,130413,016.6,E*62
$HCHDG,219.3,0.0,E,,*20
$IIMTW,+08.0,C*30
$GPRMC,182520.6,V,4740.75776,N,12224.33789,W,,,130413,016.6,E*60
$IIVHW,,,,,00.0,N,,*19
$YXXDR,A,5.7,D,PTCH,A,2.8,D,ROLL*55
$IIVLW,06210,N,000.0,N*56
$IIDPT,049.0,-1.0,*4D
$GPRMC,182520.8,V,4740.75776,N,12224.33789,W,,,130413,016.6,E*6E
$GPRMC,182521.0,V,4740.75776,N,12224.33789,W,,,130413,016.6,E*67
$HCHDG,219.7,0.0,E,,*24
$YXXDR,A,4.2,D,PTCH,A,3.8,D,ROLL*50
$GPRMC,182521.2,V,4740.75776,N,12224.33789,W,,,130413,016.6,E*65
$PTAK,FFP1,HEEL,@*07
$GPRMC,182521.4,V,4740.75776,N,12224.33789,W,,,130413,016.6,E*63
$HCHDG,220.0,0.0,E,,*29
$IIMTW,+08.0,C*30
$GPRMC,182521.6,V,4740.75776,N,12224.33789,W,,,130413,016.6,E*61
$IIVHW,,,,,00.0,N,,*19
$YXXDR,A,1.9,D,PTCH,A,4.6,D,ROLL*57
$IIVLW,06210,N,000.0,N*56
$IIDPT,049.0,-1.0,*4D
$GPRMC,182521.8,V,4740.75776,N,12224.33789,W,,,130413,016.6,E*6F
$GPRMC,182522.0,V,4740.75776,N,12224.33789,W,,,130413,016.6,E*64
$HCHDG,222.9,0.0,E,,*22
$YXXDR,A,4.9,D,PTCH,A,3.8,D,ROLL*5B
$GPRMC,182522.2,V,4740.75776,N,12224.33789,W,,,130413,016.6,E*66
$GPRMC,182522.4,V,4740.75776,N,12224.33789,W,,,130413,016.6,E*60
$HCHDG,223.4,0.0,E,,*2E
$IIMTW,+08.0,C*30
$GPRMC,182522.6,V,4740.75776,N,12224.33789,W,,,130413,016.6,E*62
$IIVHW,,,,,00.0,N,,*19
$YXXDR,A,7.1,D,PTCH,A,5.0,D,ROLL*5E
$IIVLW,06210,N,000.0,N*56
$IIDPT,049.0,-1.0,*4D
$GPRMC,182522.8,V,4740.75776,N,12224.33789,W,,,130413,016.6,E*6C
$GPRMC,182523.0,V,4740.75776,N,12224.33789,W,,,130413,016.6,E*65
$HCHDG,220.5,0.0,E,,*2C
$YXXDR,A,5.9,D,PTCH,A,7.8,D,ROLL*5E
$GPRMC,182523.2,V,4740.75776,N,12224.33789,W,,,130413,016.6,E*67
$GPRMC,182523.4,V,4740.75776,N,12224.33789,W,,,130413,016.6,E*61
$HCHDG,216.5,0.0,E,,*29
$IIMTW,+08.0,C*30
$GPRMC,182523.6,V,4740.75776,N,12224.33789,W,,,130413,016.6,E*63
$IIVHW,,,,,00.0,N,,*19
$YXXDR,A,1.4,D,PTCH,A,8.6,D,ROLL*56
$IIVLW,06210,N,000.0,N*56
$IIDPT,049.0,-1.0,*4D
$GPRMC,182523.8,V,4740.75776,N,12224.33789,W,,,130413,016.6,E*6D
$GPRMC,182524.0,V,4740.75776,N,12224.33789,W,,,130413,016.6,E*62
$HCHDG,219.3,0.0,E,,*20
$YXXDR,A,3.9,D,PTCH,A,5.0,D,ROLL*52
$GPRMC,182524.2,V,4740.75776,N,12224.33789,W,,,130413,016.6,E*60
$GPRMC,182524.4,V,4740.75776,N,12224.33789,W,,,130413,016.6,E*66
$HCHDG,220.0,0.0,E,,*29
$IIMTW,+08.0,C*30
$GPRMC,182524.6,V,4740.75776,N,12224.33789,W,,,130413,016.6,E*64
$IIVHW,,,,,00.0,N,,*19
$YXXDR,A,5.8,D,PTCH,A,6.5,D,ROLL*53
$IIVLW,06210,N,000.0,N*56
$IIDPT,049.0,-1.0,*4D
$GPRMC,182524.8,V,4740.75776,N,12224.33789,W,,,130413,016.6,E*6A
$GPRMC,182525.0,V,4740.75776,N,12224.33789,W,,,130413,016.6,E*63
$HCHDG,218.5,0.0,E,,*27
$YXXDR,A,5.3,D,PTCH,A,7.8,D,ROLL*54
$GPRMC,182525.2,V,4740.75776,N,12224.33789,W,,,130413,016.6,E*61
$PTAK,FFP1,HEEL,@*07
$GPRMC,182525.4,V,4740.75776,N,12224.33789,W,,,130413,016.6,E*67
$HCHDG,216.6,0.0,E,,*2A
$IIMTW,+08.0,C*30
$GPRMC,182525.6,V,4740.75776,N,12224.33789,W,,,130413,016.6,E*65
$IIVHW,,,,,00.0,N,,*19
$YXXDR,A,4.6,D,PTCH,A,6.6,D,ROLL*5F
$IIVLW,06210,N,000.0,N*56
$GPRMC,182525.8,V,4740.75776,N,12224.33789,W,,,130413,016.6,E*6B
$GPRMC,182526.0,V,4740.75776,N,12224.33789,W,,,130413,016.6,E*60
$HCHDG,216.7,0.0,E,,*2B
$YXXDR,A,6.1,D,PTCH,A,4.6,D,ROLL*58
$GPRMC,182526.2,V,4740.75776,N,12224.33789,W,,,130413,016.6,E*62
$GPRMC,182526.4,V,4740.75776,N,12224.33789,W,,,130413,016.6,E*64
$HCHDG,215.9,0.0,E,,*26
$IIMTW,+08.0,C*30
$GPRMC,182526.6,V,4740.75776,N,12224.33789,W,,,130413,016.6,E*66
$IIVHW,,,,,00.0,N,,*19
$YXXDR,A,5.3,D,PTCH,A,5.9,D,ROLL*57
$IIVLW,06210,N,000.0,N*56
$GPRMC,182526.8,V,4740.75776,N,12224.33789,W,,,130413,016.6,E*68
$GPRMC,182527.0,V,4740.75776,N,12224.33789,W,,,130413,016.6,E*61
$HCHDG,214.5,0.0,E,,*2B
$YXXDR,A,4.6,D,PTCH,A,6.9,D,ROLL*50
$GPRMC,182527.2,V,4740.75776,N,12224.33789,W,,,130413,016.6,E*63
$GPRMC,182527.4,V,4740.75776,N,12224.33789,W,,,130413,016.6,E*65
$IIMTW,+08.0,C*30
$HCHDG,215.2,0.0,E,,*2D
$GPRMC,182527.6,V,4740.75776,N,12224.33789,W,,,130413,016.6,E*67
$IIVHW,,,,,00.0,N,,*19
$YXXDR,A,5.1,D,PTCH,A,5.5,D,ROLL*59
$IIVLW,06210,N,000.0,N*56
$GPRMC,182527.8,V,4740.75776,N,12224.33789,W,,,130413,016.6,E*69
$GPRMC,182528.0,V,4740.75776,N,12224.33789,W,,,130413,016.6,E*6E
$HCHDG,213.9,0.0,E,,*20
$YXXDR,A,5.4,D,PTCH,A,7.5,D,ROLL*5E
$GPRMC,182528.2,V,4740.75776,N,12224.33789,W,,,130413,016.6,E*6C
$GPRMC,182528.4,V,4740.75776,N,12224.33789,W,,,130413,016.6,E*6A
$IIMTW,+08.0,C*30
$HCHDG,212.2,0.0,E,,*2A
$GPRMC,182528.6,V,4740.75776,N,12224.33789,W,,,130413,016.6,E*68
$IIVHW,,,,,00.0,N,,*19
$YXXDR,A,5.5,D,PTCH,A,6.7,D,ROLL*5C
$IIVLW,06210,N,000.0,N*56
$GPRMC,182528.8,V,4740.75776,N,12224.33789,W,,,130413,016.6,E*66
$GPRMC,182529.0,V,4740.75776,N,12224.33789,W,,,130413,016.6,E*6F
$HCHDG,209.8,0.0,E,,*2A
$YXXDR,A,5.2,D,PTCH,A,6.3,D,ROLL*5F
$GPRMC,182529.2,V,4740.75776,N,12224.33789,W,,,130413,016.6,E*6D
$GPRMC,182529.4,V,4740.75776,N,12224.33789,W,,,130413,016.6,E*6B
$PTAK,FFP1,HEEL,@*07
$HCHDG,206.8,0.0,E,,*25
$IIMTW,+08.0,C*30
$GPRMC,182529.6,V,4740.75776,N,12224.33789,W,,,130413,016.6,E*69
$IIVHW,,,,,00.0,N,,*19
$YXXDR,A,4.2,D,PTCH,A,7.0,D,ROLL*5C
$IIVLW,06210,N,000.0,N*56
$GPRMC,182529.8,V,4740.75776,N,12224.33789,W,,,130413,016.6,E*67
$GPRMC,182530.0,V,4740.75776,N,12224.33789,W,,,130413,016.6,E*67
$HCHDG,207.5,0.0,E,,*29
$YXXDR,A,4.9,D,PTCH,A,4.2,D,ROLL*56
$GPRMC,182530.2,V,4740.75776,N,12224.33789,W,,,130413,016.6,E*65
$GPRMC,182530.4,V,4740.75776,N,12224.33789,W,,,130413,016.6,E*63
$HCHDG,208.0,0.0,E,,*23
$IIMTW,+08.0,C*30
$GPRMC,182530.6,V,4740.75776,N,12224.33789,W,,,130413,016.6,E*61
$IIVHW,,,,,00.0,N,,*19
$YXXDR,A,5.4,D,PTCH,A,3.4,D,ROLL*5B
$IIVLW,06210,N,000.0,N*56
$IIDPT,050.8,-1.0,*4D
$GPRMC,182530.8,V,4740.75776,N,12224.33789,W,,,130413,016.6,E*6F
$GPRMC,182531.0,V,4740.75776,N,12224.33789,W,,,130413,016.6,E*66
$HCHDG,205.9,0.0,E,,*27
$YXXDR,A,5.1,D,PTCH,A,5.2,D,ROLL*5E
$GPRMC,182531.2,V,4740.75776,N,12224.33789,W,,,130413,016.6,E*64
$GPRMC,182531.4,V,4740.75776,N,12224.33789,W,,,130413,016.6,E*62
$HCHDG,204.5,0.0,E,,*2A
$IIMTW,+08.0,C*30
$GPRMC,182531.6,V,4740.75776,N,12224.33789,W,,,130413,016.6,E*60
$IIVHW,,,,,00.0,N,,*19
$YXXDR,A,5.0,D,PTCH,A,5.0,D,ROLL*5D
$IIVLW,06210,N,000.0,N*56
$IIDPT,051.3,-1.0,*47
$GPRMC,182531.8,V,4740.75776,N,12224.33789,W,,,130413,016.6,E*6E
$GPRMC,182532.0,V,4740.75776,N,12224.33789,W,,,130413,016.6,E*65
$HCHDG,203.4,0.0,E,,*2C
$YXXDR,A,4.8,D,PTCH,A,4.8,D,ROLL*5D
$GPRMC,182532.2,A,4741.47738,N,12224.65330,W,002.13,218.3,130413,016.6,E*47
$GPRMC,182532.4,A,4741.47725,N,12224.65374,W,001.95,217.3,130413,016.6,E*4F
$HCHDG,202.7,0.0,E,,*2E
$IIMTW,+08.0,C*30
$IIVHW,,,,,00.0,N,,*19
$GPRMC,182532.6,A,4741.47698,N,12224.65456,W,002.34,224.5,130413,016.6,E*43
$YXXDR,A,5.7,D,PTCH,A,4.7,D,ROLL*5C
$IIVLW,06210,N,000.0,N*56
$IIDPT,050.8,-1.0,*4D
$GPRMC,182532.8,A,4741.47690,N,12224.65654,W,002.78,226.7,130413,016.6,E*4D
$GPRMC,182533.0,A,4741.47699,N,12224.67320,W,003.06,228.7,130413,016.6,E*4F
$HCHDG,202.0,0.0,E,,*29
$YXXDR,A,5.4,D,PTCH,A,4.5,D,ROLL*5D
$GPRMC,182533.2,A,4741.47704,N,12224.67610,W,003.00,229.0,130413,016.6,E*4E
$GPRMC,182533.4,A,4741.47720,N,12224.67557,W,003.02,226.0,130413,016.6,E*43
$PTAK,FFP1,HEEL,@*07
$HCHDG,200.8,0.0,E,,*23
$IIGLL,4741.476,N,12224.673,W,182500,A,A*4A
$GPRMC,182533.6,A,4741.47708,N,12224.67575,W,003.24,231.7,130413,016.6,E*4E
$YXXDR,A,4.9,D,PTCH,A,5.4,D,ROLL*51
$IIMTW,+08.0,C*30
$IIRMC,182500,A,4741.476,N,12224.673,W,03.0,228,130413,16,E,A*1E
$GPRMC,182533.8,A,4741.47726,N,12224.67651,W,002.91,229.1,130413,016.6,E*49
$IIVHW,,,,,00.0,N,,*19
$IIVLW,06210,N,000.0,N*56
$IIDPT,050.8,-1.0,*4D
$GPRMC,182534.0,A,4741.47778,N,12224.67819,W,003.29,227.1,130413,016.6,E*43
$HCHDG,200.5,0.0,E,,*2E
$YXXDR,A,5.7,D,PTCH,A,4.6,D,ROLL*5D
$GPRMC,182534.2,A,4741.47765,N,12224.67841,W,003.65,225.0,130413,016.6,E*4B
$GPRMC,182534.4,A,4741.47748,N,12224.67869,W,003.88,224.8,130413,016.6,E*42
$HCHDG,198.9,0.0,E,,*20
$GPRMC,182534.6,A,4741.47710,N,12224.67949,W,004.28,226.9,130413,016.6,E*40
$IIGLL,4741.477,N,12224.678,W,182500,A,A*40
$YXXDR,A,4.8,D,PTCH,A,5.8,D,ROLL*5C
$IIMTW,+08.0,C*30
$IIRMC,182500,A,4741.477,N,12224.678,W,03.2,227,130413,16,E,A*19
$GPRMC,182534.8,A,4741.47691,N,12224.67990,W,004.01,228.9,130413,016.6,E*47
$IIVHW,,,,,00.0,N,,*19
$IIVLW,06210,N,000.0,N*56
$IIDPT,050.8,-1.0,*4D
$GPRMC,182535.0,A,4741.47676,N,12224.68015,W,003.79,230.8,130413,016.6,E*4C
$HCHDG,199.4,0.0,E,,*2C
$YXXDR,A,3.9,D,PTCH,A,4.5,D,ROLL*56
$GPRMC,182535.2,A,4741.47665,N,12224.68019,W,003.54,233.7,130413,016.6,E*43
$GPRMC,182535.4,A,4741.47651,N,12224.68047,W,003.53,231.1,130413,016.6,E*4A
$HCHDG,200.7,0.0,E,,*2C
$IIGLL,4741.476,N,12224.680,W,182500,A,A*46
$GPRMC,182535.6,A,4741.47642,N,12224.68079,W,003.52,227.9,130413,016.6,E*49
$YXXDR,A,5.0,D,PTCH,A,3.2,D,ROLL*59
$IIMTW,+08.0,C*30
$IIRMC,182500,A,4741.476,N,12224.680,W,03.7,230,130413,16,E,A*1C
$GPRMC,182535.8,A,4741.47637,N,12224.68106,W,003.47,225.6,130413,016.6,E*45
$IIVHW,,,,,00.0,N,,*19
$IIVLW,06210,N,000.0,N*56
$IIDPT,050.8,-1.0,*4D
$GPRMC,182536.0,A,4741.47625,N,12224.68128,W,003.68,222.2,130413,016.6,E*4F
$HCHDG,198.7,0.0,E,,*2E
$YXXDR,A,5.8,D,PTCH,A,6.5,D,ROLL*53
$GPRMC,182536.2,A,4741.47612,N,12224.68167,W,003.63,223.9,130413,016.6,E*43
$GPRMC,182536.4,A,4741.47606,N,12224.68195,W,003.58,224.3,130413,016.6,E*48
$HCHDG,198.4,0.0,E,,*2D
$IIGLL,4741.476,N,12224.681,W,182500,A,A*47
$GPRMC,182536.6,A,4741.47601,N,12224.68222,W,003.50,225.0,130413,016.6,E*48
$YXXDR,A,5.5,D,PTCH,A,4.2,D,ROLL*5B
$IIMTW,+08.0,C*30
$IIRMC,182500,A,4741.476,N,12224.681,W,03.6,222,130413,16,E,A*1F
$GPRMC,182536.8,A,4741.47594,N,12224.68251,W,003.32,226.1,130413,016.6,E*4B
$IIVHW,,,,,00.0,N,,*19
$IIVLW,06210,N,000.0,N*56
$IIDPT,050.8,-1.0,*4D
$GPRMC,182537.0,A,4741.47588,N,12224.68277,W,003.34,223.4,130413,016.6,E*4D
$HCHDG,198.0,0.0,E,,*29
$YXXDR,A,4.8,D,PTCH,A,4.2,D,ROLL*57
$GPRMC,182537.2,A,4741.47587,N,12224.68313,W,002.95,223.1,130413,016.6,E*4C
$GPRMC,182537.4,A,4741.47592,N,12224.68351,W,002.88,227.1,130413,016.6,E*40
$PTAK,FFP1,HEEL,@*07
$HCHDG,197.3,0.0,E,,*25
$IIGLL,4741.475,N,12224.682,W,182500,A,A*47
$GPRMC,182537.6,A,4741.47594,N,12224.68382,W,002.81,223.6,130413,016.6,E*40
$YXXDR,A,3.8,D,PTCH,A,5.2,D,ROLL*51
$IIMTW,+08.0,C*30
$IIRMC,182500,A,4741.475,N,12224.682,W,03.3,223,130413,16,E,A*1B
$GPRMC,182537.8,A,4741.47594,N,12224.68411,W,002.48,228.0,130413,016.6,E*4B
$IIVHW,,,,,00.0,N,,*19
$IIVLW,06210,N,000.0,N*56
$IIDPT,050.8,-1.0,*4D
$GPRMC,182538.0,A,4741.47592,N,12224.68446,W,003.10,228.1,130413,016.6,E*45
$HCHDG,199.2,0.0,E,,*2A
$YXXDR,A,5.4,D,PTCH,A,4.2,D,ROLL*5A
$GPRMC,182538.2,A,4741.47508,N,12224.68890,W,002.83,227.1,130413,016.6,E*47
$GPRMC,182538.4,A,4741.47504,N,12224.68918,W,003.05,226.8,130413,016.6,E*4B
$HCHDG,200.7,0.0,E,,*2C
$IIGLL,4741.475,N,12224.684,W,182500,A,A*41
$GPRMC,182538.6,A,4741.47503,N,12224.68944,W,003.21,225.8,130413,016.6,E*42
$YXXDR,A,6.6,D,PTCH,A,3.9,D,ROLL*57
$IIMTW,+08.0,C*30
$IIRMC,182500,A,4741.475,N,12224.684,W,03.1,228,130413,16,E,A*14
$GPRMC,182538.8,A,4741.47503,N,12224.68991,W,003.52,227.8,130413,016.6,E*42
$IIVHW,,,,,00.0,N,,*19
$IIVLW,06210,N,000.0,N*56
$IIDPT,050.8,-1.0,*4D
$GPRMC,182539.0,A,4741.47511,N,12224.69020,W,002.85,223.9,130413,016.6,E*44
$HCHDG,198.4,0.0,E,,*2D
$YXXDR,A,5.6,D,PTCH,A,7.1,D,ROLL*58
$GPRMC,182539.2,A,4741.47508,N,12224.69043,W,002.53,221.8,130413,016.6,E*43
$GPRMC,182539.4,A,4741.47498,N,12224.69067,W,002.83,219.7,130413,016.6,E*42
$HCHDG,197.8,0.0,E,,*2E
$IIGLL,4741.475,N,12224.690,W,182500,A,A*44
$GPRMC,182539.6,A,4741.47494,N,12224.69096,W,002.43,229.8,130413,016.6,E*42
$YXXDR,A,4.0,D,PTCH,A,6.8,D,ROLL*57
$IIMTW,+08.0,C*30
$IIRMC,182500,A,4741.475,N,12224.690,W,02.8,223,130413,16,E,A*12
$GPRMC,182539.8,A,4741.47474,N,12224.69147,W,002.74,221.7,130413,016.6,E*4C
$IIVHW,,,,,00.0,N,,*19
$IIVLW,06210,N,000.0,N*56
$IIDPT,050.8,-1.0,*4D
$GPRMC,182540.0,A,4741.47452,N,12224.69163,W,002.98,221.7,130413,016.6,E*4A
$HCHDG,200.8,0.0,E,,*23
$YXXDR,A,4.7,D,PTCH,A,4.5,D,ROLL*5F
$GPRMC,182540.2,A,4741.47434,N,12224.69200,W,003.21,221.9,130413,016.6,E*43
$GPRMC,182540.4,A,4741.47414,N,12224.69248,W,003.04,222.3,130413,016.6,E*45
$HCHDG,202.3,0.0,E,,*2A
$GPRMC,182540.6,A,4741.47396,N,12224.69275,W,003.70,219.0,130413,016.6,E*4C
$IIGLL,4741.474,N,12224.692,W,182500,A,A*47
$YXXDR,A,5.6,D,PTCH,A,5.2,D,ROLL*59
$IIMTW,+08.0,C*30
$IIRMC,182500,A,4741.474,N,12224.692,W,03.2,221,130413,16,E,A*18
$GPRMC,182540.8,A,4741.47383,N,12224.69299,W,003.01,223.4,130413,016.6,E*4F
$IIVHW,,,,,00.0,N,,*19
$IIVLW,06210,N,000.0,N*56
$IIDPT,048.3,-1.0,*4F
$GPRMC,182541.0,A,4741.47374,N,12224.69321,W,001.72,232.6,130413,016.6,E*48
$HCHDG,202.2,0.0,E,,*2B
$YXXDR,A,5.5,D,PTCH,A,5.7,D,ROLL*5F
$GPRMC,182541.2,A,4741.47379,N,12224.69093,W,001.95,228.0,130413,016.6,E*49
$GPRMC,182541.4,A,4741.47360,N,12224.69152,W,002.29,221.2,130413,016.6,E*44
$PTAK,FFP1,HEEL,@*07
$HCHDG,202.2,0.0,E,,*2B
$IIGLL,4741.473,N,12224.690,W,182500,A,A*42
$GPRMC,182541.6,A,4741.47342,N,12224.69188,W,002.75,218.8,130413,016.6,E*48
$YXXDR,A,4.8,D,PTCH,A,6.0,D,ROLL*57
$IIMTW,+08.0,C*30
$IIRMC,182500,A,4741.473,N,12224.690,W,01.9,228,130413,16,E,A*1D
$GPRMC,182541.8,A,4741.47321,N,12224.69230,W,003.22,218.2,130413,016.6,E*4A
$IIVHW,,,,,00.0,N,,*19
$IIVLW,06210,N,000.0,N*56
$IIDPT,048.3,-1.0,*4F
$GPRMC,182542.0,A,4741.47302,N,12224.69261,W,003.72,220.6,130413,016.6,E*4E
$HCHDG,203.0,0.0,E,,*28
$YXXDR,A,4.2,D,PTCH,A,5.9,D,ROLL*57
$GPRMC,182542.2,A,4741.47286,N,12224.69283,W,003.76,221.1,130413,016.6,E*4F
$GPRMC,182542.4,A,4741.47372,N,12224.67898,W,003.78,224.9,130413,016.6,E*4E
$HCHDG,203.6,0.0,E,,*2E
$GPRMC,182542.6,A,4741.47347,N,12224.67922,W,004.21,217.7,130413,016.6,E*4F
$IIGLL,4741.472,N,12224.692,W,182500,A,A*41
$YXXDR,A,5.4,D,PTCH,A,6.0,D,ROLL*5A
$IIMTW,+08.0,C*30
$IIRMC,182500,A,4741.472,N,12224.692,W,03.7,221,130413,16,E,A*1B
$GPRMC,182542.8,A,4741.47327,N,12224.67951,W,004.21,218.0,130413,016.6,E*4B
$IIVHW,,,,,00.0,N,,*19
$IIVLW,06210,N,000.0,N*56
$IIDPT,048.3,-1.0,*4F
$GPRMC,182543.0,A,4741.47307,N,12224.67959,W,004.17,219.8,130413,016.6,E*44
$HCHDG,203.0,0.0,E,,*28
$YXXDR,A,5.2,D,PTCH,A,6.8,D,ROLL*54
$GPRMC,182543.2,A,4741.47289,N,12224.67973,W,004.13,219.9,130413,016.6,E*4C
$GPRMC,182543.4,A,4741.47279,N,12224.68003,W,003.32,223.9,130413,016.6,E*49
$HCHDG,202.2,0.0,E,,*2B
$GPRMC,182543.6,A,4741.47272,N,12224.68015,W,002.68,230.2,130413,016.6,E*40
$IIGLL,4741.472,N,12224.679,W,182500,A,A*44
$YXXDR,A,3.8,D,PTCH,A,6.6,D,ROLL*56
$IIMTW,+08.0,C*30
$IIRMC,182500,A,4741.472,N,12224.679,W,04.1,219,130413,16,E,A*14
$GPRMC,182543.8,A,4741.47263,N,12224.68042,W,002.70,227.0,130413,016.6,E*41
$IIVHW,,,,,00.0,N,,*19
$IIVLW,06210,N,000.0,N*56
$IIDPT,048.3,-1.0,*4F
$GPRMC,182544.0,A,4741.47256,N,12224.68000,W,003.02,226.4,130413,016.6,E*4F
$PGRMT,GPS 18x-5Hz software ver. 3.20,,,,,,,,*30
$HCHDG,204.1,0.0,E,,*2E
$YXXDR,A,4.6,D,PTCH,A,4.3,D,ROLL*58
$GPRMC,182544.2,A,4741.47243,N,12224.68040,W,003.43,223.5,130413,016.6,E*4C
$GPRMC,182544.4,A,4741.47234,N,12224.68068,W,003.13,228.4,130413,016.6,E*4F
$HCHDG,204.6,0.0,E,,*29
$IIGLL,4741.472,N,12224.680,W,182500,A,A*42
$GPRMC,182544.6,A,4741.47224,N,12224.68090,W,002.93,232.1,130413,016.6,E*4C
$YXXDR,A,5.5,D,PTCH,A,4.7,D,ROLL*5E
$IIMTW,+08.0,C*30
$IIRMC,182500,A,4741.472,N,12224.680,W,03.4,223,130413,16,E,A*19
$GPRMC,182544.8,A,4741.47212,N,12224.68114,W,003.44,232.2,130413,016.6,E*42
$IIVHW,,,,,00.0,N,,*19
$IIVLW,06210,N,000.0,N*56
$IIDPT,048.3,-1.0,*4F
$GPRMC,182545.0,A,4741.47196,N,12224.68151,W,003.50,233.3,130413,016.6,E*40
$HCHDG,203.7,0.0,E,,*2F
$YXXDR,A,6.0,D,PTCH,A,5.7,D,ROLL*59
$GPRMC,182545.2,A,4741.47200,N,12224.67908,W,003.12,233.6,130413,016.6,E*46
$GPRMC,182545.4,A,4741.47210,N,12224.67671,W,002.69,227.7,130413,016.6,E*49
$HCHDG,202.0,0.0,E,,*29
$PTAK,FFP1,HEEL,@*07
$IIGLL,4741.472,N,12224.680,W,182500,A,A*42
$GPRMC,182545.6,A,4741.47239,N,12224.66754,W,002.69,222.7,130413,016.6,E*42
$YXXDR,A,5.6,D,PTCH,A,5.3,D,ROLL*58
$IIMTW,+08.0,C*30
$IIRMC,182500,A,4741.472,N,12224.680,W,03.4,223,130413,16,E,A*19
$GPRMC,182545.8,A,4741.47259,N,12224.66273,W,002.73,220.2,130413,016.6,E*46
$IIVHW,,,,,00.0,N,,*19
$IIVLW,06210,N,000.0,N*56
$IIDPT,048.3,-1.0,*4F
$GPRMC,182546.0,A,4741.47281,N,12224.66031,W,002.80,213.6,130413,016.6,E*44
$HCHDG,198.6,0.0,E,,*2F
$YXXDR,A,4.0,D,PTCH,A,6.6,D,ROLL*59
$GPRMC,182546.2,A,4741.47303,N,12224.65928,W,002.42,217.3,130413,016.6,E*40
$GPRMC,182546.4,A,4741.47336,N,12224.65966,W,002.98,223.9,130413,016.6,E*40
$HCHDG,198.3,0.0,E,,*2A
$IIGLL,4741.472,N,12224.676,W,182500,A,A*4B
$GPRMC,182546.6,A,4741.47353,N,12224.66001,W,003.16,231.4,130413,016.6,E*43
$YXXDR,A,3.8,D,PTCH,A,5.2,D,ROLL*51
$IIMTW,+08.0,C*30
$IIRMC,182500,A,4741.472,N,12224.676,W,02.6,227,130413,16,E,A*17
$GPRMC,182546.8,A,4741.47357,N,12224.66031,W,003.19,233.9,130413,016.6,E*4A
$IIVHW,,,,,00.0,N,,*19
$IIVLW,06210,N,000.0,N*56
$IIDPT,048.3,-1.0,*4F
$GPRMC,182547.0,A,4741.47365,N,12224.66028,W,003.61,234.0,130413,016.6,E*4B
$HCHDG,199.2,0.0,E,,*2A
$YXXDR,A,5.1,D,PTCH,A,3.9,D,ROLL*53
$GPRMC,182547.2,A,4741.47389,N,12224.65939,W,003.67,232.1,130413,016.6,E*40
$GPRMC,182547.4,A,4741.47392,N,12224.65959,W,003.20,232.4,130413,016.6,E*4C
$HCHDG,199.7,0.0,E,,*2F
$IIGLL,4741.473,N,12224.659,W,182500,A,A*47
$GPRMC,182547.6,A,4741.47407,N,12224.65985,W,003.37,231.4,130413,016.6,E*41
$YXXDR,A,6.1,D,PTCH,A,4.6,D,ROLL*58
$IIMTW,+08.0,C*30
$IIRMC,182500,A,4741.473,N,12224.659,W,02.9,223,130413,16,E,A*10
$GPRMC,182547.8,A,4741.47393,N,12224.65995,W,003.41,223.5,130413,016.6,E*47
$IIVHW,,,,,00.0,N,,*19
$IIVLW,06210,N,000.0,N*56
$IIDPT,048.3,-1.0,*4F
$GPRMC,182548.0,A,4741.47395,N,12224.65910,W,003.13,224.8,130413,016.6,E*46
$HCHDG,197.6,0.0,E,,*20
$YXXDR,A,5.9,D,PTCH,A,7.3,D,ROLL*55
$GPRMC,182548.2,A,4741.47381,N,12224.65923,W,003.05,230.2,130413,016.6,E*49
$GPRMC,182548.4,A,4741.47379,N,12224.65888,W,003.04,225.8,130413,016.6,E*47
$HCHDG,194.8,0.0,E,,*2D
$IIGLL,4741.473,N,12224.659,W,182500,A,A*47
$GPRMC,182548.6,A,4741.47367,N,12224.65899,W,003.00,222.0,130413,016.6,E*41
$YXXDR,A,3.9,D,PTCH,A,7.3,D,ROLL*53
$IIMTW,+08.0,C*30
$IIRMC,182500,A,4741.473,N,12224.659,W,03.2,232,130413,16,E,A*1A
$GPRMC,182548.8,A,4741.47376,N,12224.65805,W,003.04,223.0,130413,016.6,E*4F
$IIVHW,,,,,00.0,N,,*19
$IIVLW,06210,N,000.0,N*56
$GPRMC,182549.0,A,4741.47367,N,12224.65852,W,003.05,222.3,130413,016.6,E*47
$HCHDG,194.8,0.0,E,,*2D
$YXXDR,A,6.1,D,PTCH,A,2.6,D,ROLL*5E
$GPRMC,182549.2,A,4741.47349,N,12224.65914,W,003.08,229.5,130413,016.6,E*4A
$GPRMC,182549.4,A,4741.47331,N,12224.65951,W,003.63,227.9,130413,016.6,E*4D
$HCHDG,198.5,0.0,E,,*2C
$PTAK,FFP1,HEEL,@*07
$IIGLL,4741.473,N,12224.658,W,182500,A,A*46
$GPRMC,182549.6,A,4741.47288,N,12224.66023,W,003.62,228.8,130413,016.6,E*4C
$YXXDR,A,6.9,D,PTCH,A,0.3,D,ROLL*51
$IIMTW,+08.0,C*30
$IIRMC,182500,A,4741.473,N,12224.658,W,03.0,225,130413,16,E,A*1F
$GPRMC,182549.8,A,4741.47277,N,12224.65883,W,003.17,226.3,130413,016.6,E*44
$IIVHW,,,,,00.0,N,,*19
$IIVLW,06210,N,000.0,N*56
$GPRMC,182550.0,A,4741.47254,N,12224.66011,W,003.79,224.3,130413,016.6,E*4F
$HCHDG,195.8,0.0,E,,*2C
$YXXDR,A,5.6,D,PTCH,A,5.2,D,ROLL*59
$GPRMC,182550.2,A,4741.47203,N,12224.65329,W,003.83,220.9,130413,016.6,E*4F
$GPRMC,182550.4,A,4741.47170,N,12224.65279,W,003.17,219.7,130413,016.6,E*43
$HCHDG,193.8,0.0,E,,*2A
$IIGLL,4741.473,N,12224.659,W,182500,A,A*47
$GPRMC,182550.6,A,4741.47127,N,12224.65264,W,003.13,218.7,130413,016.6,E*4A
$YXXDR,A,3.9,D,PTCH,A,5.8,D,ROLL*5A
$IIMTW,+08.0,C*30
$IIRMC,182500,A,4741.473,N,12224.659,W,03.6,227,130413,16,E,A*1A
$GPRMC,182550.8,A,4741.47082,N,12224.65308,W,002.88,225.8,130413,016.6,E*43
$IIVHW,,,,,00.0,N,,*19
$IIVLW,06210,N,000.0,N*56
$GPRMC,182551.0,A,4741.47044,N,12224.65329,W,002.93,224.4,130413,016.6,E*44
$HCHDG,194.3,0.0,E,,*26
$YXXDR,A,4.6,D,PTCH,A,4.0,D,ROLL*5B
$GPRMC,182551.2,A,4741.47011,N,12224.65336,W,003.09,227.0,130413,016.6,E*4D
$GPRMC,182551.4,A,4741.46966,N,12224.65325,W,003.11,226.7,130413,016.6,E*4E
$HCHDG,194.0,0.0,E,,*25
$IIGLL,4741.471,N,12224.652,W,182500,A,A*4E
$GPRMC,182551.6,A,4741.46930,N,12224.65287,W,003.16,224.6,130413,016.6,E*42
$YXXDR,A,5.2,D,PTCH,A,5.2,D,ROLL*5D
$IIMTW,+08.0,C*30
$IIRMC,182500,A,4741.471,N,12224.652,W,03.1,219,130413,16,E,A*19
$GPRMC,182551.8,A,4741.46893,N,12224.65248,W,003.41,220.3,130413,016.6,E*44
$IIVHW,,,,,00.0,N,,*19
$IIVLW,06210,N,000.0,N*56
$GPRMC,182552.0,A,4741.46862,N,12224.65218,W,003.20,224.2,130413,016.6,E*46
$HCHDG,193.7,0.0,E,,*25
$YXXDR,A,5.2,D,PTCH,A,5.1,D,ROLL*5E
$GPRMC,182552.2,A,4741.46842,N,12224.65219,W,003.60,223.0,130413,016.6,E*46
$GPRMC,182552.4,A,4741.46824,N,12224.65206,W,003.22,221.0,130413,016.6,E*4A
$HCHDG,194.1,0.0,E,,*24
$IIGLL,4741.469,N,12224.652,W,182500,A,A*47
$GPRMC,182552.6,A,4741.46807,N,12224.65205,W,002.72,218.6,130413,016.6,E*42
$YXXDR,A,4.9,D,PTCH,A,4.4,D,ROLL*50
$IIMTW,+08.0,C*30
$IIRMC,182500,A,4741.469,N,12224.652,W,03.1,224,130413,16,E,A*1E
$GPRMC,182552.8,A,4741.46784,N,12224.65198,W,003.37,218.5,130413,016.6,E*4C
$IIVHW,,,,,00.0,N,,*19
$IIVLW,06210,N,000.0,N*56
$GPRMC,182553.0,A,4741.46759,N,12224.65191,W,003.02,226.4,130413,016.6,E*46
$HCHDG,193.9,0.0,E,,*2B
$YXXDR,A,5.0,D,PTCH,A,5.0,D,ROLL*5D
$GPRMC,182553.2,A,4741.46705,N,12224.65114,W,003.48,226.8,130413,016.6,E*42
$GPRMC,182553.4,A,4741.46663,N,12224.65069,W,003.45,222.8,130413,016.6,E*47
$HCHDG,192.8,0.0,E,,*2B
$PTAK,FFP1,HEEL,@*07
$IIGLL,4741.468,N,12224.652,W,182500,A,A*46
$GPRMC,182553.6,A,4741.46629,N,12224.65019,W,003.45,213.3,130413,016.6,E*45
$YXXDR,A,5.3,D,PTCH,A,6.0,D,ROLL*5D
$IIMTW,+08.0,C*30
$IIRMC,182500,A,4741.468,N,12224.652,W,02.7,218,130413,16,E,A*17
$GPRMC,182553.8,A,4741.46615,N,12224.65040,W,003.40,214.4,130413,016.6,E*4D
$IIVHW,,,,,00.0,N,,*19
$IIVLW,06210,N,000.0,N*56
$GPRMC,182554.0,A,4741.46598,N,12224.65059,W,003.38,217.3,130413,016.6,E*47
$HCHDG,190.5,0.0,E,,*24
$YXXDR,A,4.4,D,PTCH,A,6.9,D,ROLL*52
$GPRMC,182554.2,A,4741.46588,N,12224.65072,W,003.19,225.1,130413,016.6,E*4D
$GPRMC,182554.4,A,4741.46581,N,12224.65048,W,003.23,233.5,130413,016.6,E*41
$HCHDG,192.5,0.0,E,,*26
$IIGLL,4741.466,N,12224.650,W,182500,A,A*4A
$GPRMC,182554.6,A,4741.46568,N,12224.65062,W,003.40,237.8,130413,016.6,E*40
$YXXDR,A,5.1,D,PTCH,A,3.0,D,ROLL*5A
$IIMTW,+08.0,C*30
$IIRMC,182500,A,4741.466,N,12224.650,W,03.4,213,130413,16,E,A*12
$GPRMC,182554.8,A,4741.46552,N,12224.65069,W,003.45,233.6,130413,016.6,E*43
$IIVHW,,,,,00.0,N,,*19
$IIVLW,06210,N,000.0,N*56
$GPRMC,182555.0,A,4741.46538,N,12224.65079,W,003.51,234.1,130413,016.6,E*42
$HCHDG,193.8,0.0,E,,*2A
$YXXDR,A,5.9,D,PTCH,A,3.7,D,ROLL*55
$GPRMC,182555.2,A,4741.46519,N,12224.65086,W,003.83,218.4,130413,016.6,E*47
$GPRMC,182555.4,A,4741.46493,N,12224.65101,W,003.82,217.4,130413,016.6,E*42
$HCHDG,192.4,0.0,E,,*27
$IIGLL,4741.465,N,12224.650,W,182500,A,A*49
$GPRMC,182555.6,A,4741.46465,N,12224.65126,W,003.78,215.5,130413,016.6,E*4A
$YXXDR,A,5.0,D,PTCH,A,6.1,D,ROLL*5F
$IIMTW,+08.0,C*30
$IIRMC,182500,A,4741.465,N,12224.650,W,03.4,237,130413,16,E,A*17
$GPRMC,182555.8,A,4741.46428,N,12224.65104,W,003.70,215.5,130413,016.6,E*45
$IIVHW,,,,,00.0,N,,*19
$IIVLW,06210,N,000.0,N*56
$GPRMC,182556.0,A,4741.46392,N,12224.65088,W,003.64,217.4,130413,016.6,E*4B
$HCHDG,191.2,0.0,E,,*22
$YXXDR,A,4.3,D,PTCH,A,7.2,D,ROLL*5F
$GPRMC,182556.2,A,4741.46364,N,12224.65118,W,003.65,217.5,130413,016.6,E*48
$GPRMC,182556.4,A,4741.46189,N,12224.64838,W,004.19,226.7,130413,016.6,E*49
$HCHDG,192.8,0.0,E,,*2B
$IIGLL,4741.465,N,12224.650,W,182500,A,A*49
$GPRMC,182556.6,A,4741.46168,N,12224.64874,W,004.57,233.7,130413,016.6,E*42
$YXXDR,A,5.1,D,PTCH,A,5.1,D,ROLL*5D
$IIMTW,+08.0,C*30
$IIRMC,182500,A,4741.465,N,12224.650,W,03.4,237,130413,16,E,A*17
$GPRMC,182556.8,A,4741.46160,N,12224.64878,W,004.07,233.6,130413,016.6,E*4C
$IIVHW,,,,,00.0,N,,*19
$IIVLW,06210,N,000.0,N*56
$GPRMC,182557.0,A,4741.46149,N,12224.64878,W,003.83,228.9,130413,016.6,E*40
$HCHDG,194.7,0.0,E,,*22
$YXXDR,A,5.6,D,PTCH,A,5.2,D,ROLL*59
$GPRMC,182557.2,A,4741.46136,N,12224.64899,W,003.84,227.8,130413,016.6,E*4C
$GPRMC,182557.4,A,4741.46129,N,12224.64913,W,003.90,227.8,130413,016.6,E*42
$HCHDG,195.3,0.0,E,,*27
$IIGLL,4741.461,N,12224.648,W,182500,A,A*44
$GPRMC,182557.6,A,4741.46120,N,12224.64919,W,003.61,223.8,130413,016.6,E*49
$PTAK,FFP1,HEEL,@*07
$YXXDR,A,6.3,D,PTCH,A,5.0,D,ROLL*5D
$IIMTW,+08.0,C*30
$IIRMC,182500,A,4741.461,N,12224.648,W,04.5,233,130413,16,E,A*18
$GPRMC,182557.8,A,4741.46103,N,12224.64888,W,003.12,209.4,130413,016.6,E*4F
$IIVHW,,,,,00.0,N,,*19
$IIVLW,06210,N,000.0,N*56
$GPRMC,182558.0,A,4741.46084,N,12224.64871,W,002.86,205.3,130413,016.6,E*47
$HCHDG,194.7,0.0,E,,*22
$YXXDR,A,5.8,D,PTCH,A,4.8,D,ROLL*5C
$GPRMC,182558.2,A,4741.46070,N,12224.64837,W,002.53,204.8,130413,016.6,E*4E
$GPRMC,182558.4,A,4741.46049,N,12224.64861,W,002.30,199.6,130413,016.6,E*4D
$HCHDG,193.0,0.0,E,,*22
$IIGLL,4741.461,N,12224.649,W,182500,A,A*45
$GPRMC,182558.6,A,4741.46031,N,12224.64882,W,002.29,204.0,130413,016.6,E*44
$YXXDR,A,4.6,D,PTCH,A,4.9,D,ROLL*52
$IIMTW,+08.0,C*30
$IIRMC,182500,A,4741.461,N,12224.649,W,03.6,223,130413,16,E,A*1C
$GPRMC,182558.8,A,4741.46002,N,12224.64862,W,002.30,209.4,130413,016.6,E*45
$IIVHW,,,,,00.0,N,,*19
$IIVLW,06210,N,000.0,N*56
$GPRMC,182559.0,A,4741.45970,N,12224.64858,W,002.36,218.8,130413,016.6,E*40
$HCHDG,193.2,0.0,E,,*20
$YXXDR,A,3.2,D,PTCH,A,4.8,D,ROLL*50
$GPRMC,182559.2,A,4741.45968,N,12224.64887,W,002.42,231.0,130413,016.6,E*49
$GPRMC,182559.4,A,4741.45961,N,12224.64916,W,002.72,242.0,130413,016.6,E*48
$HCHDG,195.9,0.0,E,,*2D
$GPRMC,182559.6,A,4741.45955,N,12224.64943,W,003.00,245.8,130413,016.6,E*46
$IIGLL,4741.460,N,12224.648,W,182500,A,A*45
$YXXDR,A,6.2,D,PTCH,A,2.8,D,ROLL*53
$IIMTW,+08.0,C*30
$IIRMC,182500,A,4741.460,N,12224.648,W,02.2,204,130413,16,E,A*1C
$GPRMC,182559.8,A,4741.45946,N,12224.64965,W,003.26,237.2,130413,016.6,E*45
$IIVHW,,,,,00.0,N,,*19
$IIVLW,06210,N,000.0,N*56
$GPRMC,182600.0,A,4741.45932,N,12224.64984,W,003.42,226.6,130413,016.6,E*48
$HCHDG,195.9,0.0,E,,*2D
$YXXDR,A,7.5,D,PTCH,A,4.3,D,ROLL*58
$GPRMC,182600.2,A,4741.45919,N,12224.65003,W,003.41,227.2,130413,016.6,E*42
$GPRMC,182600.4,A,4741.45902,N,12224.65024,W,003.63,222.9,130413,016.6,E*45
$HCHDG,193.4,0.0,E,,*26
$GPRMC,182600.6,A,4741.45890,N,12224.65023,W,003.32,220.6,130413,016.6,E*43
$IIGLL,4741.459,N,12224.649,W,182500,A,A*4E
$YXXDR,A,5.6,D,PTCH,A,6.2,D,ROLL*5A
$IIMTW,+08.0,C*30
$IIRMC,182500,A,4741.459,N,12224.649,W,03.2,237,130413,16,E,A*16
$GPRMC,182600.8,A,4741.45875,N,12224.65023,W,003.52,220.9,130413,016.6,E*4F
$IIVHW,,,,,00.0,N,,*19
$IIVLW,06210,N,000.0,N*56
$GPRMC,182601.0,A,4741.45861,N,12224.65038,W,003.54,218.9,130413,016.6,E*44
$HCHDG,192.1,0.0,E,,*22
$YXXDR,A,3.3,D,PTCH,A,5.7,D,ROLL*5F
$GPRMC,182601.2,A,4741.45847,N,12224.65045,W,003.47,214.3,130413,016.6,E*4C
$GPRMC,182601.4,A,4741.45832,N,12224.65059,W,003.41,210.6,130413,016.6,E*42
$HCHDG,194.9,0.0,E,,*2C
$IIGLL,4741.459,N,12224.649,W,182500,A,A*4E
$GPRMC,182601.6,A,4741.45822,N,12224.65096,W,003.63,222.0,130413,016.6,E*45
$YXXDR,A,5.3,D,PTCH,A,2.4,D,ROLL*5D
$IIMTW,+08.0,C*30
$IIRMC,182500,A,4741.459,N,12224.649,W,03.2,237,130413,16,E,A*16
$GPRMC,182601.8,A,4741.45813,N,12224.65098,W,003.63,226.0,130413,016.6,E*43
$PTAK,FFP1,HEEL,@*07
$IIVHW,,,,,00.0,N,,*19
$IIVLW,06210,N,000.0,N*56
$GPRMC,182602.0,A,4741.45799,N,12224.65008,W,003.69,225.6,130413,016.6,E*43
$HCHDG,195.5,0.0,E,,*21
$YXXDR,A,6.0,D,PTCH,A,4.6,D,ROLL*59
$GPRMC,182602.2,A,4741.45797,N,12224.64854,W,003.39,231.1,130413,016.6,E*48
$GPRMC,182602.4,A,4741.45803,N,12224.64636,W,003.56,230.0,130413,016.6,E*4F
$HCHDG,196.8,0.0,E,,*2F
$IIGLL,4741.458,N,12224.650,W,182600,A,A*44
$GPRMC,182602.6,A,4741.45852,N,12224.64295,W,003.53,230.0,130413,016.6,E*41
$YXXDR,A,6.0,D,PTCH,A,4.4,D,ROLL*5B
$IIMTW,+08.0,C*30
$IIRMC,182600,A,4741.458,N,12224.650,W,03.6,226,130413,16,E,A*18
$GPRMC,182602.8,A,4741.45953,N,12224.64831,W,003.26,227.6,130413,016.6,E*49
$IIVHW,,,,,00.0,N,,*19
$IIVLW,06210,N,000.0,N*56
$GPRMC,182603.0,A,4741.46129,N,12224.64392,W,002.79,229.9,130413,016.6,E*4E
$HCHDG,198.7,0.0,E,,*2E
$YXXDR,A,5.1,D,PTCH,A,2.4,D,ROLL*5F
$GPRMC,182603.2,A,4741.46432,N,12224.64035,W,003.27,223.3,130413,016.6,E*47
$GPRMC,182603.4,A,4741.46862,N,12224.64032,W,002.68,220.2,130413,016.6,E*47
$HCHDG,198.2,0.0,E,,*2B
$IIGLL,4741.461,N,12224.643,W,182600,A,A*4C
$GPRMC,182603.6,A,4741.46968,N,12224.63399,W,002.86,215.6,130413,016.6,E*49
$YXXDR,A,5.6,D,PTCH,A,5.1,D,ROLL*5A
$IIMTW,+08.0,C*30
$IIRMC,182600,A,4741.461,N,12224.643,W,02.7,229,130413,16,E,A*1F
$GPRMC,182603.8,A,4741.47263,N,12224.62614,W,002.84,230.1,130413,016.6,E*45
$IIVHW,,,,,00.0,N,,*19
$IIVLW,06210,N,000.0,N*56
$GPRMC,182604.0,A,4741.46925,N,12224.62885,W,002.45,233.0,130413,016.6,E*4B
$HCHDG,196.9,0.0,E,,*2E
$YXXDR,A,4.0,D,PTCH,A,6.1,D,ROLL*5E
$GPRMC,182604.2,A,4741.46843,N,12224.62603,W,002.44,231.4,130413,016.6,E*4F
$GPRMC,182604.4,A,4741.46673,N,12224.62668,W,002.46,235.9,130413,016.6,E*42
$HCHDG,197.7,0.0,E,,*21
$IIGLL,4741.469,N,12224.628,W,182600,A,A*49
$GPRMC,182604.6,A,4741.46567,N,12224.62714,W,003.26,233.0,130413,016.6,E*44
$YXXDR,A,5.4,D,PTCH,A,5.1,D,ROLL*58
$IIMTW,+08.0,C*30
$IIRMC,182600,A,4741.469,N,12224.628,W,02.4,233,130413,16,E,A*12
$GPRMC,182604.8,A,4741.46478,N,12224.62774,W,003.19,233.7,130413,016.6,E*48
$IIVHW,,,,,00.0,N,,*19
$IIVLW,06210,N,000.0,N*56
$GPRMC,182605.0,A,4741.46676,N,12224.62336,W,003.14,230.9,130413,016.6,E*4F
$HCHDG,199.1,0.0,E,,*29
$YXXDR,A,6.3,D,PTCH,A,4.0,D,ROLL*5C
$GPRMC,182605.2,A,4741.46555,N,12224.62470,W,003.19,234.5,130413,016.6,E*4F
$GPRMC,182605.4,A,4741.46577,N,12224.62580,W,003.25,230.4,130413,016.6,E*4D
$HCHDG,197.5,0.0,E,,*23
$IIGLL,4741.466,N,12224.623,W,182600,A,A*4D
$GPRMC,182605.6,A,4741.46498,N,12224.62603,W,003.26,225.4,130413,016.6,E*40
$YXXDR,A,5.0,D,PTCH,A,5.9,D,ROLL*54
$IIMTW,+08.0,C*30
$IIRMC,182600,A,4741.466,N,12224.623,W,03.1,230,130413,16,E,A*11
$GPRMC,182605.8,A,4741.46469,N,12224.62524,W,002.95,228.0,130413,016.6,E*46
$IIVHW,,,,,00.0,N,,*19
$IIVLW,06210,N,000.0,N*56
$GPRMC,182606.0,A,4741.46349,N,12224.62719,W,002.89,225.7,130413,016.6,E*43
$PTAK,FFP1,HEEL,@*07
$HCHDG,198.4,0.0,E,,*2D
$YXXDR,A,4.8,D,PTCH,A,3.7,D,ROLL*55
$GPRMC,182606.2,A,4741.46277,N,12224.62833,W,002.89,227.0,130413,016.6,E*4F
$GPRMC,182606.4,A,4741.46273,N,12224.62874,W,002.89,228.1,130413,016.6,E*40
$HCHDG,198.9,0.0,E,,*20
$IIGLL,4741.463,N,12224.627,W,182600,A,A*4C
$GPRMC,182606.6,A,4741.46270,N,12224.62912,W,002.91,228.2,130413,016.6,E*4A
$YXXDR,A,5.4,D,PTCH,A,3.7,D,ROLL*58
$IIMTW,+08.0,C*30
$IIRMC,182600,A,4741.463,N,12224.627,W,02.8,225,130413,16,E,A*1C
$GPRMC,182606.8,A,4741.46228,N,12224.62936,W,003.22,223.6,130413,016.6,E*49
$IIVHW,,,,,00.0,N,,*19
$IIVLW,06210,N,000.0,N*56
$GPRMC,182607.0,A,4741.46211,N,12224.62968,W,002.92,223.7,130413,016.6,E*4A
$HCHDG,197.8,0.0,E,,*2E
$YXXDR,A,6.0,D,PTCH,A,6.6,D,ROLL*5B
$GPRMC,182607.2,A,4741.46167,N,12224.62984,W,002.99,224.6,130413,016.6,E*45
$GPRMC,182607.4,A,4741.46154,N,12224.63011,W,003.03,224.3,130413,016.6,E*40
$HCHDG,197.2,0.0,E,,*24
$IIGLL,4741.462,N,12224.629,W,182600,A,A*43
$GPRMC,182607.6,A,4741.46138,N,12224.63050,W,003.39,221.0,130413,016.6,E*42
$YXXDR,A,5.2,D,PTCH,A,6.4,D,ROLL*58
$IIMTW,+08.0,C*30
$IIRMC,182600,A,4741.462,N,12224.629,W,02.9,223,130413,16,E,A*14
$GPRMC,182607.8,A,4741.46144,N,12224.63109,W,003.14,233.5,130413,016.6,E*43
$IIVHW,,,,,00.0,N,,*19
$IIVLW,06210,N,000.0,N*56
$GPRMC,182608.0,A,4741.46191,N,12224.62998,W,003.08,233.3,130413,016.6,E*46
$HCHDG,198.2,0.0,E,,*2B
$YXXDR,A,5.4,D,PTCH,A,4.5,D,ROLL*5D
$GPRMC,182608.2,A,4741.46223,N,12224.62906,W,002.70,233.8,130413,016.6,E*4C
$GPRMC,182608.4,A,4741.46190,N,12224.62947,W,002.97,227.9,130413,016.6,E*49
$HCHDG,198.5,0.0,E,,*2C
$IIGLL,4741.462,N,12224.629,W,182600,A,A*43
$GPRMC,182608.6,A,4741.46079,N,12224.63169,W,002.96,234.7,130413,016.6,E*45
$YXXDR,A,4.5,D,PTCH,A,4.0,D,ROLL*58
$IIMTW,+08.0,C*30
$IIRMC,182600,A,4741.462,N,12224.629,W,02.7,233,130413,16,E,A*1B
$GPRMC,182608.8,A,4741.45980,N,12224.62942,W,002.93,229.2,130413,016.6,E*4B
$IIVHW,,,,,00.0,N,,*19
$IIVLW,06210,N,000.0,N*56
$GPRMC,182609.0,A,4741.45716,N,12224.62765,W,003.01,222.4,130413,016.6,E*4F
$HCHDG,197.1,0.0,E,,*27
$YXXDR,A,4.8,D,PTCH,A,5.2,D,ROLL*56
$GPRMC,182609.2,A,4741.45565,N,12224.62776,W,003.27,221.7,130413,016.6,E*4D
$GPRMC,182609.4,A,4741.45526,N,12224.62890,W,003.09,219.4,130413,016.6,E*4F
$HCHDG,198.4,0.0,E,,*2D
$IIGLL,4741.462,N,12224.629,W,182600,A,A*43
$GPRMC,182609.6,A,4741.45533,N,12224.62454,W,003.10,225.7,130413,016.6,E*49
$YXXDR,A,6.2,D,PTCH,A,3.8,D,ROLL*52
$IIMTW,+08.0,C*30
$IIRMC,182600,A,4741.462,N,12224.629,W,02.7,233,130413,16,E,A*1B
$GPRMC,182609.8,A,4741.45426,N,12224.62680,W,003.34,225.2,130413,016.6,E*4A
$IIVHW,,,,,00.0,N,,*19
$IIVLW,06210,N,000.0,N*56
$GPRMC,182610.0,A,4741.45359,N,12224.62767,W,003.71,225.8,130413,016.6,E*46
$HCHDG,198.0,0.0,E,,*29
$PTAK,FFP1,HEEL,@*07
$YXXDR,A,5.6,D,PTCH,A,5.3,D,ROLL*58
$GPRMC,182610.2,A,4741.45235,N,12224.62854,W,003.75,232.0,130413,016.6,E*4A
$GPRMC,182610.4,A,4741.45172,N,12224.62940,W,003.27,225.0,130413,016.6,E*49
$HCHDG,196.8,0.0,E,,*2F
$IIGLL,4741.455,N,12224.628,W,182600,A,A*46
$GPRMC,182610.6,A,4741.45128,N,12224.62997,W,003.55,225.3,130413,016.6,E*48
$YXXDR,A,4.7,D,PTCH,A,6.0,D,ROLL*58
$IIMTW,+08.0,C*30
$IIRMC,182600,A,4741.455,N,12224.628,W,03.0,219,130413,16,E,A*10
$GPRMC,182610.8,A,4741.45105,N,12224.62968,W,003.55,214.7,130413,016.6,E*4F
$IIVHW,,,,,00.0,N,,*19
$IIVLW,06210,N,000.0,N*56
$GPRMC,182611.0,A,4741.45114,N,12224.62967,W,002.91,212.3,130413,016.6,E*42
$HCHDG,196.8,0.0,E,,*2F
$YXXDR,A,5.1,D,PTCH,A,4.7,D,ROLL*5A
$GPRMC,182611.2,A,4741.45104,N,12224.62932,W,002.89,214.0,130413,016.6,E*4D
$GPRMC,182611.4,A,4741.44927,N,12224.62907,W,002.91,214.5,130413,016.6,E*49
$HCHDG,195.6,0.0,E,,*22
$IIGLL,4741.451,N,12224.629,W,182600,A,A*43
$GPRMC,182611.6,A,4741.44895,N,12224.62943,W,002.95,222.3,130413,016.6,E*44
$YXXDR,A,5.4,D,PTCH,A,4.2,D,ROLL*5A
$IIMTW,+08.0,C*30
$IIRMC,182600,A,4741.451,N,12224.629,W,03.5,225,130413,16,E,A*1F
$GPRMC,182611.8,A,4741.44864,N,12224.62982,W,002.95,224.1,130413,016.6,E*4D
$IIVHW,,,,,00.0,N,,*19
$IIVLW,06210,N,000.0,N*56
$GPRMC,182612.0,A,4741.44858,N,12224.63016,W,003.23,231.5,130413,016.6,E*40
$HCHDG,195.2,0.0,E,,*26
$YXXDR,A,5.4,D,PTCH,A,4.0,D,ROLL*58
$GPRMC,182612.2,A,4741.44835,N,12224.63050,W,003.43,234.1,130413,016.6,E*4C
$GPRMC,182612.4,A,4741.44843,N,12224.62956,W,003.05,231.3,130413,016.6,E*40
$HCHDG,193.4,0.0,E,,*26
$IIGLL,4741.448,N,12224.629,W,182600,A,A*4B
$GPRMC,182612.6,A,4741.44814,N,12224.62933,W,003.03,225.7,130413,016.6,E*44
$YXXDR,A,5.1,D,PTCH,A,6.3,D,ROLL*5C
$IIMTW,+08.0,C*30
$IIRMC,182600,A,4741.448,N,12224.629,W,02.9,222,130413,16,E,A*1D
$GPRMC,182612.8,A,4741.44773,N,12224.62938,W,003.08,218.9,130413,016.6,E*44
$IIVHW,,,,,00.0,N,,*19
$IIVLW,06210,N,000.0,N*56
$GPRMC,182613.0,A,4741.44729,N,12224.62948,W,003.02,217.0,130413,016.6,E*49
$HCHDG,190.9,0.0,E,,*28
$YXXDR,A,5.9,D,PTCH,A,8.4,D,ROLL*5D
$GPRMC,182613.2,A,4741.44736,N,12224.62962,W,003.05,206.6,130413,016.6,E*4C
$GPRMC,182613.4,A,4741.44736,N,12224.62917,W,003.27,221.0,130413,016.6,E*4B
$HCHDG,190.4,0.0,E,,*25
$IIGLL,4741.448,N,12224.629,W,182600,A,A*4B
$GPRMC,182613.6,A,4741.44736,N,12224.62878,W,003.92,232.2,130413,016.6,E*4F
$YXXDR,A,5.7,D,PTCH,A,8.0,D,ROLL*57
$IIMTW,+08.0,C*30
$IIRMC,182600,A,4741.448,N,12224.629,W,03.0,225,130413,16,E,A*12
$GPRMC,182613.8,A,4741.44747,N,12224.62555,W,004.33,234.1,130413,016.6,E*4C
$IIVHW,,,,,00.0,N,,*19
$IIVLW,06210,N,000.0,N*56
