$PGRME,2.5,M,2.4,M,3.5,M*29
$HCHDG,226.0,0.0,E,,*2F
$YXXDR,A,5.5,D,PTCH,A,1.3,D,ROLL*5F
$HCHDG,225.8,0.0,E,,*24
$GPRMC,200000.6,A,4743.18400,N,12224.79352,W,001.86,268.6,200413,016.6,E,D*22
$PGRME,2.5,M,2.4,M,3.5,M*29
$HCHDG,225.3,0.0,E,,*2F
$HCHDG,225.0,0.0,E,,*2C
$GPRMC,200000.8,A,4743.18399,N,12224.79365,W,001.42,267.6,200413,016.6,E,D*28
$PGRME,2.5,M,2.4,M,3.5,M*29
$HCHDG,224.8,0.0,E,,*25
$HCHDG,224.5,0.0,E,,*28
$IIRMC,195900,A,4743.184,N,12224.793,W,01.6,272,200413,16,E,A*1A
$GPRMC,200001.0,A,4743.18398,N,12224.79381,W,001.73,266.4,200413,016.6,E,D*2B
$PGRME,2.5,M,2.4,M,3.5,M*29
$YXXDR,A,5.5,D,PTCH,A,0.9,D,ROLL*54
$PTAK,FFD1,0.9*5C
$IIVHW,,,,,01.8,N,,*10
$HCHDG,224.3,0.0,E,,*2E
$IIVLW,06219,N,009.6,N*50
$HCHDG,224.2,0.0,E,,*2F
$IIGLL,4743.184,N,12224.793,W,195900,A,A*45
$GPRMC,200001.2,A,4743.18395,N,12224.79394,W,001.69,265.4,200413,016.6,E,D*28
$GPRMB,A,-32.05,L,,Ttp,4726.8700,N,12137.4300,W,35.9,133,-0.73,V*5D
$PGRME,2.5,M,2.4,M,3.5,M*29
$IIMTW,+09.0,C*31
$HCHDG,223.7,0.0,E,,*2D
$IIRMB,A,,,,Ttp ,,,,,035.9,133,,V,A*6B
$HCHDG,223.5,0.0,E,,*2F
$GPRMC,200001.4,A,4743.18391,N,12224.79409,W,001.88,264.3,200413,016.6,E,D*20
$PGRME,2.5,M,2.4,M,3.5,M*29
$HCHDG,223.2,0.0,E,,*28
$YXXDR,A,5.2,D,PTCH,A,1.1,D,ROLL*5A
$HCHDG,222.9,0.0,E,,*22
$GPRMC,200001.6,A,4743.18384,N,12224.79420,W,001.90,263.1,200413,016.6,E,D*21
$PGRME,2.5,M,2.4,M,3.5,M*29
$HCHDG,222.8,0.0,E,,*23
$HCHDG,222.7,0.0,E,,*2C
$GPRMC,200001.8,A,4743.18379,N,12224.79432,W,001.94,262.2,200413,016.6,E,D*28
$PGRME,2.5,M,2.4,M,3.5,M*29
$HCHDG,222.6,0.0,E,,*2D
$HCHDG,222.3,0.0,E,,*28
$IIRMC,200000,A,4743.183,N,12224.793,W,01.7,266,200413,16,E,A*1F
$GPRMC,200002.0,A,4743.18375,N,12224.79439,W,001.74,261.3,200413,016.6,E,D*28
$PTAK,FFP1,HEEL,@*07
$PGRME,2.5,M,2.4,M,3.5,M*29
$YXXDR,A,5.4,D,PTCH,A,1.0,D,ROLL*5D
$PTAK,FFD1,1.0*54
$IIVHW,,,,,01.8,N,,*10
$HCHDG,222.4,0.0,E,,*2F
$IIVLW,06219,N,009.6,N*50
$HCHDG,222.3,0.0,E,,*28
$IIGLL,4743.183,N,12224.793,W,200000,A,A*44
$GPRMC,200002.2,A,4743.18365,N,12224.79466,W,001.57,260.4,200413,016.6,E,D*26
$PGRME,2.5,M,2.4,M,3.5,M*29
$IIMTW,+09.0,C*31
$HCHDG,222.1,0.0,E,,*2A
$IIRMB,A,,,,Ttp ,,,,,035.9,133,,V,A*6B
$HCHDG,221.9,0.0,E,,*21
$GPRMC,200002.4,A,4743.18362,N,12224.79474,W,001.57,259.2,200413,016.6,E,D*28
$GPRMB,A,-32.05,L,,Ttp,4726.8700,N,12137.4300,W,35.9,133,-0.52,V*5E
$PGRME,2.5,M,2.4,M,3.5,M*29
$HCHDG,221.6,0.0,E,,*2E
$YXXDR,A,5.2,D,PTCH,A,1.1,D,ROLL*5A
$HCHDG,221.4,0.0,E,,*2C
$GPRMC,200002.6,A,4743.18358,N,12224.79474,W,001.62,258.1,200413,016.6,E,D*27
$PGRME,2.5,M,2.4,M,3.5,M*29
$HCHDG,221.3,0.0,E,,*2B
$HCHDG,221.1,0.0,E,,*29
$GPRMC,200002.8,A,4743.18354,N,12224.79479,W,001.81,256.9,200413,016.6,E,D*23
$PGRME,2.5,M,2.4,M,3.5,M*29
$HCHDG,221.0,0.0,E,,*28
$HCHDG,220.9,0.0,E,,*20
$IIRMC,200000,A,4743.183,N,12224.794,W,01.7,261,200413,16,E,A*1F
$GPRMC,200003.0,A,4743.18347,N,12224.79482,W,001.74,255.9,200413,016.6,E,D*25
$PGRME,2.5,M,2.4,M,3.5,M*29
$YXXDR,A,5.4,D,PTCH,A,1.4,D,ROLL*59
$IIVHW,,,,,01.8,N,,*10
$HCHDG,220.9,0.0,E,,*20
$IIVLW,06219,N,009.6,N*50
$HCHDG,220.9,0.0,E,,*20
$IIGLL,4743.183,N,12224.794,W,200000,A,A*43
$GPRMC,200003.2,A,4743.18343,N,12224.79489,W,001.72,255.0,200413,016.6,E,D*27
$PGRME,2.5,M,2.4,M,3.5,M*29
$IIMTW,+09.0,C*31
$HCHDG,220.8,0.0,E,,*21
$IIRMB,A,,,,Ttp ,,,,,035.9,133,,V,A*6B
$HCHDG,220.8,0.0,E,,*21
$GPRMC,200003.4,A,4743.18340,N,12224.79497,W,001.74,254.2,200413,016.6,E,D*28
$PGRME,2.5,M,2.4,M,3.5,M*29
$HCHDG,220.9,0.0,E,,*20
$YXXDR,A,5.5,D,PTCH,A,0.4,D,ROLL*59
$PTAK,FFD1,0.4*51
$HCHDG,221.0,0.0,E,,*28
$GPRMC,200003.6,A,4743.18335,N,12224.79504,W,001.74,253.1,200413,016.6,E,D*27
$GPRMB,A,-32.05,L,,Ttp,4726.8700,N,12137.4300,W,35.9,133,-0.40,V*5D
$PGRME,2.5,M,2.4,M,3.5,M*29
$HCHDG,221.1,0.0,E,,*29
$HCHDG,221.0,0.0,E,,*28
$GPRMC,200003.8,A,4743.18330,N,12224.79511,W,001.75,252.1,200413,016.6,E,D*28
$PGRME,2.5,M,2.4,M,3.5,M*29
$HCHDG,220.9,0.0,E,,*20
$HCHDG,220.7,0.0,E,,*2E
$IIRMC,200000,A,4743.183,N,12224.794,W,01.7,261,200413,16,E,A*1F
$GPRMC,200004.0,A,4743.18326,N,12224.79518,W,001.91,250.9,200413,016.6,E,D*29
$PGRME,2.5,M,2.4,M,3.5,M*29
$YXXDR,A,5.4,D,PTCH,A,0.5,D,ROLL*59
$IIVHW,,,,,01.8,N,,*10
$HCHDG,220.7,0.0,E,,*2E
$IIVLW,06219,N,009.6,N*50
$HCHDG,220.6,0.0,E,,*2F
$IIGLL,4743.183,N,12224.794,W,200000,A,A*43
$GPRMC,200004.2,A,4743.18319,N,12224.79524,W,001.85,250.1,200413,016.6,E,D*25
$PGRME,2.5,M,2.4,M,3.5,M*29
$IIMTW,+08.0,C*30
$HCHDG,220.6,0.0,E,,*2F
$IIRMB,A,,,,Ttp ,,,,,035.9,133,,V,A*6B
$HCHDG,220.5,0.0,E,,*2C
$GPRMC,200004.4,A,4743.18314,N,12224.79532,W,001.81,249.2,200413,016.6,E,D*26
$PGRME,2.5,M,2.4,M,3.5,M*29
$HCHDG,220.6,0.0,E,,*2F
$YXXDR,A,5.3,D,PTCH,A,0.1,D,ROLL*5A
$HCHDG,220.5,0.0,E,,*2C
$GPRMC,200004.6,A,4743.18308,N,12224.79529,W,001.77,248.4,200413,016.6,E,D*2D
$PGRME,2.5,M,2.4,M,3.5,M*29
$HCHDG,220.7,0.0,E,,*2E
$HCHDG,220.6,0.0,E,,*2F
$GPRMC,200004.8,A,4743.18307,N,12224.79532,W,001.77,247.6,200413,016.6,E,D*2B
$GPRMB,A,-32.05,L,,Ttp,4726.8700,N,12137.4300,W,35.9,133,-0.24,V*5F
$PGRME,2.5,M,2.4,M,3.5,M*29
$HCHDG,220.7,0.0,E,,*2E
$HCHDG,220.6,0.0,E,,*2F
$IIRMC,200000,A,4743.183,N,12224.795,W,01.9,250,200413,16,E,A*12
$GPRMC,200005.0,A,4743.18305,N,12224.79532,W,001.74,246.8,200413,016.6,E,D*2C
$PGRME,2.5,M,2.4,M,3.5,M*29
$YXXDR,A,5.1,D,PTCH,A,0.0,D,ROLL*59
$PTAK,FFD1,0.0*55
$IIVHW,,,,,01.8,N,,*10
$HCHDG,220.5,0.0,E,,*2C
$IIVLW,06219,N,009.6,N*50
$HCHDG,220.5,0.0,E,,*2C
$IIGLL,4743.183,N,12224.795,W,200000,A,A*42
$GPRMC,200005.2,A,4743.18299,N,12224.79534,W,001.74,245.9,200413,016.6,E,D*2E
$PGRME,2.5,M,2.4,M,3.5,M*29
$IIMTW,+08.5,C*35
$HCHDG,220.4,0.0,E,,*2D
$IIRMB,A,,,,Ttp ,,,,,035.9,133,,V,A*6B
$HCHDG,220.6,0.0,E,,*2F
$GPRMC,200005.4,A,4743.18292,N,12224.79545,W,001.77,245.3,200413,016.6,E,D*2C
$PGRME,2.5,M,2.4,M,3.5,M*29
$HCHDG,220.9,0.0,E,,*20
$YXXDR,A,5.3,D,PTCH,A,-0.4,D,ROLL*72
$HCHDG,220.8,0.0,E,,*21
$GPRMC,200005.6,A,4743.18287,N,12224.79556,W,001.77,244.7,200413,016.6,E,D*2D
$PGRME,2.5,M,2.4,M,3.5,M*29
$HCHDG,220.9,0.0,E,,*20
$HCHDG,220.9,0.0,E,,*20
$GPRMC,200005.8,A,4743.18279,N,12224.79563,W,001.78,244.2,200413,016.6,E,D*2E
$PGRME,2.5,M,2.4,M,3.5,M*29
$HCHDG,220.9,0.0,E,,*20
$HCHDG,220.9,0.0,E,,*20
$IIRMC,200000,A,4743.183,N,12224.795,W,01.7,246,200413,16,E,A*1B
$GPRMC,200006.0,A,4743.18276,N,12224.79572,W,001.94,243.7,200413,016.6,E,D*2A
$GPRMB,A,-32.05,L,,Ttp,4726.8700,N,12137.4300,W,35.9,133,-0.13,V*5B
$PTAK,FFP1,HEEL,@*07
$PGRME,2.5,M,2.4,M,3.5,M*29
$YXXDR,A,5.3,D,PTCH,A,-0.2,D,ROLL*74
$PTAK,FFD1,0.2*57
$IIVHW,,,,,01.9,N,,*11
$HCHDG,220.7,0.0,E,,*2E
$IIVLW,06219,N,009.6,N*50
$HCHDG,220.6,0.0,E,,*2F
$IIGLL,4743.183,N,12224.795,W,200000,A,A*42
$GPRMC,200006.2,A,4743.18272,N,12224.79580,W,001.73,243.2,200413,016.6,E,D*2D
$PGRME,2.5,M,2.4,M,3.5,M*29
$IIMTW,+08.5,C*35
$HCHDG,220.5,0.0,E,,*2C
$IIRMB,A,,,,Ttp ,,,,,035.9,133,,V,A*6B
$HCHDG,220.4,0.0,E,,*2D
$GPRMC,200006.4,A,4743.18267,N,12224.79584,W,001.89,242.6,200413,016.6,E,D*2B
$PGRME,2.5,M,2.4,M,3.5,M*29
$HCHDG,220.4,0.0,E,,*2D
$YXXDR,A,5.4,D,PTCH,A,0.0,D,ROLL*5C
$HCHDG,220.2,0.0,E,,*2B
$GPRMC,200006.6,A,4743.18262,N,12224.79586,W,001.84,242.2,200413,016.6,E,D*27
$PGRME,2.5,M,2.4,M,3.5,M*29
$HCHDG,220.1,0.0,E,,*28
$HCHDG,220.3,0.0,E,,*2A
$GPRMC,200006.8,A,4743.18256,N,12224.79584,W,001.84,241.7,200413,016.6,E,D*2A
$PGRME,2.5,M,2.4,M,3.5,M*29
$HCHDG,220.3,0.0,E,,*2A
$HCHDG,220.2,0.0,E,,*2B
$IIRMC,200000,A,4743.182,N,12224.795,W,01.9,243,200413,16,E,A*11
$GPRMC,200007.0,A,4743.18247,N,12224.79597,W,001.81,241.4,200413,016.6,E,D*27
$PGRME,2.5,M,2.4,M,3.5,M*29
$YXXDR,A,5.4,D,PTCH,A,0.0,D,ROLL*5C
$IIVHW,,,,,01.9,N,,*11
$HCHDG,220.2,0.0,E,,*2B
$IIVLW,06219,N,009.6,N*50
$HCHDG,220.1,0.0,E,,*28
$IIGLL,4743.182,N,12224.795,W,200000,A,A*43
$GPRMC,200007.2,A,4743.18237,N,12224.79616,W,001.83,241.0,200413,016.6,E,D*2E
$GPRMB,A,-32.05,L,,Ttp,4726.8700,N,12137.4300,W,35.9,133,-0.03,V*5A
$PGRME,2.5,M,2.4,M,3.5,M*29
$IIMTW,+08.5,C*35
$HCHDG,220.1,0.0,E,,*28
$IIRMB,A,,,,Ttp ,,,,,035.9,133,,V,A*6B
$HCHDG,220.2,0.0,E,,*2B
$GPRMC,200007.4,A,4743.18229,N,12224.79628,W,001.82,240.7,200413,016.6,E,D*2D
$PGRME,2.5,M,2.4,M,3.5,M*29
$HCHDG,220.2,0.0,E,,*2B
$YXXDR,A,5.4,D,PTCH,A,-0.1,D,ROLL*70
$PTAK,FFD1,0.1*54
$HCHDG,220.2,0.0,E,,*2B
$GPRMC,200007.6,A,4743.18224,N,12224.79642,W,001.83,240.3,200413,016.6,E,D*2B
$PGRME,2.5,M,2.4,M,3.5,M*29
$HCHDG,220.2,0.0,E,,*2B
$HCHDG,220.2,0.0,E,,*2B
$GPRMC,200007.8,A,4743.18222,N,12224.79648,W,001.87,240.1,200413,016.6,E,D*2F
$PGRME,2.6,M,2.4,M,3.5,M*2A
$HCHDG,220.2,0.0,E,,*2B
$HCHDG,220.2,0.0,E,,*2B
$IIRMC,200000,A,4743.182,N,12224.795,W,01.8,241,200413,16,E,A*12
$GPRMC,200008.0,A,4743.18215,N,12224.79655,W,001.87,239.7,200413,016.6,E,D*28
$PGRME,2.6,M,2.4,M,3.5,M*2A
$YXXDR,A,5.4,D,PTCH,A,0.0,D,ROLL*5C
$IIVHW,,,,,01.9,N,,*11
$HCHDG,220.4,0.0,E,,*2D
$IIVLW,06219,N,009.6,N*50
$HCHDG,220.3,0.0,E,,*2A
$IIGLL,4743.182,N,12224.795,W,200000,A,A*43
$GPRMC,200008.2,A,4743.18212,N,12224.79641,W,001.83,239.5,200413,016.6,E,D*2E
$GPRMB,A,-32.05,L,,Ttp,4726.8700,N,12137.4300,W,35.9,133,0.01,V*75
$PGRME,2.6,M,2.4,M,3.5,M*2A
$IIMTW,+08.5,C*35
$HCHDG,220.4,0.0,E,,*2D
$IIRMB,A,,,,Ttp ,,,,,035.9,133,,V,A*6B
$HCHDG,220.1,0.0,E,,*28
$GPRMC,200008.4,A,4743.18206,N,12224.79649,W,001.86,239.1,200413,016.6,E,D*24
$PGRME,2.6,M,2.4,M,3.5,M*2A
$HCHDG,220.1,0.0,E,,*28
$YXXDR,A,5.1,D,PTCH,A,0.2,D,ROLL*5B
$HCHDG,220.0,0.0,E,,*29
$GPRMC,200008.6,A,4743.18204,N,12224.79647,W,001.85,238.7,200413,016.6,E,D*2E
$PGRME,2.6,M,2.4,M,3.5,M*2A
$HCHDG,220.2,0.0,E,,*2B
$HCHDG,220.2,0.0,E,,*2B
$GPRMC,200008.8,A,4743.18194,N,12224.79662,W,001.82,238.3,200413,016.6,E,D*2E
$PGRME,2.6,M,2.4,M,3.5,M*2A
$HCHDG,220.4,0.0,E,,*2D
$HCHDG,220.5,0.0,E,,*2C
$IIRMC,200000,A,4743.182,N,12224.796,W,01.8,239,200413,16,E,A*1E
$GPRMC,200009.0,A,4743.18186,N,12224.79684,W,001.84,238.2,200413,016.6,E,D*2B
$PGRME,2.6,M,2.4,M,3.5,M*2A
$YXXDR,A,5.2,D,PTCH,A,0.0,D,ROLL*5A
$PTAK,FFD1,0.0*55
$IIVHW,,,,,02.0,N,,*1B
$HCHDG,220.5,0.0,E,,*2C
$IIVLW,06219,N,009.6,N*50
$HCHDG,220.5,0.0,E,,*2C
$IIGLL,4743.182,N,12224.796,W,200000,A,A*40
$GPRMC,200009.2,A,4743.18180,N,12224.79689,W,001.88,238.3,200413,016.6,E,D*2F
$GPRMB,A,-32.05,L,,Ttp,4726.8700,N,12137.4300,W,35.9,133,0.05,V*71
$PGRME,2.6,M,2.4,M,3.5,M*2A
$IIMTW,+09.0,C*31
$HCHDG,220.7,0.0,E,,*2E
$IIRMB,A,,,,Ttp ,,,,,035.9,133,,V,A*6B
$HCHDG,220.6,0.0,E,,*2F
$GPRMC,200009.4,A,4743.18177,N,12224.79690,W,001.90,238.2,200413,016.6,E,D*21
$PGRME,2.6,M,2.4,M,3.5,M*2A
$HCHDG,221.0,0.0,E,,*28
$YXXDR,A,5.4,D,PTCH,A,0.0,D,ROLL*5C
$HCHDG,221.0,0.0,E,,*28
$GPRMC,200009.6,A,4743.18177,N,12224.79694,W,001.93,238.1,200413,016.6,E,D*27
$PGRME,2.6,M,2.4,M,3.5,M*2A
$HCHDG,221.2,0.0,E,,*2A
$HCHDG,221.2,0.0,E,,*2A
$GPRMC,200009.8,A,4743.18174,N,12224.79686,W,001.96,237.9,200413,016.6,E,D*2B
$PGRME,2.6,M,2.4,M,3.5,M*2A
$HCHDG,221.2,0.0,E,,*2A
$HCHDG,221.1,0.0,E,,*29
$IIRMC,200000,A,4743.181,N,12224.796,W,01.8,238,200413,16,E,A*1C
$GPRMC,200010.0,A,4743.18172,N,12224.79697,W,001.94,237.9,200413,016.6,E,D*2F
$PGRME,2.6,M,2.4,M,3.5,M*2A
$YXXDR,A,5.3,D,PTCH,A,0.1,D,ROLL*5A
$PTAK,FFD1,0.1*54
$PTAK,FFP1,HEEL,@*07
$IIVHW,,,,,02.0,N,,*1B
$HCHDG,221.1,0.0,E,,*29
$IIVLW,06219,N,009.6,N*50
$HCHDG,221.0,0.0,E,,*28
$IIGLL,4743.181,N,12224.796,W,200000,A,A*43
$GPRMC,200010.2,A,4743.18170,N,12224.79708,W,001.92,237.8,200413,016.6,E,D*2F
$PGRME,2.6,M,2.4,M,3.5,M*2A
$IIMTW,+09.0,C*31
$HCHDG,221.0,0.0,E,,*28
$IIRMB,A,,,,Ttp ,,,,,035.9,133,,V,A*6B
$HCHDG,220.9,0.0,E,,*20
$GPRMC,200010.4,A,4743.18165,N,12224.79718,W,001.92,237.7,200413,016.6,E,D*23
$GPRMB,A,-32.05,L,,Ttp,4726.8700,N,12137.4300,W,35.9,133,0.08,V*7C
$PGRME,2.6,M,2.4,M,3.5,M*2A
$HCHDG,221.1,0.0,E,,*29
$YXXDR,A,5.3,D,PTCH,A,0.3,D,ROLL*58
$HCHDG,221.0,0.0,E,,*28
$GPRMC,200010.6,A,4743.18159,N,12224.79730,W,002.12,237.4,200413,016.6,E,D*2C
$PGRME,2.6,M,2.4,M,3.5,M*2A
$HCHDG,220.8,0.0,E,,*21
$HCHDG,220.8,0.0,E,,*21
$GPRMC,200010.8,A,4743.18153,N,12224.79745,W,001.82,237.5,200413,016.6,E,D*21
$PGRME,2.6,M,2.4,M,3.5,M*2A
$HCHDG,220.9,0.0,E,,*20
$HCHDG,220.9,0.0,E,,*20
$IIRMC,200000,A,4743.181,N,12224.796,W,01.9,237,200413,16,E,A*12
$GPRMC,200011.0,A,4743.18149,N,12224.79757,W,001.87,237.5,200413,016.6,E,D*25
$PGRME,2.6,M,2.4,M,3.5,M*2A
$YXXDR,A,5.3,D,PTCH,A,0.2,D,ROLL*59
$IIVHW,,,,,02.0,N,,*1B
$HCHDG,221.0,0.0,E,,*28
$IIVLW,06219,N,009.6,N*50
$HCHDG,221.3,0.0,E,,*2B
$IIGLL,4743.181,N,12224.796,W,200000,A,A*43
$GPRMC,200011.2,A,4743.18144,N,12224.79774,W,001.86,237.5,200413,016.6,E,D*2A
$PGRME,2.6,M,2.4,M,3.5,M*2A
$IIMTW,+09.0,C*31
$HCHDG,221.3,0.0,E,,*2B
$IIRMB,A,,,,Ttp ,,,,,035.9,133,,V,A*6B
$HCHDG,221.3,0.0,E,,*2B
$GPRMC,200011.4,A,4743.18143,N,12224.79794,W,001.88,237.4,200413,016.6,E,D*2A
$PGRME,2.6,M,2.4,M,3.5,M*2A
$HCHDG,221.4,0.0,E,,*2C
$YXXDR,A,5.2,D,PTCH,A,0.0,D,ROLL*5A
$PTAK,FFD1,0.0*55
$HCHDG,221.5,0.0,E,,*2D
$GPRMC,200011.6,A,4743.18137,N,12224.79814,W,001.87,237.4,200413,016.6,E,D*23
$GPRMB,A,-32.05,L,,Ttp,4726.8700,N,12137.4300,W,35.9,133,0.08,V*7C
$PGRME,2.6,M,2.4,M,3.5,M*2A
$HCHDG,221.4,0.0,E,,*2C
$HCHDG,221.6,0.0,E,,*2E
$GPRMC,200011.8,A,4743.18134,N,12224.79829,W,001.86,237.5,200413,016.6,E,D*20
$PGRME,2.6,M,2.4,M,3.6,M*29
$HCHDG,221.7,0.0,E,,*2F
$HCHDG,221.8,0.0,E,,*20
$IIRMC,200000,A,4743.181,N,12224.797,W,01.8,237,200413,16,E,A*12
$GPRMC,200012.0,A,4743.18128,N,12224.79847,W,001.87,237.5,200413,016.6,E,D*2F
$PGRME,2.6,M,2.4,M,3.6,M*29
$YXXDR,A,5.4,D,PTCH,A,0.5,D,ROLL*59
$IIVHW,,,,,02.0,N,,*1B
$HCHDG,221.8,0.0,E,,*20
$IIVLW,06219,N,009.6,N*50
$HCHDG,221.8,0.0,E,,*20
$IIGLL,4743.181,N,12224.797,W,200000,A,A*42
$GPRMC,200012.2,A,4743.18123,N,12224.79868,W,001.88,237.4,200413,016.6,E,D*25
$PGRME,2.6,M,2.4,M,3.6,M*29
$IIMTW,+09.0,C*31
$HCHDG,222.0,0.0,E,,*2B
$IIRMB,A,,,,Ttp ,,,,,035.9,133,,V,A*6B
$HCHDG,221.9,0.0,E,,*21
$GPRMC,200012.4,A,4743.18115,N,12224.79898,W,002.05,237.5,200413,016.6,E,D*2E
$PGRME,2.6,M,2.4,M,3.6,M*29
$HCHDG,222.0,0.0,E,,*2B
$YXXDR,A,5.4,D,PTCH,A,0.8,D,ROLL*54
$PTAK,FFD1,0.8*5D
$HCHDG,222.1,0.0,E,,*2A
$GPRMC,200012.6,A,4743.18111,N,12224.79909,W,002.06,237.4,200413,016.6,E,D*23
$GPRMB,A,-32.05,L,,Ttp,4726.8700,N,12137.4300,W,35.9,133,0.09,V*7D
$PGRME,2.6,M,2.4,M,3.6,M*29
$HCHDG,222.2,0.0,E,,*29
$HCHDG,222.2,0.0,E,,*29
$GPRMC,200012.8,A,4743.18111,N,12224.79925,W,001.99,237.4,200413,016.6,E,D*26
$PGRME,2.6,M,2.4,M,3.6,M*29
$HCHDG,222.1,0.0,E,,*2A
$HCHDG,222.0,0.0,E,,*2B
$IIRMC,200000,A,4743.181,N,12224.798,W,01.8,237,200413,16,E,A*1D
$GPRMC,200013.0,A,4743.18106,N,12224.79935,W,001.94,237.5,200413,016.6,E,D*24
$PGRME,2.6,M,2.4,M,3.6,M*29
$YXXDR,A,5.4,D,PTCH,A,0.4,D,ROLL*58
$IIVHW,,,,,02.0,N,,*1B
$HCHDG,222.0,0.0,E,,*2B
$IIVLW,06219,N,009.6,N*50
$HCHDG,221.9,0.0,E,,*21
$IIGLL,4743.181,N,12224.798,W,200000,A,A*4D
$GPRMC,200013.2,A,4743.18099,N,12224.79944,W,001.95,237.5,200413,016.6,E,D*26
$PGRME,2.6,M,2.4,M,3.6,M*29
$IIMTW,+09.0,C*31
$HCHDG,222.0,0.0,E,,*2B
$IIRMB,A,,,,Ttp ,,,,,035.9,133,,V,A*6B
$HCHDG,222.0,0.0,E,,*2B
$GPRMC,200013.4,A,4743.18094,N,12224.79958,W,001.96,237.5,200413,016.6,E,D*23
$PGRME,2.6,M,2.4,M,3.6,M*29
$HCHDG,222.0,0.0,E,,*2B
$YXXDR,A,5.4,D,PTCH,A,0.5,D,ROLL*59
$HCHDG,222.0,0.0,E,,*2B
$GPRMC,200013.6,A,4743.18086,N,12224.79967,W,001.95,237.5,200413,016.6,E,D*2D
$PGRME,2.6,M,2.4,M,3.6,M*29
$HCHDG,222.4,0.0,E,,*2F
$HCHDG,222.3,0.0,E,,*28
$GPRMC,200013.8,A,4743.18081,N,12224.79978,W,001.97,237.5,200413,016.6,E,D*28
$GPRMB,A,-32.06,L,,Ttp,4726.8700,N,12137.4300,W,35.9,133,0.08,V*7F
$PGRME,2.6,M,2.4,M,3.6,M*29
$HCHDG,222.2,0.0,E,,*29
$HCHDG,222.2,0.0,E,,*29
$IIRMC,200000,A,4743.181,N,12224.799,W,01.9,237,200413,16,E,A*1D
$GPRMC,200014.0,A,4743.18079,N,12224.79991,W,001.98,237.7,200413,016.6,E,D*2A
$PGRME,2.6,M,2.4,M,3.6,M*29
$YXXDR,A,5.4,D,PTCH,A,0.0,D,ROLL*5C
$PTAK,FFD1,0.0*55
$PTAK,FFP1,HEEL,@*07
$IIVHW,,,,,02.0,N,,*1B
$HCHDG,222.5,0.0,E,,*2E
$IIVLW,06219,N,009.6,N*50
$HCHDG,222.5,0.0,E,,*2E
$IIGLL,4743.181,N,12224.799,W,200000,A,A*4C
$GPRMC,200014.2,A,4743.18079,N,12224.80004,W,002.02,237.7,200413,016.6,E,D*2B
$PGRME,2.6,M,2.4,M,3.6,M*29
$IIMTW,+09.0,C*31
$HCHDG,222.5,0.0,E,,*2E
$IIRMB,A,,,,Ttp ,,,,,035.9,133,,V,A*6B
$HCHDG,222.4,0.0,E,,*2F
$GPRMC,200014.4,A,4743.18078,N,12224.80020,W,002.02,237.8,200413,016.6,E,D*25
$PGRME,2.6,M,2.4,M,3.6,M*29
$HCHDG,222.6,0.0,E,,*2D
$YXXDR,A,5.2,D,PTCH,A,0.0,D,ROLL*5A
$HCHDG,222.6,0.0,E,,*2D
$GPRMC,200014.6,A,4743.18081,N,12224.80039,W,002.01,237.9,200413,016.6,E,D*2B
$PGRME,2.6,M,2.4,M,3.6,M*29
$HCHDG,222.6,0.0,E,,*2D
$HCHDG,222.5,0.0,E,,*2E
$GPRMC,200014.8,A,4743.18081,N,12224.80057,W,002.00,238.1,200413,016.6,E,D*2B
$GPRMB,A,-32.06,L,,Ttp,4726.8700,N,12137.4300,W,35.9,133,0.06,V*71
$PGRME,2.6,M,2.4,M,3.6,M*29
$HCHDG,222.6,0.0,E,,*2D
$HCHDG,222.5,0.0,E,,*2E
$IIRMC,200000,A,4743.180,N,12224.800,W,02.0,237,200413,16,E,A*19
$GPRMC,200015.0,A,4743.18084,N,12224.80073,W,002.01,238.1,200413,016.6,E,D*20
$PGRME,2.6,M,2.4,M,3.6,M*29
$YXXDR,A,5.3,D,PTCH,A,0.2,D,ROLL*59
$PTAK,FFD1,0.2*57
$IIVHW,,,,,02.1,N,,*1A
$HCHDG,222.7,0.0,E,,*2C
$IIVLW,06219,N,009.6,N*50
$HCHDG,222.6,0.0,E,,*2D
$IIGLL,4743.180,N,12224.800,W,200000,A,A*42
$GPRMC,200015.2,A,4743.18078,N,12224.80080,W,002.02,238.3,200413,016.6,E,D*2C
$PGRME,2.6,M,2.4,M,3.6,M*29
$IIMTW,+09.0,C*31
$HCHDG,222.6,0.0,E,,*2D
$IIRMB,A,,,,Ttp ,,,,,035.9,133,,V,A*6B
$HCHDG,222.8,0.0,E,,*23
$GPRMC,200015.4,A,4743.18078,N,12224.80094,W,002.02,238.3,200413,016.6,E,D*2F
$PGRME,2.6,M,2.4,M,3.6,M*29
$HCHDG,222.8,0.0,E,,*23
$YXXDR,A,5.1,D,PTCH,A,0.1,D,ROLL*58
$HCHDG,222.8,0.0,E,,*23
$GPRMC,200015.6,A,4743.18075,N,12224.80105,W,001.99,238.6,200413,016.6,E,D*2D
$PGRME,2.6,M,2.4,M,3.6,M*29
$HCHDG,222.8,0.0,E,,*23
$HCHDG,223.0,0.0,E,,*2A
$GPRMC,200015.8,A,4743.18072,N,12224.80117,W,001.99,238.8,200413,016.6,E,D*29
$GPRMB,A,-32.06,L,,Ttp,4726.8700,N,12137.4300,W,35.9,133,0.04,V*73
$PGRME,2.6,M,2.4,M,3.6,M*29
$HCHDG,223.1,0.0,E,,*2B
$HCHDG,223.0,0.0,E,,*2A
$IIRMC,200000,A,4743.180,N,12224.800,W,02.0,238,200413,16,E,A*16
$GPRMC,200016.0,A,4743.18066,N,12224.80129,W,002.15,239.0,200413,016.6,E,D*24
$PGRME,2.6,M,2.4,M,3.6,M*29
$YXXDR,A,5.1,D,PTCH,A,0.0,D,ROLL*59
$IIVHW,,,,,02.0,N,,*1B
$HCHDG,223.1,0.0,E,,*2B
$IIVLW,06219,N,009.6,N*50
$HCHDG,223.3,0.0,E,,*29
$IIGLL,4743.180,N,12224.800,W,200000,A,A*42
$GPRMC,200016.2,A,4743.18055,N,12224.80139,W,002.10,244.9,200413,016.6,E,D*21
$PGRME,2.6,M,2.4,M,3.6,M*29
$IIMTW,+09.0,C*31
$HCHDG,223.4,0.0,E,,*2E
$IIRMB,A,,,,Ttp ,,,,,035.9,133,,V,A*6B
$HCHDG,223.4,0.0,E,,*2E
$GPRMC,200016.4,A,4743.18053,N,12224.80157,W,002.13,243.4,200413,016.6,E,D*20
$PGRME,2.6,M,2.4,M,3.6,M*29
$HCHDG,223.2,0.0,E,,*28
$YXXDR,A,5.3,D,PTCH,A,0.3,D,ROLL*58
$PTAK,FFD1,0.3*56
$HCHDG,223.2,0.0,E,,*28
$GPRMC,200016.6,A,4743.18053,N,12224.80172,W,001.97,243.9,200413,016.6,E,D*27
$PGRME,2.7,M,2.4,M,3.6,M*28
$HCHDG,223.3,0.0,E,,*29
$HCHDG,223.4,0.0,E,,*2E
$GPRMC,200016.8,A,4743.18052,N,12224.80187,W,001.96,243.4,200413,016.6,E,D*2E
$PGRME,2.7,M,2.4,M,3.6,M*28
$HCHDG,223.1,0.0,E,,*2B
$HCHDG,223.2,0.0,E,,*28
$IIRMC,200000,A,4743.180,N,12224.801,W,02.1,243,200413,16,E,A*1A
$GPRMC,200017.0,A,4743.18055,N,12224.80204,W,001.92,242.7,200413,016.6,E,D*2E
$GPRMB,A,-32.06,L,,Ttp,4726.8700,N,12137.4300,W,35.9,133,-0.09,V*53
$PGRME,2.7,M,2.4,M,3.6,M*28
$YXXDR,A,5.2,D,PTCH,A,0.6,D,ROLL*5C
$IIVHW,,,,,02.1,N,,*1A
$HCHDG,222.8,0.0,E,,*23
$IIVLW,06219,N,009.6,N*50
$HCHDG,222.9,0.0,E,,*22
$IIGLL,4743.180,N,12224.801,W,200000,A,A*43
$GPRMC,200017.2,A,4743.18056,N,12224.80217,W,001.93,243.2,200413,016.6,E,D*28
$PGRME,2.7,M,2.4,M,3.6,M*28
$IIMTW,+09.0,C*31
$HCHDG,223.0,0.0,E,,*2A
$IIRMB,A,,,,Ttp ,,,,,035.9,133,,V,A*6B
$HCHDG,222.9,0.0,E,,*22
$GPRMC,200017.4,A,4743.18048,N,12224.80231,W,001.94,244.2,200413,016.6,E,D*25
$PGRME,2.7,M,2.4,M,3.6,M*28
$HCHDG,222.8,0.0,E,,*23
$YXXDR,A,5.2,D,PTCH,A,0.6,D,ROLL*5C
$PTAK,FFD1,0.6*53
$HCHDG,222.5,0.0,E,,*2E
$GPRMC,200017.6,A,4743.18042,N,12224.80245,W,001.89,241.9,200413,016.6,E,D*2C
$PGRME,2.7,M,2.4,M,3.6,M*28
$HCHDG,222.6,0.0,E,,*2D
$HCHDG,222.5,0.0,E,,*2E
$GPRMC,200017.8,A,4743.18041,N,12224.80259,W,001.91,245.3,200413,016.6,E,D*2B
$PGRME,2.7,M,2.4,M,3.6,M*28
$HCHDG,222.5,0.0,E,,*2E
$HCHDG,222.5,0.0,E,,*2E
$IIRMC,200000,A,4743.180,N,12224.802,W,01.9,244,200413,16,E,A*15
$GPRMC,200018.0,A,4743.18038,N,12224.80272,W,001.94,244.7,200413,016.6,E,D*2B
$GPRMB,A,-32.06,L,,Ttp,4726.8700,N,12137.4300,W,35.9,133,-0.16,V*5D
$PGRME,2.7,M,2.4,M,3.6,M*28
$YXXDR,A,5.2,D,PTCH,A,0.6,D,ROLL*5C
$PTAK,FFP1,HEEL,@*07
$IIVHW,,,,,02.1,N,,*1A
$HCHDG,222.3,0.0,E,,*28
$IIVLW,06219,N,009.6,N*50
$HCHDG,222.2,0.0,E,,*29
$IIGLL,4743.180,N,12224.802,W,200000,A,A*40
$GPRMC,200018.2,A,4743.18037,N,12224.80288,W,001.96,242.4,200413,016.6,E,D*24
$PGRME,2.7,M,2.4,M,3.6,M*28
$IIMTW,+09.0,C*31
$HCHDG,222.2,0.0,E,,*29
$IIRMB,A,,,,Ttp ,,,,,035.9,133,,V,A*6B
$HCHDG,221.9,0.0,E,,*21
$GPRMC,200018.4,A,4743.18033,N,12224.80304,W,001.97,243.2,200413,016.6,E,D*25
$PGRME,2.7,M,2.4,M,3.6,M*28
$HCHDG,221.9,0.0,E,,*21
$YXXDR,A,5.2,D,PTCH,A,1.1,D,ROLL*5A
$PTAK,FFD1,1.1*55
$HCHDG,221.7,0.0,E,,*2F
$GPRMC,200018.6,A,4743.18032,N,12224.80322,W,002.20,245.9,200413,016.6,E,D*20
$PGRME,2.7,M,2.4,M,3.6,M*28
$HCHDG,221.7,0.0,E,,*2F
$HCHDG,221.4,0.0,E,,*2C
$GPRMC,200018.8,A,4743.18025,N,12224.80341,W,002.13,242.1,200413,016.6,E,D*22
$PGRME,2.7,M,2.4,M,3.6,M*28
$HCHDG,221.2,0.0,E,,*2A
$HCHDG,221.2,0.0,E,,*2A
$IIRMC,200000,A,4743.180,N,12224.803,W,01.9,243,200413,16,E,A*13
$GPRMC,200019.0,A,4743.18022,N,12224.80355,W,001.86,242.8,200413,016.6,E,D*2F
$GPRMB,A,-32.06,L,,Ttp,4726.8700,N,12137.4300,W,35.9,133,-0.09,V*53
$PGRME,2.7,M,2.4,M,3.6,M*28
$YXXDR,A,5.4,D,PTCH,A,0.9,D,ROLL*55
$IIVHW,,,,,02.1,N,,*1A
$HCHDG,221.1,0.0,E,,*29
$IIVLW,06219,N,009.6,N*50
$HCHDG,221.0,0.0,E,,*28
$IIGLL,4743.180,N,12224.803,W,200000,A,A*41
$GPRMC,200019.2,A,4743.18020,N,12224.80365,W,001.86,240.1,200413,016.6,E,D*27
$PGRME,2.7,M,2.4,M,3.6,M*28
$IIMTW,+09.0,C*31
$HCHDG,220.8,0.0,E,,*21
$IIRMB,A,,,,Ttp ,,,,,035.9,133,,V,A*6B
$HCHDG,220.8,0.0,E,,*21
$GPRMC,200019.4,A,4743.18023,N,12224.80376,W,001.87,238.5,200413,016.6,E,D*2A
$PGRME,2.7,M,2.4,M,3.6,M*28
$HCHDG,220.7,0.0,E,,*2E
$YXXDR,A,5.4,D,PTCH,A,0.9,D,ROLL*55
$HCHDG,220.5,0.0,E,,*2C
$GPRMC,200019.6,A,4743.18023,N,12224.80394,W,001.88,241.0,200413,016.6,E,D*20
$PGRME,2.7,M,2.4,M,3.6,M*28
$HCHDG,220.4,0.0,E,,*2D
$HCHDG,220.3,0.0,E,,*2A
$GPRMC,200019.8,A,4743.18021,N,12224.80414,W,001.90,245.1,200413,016.6,E,D*2F
$PGRME,2.7,M,2.4,M,3.6,M*28
$HCHDG,220.1,0.0,E,,*28
$HCHDG,220.0,0.0,E,,*29
$IIRMC,200000,A,4743.180,N,12224.803,W,01.9,243,200413,16,E,A*13
$GPRMC,200020.0,A,4743.18021,N,12224.80428,W,001.87,243.3,200413,016.6,E,D*20
$GPRMB,A,-32.06,L,,Ttp,4726.8700,N,12137.4300,W,35.9,133,-0.11,V*5A
$PGRME,2.7,M,2.4,M,3.6,M*28
$YXXDR,A,5.5,D,PTCH,A,0.9,D,ROLL*54
$PTAK,FFD1,0.9*5C
$IIVHW,,,,,02.1,N,,*1A
$HCHDG,219.8,0.0,E,,*2B
$IIVLW,06219,N,009.6,N*50
$HCHDG,219.7,0.0,E,,*24
$IIGLL,4743.180,N,12224.803,W,200000,A,A*41
$GPRMC,200020.2,A,4743.18021,N,12224.80442,W,001.87,241.7,200413,016.6,E,D*28
$PGRME,2.7,M,2.4,M,3.7,M*29
$IIMTW,+09.0,C*31
$HCHDG,219.7,0.0,E,,*24
$IIRMB,A,,,,Ttp ,,,,,035.9,133,,V,A*6B
$HCHDG,219.5,0.0,E,,*26
$GPRMC,200020.4,A,4743.18018,N,12224.80454,W,001.87,241.7,200413,016.6,E,D*23
$PGRME,2.7,M,2.4,M,3.7,M*29
$HCHDG,219.5,0.0,E,,*26
$YXXDR,A,5.3,D,PTCH,A,0.3,D,ROLL*58
$HCHDG,219.5,0.0,E,,*26
$GPRMC,200020.6,A,4743.18019,N,12224.80471,W,001.88,241.8,200413,016.6,E,D*27
$PGRME,2.7,M,2.4,M,3.7,M*29
$HCHDG,219.2,0.0,E,,*21
$HCHDG,219.1,0.0,E,,*22
$GPRMC,200020.8,A,4743.18019,N,12224.80485,W,001.86,241.8,200413,016.6,E,D*2C
$PGRME,2.7,M,2.4,M,3.7,M*29
$HCHDG,219.3,0.0,E,,*20
$HCHDG,219.2,0.0,E,,*21
$IIRMC,200000,A,4743.180,N,12224.803,W,01.8,241,200413,16,E,A*10
$GPRMC,200021.0,A,4743.18014,N,12224.80508,W,001.89,241.8,200413,016.6,E,D*23
$GPRMB,A,-32.06,L,,Ttp,4726.8700,N,12137.4300,W,35.9,133,-0.06,V*5C
$PGRME,2.7,M,2.4,M,3.7,M*29
$YXXDR,A,5.4,D,PTCH,A,0.4,D,ROLL*58
$IIVHW,,,,,02.1,N,,*1A
$HCHDG,218.9,0.0,E,,*2B
$IIVLW,06219,N,009.6,N*50
$HCHDG,218.8,0.0,E,,*2A
$IIGLL,4743.180,N,12224.803,W,200000,A,A*41
$GPRMC,200021.2,A,4743.18008,N,12224.80534,W,001.93,241.6,200413,016.6,E,D*26
$PGRME,2.7,M,2.4,M,3.7,M*29
$IIMTW,+08.0,C*30
$HCHDG,218.7,0.0,E,,*25
$IIRMB,A,,,,Ttp ,,,,,035.9,133,,V,A*6B
$HCHDG,218.4,0.0,E,,*26
$GPRMC,200021.4,A,4743.18004,N,12224.80556,W,001.96,241.4,200413,016.6,E,D*2F
$PGRME,2.7,M,2.4,M,3.7,M*29
$HCHDG,218.2,0.0,E,,*20
$YXXDR,A,5.4,D,PTCH,A,1.0,D,ROLL*5D
$PTAK,FFD1,1.0*54
$HCHDG,218.1,0.0,E,,*23
$GPRMC,200021.6,A,4743.18001,N,12224.80572,W,001.78,241.3,200413,016.6,E,D*29
$PGRME,2.7,M,2.4,M,3.7,M*29
$HCHDG,217.8,0.0,E,,*25
$HCHDG,217.6,0.0,E,,*2B
$GPRMC,200021.8,A,4743.17995,N,12224.80584,W,001.94,241.1,200413,016.6,E,D*25
$PGRME,2.8,M,2.4,M,3.7,M*26
$HCHDG,217.6,0.0,E,,*2B
$HCHDG,217.5,0.0,E,,*28
$IIRMC,200000,A,4743.180,N,12224.804,W,01.8,241,200413,16,E,A*17
$GPRMC,200022.0,A,4743.17990,N,12224.80590,W,001.91,240.9,200413,016.6,E,D*22
$PGRME,2.8,M,2.4,M,3.7,M*26
$YXXDR,A,5.2,D,PTCH,A,1.1,D,ROLL*5A
$IIVHW,,,,,02.1,N,,*1A
$HCHDG,217.4,0.0,E,,*29
$IIVLW,06219,N,009.6,N*50
$HCHDG,217.4,0.0,E,,*29
$IIGLL,4743.180,N,12224.804,W,200000,A,A*46
$GPRMC,200022.2,A,4743.17984,N,12224.80606,W,001.90,240.9,200413,016.6,E,D*28
$GPRMB,A,-32.06,L,,Ttp,4726.8700,N,12137.4300,W,35.9,133,-0.03,V*59
$PGRME,2.8,M,2.4,M,3.7,M*26
$IIMTW,+09.0,C*31
$HCHDG,217.4,0.0,E,,*29
$PTAK,FFP1,HEEL,@*07
$IIRMB,A,,,,Ttp ,,,,,035.9,133,,V,A*6B
$HCHDG,217.5,0.0,E,,*28
$GPRMC,200022.4,A,4743.17972,N,12224.80633,W,001.92,240.8,200413,016.6,E,D*22
$PGRME,2.8,M,2.4,M,3.7,M*26
$HCHDG,217.4,0.0,E,,*29
$YXXDR,A,5.4,D,PTCH,A,0.5,D,ROLL*59
$PTAK,FFD1,0.5*50
$HCHDG,217.3,0.0,E,,*2E
$GPRMC,200022.6,A,4743.17960,N,12224.80653,W,001.90,240.8,200413,016.6,E,D*27
$PGRME,2.8,M,2.4,M,3.7,M*26
$HCHDG,217.4,0.0,E,,*29
$HCHDG,217.4,0.0,E,,*29
$GPRMC,200022.8,A,4743.17951,N,12224.80666,W,001.95,240.6,200413,016.6,E,D*26
$PGRME,2.8,M,2.4,M,3.7,M*26
$HCHDG,217.3,0.0,E,,*2E
$HCHDG,217.3,0.0,E,,*2E
$IIRMC,200000,A,4743.180,N,12224.805,W,01.7,241,200413,16,E,A*19
$GPRMC,200023.0,A,4743.17943,N,12224.80695,W,001.95,240.4,200413,016.6,E,D*22
$PGRME,2.8,M,2.4,M,3.7,M*26
$YXXDR,A,5.5,D,PTCH,A,0.9,D,ROLL*54
$IIVHW,,,,,02.1,N,,*1A
$HCHDG,217.2,0.0,E,,*2F
$IIVLW,06219,N,009.6,N*50
$HCHDG,217.0,0.0,E,,*2D
$IIGLL,4743.180,N,12224.805,W,200000,A,A*47
$GPRMC,200023.2,A,4743.17934,N,12224.80728,W,001.96,240.2,200413,016.6,E,D*22
$GPRMB,A,-32.06,L,,Ttp,4726.8700,N,12137.4300,W,35.9,133,-0.01,V*5B
$PGRME,2.8,M,2.4,M,3.7,M*26
$IIMTW,+09.0,C*31
$HCHDG,216.9,0.0,E,,*25
$IIRMB,A,,,,Ttp ,,,,,035.9,133,,V,A*6B
$HCHDG,216.9,0.0,E,,*25
$GPRMC,200023.4,A,4743.17927,N,12224.80752,W,001.96,240.0,200413,016.6,E,D*29
$PGRME,2.8,M,2.4,M,3.7,M*26
$HCHDG,216.7,0.0,E,,*2B
$YXXDR,A,5.1,D,PTCH,A,1.1,D,ROLL*59
$HCHDG,216.5,0.0,E,,*29
$GPRMC,200023.6,A,4743.17920,N,12224.80775,W,001.97,239.8,200413,016.6,E,D*2E
$PGRME,2.8,M,2.4,M,3.7,M*26
$HCHDG,216.4,0.0,E,,*28
$HCHDG,216.5,0.0,E,,*29
$GPRMC,200023.8,A,4743.17913,N,12224.80800,W,001.96,239.7,200413,016.6,E,D*23
$PGRME,2.8,M,2.4,M,3.7,M*26
$HCHDG,216.5,0.0,E,,*29
$HCHDG,216.7,0.0,E,,*2B
$IIRMC,200000,A,4743.179,N,12224.806,W,01.9,240,200413,16,E,A*13
$GPRMC,200024.0,A,4743.17905,N,12224.80813,W,001.95,239.7,200413,016.6,E,D*2A
$PGRME,2.8,M,2.4,M,3.7,M*26
$YXXDR,A,5.3,D,PTCH,A,0.7,D,ROLL*5C
$PTAK,FFD1,0.7*52
$IIVHW,,,,,02.1,N,,*1A
$HCHDG,216.8,0.0,E,,*24
$IIVLW,06219,N,009.6,N*50
$HCHDG,216.9,0.0,E,,*25
$IIGLL,4743.179,N,12224.806,W,200000,A,A*42
$GPRMC,200024.2,A,4743.17901,N,12224.80839,W,001.94,239.6,200413,016.6,E,D*24
$GPRMB,A,-32.06,L,,Ttp,4726.8700,N,12137.4300,W,35.9,133,0.01,V*76
$PGRME,2.8,M,2.4,M,3.7,M*26
$IIMTW,+09.0,C*31
$HCHDG,216.9,0.0,E,,*25
$IIRMB,A,,,,Ttp ,,,,,035.9,133,,V,A*6B
$HCHDG,217.1,0.0,E,,*2C
$GPRMC,200024.4,A,4743.17892,N,12224.80868,W,001.94,239.5,200413,016.6,E,D*2E
$PGRME,2.8,M,2.4,M,3.7,M*26
$HCHDG,217.1,0.0,E,,*2C
$YXXDR,A,5.5,D,PTCH,A,0.3,D,ROLL*5E
$HCHDG,217.2,0.0,E,,*2F
$GPRMC,200024.6,A,4743.17891,N,12224.80885,W,001.95,239.2,200413,016.6,E,D*2A
$PGRME,2.8,M,2.4,M,3.7,M*26
$HCHDG,217.1,0.0,E,,*2C
$HCHDG,217.1,0.0,E,,*2C
$GPRMC,200024.8,A,4743.17885,N,12224.80921,W,001.96,239.1,200413,016.6,E,D*2E
$PGRME,2.8,M,2.4,M,3.7,M*26
$HCHDG,216.8,0.0,E,,*24
$HCHDG,216.6,0.0,E,,*2A
$IIRMC,200000,A,4743.179,N,12224.808,W,01.9,239,200413,16,E,A*13
$GPRMC,200025.0,A,4743.17882,N,12224.80953,W,001.97,238.8,200413,016.6,E,D*2C
$PGRME,2.8,M,2.4,M,3.7,M*26
$YXXDR,A,5.3,D,PTCH,A,0.7,D,ROLL*5C
$PTAK,FFD1,0.7*52
$IIVHW,,,,,02.1,N,,*1A
$HCHDG,216.7,0.0,E,,*2B
$IIVLW,06219,N,009.6,N*50
$HCHDG,216.4,0.0,E,,*28
$IIGLL,4743.179,N,12224.808,W,200000,A,A*4C
$GPRMC,200025.2,A,4743.17873,N,12224.80988,W,001.94,238.6,200413,016.6,E,D*2B
$PGRME,2.8,M,2.4,M,3.7,M*26
$IIMTW,+09.0,C*31
$HCHDG,216.4,0.0,E,,*28
$IIRMB,A,,,,Ttp ,,,,,035.9,133,,V,A*6B
$HCHDG,216.3,0.0,E,,*2F
$GPRMC,200025.4,A,4743.17870,N,12224.80988,W,001.93,238.5,200413,016.6,E,D*2A
$GPRMB,A,-32.06,L,,Ttp,4726.8700,N,12137.4300,W,35.9,133,0.05,V*72
$PGRME,2.8,M,2.4,M,3.7,M*26
$HCHDG,216.2,0.0,E,,*2E
$YXXDR,A,5.2,D,PTCH,A,0.9,D,ROLL*53
$HCHDG,216.3,0.0,E,,*2F
$GPRMC,200025.6,A,4743.17862,N,12224.80990,W,001.93,238.3,200413,016.6,E,D*24
$PGRME,2.8,M,2.4,M,3.7,M*26
$HCHDG,216.4,0.0,E,,*28
$HCHDG,216.3,0.0,E,,*2F
$GPRMC,200025.8,A,4743.17852,N,12224.81005,W,001.92,238.3,200413,016.6,E,D*2C
$PGRME,2.8,M,2.4,M,3.7,M*26
$HCHDG,216.7,0.0,E,,*2B
$HCHDG,216.8,0.0,E,,*24
$IIRMC,200000,A,4743.178,N,12224.809,W,01.9,239,200413,16,E,A*13
$GPRMC,200026.0,A,4743.17844,N,12224.81028,W,001.92,238.3,200413,016.6,E,D*2F
$PGRME,2.7,M,2.4,M,3.7,M*29
$YXXDR,A,5.4,D,PTCH,A,0.0,D,ROLL*5C
$IIVHW,,,,,02.2,N,,*19
$HCHDG,216.8,0.0,E,,*24
$IIVLW,06219,N,009.6,N*50
$HCHDG,216.7,0.0,E,,*2B
$IIGLL,4743.178,N,12224.809,W,200000,A,A*4C
$GPRMC,200026.2,A,4743.17838,N,12224.81041,W,001.92,238.3,200413,016.6,E,D*29
$PGRME,2.7,M,2.4,M,3.7,M*29
$IIMTW,+09.0,C*31
$HCHDG,216.9,0.0,E,,*25
$IIRMB,A,,,,Ttp ,,,,,035.9,133,,V,A*6B
$HCHDG,217.0,0.0,E,,*2D
$GPRMC,200026.4,A,4743.17831,N,12224.81056,W,001.95,238.2,200413,016.6,E,D*26
$PGRME,2.7,M,2.4,M,3.7,M*29
$HCHDG,216.9,0.0,E,,*25
$PTAK,FFP1,HEEL,@*07
$YXXDR,A,5.3,D,PTCH,A,0.3,D,ROLL*58
$PTAK,FFD1,0.3*56
$HCHDG,216.9,0.0,E,,*25
$GPRMC,200026.6,A,4743.17822,N,12224.81075,W,001.96,238.0,200413,016.6,E,D*26
$GPRMB,A,-32.06,L,,Ttp,4726.8700,N,12137.4300,W,35.9,133,0.07,V*70
$PGRME,2.7,M,2.4,M,3.7,M*29
$HCHDG,216.8,0.0,E,,*24
$HCHDG,216.5,0.0,E,,*29
$GPRMC,200026.8,A,4743.17811,N,12224.81099,W,001.96,238.0,200413,016.6,E,D*2A
$PGRME,2.7,M,2.4,M,3.6,M*28
$HCHDG,216.7,0.0,E,,*2B
$HCHDG,216.6,0.0,E,,*2A
$IIRMC,200000,A,4743.178,N,12224.810,W,01.9,238,200413,16,E,A*1A
$GPRMC,200027.0,A,4743.17808,N,12224.81112,W,001.96,237.9,200413,016.6,E,D*2F
$PGRME,2.7,M,2.4,M,3.6,M*28
$YXXDR,A,5.5,D,PTCH,A,0.9,D,ROLL*54
$IIVHW,,,,,02.1,N,,*1A
$HCHDG,216.4,0.0,E,,*28
$IIVLW,06219,N,009.6,N*50
$HCHDG,216.4,0.0,E,,*28
$IIGLL,4743.178,N,12224.810,W,200000,A,A*44
$GPRMC,200027.2,A,4743.17798,N,12224.81125,W,001.96,237.7,200413,016.6,E,D*21
$PGRME,2.7,M,2.4,M,3.6,M*28
$IIMTW,+09.0,C*31
$HCHDG,216.4,0.0,E,,*28
$IIRMB,A,,,,Ttp ,,,,,035.9,133,,V,A*6B
$HCHDG,216.3,0.0,E,,*2F
$GPRMC,200027.4,A,4743.17785,N,12224.81144,W,001.93,237.8,200413,016.6,E,D*26
$PGRME,2.7,M,2.4,M,3.6,M*28
$HCHDG,216.5,0.0,E,,*29
$YXXDR,A,5.3,D,PTCH,A,0.4,D,ROLL*5F
$HCHDG,216.5,0.0,E,,*29
$GPRMC,200027.6,A,4743.17778,N,12224.81160,W,001.94,237.7,200413,016.6,E,D*28
$PGRME,2.7,M,2.4,M,3.6,M*28
$HCHDG,216.4,0.0,E,,*28
$HCHDG,216.4,0.0,E,,*28
$GPRMC,200027.8,A,4743.17770,N,12224.81173,W,001.95,237.6,200413,016.6,E,D*2C
$GPRMB,A,-32.06,L,,Ttp,4726.8700,N,12137.4300,W,35.9,133,0.08,V*7F
$PGRME,2.7,M,2.4,M,3.6,M*28
$HCHDG,216.4,0.0,E,,*28
$HCHDG,216.6,0.0,E,,*2A
$IIRMC,200000,A,4743.178,N,12224.811,W,01.9,237,200413,16,E,A*14
$GPRMC,200028.0,A,4743.17766,N,12224.81184,W,001.92,237.6,200413,016.6,E,D*23
$PGRME,2.7,M,2.4,M,3.6,M*28
$YXXDR,A,5.4,D,PTCH,A,0.8,D,ROLL*54
$PTAK,FFD1,0.8*5D
$IIVHW,,,,,02.1,N,,*1A
$HCHDG,216.6,0.0,E,,*2A
$IIVLW,06219,N,009.6,N*50
$HCHDG,216.6,0.0,E,,*2A
$IIGLL,4743.178,N,12224.811,W,200000,A,A*45
$GPRMC,200028.2,A,4743.17759,N,12224.81200,W,001.92,237.6,200413,016.6,E,D*22
$PGRME,2.7,M,2.4,M,3.6,M*28
$IIMTW,+09.0,C*31
$HCHDG,216.7,0.0,E,,*2B
$IIRMB,A,,,,Ttp ,,,,,035.9,133,,V,A*6B
$HCHDG,216.8,0.0,E,,*24
$GPRMC,200028.4,A,4743.17754,N,12224.81216,W,001.92,237.5,200413,016.6,E,D*2D
$PGRME,2.7,M,2.4,M,3.6,M*28
$HCHDG,216.8,0.0,E,,*24
$YXXDR,A,5.3,D,PTCH,A,0.4,D,ROLL*5F
$HCHDG,216.9,0.0,E,,*25
$GPRMC,200028.6,A,4743.17746,N,12224.81237,W,001.90,237.4,200413,016.6,E,D*2C
$PGRME,2.7,M,2.4,M,3.6,M*28
$HCHDG,216.9,0.0,E,,*25
$HCHDG,217.0,0.0,E,,*2D
$GPRMC,200028.8,A,4743.17743,N,12224.81257,W,001.90,237.3,200413,016.6,E,D*26
$PGRME,2.7,M,2.4,M,3.6,M*28
$HCHDG,217.0,0.0,E,,*2D
$HCHDG,217.0,0.0,E,,*2D
$IIRMC,200000,A,4743.177,N,12224.811,W,01.9,237,200413,16,E,A*1B
$GPRMC,200029.0,A,4743.17743,N,12224.81275,W,001.91,237.2,200413,016.6,E,D*2F
$GPRMB,A,-32.06,L,,Ttp,4726.8700,N,12137.4300,W,35.9,133,0.09,V*7E
$PGRME,2.7,M,2.4,M,3.6,M*28
$YXXDR,A,5.4,D,PTCH,A,0.5,D,ROLL*59
$PTAK,FFD1,0.5*50
$IIVHW,,,,,02.1,N,,*1A
$HCHDG,217.1,0.0,E,,*2C
$IIVLW,06219,N,009.6,N*50
$HCHDG,216.9,0.0,E,,*25
$IIGLL,4743.177,N,12224.811,W,200000,A,A*4A
$GPRMC,200029.2,A,4743.17740,N,12224.81288,W,001.90,237.1,200413,016.6,E,D*2E
$PGRME,2.7,M,2.4,M,3.6,M*28
$IIMTW,+09.0,C*31
$HCHDG,216.9,0.0,E,,*25
$IIRMB,A,,,,Ttp ,,,,,035.9,133,,V,A*6B
$HCHDG,216.8,0.0,E,,*24
$GPRMC,200029.4,A,4743.17737,N,12224.81311,W,001.89,237.0,200413,016.6,E,D*20
$PGRME,2.6,M,2.4,M,3.6,M*29
$HCHDG,216.5,0.0,E,,*29
$YXXDR,A,5.2,D,PTCH,A,0.6,D,ROLL*5C
$HCHDG,216.7,0.0,E,,*2B
$GPRMC,200029.6,A,4743.17730,N,12224.81326,W,001.90,237.0,200413,016.6,E,D*29
$PGRME,2.6,M,2.4,M,3.6,M*29
$HCHDG,216.6,0.0,E,,*2A
$HCHDG,216.6,0.0,E,,*2A
$GPRMC,200029.8,A,4743.17720,N,12224.81336,W,001.90,237.0,200413,016.6,E,D*27
$PGRME,2.6,M,2.4,M,3.6,M*29
$HCHDG,216.6,0.0,E,,*2A
$HCHDG,216.6,0.0,E,,*2A
$IIRMC,200000,A,4743.177,N,12224.812,W,01.9,237,200413,16,E,A*18
$GPRMC,200030.0,A,4743.17714,N,12224.81346,W,001.90,236.9,200413,016.6,E,D*2F
$PGRME,2.6,M,2.4,M,3.6,M*29
$YXXDR,A,5.4,D,PTCH,A,0.8,D,ROLL*54
$IIVHW,,,,,02.1,N,,*1A
$HCHDG,216.5,0.0,E,,*29
$IIVLW,06219,N,009.6,N*50
$HCHDG,216.6,0.0,E,,*2A
$IIGLL,4743.177,N,12224.812,W,200000,A,A*49
$GPRMC,200030.2,A,4743.17710,N,12224.81359,W,001.90,236.9,200413,016.6,E,D*27
$GPRMB,A,-32.06,L,,Ttp,4726.8700,N,12137.4300,W,35.9,133,0.10,V*76
$PGRME,2.6,M,2.4,M,3.6,M*29
$IIMTW,+08.5,C*35
$HCHDG,216.6,0.0,E,,*2A
$IIRMB,A,,,,Ttp ,,,,,035.9,133,,V,A*6B
$HCHDG,216.5,0.0,E,,*29
$GPRMC,200030.4,A,4743.17703,N,12224.81372,W,001.91,236.9,200413,016.6,E,D*2B
$PGRME,2.6,M,2.4,M,3.6,M*29
$HCHDG,216.6,0.0,E,,*2A
$PTAK,FFP1,HEEL,@*07
$YXXDR,A,5.4,D,PTCH,A,0.5,D,ROLL*59
$PTAK,FFD1,0.5*50
$HCHDG,216.6,0.0,E,,*2A
$GPRMC,200030.6,A,4743.17706,N,12224.81380,W,001.91,236.9,200413,016.6,E,D*21
$PGRME,2.6,M,2.4,M,3.6,M*29
$HCHDG,216.6,0.0,E,,*2A
$HCHDG,216.6,0.0,E,,*2A
$GPRMC,200030.8,A,4743.17702,N,12224.81397,W,001.93,236.8,200413,016.6,E,D*2E
$PGRME,2.6,M,2.4,M,3.6,M*29
$HCHDG,216.9,0.0,E,,*25
$HCHDG,216.8,0.0,E,,*24
$IIRMC,200000,A,4743.177,N,12224.813,W,01.9,236,200413,16,E,A*18
$GPRMC,200031.0,A,4743.17695,N,12224.81419,W,001.95,236.7,200413,016.6,E,D*20
$PGRME,2.6,M,2.4,M,3.6,M*29
$YXXDR,A,5.4,D,PTCH,A,0.5,D,ROLL*59
$IIVHW,,,,,02.1,N,,*1A
$HCHDG,216.5,0.0,E,,*29
$IIVLW,06219,N,009.6,N*50
$HCHDG,216.5,0.0,E,,*29
$IIGLL,4743.177,N,12224.813,W,200000,A,A*48
$GPRMC,200031.2,A,4743.17686,N,12224.81441,W,001.95,236.7,200413,016.6,E,D*2D
$PGRME,2.6,M,2.4,M,3.6,M*29
$IIMTW,+09.0,C*31
$HCHDG,216.5,0.0,E,,*29
$IIRMB,A,,,,Ttp ,,,,,035.9,133,,V,A*6B
$HCHDG,216.4,0.0,E,,*28
$GPRMC,200031.4,A,4743.17683,N,12224.81452,W,001.97,236.7,200413,016.6,E,D*2E
$GPRMB,A,-32.07,L,,Ttp,4726.8700,N,12137.4300,W,35.9,133,0.11,V*76
$PGRME,2.6,M,2.4,M,3.6,M*29
$HCHDG,216.4,0.0,E,,*28
$YXXDR,A,5.1,D,PTCH,A,0.9,D,ROLL*50
$PTAK,FFD1,0.9*5C
$HCHDG,216.3,0.0,E,,*2F
$GPRMC,200031.6,A,4743.17677,N,12224.81464,W,001.93,236.6,200413,016.6,E,D*27
$PGRME,2.6,M,2.4,M,3.6,M*29
$HCHDG,216.1,0.0,E,,*2D
$HCHDG,216.1,0.0,E,,*2D
$GPRMC,200031.8,A,4743.17669,N,12224.81485,W,001.91,236.5,200413,016.6,E,D*28
$PGRME,2.6,M,2.4,M,3.6,M*29
$HCHDG,216.3,0.0,E,,*2F
$HCHDG,216.2,0.0,E,,*2E
$IIRMC,200000,A,4743.176,N,12224.814,W,01.9,236,200413,16,E,A*1E
$GPRMC,200032.0,A,4743.17663,N,12224.81508,W,001.89,236.4,200413,016.6,E,D*25
$PGRME,2.6,M,2.4,M,3.6,M*29
$YXXDR,A,5.2,D,PTCH,A,0.9,D,ROLL*53
$IIVHW,,,,,02.1,N,,*1A
$HCHDG,216.3,0.0,E,,*2F
$IIVLW,06219,N,009.6,N*50
$HCHDG,216.6,0.0,E,,*2A
$IIGLL,4743.176,N,12224.814,W,200000,A,A*4E
$GPRMC,200032.2,A,4743.17653,N,12224.81533,W,001.87,236.5,200413,016.6,E,D*23
$PGRME,2.6,M,2.4,M,3.6,M*29
$IIMTW,+09.0,C*31
$HCHDG,216.5,0.0,E,,*29
$IIRMB,A,,,,Ttp ,,,,,035.9,133,,V,A*6B
$HCHDG,216.6,0.0,E,,*2A
$GPRMC,200032.4,A,4743.17643,N,12224.81557,W,001.85,236.5,200413,016.6,E,D*24
$PGRME,2.6,M,2.4,M,3.6,M*29
$HCHDG,216.8,0.0,E,,*24
$YXXDR,A,5.3,D,PTCH,A,0.3,D,ROLL*58
$HCHDG,216.8,0.0,E,,*24
$GPRMC,200032.6,A,4743.17635,N,12224.81576,W,001.90,236.5,200413,016.6,E,D*20
$GPRMB,A,-32.07,L,,Ttp,4726.8700,N,12137.4300,W,35.9,133,0.11,V*76
$PGRME,2.6,M,2.4,M,3.6,M*29
$HCHDG,216.8,0.0,E,,*24
$HCHDG,217.1,0.0,E,,*2C
$GPRMC,200032.8,A,4743.17632,N,12224.81593,W,001.93,236.4,200413,016.6,E,D*20
$PGRME,2.6,M,2.4,M,3.6,M*29
$HCHDG,217.0,0.0,E,,*2D
$HCHDG,217.0,0.0,E,,*2D
$IIRMC,200000,A,4743.176,N,12224.815,W,01.8,236,200413,16,E,A*1E
$GPRMC,200033.0,A,4743.17627,N,12224.81607,W,002.11,236.3,200413,016.6,E,D*2D
$PGRME,2.6,M,2.4,M,3.6,M*29
$YXXDR,A,5.3,D,PTCH,A,0.3,D,ROLL*58
$PTAK,FFD1,0.3*56
$IIVHW,,,,,02.1,N,,*1A
$HCHDG,217.0,0.0,E,,*2D
$IIVLW,06219,N,009.6,N*50
$HCHDG,217.0,0.0,E,,*2D
$IIGLL,4743.176,N,12224.815,W,200000,A,A*4F
$GPRMC,200033.2,A,4743.17620,N,12224.81628,W,002.12,236.2,200413,016.6,E,D*27
$PGRME,2.6,M,2.4,M,3.6,M*29
$IIMTW,+09.0,C*31
$HCHDG,216.9,0.0,E,,*25
$IIRMB,A,,,,Ttp ,,,,,035.9,133,,V,A*6B
$HCHDG,217.0,0.0,E,,*2D
$GPRMC,200033.4,A,4743.17620,N,12224.81644,W,001.80,236.1,200413,016.6,E,D*20
$PGRME,2.6,M,2.4,M,3.6,M*29
$HCHDG,216.9,0.0,E,,*25
$YXXDR,A,5.3,D,PTCH,A,0.3,D,ROLL*58
$HCHDG,216.9,0.0,E,,*25
$GPRMC,200033.6,A,4743.17616,N,12224.81658,W,001.87,235.9,200413,016.6,E,D*26
$PGRME,2.6,M,2.4,M,3.6,M*29
$HCHDG,217.1,0.0,E,,*2C
$HCHDG,217.1,0.0,E,,*2C
$GPRMC,200033.8,A,4743.17611,N,12224.81671,W,001.88,235.8,200413,016.6,E,D*2A
$GPRMB,A,-32.07,L,,Ttp,4726.8700,N,12137.4300,W,35.9,133,0.14,V*73
$PGRME,2.6,M,2.4,M,3.6,M*29
$HCHDG,217.1,0.0,E,,*2C
$HCHDG,217.4,0.0,E,,*29
$IIRMC,200000,A,4743.176,N,12224.816,W,02.1,236,200413,16,E,A*17
$GPRMC,200034.0,A,4743.17605,N,12224.81681,W,001.91,235.9,200413,016.6,E,D*26
$PGRME,2.6,M,2.4,M,3.6,M*29
$YXXDR,A,5.4,D,PTCH,A,0.0,D,ROLL*5C
$IIVHW,,,,,02.2,N,,*19
$HCHDG,217.4,0.0,E,,*29
$IIVLW,06219,N,009.6,N*50
$HCHDG,217.4,0.0,E,,*29
$IIGLL,4743.176,N,12224.816,W,200000,A,A*4C
$GPRMC,200034.2,A,4743.17601,N,12224.81695,W,001.94,236.0,200413,016.6,E,D*2A
$PGRME,2.6,M,2.4,M,3.6,M*29
$IIMTW,+09.0,C*31
$HCHDG,217.5,0.0,E,,*28
$IIRMB,A,,,,Ttp ,,,,,035.9,133,,V,A*6B
$HCHDG,217.7,0.0,E,,*2A
$GPRMC,200034.4,A,4743.17594,N,12224.81709,W,001.95,236.1,200413,016.6,E,D*27
$PGRME,2.6,M,2.4,M,3.6,M*29
$HCHDG,217.7,0.0,E,,*2A
$YXXDR,A,5.4,D,PTCH,A,0.0,D,ROLL*5C
$PTAK,FFD1,0.0*55
$HCHDG,217.7,0.0,E,,*2A
$PTAK,FFP1,HEEL,@*07
$GPRMC,200034.6,A,4743.17588,N,12224.81722,W,001.96,236.2,200413,016.6,E,D*21
$PGRME,2.6,M,2.4,M,3.6,M*29
$HCHDG,217.7,0.0,E,,*2A
$HCHDG,217.7,0.0,E,,*2A
$GPRMC,200034.8,A,4743.17586,N,12224.81738,W,001.96,236.2,200413,016.6,E,D*2A
$PGRME,2.6,M,2.4,M,3.6,M*29
$HCHDG,217.7,0.0,E,,*2A
$HCHDG,217.9,0.0,E,,*24
$IIRMC,200000,A,4743.176,N,12224.816,W,01.9,236,200413,16,E,A*1C
$GPRMC,200035.0,A,4743.17580,N,12224.81749,W,001.94,236.4,200413,016.6,E,D*27
$GPRMB,A,-32.07,L,,Ttp,4726.8700,N,12137.4300,W,35.9,133,0.12,V*75
$PGRME,2.6,M,2.4,M,3.6,M*29
$YXXDR,A,5.2,D,PTCH,A,0.0,D,ROLL*5A
$IIVHW,,,,,02.1,N,,*1A
$HCHDG,217.9,0.0,E,,*24
$IIVLW,06219,N,009.6,N*50
$HCHDG,217.8,0.0,E,,*25
$IIGLL,4743.176,N,12224.816,W,200000,A,A*4C
$GPRMC,200035.2,A,4743.17577,N,12224.81763,W,001.93,236.6,200413,016.6,E,D*20
$PGRME,2.6,M,2.4,M,3.6,M*29
$IIMTW,+09.0,C*31
$HCHDG,217.9,0.0,E,,*24
$IIRMB,A,,,,Ttp ,,,,,035.9,133,,V,A*6B
$HCHDG,218.1,0.0,E,,*23
$GPRMC,200035.4,A,4743.17572,N,12224.81779,W,001.94,236.8,200413,016.6,E,D*21
$PGRME,2.6,M,2.4,M,3.6,M*29
$HCHDG,218.1,0.0,E,,*23
$YXXDR,A,5.2,D,PTCH,A,0.0,D,ROLL*5A
$PTAK,FFD1,0.0*55
$HCHDG,218.1,0.0,E,,*23
$GPRMC,200035.6,A,4743.17564,N,12224.81795,W,001.94,237.0,200413,016.6,E,D*2F
$PGRME,2.6,M,2.4,M,3.6,M*29
$HCHDG,218.1,0.0,E,,*23
$HCHDG,217.8,0.0,E,,*25
$GPRMC,200035.8,A,4743.17557,N,12224.81814,W,001.97,237.0,200413,016.6,E,D*24
$PGRME,2.6,M,2.4,M,3.6,M*29
$HCHDG,217.9,0.0,E,,*24
$HCHDG,217.8,0.0,E,,*25
$IIRMC,200000,A,4743.175,N,12224.817,W,01.9,236,200413,16,E,A*1E
$GPRMC,200036.0,A,4743.17554,N,12224.81831,W,001.96,237.1,200413,016.6,E,D*2B
$GPRMB,A,-32.07,L,,Ttp,4726.8700,N,12137.4300,W,35.9,133,0.10,V*77
$PGRME,2.6,M,2.4,M,3.6,M*29
$YXXDR,A,5.3,D,PTCH,A,0.3,D,ROLL*58
$IIVHW,,,,,02.1,N,,*1A
$HCHDG,217.6,0.0,E,,*2B
$IIVLW,06219,N,009.6,N*50
$HCHDG,217.7,0.0,E,,*2A
$IIGLL,4743.175,N,12224.817,W,200000,A,A*4E
$GPRMC,200036.2,A,4743.17548,N,12224.81832,W,001.96,237.2,200413,016.6,E,D*24
$PGRME,2.6,M,2.4,M,3.6,M*29
$IIMTW,+09.0,C*31
$HCHDG,217.6,0.0,E,,*2B
$IIRMB,A,,,,Ttp ,,,,,035.9,133,,V,A*6B
$HCHDG,217.5,0.0,E,,*28
$GPRMC,200036.4,A,4743.17541,N,12224.81839,W,001.96,237.2,200413,016.6,E,D*20
$PGRME,2.6,M,2.4,M,3.6,M*29
$HCHDG,217.4,0.0,E,,*29
$YXXDR,A,5.4,D,PTCH,A,0.5,D,ROLL*59
$PTAK,FFD1,0.5*50
$HCHDG,217.3,0.0,E,,*2E
$GPRMC,200036.6,A,4743.17537,N,12224.81854,W,001.98,237.0,200413,016.6,E,D*24
$PGRME,2.6,M,2.4,M,3.6,M*29
$HCHDG,217.3,0.0,E,,*2E
$HCHDG,217.3,0.0,E,,*2E
$GPRMC,200036.8,A,4743.17533,N,12224.81872,W,001.98,238.1,200413,016.6,E,D*24
$PGRME,2.6,M,2.4,M,3.6,M*29
$HCHDG,217.2,0.0,E,,*2F
$HCHDG,217.1,0.0,E,,*2C
$IIRMC,200000,A,4743.175,N,12224.818,W,01.9,237,200413,16,E,A*10
$GPRMC,200037.0,A,4743.17529,N,12224.81882,W,001.99,239.2,200413,016.6,E,D*2A
$PGRME,2.6,M,2.4,M,3.6,M*29
$YXXDR,A,5.1,D,PTCH,A,0.2,D,ROLL*5B
$IIVHW,,,,,02.1,N,,*1A
$HCHDG,217.0,0.0,E,,*2D
$IIVLW,06219,N,009.6,N*50
$HCHDG,217.0,0.0,E,,*2D
$IIGLL,4743.175,N,12224.818,W,200000,A,A*41
$GPRMC,200037.2,A,4743.17522,N,12224.81894,W,001.98,238.8,200413,016.6,E,D*2E
$GPRMB,A,-32.07,L,,Ttp,4726.8700,N,12137.4300,W,35.9,133,0.04,V*72
$PGRME,2.6,M,2.4,M,3.6,M*29
$IIMTW,+09.0,C*31
$HCHDG,216.9,0.0,E,,*25
$IIRMB,A,,,,Ttp ,,,,,035.9,133,,V,A*6B
$HCHDG,216.8,0.0,E,,*24
$GPRMC,200037.4,A,4743.17516,N,12224.81919,W,001.95,237.5,200413,016.6,E,D*24
$PGRME,2.6,M,2.4,M,3.6,M*29
$HCHDG,216.8,0.0,E,,*24
$YXXDR,A,5.3,D,PTCH,A,0.3,D,ROLL*58
$PTAK,FFD1,0.3*56
$HCHDG,216.9,0.0,E,,*25
$GPRMC,200037.6,A,4743.17513,N,12224.81939,W,001.91,237.6,200413,016.6,E,D*26
$PGRME,2.6,M,2.4,M,3.6,M*29
$HCHDG,216.9,0.0,E,,*25
$HCHDG,216.9,0.0,E,,*25
$GPRMC,200037.8,A,4743.17507,N,12224.81961,W,001.88,237.7,200413,016.6,E,D*29
$PGRME,2.6,M,2.4,M,3.6,M*29
$HCHDG,216.9,0.0,E,,*25
$HCHDG,216.9,0.0,E,,*25
$IIRMC,200000,A,4743.175,N,12224.819,W,01.9,237,200413,16,E,A*11
$GPRMC,200038.0,A,4743.17502,N,12224.81980,W,001.88,237.8,200413,016.6,E,D*2B
$PGRME,2.6,M,2.4,M,3.6,M*29
$YXXDR,A,5.3,D,PTCH,A,0.2,D,ROLL*59
$IIVHW,,,,,02.1,N,,*1A
$HCHDG,216.9,0.0,E,,*25
$IIVLW,06219,N,009.6,N*50
$HCHDG,216.8,0.0,E,,*24
$IIGLL,4743.175,N,12224.819,W,200000,A,A*40
$GPRMC,200038.2,A,4743.17495,N,12224.82000,W,002.05,237.8,200413,016.6,E,D*22
$PGRME,2.6,M,2.4,M,3.6,M*29
$IIMTW,+09.0,C*31
$HCHDG,216.7,0.0,E,,*2B
$IIRMB,A,,,,Ttp ,,,,,035.9,133,,V,A*6B
$HCHDG,216.7,0.0,E,,*2B
$GPRMC,200038.4,A,4743.17490,N,12224.82015,W,002.02,237.6,200413,016.6,E,D*2C
$GPRMB,A,-32.07,L,,Ttp,4726.8700,N,12137.4300,W,35.9,133,0.08,V*7E
$PGRME,2.6,M,2.4,M,3.6,M*29
$HCHDG,216.5,0.0,E,,*29
$PTAK,FFP1,HEEL,@*07
$YXXDR,A,5.4,D,PTCH,A,0.5,D,ROLL*59
$PTAK,FFD1,0.5*50
$HCHDG,216.4,0.0,E,,*28
$GPRMC,200038.6,A,4743.17483,N,12224.82032,W,001.99,236.8,200413,016.6,E,D*27
$PGRME,2.6,M,2.4,M,3.6,M*29
$HCHDG,216.4,0.0,E,,*28
$HCHDG,216.2,0.0,E,,*2E
$GPRMC,200038.8,A,4743.17477,N,12224.82051,W,001.98,236.3,200413,016.6,E,D*2D
$PGRME,2.6,M,2.4,M,3.6,M*29
$HCHDG,216.3,0.0,E,,*2F
$HCHDG,216.1,0.0,E,,*2D
$IIRMC,200000,A,4743.174,N,12224.820,W,02.0,237,200413,16,E,A*10
$GPRMC,200039.0,A,4743.17469,N,12224.82067,W,001.96,236.6,200413,016.6,E,D*25
$PGRME,2.6,M,2.4,M,3.6,M*29
$YXXDR,A,5.2,D,PTCH,A,0.6,D,ROLL*5C
$IIVHW,,,,,02.1,N,,*1A
$HCHDG,216.1,0.0,E,,*2D
$IIVLW,06219,N,009.6,N*50
$HCHDG,216.2,0.0,E,,*2E
$IIGLL,4743.174,N,12224.820,W,200000,A,A*4B
$GPRMC,200039.2,A,4743.17464,N,12224.82080,W,001.96,235.2,200413,016.6,E,D*24
$PGRME,2.6,M,2.4,M,3.6,M*29
$IIMTW,+09.0,C*31
$HCHDG,216.1,0.0,E,,*2D
$IIRMB,A,,,,Ttp ,,,,,035.9,133,,V,A*6B
$HCHDG,216.2,0.0,E,,*2E
$GPRMC,200039.4,A,4743.17458,N,12224.82082,W,001.97,235.9,200413,016.6,E,D*25
$GPRMB,A,-32.07,L,,Ttp,4726.8700,N,12137.4300,W,35.9,133,0.14,V*73
$PGRME,2.6,M,2.4,M,3.6,M*29
$HCHDG,216.3,0.0,E,,*2F
$YXXDR,A,5.2,D,PTCH,A,0.0,D,ROLL*5A
$HCHDG,216.3,0.0,E,,*2F
$GPRMC,200039.6,A,4743.17457,N,12224.82076,W,001.97,237.6,200413,016.6,E,D*2E
$PGRME,2.6,M,2.4,M,3.6,M*29
$HCHDG,216.4,0.0,E,,*28
$HCHDG,216.5,0.0,E,,*29
$GPRMC,200039.8,A,4743.17451,N,12224.82087,W,001.98,238.2,200413,016.6,E,D*2C
$PGRME,2.6,M,2.4,M,3.6,M*29
$HCHDG,216.6,0.0,E,,*2A
$HCHDG,216.8,0.0,E,,*24
$IIRMC,200000,A,4743.174,N,12224.820,W,01.9,235,200413,16,E,A*18
$GPRMC,200040.0,A,4743.17445,N,12224.82105,W,001.97,237.6,200413,016.6,E,D*20
$PGRME,2.6,M,2.4,M,3.6,M*29
$YXXDR,A,5.1,D,PTCH,A,-0.1,D,ROLL*75
$PTAK,FFD1,0.1*54
$IIVHW,,,,,02.1,N,,*1A
$HCHDG,216.8,0.0,E,,*24
$IIVLW,06219,N,009.6,N*50
$HCHDG,216.8,0.0,E,,*24
$IIGLL,4743.174,N,12224.820,W,200000,A,A*4B
$GPRMC,200040.2,A,4743.17441,N,12224.82126,W,001.98,237.2,200413,016.6,E,D*2C
$PGRME,2.6,M,2.4,M,3.6,M*29
$IIMTW,+09.0,C*31
$HCHDG,216.8,0.0,E,,*24
$IIRMB,A,,,,Ttp ,,,,,035.9,133,,V,A*6B
$HCHDG,216.8,0.0,E,,*24
$GPRMC,200040.4,A,4743.17435,N,12224.82152,W,001.96,236.3,200413,016.6,E,D*24
$GPRMB,A,-32.07,L,,Ttp,4726.8700,N,12137.4300,W,35.9,133,0.12,V*75
$PGRME,2.6,M,2.4,M,3.6,M*29
$HCHDG,216.8,0.0,E,,*24
$YXXDR,A,5.1,D,PTCH,A,0.0,D,ROLL*59
$HCHDG,216.7,0.0,E,,*2B
$GPRMC,200040.6,A,4743.17426,N,12224.82155,W,001.94,238.0,200413,016.6,E,D*2C
$PGRME,2.6,M,2.4,M,3.6,M*29
$HCHDG,216.7,0.0,E,,*2B
$HCHDG,216.9,0.0,E,,*25
$GPRMC,200040.8,A,4743.17421,N,12224.82167,W,001.92,237.8,200413,016.6,E,D*25
$PGRME,2.6,M,2.4,M,3.6,M*29
$HCHDG,216.9,0.0,E,,*25
$HCHDG,216.8,0.0,E,,*24
$IIRMC,200000,A,4743.174,N,12224.820,W,01.9,235,200413,16,E,A*18
$GPRMC,200041.0,A,4743.17419,N,12224.82172,W,001.92,241.1,200413,016.6,E,D*2B
$PGRME,2.6,M,2.4,M,3.6,M*29
$YXXDR,A,5.3,D,PTCH,A,-0.2,D,ROLL*74
$IIVHW,,,,,02.1,N,,*1A
$HCHDG,216.8,0.0,E,,*24
$IIVLW,06219,N,009.6,N*50
$HCHDG,216.8,0.0,E,,*24
$IIGLL,4743.174,N,12224.820,W,200000,A,A*4B
$GPRMC,200041.2,A,4743.17416,N,12224.82189,W,001.92,238.5,200413,016.6,E,D*28
$PGRME,2.6,M,2.4,M,3.6,M*29
$IIMTW,+09.0,C*31
$HCHDG,216.8,0.0,E,,*24
$IIRMB,A,,,,Ttp ,,,,,035.9,133,,V,A*6B
$HCHDG,216.7,0.0,E,,*2B
$GPRMC,200041.4,A,4743.17412,N,12224.82206,W,001.94,239.7,200413,016.6,E,D*2B
$GPRMB,A,-32.07,L,,Ttp,4726.8700,N,12137.4300,W,35.9,133,0.01,V*77
$PGRME,2.6,M,2.4,M,3.6,M*29
$HCHDG,216.6,0.0,E,,*2A
$YXXDR,A,5.3,D,PTCH,A,-0.3,D,ROLL*75
$PTAK,FFD1,0.3*56
$HCHDG,216.4,0.0,E,,*28
$GPRMC,200041.6,A,4743.17407,N,12224.82230,W,001.96,237.3,200413,016.6,E,D*20
$PGRME,2.6,M,2.4,M,3.6,M*29
$HCHDG,216.3,0.0,E,,*2F
$HCHDG,216.2,0.0,E,,*2E
$GPRMC,200041.8,A,4743.17400,N,12224.82247,W,001.97,241.7,200413,016.6,E,D*2D
$PGRME,2.6,M,2.4,M,3.6,M*29
$HCHDG,216.0,0.0,E,,*2C
$HCHDG,215.8,0.0,E,,*27
$IIRMC,200000,A,4743.174,N,12224.821,W,01.9,238,200413,16,E,A*14
$GPRMC,200042.0,A,4743.17393,N,12224.82266,W,001.97,236.7,200413,016.6,E,D*28
$PGRME,2.6,M,2.4,M,3.6,M*29
$YXXDR,A,5.2,D,PTCH,A,0.0,D,ROLL*5A
$IIVHW,,,,,02.1,N,,*1A
$HCHDG,215.5,0.0,E,,*2A
$IIVLW,06219,N,009.6,N*50
$HCHDG,215.3,0.0,E,,*2C
$IIGLL,4743.174,N,12224.821,W,200000,A,A*4A
$GPRMC,200042.2,A,4743.17383,N,12224.82285,W,001.99,235.7,200413,016.6,E,D*2B
$PGRME,2.6,M,2.4,M,3.6,M*29
$IIMTW,+09.0,C*31
$HCHDG,215.1,0.0,E,,*2E
$IIRMB,A,,,,Ttp ,,,,,035.9,133,,V,A*6B
$HCHDG,215.0,0.0,E,,*2F
$GPRMC,200042.4,A,4743.17375,N,12224.82303,W,001.98,236.9,200413,016.6,E,D*27
$PGRME,2.6,M,2.4,M,3.6,M*29
$HCHDG,215.0,0.0,E,,*2F
$YXXDR,A,5.1,D,PTCH,A,0.1,D,ROLL*58
$HCHDG,214.8,0.0,E,,*26
$GPRMC,200042.6,A,4743.17364,N,12224.82318,W,001.98,237.2,200413,016.6,E,D*25
$GPRMB,A,-32.07,L,,Ttp,4726.8700,N,12137.4300,W,35.9,133,0.09,V*7F
$PGRME,2.6,M,2.4,M,3.6,M*29
$HCHDG,214.7,0.0,E,,*29
$PTAK,FFP1,HEEL,@*07
$HCHDG,214.6,0.0,E,,*28
$GPRMC,200042.8,A,4743.17357,N,12224.82327,W,001.97,238.4,200413,016.6,E,D*21
$PGRME,2.6,M,2.4,M,3.6,M*29
$HCHDG,214.7,0.0,E,,*29
$HCHDG,214.4,0.0,E,,*2A
$IIRMC,200000,A,4743.174,N,12224.822,W,01.9,237,200413,16,E,A*18
$GPRMC,200043.0,A,4743.17345,N,12224.82342,W,001.96,235.7,200413,016.6,E,D*27
$PGRME,2.6,M,2.4,M,3.6,M*29
$YXXDR,A,5.3,D,PTCH,A,0.2,D,ROLL*59
$PTAK,FFD1,0.2*57
$IIVHW,,,,,02.1,N,,*1A
$HCHDG,214.5,0.0,E,,*2B
$IIVLW,06219,N,009.6,N*50
$HCHDG,214.7,0.0,E,,*29
$IIGLL,4743.174,N,12224.822,W,200000,A,A*49
$GPRMC,200043.2,A,4743.17334,N,12224.82354,W,001.94,239.1,200413,016.6,E,D*2C
$PGRME,2.6,M,2.4,M,3.6,M*29
$IIMTW,+09.0,C*31
$HCHDG,214.5,0.0,E,,*2B
$IIRMB,A,,,,Ttp ,,,,,035.9,133,,V,A*6B
$HCHDG,214.4,0.0,E,,*2A
$GPRMC,200043.4,A,4743.17327,N,12224.82362,W,001.94,237.0,200413,016.6,E,D*22
$PGRME,2.6,M,2.4,M,3.6,M*29
$HCHDG,214.4,0.0,E,,*2A
$YXXDR,A,5.2,D,PTCH,A,0.0,D,ROLL*5A
$HCHDG,214.4,0.0,E,,*2A
$GPRMC,200043.6,A,4743.17321,N,12224.82374,W,001.94,235.6,200413,016.6,E,D*25
$GPRMB,A,-32.07,L,,Ttp,4726.8700,N,12137.4300,W,35.9,133,0.15,V*72
$PGRME,2.6,M,2.4,M,3.6,M*29
$HCHDG,214.4,0.0,E,,*2A
$HCHDG,214.3,0.0,E,,*2D
$GPRMC,200043.8,A,4743.17310,N,12224.82388,W,001.95,234.0,200413,016.6,E,D*2C
$PGRME,2.6,M,2.4,M,3.6,M*29
$HCHDG,214.3,0.0,E,,*2D
$HCHDG,213.9,0.0,E,,*20
$IIRMC,200000,A,4743.173,N,12224.823,W,01.9,237,200413,16,E,A*1E
$GPRMC,200044.0,A,4743.17299,N,12224.82394,W,001.95,233.6,200413,016.6,E,D*2F
$PGRME,2.6,M,2.4,M,3.6,M*29
$YXXDR,A,5.1,D,PTCH,A,0.1,D,ROLL*58
$PTAK,FFD1,0.1*54
$PGRMT,GPS 18x-5Hz software ver. 3.20,,,,,,,,*30
$IIVHW,,,,,02.2,N,,*19
$HCHDG,214.0,0.0,E,,*2E
$IIVLW,06219,N,009.6,N*50
$HCHDG,213.6,0.0,E,,*2F
$IIGLL,4743.173,N,12224.823,W,200000,A,A*4F
$GPRMC,200044.2,A,4743.17281,N,12224.82397,W,001.97,234.8,200413,016.6,E,D*2C
$PGRME,2.6,M,2.4,M,3.6,M*29
$IIMTW,+09.0,C*31
$HCHDG,213.5,0.0,E,,*2C
$IIRMB,A,,,,Ttp ,,,,,035.9,133,,V,A*6B
$HCHDG,213.4,0.0,E,,*2D
$GPRMC,200044.4,A,4743.17265,N,12224.82412,W,001.95,236.2,200413,016.6,E,D*20
$PGRME,2.6,M,2.4,M,3.5,M*2A
$HCHDG,213.3,0.0,E,,*2A
$YXXDR,A,5.1,D,PTCH,A,0.3,D,ROLL*5A
$HCHDG,213.3,0.0,E,,*2A
$GPRMC,200044.6,A,4743.17252,N,12224.82426,W,001.94,236.2,200413,016.6,E,D*20
$PGRME,2.6,M,2.4,M,3.5,M*2A
$HCHDG,213.5,0.0,E,,*2C
$HCHDG,213.6,0.0,E,,*2F
$GPRMC,200044.8,A,4743.17237,N,12224.82436,W,002.19,238.7,200413,016.6,E,D*21
$GPRMB,A,-32.07,L,,Ttp,4726.8700,N,12137.4300,W,35.9,133,0.05,V*73
$PGRME,2.6,M,2.4,M,3.5,M*2A
$HCHDG,213.7,0.0,E,,*2E
$HCHDG,213.5,0.0,E,,*2C
$IIRMC,200000,A,4743.173,N,12224.823,W,01.9,235,200413,16,E,A*1C
$GPRMC,200045.0,A,4743.17219,N,12224.82452,W,002.12,237.2,200413,016.6,E,D*27
$PGRME,2.6,M,2.4,M,3.5,M*2A
$YXXDR,A,5.6,D,PTCH,A,-0.6,D,ROLL*75
$IIVHW,,,,,02.2,N,,*19
$HCHDG,213.7,0.0,E,,*2E
$IIVLW,06219,N,009.6,N*50
$HCHDG,213.4,0.0,E,,*2D
$IIGLL,4743.173,N,12224.823,W,200000,A,A*4F
$GPRMC,200045.2,A,4743.17212,N,12224.82459,W,002.09,234.6,200413,016.6,E,D*28
$PGRME,2.6,M,2.5,M,3.5,M*2B
$IIMTW,+08.0,C*30
$HCHDG,213.4,0.0,E,,*2D
$IIRMB,A,,,,Ttp ,,,,,035.9,133,,V,A*6B
$HCHDG,213.3,0.0,E,,*2A
$GPRMC,200045.4,A,4743.17209,N,12224.82467,W,002.05,236.5,200413,016.6,E,D*24
$PGRME,2.6,M,2.5,M,3.6,M*28
$HCHDG,213.0,0.0,E,,*29
$YXXDR,A,5.4,D,PTCH,A,-0.1,D,ROLL*70
$PTAK,FFD1,0.1*54
$HCHDG,212.7,0.0,E,,*2F
$GPRMC,200045.6,A,4743.17203,N,12224.82477,W,002.08,232.2,200413,016.6,E,D*23
$PGRME,2.6,M,2.5,M,3.6,M*28
$HCHDG,212.4,0.0,E,,*2C
$HCHDG,212.4,0.0,E,,*2C
$GPRMC,200045.8,A,4743.17192,N,12224.82498,W,002.11,230.6,200413,016.6,E,D*29
$PGRME,2.6,M,2.5,M,3.6,M*28
$HCHDG,211.9,0.0,E,,*22
$HCHDG,211.7,0.0,E,,*2C
$IIRMC,200000,A,4743.172,N,12224.824,W,01.9,236,200413,16,E,A*19
$GPRMC,200046.0,A,4743.17185,N,12224.82508,W,001.95,231.1,200413,016.6,E,D*25
$GPRMB,A,-32.07,L,,Ttp,4726.8700,N,12137.4300,W,35.9,133,0.30,V*75
$PGRME,2.6,M,2.5,M,3.6,M*28
$YXXDR,A,4.8,D,PTCH,A,0.3,D,ROLL*52
$IIVHW,,,,,02.2,N,,*19
$HCHDG,211.4,0.0,E,,*2F
$IIVLW,06219,N,009.6,N*50
$HCHDG,211.3,0.0,E,,*28
$IIGLL,4743.172,N,12224.824,W,200000,A,A*49
$GPRMC,200046.2,A,4743.17175,N,12224.82524,W,001.94,233.5,200413,016.6,E,D*21
$PGRME,2.6,M,2.5,M,3.6,M*28
$IIMTW,+09.0,C*31
$HCHDG,211.4,0.0,E,,*2F
$IIRMB,A,,,,Ttp ,,,,,035.9,133,,V,A*6B
$HCHDG,211.3,0.0,E,,*28
$GPRMC,200046.4,A,4743.17159,N,12224.82540,W,001.95,236.1,200413,016.6,E,D*2B
$PGRME,2.6,M,2.5,M,3.6,M*28
$HCHDG,211.2,0.0,E,,*29
$YXXDR,A,5.1,D,PTCH,A,-1.0,D,ROLL*75
$PTAK,FFD1,1.0*54
$HCHDG,211.4,0.0,E,,*2F
$GPRMC,200046.6,A,4743.17146,N,12224.82555,W,001.96,236.7,200413,016.6,E,D*26
$PGRME,2.6,M,2.5,M,3.6,M*28
$HCHDG,211.5,0.0,E,,*2E
$HCHDG,211.7,0.0,E,,*2C
$GPRMC,200046.8,A,4743.17138,N,12224.82572,W,002.04,233.9,200413,016.6,E,D*27
$PGRME,2.5,M,2.5,M,3.6,M*2B
$HCHDG,211.7,0.0,E,,*2C
$PTAK,FFP1,HEEL,@*07
$HCHDG,211.7,0.0,E,,*2C
$IIRMC,200000,A,4743.172,N,12224.824,W,02.0,232,200413,16,E,A*17
$GPRMC,200047.0,A,4743.17128,N,12224.82587,W,002.22,234.1,200413,016.6,E,D*2E
$PGRME,2.5,M,2.6,M,3.6,M*28
$YXXDR,A,5.5,D,PTCH,A,-0.9,D,ROLL*79
$IIVHW,,,,,02.2,N,,*19
$HCHDG,211.7,0.0,E,,*2C
$IIVLW,06219,N,009.6,N*50
$HCHDG,211.4,0.0,E,,*2F
$IIGLL,4743.172,N,12224.824,W,200000,A,A*49
$GPRMC,200047.2,A,4743.17115,N,12224.82595,W,002.16,232.8,200413,016.6,E,D*29
$GPRMB,A,-32.07,L,,Ttp,4726.8700,N,12137.4300,W,35.9,133,0.27,V*73
$PGRME,2.5,M,2.6,M,3.6,M*28
$IIMTW,+09.0,C*31
$HCHDG,211.4,0.0,E,,*2F
$IIRMB,A,,,,Ttp ,,,,,035.9,133,,V,A*6B
$HCHDG,211.2,0.0,E,,*29
$GPRMC,200047.4,A,4743.17108,N,12224.82605,W,002.17,231.5,200413,016.6,E,D*26
$PGRME,2.5,M,2.6,M,3.6,M*28
$HCHDG,210.7,0.0,E,,*2D
$YXXDR,A,5.4,D,PTCH,A,0.2,D,ROLL*5E
$PTAK,FFD1,0.2*57
$HCHDG,210.8,0.0,E,,*22
$GPRMC,200047.6,A,4743.17095,N,12224.82617,W,002.19,228.1,200413,016.6,E,D*20
$PGRME,2.5,M,2.6,M,3.6,M*28
$HCHDG,210.6,0.0,E,,*2C
$HCHDG,210.5,0.0,E,,*2F
$GPRMC,200047.8,A,4743.17085,N,12224.82624,W,002.21,229.5,200413,016.6,E,D*21
$PGRME,2.5,M,2.6,M,3.6,M*28
$HCHDG,210.3,0.0,E,,*29
$HCHDG,210.2,0.0,E,,*28
$IIRMC,200000,A,4743.171,N,12224.825,W,01.9,236,200413,16,E,A*1B
$GPRMC,200048.0,A,4743.17083,N,12224.82637,W,002.18,228.5,200413,016.6,E,D*29
$PGRME,2.5,M,2.6,M,3.6,M*28
$YXXDR,A,5.2,D,PTCH,A,0.0,D,ROLL*5A
$IIVHW,,,,,02.2,N,,*19
$HCHDG,210.0,0.0,E,,*2A
$IIVLW,06219,N,009.6,N*50
$HCHDG,209.9,0.0,E,,*2B
$IIGLL,4743.171,N,12224.825,W,200000,A,A*4B
$GPRMC,200048.2,A,4743.17080,N,12224.82651,W,002.17,231.1,200413,016.6,E,D*2B
$GPRMB,A,-32.07,L,,Ttp,4726.8700,N,12137.4300,W,35.9,133,0.33,V*76
$PGRME,2.5,M,2.5,M,3.6,M*2B
$IIMTW,+09.0,C*31
$HCHDG,210.0,0.0,E,,*2A
$IIRMB,A,,,,Ttp ,,,,,035.9,133,,V,A*6B
$HCHDG,210.0,0.0,E,,*2A
$GPRMC,200048.4,A,4743.17074,N,12224.82662,W,002.17,230.3,200413,016.6,E,D*25
$PGRME,2.5,M,2.5,M,3.6,M*2B
$HCHDG,209.8,0.0,E,,*2A
$YXXDR,A,5.1,D,PTCH,A,-0.7,D,ROLL*73
$HCHDG,210.0,0.0,E,,*2A
$GPRMC,200048.6,A,4743.17072,N,12224.82670,W,002.20,230.4,200413,016.6,E,D*21
$PGRME,2.5,M,2.5,M,3.6,M*2B
$HCHDG,209.9,0.0,E,,*2B
$HCHDG,210.0,0.0,E,,*2A
$GPRMC,200048.8,A,4743.17066,N,12224.82676,W,002.01,230.8,200413,016.6,E,D*23
$PGRME,2.5,M,2.6,M,3.6,M*28
$HCHDG,209.9,0.0,E,,*2B
$HCHDG,209.9,0.0,E,,*2B
$IIRMC,200000,A,4743.170,N,12224.826,W,02.1,228,200413,16,E,A*1D
$GPRMC,200049.0,A,4743.17062,N,12224.82679,W,002.23,229.5,200413,016.6,E,D*24
$PGRME,2.5,M,2.6,M,3.6,M*28
$YXXDR,A,5.4,D,PTCH,A,-0.1,D,ROLL*70
$PTAK,FFD1,0.1*54
$IIVHW,,,,,02.2,N,,*19
$HCHDG,210.0,0.0,E,,*2A
$IIVLW,06219,N,009.6,N*50
$HCHDG,209.9,0.0,E,,*2B
$IIGLL,4743.170,N,12224.826,W,200000,A,A*49
$GPRMC,200049.2,A,4743.17056,N,12224.82683,W,002.20,227.9,200413,016.6,E,D*25
$GPRMB,A,-32.07,L,,Ttp,4726.8700,N,12137.4300,W,35.9,133,0.46,V*74
$PGRME,2.5,M,2.6,M,3.6,M*28
$IIMTW,+09.0,C*31
$HCHDG,209.8,0.0,E,,*2A
$IIRMB,A,,,,Ttp ,,,,,035.9,133,,V,A*6B
$HCHDG,209.7,0.0,E,,*25
$GPRMC,200049.4,A,4743.17052,N,12224.82687,W,002.13,228.4,200413,016.6,E,D*21
$PGRME,2.5,M,2.6,M,3.6,M*28
$HCHDG,209.7,0.0,E,,*25
$YXXDR,A,5.4,D,PTCH,A,0.0,D,ROLL*5C
$HCHDG,209.5,0.0,E,,*27
$GPRMC,200049.6,A,4743.17047,N,12224.82693,W,002.12,226.7,200413,016.6,E,D*2E
$PGRME,2.5,M,2.6,M,3.6,M*28
$HCHDG,209.4,0.0,E,,*26
$HCHDG,209.3,0.0,E,,*21
$GPRMC,200049.8,A,4743.17039,N,12224.82702,W,002.14,227.7,200413,016.6,E,D*27
$PGRME,2.5,M,2.6,M,3.6,M*28
$HCHDG,209.4,0.0,E,,*26
$HCHDG,209.4,0.0,E,,*26
$IIRMC,200000,A,4743.170,N,12224.826,W,02.2,230,200413,16,E,A*17
$GPRMC,200050.0,A,4743.17030,N,12224.82714,W,002.14,227.7,200413,016.6,E,D*29
$PGRME,2.5,M,2.6,M,3.6,M*28
$YXXDR,A,5.2,D,PTCH,A,0.0,D,ROLL*5A
$PTAK,FFD1,0.0*55
$IIVHW,,,,,02.2,N,,*19
$HCHDG,209.5,0.0,E,,*27
$IIVLW,06219,N,009.6,N*50
$HCHDG,209.6,0.0,E,,*24
$IIGLL,4743.170,N,12224.826,W,200000,A,A*49
$GPRMC,200050.2,A,4743.17020,N,12224.82725,W,002.35,227.7,200413,016.6,E,D*2B
$GPRMB,A,-32.07,L,,Ttp,4726.8700,N,12137.4300,W,35.9,133,0.50,V*73
$PGRME,2.5,M,2.6,M,3.6,M*28
$IIMTW,+09.0,C*31
$HCHDG,209.6,0.0,E,,*24
$IIRMB,A,,,,Ttp ,,,,,035.9,133,,V,A*6B
$HCHDG,209.8,0.0,E,,*2A
$GPRMC,200050.4,A,4743.17011,N,12224.82739,W,002.30,228.3,200413,016.6,E,D*2C
$PGRME,2.5,M,2.6,M,3.6,M*28
$HCHDG,210.1,0.0,E,,*2B
$PTAK,FFP1,HEEL,@*07
$YXXDR,A,5.3,D,PTCH,A,-0.2,D,ROLL*74
$HCHDG,210.2,0.0,E,,*28
$GPRMC,200050.6,A,4743.17003,N,12224.82759,W,002.27,229.1,200413,016.6,E,D*2E
$PGRME,2.5,M,2.6,M,3.6,M*28
$HCHDG,210.2,0.0,E,,*28
$HCHDG,210.4,0.0,E,,*2E
$GPRMC,200050.8,A,4743.16993,N,12224.82766,W,002.27,229.0,200413,016.6,E,D*2C
$PGRME,2.5,M,2.6,M,3.6,M*28
$HCHDG,210.5,0.0,E,,*2F
$HCHDG,210.6,0.0,E,,*2C
$IIRMC,200000,A,4743.170,N,12224.826,W,02.1,226,200413,16,E,A*13
$GPRMC,200051.0,A,4743.16979,N,12224.82765,W,002.31,228.9,200413,016.6,E,D*2D
$PGRME,2.5,M,2.6,M,3.6,M*28
$YXXDR,A,5.3,D,PTCH,A,0.0,D,ROLL*5B
$PTAK,FFD1,0.0*55
$IIVHW,,,,,02.3,N,,*18
$HCHDG,210.6,0.0,E,,*2C
$IIVLW,06219,N,009.6,N*50
$HCHDG,210.7,0.0,E,,*2D
$IIGLL,4743.170,N,12224.826,W,200000,A,A*49
$GPRMC,200051.2,A,4743.16967,N,12224.82775,W,002.27,227.3,200413,016.6,E,D*23
$GPRMB,A,-32.07,L,,Ttp,4726.8700,N,12137.4300,W,35.9,133,0.50,V*73
$PGRME,2.5,M,2.6,M,3.6,M*28
$IIMTW,+09.0,C*31
$HCHDG,210.7,0.0,E,,*2D
$IIRMB,A,,,,Ttp ,,,,,035.9,133,,V,A*6B
$HCHDG,210.8,0.0,E,,*22
$GPRMC,200051.4,A,4743.16962,N,12224.82792,W,002.25,228.4,200413,016.6,E,D*23
$PGRME,2.5,M,2.7,M,3.6,M*29
$HCHDG,210.6,0.0,E,,*2C
$YXXDR,A,5.1,D,PTCH,A,0.0,D,ROLL*59
$HCHDG,210.7,0.0,E,,*2D
$GPRMC,200051.6,A,4743.16955,N,12224.82804,W,002.21,227.4,200413,016.6,E,D*2E
$PGRME,2.5,M,2.7,M,3.6,M*29
$HCHDG,210.9,0.0,E,,*23
$HCHDG,210.8,0.0,E,,*22
$GPRMC,200051.8,A,4743.16948,N,12224.82813,W,002.17,229.5,200413,016.6,E,D*20
$PGRME,2.5,M,2.7,M,3.6,M*29
