$PGRME,3.2,M,2.4,M,4.0,M*2D
$HCHDG,180.1,0.0,E,,*21
$YXXDR,A,4.3,D,PTCH,A,4.9,D,ROLL*57
$HCHDG,180.1,0.0,E,,*21
$GPRMC,190001.0,A,4743.58441,N,12224.54215,W,001.86,216.2,210413,016.6,E,D*2F
$PGRME,3.2,M,2.4,M,4.0,M*2D
$HCHDG,180.0,0.0,E,,*20
$HCHDG,180.1,0.0,E,,*21
$IIGLL,4743.584,N,12224.541,W,190000,A,A*40
$GPRMC,190001.2,A,4743.58434,N,12224.54228,W,001.86,218.4,210413,016.6,E,D*29
$PGRME,3.2,M,2.4,M,4.0,M*2D
$IIMTW,+09.0,C*31
$HCHDG,180.3,0.0,E,,*23
$IIRMB,A,0.02,L,,M   ,,,,,001.8,197,,V,A*2E
$HCHDG,180.5,0.0,E,,*25
$GPRMC,190001.4,A,4743.58429,N,12224.54244,W,001.68,211.6,210413,016.6,E,D*22
$YXXDR,A,4.2,D,PTCH,A,5.0,D,ROLL*5E
$PTAK,FFD1,5.0*50
$PGRME,3.2,M,2.4,M,4.0,M*2D
$IIRMC,190000,A,4743.584,N,12224.541,W,01.8,216,210413,16,E,A*12
$HCHDG,180.1,0.0,E,,*21
$IIVHW,,,,,01.8,N,,*10
$HCHDG,180.1,0.0,E,,*21
$IIVLW,06232,N,004.4,N*56
$GPRMC,190001.6,A,4743.58425,N,12224.54251,W,001.65,208.6,210413,016.6,E,D*2D
$GPRMB,A,0.02,L,,M,4741.7720,N,12224.5760,W,1.8,197,1.64,V*47
$PGRME,3.2,M,2.4,M,4.0,M*2D
$HCHDG,180.0,0.0,E,,*20
$HCHDG,179.8,0.0,E,,*2E
$GPRMC,190001.8,A,4743.58422,N,12224.54255,W,001.81,208.9,210413,016.6,E,D*25
$PGRME,3.2,M,2.4,M,4.0,M*2D
$HCHDG,179.7,0.0,E,,*21
$YXXDR,A,4.4,D,PTCH,A,7.2,D,ROLL*58
$HCHDG,179.5,0.0,E,,*23
$GPRMC,190002.0,A,4743.58419,N,12224.54257,W,001.80,208.9,210413,016.6,E,D*25
$PGRME,3.2,M,2.4,M,4.0,M*2D
$HCHDG,179.3,0.0,E,,*25
$HCHDG,179.1,0.0,E,,*27
$IIGLL,4743.584,N,12224.542,W,190000,A,A*43
$GPRMC,190002.2,A,4743.58413,N,12224.54265,W,001.87,208.9,210413,016.6,E,D*2B
$PGRME,3.2,M,2.4,M,4.0,M*2D
$IIMTW,+09.0,C*31
$HCHDG,178.9,0.0,E,,*2E
$IIRMB,A,0.02,L,,M   ,,,,,001.8,197,,V,A*2E
$HCHDG,179.0,0.0,E,,*26
$YXXDR,A,4.4,D,PTCH,A,6.4,D,ROLL*5F
$GPRMC,190002.4,A,4743.58415,N,12224.54266,W,001.66,208.8,210413,016.6,E,D*26
$PGRME,3.2,M,2.4,M,4.0,M*2D
$IIRMC,190000,A,4743.584,N,12224.542,W,01.6,208,210413,16,E,A*10
$HCHDG,179.0,0.0,E,,*26
$IIVHW,,,,,01.7,N,,*1F
$HCHDG,178.9,0.0,E,,*2E
$IIVLW,06232,N,004.4,N*56
$GPRMC,190002.6,A,4743.58406,N,12224.54279,W,001.88,208.6,210413,016.6,E,D*26
$PGRME,3.2,M,2.4,M,4.0,M*2D
$HCHDG,178.9,0.0,E,,*2E
$HCHDG,179.1,0.0,E,,*27
$GPRMC,190002.8,A,4743.58403,N,12224.54294,W,001.90,208.4,210413,016.6,E,D*25
$GPRMB,A,0.02,L,,M,4741.7720,N,12224.5760,W,1.8,197,1.89,V*44
$PGRME,3.2,M,2.4,M,4.0,M*2D
$HCHDG,178.9,0.0,E,,*2E
$YXXDR,A,4.6,D,PTCH,A,5.2,D,ROLL*58
$PTAK,FFD1,5.2*52
$HCHDG,179.0,0.0,E,,*26
$GPRMC,190003.0,A,4743.58395,N,12224.54308,W,001.86,208.3,210413,016.6,E,D*20
$PGRME,3.2,M,2.4,M,4.0,M*2D
$HCHDG,179.0,0.0,E,,*26
$HCHDG,179.4,0.0,E,,*22
$IIGLL,4743.584,N,12224.542,W,190000,A,A*43
$GPRMC,190003.2,A,4743.58388,N,12224.54316,W,001.87,208.2,210413,016.6,E,D*21
$PGRME,3.2,M,2.4,M,4.0,M*2D
$IIMTW,+09.0,C*31
$HCHDG,179.3,0.0,E,,*25
$IIRMB,A,0.02,L,,M   ,,,,,001.8,197,,V,A*2E
$HCHDG,179.7,0.0,E,,*21
$YXXDR,A,4.6,D,PTCH,A,4.0,D,ROLL*5B
$GPRMC,190003.4,A,4743.58381,N,12224.54326,W,001.91,208.2,210413,016.6,E,D*2A
$PGRME,3.2,M,2.4,M,4.0,M*2D
$IIRMC,190000,A,4743.584,N,12224.542,W,01.8,208,210413,16,E,A*1E
$HCHDG,180.0,0.0,E,,*20
$IIVHW,,,,,01.7,N,,*1F
$HCHDG,180.3,0.0,E,,*23
$IIVLW,06232,N,004.4,N*56
$GPRMC,190003.6,A,4743.58371,N,12224.54343,W,002.24,208.3,210413,016.6,E,D*28
$PGRME,3.2,M,2.4,M,4.0,M*2D
$HCHDG,180.4,0.0,E,,*24
$HCHDG,180.6,0.0,E,,*26
$GPRMC,190003.8,A,4743.58363,N,12224.54356,W,002.27,208.7,210413,016.6,E,D*26
$GPRMB,A,0.02,L,,M,4741.7720,N,12224.5760,W,1.8,197,2.26,V*42
$PGRME,3.2,M,2.4,M,4.0,M*2D
$HCHDG,180.3,0.0,E,,*23
$YXXDR,A,4.6,D,PTCH,A,3.6,D,ROLL*5A
$PTAK,FFD1,3.6*50
$HCHDG,180.5,0.0,E,,*25
$GPRMC,190004.0,A,4743.58354,N,12224.54366,W,002.31,212.4,210413,016.6,E,D*21
$PGRME,3.2,M,2.4,M,4.0,M*2D
$HCHDG,180.4,0.0,E,,*24
$HCHDG,180.0,0.0,E,,*20
$IIGLL,4743.583,N,12224.543,W,190000,A,A*45
$GPRMC,190004.2,A,4743.58346,N,12224.54380,W,002.25,206.6,210413,016.6,E,D*2A
$PGRME,3.2,M,2.4,M,4.0,M*2D
$IIMTW,+09.0,C*31
$HCHDG,179.7,0.0,E,,*21
$IIRMB,A,0.02,L,,M   ,,,,,001.8,197,,V,A*2E
$HCHDG,179.5,0.0,E,,*23
$YXXDR,A,4.4,D,PTCH,A,5.3,D,ROLL*5B
$GPRMC,190004.4,A,4743.58340,N,12224.54391,W,002.00,209.2,210413,016.6,E,D*26
$PGRME,3.2,M,2.4,M,4.1,M*2C
$IIRMC,190000,A,4743.583,N,12224.543,W,02.2,208,210413,16,E,A*11
$HCHDG,179.3,0.0,E,,*25
$IIVHW,,,,,01.7,N,,*1F
$HCHDG,179.1,0.0,E,,*27
$IIVLW,06232,N,004.4,N*56
$GPRMC,190004.6,A,4743.58330,N,12224.54401,W,002.05,208.5,210413,016.6,E,D*2E
$PGRME,3.2,M,2.4,M,4.1,M*2C
$HCHDG,178.8,0.0,E,,*2F
$HCHDG,178.8,0.0,E,,*2F
$GPRMC,190004.8,A,4743.58322,N,12224.54411,W,002.05,203.7,210413,016.6,E,D*2B
$GPRMB,A,0.02,L,,M,4741.7720,N,12224.5760,W,1.8,197,2.02,V*44
$PGRME,3.2,M,2.4,M,4.1,M*2C
$HCHDG,178.4,0.0,E,,*23
$PTAK,FFP1,HEEL,@*07
$YXXDR,A,4.5,D,PTCH,A,7.3,D,ROLL*58
$PTAK,FFD1,7.3*51
$HCHDG,178.5,0.0,E,,*22
$GPRMC,190005.0,A,4743.58309,N,12224.54421,W,002.04,207.6,210413,016.6,E,D*2C
$PGRME,3.2,M,2.4,M,4.1,M*2C
$HCHDG,178.4,0.0,E,,*23
$HCHDG,178.3,0.0,E,,*24
$IIGLL,4743.583,N,12224.544,W,190000,A,A*42
$GPRMC,190005.2,A,4743.58299,N,12224.54431,W,002.09,205.9,210413,016.6,E,D*27
$PGRME,3.2,M,2.4,M,4.1,M*2C
$HCHDG,178.2,0.0,E,,*25
$IIMTW,+09.0,C*31
$IIRMB,A,0.02,L,,M   ,,,,,001.8,197,,V,A*2E
$HCHDG,178.3,0.0,E,,*24
$YXXDR,A,4.5,D,PTCH,A,6.3,D,ROLL*59
$GPRMC,190005.4,A,4743.58290,N,12224.54441,W,002.06,201.1,210413,016.6,E,D*2C
$PGRME,3.2,M,2.4,M,4.1,M*2C
$HCHDG,178.4,0.0,E,,*23
$IIRMC,190000,A,4743.583,N,12224.544,W,02.0,208,210413,16,E,A*14
$IIVHW,,,,,01.8,N,,*10
$HCHDG,178.6,0.0,E,,*21
$IIVLW,06232,N,004.4,N*56
$GPRMC,190005.6,A,4743.58282,N,12224.54449,W,001.86,206.4,210413,016.6,E,D*2C
$PGRME,3.3,M,2.4,M,4.1,M*2D
$HCHDG,178.6,0.0,E,,*21
$HCHDG,178.8,0.0,E,,*2F
$GPRMC,190005.8,A,4743.58274,N,12224.54459,W,001.87,210.7,210413,016.6,E,D*2F
$GPRMB,A,0.02,L,,M,4741.7720,N,12224.5760,W,1.8,197,1.87,V*4A
$PGRME,3.3,M,2.4,M,4.1,M*2D
$HCHDG,179.0,0.0,E,,*26
$YXXDR,A,4.4,D,PTCH,A,4.8,D,ROLL*51
$HCHDG,179.0,0.0,E,,*26
$GPRMC,190006.0,A,4743.58267,N,12224.54469,W,001.85,214.0,210413,016.6,E,D*24
$PGRME,3.3,M,2.4,M,4.1,M*2D
$HCHDG,179.3,0.0,E,,*25
$HCHDG,179.3,0.0,E,,*25
$IIGLL,4743.582,N,12224.544,W,190000,A,A*43
$GPRMC,190006.2,A,4743.58259,N,12224.54482,W,001.86,213.2,210413,016.6,E,D*28
$PGRME,3.3,M,2.4,M,4.1,M*2D
$IIMTW,+09.0,C*31
$HCHDG,179.4,0.0,E,,*22
$IIRMB,A,0.02,L,,M   ,,,,,001.8,197,,V,A*2E
$HCHDG,179.3,0.0,E,,*25
$YXXDR,A,4.6,D,PTCH,A,4.7,D,ROLL*5C
$PTAK,FFD1,4.7*56
$GPRMC,190006.4,A,4743.58250,N,12224.54493,W,001.88,216.8,210413,016.6,E,D*26
$PGRME,3.3,M,2.4,M,4.1,M*2D
$IIRMC,190000,A,4743.582,N,12224.544,W,01.8,206,210413,16,E,A*10
$HCHDG,179.3,0.0,E,,*25
$IIVHW,,,,,01.8,N,,*10
$HCHDG,179.3,0.0,E,,*25
$IIVLW,06232,N,004.4,N*56
$GPRMC,190006.6,A,4743.58242,N,12224.54503,W,001.86,214.7,210413,016.6,E,D*2C
$PGRME,3.3,M,2.4,M,4.1,M*2D
$HCHDG,178.9,0.0,E,,*2E
$HCHDG,178.6,0.0,E,,*21
$GPRMC,190006.8,A,4743.58233,N,12224.54512,W,001.86,213.0,210413,016.6,E,D*24
$PGRME,3.3,M,2.4,M,4.1,M*2D
$HCHDG,178.4,0.0,E,,*23
$YXXDR,A,4.3,D,PTCH,A,6.2,D,ROLL*5E
$HCHDG,178.0,0.0,E,,*27
$GPRMC,190007.0,A,4743.58225,N,12224.54522,W,001.89,210.0,210413,016.6,E,D*25
$GPRMB,A,0.02,L,,M,4741.7720,N,12224.5760,W,1.8,197,1.89,V*44
$PGRME,3.3,M,2.4,M,4.1,M*2D
$HCHDG,177.6,0.0,E,,*2E
$HCHDG,177.7,0.0,E,,*2F
$IIGLL,4743.582,N,12224.545,W,190000,A,A*42
$GPRMC,190007.2,A,4743.58217,N,12224.54533,W,002.09,209.3,210413,016.6,E,D*26
$PGRME,3.3,M,2.4,M,4.1,M*2D
$IIMTW,+09.0,C*31
$HCHDG,177.3,0.0,E,,*2B
$IIRMB,A,0.02,L,,M   ,,,,,001.8,197,,V,A*2E
$HCHDG,177.1,0.0,E,,*29
$YXXDR,A,4.4,D,PTCH,A,6.9,D,ROLL*52
$PTAK,FFD1,6.9*5A
$GPRMC,190007.4,A,4743.58203,N,12224.54542,W,002.09,210.4,210413,016.6,E,D*2C
$PGRME,3.3,M,2.4,M,4.1,M*2D
$IIRMC,190000,A,4743.582,N,12224.545,W,01.8,214,210413,16,E,A*12
$HCHDG,177.2,0.0,E,,*2A
$IIVHW,,,,,01.8,N,,*10
$HCHDG,177.2,0.0,E,,*2A
$IIVLW,06232,N,004.4,N*56
$GPRMC,190007.6,A,4743.58193,N,12224.54551,W,002.04,207.9,210413,016.6,E,D*20
$PGRME,3.3,M,2.5,M,4.1,M*2C
$HCHDG,177.2,0.0,E,,*2A
$HCHDG,177.5,0.0,E,,*2D
$GPRMC,190007.8,A,4743.58184,N,12224.54562,W,001.83,207.5,210413,016.6,E,D*28
$PGRME,3.3,M,2.5,M,4.1,M*2C
$HCHDG,177.7,0.0,E,,*2F
$YXXDR,A,4.5,D,PTCH,A,5.9,D,ROLL*50
$HCHDG,177.9,0.0,E,,*21
$GPRMC,190008.0,A,4743.58175,N,12224.54576,W,001.90,211.6,210413,016.6,E,D*22
$PGRME,3.3,M,2.5,M,4.1,M*2C
$HCHDG,178.0,0.0,E,,*27
$HCHDG,178.0,0.0,E,,*27
$IIGLL,4743.581,N,12224.545,W,190000,A,A*41
$GPRMC,190008.2,A,4743.58166,N,12224.54589,W,001.96,212.1,210413,016.6,E,D*20
$GPRMB,A,0.02,L,,M,4741.7720,N,12224.5760,W,1.8,197,1.96,V*4A
$PGRME,3.3,M,2.5,M,4.2,M*2F
$IIMTW,+09.0,C*31
$HCHDG,177.9,0.0,E,,*21
$IIRMB,A,0.02,L,,M   ,,,,,001.8,197,,V,A*2E
$HCHDG,178.0,0.0,E,,*27
$GPRMC,190008.4,A,4743.58158,N,12224.54600,W,001.99,214.7,210413,016.6,E,D*26
$YXXDR,A,4.7,D,PTCH,A,5.1,D,ROLL*5A
$PTAK,FFD1,5.1*51
$PGRME,3.3,M,2.6,M,4.2,M*2C
$IIRMC,190000,A,4743.581,N,12224.545,W,02.0,207,210413,16,E,A*18
$HCHDG,177.8,0.0,E,,*20
$IIVHW,,,,,01.8,N,,*10
$HCHDG,177.8,0.0,E,,*20
$IIVLW,06232,N,004.4,N*56
$GPRMC,190008.6,A,4743.58148,N,12224.54611,W,002.01,211.8,210413,016.6,E,D*2D
$PGRME,3.3,M,2.6,M,4.2,M*2C
$HCHDG,178.0,0.0,E,,*27
$HCHDG,177.8,0.0,E,,*20
$GPRMC,190008.8,A,4743.58138,N,12224.54620,W,001.98,207.1,210413,016.6,E,D*2B
$PGRME,3.3,M,2.6,M,4.2,M*2C
$HCHDG,177.7,0.0,E,,*2F
$YXXDR,A,4.6,D,PTCH,A,5.5,D,ROLL*5F
$HCHDG,177.6,0.0,E,,*2E
$GPRMC,190009.0,A,4743.58127,N,12224.54627,W,002.02,210.2,210413,016.6,E,D*2E
$PGRME,3.3,M,2.5,M,4.2,M*2F
$HCHDG,177.3,0.0,E,,*2B
$PTAK,FFP1,HEEL,@*07
$HCHDG,177.1,0.0,E,,*29
$IIGLL,4743.581,N,12224.546,W,190000,A,A*42
$GPRMC,190009.2,A,4743.58118,N,12224.54639,W,002.39,211.6,210413,016.6,E,D*22
$GPRMB,A,0.02,L,,M,4741.7720,N,12224.5760,W,1.8,197,2.39,V*4C
$PGRME,3.3,M,2.5,M,4.2,M*2F
$IIMTW,+09.0,C*31
$HCHDG,177.1,0.0,E,,*29
$IIRMB,A,0.02,L,,M   ,,,,,001.8,197,,V,A*2E
$HCHDG,177.1,0.0,E,,*29
$GPRMC,190009.4,A,4743.58106,N,12224.54651,W,002.44,208.6,210413,016.6,E,D*27
$YXXDR,A,4.4,D,PTCH,A,6.0,D,ROLL*5B
$PGRME,3.3,M,2.6,M,4.2,M*2C
$IIRMC,190000,A,4743.581,N,12224.546,W,02.0,211,210413,16,E,A*1C
$HCHDG,176.7,0.0,E,,*2E
$IIVHW,,,,,01.8,N,,*10
$HCHDG,176.7,0.0,E,,*2E
$IIVLW,06232,N,004.4,N*56
$GPRMC,190009.6,A,4743.58091,N,12224.54659,W,002.43,210.4,210413,016.6,E,D*2E
$PGRME,3.3,M,2.6,M,4.2,M*2C
$HCHDG,176.6,0.0,E,,*2F
$HCHDG,176.9,0.0,E,,*20
$GPRMC,190009.8,A,4743.58079,N,12224.54665,W,002.16,210.0,210413,016.6,E,D*2D
$PGRME,3.3,M,2.5,M,4.1,M*2C
$HCHDG,176.9,0.0,E,,*20
$YXXDR,A,4.3,D,PTCH,A,5.2,D,ROLL*5D
$PTAK,FFD1,5.2*52
$HCHDG,177.0,0.0,E,,*28
$GPRMC,190010.0,A,4743.58066,N,12224.54673,W,002.12,210.3,210413,016.6,E,D*23
$PGRME,3.3,M,2.5,M,4.1,M*2C
$HCHDG,177.3,0.0,E,,*2B
$HCHDG,177.4,0.0,E,,*2C
$IIGLL,4743.580,N,12224.546,W,190000,A,A*43
$GPRMC,190010.2,A,4743.58052,N,12224.54678,W,002.08,210.2,210413,016.6,E,D*27
$GPRMB,A,0.02,L,,M,4741.7720,N,12224.5760,W,1.8,197,2.08,V*4E
$PGRME,3.3,M,2.5,M,4.2,M*2F
$IIMTW,+09.0,C*31
$HCHDG,177.6,0.0,E,,*2E
$IIRMB,A,0.02,L,,M   ,,,,,001.8,197,,V,A*2E
$HCHDG,177.7,0.0,E,,*2F
$GPRMC,190010.4,A,4743.58037,N,12224.54684,W,002.08,214.8,210413,016.6,E,D*2F
$YXXDR,A,4.3,D,PTCH,A,4.6,D,ROLL*58
$PGRME,3.3,M,2.5,M,4.2,M*2F
$IIRMC,190000,A,4743.580,N,12224.546,W,02.1,210,210413,16,E,A*1D
$HCHDG,177.7,0.0,E,,*2F
$IIVHW,,,,,01.8,N,,*10
$HCHDG,177.6,0.0,E,,*2E
$IIVLW,06232,N,004.4,N*56
$GPRMC,190010.6,A,4743.58031,N,12224.54696,W,002.11,212.9,210413,016.6,E,D*27
$PGRME,3.3,M,2.5,M,4.2,M*2F
$HCHDG,177.6,0.0,E,,*2E
$HCHDG,177.5,0.0,E,,*2D
$GPRMC,190010.8,A,4743.58025,N,12224.54706,W,001.87,211.1,210413,016.6,E,D*23
$PGRME,3.3,M,2.4,M,4.1,M*2D
$HCHDG,177.3,0.0,E,,*2B
$YXXDR,A,4.5,D,PTCH,A,5.6,D,ROLL*5F
$HCHDG,176.9,0.0,E,,*20
$GPRMC,190011.0,A,4743.58016,N,12224.54712,W,001.92,209.8,210413,016.6,E,D*2B
$PGRME,3.3,M,2.4,M,4.1,M*2D
$HCHDG,176.8,0.0,E,,*21
$HCHDG,176.8,0.0,E,,*21
$IIGLL,4743.580,N,12224.547,W,190000,A,A*42
$GPRMC,190011.2,A,4743.58010,N,12224.54719,W,001.94,206.5,210413,016.6,E,D*20
$PGRME,3.3,M,2.5,M,4.2,M*2F
$IIMTW,+09.0,C*31
$HCHDG,176.5,0.0,E,,*2C
$IIRMB,A,0.02,L,,M   ,,,,,001.8,197,,V,A*2E
$HCHDG,176.6,0.0,E,,*2F
$GPRMC,190011.4,A,4743.58005,N,12224.54730,W,001.96,208.5,210413,016.6,E,D*25
$GPRMB,A,0.02,L,,M,4741.7720,N,12224.5760,W,1.8,197,1.95,V*49
$YXXDR,A,4.3,D,PTCH,A,6.2,D,ROLL*5E
$PTAK,FFD1,6.2*51
$PGRME,3.3,M,2.5,M,4.2,M*2F
$IIRMC,190000,A,4743.580,N,12224.547,W,01.8,211,210413,16,E,A*17
$HCHDG,176.7,0.0,E,,*2E
$IIVHW,,,,,01.8,N,,*10
$HCHDG,176.5,0.0,E,,*2C
$IIVLW,06232,N,004.4,N*56
$GPRMC,190011.6,A,4743.57997,N,12224.54737,W,001.97,207.8,210413,016.6,E,D*2E
$PGRME,3.3,M,2.4,M,4.1,M*2D
$HCHDG,176.5,0.0,E,,*2C
$HCHDG,176.4,0.0,E,,*2D
$GPRMC,190011.8,A,4743.57988,N,12224.54746,W,002.05,209.6,210413,016.6,E,D*20
$PGRME,3.4,M,2.4,M,4.1,M*2A
$HCHDG,176.4,0.0,E,,*2D
$YXXDR,A,4.3,D,PTCH,A,6.0,D,ROLL*5C
$HCHDG,176.4,0.0,E,,*2D
$GPRMC,190012.0,A,4743.57979,N,12224.54754,W,002.05,212.7,210413,016.6,E,D*2D
$PGRME,3.4,M,2.4,M,4.1,M*2A
$HCHDG,176.7,0.0,E,,*2E
$HCHDG,176.7,0.0,E,,*2E
$IIGLL,4743.579,N,12224.547,W,190000,A,A*44
$GPRMC,190012.2,A,4743.57971,N,12224.54763,W,002.04,212.9,210413,016.6,E,D*2C
$PGRME,3.4,M,2.4,M,4.2,M*29
$IIMTW,+09.0,C*31
$HCHDG,176.5,0.0,E,,*2C
$IIRMB,A,0.02,L,,M   ,,,,,001.8,197,,V,A*2E
$HCHDG,176.3,0.0,E,,*2A
$GPRMC,190012.4,A,4743.57963,N,12224.54770,W,002.01,212.4,210413,016.6,E,D*23
$GPRMB,A,0.02,L,,M,4741.7720,N,12224.5760,W,1.8,197,2.01,V*47
$YXXDR,A,4.4,D,PTCH,A,5.7,D,ROLL*5F
$PTAK,FFD1,5.7*57
$PGRME,3.4,M,2.4,M,4.2,M*29
$IIRMC,190000,A,4743.579,N,12224.547,W,02.0,209,210413,16,E,A*13
$HCHDG,176.4,0.0,E,,*2D
$IIVHW,,,,,01.8,N,,*10
$HCHDG,176.3,0.0,E,,*2A
$IIVLW,06232,N,004.4,N*56
$GPRMC,190012.6,A,4743.57955,N,12224.54776,W,001.81,207.7,210413,016.6,E,D*2E
$PGRME,3.4,M,2.4,M,4.2,M*29
$HCHDG,176.2,0.0,E,,*2B
$HCHDG,176.1,0.0,E,,*28
$GPRMC,190012.8,A,4743.57944,N,12224.54782,W,001.87,206.0,210413,016.6,E,D*2B
$PGRME,3.4,M,2.4,M,4.2,M*29
$HCHDG,175.8,0.0,E,,*22
$YXXDR,A,4.5,D,PTCH,A,5.8,D,ROLL*51
$HCHDG,175.6,0.0,E,,*2C
$GPRMC,190013.0,A,4743.57929,N,12224.54790,W,002.10,207.0,210413,016.6,E,D*26
$PGRME,3.4,M,2.4,M,4.2,M*29
$HCHDG,175.6,0.0,E,,*2C
$PTAK,FFP1,HEEL,@*07
$HCHDG,175.7,0.0,E,,*2D
$IIGLL,4743.579,N,12224.547,W,190000,A,A*44
$GPRMC,190013.2,A,4743.57916,N,12224.54794,W,002.09,208.1,210413,016.6,E,D*2A
$PGRME,3.4,M,2.4,M,4.2,M*29
$IIMTW,+09.0,C*31
$HCHDG,175.5,0.0,E,,*2F
$IIRMB,A,0.02,L,,M   ,,,,,001.8,197,,V,A*2E
$HCHDG,175.4,0.0,E,,*2E
$GPRMC,190013.4,A,4743.57910,N,12224.54799,W,001.87,207.8,210413,016.6,E,D*24
$GPRMB,A,0.02,L,,M,4741.7720,N,12224.5760,W,1.8,197,1.86,V*4B
$PGRME,3.4,M,2.4,M,4.2,M*29
$YXXDR,A,4.2,D,PTCH,A,5.9,D,ROLL*57
$PTAK,FFD1,5.9*59
$IIRMC,190000,A,4743.579,N,12224.547,W,01.8,206,210413,16,E,A*17
$HCHDG,175.5,0.0,E,,*2F
$IIVHW,,,,,01.8,N,,*10
$HCHDG,175.3,0.0,E,,*29
$IIVLW,06232,N,004.4,N*56
$GPRMC,190013.6,A,4743.57902,N,12224.54804,W,001.82,210.5,210413,016.6,E,D*20
$PGRME,3.4,M,2.4,M,4.2,M*29
$HCHDG,175.3,0.0,E,,*29
$HCHDG,175.3,0.0,E,,*29
$GPRMC,190013.8,A,4743.57889,N,12224.54807,W,001.84,208.4,210413,016.6,E,D*21
$PGRME,3.4,M,2.4,M,4.2,M*29
$HCHDG,175.3,0.0,E,,*29
$YXXDR,A,4.7,D,PTCH,A,6.2,D,ROLL*5A
$HCHDG,175.3,0.0,E,,*29
$GPRMC,190014.0,A,4743.57875,N,12224.54807,W,001.85,209.9,210413,016.6,E,D*20
$PGRME,3.4,M,2.4,M,4.2,M*29
$HCHDG,175.1,0.0,E,,*2B
$HCHDG,175.1,0.0,E,,*2B
$IIGLL,4743.578,N,12224.548,W,190000,A,A*4A
$GPRMC,190014.2,A,4743.57863,N,12224.54810,W,001.86,209.5,210413,016.6,E,D*2C
$PGRME,3.4,M,2.4,M,4.2,M*29
$IIMTW,+09.0,C*31
$HCHDG,174.9,0.0,E,,*22
$IIRMB,A,0.02,L,,M   ,,,,,001.8,197,,V,A*2E
$HCHDG,174.8,0.0,E,,*23
$GPRMC,190014.4,A,4743.57850,N,12224.54811,W,001.89,207.6,210413,016.6,E,D*29
$GPRMB,A,0.02,L,,M,4741.7720,N,12224.5760,W,1.8,197,1.88,V*45
$YXXDR,A,4.7,D,PTCH,A,6.7,D,ROLL*5F
$PGRME,3.4,M,2.4,M,4.2,M*29
$IIRMC,190000,A,4743.578,N,12224.548,W,01.8,208,210413,16,E,A*17
$HCHDG,174.6,0.0,E,,*2D
$IIVHW,,,,,01.7,N,,*1F
$HCHDG,174.5,0.0,E,,*2E
$IIVLW,06232,N,004.4,N*56
$GPRMC,190014.6,A,4743.57835,N,12224.54813,W,001.92,205.1,210413,016.6,E,D*25
$PGRME,3.4,M,2.4,M,4.2,M*29
$HCHDG,174.5,0.0,E,,*2E
$HCHDG,174.3,0.0,E,,*28
$GPRMC,190014.8,A,4743.57824,N,12224.54812,W,001.69,204.4,210413,016.6,E,D*2A
$PGRME,3.4,M,2.4,M,4.2,M*29
$HCHDG,174.4,0.0,E,,*2F
$YXXDR,A,4.6,D,PTCH,A,6.9,D,ROLL*50
$PTAK,FFD1,6.9*5A
$HCHDG,174.1,0.0,E,,*2A
$GPRMC,190015.0,A,4743.57814,N,12224.54813,W,001.68,203.0,210413,016.6,E,D*23
$PGRME,3.4,M,2.4,M,4.2,M*29
$HCHDG,174.3,0.0,E,,*28
$HCHDG,174.6,0.0,E,,*2D
$IIGLL,4743.578,N,12224.548,W,190000,A,A*4A
$GPRMC,190015.2,A,4743.57802,N,12224.54814,W,001.75,208.6,210413,016.6,E,D*20
$PGRME,3.4,M,2.4,M,4.2,M*29
$IIMTW,+09.0,C*31
$HCHDG,174.5,0.0,E,,*2E
$IIRMB,A,0.02,L,,M   ,,,,,001.8,197,,V,A*2E
$HCHDG,174.8,0.0,E,,*23
$GPRMC,190015.4,A,4743.57793,N,12224.54815,W,001.74,208.4,210413,016.6,E,D*23
$YXXDR,A,4.5,D,PTCH,A,5.7,D,ROLL*5E
$PGRME,3.4,M,2.4,M,4.2,M*29
$IIRMC,190000,A,4743.578,N,12224.548,W,01.6,204,210413,16,E,A*15
$HCHDG,174.7,0.0,E,,*2C
$IIVHW,,,,,01.8,N,,*10
$HCHDG,175.0,0.0,E,,*2A
$IIVLW,06232,N,004.4,N*56
$GPRMC,190015.6,A,4743.57782,N,12224.54821,W,001.80,208.3,210413,016.6,E,D*2A
$GPRMB,A,0.02,L,,M,4741.7720,N,12224.5760,W,1.8,197,1.79,V*4B
$PGRME,3.4,M,2.4,M,4.2,M*29
$HCHDG,174.9,0.0,E,,*22
$HCHDG,175.1,0.0,E,,*2B
$GPRMC,190015.8,A,4743.57773,N,12224.54826,W,001.75,208.2,210413,016.6,E,D*26
$PGRME,3.4,M,2.4,M,4.2,M*29
$HCHDG,175.0,0.0,E,,*2A
$YXXDR,A,4.5,D,PTCH,A,5.6,D,ROLL*5F
$HCHDG,175.0,0.0,E,,*2A
$GPRMC,190016.0,A,4743.57760,N,12224.54827,W,001.77,208.2,210413,016.6,E,D*2C
$PGRME,3.4,M,2.4,M,4.2,M*29
$HCHDG,175.0,0.0,E,,*2A
$HCHDG,175.0,0.0,E,,*2A
$IIGLL,4743.578,N,12224.548,W,190000,A,A*4A
$GPRMC,190016.2,A,4743.57745,N,12224.54825,W,001.79,208.3,210413,016.6,E,D*24
$PGRME,3.4,M,2.4,M,4.2,M*29
$IIMTW,+09.0,C*31
$HCHDG,175.1,0.0,E,,*2B
$IIRMB,A,0.02,L,,M   ,,,,,001.8,197,,V,A*2E
$HCHDG,175.2,0.0,E,,*28
$YXXDR,A,4.5,D,PTCH,A,6.5,D,ROLL*5F
$PTAK,FFD1,6.5*56
$GPRMC,190016.4,A,4743.57737,N,12224.54823,W,001.77,208.2,210413,016.6,E,D*2E
$PGRME,3.5,M,2.4,M,4.2,M*28
$IIRMC,190000,A,4743.578,N,12224.548,W,01.6,204,210413,16,E,A*15
$HCHDG,175.3,0.0,E,,*29
$IIVHW,,,,,01.8,N,,*10
$HCHDG,175.1,0.0,E,,*2B
$IIVLW,06232,N,004.4,N*56
$GPRMC,190016.6,A,4743.57733,N,12224.54832,W,001.73,208.1,210413,016.6,E,D*2F
$GPRMB,A,0.02,L,,M,4741.7720,N,12224.5760,W,1.8,197,1.72,V*40
$PGRME,3.5,M,2.4,M,4.2,M*28
$HCHDG,175.3,0.0,E,,*29
$HCHDG,175.4,0.0,E,,*2E
$GPRMC,190016.8,A,4743.57732,N,12224.54844,W,001.74,208.4,210413,016.6,E,D*23
$PGRME,3.5,M,2.4,M,4.2,M*28
$HCHDG,175.2,0.0,E,,*28
$YXXDR,A,4.4,D,PTCH,A,6.4,D,ROLL*5F
$HCHDG,175.4,0.0,E,,*2E
$GPRMC,190017.0,A,4743.57724,N,12224.54853,W,001.90,208.7,210413,016.6,E,D*22
$PGRME,3.5,M,2.4,M,4.2,M*28
$HCHDG,175.4,0.0,E,,*2E
$PTAK,FFP1,HEEL,@*07
$HCHDG,175.8,0.0,E,,*22
$IIGLL,4743.577,N,12224.548,W,190000,A,A*45
$GPRMC,190017.2,A,4743.57714,N,12224.54863,W,002.10,209.0,210413,016.6,E,D*2D
$PGRME,3.5,M,2.4,M,4.2,M*28
$IIMTW,+09.0,C*31
$HCHDG,175.9,0.0,E,,*23
$IIRMB,A,0.02,L,,M   ,,,,,001.8,197,,V,A*2E
$HCHDG,176.2,0.0,E,,*2B
$YXXDR,A,4.5,D,PTCH,A,5.8,D,ROLL*51
$GPRMC,190017.4,A,4743.57705,N,12224.54872,W,001.88,209.1,210413,016.6,E,D*28
$PGRME,3.5,M,2.4,M,4.2,M*28
$IIRMC,190000,A,4743.577,N,12224.548,W,01.7,208,210413,16,E,A*17
$HCHDG,176.2,0.0,E,,*2B
$IIVHW,,,,,01.8,N,,*10
$HCHDG,176.3,0.0,E,,*2A
$IIVLW,06232,N,004.4,N*56
$GPRMC,190017.6,A,4743.57696,N,12224.54882,W,001.94,209.5,210413,016.6,E,D*27
$GPRMB,A,0.02,L,,M,4741.7720,N,12224.5760,W,1.8,197,1.93,V*4F
$PGRME,3.5,M,2.4,M,4.2,M*28
$HCHDG,176.5,0.0,E,,*2C
$HCHDG,176.6,0.0,E,,*2F
$GPRMC,190017.8,A,4743.57690,N,12224.54898,W,001.90,209.6,210413,016.6,E,D*23
$PGRME,3.5,M,2.4,M,4.2,M*28
$HCHDG,176.8,0.0,E,,*21
$YXXDR,A,4.4,D,PTCH,A,5.0,D,ROLL*58
$PTAK,FFD1,5.0*50
$HCHDG,177.1,0.0,E,,*29
$GPRMC,190018.0,A,4743.57681,N,12224.54908,W,001.92,209.6,210413,016.6,E,D*2E
$PGRME,3.5,M,2.4,M,4.2,M*28
$HCHDG,177.0,0.0,E,,*28
$HCHDG,176.9,0.0,E,,*20
$IIGLL,4743.576,N,12224.548,W,190000,A,A*44
$GPRMC,190018.2,A,4743.57670,N,12224.54914,W,001.97,209.6,210413,016.6,E,D*2A
$PGRME,3.5,M,2.4,M,4.2,M*28
$IIMTW,+09.0,C*31
$HCHDG,176.8,0.0,E,,*21
$IIRMB,A,0.02,L,,M   ,,,,,001.8,197,,V,A*2E
$HCHDG,176.5,0.0,E,,*2C
$YXXDR,A,4.3,D,PTCH,A,5.5,D,ROLL*5A
$GPRMC,190018.4,A,4743.57660,N,12224.54923,W,001.99,209.6,210413,016.6,E,D*27
$PGRME,3.5,M,2.4,M,4.3,M*29
$IIRMC,190000,A,4743.576,N,12224.548,W,01.9,209,210413,16,E,A*19
$HCHDG,176.5,0.0,E,,*2C
$IIVHW,,,,,01.8,N,,*10
$HCHDG,176.5,0.0,E,,*2C
$IIVLW,06232,N,004.4,N*56
$GPRMC,190018.6,A,4743.57650,N,12224.54931,W,002.00,209.4,210413,016.6,E,D*24
$PGRME,3.5,M,2.4,M,4.3,M*29
$HCHDG,176.1,0.0,E,,*28
$HCHDG,176.2,0.0,E,,*2B
$GPRMC,190018.8,A,4743.57643,N,12224.54944,W,002.02,209.4,210413,016.6,E,D*28
$GPRMB,A,0.02,L,,M,4741.7720,N,12224.5760,W,1.8,197,2.01,V*47
$PGRME,3.5,M,2.4,M,4.3,M*29
$HCHDG,176.3,0.0,E,,*2A
$YXXDR,A,4.4,D,PTCH,A,6.0,D,ROLL*5B
$PTAK,FFD1,6.0*53
$HCHDG,176.0,0.0,E,,*29
$GPRMC,190019.0,A,4743.57632,N,12224.54951,W,002.04,209.3,210413,016.6,E,D*22
$PGRME,3.5,M,2.4,M,4.3,M*29
$HCHDG,176.1,0.0,E,,*28
$HCHDG,176.0,0.0,E,,*29
$IIGLL,4743.576,N,12224.549,W,190000,A,A*45
$GPRMC,190019.2,A,4743.57623,N,12224.54960,W,002.04,209.4,210413,016.6,E,D*25
$PGRME,3.5,M,2.4,M,4.3,M*29
$IIMTW,+09.0,C*31
$HCHDG,176.2,0.0,E,,*2B
$IIRMB,A,0.02,L,,M   ,,,,,001.8,197,,V,A*2E
$HCHDG,176.1,0.0,E,,*28
$GPRMC,190019.4,A,4743.57613,N,12224.54967,W,002.04,209.4,210413,016.6,E,D*27
$YXXDR,A,4.3,D,PTCH,A,5.8,D,ROLL*57
$PGRME,3.5,M,2.4,M,4.3,M*29
$IIRMC,190000,A,4743.576,N,12224.549,W,02.0,209,210413,16,E,A*12
$HCHDG,176.3,0.0,E,,*2A
$IIVHW,,,,,01.7,N,,*1F
$HCHDG,176.3,0.0,E,,*2A
$IIVLW,06232,N,004.4,N*56
$GPRMC,190019.6,A,4743.57608,N,12224.54978,W,002.02,209.6,210413,016.6,E,D*25
$PGRME,3.5,M,2.4,M,4.3,M*29
$HCHDG,176.3,0.0,E,,*2A
$HCHDG,176.4,0.0,E,,*2D
$GPRMC,190019.8,A,4743.57598,N,12224.54991,W,002.01,209.8,210413,016.6,E,D*2B
$PGRME,3.5,M,2.4,M,4.3,M*29
$HCHDG,176.5,0.0,E,,*2C
$YXXDR,A,4.6,D,PTCH,A,5.2,D,ROLL*58
$PTAK,FFD1,5.2*52
$HCHDG,176.7,0.0,E,,*2E
$GPRMC,190020.0,A,4743.57585,N,12224.54998,W,002.25,206.1,210413,016.6,E,D*2C
$GPRMB,A,0.02,L,,M,4741.7720,N,12224.5760,W,1.8,197,2.23,V*47
$PGRME,3.5,M,2.4,M,4.3,M*29
$HCHDG,176.6,0.0,E,,*2F
$HCHDG,176.8,0.0,E,,*21
$IIGLL,4743.575,N,12224.549,W,190000,A,A*46
$GPRMC,190020.2,A,4743.57576,N,12224.55015,W,002.29,210.2,210413,016.6,E,D*27
$PGRME,3.5,M,2.4,M,4.3,M*29
$IIMTW,+09.0,C*31
$HCHDG,177.0,0.0,E,,*28
$IIRMB,A,0.02,L,,M   ,,,,,001.8,197,,V,A*2E
$HCHDG,177.0,0.0,E,,*28
$GPRMC,190020.4,A,4743.57562,N,12224.55021,W,002.32,210.1,210413,016.6,E,D*2A
$PGRME,3.5,M,2.4,M,4.3,M*29
$YXXDR,A,4.4,D,PTCH,A,4.8,D,ROLL*51
$IIRMC,190000,A,4743.575,N,12224.549,W,02.0,209,210413,16,E,A*11
$HCHDG,177.1,0.0,E,,*29
$IIVHW,,,,,01.7,N,,*1F
$HCHDG,177.0,0.0,E,,*28
$IIVLW,06232,N,004.4,N*56
$GPRMC,190020.6,A,4743.57553,N,12224.55031,W,002.28,209.9,210413,016.6,E,D*20
$PGRME,3.5,M,2.4,M,4.3,M*29
$HCHDG,177.1,0.0,E,,*29
$HCHDG,177.1,0.0,E,,*29
$GPRMC,190020.8,A,4743.57545,N,12224.55041,W,002.11,210.4,210413,016.6,E,D*21
$PGRME,3.5,M,2.4,M,4.3,M*29
$HCHDG,176.8,0.0,E,,*21
$YXXDR,A,4.5,D,PTCH,A,5.6,D,ROLL*5F
$HCHDG,176.8,0.0,E,,*21
$GPRMC,190021.0,A,4743.57535,N,12224.55049,W,002.10,209.0,210413,016.6,E,D*2A
$PGRME,3.5,M,2.4,M,4.3,M*29
$HCHDG,176.8,0.0,E,,*21
$HCHDG,176.8,0.0,E,,*21
$PTAK,FFP1,HEEL,@*07
$IIGLL,4743.575,N,12224.550,W,190000,A,A*4E
$GPRMC,190021.2,A,4743.57527,N,12224.55056,W,002.04,209.8,210413,016.6,E,D*28
$PGRME,3.5,M,2.4,M,4.3,M*29
$IIMTW,+09.0,C*31
$HCHDG,176.8,0.0,E,,*21
$IIRMB,A,0.02,L,,M   ,,,,,001.8,197,,V,A*2E
$HCHDG,176.9,0.0,E,,*20
$GPRMC,190021.4,A,4743.57520,N,12224.55064,W,002.25,213.7,210413,016.6,E,D*2F
$GPRMB,A,0.02,L,,M,4741.7720,N,12224.5760,W,1.8,197,2.25,V*41
$YXXDR,A,4.3,D,PTCH,A,5.8,D,ROLL*57
$PTAK,FFD1,5.8*58
$PGRME,3.5,M,2.4,M,4.3,M*29
$IIRMC,190000,A,4743.575,N,12224.550,W,02.1,210,210413,16,E,A*10
$HCHDG,176.6,0.0,E,,*2F
$IIVHW,,,,,01.7,N,,*1F
$HCHDG,176.6,0.0,E,,*2F
$IIVLW,06232,N,004.4,N*56
$GPRMC,190021.6,A,4743.57511,N,12224.55074,W,002.24,213.0,210413,016.6,E,D*28
$PGRME,3.5,M,2.4,M,4.3,M*29
$HCHDG,176.5,0.0,E,,*2C
$HCHDG,176.3,0.0,E,,*2A
$GPRMC,190021.8,A,4743.57504,N,12224.55082,W,002.17,212.6,210413,016.6,E,D*2C
$PGRME,3.6,M,2.4,M,4.3,M*2A
$HCHDG,176.2,0.0,E,,*2B
$YXXDR,A,4.4,D,PTCH,A,6.9,D,ROLL*52
$HCHDG,175.9,0.0,E,,*23
$GPRMC,190022.0,A,4743.57495,N,12224.55090,W,001.75,209.8,210413,016.6,E,D*2E
$PGRME,3.6,M,2.4,M,4.3,M*2A
$HCHDG,176.0,0.0,E,,*29
$HCHDG,175.7,0.0,E,,*2D
$IIGLL,4743.575,N,12224.550,W,190000,A,A*4E
$GPRMC,190022.2,A,4743.57488,N,12224.55097,W,001.74,210.6,210413,016.6,E,D*20
$PGRME,3.6,M,2.4,M,4.3,M*2A
$IIMTW,+09.0,C*31
$HCHDG,175.8,0.0,E,,*22
$IIRMB,A,0.02,L,,M   ,,,,,001.8,197,,V,A*2E
$HCHDG,175.5,0.0,E,,*2F
$YXXDR,A,4.4,D,PTCH,A,6.5,D,ROLL*5E
$GPRMC,190022.4,A,4743.57482,N,12224.55102,W,001.73,207.8,210413,016.6,E,D*2E
$GPRMB,A,0.02,L,,M,4741.7720,N,12224.5760,W,1.8,197,1.72,V*40
$PGRME,3.6,M,2.4,M,4.3,M*2A
$IIRMC,190000,A,4743.575,N,12224.550,W,02.1,212,210413,16,E,A*12
$HCHDG,175.5,0.0,E,,*2F
$IIVHW,,,,,01.7,N,,*1F
$HCHDG,175.5,0.0,E,,*2F
$IIVLW,06232,N,004.4,N*56
$GPRMC,190022.6,A,4743.57472,N,12224.55104,W,001.72,210.4,210413,016.6,E,D*2E
$PGRME,3.6,M,2.4,M,4.3,M*2A
$HCHDG,175.5,0.0,E,,*2F
$HCHDG,175.5,0.0,E,,*2F
$GPRMC,190022.8,A,4743.57463,N,12224.55107,W,001.77,208.2,210413,016.6,E,D*29
$PGRME,3.6,M,2.4,M,4.3,M*2A
$HCHDG,175.7,0.0,E,,*2D
$YXXDR,A,4.5,D,PTCH,A,5.5,D,ROLL*5C
$PTAK,FFD1,5.5*55
$HCHDG,175.6,0.0,E,,*2C
$GPRMC,190023.0,A,4743.57456,N,12224.55113,W,001.75,207.0,210413,016.6,E,D*2C
$PGRME,3.6,M,2.4,M,4.3,M*2A
$HCHDG,175.8,0.0,E,,*22
$HCHDG,175.9,0.0,E,,*23
$IIGLL,4743.574,N,12224.551,W,190000,A,A*4E
$GPRMC,190023.2,A,4743.57447,N,12224.55115,W,001.73,209.8,210413,016.6,E,D*28
$PGRME,3.6,M,2.4,M,4.3,M*2A
$IIMTW,+09.0,C*31
$HCHDG,175.9,0.0,E,,*23
$IIRMB,A,0.02,L,,M   ,,,,,001.8,197,,V,A*2E
$HCHDG,176.1,0.0,E,,*28
$YXXDR,A,4.4,D,PTCH,A,4.4,D,ROLL*5D
$GPRMC,190023.4,A,4743.57438,N,12224.55124,W,002.21,213.0,210413,016.6,E,D*23
$PGRME,3.6,M,2.4,M,4.3,M*2A
$IIRMC,190000,A,4743.574,N,12224.551,W,01.7,208,210413,16,E,A*1C
$HCHDG,175.8,0.0,E,,*22
$IIVHW,,,,,01.7,N,,*1F
$HCHDG,175.9,0.0,E,,*23
$IIVLW,06232,N,004.4,N*56
$GPRMC,190023.6,A,4743.57427,N,12224.55132,W,002.21,211.3,210413,016.6,E,D*29
$GPRMB,A,0.02,L,,M,4741.7720,N,12224.5760,W,1.8,197,2.21,V*45
$PGRME,3.6,M,2.4,M,4.3,M*2A
$HCHDG,175.7,0.0,E,,*2D
$HCHDG,175.9,0.0,E,,*23
$GPRMC,190023.8,A,4743.57412,N,12224.55136,W,002.19,212.0,210413,016.6,E,D*2E
$PGRME,3.6,M,2.4,M,4.3,M*2A
$HCHDG,175.4,0.0,E,,*2E
$YXXDR,A,4.3,D,PTCH,A,5.2,D,ROLL*5D
$PTAK,FFD1,5.2*52
$HCHDG,175.2,0.0,E,,*28
$GPRMC,190024.0,A,4743.57398,N,12224.55141,W,002.15,210.9,210413,016.6,E,D*23
$PGRME,3.6,M,2.4,M,4.3,M*2A
$HCHDG,174.9,0.0,E,,*22
$HCHDG,174.4,0.0,E,,*2F
$IIGLL,4743.574,N,12224.551,W,190000,A,A*4E
$GPRMC,190024.2,A,4743.57388,N,12224.55146,W,001.89,209.4,210413,016.6,E,D*24
$PGRME,3.6,M,2.4,M,4.3,M*2A
$IIMTW,+09.0,C*31
$HCHDG,174.1,0.0,E,,*2A
$IIRMB,A,0.02,L,,M   ,,,,,001.8,197,,V,A*2E
$HCHDG,173.7,0.0,E,,*2B
$YXXDR,A,4.3,D,PTCH,A,6.3,D,ROLL*5F
$GPRMC,190024.4,A,4743.57381,N,12224.55149,W,001.58,205.1,210413,016.6,E,D*21
$PGRME,3.6,M,2.4,M,4.4,M*2D
$IIRMC,190000,A,4743.574,N,12224.551,W,01.7,208,210413,16,E,A*1C
$HCHDG,173.6,0.0,E,,*2A
$IIVHW,,,,,01.8,N,,*10
$HCHDG,173.4,0.0,E,,*28
$IIVLW,06232,N,004.4,N*56
$GPRMC,190024.6,A,4743.57371,N,12224.55154,W,001.61,209.7,210413,016.6,E,D*20
$GPRMB,A,0.02,L,,M,4741.7720,N,12224.5760,W,1.8,197,1.61,V*42
$PGRME,3.6,M,2.4,M,4.4,M*2D
$HCHDG,173.4,0.0,E,,*28
$HCHDG,173.3,0.0,E,,*2F
$GPRMC,190024.8,A,4743.57358,N,12224.55158,W,001.88,209.3,210413,016.6,E,D*2A
$PGRME,3.6,M,2.4,M,4.4,M*2D
$HCHDG,173.4,0.0,E,,*28
$YXXDR,A,4.5,D,PTCH,A,5.8,D,ROLL*51
$PTAK,FFD1,5.8*58
$HCHDG,173.6,0.0,E,,*2A
$GPRMC,190025.0,A,4743.57342,N,12224.55155,W,001.91,209.1,210413,016.6,E,D*2F
$PGRME,3.6,M,2.4,M,4.4,M*2D
$HCHDG,173.7,0.0,E,,*2B
$HCHDG,173.8,0.0,E,,*24
$PTAK,FFP1,HEEL,@*07
$GPRMC,190025.2,A,4743.57332,N,12224.55159,W,001.92,208.8,210413,016.6,E,D*2D
$PGRME,3.6,M,2.4,M,4.4,M*2D
$HCHDG,173.9,0.0,E,,*25
$HCHDG,174.1,0.0,E,,*2A
$YXXDR,A,4.2,D,PTCH,A,4.2,D,ROLL*5D
$GPRMC,190025.4,A,4743.57325,N,12224.55165,W,001.99,203.4,210413,016.6,E,D*2E
$PGRME,3.6,M,2.4,M,4.4,M*2D
$HCHDG,173.9,0.0,E,,*25
$HCHDG,174.0,0.0,E,,*2B
$GPRMC,190025.6,A,4743.57319,N,12224.55169,W,002.02,205.2,210413,016.6,E,D*2E
$PGRME,3.6,M,2.4,M,4.4,M*2D
$HCHDG,173.9,0.0,E,,*25
$HCHDG,173.8,0.0,E,,*24
$GPRMC,190025.8,A,4743.57308,N,12224.55170,W,002.00,201.5,210413,016.6,E,D*29
$GPRMB,A,0.02,L,,M,4741.7720,N,12224.5760,W,1.8,197,1.95,V*49
$PGRME,3.6,M,2.4,M,4.4,M*2D
$HCHDG,174.0,0.0,E,,*2B
$YXXDR,A,4.6,D,PTCH,A,4.8,D,ROLL*53
$PTAK,FFD1,4.8*59
$HCHDG,174.0,0.0,E,,*2B
$GPRMC,190026.0,A,4743.57297,N,12224.55174,W,002.22,203.2,210413,016.6,E,D*24
$PGRME,3.6,M,2.4,M,4.4,M*2D
$HCHDG,173.9,0.0,E,,*25
$HCHDG,173.9,0.0,E,,*25
$GPRMC,190026.2,A,4743.57287,N,12224.55187,W,002.22,201.7,210413,016.6,E,D*2C
$PGRME,3.6,M,2.4,M,4.4,M*2D
$HCHDG,173.7,0.0,E,,*2B
$HCHDG,173.7,0.0,E,,*2B
$YXXDR,A,4.5,D,PTCH,A,5.5,D,ROLL*5C
$GPRMC,190026.4,A,4743.57277,N,12224.55199,W,002.25,203.0,210413,016.6,E,D*28
$PGRME,3.6,M,2.4,M,4.4,M*2D
$HCHDG,173.7,0.0,E,,*2B
$HCHDG,173.7,0.0,E,,*2B
$GPRMC,190026.6,A,4743.57263,N,12224.55204,W,002.23,201.0,210413,016.6,E,D*2C
$PGRME,3.6,M,2.4,M,4.4,M*2D
$HCHDG,173.5,0.0,E,,*29
$HCHDG,173.4,0.0,E,,*28
$GPRMC,190026.8,A,4743.57243,N,12224.55205,W,002.28,202.3,210413,016.6,E,D*2A
$GPRMB,A,0.02,L,,M,4741.7720,N,12224.5760,W,1.8,197,2.23,V*47
$PGRME,3.6,M,2.4,M,4.4,M*2D
$HCHDG,173.5,0.0,E,,*29
$YXXDR,A,4.5,D,PTCH,A,5.6,D,ROLL*5F
$PTAK,FFD1,5.6*56
$HCHDG,173.4,0.0,E,,*28
$GPRMC,190027.0,A,4743.57229,N,12224.55211,W,002.24,204.2,210413,016.6,E,D*21
$PGRME,3.6,M,2.4,M,4.4,M*2D
$HCHDG,173.4,0.0,E,,*28
$HCHDG,173.3,0.0,E,,*2F
$IIGLL,4743.574,N,12224.551,W,190000,A,A*4E
$GPRMC,190027.2,A,4743.57213,N,12224.55214,W,002.25,201.6,210413,016.6,E,D*2F
$PGRME,3.6,M,2.4,M,4.4,M*2D
$IIMTW,+09.0,C*31
$HCHDG,173.4,0.0,E,,*28
$IIRMB,A,0.02,L,,M   ,,,,,001.8,197,,V,A*2E
$HCHDG,173.4,0.0,E,,*28
$GPRMC,190027.4,A,4743.57200,N,12224.55215,W,002.21,206.2,210413,016.6,E,D*2D
$YXXDR,A,4.4,D,PTCH,A,5.7,D,ROLL*5F
$PGRME,3.7,M,2.4,M,4.4,M*2C
$IIRMC,190000,A,4743.574,N,12224.551,W,02.1,212,210413,16,E,A*12
$HCHDG,173.4,0.0,E,,*28
$IIVHW,,,,,01.8,N,,*10
$HCHDG,173.4,0.0,E,,*28
$IIVLW,06232,N,004.4,N*56
$GPRMC,190027.6,A,4743.57195,N,12224.55222,W,001.91,207.8,210413,016.6,E,D*27
$PGRME,3.7,M,2.4,M,4.4,M*2C
$HCHDG,173.5,0.0,E,,*29
$IIGLL,4743.573,N,12224.551,W,190000,A,A*49
$IIMTW,+09.0,C*31
$HCHDG,173.4,0.0,E,,*28
$GPRMC,190027.8,A,4743.57185,N,12224.55230,W,001.90,211.4,210413,016.6,E,D*21
$PGRME,3.7,M,2.4,M,4.4,M*2C
$HCHDG,173.2,0.0,E,,*2E
$YXXDR,A,4.5,D,PTCH,A,5.8,D,ROLL*51
$HCHDG,173.4,0.0,E,,*28
$GPRMC,190028.0,A,4743.57178,N,12224.55239,W,001.87,213.6,210413,016.6,E,D*2B
$GPRMB,A,0.02,L,,M,4741.7720,N,12224.5760,W,1.8,197,1.87,V*4A
$PGRME,3.7,M,2.4,M,4.4,M*2C
$HCHDG,173.1,0.0,E,,*2D
$HCHDG,172.7,0.0,E,,*2A
$IIRMB,A,0.02,L,,M   ,,,,,001.8,197,,V,A*2E
$GPRMC,190028.2,A,4743.57171,N,12224.55247,W,001.66,206.9,210413,016.6,E,D*2D
$PGRME,3.7,M,2.4,M,4.4,M*2C
$HCHDG,172.8,0.0,E,,*25
$IIRMC,190000,A,4743.571,N,12224.552,W,01.9,211,210413,16,E,A*1C
$HCHDG,172.7,0.0,E,,*2A
$IIVHW,,,,,01.8,N,,*10
$YXXDR,A,4.6,D,PTCH,A,7.4,D,ROLL*5C
$PTAK,FFD1,7.4*56
$GPRMC,190028.4,A,4743.57162,N,12224.55252,W,001.94,205.5,210413,016.6,E,D*2F
$PGRME,3.7,M,2.4,M,4.4,M*2C
$IIVLW,06232,N,004.4,N*56
$HCHDG,172.2,0.0,E,,*2F
$IIGLL,4743.571,N,12224.552,W,190000,A,A*48
$HCHDG,172.0,0.0,E,,*2D
$IIMTW,+09.0,C*31
$GPRMC,190028.6,A,4743.57153,N,12224.55262,W,001.89,202.8,210413,016.6,E,D*2A
$PGRME,3.7,M,2.4,M,4.4,M*2C
$HCHDG,172.1,0.0,E,,*2C
$HCHDG,171.9,0.0,E,,*27
$GPRMC,190028.8,A,4743.57145,N,12224.55272,W,001.86,204.0,210413,016.6,E,D*23
$PGRME,3.7,M,2.4,M,4.4,M*2C
$HCHDG,171.9,0.0,E,,*27
$YXXDR,A,4.6,D,PTCH,A,7.1,D,ROLL*59
$HCHDG,171.6,0.0,E,,*28
$GPRMC,190029.0,A,4743.57132,N,12224.55282,W,001.87,204.6,210413,016.6,E,D*22
$PGRME,3.7,M,2.4,M,4.4,M*2C
$HCHDG,171.8,0.0,E,,*26
$HCHDG,171.7,0.0,E,,*29
$PTAK,FFP1,HEEL,@*07
$IIRMB,A,0.02,L,,M   ,,,,,001.8,197,,V,A*2E
$GPRMC,190029.2,A,4743.57119,N,12224.55291,W,001.94,203.9,210413,016.6,E,D*21
$GPRMB,A,0.02,L,,M,4741.7720,N,12224.5760,W,1.8,197,1.91,V*4D
$PGRME,3.7,M,2.4,M,4.4,M*2C
$HCHDG,171.6,0.0,E,,*28
$IIRMC,190000,A,4743.571,N,12224.552,W,01.8,204,210413,16,E,A*19
$HCHDG,171.8,0.0,E,,*26
$IIVHW,,,,,01.8,N,,*10
$YXXDR,A,4.5,D,PTCH,A,5.3,D,ROLL*5A
$PTAK,FFD1,5.3*53
$GPRMC,190029.4,A,4743.57107,N,12224.55299,W,001.95,207.8,210413,016.6,E,D*24
$PGRME,3.7,M,2.4,M,4.4,M*2C
$IIVLW,06232,N,004.4,N*56
$HCHDG,172.0,0.0,E,,*2D
$IIGLL,4743.571,N,12224.552,W,190000,A,A*48
$HCHDG,171.9,0.0,E,,*27
$IIMTW,+09.0,C*31
$GPRMC,190029.6,A,4743.57101,N,12224.55312,W,001.96,208.5,210413,016.6,E,D*23
$PGRME,3.7,M,2.4,M,4.4,M*2C
$HCHDG,172.1,0.0,E,,*2C
$HCHDG,172.2,0.0,E,,*2F
$GPRMC,190029.8,A,4743.57099,N,12224.55321,W,001.98,208.6,210413,016.6,E,D*20
$PGRME,3.7,M,2.4,M,4.4,M*2C
$HCHDG,172.2,0.0,E,,*2F
$YXXDR,A,4.6,D,PTCH,A,5.2,D,ROLL*58
$HCHDG,172.1,0.0,E,,*2C
$GPRMC,190030.0,A,4743.57100,N,12224.55332,W,002.01,206.4,210413,016.6,E,D*2C
$PGRME,3.7,M,2.4,M,4.4,M*2C
$HCHDG,172.0,0.0,E,,*2D
$HCHDG,171.9,0.0,E,,*27
$IIRMB,A,0.02,L,,M   ,,,,,001.8,197,,V,A*2E
$GPRMC,190030.2,A,4743.57095,N,12224.55335,W,001.98,205.5,210413,016.6,E,D*25
$PGRME,3.7,M,2.4,M,4.4,M*2C
$HCHDG,171.8,0.0,E,,*26
$IIRMC,190000,A,4743.570,N,12224.553,W,01.9,208,210413,16,E,A*14
$HCHDG,171.7,0.0,E,,*29
$IIVHW,,,,,01.8,N,,*10
$YXXDR,A,4.6,D,PTCH,A,6.2,D,ROLL*5B
$GPRMC,190030.4,A,4743.57090,N,12224.55338,W,002.00,206.9,210413,016.6,E,D*26
$GPRMB,A,0.02,L,,M,4741.7720,N,12224.5760,W,1.8,197,1.99,V*45
$PGRME,3.7,M,2.4,M,4.4,M*2C
$IIVLW,06232,N,004.4,N*56
$HCHDG,171.6,0.0,E,,*28
$IIGLL,4743.570,N,12224.553,W,190000,A,A*48
$HCHDG,171.2,0.0,E,,*2C
$IIMTW,+09.0,C*31
$GPRMC,190030.6,A,4743.57081,N,12224.55348,W,002.00,205.3,210413,016.6,E,D*2A
$PGRME,3.7,M,2.4,M,4.4,M*2C
$HCHDG,171.1,0.0,E,,*2F
$HCHDG,171.1,0.0,E,,*2F
$GPRMC,190030.8,A,4743.57070,N,12224.55354,W,001.99,200.3,210413,016.6,E,D*21
$PGRME,3.7,M,2.4,M,4.4,M*2C
$HCHDG,171.0,0.0,E,,*2E
$YXXDR,A,4.5,D,PTCH,A,6.2,D,ROLL*58
$PTAK,FFD1,6.2*51
$HCHDG,171.0,0.0,E,,*2E
$GPRMC,190031.0,A,4743.57059,N,12224.55359,W,001.97,206.2,210413,016.6,E,D*27
$PGRME,3.7,M,2.4,M,4.4,M*2C
$HCHDG,170.9,0.0,E,,*26
$HCHDG,170.8,0.0,E,,*27
$IIRMB,A,0.02,L,,M   ,,,,,001.8,197,,V,A*2E
$GPRMC,190031.2,A,4743.57052,N,12224.55359,W,001.98,203.7,210413,016.6,E,D*21
$PGRME,3.6,M,2.4,M,4.3,M*2A
$HCHDG,170.5,0.0,E,,*2A
$IIRMC,190000,A,4743.570,N,12224.553,W,01.9,200,210413,16,E,A*1C
$HCHDG,170.6,0.0,E,,*29
$IIVHW,,,,,01.8,N,,*10
$GPRMC,190031.4,A,4743.57044,N,12224.55361,W,001.97,198.2,210413,016.6,E,D*20
$YXXDR,A,4.5,D,PTCH,A,6.4,D,ROLL*5E
$PGRME,3.5,M,2.4,M,4.3,M*29
$IIVLW,06232,N,004.4,N*56
$HCHDG,170.3,0.0,E,,*2C
$IIGLL,4743.570,N,12224.553,W,190000,A,A*48
$HCHDG,170.4,0.0,E,,*2B
$IIMTW,+09.0,C*31
$GPRMC,190031.6,A,4743.57039,N,12224.55359,W,001.99,196.6,210413,016.6,E,D*27
$GPRMB,A,0.02,L,,M,4741.7720,N,12224.5760,W,1.8,197,1.90,V*4C
$PGRME,3.4,M,2.4,M,4.2,M*29
$HCHDG,170.4,0.0,E,,*2B
$HCHDG,170.4,0.0,E,,*2B
$GPRMC,190031.8,A,4743.57026,N,12224.55367,W,002.02,193.5,210413,016.6,E,D*2D
$PGRME,3.4,M,2.4,M,4.2,M*29
$HCHDG,170.3,0.0,E,,*2C
$YXXDR,A,4.5,D,PTCH,A,6.4,D,ROLL*5E
$HCHDG,170.2,0.0,E,,*2D
$GPRMC,190032.0,A,4743.57013,N,12224.55375,W,002.05,197.6,210413,016.6,E,D*23
$PGRME,3.4,M,2.4,M,4.2,M*29
$HCHDG,170.3,0.0,E,,*2C
$HCHDG,170.5,0.0,E,,*2A
$IIRMB,A,0.02,L,,M   ,,,,,001.8,197,,V,A*2E
$GPRMC,190032.2,A,4743.57000,N,12224.55380,W,002.21,202.8,210413,016.6,E,D*2E
$PGRME,3.4,M,2.4,M,4.2,M*29
$HCHDG,170.6,0.0,E,,*29
$IIRMC,190000,A,4743.570,N,12224.553,W,01.9,200,210413,16,E,A*1C
$HCHDG,171.1,0.0,E,,*2F
$IIVHW,,,,,01.8,N,,*10
$GPRMC,190032.4,A,4743.56988,N,12224.55389,W,002.16,201.7,210413,016.6,E,D*21
$YXXDR,A,4.5,D,PTCH,A,3.8,D,ROLL*57
$PTAK,FFD1,3.8*5E
$PGRME,3.4,M,2.4,M,4.1,M*2A
$IIVLW,06232,N,004.4,N*56
$HCHDG,171.3,0.0,E,,*2D
$IIGLL,4743.570,N,12224.553,W,190000,A,A*48
$HCHDG,171.7,0.0,E,,*29
$IIMTW,+09.0,C*31
$GPRMC,190032.6,A,4743.56972,N,12224.55403,W,002.34,203.4,210413,016.6,E,D*22
$PGRME,3.3,M,2.4,M,4.1,M*2D
$HCHDG,171.8,0.0,E,,*26
$HCHDG,171.9,0.0,E,,*27
$GPRMC,190032.8,A,4743.56953,N,12224.55425,W,002.12,204.1,210413,016.6,E,D*2D
$GPRMB,A,0.01,L,,M,4741.7720,N,12224.5760,W,1.8,197,2.09,V*4C
$PGRME,3.3,M,2.4,M,4.1,M*2D
$HCHDG,171.8,0.0,E,,*26
$YXXDR,A,4.4,D,PTCH,A,4.3,D,ROLL*5A
$HCHDG,171.7,0.0,E,,*29
$GPRMC,190033.0,A,4743.56936,N,12224.55446,W,002.11,208.3,210413,016.6,E,D*2F
$PGRME,3.3,M,2.4,M,4.1,M*2D
$HCHDG,171.7,0.0,E,,*29
$PTAK,FFP1,HEEL,@*07
$HCHDG,171.4,0.0,E,,*2A
$IIRMB,A,0.02,L,,M   ,,,,,001.8,197,,V,A*2E
$GPRMC,190033.2,A,4743.56920,N,12224.55458,W,002.15,202.4,210413,016.6,E,D*2C
$PGRME,3.3,M,2.4,M,4.1,M*2D
$HCHDG,171.1,0.0,E,,*2F
$IIRMC,190000,A,4743.569,N,12224.554,W,02.1,204,210413,16,E,A*1C
$HCHDG,170.9,0.0,E,,*26
$IIVHW,,,,,01.8,N,,*10
$GPRMC,190033.4,A,4743.56912,N,12224.55460,W,002.09,203.4,210413,016.6,E,D*2C
$YXXDR,A,4.6,D,PTCH,A,6.1,D,ROLL*58
$PTAK,FFD1,6.1*52
$PGRME,3.3,M,2.4,M,4.1,M*2D
$IIVLW,06232,N,004.4,N*56
$HCHDG,170.7,0.0,E,,*28
$IIGLL,4743.569,N,12224.554,W,190000,A,A*47
$HCHDG,170.3,0.0,E,,*2C
$IIMTW,+09.0,C*31
$GPRMC,190033.6,A,4743.56902,N,12224.55472,W,001.85,202.1,210413,016.6,E,D*2F
$PGRME,3.2,M,2.4,M,4.1,M*2C
$HCHDG,170.2,0.0,E,,*2D
$HCHDG,170.3,0.0,E,,*2C
$GPRMC,190033.8,A,4743.56891,N,12224.55477,W,001.92,202.2,210413,016.6,E,D*2A
$GPRMB,A,0.01,L,,M,4741.7720,N,12224.5760,W,1.8,197,1.88,V*46
$PGRME,3.2,M,2.4,M,4.0,M*2D
$HCHDG,170.1,0.0,E,,*2E
$YXXDR,A,4.6,D,PTCH,A,7.3,D,ROLL*5B
$HCHDG,169.9,0.0,E,,*2E
$GPRMC,190034.0,A,4743.56891,N,12224.55470,W,001.95,204.0,210413,016.6,E,D*21
$PGRME,3.2,M,2.4,M,4.0,M*2D
$HCHDG,170.0,0.0,E,,*2F
$HCHDG,169.8,0.0,E,,*2F
$IIRMB,A,0.01,L,,M   ,,,,,001.8,197,,V,A*2D
$GPRMC,190034.2,A,4743.56890,N,12224.55464,W,001.98,199.3,210413,016.6,E,D*2E
$PGRME,3.2,M,2.4,M,4.0,M*2D
$HCHDG,169.8,0.0,E,,*2F
$IIRMC,190000,A,4743.568,N,12224.554,W,01.9,202,210413,16,E,A*10
$HCHDG,169.8,0.0,E,,*2F
$IIVHW,,,,,01.8,N,,*10
$GPRMC,190034.4,A,4743.56890,N,12224.55460,W,001.95,198.5,210413,016.6,E,D*26
$PGRME,3.2,M,2.4,M,4.0,M*2D
$YXXDR,A,4.3,D,PTCH,A,6.8,D,ROLL*54
$PTAK,FFD1,6.8*5B
$IIVLW,06232,N,004.4,N*56
$HCHDG,169.9,0.0,E,,*2E
$IIGLL,4743.568,N,12224.554,W,190000,A,A*46
$HCHDG,169.6,0.0,E,,*21
$IIMTW,+09.0,C*31
$GPRMC,190034.6,A,4743.56888,N,12224.55459,W,002.01,201.0,210413,016.6,E,D*2F
$PGRME,3.1,M,2.4,M,4.0,M*2E
$HCHDG,169.5,0.0,E,,*22
$HCHDG,169.8,0.0,E,,*2F
$GPRMC,190034.8,A,4743.56880,N,12224.55468,W,002.01,202.8,210413,016.6,E,D*20
$PGRME,3.1,M,2.4,M,4.0,M*2E
$HCHDG,169.8,0.0,E,,*2F
$YXXDR,A,4.6,D,PTCH,A,6.1,D,ROLL*58
$HCHDG,170.0,0.0,E,,*2F
$GPRMC,190035.0,A,4743.56879,N,12224.55467,W,002.01,203.2,210413,016.6,E,D*2B
$GPRMB,A,0.01,L,,M,4741.7720,N,12224.5760,W,1.8,197,1.98,V*47
$PGRME,3.1,M,2.4,M,4.0,M*2E
$HCHDG,169.9,0.0,E,,*2E
$HCHDG,170.1,0.0,E,,*2E
$IIRMB,A,0.01,L,,M   ,,,,,001.8,197,,V,A*2D
$GPRMC,190035.2,A,4743.56877,N,12224.55466,W,002.27,204.0,210413,016.6,E,D*27
$PGRME,3.1,M,2.4,M,3.9,M*20
$HCHDG,170.3,0.0,E,,*2C
$IIRMC,190000,A,4743.568,N,12224.554,W,02.0,202,210413,16,E,A*1A
$HCHDG,170.2,0.0,E,,*2D
$IIVHW,,,,,01.8,N,,*10
$GPRMC,190035.4,A,4743.56873,N,12224.55465,W,002.24,203.1,210413,016.6,E,D*23
$YXXDR,A,4.7,D,PTCH,A,5.4,D,ROLL*5F
$PTAK,FFD1,5.4*54
$PGRME,3.1,M,2.4,M,3.9,M*20
$IIVLW,06232,N,004.4,N*56
$HCHDG,170.2,0.0,E,,*2D
$IIGLL,4743.568,N,12224.554,W,190000,A,A*46
$HCHDG,169.9,0.0,E,,*2E
$IIMTW,+09.0,C*31
$GPRMC,190035.6,A,4743.56866,N,12224.55468,W,002.25,199.0,210413,016.6,E,D*28
$PGRME,3.1,M,2.4,M,3.9,M*20
$HCHDG,169.9,0.0,E,,*2E
$HCHDG,169.7,0.0,E,,*20
$GPRMC,190035.8,A,4743.56850,N,12224.55481,W,002.21,201.5,210413,016.6,E,D*27
$PGRME,3.1,M,2.4,M,3.9,M*20
$HCHDG,169.4,0.0,E,,*23
$YXXDR,A,4.5,D,PTCH,A,6.2,D,ROLL*58
$HCHDG,169.3,0.0,E,,*24
$GPRMC,190036.0,A,4743.56846,N,12224.55480,W,002.19,201.6,210413,016.6,E,D*22
$PGRME,3.1,M,2.4,M,3.9,M*20
$HCHDG,168.9,0.0,E,,*2F
$HCHDG,168.7,0.0,E,,*21
$IIRMB,A,0.01,L,,M   ,,,,,001.8,197,,V,A*2D
$GPRMC,190036.2,A,4743.56837,N,12224.55479,W,002.18,202.7,210413,016.6,E,D*23
$PGRME,3.0,M,2.4,M,3.9,M*21
$HCHDG,168.7,0.0,E,,*21
$IIRMC,190000,A,4743.568,N,12224.554,W,02.2,201,210413,16,E,A*1B
$HCHDG,168.4,0.0,E,,*22
$IIVHW,,,,,01.8,N,,*10
$GPRMC,190036.4,A,4743.56828,N,12224.55481,W,002.15,204.2,210413,016.6,E,D*22
$GPRMB,A,0.01,L,,M,4741.7720,N,12224.5760,W,1.8,197,2.12,V*46
$YXXDR,A,4.2,D,PTCH,A,6.7,D,ROLL*5A
$PTAK,FFD1,6.7*54
$PGRME,3.0,M,2.4,M,3.9,M*21
$IIVLW,06232,N,004.4,N*56
$HCHDG,168.4,0.0,E,,*22
$IIGLL,4743.568,N,12224.554,W,190000,A,A*46
$HCHDG,168.4,0.0,E,,*22
$IIMTW,+09.0,C*31
$GPRMC,190036.6,A,4743.56820,N,12224.55486,W,002.11,197.6,210413,016.6,E,D*26
$PGRME,3.0,M,2.4,M,3.9,M*21
$HCHDG,168.5,0.0,E,,*23
$HCHDG,168.5,0.0,E,,*23
$GPRMC,190036.8,A,4743.56805,N,12224.55496,W,002.11,200.7,210413,016.6,E,D*22
$PGRME,3.1,M,2.4,M,3.9,M*20
$HCHDG,168.9,0.0,E,,*2F
$YXXDR,A,4.6,D,PTCH,A,6.2,D,ROLL*5B
$HCHDG,168.8,0.0,E,,*2E
$GPRMC,190037.0,A,4743.56800,N,12224.55497,W,002.09,201.9,210413,016.6,E,D*29
$PGRME,3.1,M,2.4,M,3.9,M*20
$HCHDG,169.1,0.0,E,,*26
$HCHDG,169.2,0.0,E,,*25
$IIRMB,A,0.01,L,,M   ,,,,,001.8,197,,V,A*2D
$GPRMC,190037.2,A,4743.56792,N,12224.55502,W,002.07,206.5,210413,016.6,E,D*27
$PTAK,FFP1,HEEL,@*07
$PGRME,3.1,M,2.4,M,3.9,M*20
$HCHDG,169.5,0.0,E,,*22
$IIRMC,190000,A,4743.568,N,12224.554,W,02.1,200,210413,16,E,A*19
$HCHDG,169.5,0.0,E,,*22
$IIVHW,,,,,01.8,N,,*10
$GPRMC,190037.4,A,4743.56778,N,12224.55508,W,002.07,202.7,210413,016.6,E,D*29
$GPRMB,A,0.01,L,,M,4741.7720,N,12224.5760,W,1.8,197,2.03,V*46
$YXXDR,A,4.6,D,PTCH,A,5.8,D,ROLL*52
$PGRME,3.1,M,2.4,M,3.9,M*20
$IIVLW,06232,N,004.4,N*56
$HCHDG,169.4,0.0,E,,*23
$IIGLL,4743.568,N,12224.554,W,190000,A,A*46
$HCHDG,169.2,0.0,E,,*25
$IIMTW,+09.0,C*31
$GPRMC,190037.6,A,4743.56762,N,12224.55521,W,001.89,201.2,210413,016.6,E,D*28
$PGRME,3.1,M,2.4,M,3.9,M*20
$HCHDG,169.1,0.0,E,,*26
$HCHDG,168.8,0.0,E,,*2E
$GPRMC,190037.8,A,4743.56752,N,12224.55526,W,001.92,200.1,210413,016.6,E,D*2A
$PGRME,3.1,M,2.4,M,3.9,M*20
$HCHDG,168.9,0.0,E,,*2F
$YXXDR,A,4.3,D,PTCH,A,6.6,D,ROLL*5A
$PTAK,FFD1,6.6*55
$HCHDG,168.7,0.0,E,,*21
$GPRMC,190038.0,A,4743.56740,N,12224.55530,W,001.90,200.1,210413,016.6,E,D*2B
$PGRME,3.1,M,2.5,M,3.9,M*21
$HCHDG,168.7,0.0,E,,*21
$HCHDG,168.8,0.0,E,,*2E
$IIRMB,A,0.01,L,,M   ,,,,,001.8,197,,V,A*2D
$GPRMC,190038.2,A,4743.56728,N,12224.55533,W,001.83,203.2,210413,016.6,E,D*26
$PGRME,3.1,M,2.5,M,3.9,M*21
$HCHDG,168.9,0.0,E,,*2F
$IIRMC,190000,A,4743.567,N,12224.555,W,01.9,200,210413,16,E,A*1C
$HCHDG,169.2,0.0,E,,*25
$IIVHW,,,,,01.8,N,,*10
$GPRMC,190038.4,A,4743.56715,N,12224.55530,W,001.80,202.0,210413,016.6,E,D*2D
$YXXDR,A,4.3,D,PTCH,A,6.3,D,ROLL*5F
$PGRME,3.1,M,2.5,M,3.9,M*21
$IIVLW,06232,N,004.4,N*56
$HCHDG,169.4,0.0,E,,*23
$IIGLL,4743.567,N,12224.555,W,190000,A,A*48
$HCHDG,169.4,0.0,E,,*23
$IIMTW,+09.0,C*31
$GPRMC,190038.6,A,4743.56707,N,12224.55532,W,001.78,204.8,210413,016.6,E,D*27
$GPRMB,A,0.01,L,,M,4741.7720,N,12224.5760,W,1.8,197,1.76,V*47
$PGRME,3.1,M,2.5,M,3.9,M*21
$HCHDG,169.5,0.0,E,,*22
$HCHDG,169.4,0.0,E,,*23
$GPRMC,190038.8,A,4743.56697,N,12224.55541,W,001.75,205.3,210413,016.6,E,D*22
$PGRME,3.1,M,2.5,M,3.9,M*21
$HCHDG,169.6,0.0,E,,*21
$YXXDR,A,4.3,D,PTCH,A,6.2,D,ROLL*5E
$PTAK,FFD1,6.2*51
$HCHDG,169.5,0.0,E,,*22
$GPRMC,190039.0,A,4743.56695,N,12224.55540,W,001.69,203.2,210413,016.6,E,D*22
$PGRME,3.1,M,2.5,M,3.9,M*21
$HCHDG,169.2,0.0,E,,*25
$HCHDG,169.1,0.0,E,,*26
$IIRMB,A,0.01,L,,M   ,,,,,001.8,197,,V,A*2D
$GPRMC,190039.2,A,4743.56692,N,12224.55537,W,001.65,202.9,210413,016.6,E,D*21
$PGRME,3.1,M,2.5,M,4.0,M*2F
$HCHDG,169.3,0.0,E,,*24
$IIRMC,190000,A,4743.567,N,12224.555,W,01.9,200,210413,16,E,A*1C
$HCHDG,169.0,0.0,E,,*27
$IIVHW,,,,,01.8,N,,*10
$GPRMC,190039.4,A,4743.56678,N,12224.55545,W,001.91,203.1,210413,016.6,E,D*24
$YXXDR,A,4.6,D,PTCH,A,7.3,D,ROLL*5B
$PGRME,3.1,M,2.5,M,4.0,M*2F
$IIVLW,06232,N,004.4,N*56
$HCHDG,169.1,0.0,E,,*26
$IIGLL,4743.567,N,12224.555,W,190000,A,A*48
$HCHDG,169.3,0.0,E,,*24
$IIMTW,+09.0,C*31
$GPRMC,190039.6,A,4743.56664,N,12224.55561,W,001.84,202.6,210413,016.6,E,D*2F
$GPRMB,A,0.01,L,,M,4741.7720,N,12224.5760,W,1.8,197,1.81,V*4F
$PGRME,3.1,M,2.5,M,4.0,M*2F
$HCHDG,169.5,0.0,E,,*22
$HCHDG,169.9,0.0,E,,*2E
$GPRMC,190039.8,A,4743.56650,N,12224.55578,W,001.81,202.6,210413,016.6,E,D*2B
$PGRME,3.1,M,2.5,M,4.0,M*2F
$HCHDG,170.1,0.0,E,,*2E
$YXXDR,A,4.5,D,PTCH,A,5.5,D,ROLL*5C
$PTAK,FFD1,5.5*55
$HCHDG,170.4,0.0,E,,*2B
$GPRMC,190040.0,A,4743.56639,N,12224.55590,W,001.85,202.7,210413,016.6,E,D*21
$PGRME,3.1,M,2.6,M,4.0,M*2C
$HCHDG,170.5,0.0,E,,*2A
$HCHDG,170.5,0.0,E,,*2A
$IIRMB,A,0.01,L,,M   ,,,,,001.8,197,,V,A*2D
$GPRMC,190040.2,A,4743.56630,N,12224.55596,W,001.90,203.0,210413,016.6,E,D*2E
$PGRME,3.1,M,2.6,M,4.0,M*2C
$HCHDG,170.4,0.0,E,,*2B
$IIRMC,190000,A,4743.566,N,12224.555,W,01.7,205,210413,16,E,A*16
$HCHDG,170.8,0.0,E,,*27
$IIVHW,,,,,01.8,N,,*10
$GPRMC,190040.4,A,4743.56618,N,12224.55606,W,001.83,202.9,210413,016.6,E,D*22
$YXXDR,A,4.7,D,PTCH,A,5.4,D,ROLL*5F
$PGRME,3.1,M,2.6,M,4.0,M*2C
$IIVLW,06232,N,004.4,N*56
$HCHDG,170.4,0.0,E,,*2B
$IIGLL,4743.566,N,12224.555,W,190000,A,A*49
$HCHDG,170.5,0.0,E,,*2A
$IIMTW,+09.0,C*31
$GPRMC,190040.6,A,4743.56602,N,12224.55608,W,001.88,202.7,210413,016.6,E,D*20
$PGRME,3.1,M,2.6,M,4.0,M*2C
$HCHDG,170.5,0.0,E,,*2A
$HCHDG,170.4,0.0,E,,*2B
$GPRMC,190040.8,A,4743.56592,N,12224.55617,W,001.89,202.6,210413,016.6,E,D*2A
$GPRMB,A,0.01,L,,M,4741.7720,N,12224.5760,W,1.8,197,1.86,V*48
$PGRME,3.1,M,2.6,M,4.0,M*2C
$HCHDG,170.5,0.0,E,,*2A
$YXXDR,A,4.6,D,PTCH,A,6.6,D,ROLL*5F
$PTAK,FFD1,6.6*55
$HCHDG,170.4,0.0,E,,*2B
$GPRMC,190041.0,A,4743.56582,N,12224.55624,W,001.90,202.5,210413,016.6,E,D*29
$PGRME,3.1,M,2.6,M,4.0,M*2C
$HCHDG,170.4,0.0,E,,*2B
$HCHDG,170.3,0.0,E,,*2C
$IIRMB,A,0.01,L,,M   ,,,,,001.8,197,,V,A*2D
$GPRMC,190041.2,A,4743.56563,N,12224.55640,W,001.93,202.3,210413,016.6,E,D*23
$PTAK,FFP1,HEEL,@*07
$PGRME,3.1,M,2.6,M,4.0,M*2C
$HCHDG,170.4,0.0,E,,*2B
$IIRMC,190000,A,4743.565,N,12224.556,W,01.8,202,210413,16,E,A*1E
$HCHDG,170.4,0.0,E,,*2B
$IIVHW,,,,,01.8,N,,*10
$GPRMC,190041.4,A,4743.56551,N,12224.55638,W,001.97,201.8,210413,016.6,E,D*27
$YXXDR,A,4.4,D,PTCH,A,6.7,D,ROLL*5C
$PGRME,3.1,M,2.6,M,4.0,M*2C
$IIVLW,06232,N,004.4,N*56
$HCHDG,170.6,0.0,E,,*29
$IIGLL,4743.565,N,12224.556,W,190000,A,A*49
$HCHDG,170.9,0.0,E,,*26
$IIMTW,+09.0,C*31
$GPRMC,190041.6,A,4743.56538,N,12224.55638,W,001.99,201.4,210413,016.6,E,D*28
$PGRME,3.1,M,2.5,M,4.0,M*2F
$HCHDG,171.2,0.0,E,,*2C
$HCHDG,171.3,0.0,E,,*2D
$GPRMC,190041.8,A,4743.56525,N,12224.55641,W,002.00,201.2,210413,016.6,E,D*21
$GPRMB,A,0.01,L,,M,4741.7720,N,12224.5760,W,1.8,197,1.95,V*4A
$PGRME,3.1,M,2.5,M,3.9,M*21
$HCHDG,171.6,0.0,E,,*28
$YXXDR,A,4.5,D,PTCH,A,5.5,D,ROLL*5C
$HCHDG,172.0,0.0,E,,*2D
$GPRMC,190042.0,A,4743.56514,N,12224.55647,W,002.01,201.0,210413,016.6,E,D*2D
$PGRME,3.1,M,2.5,M,3.9,M*21
$HCHDG,171.9,0.0,E,,*27
$HCHDG,172.2,0.0,E,,*2F
$IIRMB,A,0.01,L,,M   ,,,,,001.8,197,,V,A*2D
$GPRMC,190042.2,A,4743.56502,N,12224.55652,W,002.01,200.9,210413,016.6,E,D*24
$PGRME,3.1,M,2.4,M,3.9,M*20
$HCHDG,172.4,0.0,E,,*29
$IIRMC,190000,A,4743.565,N,12224.556,W,02.0,201,210413,16,E,A*16
$HCHDG,172.5,0.0,E,,*28
$IIVHW,,,,,01.8,N,,*10
$GPRMC,190042.4,A,4743.56490,N,12224.55658,W,002.05,201.8,210413,016.6,E,D*26
$YXXDR,A,4.7,D,PTCH,A,5.4,D,ROLL*5F
$PTAK,FFD1,5.4*54
$PGRME,3.1,M,2.4,M,3.9,M*20
$IIVLW,06232,N,004.4,N*56
$HCHDG,172.5,0.0,E,,*28
$IIGLL,4743.565,N,12224.556,W,190000,A,A*49
$HCHDG,172.6,0.0,E,,*2B
$IIMTW,+09.0,C*31
$GPRMC,190042.6,A,4743.56478,N,12224.55666,W,002.21,201.4,210413,016.6,E,D*25
$PGRME,3.1,M,2.5,M,3.9,M*21
$HCHDG,172.7,0.0,E,,*2A
$HCHDG,172.5,0.0,E,,*28
$GPRMC,190042.8,A,4743.56466,N,12224.55674,W,002.24,203.7,210413,016.6,E,D*23
$PGRME,3.1,M,2.5,M,3.9,M*21
$HCHDG,172.6,0.0,E,,*2B
$YXXDR,A,4.6,D,PTCH,A,6.0,D,ROLL*59
$HCHDG,172.6,0.0,E,,*2B
$GPRMC,190043.0,A,4743.56457,N,12224.55683,W,002.25,204.6,210413,016.6,E,D*27
$GPRMB,A,0.01,L,,M,4741.7720,N,12224.5760,W,1.8,197,2.22,V*45
$PGRME,3.1,M,2.5,M,4.0,M*2F
$HCHDG,172.9,0.0,E,,*24
$HCHDG,172.9,0.0,E,,*24
$IIRMB,A,0.01,L,,M   ,,,,,001.8,197,,V,A*2D
$GPRMC,190043.2,A,4743.56445,N,12224.55686,W,002.25,200.0,210413,016.6,E,D*21
$PGRME,3.1,M,2.5,M,4.0,M*2F
$HCHDG,173.2,0.0,E,,*2E
$IIRMC,190000,A,4743.564,N,12224.556,W,02.2,203,210413,16,E,A*17
$HCHDG,173.5,0.0,E,,*29
$IIVHW,,,,,01.8,N,,*10
$GPRMC,190043.4,A,4743.56434,N,12224.55691,W,002.23,203.5,210413,016.6,E,D*27
$YXXDR,A,4.3,D,PTCH,A,5.0,D,ROLL*5F
$PTAK,FFD1,5.0*50
$PGRME,3.1,M,2.5,M,4.0,M*2F
$IIVLW,06232,N,004.4,N*56
$HCHDG,173.6,0.0,E,,*2A
$IIGLL,4743.564,N,12224.556,W,190000,A,A*48
$HCHDG,173.9,0.0,E,,*25
$IIMTW,+09.0,C*31
$GPRMC,190043.6,A,4743.56424,N,12224.55695,W,002.23,205.6,210413,016.6,E,D*25
$PGRME,3.1,M,2.6,M,4.0,M*2C
$HCHDG,174.0,0.0,E,,*2B
$HCHDG,174.0,0.0,E,,*2B
$GPRMC,190043.8,A,4743.56415,N,12224.55700,W,001.98,207.7,210413,016.6,E,D*24
$PGRME,3.1,M,2.6,M,4.0,M*2C
$HCHDG,173.8,0.0,E,,*24
$YXXDR,A,4.4,D,PTCH,A,5.4,D,ROLL*5C
$HCHDG,173.8,0.0,E,,*24
$GPRMC,190044.0,A,4743.56403,N,12224.55709,W,002.01,208.2,210413,016.6,E,D*2C
$GPRMB,A,0.01,L,,M,4741.7720,N,12224.5760,W,1.8,197,2.00,V*45
$PGRME,3.1,M,2.6,M,4.0,M*2C
$PGRMT,GPS 18x-5Hz software ver. 3.20,,,,,,,,*30
$HCHDG,173.6,0.0,E,,*2A
$HCHDG,173.6,0.0,E,,*2A
$IIRMB,A,0.01,L,,M   ,,,,,001.8,197,,V,A*2D
$GPRMC,190044.2,A,4743.56392,N,12224.55717,W,002.03,208.0,210413,016.6,E,D*2E
$PGRME,3.1,M,2.6,M,4.0,M*2C
$HCHDG,173.5,0.0,E,,*29
$IIRMC,190000,A,4743.564,N,12224.557,W,01.9,207,210413,16,E,A*1A
$HCHDG,173.5,0.0,E,,*29
$IIVHW,,,,,01.8,N,,*10
$GPRMC,190044.4,A,4743.56382,N,12224.55726,W,001.99,206.8,210413,016.6,E,D*2D
$PGRME,3.1,M,2.6,M,4.1,M*2D
$YXXDR,A,4.7,D,PTCH,A,6.8,D,ROLL*50
$PTAK,FFD1,6.8*5B
$IIVLW,06232,N,004.4,N*56
$HCHDG,173.2,0.0,E,,*2E
$IIGLL,4743.564,N,12224.557,W,190000,A,A*49
$HCHDG,173.3,0.0,E,,*2F
$IIMTW,+09.0,C*31
$GPRMC,190044.6,A,4743.56373,N,12224.55732,W,001.96,208.9,210413,016.6,E,D*24
$PGRME,3.1,M,2.7,M,4.1,M*2C
$HCHDG,173.2,0.0,E,,*2E
$HCHDG,173.3,0.0,E,,*2F
$GPRMC,190044.8,A,4743.56364,N,12224.55739,W,001.92,208.5,210413,016.6,E,D*2F
$PGRME,3.1,M,2.7,M,4.1,M*2C
$HCHDG,173.3,0.0,E,,*2F
$YXXDR,A,4.3,D,PTCH,A,6.2,D,ROLL*5E
$HCHDG,173.2,0.0,E,,*2E
$GPRMC,190045.0,A,4743.56355,N,12224.55747,W,001.89,210.6,210413,016.6,E,D*2D
$GPRMB,A,0.01,L,,M,4741.7720,N,12224.5760,W,1.8,197,1.89,V*47
$PGRME,3.1,M,2.7,M,4.1,M*2C
$HCHDG,173.2,0.0,E,,*2E
$HCHDG,173.3,0.0,E,,*2F
$IIRMB,A,0.01,L,,M   ,,,,,001.8,197,,V,A*2D
$GPRMC,190045.2,A,4743.56348,N,12224.55747,W,001.86,207.8,210413,016.6,E,D*24
$PTAK,FFP1,HEEL,@*07
$PGRME,3.1,M,2.7,M,4.1,M*2C
$HCHDG,173.3,0.0,E,,*2F
$IIRMC,190000,A,4743.563,N,12224.557,W,01.9,208,210413,16,E,A*12
$HCHDG,173.4,0.0,E,,*28
$IIVHW,,,,,01.8,N,,*10
$GPRMC,190045.4,A,4743.56337,N,12224.55751,W,001.84,208.3,210413,016.6,E,D*2B
$PGRME,3.1,M,2.7,M,4.1,M*2C
$YXXDR,A,4.2,D,PTCH,A,5.5,D,ROLL*5B
$PTAK,FFD1,5.5*55
$IIVLW,06232,N,004.4,N*56
$HCHDG,173.2,0.0,E,,*2E
$IIGLL,4743.563,N,12224.557,W,190000,A,A*4E
$HCHDG,173.2,0.0,E,,*2E
$IIMTW,+09.0,C*31
$GPRMC,190045.6,A,4743.56328,N,12224.55757,W,001.84,212.5,210413,016.6,E,D*2C
$PGRME,3.1,M,2.7,M,4.1,M*2C
$HCHDG,173.1,0.0,E,,*2D
$HCHDG,172.7,0.0,E,,*2A
$GPRMC,190045.8,A,4743.56320,N,12224.55758,W,001.84,210.6,210413,016.6,E,D*24
$PGRME,3.1,M,2.7,M,4.1,M*2C
$HCHDG,172.6,0.0,E,,*2B
$YXXDR,A,4.5,D,PTCH,A,6.1,D,ROLL*5B
$HCHDG,172.4,0.0,E,,*29
$GPRMC,190046.0,A,4743.56309,N,12224.55767,W,001.88,207.0,210413,016.6,E,D*24
$PGRME,3.1,M,2.8,M,4.2,M*20
$HCHDG,172.4,0.0,E,,*29
$HCHDG,172.2,0.0,E,,*2F
$IIRMB,A,0.01,L,,M   ,,,,,001.8,197,,V,A*2D
$GPRMC,190046.2,A,4743.56294,N,12224.55778,W,002.05,205.2,210413,016.6,E,D*2B
$GPRMB,A,0.01,L,,M,4741.7720,N,12224.5760,W,1.8,197,2.03,V*46
$PGRME,3.1,M,2.8,M,4.2,M*20
$HCHDG,172.3,0.0,E,,*2E
$IIRMC,190000,A,4743.563,N,12224.557,W,01.8,210,210413,16,E,A*1A
$HCHDG,172.2,0.0,E,,*2F
$IIVHW,,,,,01.8,N,,*10
$GPRMC,190046.4,A,4743.56278,N,12224.55787,W,002.02,203.3,210413,016.6,E,D*2F
$PGRME,3.1,M,2.8,M,4.2,M*20
$YXXDR,A,4.5,D,PTCH,A,6.1,D,ROLL*5B
$PTAK,FFD1,6.1*52
$IIVLW,06232,N,004.4,N*56
$HCHDG,172.1,0.0,E,,*2C
$IIGLL,4743.563,N,12224.557,W,190000,A,A*4E
$HCHDG,172.1,0.0,E,,*2C
$IIMTW,+09.0,C*31
$GPRMC,190046.6,A,4743.56261,N,12224.55798,W,001.98,202.2,210413,016.6,E,D*2B
$PGRME,3.1,M,2.8,M,4.2,M*20
$HCHDG,172.3,0.0,E,,*2E
$HCHDG,172.4,0.0,E,,*29
$GPRMC,190046.8,A,4743.56251,N,12224.55806,W,001.98,203.0,210413,016.6,E,D*2D
$PGRME,3.1,M,2.8,M,4.2,M*20
$HCHDG,172.3,0.0,E,,*2E
$YXXDR,A,4.5,D,PTCH,A,5.3,D,ROLL*5A
$HCHDG,172.5,0.0,E,,*28
$GPRMC,190047.0,A,4743.56237,N,12224.55815,W,002.04,202.9,210413,016.6,E,D*28
$PGRME,3.1,M,2.8,M,4.2,M*20
$HCHDG,172.3,0.0,E,,*2E
$HCHDG,172.4,0.0,E,,*29
$IIRMB,A,0.01,L,,M   ,,,,,001.8,197,,V,A*2D
$GPRMC,190047.2,A,4743.56230,N,12224.55819,W,002.04,203.9,210413,016.6,E,D*20
$GPRMB,A,0.01,L,,M,4741.7720,N,12224.5760,W,1.8,197,2.01,V*44
$PGRME,3.1,M,2.8,M,4.2,M*20
$HCHDG,172.2,0.0,E,,*2F
$IIRMC,190000,A,4743.562,N,12224.558,W,01.9,203,210413,16,E,A*17
$HCHDG,172.1,0.0,E,,*2C
$IIVHW,,,,,01.7,N,,*1F
$GPRMC,190047.4,A,4743.56218,N,12224.55830,W,002.00,207.3,210413,016.6,E,D*2D
$PGRME,3.1,M,2.8,M,4.2,M*20
$YXXDR,A,4.4,D,PTCH,A,5.3,D,ROLL*5B
$PTAK,FFD1,5.3*53
$IIVLW,06232,N,004.4,N*56
$HCHDG,171.9,0.0,E,,*27
$IIGLL,4743.562,N,12224.558,W,190000,A,A*40
$HCHDG,171.9,0.0,E,,*27
$IIMTW,+09.0,C*31
$GPRMC,190047.6,A,4743.56200,N,12224.55842,W,002.03,204.8,210413,016.6,E,D*28
$PGRME,3.1,M,2.8,M,4.2,M*20
$HCHDG,171.8,0.0,E,,*26
$HCHDG,171.5,0.0,E,,*2B
$GPRMC,190047.8,A,4743.56193,N,12224.55844,W,002.05,203.9,210413,016.6,E,D*29
$PGRME,3.1,M,2.8,M,4.2,M*20
$HCHDG,171.5,0.0,E,,*2B
$YXXDR,A,4.5,D,PTCH,A,6.1,D,ROLL*5B
$HCHDG,171.5,0.0,E,,*2B
$GPRMC,190048.0,A,4743.56181,N,12224.55851,W,002.07,203.1,210413,016.6,E,D*23
$PGRME,3.1,M,2.8,M,4.2,M*20
$HCHDG,171.4,0.0,E,,*2A
$HCHDG,171.4,0.0,E,,*2A
$IIRMB,A,0.01,L,,M   ,,,,,001.8,197,,V,A*2D
$GPRMC,190048.2,A,4743.56171,N,12224.55853,W,002.27,203.2,210413,016.6,E,D*2D
$PGRME,3.2,M,2.8,M,4.2,M*23
$HCHDG,171.2,0.0,E,,*2C
$IIRMC,190000,A,4743.561,N,12224.558,W,02.0,203,210413,16,E,A*1E
$HCHDG,171.4,0.0,E,,*2A
$IIVHW,,,,,01.8,N,,*10
$GPRMC,190048.4,A,4743.56154,N,12224.55861,W,002.05,202.8,210413,016.6,E,D*26
$GPRMB,A,0.01,L,,M,4741.7720,N,12224.5760,W,1.8,197,2.01,V*44
$PGRME,3.2,M,2.8,M,4.2,M*23
$YXXDR,A,4.5,D,PTCH,A,6.4,D,ROLL*5E
$PTAK,FFD1,6.4*57
$IIVLW,06232,N,004.4,N*56
$HCHDG,171.2,0.0,E,,*2C
$IIGLL,4743.561,N,12224.558,W,190000,A,A*43
$HCHDG,171.2,0.0,E,,*2C
$IIMTW,+09.0,C*31
$GPRMC,190048.6,A,4743.56139,N,12224.55858,W,002.04,197.6,210413,016.6,E,D*25
$PGRME,3.2,M,2.7,M,4.1,M*2F
$HCHDG,171.3,0.0,E,,*2D
$HCHDG,171.1,0.0,E,,*2F
$GPRMC,190048.8,A,4743.56127,N,12224.55860,W,002.04,203.1,210413,016.6,E,D*26
$PGRME,3.2,M,2.7,M,4.2,M*2C
$HCHDG,171.2,0.0,E,,*2C
$YXXDR,A,4.3,D,PTCH,A,6.6,D,ROLL*5A
$HCHDG,171.3,0.0,E,,*2D
$GPRMC,190049.0,A,4743.56116,N,12224.55867,W,002.07,203.4,210413,016.6,E,D*2C
$PGRME,3.2,M,2.6,M,4.1,M*2E
$HCHDG,171.2,0.0,E,,*2C
$HCHDG,171.4,0.0,E,,*2A
$IIRMB,A,0.01,L,,M   ,,,,,001.8,197,,V,A*2D
$GPRMC,190049.2,A,4743.56104,N,12224.55874,W,002.06,208.4,210413,016.6,E,D*25
$PGRME,3.2,M,2.5,M,4.0,M*2C
$HCHDG,171.5,0.0,E,,*2B
$PTAK,FFP1,HEEL,@*07
$IIRMC,190000,A,4743.561,N,12224.558,W,02.0,203,210413,16,E,A*1E
$HCHDG,171.6,0.0,E,,*28
$IIVHW,,,,,01.8,N,,*10
$GPRMC,190049.4,A,4743.56095,N,12224.55878,W,001.99,202.8,210413,016.6,E,D*25
$GPRMB,A,0.01,L,,M,4741.7720,N,12224.5760,W,1.8,197,1.95,V*4A
$YXXDR,A,4.5,D,PTCH,A,5.6,D,ROLL*5F
$PGRME,3.2,M,2.4,M,4.0,M*2D
$IIVLW,06232,N,004.4,N*56
$HCHDG,171.5,0.0,E,,*2B
$IIGLL,4743.561,N,12224.558,W,190000,A,A*43
$HCHDG,171.5,0.0,E,,*2B
$IIMTW,+09.0,C*31
$GPRMC,190049.6,A,4743.56079,N,12224.55880,W,001.99,206.0,210413,016.6,E,D*2E
$PGRME,3.2,M,2.4,M,4.0,M*2D
$HCHDG,171.5,0.0,E,,*2B
$HCHDG,171.5,0.0,E,,*2B
$GPRMC,190049.8,A,4743.56067,N,12224.55886,W,001.98,206.0,210413,016.6,E,D*28
$PGRME,3.2,M,2.4,M,4.0,M*2D
$HCHDG,171.4,0.0,E,,*2A
$YXXDR,A,4.7,D,PTCH,A,6.3,D,ROLL*5B
$PTAK,FFD1,6.3*50
$HCHDG,171.2,0.0,E,,*2C
$GPRMC,190050.0,A,4743.56055,N,12224.55885,W,001.96,204.2,210413,016.6,E,D*24
$PGRME,3.2,M,2.4,M,4.0,M*2D
$HCHDG,171.2,0.0,E,,*2C
$HCHDG,171.0,0.0,E,,*2E
$IIRMB,A,0.01,L,,M   ,,,,,001.8,197,,V,A*2D
$GPRMC,190050.2,A,4743.56034,N,12224.55881,W,001.93,207.8,210413,016.6,E,D*29
$PGRME,3.2,M,2.4,M,4.0,M*2D
$HCHDG,171.0,0.0,E,,*2E
$IIRMC,190000,A,4743.560,N,12224.558,W,01.9,206,210413,16,E,A*10
$HCHDG,170.6,0.0,E,,*29
$IIVHW,,,,,01.8,N,,*10
$GPRMC,190050.4,A,4743.56020,N,12224.55882,W,001.93,209.6,210413,016.6,E,D*29
$GPRMB,A,0.01,L,,M,4741.7720,N,12224.5760,W,1.8,197,1.93,V*4C
$YXXDR,A,4.3,D,PTCH,A,6.8,D,ROLL*54
$PGRME,3.2,M,2.4,M,4.0,M*2D
$IIVLW,06232,N,004.4,N*56
$HCHDG,170.8,0.0,E,,*27
$IIGLL,4743.560,N,12224.558,W,190000,A,A*42
$HCHDG,170.4,0.0,E,,*2B
$IIMTW,+09.0,C*31
$GPRMC,190050.6,A,4743.56004,N,12224.55878,W,001.91,208.4,210413,016.6,E,D*29
$PGRME,3.2,M,2.4,M,4.0,M*2D
$HCHDG,170.2,0.0,E,,*2D
$HCHDG,170.2,0.0,E,,*2D
$GPRMC,190050.8,A,4743.55997,N,12224.55888,W,001.86,209.7,210413,016.6,E,D*2C
$PGRME,3.2,M,2.4,M,4.0,M*2D
$HCHDG,170.1,0.0,E,,*2E
$YXXDR,A,4.0,D,PTCH,A,7.2,D,ROLL*5C
$HCHDG,169.9,0.0,E,,*2E
$GPRMC,190051.0,A,4743.55990,N,12224.55890,W,001.70,203.5,210413,016.6,E,D*2A
$PGRME,3.2,M,2.4,M,4.0,M*2D
$HCHDG,169.7,0.0,E,,*20
$HCHDG,169.4,0.0,E,,*23
$IIRMB,A,0.01,L,,M   ,,,,,001.8,197,,V,A*2D
$GPRMC,190051.2,A,4743.55983,N,12224.55897,W,001.69,198.7,210413,016.6,E,D*26
$PGRME,3.2,M,2.4,M,4.0,M*2D
$HCHDG,169.3,0.0,E,,*24
$IIRMC,190000,A,4743.559,N,12224.558,W,01.8,209,210413,16,E,A*14
$HCHDG,169.1,0.0,E,,*26
$IIVHW,,,,,01.9,N,,*11
$GPRMC,190051.4,A,4743.55971,N,12224.55908,W,001.75,199.7,210413,016.6,E,D*26
$GPRMB,A,0.01,L,,M,4741.7720,N,12224.5760,W,1.8,197,1.70,V*41
$YXXDR,A,4.2,D,PTCH,A,7.7,D,ROLL*5B
$PTAK,FFD1,7.7*55
$PGRME,3.2,M,2.4,M,4.0,M*2D
$IIVLW,06232,N,004.4,N*56
$HCHDG,168.8,0.0,E,,*2E
$IIGLL,4743.559,N,12224.558,W,190000,A,A*48
$HCHDG,168.5,0.0,E,,*23
$IIMTW,+09.0,C*31
$GPRMC,190051.6,A,4743.55958,N,12224.55917,W,001.81,204.0,210413,016.6,E,D*2A
$PGRME,3.2,M,2.4,M,4.0,M*2D
$HCHDG,168.6,0.0,E,,*20
$HCHDG,168.3,0.0,E,,*25
$GPRMC,190051.8,A,4743.55948,N,12224.55922,W,001.81,203.6,210413,016.6,E,D*22
$PGRME,3.2,M,2.4,M,4.0,M*2D
$HCHDG,168.2,0.0,E,,*24
$YXXDR,A,4.5,D,PTCH,A,8.0,D,ROLL*54
$HCHDG,168.1,0.0,E,,*27
$GPRMC,190052.0,A,4743.55937,N,12224.55924,W,002.00,203.2,210413,016.6,E,D*29
$PGRME,3.2,M,2.4,M,4.0,M*2D
$HCHDG,168.3,0.0,E,,*25
$HCHDG,168.5,0.0,E,,*23
$IIRMB,A,0.01,L,,M   ,,,,,001.8,197,,V,A*2D
$GPRMC,190052.2,A,4743.55927,N,12224.55930,W,001.96,202.9,210413,016.6,E,D*29
$PGRME,3.2,M,2.5,M,4.0,M*2C
$HCHDG,169.0,0.0,E,,*27
$IIRMC,190000,A,4743.559,N,12224.559,W,01.8,203,210413,16,E,A*1F
$HCHDG,169.2,0.0,E,,*25
$IIVHW,,,,,01.8,N,,*10
$GPRMC,190052.4,A,4743.55919,N,12224.55935,W,001.77,202.6,210413,016.6,E,D*27
$YXXDR,A,4.4,D,PTCH,A,5.0,D,ROLL*58
$PGRME,3.2,M,2.4,M,4.0,M*2D
$IIVLW,06232,N,004.4,N*56
$HCHDG,169.4,0.0,E,,*23
