$IIRMC,185900,A,4740.903,N,12224.968,W,06.7,238,130413,16,E,A*1D
$GPRMC,190001.0,A,4740.90197,N,12224.97390,W,006.42,237.3,130413,016.6,E*41
$HCHDG,212.0,0.0,E,,*28
$GPRMC,190001.2,A,4740.90175,N,12224.97437,W,006.47,238.9,130413,016.6,E*45
$YXXDR,A,3.7,D,PTCH,A,20.9,D,ROLL*62
$GPRMC,190001.4,A,4740.90153,N,12224.97493,W,006.74,240.5,130413,016.6,E*4A
$PTAK,FFP1,HEEL,@*07
$IIVHW,,,,,00.0,N,,*19
$IIVLW,06210,N,000.0,N*56
$GPRMC,190001.6,A,4740.90139,N,12224.97546,W,006.81,241.7,130413,016.6,E*44
$IIDPT,026.1,-1.0,*45
$HCHDG,215.9,0.0,E,,*26
$IIGLL,4740.902,N,12224.971,W,190000,A,A*4E
$IIMTW,+08.0,C*30
$YXXDR,A,5.0,D,PTCH,A,16.1,D,ROLL*6E
$GPRMC,190001.8,A,4740.90124,N,12224.97600,W,006.80,239.9,130413,016.6,E*47
$IIRMC,190000,A,4740.902,N,12224.971,W,06.9,235,130413,16,E,A*1A
$GPRMC,190002.0,A,4740.90109,N,12224.97655,W,006.76,238.4,130413,016.6,E*46
$HCHDG,214.4,0.0,E,,*2A
$GPRMC,190002.2,A,4740.90092,N,12224.97710,W,006.70,238.1,130413,016.6,E*44
$YXXDR,A,4.7,D,PTCH,A,21.4,D,ROLL*69
$GPRMC,190002.4,A,4740.90071,N,12224.97755,W,006.64,239.7,130413,016.6,E*4C
$IIVHW,,,,,00.0,N,,*19
$IIVLW,06210,N,000.0,N*56
$GPRMC,190002.6,A,4740.90052,N,12224.97809,W,006.64,241.3,130413,016.6,E*42
$IIDPT,026.1,-1.0,*45
$HCHDG,214.8,0.0,E,,*26
$IIGLL,4740.900,N,12224.977,W,190000,A,A*4A
$IIMTW,+08.0,C*30
$YXXDR,A,5.0,D,PTCH,A,21.3,D,ROLL*68
$GPRMC,190002.8,A,4740.90029,N,12224.97861,W,006.61,242.0,130413,016.6,E*4B
$IIRMC,190000,A,4740.900,N,12224.977,W,06.7,238,130413,16,E,A*1D
$GPRMC,190003.0,A,4740.90005,N,12224.97907,W,006.58,240.2,130413,016.6,E*47
$HCHDG,213.9,0.0,E,,*20
$GPRMC,190003.2,A,4740.89986,N,12224.97956,W,006.56,239.7,130413,016.6,E*4E
$YXXDR,A,3.9,D,PTCH,A,22.7,D,ROLL*60
$GPRMC,190003.4,A,4740.89969,N,12224.98000,W,006.78,240.7,130413,016.6,E*4E
$IIVHW,,,,,00.0,N,,*19
$IIVLW,06210,N,000.0,N*56
$GPRMC,190003.6,A,4740.89956,N,12224.98053,W,006.79,240.5,130413,016.6,E*45
$IIDPT,026.1,-1.0,*45
$HCHDG,214.7,0.0,E,,*29
$IIGLL,4740.900,N,12224.977,W,190000,A,A*4A
$IIMTW,+08.0,C*30
$YXXDR,A,5.2,D,PTCH,A,22.5,D,ROLL*6F
$GPRMC,190003.8,A,4740.89940,N,12224.98107,W,006.80,239.9,130413,016.6,E*48
$IIRMC,190000,A,4740.900,N,12224.977,W,06.7,238,130413,16,E,A*1D
$GPRMC,190004.0,A,4740.89920,N,12224.98153,W,006.73,238.8,130413,016.6,E*4C
$HCHDG,213.5,0.0,E,,*2C
$GPRMC,190004.2,A,4740.89901,N,12224.98204,W,006.23,236.7,130413,016.6,E*48
$YXXDR,A,4.8,D,PTCH,A,25.9,D,ROLL*6F
$GPRMC,190004.4,A,4740.89884,N,12224.98256,W,006.18,237.8,130413,016.6,E*43
$IIVHW,,,,,00.0,N,,*19
$IIVLW,06210,N,000.0,N*56
$GPRMC,190004.6,A,4740.89865,N,12224.98301,W,006.19,239.8,130413,016.6,E*42
$IIDPT,026.1,-1.0,*45
$HCHDG,212.8,0.0,E,,*20
$IIGLL,4740.899,N,12224.980,W,190000,A,A*43
$IIMTW,+08.0,C*30
$YXXDR,A,3.6,D,PTCH,A,25.6,D,ROLL*69
$GPRMC,190004.8,A,4740.89845,N,12224.98356,W,006.26,245.4,130413,016.6,E*47
$IIRMC,190000,A,4740.899,N,12224.980,W,06.7,240,130413,16,E,A*1B
$GPRMC,190005.0,A,4740.89825,N,12224.98407,W,006.76,245.3,130413,016.6,E*49
$HCHDG,218.2,0.0,E,,*20
$GPRMC,190005.2,A,4740.89805,N,12224.98453,W,006.73,241.7,130413,016.6,E*4D
$YXXDR,A,5.5,D,PTCH,A,20.2,D,ROLL*6D
$GPRMC,190005.4,A,4740.89786,N,12224.98496,W,006.47,237.4,130413,016.6,E*43
$IIVHW,,,,,00.0,N,,*19
$PTAK,FFP1,HEEL,@*07
$IIVLW,06210,N,000.0,N*56
$GPRMC,190005.6,A,4740.89767,N,12224.98529,W,006.26,236.6,130413,016.6,E*4F
$IIDPT,027.5,-1.0,*40
$HCHDG,215.1,0.0,E,,*2E
$IIGLL,4740.898,N,12224.982,W,190000,A,A*40
$IIMTW,+08.0,C*30
$YXXDR,A,4.6,D,PTCH,A,26.1,D,ROLL*6A
$GPRMC,190005.8,A,4740.89750,N,12224.98566,W,006.00,238.9,130413,016.6,E*4B
$IIRMC,190000,A,4740.898,N,12224.982,W,06.1,237,130413,16,E,A*1E
$GPRMC,190006.0,A,4740.89732,N,12224.98615,W,006.19,241.5,130413,016.6,E*49
$HCHDG,215.3,0.0,E,,*2C
$GPRMC,190006.2,A,4740.89713,N,12224.98670,W,006.74,244.4,130413,016.6,E*44
$YXXDR,A,3.8,D,PTCH,A,24.1,D,ROLL*61
$GPRMC,190006.4,A,4740.89696,N,12224.98716,W,006.69,243.8,130413,016.6,E*48
$IIVHW,,,,,00.0,N,,*19
$IIVLW,06210,N,000.0,N*56
$GPRMC,190006.6,A,4740.89676,N,12224.98761,W,006.41,241.2,130413,016.6,E*46
$IIDPT,027.5,-1.0,*40
$HCHDG,217.0,0.0,E,,*2D
$IIGLL,4740.897,N,12224.985,W,190000,A,A*48
$IIMTW,+08.0,C*30
$YXXDR,A,5.2,D,PTCH,A,23.2,D,ROLL*69
$GPRMC,190006.8,A,4740.89655,N,12224.98809,W,006.46,241.2,130413,016.6,E*4F
$IIRMC,190000,A,4740.897,N,12224.985,W,06.2,236,130413,16,E,A*14
$GPRMC,190007.0,A,4740.89636,N,12224.98862,W,006.39,241.0,130413,016.6,E*44
$HCHDG,215.2,0.0,E,,*2D
$GPRMC,190007.2,A,4740.89619,N,12224.98906,W,006.39,240.6,130413,016.6,E*4F
$YXXDR,A,4.2,D,PTCH,A,26.8,D,ROLL*67
$GPRMC,190007.4,A,4740.89604,N,12224.98947,W,006.42,243.4,130413,016.6,E*4D
$IIVHW,,,,,00.0,N,,*19
$IIVLW,06210,N,000.0,N*56
$GPRMC,190007.6,A,4740.89596,N,12224.98991,W,006.49,243.8,130413,016.6,E*4B
$IIDPT,027.5,-1.0,*40
$HCHDG,216.7,0.0,E,,*2B
$IIGLL,4740.896,N,12224.987,W,190000,A,A*4B
$IIMTW,+08.0,C*30
$YXXDR,A,4.9,D,PTCH,A,25.3,D,ROLL*64
$GPRMC,190007.8,A,4740.89583,N,12224.99035,W,006.50,242.8,130413,016.6,E*4E
$IIRMC,190000,A,4740.896,N,12224.987,W,06.4,241,130413,16,E,A*11
$GPRMC,190008.0,A,4740.89571,N,12224.99080,W,006.53,241.6,130413,016.6,E*44
$HCHDG,215.7,0.0,E,,*28
$GPRMC,190008.2,A,4740.89556,N,12224.99122,W,006.24,240.3,130413,016.6,E*4E
$YXXDR,A,3.6,D,PTCH,A,31.3,D,ROLL*69
$GPRMC,190008.4,A,4740.89541,N,12224.99159,W,006.41,240.1,130413,016.6,E*43
$IIVHW,,,,,00.0,N,,*19
$IIVLW,06210,N,000.0,N*56
$GPRMC,190008.6,A,4740.89527,N,12224.99196,W,006.62,241.9,130413,016.6,E*4A
$IIDPT,027.5,-1.0,*40
$HCHDG,215.4,0.0,E,,*2B
$IIGLL,4740.895,N,12224.989,W,190000,A,A*46
$IIMTW,+08.0,C*30
$YXXDR,A,4.7,D,PTCH,A,23.2,D,ROLL*6D
$GPRMC,190008.8,A,4740.89515,N,12224.99241,W,006.56,242.5,130413,016.6,E*44
$IIRMC,190000,A,4740.895,N,12224.989,W,06.4,243,130413,16,E,A*1E
$GPRMC,190009.0,A,4740.89504,N,12224.99287,W,006.31,243.2,130413,016.6,E*40
$HCHDG,214.7,0.0,E,,*29
$GPRMC,190009.2,A,4740.89489,N,12224.99333,W,006.32,240.8,130413,016.6,E*42
$YXXDR,A,4.7,D,PTCH,A,26.8,D,ROLL*62
$GPRMC,190009.4,A,4740.89470,N,12224.99375,W,006.27,238.1,130413,016.6,E*42
$IIVHW,,,,,00.0,N,,*19
$IIVLW,06210,N,000.0,N*56
$GPRMC,190009.6,A,4740.89442,N,12224.99415,W,006.05,239.5,130413,016.6,E*45
$PTAK,FFP1,HEEL,@*07
$IIDPT,027.5,-1.0,*40
$HCHDG,212.7,0.0,E,,*2F
$IIGLL,4740.895,N,12224.991,W,190000,A,A*4F
$IIMTW,+08.0,C*30
$YXXDR,A,4.2,D,PTCH,A,28.6,D,ROLL*67
$GPRMC,190009.8,A,4740.89421,N,12224.99461,W,006.24,239.6,130413,016.6,E*4D
$IIRMC,190000,A,4740.895,N,12224.991,W,06.6,241,130413,16,E,A*17
$GPRMC,190010.0,A,4740.89398,N,12224.99512,W,006.47,240.2,130413,016.6,E*42
$HCHDG,213.7,0.0,E,,*2E
$GPRMC,190010.2,A,4740.89378,N,12224.99556,W,006.53,239.9,130413,016.6,E*4E
$YXXDR,A,4.6,D,PTCH,A,26.1,D,ROLL*6A
$GPRMC,190010.4,A,4740.89363,N,12224.99596,W,006.53,240.1,130413,016.6,E*48
$IIVHW,,,,,00.0,N,,*19
$IIVLW,06210,N,000.0,N*56
$GPRMC,190010.6,A,4740.89346,N,12224.99638,W,006.51,238.3,130413,016.6,E*45
$IIDPT,027.5,-1.0,*40
$HCHDG,213.7,0.0,E,,*2E
$IIGLL,4740.895,N,12224.991,W,190000,A,A*4F
$IIMTW,+08.0,C*30
$YXXDR,A,5.2,D,PTCH,A,26.0,D,ROLL*6E
$GPRMC,190010.8,A,4740.89331,N,12224.99683,W,006.48,237.4,130413,016.6,E*4B
$IIRMC,190000,A,4740.895,N,12224.991,W,06.6,241,130413,16,E,A*17
$GPRMC,190011.0,A,4740.89312,N,12224.99734,W,006.48,237.0,130413,016.6,E*4A
$HCHDG,213.1,0.0,E,,*28
$GPRMC,190011.2,A,4740.89293,N,12224.99792,W,006.49,238.2,130413,016.6,E*40
$YXXDR,A,4.8,D,PTCH,A,24.3,D,ROLL*64
$GPRMC,190011.4,A,4740.89272,N,12224.99846,W,006.49,237.2,130413,016.6,E*40
$IIVHW,,,,,00.0,N,,*19
$IIVLW,06210,N,000.0,N*56
$GPRMC,190011.6,A,4740.89254,N,12224.99889,W,006.50,237.6,130413,016.6,E*49
$IIDPT,027.5,-1.0,*40
$HCHDG,213.6,0.0,E,,*2F
$IIGLL,4740.893,N,12224.996,W,190000,A,A*4E
$IIMTW,+08.0,C*30
$YXXDR,A,4.2,D,PTCH,A,22.4,D,ROLL*6F
$GPRMC,190011.8,A,4740.89240,N,12224.99933,W,006.65,237.3,130413,016.6,E*41
$IIRMC,190000,A,4740.893,N,12224.996,W,06.5,238,130413,16,E,A*1B
$GPRMC,190012.0,A,4740.89223,N,12224.99976,W,006.71,237.6,130413,016.6,E*4E
$HCHDG,215.1,0.0,E,,*2E
$GPRMC,190012.2,A,4740.89207,N,12225.00024,W,006.74,236.0,130413,016.6,E*47
$YXXDR,A,5.0,D,PTCH,A,21.6,D,ROLL*6D
$GPRMC,190012.4,A,4740.89191,N,12225.00073,W,006.78,235.2,130413,016.6,E*42
$IIVHW,,,,,00.0,N,,*19
$IIVLW,06210,N,000.0,N*56
$GPRMC,190012.6,A,4740.89176,N,12225.00115,W,006.82,235.6,130413,016.6,E*49
$IIDPT,027.5,-1.0,*40
$HCHDG,215.4,0.0,E,,*2B
$IIGLL,4740.892,N,12224.998,W,190000,A,A*41
$IIMTW,+08.0,C*30
$YXXDR,A,5.0,D,PTCH,A,22.4,D,ROLL*6C
$GPRMC,190012.8,A,4740.89160,N,12225.00165,W,006.63,239.7,130413,016.6,E*45
$IIRMC,190000,A,4740.892,N,12224.998,W,06.5,237,130413,16,E,A*1B
$GPRMC,190013.0,A,4740.89152,N,12225.00209,W,006.84,242.8,130413,016.6,E*4E
$HCHDG,218.6,0.0,E,,*24
$GPRMC,190013.2,A,4740.89149,N,12225.00257,W,006.79,242.4,130413,016.6,E*43
$YXXDR,A,4.8,D,PTCH,A,19.0,D,ROLL*69
$GPRMC,190013.4,A,4740.89138,N,12225.00313,W,006.83,242.4,130413,016.6,E*47
$IIVHW,,,,,00.0,N,,*19
$IIVLW,06210,N,000.0,N*56
$GPRMC,190013.6,A,4740.89132,N,12225.00376,W,007.00,244.6,130413,016.6,E*42
$PTAK,FFP1,HEEL,@*07
$IIDPT,027.5,-1.0,*40
$HCHDG,219.5,0.0,E,,*26
$IIGLL,4740.891,N,12225.001,W,190000,A,A*4A
$IIMTW,+08.0,C*30
$YXXDR,A,4.5,D,PTCH,A,19.9,D,ROLL*6D
$GPRMC,190013.8,A,4740.89116,N,12225.00424,W,006.98,243.4,130413,016.6,E*4F
$IIRMC,190000,A,4740.891,N,12225.001,W,06.8,235,130413,16,E,A*1F
$GPRMC,190014.0,A,4740.89098,N,12225.00472,W,006.92,241.0,130413,016.6,E*48
$HCHDG,219.3,0.0,E,,*20
$GPRMC,190014.2,A,4740.89081,N,12225.00522,W,006.97,242.9,130413,016.6,E*49
$YXXDR,A,4.6,D,PTCH,A,21.6,D,ROLL*6A
$GPRMC,190014.4,A,4740.89062,N,12225.00571,W,006.94,240.4,130413,016.6,E*48
$IIVHW,,,,,00.0,N,,*19
$IIVLW,06210,N,000.0,N*56
$GPRMC,190014.6,A,4740.89045,N,12225.00621,W,007.00,240.6,130413,016.6,E*47
$IIDPT,033.8,-1.0,*48
$HCHDG,218.3,0.0,E,,*21
$IIGLL,4740.891,N,12225.003,W,190000,A,A*48
$IIMTW,+08.0,C*30
$YXXDR,A,5.0,D,PTCH,A,22.9,D,ROLL*61
$GPRMC,190014.8,A,4740.89028,N,12225.00669,W,006.98,240.2,130413,016.6,E*4A
$IIRMC,190000,A,4740.891,N,12225.003,W,07.0,244,130413,16,E,A*12
$GPRMC,190015.0,A,4740.89007,N,12225.00720,W,007.01,240.3,130413,016.6,E*42
$HCHDG,217.1,0.0,E,,*2C
$GPRMC,190015.2,A,4740.88990,N,12225.00773,W,006.79,242.1,130413,016.6,E*4E
$YXXDR,A,4.8,D,PTCH,A,22.6,D,ROLL*67
$GPRMC,190015.4,A,4740.88971,N,12225.00825,W,006.79,240.4,130413,016.6,E*4C
$IIVHW,,,,,00.0,N,,*19
$IIVLW,06210,N,000.0,N*56
$GPRMC,190015.6,A,4740.88956,N,12225.00879,W,006.82,241.3,130413,016.6,E*40
$IIDPT,033.8,-1.0,*48
$HCHDG,215.7,0.0,E,,*28
$IIGLL,4740.890,N,12225.006,W,190000,A,A*4C
$IIMTW,+08.0,C*30
$YXXDR,A,4.1,D,PTCH,A,22.5,D,ROLL*6D
$GPRMC,190015.8,A,4740.88936,N,12225.00932,W,006.98,242.2,130413,016.6,E*4F
$IIRMC,190000,A,4740.890,N,12225.006,W,07.0,240,130413,16,E,A*12
$GPRMC,190016.0,A,4740.88921,N,12225.00976,W,007.00,239.2,130413,016.6,E*4E
$HCHDG,215.3,0.0,E,,*2C
$GPRMC,190016.2,A,4740.88904,N,12225.01027,W,007.03,237.6,130413,016.6,E*4E
$YXXDR,A,4.3,D,PTCH,A,24.0,D,ROLL*6C
$GPRMC,190016.4,A,4740.88884,N,12225.01083,W,007.02,237.2,130413,016.6,E*4A
$IIVHW,,,,,00.0,N,,*19
$IIVLW,06210,N,000.0,N*56
$GPRMC,190016.6,A,4740.88864,N,12225.01132,W,007.02,237.6,130413,016.6,E*49
$IIDPT,033.8,-1.0,*48
$HCHDG,213.7,0.0,E,,*2E
$IIGLL,4740.889,N,12225.008,W,190000,A,A*4A
$IIMTW,+08.0,C*30
$YXXDR,A,4.6,D,PTCH,A,25.1,D,ROLL*69
$GPRMC,190016.8,A,4740.88842,N,12225.01187,W,007.08,238.0,130413,016.6,E*4E
$IIRMC,190000,A,4740.889,N,12225.008,W,06.8,241,130413,16,E,A*1C
$GPRMC,190017.0,A,4740.88825,N,12225.01233,W,006.81,238.2,130413,016.6,E*48
$HCHDG,215.1,0.0,E,,*2E
$GPRMC,190017.2,A,4740.88803,N,12225.01279,W,006.76,238.8,130413,016.6,E*42
$YXXDR,A,5.2,D,PTCH,A,24.0,D,ROLL*6C
$GPRMC,190017.4,A,4740.88783,N,12225.01335,W,006.82,239.9,130413,016.6,E*41
$IIVHW,,,,,00.0,N,,*19
$IIVLW,06210,N,000.0,N*56
$GPRMC,190017.6,A,4740.88762,N,12225.01388,W,006.80,239.8,130413,016.6,E*49
$PTAK,FFP1,HEEL,@*07
$IIDPT,035.6,-1.0,*40
$HCHDG,214.2,0.0,E,,*2C
$IIGLL,4740.888,N,12225.011,W,190000,A,A*43
$IIMTW,+08.0,C*30
$YXXDR,A,3.5,D,PTCH,A,25.1,D,ROLL*6D
$GPRMC,190017.8,A,4740.88743,N,12225.01440,W,006.83,240.3,130413,016.6,E*41
$IIRMC,190000,A,4740.888,N,12225.011,W,07.0,237,130413,16,E,A*1D
$GPRMC,190018.0,A,4740.88729,N,12225.01493,W,006.91,240.5,130413,016.6,E*41
$HCHDG,217.6,0.0,E,,*2B
$GPRMC,190018.2,A,4740.88716,N,12225.01543,W,006.92,240.3,130413,016.6,E*46
$YXXDR,A,4.5,D,PTCH,A,22.9,D,ROLL*65
$GPRMC,190018.4,A,4740.88700,N,12225.01597,W,006.91,239.9,130413,016.6,E*49
$IIVHW,,,,,00.0,N,,*19
$IIVLW,06210,N,000.0,N*56
$GPRMC,190018.6,A,4740.88692,N,12225.01656,W,006.91,239.5,130413,016.6,E*43
$IIDPT,035.6,-1.0,*40
$HCHDG,216.9,0.0,E,,*25
$IIGLL,4740.887,N,12225.013,W,190000,A,A*4E
$IIMTW,+08.0,C*30
$YXXDR,A,3.7,D,PTCH,A,27.7,D,ROLL*6B
$GPRMC,190018.8,A,4740.88679,N,12225.01704,W,006.56,241.0,130413,016.6,E*4F
$IIRMC,190000,A,4740.887,N,12225.013,W,06.8,239,130413,16,E,A*17
$GPRMC,190019.0,A,4740.88667,N,12225.01756,W,006.92,242.8,130413,016.6,E*4D
$HCHDG,218.3,0.0,E,,*21
$GPRMC,190019.2,A,4740.88651,N,12225.01805,W,006.94,242.4,130413,016.6,E*49
$YXXDR,A,4.3,D,PTCH,A,25.5,D,ROLL*68
$GPRMC,190019.4,A,4740.88637,N,12225.01860,W,006.99,243.3,130413,016.6,E*47
$IIVHW,,,,,00.0,N,,*19
$IIVLW,06210,N,000.0,N*56
$GPRMC,190019.6,A,4740.88614,N,12225.01915,W,006.77,240.4,130413,016.6,E*43
$IIDPT,035.6,-1.0,*40
$HCHDG,219.3,0.0,E,,*20
$IIGLL,4740.886,N,12225.017,W,190000,A,A*4B
$IIMTW,+08.0,C*30
$YXXDR,A,4.2,D,PTCH,A,25.1,D,ROLL*6D
$GPRMC,190019.8,A,4740.88595,N,12225.01965,W,006.84,241.1,130413,016.6,E*48
$IIRMC,190000,A,4740.886,N,12225.017,W,06.5,241,130413,16,E,A*10
$GPRMC,190020.0,A,4740.88577,N,12225.02014,W,006.91,242.4,130413,016.6,E*48
$HCHDG,216.6,0.0,E,,*2A
$GPRMC,190020.2,A,4740.88567,N,12225.02063,W,007.30,242.5,130413,016.6,E*40
$YXXDR,A,3.6,D,PTCH,A,28.4,D,ROLL*66
$GPRMC,190020.4,A,4740.88549,N,12225.02111,W,007.09,242.3,130413,016.6,E*42
$IIVHW,,,,,00.0,N,,*19
$IIVLW,06210,N,000.0,N*56
$GPRMC,190020.6,A,4740.88529,N,12225.02160,W,007.10,240.6,130413,016.6,E*4F
$IIDPT,035.6,-1.0,*40
$HCHDG,216.4,0.0,E,,*28
$IIGLL,4740.885,N,12225.019,W,190000,A,A*46
$IIMTW,+08.0,C*30
$YXXDR,A,5.4,D,PTCH,A,27.4,D,ROLL*6D
$GPRMC,190020.8,A,4740.88509,N,12225.02206,W,006.90,238.5,130413,016.6,E*45
$IIRMC,190000,A,4740.885,N,12225.019,W,06.8,241,130413,16,E,A*10
$GPRMC,190021.0,A,4740.88488,N,12225.02252,W,006.72,237.3,130413,016.6,E*40
$HCHDG,214.0,0.0,E,,*2E
$GPRMC,190021.2,A,4740.88465,N,12225.02298,W,006.54,238.4,130413,016.6,E*4B
$YXXDR,A,4.1,D,PTCH,A,28.0,D,ROLL*62
$GPRMC,190021.4,A,4740.88442,N,12225.02343,W,006.50,240.0,130413,016.6,E*40
$IIVHW,,,,,00.0,N,,*19
$IIVLW,06210,N,000.0,N*56
$GPRMC,190021.6,A,4740.88426,N,12225.02392,W,006.74,239.4,130413,016.6,E*40
$PTAK,FFP1,HEEL,@*07
$IIDPT,035.6,-1.0,*40
$HCHDG,215.3,0.0,E,,*2C
$IIGLL,4740.885,N,12225.022,W,190000,A,A*4E
$IIMTW,+08.0,C*30
$YXXDR,A,4.4,D,PTCH,A,23.8,D,ROLL*64
$GPRMC,190021.8,A,4740.88405,N,12225.02450,W,006.94,240.1,130413,016.6,E*43
$IIRMC,190000,A,4740.885,N,12225.022,W,06.9,238,130413,16,E,A*17
$GPRMC,190022.0,A,4740.88382,N,12225.02499,W,006.87,238.9,130413,016.6,E*40
$HCHDG,216.2,0.0,E,,*2E
$GPRMC,190022.2,A,4740.88363,N,12225.02543,W,006.63,238.2,130413,016.6,E*4A
$YXXDR,A,5.1,D,PTCH,A,24.6,D,ROLL*69
$GPRMC,190022.4,A,4740.88342,N,12225.02589,W,006.66,238.4,130413,016.6,E*4A
$IIVHW,,,,,00.0,N,,*19
$IIVLW,06210,N,000.0,N*56
$GPRMC,190022.6,A,4740.88325,N,12225.02643,W,006.61,241.8,130413,016.6,E*49
$IIDPT,035.6,-1.0,*40
$HCHDG,215.2,0.0,E,,*2D
$IIGLL,4740.884,N,12225.024,W,190000,A,A*49
$IIMTW,+08.0,C*30
$YXXDR,A,3.5,D,PTCH,A,25.5,D,ROLL*69
$GPRMC,190022.8,A,4740.88315,N,12225.02685,W,006.56,243.4,130413,016.6,E*44
$IIRMC,190000,A,4740.884,N,12225.024,W,06.9,240,130413,16,E,A*1F
$GPRMC,190023.0,A,4740.88301,N,12225.02731,W,006.55,244.3,130413,016.6,E*45
$HCHDG,217.9,0.0,E,,*24
$GPRMC,190023.2,A,4740.88286,N,12225.02774,W,006.72,244.0,130413,016.6,E*4E
$YXXDR,A,3.4,D,PTCH,A,22.0,D,ROLL*6A
$GPRMC,190023.4,A,4740.88274,N,12225.02813,W,007.11,243.8,130413,016.6,E*40
$IIVHW,,,,,00.0,N,,*19
$IIVLW,06210,N,000.0,N*56
$GPRMC,190023.6,A,4740.88251,N,12225.02858,W,007.13,240.8,130413,016.6,E*4B
$IIDPT,035.6,-1.0,*40
$HCHDG,218.7,0.0,E,,*25
$IIGLL,4740.883,N,12225.026,W,190000,A,A*4C
$IIMTW,+08.0,C*30
$YXXDR,A,5.1,D,PTCH,A,25.4,D,ROLL*6A
$GPRMC,190023.8,A,4740.88231,N,12225.02908,W,006.88,237.6,130413,016.6,E*4A
$IIRMC,190000,A,4740.883,N,12225.026,W,06.5,243,130413,16,E,A*15
$GPRMC,190024.0,A,4740.88211,N,12225.02953,W,006.85,239.9,130413,016.6,E*45
$HCHDG,217.3,0.0,E,,*2E
$GPRMC,190024.2,A,4740.88192,N,12225.03008,W,006.82,241.9,130413,016.6,E*41
$YXXDR,A,5.1,D,PTCH,A,26.7,D,ROLL*6A
$GPRMC,190024.4,A,4740.88173,N,12225.03053,W,006.74,243.8,130413,016.6,E*4C
$IIVHW,,,,,00.0,N,,*19
$IIVLW,06210,N,000.0,N*56
$GPRMC,190024.6,A,4740.88150,N,12225.03095,W,006.59,243.1,130413,016.6,E*43
$IIDPT,035.6,-1.0,*40
$HCHDG,216.9,0.0,E,,*25
$IIGLL,4740.882,N,12225.029,W,190000,A,A*42
$IIMTW,+08.0,C*30
$YXXDR,A,3.2,D,PTCH,A,24.0,D,ROLL*6A
$GPRMC,190024.8,A,4740.88133,N,12225.03143,W,006.59,241.5,130413,016.6,E*44
$IIRMC,190000,A,4740.882,N,12225.029,W,06.8,239,130413,16,E,A*1B
$GPRMC,190025.0,A,4740.88119,N,12225.03191,W,006.90,240.7,130413,016.6,E*4C
$HCHDG,216.6,0.0,E,,*2A
$GPRMC,190025.2,A,4740.88104,N,12225.03238,W,006.84,240.2,130413,016.6,E*42
$YXXDR,A,4.4,D,PTCH,A,25.0,D,ROLL*6A
$GPRMC,190025.4,A,4740.88084,N,12225.03281,W,006.77,237.3,130413,016.6,E*42
$IIVHW,,,,,00.0,N,,*19
$IIVLW,06210,N,000.0,N*56
$GPRMC,190025.6,A,4740.88063,N,12225.03326,W,006.53,236.4,130413,016.6,E*45
$PTAK,FFP1,HEEL,@*07
$IIDPT,035.6,-1.0,*40
$HCHDG,215.6,0.0,E,,*29
$IIGLL,4740.881,N,12225.031,W,190000,A,A*48
$IIMTW,+08.0,C*30
$YXXDR,A,5.3,D,PTCH,A,27.3,D,ROLL*6D
$GPRMC,190025.8,A,4740.88038,N,12225.03366,W,006.47,237.5,130413,016.6,E*44
$IIRMC,190000,A,4740.881,N,12225.031,W,06.9,240,130413,16,E,A*1E
$GPRMC,190026.0,A,4740.88017,N,12225.03410,W,006.18,242.8,130413,016.6,E*41
$HCHDG,214.5,0.0,E,,*2B
$GPRMC,190026.2,A,4740.88000,N,12225.03457,W,005.93,242.0,130413,016.6,E*4E
$YXXDR,A,4.2,D,PTCH,A,25.0,D,ROLL*6C
$GPRMC,190026.4,A,4740.87983,N,12225.03503,W,005.88,240.5,130413,016.6,E*48
$IIVHW,,,,,00.0,N,,*19
$IIVLW,06210,N,000.0,N*56
$GPRMC,190026.6,A,4740.87968,N,12225.03550,W,005.95,242.5,130413,016.6,E*47
$IIDPT,035.6,-1.0,*40
$HCHDG,217.6,0.0,E,,*2B
$IIGLL,4740.880,N,12225.034,W,190000,A,A*4C
$IIMTW,+08.0,C*30
$YXXDR,A,4.6,D,PTCH,A,20.4,D,ROLL*69
$GPRMC,190026.8,A,4740.87954,N,12225.03592,W,006.28,241.0,130413,016.6,E*4B
$IIRMC,190000,A,4740.880,N,12225.034,W,06.1,242,130413,16,E,A*10
$GPRMC,190027.0,A,4740.87940,N,12225.03635,W,006.22,241.6,130413,016.6,E*45
$HCHDG,217.2,0.0,E,,*2F
$GPRMC,190027.2,A,4740.87923,N,12225.03679,W,006.19,240.3,130413,016.6,E*46
$YXXDR,A,5.0,D,PTCH,A,22.5,D,ROLL*6D
$GPRMC,190027.4,A,4740.87903,N,12225.03727,W,006.15,240.5,130413,016.6,E*42
$IIVHW,,,,,00.0,N,,*19
$IIVLW,06210,N,000.0,N*56
$GPRMC,190027.6,A,4740.87888,N,12225.03776,W,006.38,240.8,130413,016.6,E*44
$IIDPT,035.6,-1.0,*40
$HCHDG,217.2,0.0,E,,*2F
$IIGLL,4740.879,N,12225.036,W,190000,A,A*48
$IIMTW,+08.0,C*30
$YXXDR,A,4.5,D,PTCH,A,22.6,D,ROLL*6A
$GPRMC,190027.8,A,4740.87873,N,12225.03835,W,006.14,240.9,130413,016.6,E*49
$IIRMC,190000,A,4740.879,N,12225.036,W,06.2,241,130413,16,E,A*14
$GPRMC,190028.0,A,4740.87854,N,12225.03885,W,006.32,243.3,130413,016.6,E*4D
$HCHDG,218.7,0.0,E,,*25
$GPRMC,190028.2,A,4740.87836,N,12225.03934,W,006.96,246.1,130413,016.6,E*49
$YXXDR,A,4.5,D,PTCH,A,21.0,D,ROLL*6F
$GPRMC,190028.4,A,4740.87821,N,12225.03983,W,006.68,244.0,130413,016.6,E*47
$IIVHW,,,,,00.0,N,,*19
$IIVLW,06210,N,000.0,N*56
$GPRMC,190028.6,A,4740.87807,N,12225.04029,W,006.35,245.7,130413,016.6,E*41
$IIGLL,4740.878,N,12225.038,W,190000,A,A*47
$HCHDG,219.5,0.0,E,,*26
$IIMTW,+08.0,C*30
$YXXDR,A,4.5,D,PTCH,A,22.9,D,ROLL*65
$GPRMC,190028.8,A,4740.87793,N,12225.04075,W,006.39,246.4,130413,016.6,E*48
$IIRMC,190000,A,4740.878,N,12225.038,W,06.3,243,130413,16,E,A*18
$GPRMC,190029.0,A,4740.87775,N,12225.04120,W,006.59,246.4,130413,016.6,E*4E
$HCHDG,219.5,0.0,E,,*26
$GPRMC,190029.2,A,4740.87753,N,12225.04168,W,006.57,247.9,130413,016.6,E*46
$YXXDR,A,4.3,D,PTCH,A,25.3,D,ROLL*6E
$GPRMC,190029.4,A,4740.87737,N,12225.04218,W,006.51,247.6,130413,016.6,E*4F
$IIVHW,,,,,00.0,N,,*19
$IIVLW,06210,N,000.0,N*56
$GPRMC,190029.6,A,4740.87721,N,12225.04267,W,006.50,246.1,130413,016.6,E*45
$IIGLL,4740.877,N,12225.041,W,190000,A,A*46
$HCHDG,219.7,0.0,E,,*24
$PTAK,FFP1,HEEL,@*07
$IIMTW,+08.0,C*30
$YXXDR,A,4.2,D,PTCH,A,27.0,D,ROLL*6E
$GPRMC,190029.8,A,4740.87709,N,12225.04313,W,006.55,247.6,130413,016.6,E*40
$IIRMC,190000,A,4740.877,N,12225.041,W,06.5,246,130413,16,E,A*1A
$GPRMC,190030.0,A,4740.87695,N,12225.04362,W,006.53,246.7,130413,016.6,E*44
$HCHDG,219.1,0.0,E,,*22
$GPRMC,190030.2,A,4740.87677,N,12225.04412,W,006.53,246.1,130413,016.6,E*4C
$YXXDR,A,4.2,D,PTCH,A,29.1,D,ROLL*61
$GPRMC,190030.4,A,4740.87663,N,12225.04465,W,006.52,246.0,130413,016.6,E*4F
$IIVHW,,,,,00.0,N,,*19
$IIVLW,06210,N,000.0,N*56
$GPRMC,190030.6,A,4740.87653,N,12225.04510,W,006.51,248.2,130413,016.6,E*42
$IIGLL,4740.876,N,12225.043,W,190000,A,A*45
$HCHDG,217.3,0.0,E,,*2E
$IIMTW,+08.0,C*30
$YXXDR,A,4.3,D,PTCH,A,31.0,D,ROLL*68
$GPRMC,190030.8,A,4740.87637,N,12225.04556,W,006.32,249.1,130413,016.6,E*4B
$IIRMC,190000,A,4740.876,N,12225.043,W,06.5,246,130413,16,E,A*19
$GPRMC,190031.0,A,4740.87623,N,12225.04599,W,006.37,245.3,130413,016.6,E*4F
$HCHDG,214.7,0.0,E,,*29
$GPRMC,190031.2,A,4740.87607,N,12225.04651,W,006.66,243.1,130413,016.6,E*4C
$YXXDR,A,3.1,D,PTCH,A,32.6,D,ROLL*68
$GPRMC,190031.4,A,4740.87589,N,12225.04698,W,006.59,243.2,130413,016.6,E*45
$IIVHW,,,,,00.0,N,,*19
$IIVLW,06210,N,000.0,N*56
$GPRMC,190031.6,A,4740.87568,N,12225.04734,W,006.62,244.9,130413,016.6,E*4B
$IIGLL,4740.876,N,12225.045,W,190000,A,A*43
$HCHDG,215.2,0.0,E,,*2D
$IIMTW,+08.0,C*30
$YXXDR,A,4.9,D,PTCH,A,30.8,D,ROLL*6B
$GPRMC,190031.8,A,4740.87550,N,12225.04778,W,006.57,241.1,130413,016.6,E*4D
$IIRMC,190000,A,4740.876,N,12225.045,W,06.3,245,130413,16,E,A*1A
$GPRMC,190032.0,A,4740.87534,N,12225.04821,W,006.59,239.2,130413,016.6,E*45
$HCHDG,213.4,0.0,E,,*2D
$GPRMC,190032.2,A,4740.87518,N,12225.04861,W,006.59,238.0,130413,016.6,E*4E
$YXXDR,A,5.4,D,PTCH,A,32.9,D,ROLL*64
$GPRMC,190032.4,A,4740.87495,N,12225.04902,W,006.36,234.9,130413,016.6,E*44
$IIVHW,,,,,00.0,N,,*19
$IIVLW,06210,N,000.0,N*56
$GPRMC,190032.6,A,4740.87473,N,12225.04938,W,006.30,236.1,130413,016.6,E*4B
$IIGLL,4740.875,N,12225.048,W,190000,A,A*4D
$HCHDG,211.5,0.0,E,,*2E
$IIMTW,+08.0,C*30
$YXXDR,A,3.9,D,PTCH,A,31.1,D,ROLL*64
$GPRMC,190032.8,A,4740.87457,N,12225.04980,W,006.34,239.1,130413,016.6,E*4B
$IIRMC,190000,A,4740.875,N,12225.048,W,06.5,239,130413,16,E,A*19
$GPRMC,190033.0,A,4740.87439,N,12225.05027,W,006.62,238.6,130413,016.6,E*4A
$HCHDG,214.1,0.0,E,,*2F
$GPRMC,190033.2,A,4740.87417,N,12225.05068,W,006.65,238.0,130413,016.6,E*4E
$YXXDR,A,4.7,D,PTCH,A,26.2,D,ROLL*68
$GPRMC,190033.4,A,4740.87396,N,12225.05114,W,006.71,238.8,130413,016.6,E*41
$IIVHW,,,,,00.0,N,,*19
$IIVLW,06210,N,000.0,N*56
$GPRMC,190033.6,A,4740.87376,N,12225.05156,W,006.66,236.6,130413,016.6,E*4D
$IIGLL,4740.874,N,12225.050,W,190000,A,A*45
$HCHDG,214.2,0.0,E,,*2C
$PTAK,FFP1,HEEL,@*07
$IIMTW,+08.0,C*30
$YXXDR,A,4.9,D,PTCH,A,27.9,D,ROLL*6C
$GPRMC,190033.8,A,4740.87355,N,12225.05204,W,006.66,236.4,130413,016.6,E*44
$IIRMC,190000,A,4740.874,N,12225.050,W,06.6,238,130413,16,E,A*13
$GPRMC,190034.0,A,4740.87333,N,12225.05252,W,006.73,236.7,130413,016.6,E*4F
$HCHDG,214.7,0.0,E,,*29
$GPRMC,190034.2,A,4740.87315,N,12225.05300,W,006.73,237.5,130413,016.6,E*4C
$YXXDR,A,4.8,D,PTCH,A,25.2,D,ROLL*64
$GPRMC,190034.4,A,4740.87295,N,12225.05355,W,006.71,239.3,130413,016.6,E*49
$IIVHW,,,,,00.0,N,,*19
$IIVLW,06210,N,000.0,N*56
$GPRMC,190034.6,A,4740.87274,N,12225.05409,W,006.49,240.5,130413,016.6,E*49
$IIGLL,4740.873,N,12225.052,W,190000,A,A*40
$HCHDG,215.5,0.0,E,,*2A
$IIMTW,+08.0,C*30
$YXXDR,A,4.3,D,PTCH,A,22.6,D,ROLL*6C
$GPRMC,190034.8,A,4740.87255,N,12225.05459,W,006.51,239.0,130413,016.6,E*43
$IIRMC,190000,A,4740.873,N,12225.052,W,06.7,236,130413,16,E,A*19
$GPRMC,190035.0,A,4740.87240,N,12225.05507,W,006.19,240.2,130413,016.6,E*44
$HCHDG,213.9,0.0,E,,*20
$GPRMC,190035.2,A,4740.87225,N,12225.05555,W,006.63,237.2,130413,016.6,E*4F
$YXXDR,A,3.4,D,PTCH,A,22.9,D,ROLL*63
$GPRMC,190035.4,A,4740.87211,N,12225.05599,W,006.94,238.4,130413,016.6,E*4F
$IIVHW,,,,,00.0,N,,*19
$IIVLW,06210,N,000.0,N*56
$GPRMC,190035.6,A,4740.87193,N,12225.05644,W,006.89,236.3,130413,016.6,E*42
$IIGLL,4740.872,N,12225.055,W,190000,A,A*46
$HCHDG,215.0,0.0,E,,*2F
$IIMTW,+08.0,C*30
$YXXDR,A,5.5,D,PTCH,A,21.5,D,ROLL*6B
$GPRMC,190035.8,A,4740.87172,N,12225.05686,W,006.90,235.8,130413,016.6,E*4D
$IIRMC,190000,A,4740.872,N,12225.055,W,06.1,240,130413,16,E,A*18
$GPRMC,190036.0,A,4740.87154,N,12225.05732,W,006.58,235.2,130413,016.6,E*42
$HCHDG,213.6,0.0,E,,*2F
$GPRMC,190036.2,A,4740.87134,N,12225.05776,W,006.56,236.5,130413,016.6,E*4C
$YXXDR,A,5.2,D,PTCH,A,23.9,D,ROLL*62
$GPRMC,190036.4,A,4740.87113,N,12225.05822,W,006.49,240.1,130413,016.6,E*4A
$IIVHW,,,,,00.0,N,,*19
$IIVLW,06210,N,000.0,N*56
$GPRMC,190036.6,A,4740.87097,N,12225.05868,W,006.54,241.6,130413,016.6,E*41
$IIGLL,4740.871,N,12225.057,W,190000,A,A*47
$HCHDG,215.0,0.0,E,,*2F
$IIMTW,+08.0,C*30
$YXXDR,A,4.3,D,PTCH,A,20.8,D,ROLL*60
$GPRMC,190036.8,A,4740.87081,N,12225.05916,W,006.55,242.3,130413,016.6,E*47
$IIRMC,190000,A,4740.871,N,12225.057,W,06.5,235,130413,16,E,A*1F
$GPRMC,190037.0,A,4740.87067,N,12225.05967,W,006.63,241.4,130413,016.6,E*41
$HCHDG,217.9,0.0,E,,*24
$GPRMC,190037.2,A,4740.87051,N,12225.06021,W,006.65,240.6,130413,016.6,E*4B
$YXXDR,A,5.3,D,PTCH,A,19.7,D,ROLL*64
$GPRMC,190037.4,A,4740.87036,N,12225.06075,W,006.71,240.0,130413,016.6,E*4E
$IIVHW,,,,,00.0,N,,*19
$IIVLW,06210,N,000.0,N*56
$GPRMC,190037.6,A,4740.87014,N,12225.06125,W,006.74,239.8,130413,016.6,E*4B
$IIGLL,4740.870,N,12225.059,W,190000,A,A*48
$HCHDG,216.9,0.0,E,,*25
$PTAK,FFP1,HEEL,@*07
$IIMTW,+08.0,C*30
$YXXDR,A,4.9,D,PTCH,A,22.9,D,ROLL*69
$GPRMC,190037.8,A,4740.86993,N,12225.06178,W,006.79,239.4,130413,016.6,E*4B
$IIRMC,190000,A,4740.870,N,12225.059,W,06.6,241,130413,16,E,A*10
$GPRMC,190038.0,A,4740.86974,N,12225.06232,W,006.84,239.2,130413,016.6,E*4C
$HCHDG,217.4,0.0,E,,*29
$GPRMC,190038.2,A,4740.86952,N,12225.06286,W,006.86,240.5,130413,016.6,E*4E
$YXXDR,A,5.1,D,PTCH,A,22.7,D,ROLL*6E
$GPRMC,190038.4,A,4740.86933,N,12225.06337,W,006.51,242.7,130413,016.6,E*4E
$IIVHW,,,,,00.0,N,,*19
$IIVLW,06210,N,000.0,N*56
$GPRMC,190038.6,A,4740.86912,N,12225.06389,W,006.57,241.8,130413,016.6,E*40
$IIGLL,4740.869,N,12225.062,W,190000,A,A*48
$HCHDG,217.1,0.0,E,,*2C
$IIMTW,+08.0,C*30
$YXXDR,A,3.3,D,PTCH,A,22.9,D,ROLL*64
$GPRMC,190038.8,A,4740.86892,N,12225.06450,W,006.51,243.7,130413,016.6,E*4F
$IIRMC,190000,A,4740.869,N,12225.062,W,06.8,239,130413,16,E,A*11
$GPRMC,190039.0,A,4740.86876,N,12225.06507,W,006.48,243.0,130413,016.6,E*40
$HCHDG,217.8,0.0,E,,*25
$GPRMC,190039.2,A,4740.86859,N,12225.06551,W,006.69,242.0,130413,016.6,E*4E
$YXXDR,A,4.0,D,PTCH,A,21.7,D,ROLL*6D
$GPRMC,190039.4,A,4740.86843,N,12225.06600,W,006.76,241.1,130413,016.6,E*48
$IIVHW,,,,,00.0,N,,*19
$IIVLW,06210,N,000.0,N*56
$GPRMC,190039.6,A,4740.86823,N,12225.06648,W,006.79,240.6,130413,016.6,E*49
$IIGLL,4740.868,N,12225.065,W,190000,A,A*4E
$HCHDG,219.2,0.0,E,,*21
$IIMTW,+08.0,C*30
$YXXDR,A,5.9,D,PTCH,A,23.2,D,ROLL*62
$GPRMC,190039.8,A,4740.86804,N,12225.06704,W,006.76,241.8,130413,016.6,E*4B
$IIRMC,190000,A,4740.868,N,12225.065,W,06.4,243,130413,16,E,A*16
$GPRMC,190040.0,A,4740.86787,N,12225.06760,W,006.81,244.4,130413,016.6,E*4A
$HCHDG,217.8,0.0,E,,*25
$GPRMC,190040.2,A,4740.86769,N,12225.06814,W,006.53,244.6,130413,016.6,E*49
$YXXDR,A,4.7,D,PTCH,A,24.6,D,ROLL*6E
$GPRMC,190040.4,A,4740.86750,N,12225.06863,W,006.52,244.7,130413,016.6,E*45
$IIVHW,,,,,00.0,N,,*19
$IIVLW,06210,N,000.0,N*56
$GPRMC,190040.6,A,4740.86730,N,12225.06910,W,006.51,243.9,130413,016.6,E*4E
$IIGLL,4740.867,N,12225.067,W,190000,A,A*43
$HCHDG,219.4,0.0,E,,*27
$IIMTW,+08.0,C*30
$YXXDR,A,4.9,D,PTCH,A,20.5,D,ROLL*67
$GPRMC,190040.8,A,4740.86717,N,12225.06957,W,006.54,242.9,130413,016.6,E*42
$IIRMC,190000,A,4740.867,N,12225.067,W,06.8,244,130413,16,E,A*10
$GPRMC,190041.0,A,4740.86701,N,12225.07006,W,006.59,242.9,130413,016.6,E*4D
$HCHDG,218.3,0.0,E,,*21
$GPRMC,190041.2,A,4740.86686,N,12225.07052,W,006.55,242.5,130413,016.6,E*40
$YXXDR,A,4.7,D,PTCH,A,23.7,D,ROLL*68
$GPRMC,190041.4,A,4740.86670,N,12225.07098,W,006.57,242.3,130413,016.6,E*4D
$IIVHW,,,,,00.0,N,,*19
$IIVLW,06210,N,000.0,N*56
$GPRMC,190041.6,A,4740.86651,N,12225.07141,W,006.54,241.2,130413,016.6,E*48
$IIGLL,4740.867,N,12225.070,W,190000,A,A*45
$HCHDG,216.6,0.0,E,,*2A
$PTAK,FFP1,HEEL,@*07
$IIMTW,+08.0,C*30
$YXXDR,A,4.4,D,PTCH,A,24.4,D,ROLL*6F
$GPRMC,190041.8,A,4740.86630,N,12225.07186,W,006.53,239.7,130413,016.6,E*47
$IIRMC,190000,A,4740.867,N,12225.070,W,06.5,242,130413,16,E,A*1D
$GPRMC,190042.0,A,4740.86611,N,12225.07229,W,006.53,241.4,130413,016.6,E*45
$HCHDG,216.7,0.0,E,,*2B
$GPRMC,190042.2,A,4740.86596,N,12225.07274,W,006.54,241.1,130413,016.6,E*41
$YXXDR,A,5.2,D,PTCH,A,23.6,D,ROLL*6D
$GPRMC,190042.4,A,4740.86586,N,12225.07325,W,006.53,242.9,130413,016.6,E*4F
$IIVHW,,,,,00.0,N,,*19
$IIVLW,06210,N,000.0,N*56
$GPRMC,190042.6,A,4740.86571,N,12225.07376,W,006.36,243.1,130413,016.6,E*49
$IIGLL,4740.866,N,12225.072,W,190000,A,A*46
$HCHDG,217.2,0.0,E,,*2F
$IIMTW,+08.0,C*30
$YXXDR,A,4.9,D,PTCH,A,22.9,D,ROLL*69
$GPRMC,190042.8,A,4740.86559,N,12225.07427,W,006.36,244.0,130413,016.6,E*48
$IIRMC,190000,A,4740.866,N,12225.072,W,06.5,241,130413,16,E,A*1D
$GPRMC,190043.0,A,4740.86545,N,12225.07470,W,006.32,243.7,130413,016.6,E*4A
$HCHDG,217.4,0.0,E,,*29
$GPRMC,190043.2,A,4740.86529,N,12225.07514,W,006.30,243.5,130413,016.6,E*41
$YXXDR,A,3.5,D,PTCH,A,23.0,D,ROLL*6A
$GPRMC,190043.4,A,4740.86517,N,12225.07559,W,006.33,246.6,130413,016.6,E*46
$IIVHW,,,,,00.0,N,,*19
$IIVLW,06210,N,000.0,N*56
$GPRMC,190043.6,A,4740.86501,N,12225.07605,W,006.36,246.4,130413,016.6,E*4E
$IIGLL,4740.865,N,12225.074,W,190000,A,A*43
$HCHDG,220.4,0.0,E,,*2D
$IIMTW,+08.0,C*30
$YXXDR,A,4.8,D,PTCH,A,20.6,D,ROLL*65
$GPRMC,190043.8,A,4740.86482,N,12225.07654,W,006.79,245.2,130413,016.6,E*40
$IIRMC,190000,A,4740.865,N,12225.074,W,06.3,243,130413,16,E,A*1C
$GPRMC,190044.0,A,4740.86465,N,12225.07699,W,006.53,243.0,130413,016.6,E*4B
$PGRMT,GPS 18x-5Hz software ver. 3.20,,,,,,,,*30
$HCHDG,219.5,0.0,E,,*26
$GPRMC,190044.2,A,4740.86444,N,12225.07745,W,006.60,245.0,130413,016.6,E*4C
$YXXDR,A,5.3,D,PTCH,A,24.4,D,ROLL*69
$GPRMC,190044.4,A,4740.86428,N,12225.07792,W,006.37,243.5,130413,016.6,E*4B
$IIVHW,,,,,00.0,N,,*19
$IIVLW,06210,N,000.0,N*56
$GPRMC,190044.6,A,4740.86412,N,12225.07839,W,006.08,244.8,130413,016.6,E*48
$IIGLL,4740.864,N,12225.076,W,190000,A,A*40
$HCHDG,216.7,0.0,E,,*2B
$IIMTW,+08.0,C*30
$YXXDR,A,4.3,D,PTCH,A,26.1,D,ROLL*6F
$GPRMC,190044.8,A,4740.86401,N,12225.07881,W,006.14,246.2,130413,016.6,E*42
$IIRMC,190000,A,4740.864,N,12225.076,W,06.5,243,130413,16,E,A*19
$GPRMC,190045.0,A,4740.86385,N,12225.07926,W,006.43,243.4,130413,016.6,E*4D
$HCHDG,216.6,0.0,E,,*2A
$GPRMC,190045.2,A,4740.86362,N,12225.07972,W,006.46,243.3,130413,016.6,E*45
$YXXDR,A,4.5,D,PTCH,A,23.2,D,ROLL*6F
$GPRMC,190045.4,A,4740.86346,N,12225.08023,W,006.45,241.2,130413,016.6,E*47
$IIVHW,,,,,00.0,N,,*19
$PTAK,FFP1,HEEL,@*07
$IIVLW,06210,N,000.0,N*56
$GPRMC,190045.6,A,4740.86322,N,12225.08074,W,006.44,240.8,130413,016.6,E*4F
$IIGLL,4740.863,N,12225.079,W,190000,A,A*48
$HCHDG,215.1,0.0,E,,*2E
$IIMTW,+08.0,C*30
$YXXDR,A,4.5,D,PTCH,A,24.9,D,ROLL*63
$GPRMC,190045.8,A,4740.86297,N,12225.08122,W,006.46,239.7,130413,016.6,E*4F
$IIRMC,190000,A,4740.863,N,12225.079,W,06.4,243,130413,16,E,A*10
$GPRMC,190046.0,A,4740.86277,N,12225.08171,W,006.25,240.4,130413,016.6,E*44
$HCHDG,213.9,0.0,E,,*20
$GPRMC,190046.2,A,4740.86255,N,12225.08218,W,006.28,239.5,130413,016.6,E*48
$YXXDR,A,5.0,D,PTCH,A,24.6,D,ROLL*68
$GPRMC,190046.4,A,4740.86232,N,12225.08268,W,006.29,239.3,130413,016.6,E*4F
$IIVHW,,,,,00.0,N,,*19
$IIVLW,06210,N,000.0,N*56
$GPRMC,190046.6,A,4740.86209,N,12225.08314,W,006.31,238.3,130413,016.6,E*47
$IIGLL,4740.862,N,12225.081,W,190000,A,A*4E
$HCHDG,214.7,0.0,E,,*29
$IIMTW,+08.0,C*30
$YXXDR,A,5.0,D,PTCH,A,23.3,D,ROLL*6A
$GPRMC,190046.8,A,4740.86187,N,12225.08363,W,006.25,240.9,130413,016.6,E*4C
$IIRMC,190000,A,4740.862,N,12225.081,W,06.2,240,130413,16,E,A*13
$GPRMC,190047.0,A,4740.86164,N,12225.08414,W,006.20,242.2,130413,016.6,E*43
$HCHDG,215.2,0.0,E,,*2D
$GPRMC,190047.2,A,4740.86147,N,12225.08469,W,006.24,243.2,130413,016.6,E*4F
$YXXDR,A,3.6,D,PTCH,A,23.0,D,ROLL*69
$GPRMC,190047.4,A,4740.86131,N,12225.08522,W,006.69,242.8,130413,016.6,E*44
$IIVHW,,,,,00.0,N,,*19
$IIVLW,06210,N,000.0,N*56
$GPRMC,190047.6,A,4740.86111,N,12225.08561,W,006.73,241.5,130413,016.6,E*46
$IIGLL,4740.861,N,12225.084,W,190000,A,A*48
$HCHDG,218.8,0.0,E,,*2A
$IIMTW,+08.0,C*30
$YXXDR,A,4.8,D,PTCH,A,20.7,D,ROLL*64
$GPRMC,190047.8,A,4740.86097,N,12225.08608,W,006.42,242.8,130413,016.6,E*47
$IIRMC,190000,A,4740.861,N,12225.084,W,06.2,242,130413,16,E,A*17
$GPRMC,190048.0,A,4740.86079,N,12225.08651,W,006.47,241.5,130413,016.6,E*47
$HCHDG,216.9,0.0,E,,*25
$GPRMC,190048.2,A,4740.86062,N,12225.08697,W,006.45,241.8,130413,016.6,E*4A
$YXXDR,A,4.4,D,PTCH,A,25.4,D,ROLL*6E
$GPRMC,190048.4,A,4740.86045,N,12225.08744,W,006.42,240.9,130413,016.6,E*41
$IIVHW,,,,,00.0,N,,*19
$IIVLW,06210,N,000.0,N*56
$GPRMC,190048.6,A,4740.86027,N,12225.08790,W,006.40,243.0,130413,016.6,E*46
$IIGLL,4740.860,N,12225.086,W,190000,A,A*4B
$HCHDG,215.6,0.0,E,,*29
$IIMTW,+08.0,C*30
$YXXDR,A,4.1,D,PTCH,A,24.5,D,ROLL*6B
$GPRMC,190048.8,A,4740.86006,N,12225.08840,W,006.39,240.8,130413,016.6,E*4C
$IIRMC,190000,A,4740.860,N,12225.086,W,06.4,241,130413,16,E,A*11
$GPRMC,190049.0,A,4740.85990,N,12225.08886,W,006.57,241.0,130413,016.6,E*4B
$HCHDG,215.7,0.0,E,,*28
$GPRMC,190049.2,A,4740.85969,N,12225.08932,W,006.57,238.9,130413,016.6,E*46
$YXXDR,A,4.7,D,PTCH,A,24.6,D,ROLL*6E
$GPRMC,190049.4,A,4740.85948,N,12225.08985,W,006.55,241.2,130413,016.6,E*48
$IIVHW,,,,,00.0,N,,*19
$PTAK,FFP1,HEEL,@*07
$IIVLW,06210,N,000.0,N*56
$GPRMC,190049.6,A,4740.85932,N,12225.09033,W,006.59,239.8,130413,016.6,E*4B
$IIGLL,4740.859,N,12225.088,W,190000,A,A*4F
$HCHDG,215.0,0.0,E,,*2F
$IIMTW,+08.0,C*30
$YXXDR,A,4.2,D,PTCH,A,24.6,D,ROLL*6B
$GPRMC,190049.8,A,4740.85917,N,12225.09087,W,006.66,238.9,130413,016.6,E*41
$IIRMC,190000,A,4740.859,N,12225.088,W,06.5,241,130413,16,E,A*14
$GPRMC,190050.0,A,4740.85900,N,12225.09135,W,006.60,239.0,130413,016.6,E*41
$HCHDG,214.7,0.0,E,,*29
$GPRMC,190050.2,A,4740.85883,N,12225.09186,W,006.82,240.3,130413,016.6,E*40
$YXXDR,A,4.8,D,PTCH,A,24.3,D,ROLL*64
$GPRMC,190050.4,A,4740.85863,N,12225.09243,W,006.52,240.1,130413,016.6,E*4D
$IIVHW,,,,,00.0,N,,*19
$IIVLW,06210,N,000.0,N*56
$GPRMC,190050.6,A,4740.85843,N,12225.09294,W,006.45,235.9,130413,016.6,E*4B
$IIGLL,4740.859,N,12225.091,W,190000,A,A*47
$HCHDG,213.4,0.0,E,,*2D
$IIMTW,+08.0,C*30
$YXXDR,A,5.1,D,PTCH,A,24.6,D,ROLL*69
$GPRMC,190050.8,A,4740.85821,N,12225.09341,W,006.42,235.3,130413,016.6,E*45
$IIRMC,190000,A,4740.859,N,12225.091,W,06.6,239,130413,16,E,A*10
$GPRMC,190051.0,A,4740.85799,N,12225.09389,W,006.48,234.7,130413,016.6,E*4B
$HCHDG,211.3,0.0,E,,*28
$GPRMC,190051.2,A,4740.85778,N,12225.09439,W,006.52,235.7,130413,016.6,E*40
$YXXDR,A,3.5,D,PTCH,A,23.5,D,ROLL*6F
$GPRMC,190051.4,A,4740.85758,N,12225.09486,W,006.82,236.2,130413,016.6,E*4B
$IIVHW,,,,,00.0,N,,*19
$IIVLW,06210,N,000.0,N*56
$GPRMC,190051.6,A,4740.85740,N,12225.09531,W,006.81,235.4,130413,016.6,E*4B
$IIGLL,4740.857,N,12225.093,W,190000,A,A*4B
$HCHDG,213.5,0.0,E,,*2C
$IIMTW,+08.0,C*30
$YXXDR,A,5.1,D,PTCH,A,19.7,D,ROLL*66
$GPRMC,190051.8,A,4740.85722,N,12225.09577,W,006.60,236.4,130413,016.6,E*4F
$IIRMC,190000,A,4740.857,N,12225.093,W,06.4,234,130413,16,E,A*13
$GPRMC,190052.0,A,4740.85703,N,12225.09624,W,006.58,233.1,130413,016.6,E*49
$HCHDG,212.2,0.0,E,,*2A
$GPRMC,190052.2,A,4740.85684,N,12225.09669,W,006.32,234.1,130413,016.6,E*47
$YXXDR,A,5.0,D,PTCH,A,21.1,D,ROLL*6A
$GPRMC,190052.4,A,4740.85667,N,12225.09719,W,006.35,235.6,130413,016.6,E*4B
$IIVHW,,,,,00.0,N,,*19
$IIVLW,06210,N,000.0,N*56
$GPRMC,190052.6,A,4740.85653,N,12225.09761,W,006.39,238.2,130413,016.6,E*44
$IIGLL,4740.857,N,12225.096,W,190000,A,A*4E
$HCHDG,214.9,0.0,E,,*27
$IIMTW,+08.0,C*30
$YXXDR,A,4.9,D,PTCH,A,17.2,D,ROLL*64
$GPRMC,190052.8,A,4740.85638,N,12225.09807,W,006.67,238.7,130413,016.6,E*46
$IIRMC,190000,A,4740.857,N,12225.096,W,06.5,233,130413,16,E,A*10
$GPRMC,190053.0,A,4740.85623,N,12225.09853,W,006.62,238.5,130413,016.6,E*43
$HCHDG,217.5,0.0,E,,*28
$GPRMC,190053.2,A,4740.85603,N,12225.09899,W,006.43,238.3,130413,016.6,E*40
$YXXDR,A,4.8,D,PTCH,A,15.7,D,ROLL*62
$GPRMC,190053.4,A,4740.85586,N,12225.09938,W,006.41,240.2,130413,016.6,E*4E
$IIVHW,,,,,00.0,N,,*19
$IIVLW,06210,N,000.0,N*56
$GPRMC,190053.6,A,4740.85569,N,12225.09982,W,006.64,241.1,130413,016.6,E*49
$PTAK,FFP1,HEEL,@*07
$IIGLL,4740.856,N,12225.098,W,190000,A,A*41
$HCHDG,219.0,0.0,E,,*23
$IIMTW,+08.0,C*30
$YXXDR,A,4.9,D,PTCH,A,16.7,D,ROLL*60
$GPRMC,190053.8,A,4740.85552,N,12225.10027,W,006.64,241.3,130413,016.6,E*43
$IIRMC,190000,A,4740.856,N,12225.098,W,06.6,238,130413,16,E,A*17
$GPRMC,190054.0,A,4740.85535,N,12225.10072,W,006.59,241.2,130413,016.6,E*42
$HCHDG,219.9,0.0,E,,*2A
$GPRMC,190054.2,A,4740.85520,N,12225.10123,W,006.65,244.2,130413,016.6,E*4B
$YXXDR,A,4.8,D,PTCH,A,16.9,D,ROLL*6F
$GPRMC,190054.4,A,4740.85504,N,12225.10175,W,006.67,244.8,130413,016.6,E*40
$IIVHW,,,,,00.0,N,,*19
$IIVLW,06210,N,000.0,N*56
$GPRMC,190054.6,A,4740.85485,N,12225.10221,W,006.72,244.7,130413,016.6,E*43
$IIGLL,4740.855,N,12225.100,W,190000,A,A*42
$HCHDG,220.2,0.0,E,,*2B
$IIMTW,+08.0,C*30
$YXXDR,A,4.9,D,PTCH,A,17.6,D,ROLL*60
$GPRMC,190054.8,A,4740.85463,N,12225.10260,W,006.71,242.5,130413,016.6,E*47
$IIRMC,190000,A,4740.855,N,12225.100,W,06.5,241,130413,16,E,A*19
$GPRMC,190055.0,A,4740.85442,N,12225.10307,W,006.71,243.3,130413,016.6,E*4A
$HCHDG,218.2,0.0,E,,*20
$GPRMC,190055.2,A,4740.85426,N,12225.10355,W,006.50,244.3,130413,016.6,E*49
$YXXDR,A,5.0,D,PTCH,A,20.3,D,ROLL*69
$GPRMC,190055.4,A,4740.85408,N,12225.10406,W,006.49,242.9,130413,016.6,E*46
$IIVHW,,,,,00.0,N,,*19
$IIVLW,06210,N,000.0,N*56
$GPRMC,190055.6,A,4740.85384,N,12225.10460,W,006.24,243.2,130413,016.6,E*46
$IIGLL,4740.854,N,12225.103,W,190000,A,A*40
$HCHDG,215.5,0.0,E,,*2A
$IIMTW,+08.0,C*30
$YXXDR,A,3.4,D,PTCH,A,21.5,D,ROLL*6C
$GPRMC,190055.8,A,4740.85371,N,12225.10518,W,006.40,243.5,130413,016.6,E*49
$IIRMC,190000,A,4740.854,N,12225.103,W,06.7,243,130413,16,E,A*1B
$GPRMC,190056.0,A,4740.85348,N,12225.10563,W,006.68,241.9,130413,016.6,E*40
$HCHDG,215.4,0.0,E,,*2B
$GPRMC,190056.2,A,4740.85326,N,12225.10611,W,006.71,240.1,130413,016.6,E*4D
$YXXDR,A,5.7,D,PTCH,A,19.5,D,ROLL*62
$GPRMC,190056.4,A,4740.85309,N,12225.10658,W,006.64,236.0,130413,016.6,E*4F
$IIVHW,,,,,00.0,N,,*19
$IIVLW,06210,N,000.0,N*56
$GPRMC,190056.6,A,4740.85291,N,12225.10710,W,006.44,236.6,130413,016.6,E*44
$IIGLL,4740.853,N,12225.105,W,190000,A,A*41
$HCHDG,213.4,0.0,E,,*2D
$IIMTW,+08.0,C*30
$YXXDR,A,6.0,D,PTCH,A,22.8,D,ROLL*63
$GPRMC,190056.8,A,4740.85281,N,12225.10760,W,006.00,239.4,130413,016.6,E*41
$IIRMC,190000,A,4740.853,N,12225.105,W,06.6,241,130413,16,E,A*19
$GPRMC,190057.0,A,4740.85271,N,12225.10807,W,005.43,243.6,130413,016.6,E*42
$HCHDG,211.4,0.0,E,,*2F
$GPRMC,190057.2,A,4740.85257,N,12225.10853,W,005.46,243.1,130413,016.6,E*47
$YXXDR,A,4.4,D,PTCH,A,22.7,D,ROLL*6A
$GPRMC,190057.4,A,4740.85245,N,12225.10903,W,005.89,242.0,130413,016.6,E*45
$IIVHW,,,,,00.0,N,,*19
$IIVLW,06210,N,000.0,N*56
$GPRMC,190057.6,A,4740.85231,N,12225.10946,W,006.18,240.6,130413,016.6,E*4A
$PTAK,FFP1,HEEL,@*07
$IIGLL,4740.852,N,12225.108,W,190000,A,A*4D
$HCHDG,213.5,0.0,E,,*2C
$IIMTW,+08.0,C*30
$YXXDR,A,4.4,D,PTCH,A,19.4,D,ROLL*61
$GPRMC,190057.8,A,4740.85222,N,12225.10992,W,006.17,241.2,130413,016.6,E*45
$IIRMC,190000,A,4740.852,N,12225.108,W,05.4,243,130413,16,E,A*16
$GPRMC,190058.0,A,4740.85209,N,12225.11035,W,006.17,240.3,130413,016.6,E*4E
$HCHDG,214.1,0.0,E,,*2F
$GPRMC,190058.2,A,4740.85185,N,12225.11071,W,006.17,239.5,130413,016.6,E*43
$YXXDR,A,4.9,D,PTCH,A,22.5,D,ROLL*65
$GPRMC,190058.4,A,4740.85166,N,12225.11104,W,005.92,239.5,130413,016.6,E*45
$IIVHW,,,,,00.0,N,,*19
$IIVLW,06210,N,000.0,N*56
$GPRMC,190058.6,A,4740.85152,N,12225.11147,W,006.18,239.8,130413,016.6,E*4B
$IIGLL,4740.852,N,12225.110,W,190000,A,A*44
$HCHDG,213.1,0.0,E,,*28
$IIMTW,+08.0,C*30
$YXXDR,A,4.9,D,PTCH,A,23.8,D,ROLL*69
$GPRMC,190058.8,A,4740.85139,N,12225.11193,W,006.11,240.3,130413,016.6,E*4D
$IIRMC,190000,A,4740.852,N,12225.110,W,06.1,240,130413,16,E,A*1A
$GPRMC,190059.0,A,4740.85121,N,12225.11236,W,005.88,239.9,130413,016.6,E*46
$HCHDG,213.1,0.0,E,,*28
$GPRMC,190059.2,A,4740.85098,N,12225.11284,W,005.80,238.9,130413,016.6,E*47
$YXXDR,A,4.4,D,PTCH,A,23.2,D,ROLL*6E
$GPRMC,190059.4,A,4740.85076,N,12225.11330,W,005.85,240.0,130413,016.6,E*4C
$GPRMC,190059.6,A,4740.85057,N,12225.11367,W,006.05,240.0,130413,016.6,E*44
$HCHDG,211.1,0.0,E,,*2A
$YXXDR,A,4.1,D,PTCH,A,24.5,D,ROLL*6B
$GPRMC,190059.8,A,4740.85038,N,12225.11407,W,006.22,240.4,130413,016.6,E*43
$GPRMC,190100.0,A,4740.85021,N,12225.11444,W,006.19,237.2,130413,016.6,E*47
$HCHDG,210.1,0.0,E,,*2B
$GPRMC,190100.2,A,4740.85007,N,12225.11479,W,006.02,235.3,130413,016.6,E*46
$YXXDR,A,5.1,D,PTCH,A,25.5,D,ROLL*6B
$GPRMC,190100.4,A,4740.84985,N,12225.11518,W,005.98,234.0,130413,016.6,E*46
$GPRMC,190100.6,A,4740.84963,N,12225.11563,W,005.68,231.3,130413,016.6,E*49
$HCHDG,208.0,0.0,E,,*23
$YXXDR,A,4.9,D,PTCH,A,25.4,D,ROLL*63
$GPRMC,190100.8,A,4740.84949,N,12225.11601,W,005.49,231.4,130413,016.6,E*4C
$GPRMC,190101.0,A,4740.84931,N,12225.11636,W,005.72,233.0,130413,016.6,E*40
$HCHDG,208.6,0.0,E,,*25
$GPRMC,190101.2,A,4740.84914,N,12225.11675,W,005.78,233.9,130413,016.6,E*41
$YXXDR,A,4.3,D,PTCH,A,22.4,D,ROLL*6E
$GPRMC,190101.4,A,4740.84896,N,12225.11715,W,005.86,237.2,130413,016.6,E*45
$IIVHW,,,,,00.0,N,,*19
$IIVLW,06210,N,000.0,N*56
$GPRMC,190101.6,A,4740.84883,N,12225.11748,W,005.81,236.4,130413,016.6,E*4B
$IIGLL,4740.851,N,12225.112,W,190000,A,A*45
$HCHDG,212.5,0.0,E,,*2D
$PTAK,FFP1,HEEL,@*07
$IIMTW,+08.0,C*30
$YXXDR,A,5.0,D,PTCH,A,18.7,D,ROLL*66
$GPRMC,190101.8,A,4740.84869,N,12225.11785,W,005.87,234.7,130413,016.6,E*47
$IIRMC,190000,A,4740.851,N,12225.112,W,05.8,239,130413,16,E,A*1F
$IIVHW,,,,,00.0,N,,*19
$IIVLW,06210,N,000.0,N*56
$GPRMC,190102.0,A,4740.84850,N,12225.11822,W,005.79,235.6,130413,016.6,E*45
$IIGLL,4740.851,N,12225.112,W,190000,A,A*45
$IIMTW,+08.0,C*30
$HCHDG,212.3,0.0,E,,*2B
$GPRMC,190102.2,A,4740.84830,N,12225.11857,W,005.80,236.9,130413,016.6,E*49
$YXXDR,A,4.2,D,PTCH,A,20.4,D,ROLL*6D
$GPRMC,190102.4,A,4740.84814,N,12225.11902,W,006.02,236.2,130413,016.6,E*4A
$IIRMC,190100,A,4740.849,N,12225.116,W,05.7,233,130413,16,E,A*16
$GPRMC,190102.6,A,4740.84802,N,12225.11951,W,006.07,241.2,130413,016.6,E*4C
$IIVHW,,,,,00.0,N,,*19
$HCHDG,215.7,0.0,E,,*28
$IIVLW,06210,N,000.0,N*56
$YXXDR,A,5.2,D,PTCH,A,15.8,D,ROLL*66
$IIGLL,4740.849,N,12225.116,W,190100,A,A*49
$GPRMC,190102.8,A,4740.84792,N,12225.12005,W,006.11,241.9,130413,016.6,E*43
$IIMTW,+08.0,C*30
$GPRMC,190103.0,A,4740.84776,N,12225.12050,W,006.12,239.6,130413,016.6,E*43
$HCHDG,217.3,0.0,E,,*2E
$GPRMC,190103.2,A,4740.84761,N,12225.12093,W,006.09,240.3,130413,016.6,E*49
$YXXDR,A,6.0,D,PTCH,A,16.9,D,ROLL*65
$GPRMC,190103.4,A,4740.84744,N,12225.12141,W,005.92,238.5,130413,016.6,E*4E
$IIRMC,190100,A,4740.848,N,12225.118,W,05.8,236,130413,16,E,A*13
$GPRMC,190103.6,A,4740.84729,N,12225.12183,W,005.71,238.9,130413,016.6,E*48
$IIVHW,,,,,00.0,N,,*19
$HCHDG,215.5,0.0,E,,*2A
$IIVLW,06210,N,000.0,N*56
$YXXDR,A,4.8,D,PTCH,A,18.9,D,ROLL*61
$IIGLL,4740.848,N,12225.118,W,190100,A,A*46
$GPRMC,190103.8,A,4740.84709,N,12225.12223,W,005.72,239.8,130413,016.6,E*4E
$IIMTW,+08.0,C*30
$GPRMC,190104.0,A,4740.84690,N,12225.12268,W,005.74,241.0,130413,016.6,E*4E
$HCHDG,214.8,0.0,E,,*26
$GPRMC,190104.2,A,4740.84668,N,12225.12317,W,005.80,242.0,130413,016.6,E*4A
$YXXDR,A,3.0,D,PTCH,A,18.0,D,ROLL*67
$GPRMC,190104.4,A,4740.84650,N,12225.12362,W,006.09,247.6,130413,016.6,E*44
$IIRMC,190100,A,4740.846,N,12225.123,W,05.8,242,130413,16,E,A*16
$GPRMC,190104.6,A,4740.84633,N,12225.12396,W,006.03,242.2,130413,016.6,E*43
$IIVHW,,,,,00.0,N,,*19
$HCHDG,216.6,0.0,E,,*2A
$IIVLW,06210,N,000.0,N*56
$YXXDR,A,5.4,D,PTCH,A,17.8,D,ROLL*62
$IIGLL,4740.846,N,12225.123,W,190100,A,A*40
$GPRMC,190104.8,A,4740.84623,N,12225.12429,W,005.86,238.5,130413,016.6,E*4B
$IIMTW,+08.0,C*30
$GPRMC,190105.0,A,4740.84611,N,12225.12479,W,005.88,238.1,130413,016.6,E*4C
$HCHDG,215.1,0.0,E,,*2E
$GPRMC,190105.2,A,4740.84593,N,12225.12532,W,005.68,239.0,130413,016.6,E*47
$YXXDR,A,6.1,D,PTCH,A,21.9,D,ROLL*60
$GPRMC,190105.4,A,4740.84566,N,12225.12570,W,005.20,242.0,130413,016.6,E*4D
$IIRMC,190100,A,4740.845,N,12225.125,W,05.6,239,130413,16,E,A*11
$GPRMC,190105.6,A,4740.84542,N,12225.12609,W,005.65,242.1,130413,016.6,E*44
$IIVHW,,,,,00.0,N,,*19
$HCHDG,214.7,0.0,E,,*29
$IIVLW,06210,N,000.0,N*56
$YXXDR,A,3.8,D,PTCH,A,20.6,D,ROLL*62
$IIGLL,4740.845,N,12225.125,W,190100,A,A*45
$GPRMC,190105.8,A,4740.84532,N,12225.12654,W,005.69,245.6,130413,016.6,E*49
$IIMTW,+08.0,C*30
$GPRMC,190106.0,A,4740.84524,N,12225.12695,W,006.02,244.3,130413,016.6,E*42
$PTAK,FFP1,HEEL,@*07
$HCHDG,218.3,0.0,E,,*21
$GPRMC,190106.2,A,4740.84512,N,12225.12736,W,006.08,245.0,130413,016.6,E*45
$YXXDR,A,4.6,D,PTCH,A,17.5,D,ROLL*6C
$GPRMC,190106.4,A,4740.84496,N,12225.12775,W,005.88,240.6,130413,016.6,E*41
$IIRMC,190100,A,4740.845,N,12225.127,W,06.0,245,130413,16,E,A*1D
$GPRMC,190106.6,A,4740.84476,N,12225.12816,W,005.94,240.8,130413,016.6,E*44
$IIVHW,,,,,00.0,N,,*19
$HCHDG,216.7,0.0,E,,*2B
$IIVLW,06210,N,000.0,N*56
$YXXDR,A,4.9,D,PTCH,A,23.6,D,ROLL*67
$IIGLL,4740.845,N,12225.127,W,190100,A,A*47
$GPRMC,190106.8,A,4740.84459,N,12225.12868,W,005.86,241.9,130413,016.6,E*4D
$IIMTW,+08.0,C*30
$GPRMC,190107.0,A,4740.84443,N,12225.12913,W,005.80,241.5,130413,016.6,E*48
$HCHDG,215.1,0.0,E,,*2E
$GPRMC,190107.2,A,4740.84426,N,12225.12958,W,005.73,245.3,130413,016.6,E*48
$YXXDR,A,4.3,D,PTCH,A,26.0,D,ROLL*6E
$GPRMC,190107.4,A,4740.84416,N,12225.13009,W,006.09,243.1,130413,016.6,E*4B
$IIRMC,190100,A,4740.844,N,12225.129,W,05.7,245,130413,16,E,A*16
$GPRMC,190107.6,A,4740.84400,N,12225.13051,W,006.09,241.8,130413,016.6,E*48
$IIVHW,,,,,00.0,N,,*19
$HCHDG,216.7,0.0,E,,*2B
$IIVLW,06210,N,000.0,N*56
$YXXDR,A,4.3,D,PTCH,A,24.5,D,ROLL*69
$IIGLL,4740.844,N,12225.129,W,190100,A,A*48
$GPRMC,190107.8,A,4740.84380,N,12225.13090,W,005.88,244.4,130413,016.6,E*47
$IIMTW,+08.0,C*30
$GPRMC,190108.0,A,4740.84361,N,12225.13129,W,005.94,243.7,130413,016.6,E*45
$HCHDG,215.7,0.0,E,,*28
$GPRMC,190108.2,A,4740.84344,N,12225.13169,W,006.01,244.2,130413,016.6,E*49
$YXXDR,A,4.1,D,PTCH,A,25.7,D,ROLL*68
$GPRMC,190108.4,A,4740.84326,N,12225.13208,W,006.02,244.1,130413,016.6,E*4F
$IIRMC,190100,A,4740.843,N,12225.131,W,06.0,244,130413,16,E,A*1D
$GPRMC,190108.6,A,4740.84309,N,12225.13250,W,006.38,244.3,130413,016.6,E*46
$IIVHW,,,,,00.0,N,,*19
$HCHDG,213.3,0.0,E,,*2A
$IIVLW,06210,N,000.0,N*56
$YXXDR,A,4.7,D,PTCH,A,27.0,D,ROLL*6B
$IIGLL,4740.843,N,12225.131,W,190100,A,A*46
$GPRMC,190108.8,A,4740.84290,N,12225.13295,W,006.14,244.6,130413,016.6,E*4B
$IIMTW,+08.0,C*30
$GPRMC,190109.0,A,4740.84274,N,12225.13334,W,006.12,242.5,130413,016.6,E*41
$HCHDG,210.2,0.0,E,,*28
$GPRMC,190109.2,A,4740.84252,N,12225.13369,W,005.92,238.2,130413,016.6,E*4E
$YXXDR,A,5.6,D,PTCH,A,27.8,D,ROLL*63
$GPRMC,190109.4,A,4740.84229,N,12225.13402,W,005.85,234.7,130413,016.6,E*41
$IIRMC,190100,A,4740.843,N,12225.131,W,06.0,244,130413,16,E,A*1D
$GPRMC,190109.6,A,4740.84204,N,12225.13440,W,005.82,232.0,130413,016.6,E*4C
$IIVHW,,,,,00.0,N,,*19
$HCHDG,203.9,0.0,E,,*21
$IIVLW,06210,N,000.0,N*56
$YXXDR,A,4.6,D,PTCH,A,28.6,D,ROLL*63
$IIGLL,4740.843,N,12225.131,W,190100,A,A*46
$GPRMC,190109.8,A,4740.84181,N,12225.13471,W,005.66,231.1,130413,016.6,E*46
$IIMTW,+08.0,C*30
$GPRMC,190110.0,A,4740.84162,N,12225.13504,W,005.69,229.0,130413,016.6,E*4F
$HCHDG,201.9,0.0,E,,*23
$PTAK,FFP1,HEEL,@*07
$GPRMC,190110.2,A,4740.84141,N,12225.13537,W,005.96,229.9,130413,016.6,E*45
$YXXDR,A,5.5,D,PTCH,A,25.2,D,ROLL*68
$GPRMC,190110.4,A,4740.84117,N,12225.13567,W,005.68,228.0,130413,016.6,E*4C
$IIRMC,190100,A,4740.841,N,12225.135,W,05.9,229,130413,16,E,A*1A
$GPRMC,190110.6,A,4740.84095,N,12225.13598,W,005.65,226.1,130413,016.6,E*47
$IIVHW,,,,,00.0,N,,*19
$HCHDG,201.8,0.0,E,,*22
$IIVLW,06210,N,000.0,N*56
$YXXDR,A,5.6,D,PTCH,A,22.4,D,ROLL*6A
$IIGLL,4740.841,N,12225.135,W,190100,A,A*40
$GPRMC,190110.8,A,4740.84069,N,12225.13642,W,005.60,225.4,130413,016.6,E*4D
$IIMTW,+08.0,C*30
$GPRMC,190111.0,A,4740.84051,N,12225.13675,W,005.56,228.6,130413,016.6,E*41
$HCHDG,204.0,0.0,E,,*2F
$GPRMC,190111.2,A,4740.84036,N,12225.13704,W,005.51,229.1,130413,016.6,E*44
$YXXDR,A,4.6,D,PTCH,A,16.5,D,ROLL*6D
$GPRMC,190111.4,A,4740.84019,N,12225.13733,W,005.35,230.5,130413,016.6,E*45
$IIRMC,190100,A,4740.840,N,12225.137,W,05.5,229,130413,16,E,A*15
$GPRMC,190111.6,A,4740.84001,N,12225.13765,W,005.56,232.2,130413,016.6,E*4D
$IIVHW,,,,,00.0,N,,*19
$HCHDG,207.6,0.0,E,,*2A
$IIVLW,06210,N,000.0,N*56
$YXXDR,A,4.7,D,PTCH,A,13.5,D,ROLL*69
$IIGLL,4740.840,N,12225.137,W,190100,A,A*43
$GPRMC,190111.8,A,4740.83983,N,12225.13792,W,005.51,231.4,130413,016.6,E*4D
$IIMTW,+08.0,C*30
$GPRMC,190112.0,A,4740.83968,N,12225.13821,W,005.58,233.8,130413,016.6,E*43
$HCHDG,209.7,0.0,E,,*25
$GPRMC,190112.2,A,4740.83953,N,12225.13848,W,005.59,235.2,130413,016.6,E*4B
$YXXDR,A,4.8,D,PTCH,A,14.6,D,ROLL*62
$GPRMC,190112.4,A,4740.83935,N,12225.13883,W,005.54,235.6,130413,016.6,E*43
$IIRMC,190100,A,4740.840,N,12225.137,W,05.5,229,130413,16,E,A*15
$GPRMC,190112.6,A,4740.83912,N,12225.13916,W,005.59,238.1,130413,016.6,E*4E
$IIVHW,,,,,00.0,N,,*19
$HCHDG,212.5,0.0,E,,*2D
$IIVLW,06210,N,000.0,N*56
$YXXDR,A,5.1,D,PTCH,A,13.0,D,ROLL*6B
$IIGLL,4740.840,N,12225.137,W,190100,A,A*43
$GPRMC,190112.8,A,4740.83892,N,12225.13950,W,005.58,238.3,130413,016.6,E*48
$IIMTW,+08.0,C*30
$GPRMC,190113.0,A,4740.83875,N,12225.13981,W,005.56,239.6,130413,016.6,E*4E
$HCHDG,213.0,0.0,E,,*29
$GPRMC,190113.2,A,4740.83859,N,12225.14012,W,005.56,239.7,130413,016.6,E*47
$YXXDR,A,4.6,D,PTCH,A,16.6,D,ROLL*6E
$GPRMC,190113.4,A,4740.83834,N,12225.14041,W,005.59,240.1,130413,016.6,E*4B
$IIRMC,190100,A,4740.839,N,12225.138,W,05.5,235,130413,16,E,A*19
$GPRMC,190113.6,A,4740.83816,N,12225.14070,W,005.75,240.7,130413,016.6,E*43
$IIVHW,,,,,00.0,N,,*19
$HCHDG,214.6,0.0,E,,*28
$IIVLW,06210,N,000.0,N*56
$YXXDR,A,4.8,D,PTCH,A,17.2,D,ROLL*65
$IIGLL,4740.839,N,12225.138,W,190100,A,A*42
$GPRMC,190113.8,A,4740.83799,N,12225.14114,W,006.30,244.6,130413,016.6,E*41
$IIMTW,+08.0,C*30
$GPRMC,190114.0,A,4740.83783,N,12225.14162,W,006.03,241.4,130413,016.6,E*43
$HCHDG,215.0,0.0,E,,*2F
$PTAK,FFP1,HEEL,@*07
$GPRMC,190114.2,A,4740.83767,N,12225.14200,W,005.97,239.7,130413,016.6,E*4E
$YXXDR,A,4.3,D,PTCH,A,20.6,D,ROLL*6E
$GPRMC,190114.4,A,4740.83755,N,12225.14246,W,005.81,240.0,130413,016.6,E*45
$IIRMC,190100,A,4740.838,N,12225.140,W,05.7,240,130413,16,E,A*17
$GPRMC,190114.6,A,4740.83739,N,12225.14290,W,005.83,238.8,130413,016.6,E*43
$IIVHW,,,,,00.0,N,,*19
$HCHDG,212.9,0.0,E,,*21
$IIVLW,06210,N,000.0,N*56
$YXXDR,A,4.5,D,PTCH,A,22.4,D,ROLL*68
$IIGLL,4740.838,N,12225.140,W,190100,A,A*4C
$GPRMC,190114.8,A,4740.83720,N,12225.14332,W,005.86,240.0,130413,016.6,E*4E
$IIMTW,+08.0,C*30
$GPRMC,190115.0,A,4740.83700,N,12225.14381,W,005.84,241.1,130413,016.6,E*4F
$HCHDG,212.4,0.0,E,,*2C
$GPRMC,190115.2,A,4740.83682,N,12225.14426,W,005.81,238.8,130413,016.6,E*4E
$YXXDR,A,4.8,D,PTCH,A,22.8,D,ROLL*69
$GPRMC,190115.4,A,4740.83662,N,12225.14466,W,005.75,235.1,130413,016.6,E*4D
$IIRMC,190100,A,4740.837,N,12225.142,W,05.8,238,130413,16,E,A*1A
$GPRMC,190115.6,A,4740.83646,N,12225.14501,W,005.50,235.1,130413,016.6,E*4E
$IIVHW,,,,,00.0,N,,*19
$HCHDG,209.7,0.0,E,,*25
$IIVLW,06210,N,000.0,N*56
$YXXDR,A,4.4,D,PTCH,A,25.5,D,ROLL*6F
$IIGLL,4740.837,N,12225.142,W,190100,A,A*41
$GPRMC,190115.8,A,4740.83628,N,12225.14537,W,005.51,233.0,130413,016.6,E*4B
$IIMTW,+08.0,C*30
$GPRMC,190116.0,A,4740.83610,N,12225.14565,W,005.51,233.1,130413,016.6,E*4D
$HCHDG,208.7,0.0,E,,*24
$GPRMC,190116.2,A,4740.83590,N,12225.14599,W,005.57,236.7,130413,016.6,E*42
$YXXDR,A,3.8,D,PTCH,A,26.2,D,ROLL*60
$GPRMC,190116.4,A,4740.83573,N,12225.14634,W,005.56,239.5,130413,016.6,E*41
$IIRMC,190100,A,4740.836,N,12225.145,W,05.5,235,130413,16,E,A*1C
$GPRMC,190116.6,A,4740.83568,N,12225.14675,W,005.93,240.6,130413,016.6,E*48
$IIVHW,,,,,00.0,N,,*19
$HCHDG,212.9,0.0,E,,*21
$IIVLW,06210,N,000.0,N*56
$YXXDR,A,4.8,D,PTCH,A,23.5,D,ROLL*65
$IIGLL,4740.836,N,12225.145,W,190100,A,A*47
$GPRMC,190116.8,A,4740.83554,N,12225.14709,W,005.72,237.8,130413,016.6,E*42
$IIMTW,+08.0,C*30
$GPRMC,190117.0,A,4740.83539,N,12225.14749,W,005.75,238.6,130413,016.6,E*42
$HCHDG,214.6,0.0,E,,*28
$GPRMC,190117.2,A,4740.83516,N,12225.14780,W,005.49,238.7,130413,016.6,E*46
$YXXDR,A,5.1,D,PTCH,A,24.6,D,ROLL*69
$GPRMC,190117.4,A,4740.83502,N,12225.14818,W,005.46,240.7,130413,016.6,E*4B
$IIRMC,190100,A,4740.835,N,12225.146,W,05.9,240,130413,16,E,A*12
$GPRMC,190117.6,A,4740.83486,N,12225.14857,W,005.50,241.4,130413,016.6,E*4A
$IIVHW,,,,,00.0,N,,*19
$HCHDG,214.7,0.0,E,,*29
$IIVLW,06210,N,000.0,N*56
$YXXDR,A,4.7,D,PTCH,A,26.1,D,ROLL*6B
$IIGLL,4740.835,N,12225.146,W,190100,A,A*47
$GPRMC,190117.8,A,4740.83471,N,12225.14896,W,005.57,241.6,130413,016.6,E*44
$IIMTW,+08.0,C*30
$GPRMC,190118.0,A,4740.83456,N,12225.14930,W,005.78,241.8,130413,016.6,E*48
$HCHDG,213.9,0.0,E,,*20
$PTAK,FFP1,HEEL,@*07
$GPRMC,190118.2,A,4740.83439,N,12225.14965,W,005.73,241.6,130413,016.6,E*46
$YXXDR,A,3.6,D,PTCH,A,26.2,D,ROLL*6E
$GPRMC,190118.4,A,4740.83423,N,12225.15000,W,005.94,241.9,130413,016.6,E*46
$IIRMC,190100,A,4740.835,N,12225.146,W,05.9,240,130413,16,E,A*12
$GPRMC,190118.6,A,4740.83407,N,12225.15039,W,006.17,240.7,130413,016.6,E*4F
$IIVHW,,,,,00.0,N,,*19
$HCHDG,215.2,0.0,E,,*2D
$IIVLW,06210,N,000.0,N*56
$YXXDR,A,4.9,D,PTCH,A,26.5,D,ROLL*61
$IIGLL,4740.835,N,12225.146,W,190100,A,A*47
$GPRMC,190118.8,A,4740.83393,N,12225.15081,W,006.01,242.0,130413,016.6,E*4A
$IIMTW,+08.0,C*30
$GPRMC,190119.0,A,4740.83378,N,12225.15120,W,006.02,240.0,130413,016.6,E*4D
$HCHDG,213.9,0.0,E,,*20
$GPRMC,190119.2,A,4740.83361,N,12225.15157,W,005.81,237.5,130413,016.6,E*4A
$YXXDR,A,5.4,D,PTCH,A,29.3,D,ROLL*64
$GPRMC,190119.4,A,4740.83345,N,12225.15201,W,005.82,238.2,130413,016.6,E*41
$IIRMC,190100,A,4740.834,N,12225.150,W,06.1,240,130413,16,E,A*1F
$GPRMC,190119.6,A,4740.83329,N,12225.15247,W,005.75,239.3,130413,016.6,E*43
$IIVHW,,,,,00.0,N,,*19
$HCHDG,212.7,0.0,E,,*2F
$IIVLW,06210,N,000.0,N*56
$YXXDR,A,5.4,D,PTCH,A,27.9,D,ROLL*60
$IIGLL,4740.834,N,12225.150,W,190100,A,A*41
$GPRMC,190119.8,A,4740.83312,N,12225.15288,W,005.72,239.1,130413,016.6,E*43
$IIMTW,+08.0,C*30
$GPRMC,190120.0,A,4740.83298,N,12225.15329,W,005.70,240.5,130413,016.6,E*40
$HCHDG,212.5,0.0,E,,*2D
$GPRMC,190120.2,A,4740.83280,N,12225.15368,W,005.72,239.9,130413,016.6,E*4E
$YXXDR,A,3.7,D,PTCH,A,26.6,D,ROLL*6B
$GPRMC,190120.4,A,4740.83259,N,12225.15408,W,005.99,241.3,130413,016.6,E*4D
$IIRMC,190100,A,4740.833,N,12225.152,W,05.7,239,130413,16,E,A*11
$GPRMC,190120.6,A,4740.83244,N,12225.15449,W,006.29,242.8,130413,016.6,E*46
$IIVHW,,,,,00.0,N,,*19
$HCHDG,213.2,0.0,E,,*2B
$IIVLW,06210,N,000.0,N*56
$YXXDR,A,4.9,D,PTCH,A,26.2,D,ROLL*66
$IIGLL,4740.833,N,12225.152,W,190100,A,A*44
$GPRMC,190120.8,A,4740.83233,N,12225.15489,W,006.45,242.0,130413,016.6,E*46
$IIMTW,+08.0,C*30
$GPRMC,190121.0,A,4740.83216,N,12225.15522,W,006.15,239.1,130413,016.6,E*40
$HCHDG,211.7,0.0,E,,*2C
$GPRMC,190121.2,A,4740.83201,N,12225.15568,W,006.09,238.1,130413,016.6,E*46
$YXXDR,A,5.6,D,PTCH,A,29.1,D,ROLL*64
$GPRMC,190121.4,A,4740.83184,N,12225.15616,W,006.08,233.2,130413,016.6,E*4D
$IIRMC,190100,A,4740.832,N,12225.154,W,06.2,242,130413,16,E,A*1C
$GPRMC,190121.6,A,4740.83167,N,12225.15660,W,005.84,233.1,130413,016.6,E*47
$IIVHW,,,,,00.0,N,,*19
$HCHDG,209.5,0.0,E,,*27
$IIVLW,06210,N,000.0,N*56
$YXXDR,A,5.1,D,PTCH,A,29.5,D,ROLL*67
$IIGLL,4740.832,N,12225.154,W,190100,A,A*43
$GPRMC,190121.8,A,4740.83139,N,12225.15706,W,005.87,233.0,130413,016.6,E*41
$IIMTW,+08.0,C*30
$GPRMC,190122.0,A,4740.83119,N,12225.15748,W,005.79,235.6,130413,016.6,E*43
$HCHDG,209.2,0.0,E,,*20
$PTAK,FFP1,HEEL,@*07
$GPRMC,190122.2,A,4740.83101,N,12225.15786,W,006.00,240.0,130413,016.6,E*43
$YXXDR,A,3.6,D,PTCH,A,27.2,D,ROLL*6F
$GPRMC,190122.4,A,4740.83085,N,12225.15826,W,006.02,239.5,130413,016.6,E*44
$IIRMC,190100,A,4740.831,N,12225.156,W,05.8,233,130413,16,E,A*12
$GPRMC,190122.6,A,4740.83069,N,12225.15868,W,005.98,240.4,130413,016.6,E*41
$IIVHW,,,,,00.0,N,,*19
$HCHDG,211.4,0.0,E,,*2F
$IIVLW,06210,N,000.0,N*56
$YXXDR,A,4.7,D,PTCH,A,26.6,D,ROLL*6C
$IIGLL,4740.831,N,12225.156,W,190100,A,A*42
$GPRMC,190122.8,A,4740.83052,N,12225.15909,W,005.97,239.7,130413,016.6,E*43
$IIMTW,+08.0,C*30
$GPRMC,190123.0,A,4740.83039,N,12225.15953,W,005.67,236.2,130413,016.6,E*4D
$HCHDG,210.6,0.0,E,,*2C
$GPRMC,190123.2,A,4740.83023,N,12225.16000,W,006.03,236.5,130413,016.6,E*4E
$YXXDR,A,4.4,D,PTCH,A,28.8,D,ROLL*6F
$GPRMC,190123.4,A,4740.83004,N,12225.16044,W,005.86,236.0,130413,016.6,E*46
$IIRMC,190100,A,4740.831,N,12225.156,W,05.8,233,130413,16,E,A*12
$GPRMC,190123.6,A,4740.82986,N,12225.16086,W,005.89,236.4,130413,016.6,E*43
$IIVHW,,,,,00.0,N,,*19
$HCHDG,211.9,0.0,E,,*22
$IIVLW,06210,N,000.0,N*56
$YXXDR,A,4.4,D,PTCH,A,27.7,D,ROLL*6F
$IIGLL,4740.831,N,12225.156,W,190100,A,A*42
$GPRMC,190123.8,A,4740.82967,N,12225.16116,W,005.91,238.0,130413,016.6,E*49
$IIMTW,+08.0,C*30
$GPRMC,190124.0,A,4740.82949,N,12225.16153,W,005.92,239.7,130413,016.6,E*4E
$HCHDG,214.2,0.0,E,,*2C
$GPRMC,190124.2,A,4740.82927,N,12225.16200,W,005.93,240.5,130413,016.6,E*4C
$YXXDR,A,3.7,D,PTCH,A,27.6,D,ROLL*6A
$GPRMC,190124.4,A,4740.82909,N,12225.16242,W,006.09,240.2,130413,016.6,E*47
$IIRMC,190100,A,4740.829,N,12225.160,W,05.8,236,130413,16,E,A*1B
$GPRMC,190124.6,A,4740.82895,N,12225.16282,W,006.03,241.1,130413,016.6,E*45
$IIVHW,,,,,00.0,N,,*19
$HCHDG,216.0,0.0,E,,*2C
$IIVLW,06210,N,000.0,N*56
$YXXDR,A,3.9,D,PTCH,A,27.7,D,ROLL*65
$IIGLL,4740.829,N,12225.160,W,190100,A,A*4E
$GPRMC,190124.8,A,4740.82883,N,12225.16321,W,005.85,243.7,130413,016.6,E*4D
$IIMTW,+08.0,C*30
$GPRMC,190125.0,A,4740.82871,N,12225.16364,W,005.85,247.3,130413,016.6,E*48
$HCHDG,217.0,0.0,E,,*2D
$GPRMC,190125.2,A,4740.82859,N,12225.16423,W,005.83,246.3,130413,016.6,E*43
$YXXDR,A,3.3,D,PTCH,A,27.6,D,ROLL*6E
$GPRMC,190125.4,A,4740.82847,N,12225.16469,W,006.03,244.8,130413,016.6,E*46
$IIRMC,190100,A,4740.828,N,12225.162,W,06.0,241,130413,16,E,A*13
$GPRMC,190125.6,A,4740.82834,N,12225.16515,W,005.80,244.4,130413,016.6,E*4E
$IIVHW,,,,,00.0,N,,*19
$HCHDG,217.5,0.0,E,,*28
$IIVLW,06210,N,000.0,N*56
$YXXDR,A,4.7,D,PTCH,A,29.5,D,ROLL*60
$IIGLL,4740.828,N,12225.162,W,190100,A,A*4D
$GPRMC,190125.8,A,4740.82826,N,12225.16563,W,006.06,242.6,130413,016.6,E*4B
$IIMTW,+08.0,C*30
$GPRMC,190126.0,A,4740.82810,N,12225.16611,W,006.33,240.0,130413,016.6,E*41
$HCHDG,213.8,0.0,E,,*21
$GPRMC,190126.2,A,4740.82800,N,12225.16661,W,006.37,240.7,130413,016.6,E*46
$PTAK,FFP1,HEEL,@*07
