$GPRMB,A,-31.69,L,,Ttp,4726.8700,N,12137.4300,W,34.7,131,-0.08,V*55
$PTAK,FFP1,HEEL,@*07
$PGRME,9.9,M,169.5,M,169.8,M*23
$HCHDG,271.1,0.0,E,,*2C
$PTAK,FFP1,HEEL,@*07
$YXXDR,A,4.1,D,PTCH,A,0.7,D,ROLL*5F
$PTAK,FFD1,0.7*52
$HCHDG,271.1,0.0,E,,*2C
$GPRMC,160859.0,A,4741.19145,N,12224.25611,W,000.11,000.0,200413,016.6,E,A*29
$GPRMB,A,-31.69,L,,Ttp,4726.8700,N,12137.4300,W,34.7,131,-0.09,V*54
$PGRME,9.4,M,152.7,M,153.0,M*25
$HCHDG,271.1,0.0,E,,*2C
$HCHDG,271.2,0.0,E,,*2F
$GPRMC,160859.2,A,4741.19157,N,12224.25582,W,000.04,000.0,200413,016.6,E,A*25
$GPRMB,A,-31.69,L,,Ttp,4726.8700,N,12137.4300,W,34.7,131,-0.03,V*5E
$PGRME,8.9,M,139.0,M,139.3,M*2C
$HCHDG,271.1,0.0,E,,*2C
$HCHDG,271.1,0.0,E,,*2C
$GPRMC,160859.4,A,4741.19168,N,12224.25565,W,000.05,000.0,200413,016.6,E,A*27
$PGRME,8.7,M,132.6,M,132.9,M*2E
$YXXDR,A,4.0,D,PTCH,A,1.0,D,ROLL*58
$PTAK,FFD1,1.0*54
$HCHDG,271.2,0.0,E,,*2F
$HCHDG,271.2,0.0,E,,*2F
$GPRMC,160859.6,A,4741.19178,N,12224.25555,W,000.06,000.0,200413,016.6,E,A*24
$PGRME,8.5,M,126.4,M,126.7,M*20
$HCHDG,271.1,0.0,E,,*2C
$HCHDG,271.2,0.0,E,,*2F
$GPRMC,160859.8,A,4741.19187,N,12224.25547,W,000.03,000.0,200413,016.6,E,A*2C
$PGRME,8.3,M,119.2,M,119.5,M*22
$HCHDG,271.2,0.0,E,,*2F
$YXXDR,A,4.0,D,PTCH,A,1.2,D,ROLL*5A
$HCHDG,271.2,0.0,E,,*2F
$GPRMC,160900.0,A,4741.19212,N,12224.25550,W,000.03,000.0,200413,016.6,E,A*20
$PGRME,8.1,M,112.7,M,113.0,M*21
$HCHDG,271.1,0.0,E,,*2C
$HCHDG,271.2,0.0,E,,*2F
$GPRMC,160900.2,A,4741.19243,N,12224.25548,W,000.03,000.0,200413,016.6,E,A*2F
$PGRME,7.8,M,107.1,M,107.4,M*24
$HCHDG,271.2,0.0,E,,*2F
$HCHDG,271.2,0.0,E,,*2F
$GPRMC,160900.4,A,4741.19309,N,12224.25551,W,000.09,000.0,200413,016.6,E,A*24
$GPRMB,A,-31.69,L,,Ttp,4726.8700,N,12137.4300,W,34.7,131,-0.08,V*55
$PGRME,7.6,M,101.8,M,102.1,M*25
$YXXDR,A,4.2,D,PTCH,A,1.0,D,ROLL*5A
$PTAK,FFD1,1.0*54
$HCHDG,271.2,0.0,E,,*2F
$HCHDG,271.2,0.0,E,,*2F
$GPRMC,160900.6,A,4741.19310,N,12224.25539,W,000.04,000.0,200413,016.6,E,A*2D
$PGRME,7.4,M,96.1,M,96.4,M*28
$HCHDG,271.2,0.0,E,,*2F
$HCHDG,271.3,0.0,E,,*2E
$GPRMC,160900.8,A,4741.19278,N,12224.25531,W,000.06,000.0,200413,016.6,E,A*26
$PGRME,7.1,M,89.6,M,89.9,M*27
$HCHDG,271.3,0.0,E,,*2E
$YXXDR,A,4.2,D,PTCH,A,0.5,D,ROLL*5E
$HCHDG,271.2,0.0,E,,*2F
$GPRMC,160901.0,A,4741.19263,N,12224.25514,W,000.05,000.0,200413,016.6,E,A*21
$PGRME,6.9,M,85.2,M,85.5,M*26
$HCHDG,271.5,0.0,E,,*28
$HCHDG,271.5,0.0,E,,*28
$GPRMC,160901.2,A,4741.19256,N,12224.25499,W,000.01,000.0,200413,016.6,E,A*25
$PGRME,6.7,M,80.6,M,80.8,M*21
$HCHDG,271.6,0.0,E,,*2B
$HCHDG,271.5,0.0,E,,*28
$GPRMC,160901.4,A,4741.19270,N,12224.25493,W,000.05,000.0,200413,016.6,E,A*29
$GPRMB,A,-31.69,L,,Ttp,4726.8700,N,12137.4300,W,34.7,131,-0.04,V*59
$PGRME,6.6,M,77.3,M,77.6,M*2B
$YXXDR,A,4.0,D,PTCH,A,0.4,D,ROLL*5D
$PTAK,FFD1,0.4*51
$HCHDG,271.5,0.0,E,,*28
$HCHDG,271.6,0.0,E,,*2B
$GPRMC,160901.6,A,4741.19288,N,12224.25485,W,000.02,000.0,200413,016.6,E,A*2C
$PGRME,6.4,M,73.5,M,73.8,M*21
$HCHDG,271.6,0.0,E,,*2B
$HCHDG,271.5,0.0,E,,*28
$GPRMC,160901.8,A,4741.19299,N,12224.25484,W,000.08,000.0,200413,016.6,E,A*29
$PGRME,6.2,M,70.6,M,70.9,M*25
$HCHDG,271.7,0.0,E,,*2A
$YXXDR,A,4.0,D,PTCH,A,0.6,D,ROLL*5F
$HCHDG,271.7,0.0,E,,*2A
$GPRMC,160902.0,A,4741.19291,N,12224.25499,W,000.07,000.0,200413,016.6,E,A*29
$PGRME,6.0,M,67.5,M,67.8,M*25
$HCHDG,271.6,0.0,E,,*2B
$HCHDG,271.7,0.0,E,,*2A
$GPRMC,160902.2,A,4741.19285,N,12224.25508,W,000.02,000.0,200413,016.6,E,A*22
$PGRME,5.7,M,58.1,M,58.3,M*2E
$HCHDG,271.7,0.0,E,,*2A
$HCHDG,271.7,0.0,E,,*2A
$GPRMC,160902.4,A,4741.19255,N,12224.25512,W,000.04,000.0,200413,016.6,E,A*24
$PTAK,FFP1,HEEL,@*07
$PGRME,5.6,M,53.3,M,53.6,M*28
$YXXDR,A,4.0,D,PTCH,A,1.0,D,ROLL*58
$HCHDG,271.7,0.0,E,,*2A
$HCHDG,271.7,0.0,E,,*2A
$GPRMC,160902.6,A,4741.19246,N,12224.25514,W,000.04,000.0,200413,016.6,E,A*22
$GPRMB,A,-31.69,L,,Ttp,4726.8700,N,12137.4300,W,34.7,131,-0.03,V*5E
$PGRME,5.5,M,49.5,M,49.8,M*23
$HCHDG,271.8,0.0,E,,*25
$HCHDG,271.8,0.0,E,,*25
$GPRMC,160902.8,A,4741.19268,N,12224.25516,W,000.02,000.0,200413,016.6,E,A*24
$PGRME,5.2,M,44.9,M,45.2,M*23
$HCHDG,271.7,0.0,E,,*2A
$YXXDR,A,4.0,D,PTCH,A,1.0,D,ROLL*58
$PTAK,FFD1,1.0*54
$HCHDG,271.7,0.0,E,,*2A
$GPRMC,160903.0,A,4741.19321,N,12224.25517,W,000.05,000.0,200413,016.6,E,A*27
$PGRME,4.9,M,41.2,M,41.5,M*24
$HCHDG,271.8,0.0,E,,*25
$HCHDG,271.9,0.0,E,,*24
$GPRMC,160903.2,A,4741.19358,N,12224.25520,W,000.06,000.0,200413,016.6,E,A*2C
$PGRME,4.8,M,38.3,M,38.6,M*27
$HCHDG,272.0,0.0,E,,*2E
$HCHDG,272.1,0.0,E,,*2F
$GPRMC,160903.4,A,4741.19390,N,12224.25515,W,000.02,000.0,200413,016.6,E,A*2C
$PGRME,4.7,M,36.6,M,36.9,M*22
$YXXDR,A,4.8,D,PTCH,A,1.1,D,ROLL*51
$HCHDG,272.0,0.0,E,,*2E
$HCHDG,272.0,0.0,E,,*2E
$GPRMC,160903.6,A,4741.19425,N,12224.25510,W,000.03,000.0,200413,016.6,E,A*23
$GPRMB,A,-31.69,L,,Ttp,4726.8700,N,12137.4300,W,34.7,131,-0.03,V*5E
$PGRME,4.6,M,35.0,M,35.3,M*2F
$HCHDG,272.1,0.0,E,,*2F
$HCHDG,272.1,0.0,E,,*2F
$GPRMC,160903.8,A,4741.19453,N,12224.25505,W,000.02,000.0,200413,016.6,E,A*29
$PGRME,4.5,M,33.5,M,33.8,M*22
$HCHDG,271.8,0.0,E,,*25
$YXXDR,A,4.1,D,PTCH,A,1.0,D,ROLL*59
$HCHDG,272.0,0.0,E,,*2E
$GPRMC,160904.0,A,4741.19489,N,12224.25506,W,000.01,000.0,200413,016.6,E,A*21
$PGRME,4.4,M,32.0,M,32.3,M*2D
$HCHDG,272.0,0.0,E,,*2E
$HCHDG,271.9,0.0,E,,*24
$GPRMC,160904.2,A,4741.19530,N,12224.25505,W,000.01,000.0,200413,016.6,E,A*23
$PGRME,4.3,M,30.7,M,31.0,M*2F
$HCHDG,271.9,0.0,E,,*24
$HCHDG,272.0,0.0,E,,*2E
$GPRMC,160904.4,A,4741.19553,N,12224.25512,W,000.02,000.0,200413,016.6,E,A*25
$PGRME,4.2,M,29.5,M,29.8,M*25
$YXXDR,A,3.6,D,PTCH,A,0.8,D,ROLL*50
$PTAK,FFD1,0.8*5D
$HCHDG,271.7,0.0,E,,*2A
$HCHDG,271.7,0.0,E,,*2A
$GPRMC,160904.6,A,4741.19563,N,12224.25513,W,000.03,000.0,200413,016.6,E,A*24
$PGRME,4.2,M,28.6,M,28.9,M*27
$HCHDG,271.8,0.0,E,,*25
$HCHDG,271.7,0.0,E,,*2A
$GPRMC,160904.8,A,4741.19569,N,12224.25515,W,000.03,000.0,200413,016.6,E,A*26
$GPRMB,A,-31.69,L,,Ttp,4726.8700,N,12137.4300,W,34.7,131,-0.03,V*5E
$PGRME,4.1,M,27.2,M,27.5,M*2C
$HCHDG,271.8,0.0,E,,*25
$YXXDR,A,4.2,D,PTCH,A,1.0,D,ROLL*5A
$HCHDG,272.1,0.0,E,,*2F
$GPRMC,160905.0,A,4741.19568,N,12224.25512,W,000.03,000.0,200413,016.6,E,A*29
$PGRME,4.0,M,26.4,M,26.7,M*29
$HCHDG,272.1,0.0,E,,*2F
$HCHDG,272.0,0.0,E,,*2E
$GPRMC,160905.2,A,4741.19552,N,12224.25502,W,000.02,000.0,200413,016.6,E,A*22
$PGRME,3.9,M,25.3,M,25.6,M*21
$HCHDG,272.0,0.0,E,,*2E
$HCHDG,272.1,0.0,E,,*2F
$GPRMC,160905.4,A,4741.19531,N,12224.25490,W,000.05,000.0,200413,016.6,E,A*2C
$PGRME,3.9,M,24.3,M,24.6,M*21
$YXXDR,A,4.3,D,PTCH,A,0.7,D,ROLL*5D
$HCHDG,272.4,0.0,E,,*2A
$HCHDG,272.4,0.0,E,,*2A
$GPRMC,160905.6,A,4741.19545,N,12224.25487,W,000.02,000.0,200413,016.6,E,A*2C
$PGRME,3.8,M,23.6,M,23.9,M*2A
$HCHDG,272.4,0.0,E,,*2A
$HCHDG,272.4,0.0,E,,*2A
$GPRMC,160905.8,A,4741.19560,N,12224.25484,W,000.10,000.0,200413,016.6,E,A*25
$GPRMB,A,-31.69,L,,Ttp,4726.8700,N,12137.4300,W,34.7,131,-0.08,V*55
$PGRME,3.7,M,22.7,M,23.0,M*2C
$HCHDG,272.4,0.0,E,,*2A
$PTAK,FFP1,HEEL,@*07
$YXXDR,A,4.9,D,PTCH,A,0.7,D,ROLL*57
$PTAK,FFD1,0.7*52
$HCHDG,272.4,0.0,E,,*2A
$GPRMC,160906.0,A,4741.19585,N,12224.25478,W,000.03,000.0,200413,016.6,E,A*24
$PGRME,3.7,M,22.1,M,22.4,M*2F
$HCHDG,272.5,0.0,E,,*2B
$HCHDG,272.5,0.0,E,,*2B
$GPRMC,160906.2,A,4741.19597,N,12224.25476,W,000.02,000.0,200413,016.6,E,A*2A
$PGRME,3.6,M,21.5,M,21.8,M*26
$HCHDG,272.2,0.0,E,,*2C
$HCHDG,272.3,0.0,E,,*2D
$GPRMC,160906.4,A,4741.19594,N,12224.25478,W,000.03,000.0,200413,016.6,E,A*20
$PGRME,3.6,M,21.0,M,21.3,M*28
$YXXDR,A,4.3,D,PTCH,A,0.6,D,ROLL*5C
$HCHDG,272.2,0.0,E,,*2C
$HCHDG,272.2,0.0,E,,*2C
$GPRMC,160906.6,A,4741.19585,N,12224.25481,W,000.02,000.0,200413,016.6,E,A*25
$PGRME,3.6,M,20.5,M,20.8,M*26
$HCHDG,272.2,0.0,E,,*2C
$HCHDG,272.2,0.0,E,,*2C
$GPRMC,160906.8,A,4741.19591,N,12224.25484,W,000.03,000.0,200413,016.6,E,A*2A
$PGRME,3.5,M,19.9,M,20.2,M*29
$HCHDG,272.3,0.0,E,,*2D
$YXXDR,A,4.3,D,PTCH,A,0.9,D,ROLL*53
$HCHDG,272.5,0.0,E,,*2B
$GPRMC,160907.0,A,4741.19604,N,12224.25491,W,000.04,000.0,200413,016.6,E,A*2F
$PGRME,3.5,M,19.3,M,19.7,M*2C
$HCHDG,272.5,0.0,E,,*2B
$HCHDG,272.4,0.0,E,,*2A
$GPRMC,160907.2,A,4741.19607,N,12224.25498,W,000.05,000.0,200413,016.6,E,A*26
$PGRME,3.4,M,18.8,M,19.1,M*21
$HCHDG,272.5,0.0,E,,*2B
$HCHDG,272.6,0.0,E,,*28
$GPRMC,160907.4,A,4741.19610,N,12224.25494,W,000.03,000.0,200413,016.6,E,A*2C
$GPRMB,A,-31.69,L,,Ttp,4726.8700,N,12137.4300,W,34.7,131,-0.03,V*5E
$PGRME,3.4,M,18.3,M,18.7,M*2D
$YXXDR,A,4.4,D,PTCH,A,1.0,D,ROLL*5C
$PTAK,FFD1,1.0*54
$HCHDG,272.6,0.0,E,,*28
$HCHDG,272.6,0.0,E,,*28
$GPRMC,160907.6,A,4741.19611,N,12224.25493,W,000.03,000.0,200413,016.6,E,A*28
$PGRME,3.3,M,17.9,M,18.2,M*2A
$HCHDG,272.6,0.0,E,,*28
$HCHDG,272.5,0.0,E,,*2B
$GPRMC,160907.8,A,4741.19623,N,12224.25493,W,000.06,000.0,200413,016.6,E,A*22
$PGRME,3.3,M,17.5,M,17.9,M*22
$HCHDG,272.4,0.0,E,,*2A
$YXXDR,A,4.3,D,PTCH,A,0.6,D,ROLL*5C
$HCHDG,272.4,0.0,E,,*2A
$GPRMC,160908.0,A,4741.19617,N,12224.25491,W,000.03,000.0,200413,016.6,E,A*25
$PGRME,3.3,M,17.2,M,17.5,M*29
$HCHDG,272.5,0.0,E,,*2B
$HCHDG,272.5,0.0,E,,*2B
$GPRMC,160908.2,A,4741.19607,N,12224.25489,W,000.10,000.0,200413,016.6,E,A*2D
$PGRME,3.3,M,16.9,M,17.2,M*24
$HCHDG,272.5,0.0,E,,*2B
$HCHDG,272.5,0.0,E,,*2B
$GPRMC,160908.4,A,4741.19601,N,12224.25488,W,000.05,000.0,200413,016.6,E,A*28
$GPRMB,A,-31.69,L,,Ttp,4726.8700,N,12137.4300,W,34.7,131,-0.04,V*59
$PGRME,3.2,M,16.6,M,16.9,M*20
$YXXDR,A,4.6,D,PTCH,A,0.8,D,ROLL*57
$PTAK,FFD1,0.8*5D
$HCHDG,272.6,0.0,E,,*28
$HCHDG,272.5,0.0,E,,*2B
$GPRMC,160908.6,A,4741.19598,N,12224.25488,W,000.01,000.0,200413,016.6,E,A*2D
$PGRME,3.2,M,16.4,M,16.7,M*2C
$HCHDG,272.6,0.0,E,,*28
$HCHDG,272.6,0.0,E,,*28
$GPRMC,160908.8,A,4741.19597,N,12224.25488,W,000.09,000.0,200413,016.6,E,A*24
$PGRME,3.2,M,16.2,M,16.5,M*28
$HCHDG,272.6,0.0,E,,*28
$YXXDR,A,4.7,D,PTCH,A,0.6,D,ROLL*58
$HCHDG,272.5,0.0,E,,*2B
$GPRMC,160909.0,A,4741.19598,N,12224.25484,W,000.07,000.0,200413,016.6,E,A*20
$PGRME,3.2,M,16.0,M,16.3,M*2C
$HCHDG,272.6,0.0,E,,*28
$HCHDG,272.7,0.0,E,,*29
$GPRMC,160909.2,A,4741.19601,N,12224.25483,W,000.06,000.0,200413,016.6,E,A*27
$PGRME,3.2,M,15.8,M,16.1,M*25
$HCHDG,272.7,0.0,E,,*29
$HCHDG,272.5,0.0,E,,*2B
$GPRMC,160909.4,A,4741.19601,N,12224.25485,W,000.06,000.0,200413,016.6,E,A*27
$PGRME,3.2,M,15.5,M,15.9,M*23
$YXXDR,A,4.3,D,PTCH,A,0.7,D,ROLL*5D
$HCHDG,272.5,0.0,E,,*2B
$HCHDG,272.5,0.0,E,,*2B
$GPRMC,160909.6,A,4741.19600,N,12224.25485,W,000.01,000.0,200413,016.6,E,A*23
$GPRMB,A,-31.69,L,,Ttp,4726.8700,N,12137.4300,W,34.7,131,-0.01,V*5C
$PGRME,3.2,M,15.3,M,15.7,M*2B
$HCHDG,272.5,0.0,E,,*2B
$HCHDG,272.4,0.0,E,,*2A
$GPRMC,160909.8,A,4741.19606,N,12224.25478,W,000.08,000.0,200413,016.6,E,A*20
$PGRME,3.2,M,15.1,M,15.4,M*2A
$HCHDG,272.4,0.0,E,,*2A
$YXXDR,A,3.5,D,PTCH,A,1.2,D,ROLL*58
$PTAK,FFD1,1.2*56
$HCHDG,272.4,0.0,E,,*2A
$GPRMC,160910.0,A,4741.19611,N,12224.25477,W,000.08,000.0,200413,016.6,E,A*29
$PGRME,3.2,M,14.8,M,15.1,M*27
$HCHDG,272.4,0.0,E,,*2A
$HCHDG,272.4,0.0,E,,*2A
$GPRMC,160910.2,A,4741.19613,N,12224.25476,W,000.09,000.0,200413,016.6,E,A*29
$PGRME,3.1,M,14.6,M,14.9,M*23
$HCHDG,272.4,0.0,E,,*2A
$HCHDG,272.4,0.0,E,,*2A
$GPRMC,160910.4,A,4741.19621,N,12224.25475,W,000.05,000.0,200413,016.6,E,A*21
$PGRME,3.1,M,14.3,M,14.6,M*29
$YXXDR,A,3.8,D,PTCH,A,1.1,D,ROLL*56
$PTAK,FFP1,HEEL,@*07
$HCHDG,272.4,0.0,E,,*2A
$HCHDG,272.4,0.0,E,,*2A
$GPRMC,160910.6,A,4741.19624,N,12224.25471,W,000.08,000.0,200413,016.6,E,A*2F
$GPRMB,A,-31.69,L,,Ttp,4726.8700,N,12137.4300,W,34.7,131,-0.07,V*5A
$PGRME,3.1,M,14.1,M,14.4,M*29
$HCHDG,272.4,0.0,E,,*2A
$HCHDG,272.4,0.0,E,,*2A
$GPRMC,160910.8,A,4741.19624,N,12224.25477,W,000.06,000.0,200413,016.6,E,A*29
$PGRME,3.1,M,13.9,M,14.2,M*20
$HCHDG,272.5,0.0,E,,*2B
$YXXDR,A,4.2,D,PTCH,A,1.0,D,ROLL*5A
$PTAK,FFD1,1.0*54
$HCHDG,272.5,0.0,E,,*2B
$GPRMC,160911.0,A,4741.19618,N,12224.25484,W,000.04,000.0,200413,016.6,E,A*21
$PGRME,3.1,M,13.7,M,14.0,M*2C
$HCHDG,272.5,0.0,E,,*2B
$HCHDG,272.5,0.0,E,,*2B
$GPRMC,160911.2,A,4741.19609,N,12224.25498,W,000.04,000.0,200413,016.6,E,A*2E
$PGRME,3.0,M,13.4,M,13.8,M*21
$HCHDG,272.7,0.0,E,,*29
$HCHDG,272.7,0.0,E,,*29
$GPRMC,160911.4,A,4741.19600,N,12224.25504,W,000.08,000.0,200413,016.6,E,A*29
$PGRME,3.0,M,13.2,M,13.6,M*29
$YXXDR,A,4.8,D,PTCH,A,1.1,D,ROLL*51
$HCHDG,272.6,0.0,E,,*28
$HCHDG,272.6,0.0,E,,*28
$GPRMC,160911.6,A,4741.19590,N,12224.25511,W,000.00,000.0,200413,016.6,E,A*2D
$PGRME,3.0,M,13.0,M,13.4,M*29
$HCHDG,272.6,0.0,E,,*28
$HCHDG,272.6,0.0,E,,*28
$GPRMC,160911.8,A,4741.19586,N,12224.25515,W,000.02,000.0,200413,016.6,E,A*22
$GPRMB,A,-31.69,L,,Ttp,4726.8700,N,12137.4300,W,34.7,131,-0.02,V*5F
$PGRME,3.0,M,12.9,M,13.2,M*27
$HCHDG,272.6,0.0,E,,*28
$YXXDR,A,4.4,D,PTCH,A,0.9,D,ROLL*54
$PTAK,FFD1,0.9*5C
$HCHDG,272.6,0.0,E,,*28
$GPRMC,160912.0,A,4741.19584,N,12224.25517,W,000.08,000.0,200413,016.6,E,A*23
$PGRME,3.0,M,12.7,M,13.1,M*2A
$HCHDG,272.6,0.0,E,,*28
$HCHDG,272.6,0.0,E,,*28
$GPRMC,160912.2,A,4741.19584,N,12224.25518,W,000.04,000.0,200413,016.6,E,A*22
$PGRME,3.0,M,12.5,M,12.9,M*21
$HCHDG,272.6,0.0,E,,*28
$HCHDG,272.6,0.0,E,,*28
$GPRMC,160912.4,A,4741.19583,N,12224.25520,W,000.01,000.0,200413,016.6,E,A*2D
$PGRME,3.0,M,12.4,M,12.7,M*2E
$YXXDR,A,4.0,D,PTCH,A,0.8,D,ROLL*51
$HCHDG,272.4,0.0,E,,*2A
$HCHDG,272.4,0.0,E,,*2A
$GPRMC,160912.6,A,4741.19581,N,12224.25518,W,000.07,000.0,200413,016.6,E,A*20
$PGRME,3.0,M,12.2,M,12.6,M*29
$HCHDG,272.4,0.0,E,,*2A
$HCHDG,272.3,0.0,E,,*2D
$GPRMC,160912.8,A,4741.19585,N,12224.25519,W,000.01,000.0,200413,016.6,E,A*2D
$GPRMB,A,-31.69,L,,Ttp,4726.8700,N,12137.4300,W,34.7,131,-0.01,V*5C
$PGRME,3.0,M,12.0,M,12.4,M*29
$HCHDG,272.3,0.0,E,,*2D
$YXXDR,A,4.6,D,PTCH,A,1.0,D,ROLL*5E
$HCHDG,272.6,0.0,E,,*28
$GPRMC,160913.0,A,4741.19578,N,12224.25516,W,000.02,000.0,200413,016.6,E,A*2A
$PGRME,3.0,M,11.8,M,12.2,M*24
$HCHDG,272.6,0.0,E,,*28
$HCHDG,272.5,0.0,E,,*2B
$GPRMC,160913.2,A,4741.19575,N,12224.25515,W,000.05,000.0,200413,016.6,E,A*21
$PGRME,3.0,M,11.7,M,12.1,M*28
$HCHDG,272.5,0.0,E,,*2B
$HCHDG,272.5,0.0,E,,*2B
$GPRMC,160913.4,A,4741.19574,N,12224.25519,W,000.05,000.0,200413,016.6,E,A*2A
$PGRME,3.0,M,11.6,M,12.0,M*28
$YXXDR,A,4.0,D,PTCH,A,0.9,D,ROLL*50
$PTAK,FFD1,0.9*5C
$HCHDG,272.5,0.0,E,,*2B
$HCHDG,272.5,0.0,E,,*2B
$GPRMC,160913.6,A,4741.19577,N,12224.25519,W,000.04,000.0,200413,016.6,E,A*2A
$PGRME,3.0,M,11.5,M,11.9,M*21
$HCHDG,272.5,0.0,E,,*2B
$HCHDG,272.5,0.0,E,,*2B
$GPRMC,160913.8,A,4741.19578,N,12224.25520,W,000.06,000.0,200413,016.6,E,A*23
$GPRMB,A,-31.69,L,,Ttp,4726.8700,N,12137.4300,W,34.7,131,-0.05,V*58
$PGRME,3.0,M,11.3,M,11.7,M*29
$HCHDG,272.4,0.0,E,,*2A
$YXXDR,A,4.5,D,PTCH,A,0.8,D,ROLL*54
$HCHDG,272.4,0.0,E,,*2A
$GPRMC,160914.0,A,4741.19577,N,12224.25524,W,000.02,000.0,200413,016.6,E,A*23
$PGRME,3.0,M,11.2,M,11.6,M*29
$HCHDG,272.4,0.0,E,,*2A
$HCHDG,272.4,0.0,E,,*2A
$GPRMC,160914.2,A,4741.19576,N,12224.25527,W,000.04,000.0,200413,016.6,E,A*25
$PGRME,3.0,M,11.1,M,11.5,M*29
$HCHDG,272.4,0.0,E,,*2A
$HCHDG,272.3,0.0,E,,*2D
$GPRMC,160914.4,A,4741.19576,N,12224.25524,W,000.03,000.0,200413,016.6,E,A*27
$PGRME,3.0,M,11.0,M,11.4,M*29
$YXXDR,A,3.9,D,PTCH,A,0.6,D,ROLL*51
$PTAK,FFD1,0.6*53
$PTAK,FFP1,HEEL,@*07
$HCHDG,272.1,0.0,E,,*2F
$HCHDG,272.1,0.0,E,,*2F
$GPRMC,160914.6,A,4741.19576,N,12224.25521,W,000.05,000.0,200413,016.6,E,A*26
$PGRME,3.0,M,10.9,M,11.3,M*26
$HCHDG,272.1,0.0,E,,*2F
$HCHDG,272.1,0.0,E,,*2F
$GPRMC,160914.8,A,4741.19574,N,12224.25518,W,000.07,000.0,200413,016.6,E,A*22
$PGRME,3.0,M,10.7,M,11.2,M*29
$HCHDG,272.0,0.0,E,,*2E
$YXXDR,A,3.8,D,PTCH,A,0.5,D,ROLL*53
$HCHDG,272.0,0.0,E,,*2E
$GPRMC,160915.0,A,4741.19570,N,12224.25513,W,000.04,000.0,200413,016.6,E,A*27
$GPRMB,A,-31.69,L,,Ttp,4726.8700,N,12137.4300,W,34.7,131,-0.03,V*5E
$PGRME,3.0,M,10.6,M,11.0,M*2A
$HCHDG,272.0,0.0,E,,*2E
$HCHDG,272.2,0.0,E,,*2C
$GPRMC,160915.2,A,4741.19565,N,12224.25520,W,000.06,000.0,200413,016.6,E,A*23
$PGRME,3.0,M,10.5,M,10.9,M*21
$HCHDG,272.2,0.0,E,,*2C
$HCHDG,272.2,0.0,E,,*2C
$GPRMC,160915.4,A,4741.19558,N,12224.25526,W,000.04,000.0,200413,016.6,E,A*2F
$PGRME,3.0,M,10.3,M,10.7,M*29
$YXXDR,A,4.3,D,PTCH,A,0.5,D,ROLL*5F
$PTAK,FFD1,0.5*50
$HCHDG,272.2,0.0,E,,*2C
$HCHDG,272.2,0.0,E,,*2C
$GPRMC,160915.6,A,4741.19544,N,12224.25535,W,000.04,000.0,200413,016.6,E,A*22
$PGRME,3.0,M,10.2,M,10.6,M*29
$HCHDG,272.3,0.0,E,,*2D
$HCHDG,272.3,0.0,E,,*2D
$GPRMC,160915.8,A,4741.19539,N,12224.25541,W,000.03,000.0,200413,016.6,E,A*22
$PGRME,3.0,M,10.0,M,10.5,M*28
$HCHDG,272.3,0.0,E,,*2D
$YXXDR,A,4.5,D,PTCH,A,0.6,D,ROLL*5A
$HCHDG,272.2,0.0,E,,*2C
$GPRMC,160916.0,A,4741.19533,N,12224.25543,W,000.05,000.0,200413,016.6,E,A*27
$PGRME,3.0,M,9.9,M,10.4,M*18
$HCHDG,272.1,0.0,E,,*2F
$HCHDG,272.1,0.0,E,,*2F
$GPRMC,160916.2,A,4741.19529,N,12224.25546,W,000.03,000.0,200413,016.6,E,A*2D
$GPRMB,A,-31.69,L,,Ttp,4726.8700,N,12137.4300,W,34.7,131,-0.03,V*5E
$PGRME,3.0,M,9.9,M,10.3,M*1F
$HCHDG,272.1,0.0,E,,*2F
$HCHDG,272.1,0.0,E,,*2F
$GPRMC,160916.4,A,4741.19523,N,12224.25545,W,000.02,000.0,200413,016.6,E,A*23
$PGRME,3.0,M,9.8,M,10.2,M*1F
$YXXDR,A,4.8,D,PTCH,A,0.4,D,ROLL*55
$PTAK,FFD1,0.4*51
$HCHDG,272.2,0.0,E,,*2C
$HCHDG,272.2,0.0,E,,*2C
$GPRMC,160916.6,A,4741.19523,N,12224.25547,W,000.04,000.0,200413,016.6,E,A*25
$PGRME,3.0,M,9.6,M,10.1,M*12
$HCHDG,272.2,0.0,E,,*2C
$HCHDG,272.2,0.0,E,,*2C
$GPRMC,160916.8,A,4741.19521,N,12224.25551,W,000.06,000.0,200413,016.6,E,A*2C
$PGRME,3.0,M,9.6,M,10.1,M*12
$HCHDG,272.2,0.0,E,,*2C
$YXXDR,A,4.8,D,PTCH,A,0.4,D,ROLL*55
$HCHDG,272.2,0.0,E,,*2C
$GPRMC,160917.0,A,4741.19519,N,12224.25556,W,000.04,000.0,200413,016.6,E,A*2B
$PGRME,3.0,M,9.5,M,10.0,M*10
$HCHDG,272.1,0.0,E,,*2F
$HCHDG,272.1,0.0,E,,*2F
$GPRMC,160917.2,A,4741.19516,N,12224.25558,W,000.05,000.0,200413,016.6,E,A*29
$GPRMB,A,-31.69,L,,Ttp,4726.8700,N,12137.4300,W,34.7,131,-0.04,V*59
$PGRME,3.0,M,9.5,M,9.9,M*21
$HCHDG,272.1,0.0,E,,*2F
$HCHDG,272.1,0.0,E,,*2F
$GPRMC,160917.4,A,4741.19517,N,12224.25557,W,000.01,000.0,200413,016.6,E,A*25
$PGRME,3.0,M,9.4,M,9.9,M*20
$YXXDR,A,5.0,D,PTCH,A,0.5,D,ROLL*5D
$PTAK,FFD1,0.5*50
$HCHDG,272.2,0.0,E,,*2C
$HCHDG,272.2,0.0,E,,*2C
$GPRMC,160917.6,A,4741.19518,N,12224.25557,W,000.06,000.0,200413,016.6,E,A*2F
$PGRME,3.0,M,9.3,M,9.8,M*26
$HCHDG,272.3,0.0,E,,*2D
$HCHDG,272.5,0.0,E,,*2B
$GPRMC,160917.8,A,4741.19518,N,12224.25556,W,000.08,000.0,200413,016.6,E,A*2E
$PGRME,3.0,M,9.3,M,9.7,M*29
$HCHDG,272.5,0.0,E,,*2B
$YXXDR,A,4.6,D,PTCH,A,0.7,D,ROLL*58
$HCHDG,272.4,0.0,E,,*2A
$GPRMC,160918.0,A,4741.19520,N,12224.25555,W,000.05,000.0,200413,016.6,E,A*2C
$PGRME,3.0,M,9.2,M,9.7,M*28
$HCHDG,272.4,0.0,E,,*2A
$HCHDG,272.5,0.0,E,,*2B
$GPRMC,160918.2,A,4741.19516,N,12224.25556,W,000.09,000.0,200413,016.6,E,A*24
$PGRME,3.0,M,9.1,M,9.6,M*2A
$HCHDG,272.5,0.0,E,,*2B
$HCHDG,272.5,0.0,E,,*2B
$GPRMC,160918.4,A,4741.19518,N,12224.25554,W,000.02,000.0,200413,016.6,E,A*25
$GPRMB,A,-31.69,L,,Ttp,4726.8700,N,12137.4300,W,34.7,131,-0.02,V*5F
$PGRME,3.0,M,9.1,M,9.6,M*2A
$YXXDR,A,4.4,D,PTCH,A,0.8,D,ROLL*55
$PTAK,FFD1,0.8*5D
$PTAK,FFP1,HEEL,@*07
$HCHDG,272.5,0.0,E,,*2B
$HCHDG,272.3,0.0,E,,*2D
$GPRMC,160918.6,A,4741.19525,N,12224.25546,W,000.05,000.0,200413,016.6,E,A*2D
$PGRME,3.0,M,9.0,M,9.5,M*28
$HCHDG,272.3,0.0,E,,*2D
$HCHDG,272.3,0.0,E,,*2D
$GPRMC,160918.8,A,4741.19526,N,12224.25546,W,000.02,000.0,200413,016.6,E,A*27
$PGRME,3.0,M,9.0,M,9.5,M*28
$HCHDG,272.5,0.0,E,,*2B
$YXXDR,A,4.2,D,PTCH,A,0.5,D,ROLL*5E
$HCHDG,272.5,0.0,E,,*2B
$GPRMC,160919.0,A,4741.19525,N,12224.25550,W,000.04,000.0,200413,016.6,E,A*2C
$PGRME,3.0,M,8.9,M,9.4,M*21
$HCHDG,272.5,0.0,E,,*2B
$HCHDG,272.5,0.0,E,,*2B
$GPRMC,160919.2,A,4741.19520,N,12224.25558,W,000.02,000.0,200413,016.6,E,A*25
$PGRME,3.0,M,8.8,M,9.4,M*20
$HCHDG,272.5,0.0,E,,*2B
$HCHDG,272.5,0.0,E,,*2B
$GPRMC,160919.4,A,4741.19513,N,12224.25569,W,000.03,000.0,200413,016.6,E,A*20
$PGRME,3.0,M,8.8,M,9.3,M*27
$YXXDR,A,4.1,D,PTCH,A,0.7,D,ROLL*5F
$HCHDG,272.5,0.0,E,,*2B
$HCHDG,272.5,0.0,E,,*2B
$GPRMC,160919.6,A,4741.19504,N,12224.25578,W,000.01,000.0,200413,016.6,E,A*26
$GPRMB,A,-31.69,L,,Ttp,4726.8700,N,12137.4300,W,34.7,131,-0.01,V*5C
$PGRME,3.0,M,8.7,M,9.2,M*29
$HCHDG,272.5,0.0,E,,*2B
$HCHDG,272.5,0.0,E,,*2B
$GPRMC,160919.8,A,4741.19500,N,12224.25583,W,000.03,000.0,200413,016.6,E,A*2A
$PGRME,3.0,M,8.7,M,9.2,M*29
$HCHDG,272.3,0.0,E,,*2D
$YXXDR,A,4.0,D,PTCH,A,0.8,D,ROLL*51
$PTAK,FFD1,0.8*5D
$HCHDG,272.3,0.0,E,,*2D
$GPRMC,160920.0,A,4741.19501,N,12224.25580,W,000.07,000.0,200413,016.6,E,A*2E
$PGRME,3.0,M,8.6,M,9.1,M*2B
$HCHDG,272.4,0.0,E,,*2A
$HCHDG,272.3,0.0,E,,*2D
$GPRMC,160920.2,A,4741.19500,N,12224.25579,W,000.03,000.0,200413,016.6,E,A*2F
$PGRME,3.0,M,8.6,M,9.1,M*2B
$HCHDG,272.3,0.0,E,,*2D
$HCHDG,272.3,0.0,E,,*2D
$GPRMC,160920.4,A,4741.19497,N,12224.25577,W,000.02,000.0,200413,016.6,E,A*29
$PGRME,3.0,M,8.5,M,9.0,M*29
$YXXDR,A,4.0,D,PTCH,A,0.8,D,ROLL*51
$HCHDG,272.4,0.0,E,,*2A
$HCHDG,272.4,0.0,E,,*2A
$GPRMC,160920.6,A,4741.19498,N,12224.25579,W,000.04,000.0,200413,016.6,E,A*2C
$GPRMB,A,-31.69,L,,Ttp,4726.8700,N,12137.4300,W,34.7,131,-0.03,V*5E
$PGRME,3.0,M,8.5,M,9.0,M*29
$HCHDG,272.6,0.0,E,,*28
$HCHDG,272.4,0.0,E,,*2A
$GPRMC,160920.8,A,4741.19497,N,12224.25585,W,000.04,000.0,200413,016.6,E,A*2E
$PGRME,3.0,M,8.4,M,8.9,M*20
$HCHDG,272.3,0.0,E,,*2D
$YXXDR,A,4.3,D,PTCH,A,0.7,D,ROLL*5D
$PTAK,FFD1,0.7*52
$HCHDG,272.3,0.0,E,,*2D
$GPRMC,160921.0,A,4741.19498,N,12224.25586,W,000.05,000.0,200413,016.6,E,A*2A
$PGRME,3.0,M,8.4,M,8.9,M*20
$HCHDG,272.3,0.0,E,,*2D
$HCHDG,272.4,0.0,E,,*2A
$GPRMC,160921.2,A,4741.19500,N,12224.25586,W,000.02,000.0,200413,016.6,E,A*2F
$PGRME,3.0,M,8.3,M,8.8,M*26
$HCHDG,272.5,0.0,E,,*2B
$HCHDG,272.5,0.0,E,,*2B
$GPRMC,160921.4,A,4741.19501,N,12224.25585,W,000.03,000.0,200413,016.6,E,A*2A
$PGRME,3.0,M,8.3,M,8.8,M*26
$YXXDR,A,4.3,D,PTCH,A,0.6,D,ROLL*5C
$HCHDG,272.5,0.0,E,,*2B
$HCHDG,272.5,0.0,E,,*2B
$GPRMC,160921.6,A,4741.19503,N,12224.25587,W,000.04,000.0,200413,016.6,E,A*2F
$GPRMB,A,-31.69,L,,Ttp,4726.8700,N,12137.4300,W,34.7,131,-0.03,V*5E
$PGRME,3.0,M,8.2,M,8.8,M*27
$HCHDG,272.5,0.0,E,,*2B
$HCHDG,272.5,0.0,E,,*2B
$GPRMC,160921.8,A,4741.19502,N,12224.25588,W,000.06,000.0,200413,016.6,E,A*2D
$PGRME,3.0,M,8.2,M,8.7,M*28
$HCHDG,272.5,0.0,E,,*2B
$YXXDR,A,4.6,D,PTCH,A,0.8,D,ROLL*57
$HCHDG,272.6,0.0,E,,*28
$GPRMC,160922.0,A,4741.19503,N,12224.25591,W,000.02,000.0,200413,016.6,E,A*2B
$PGRME,3.0,M,8.1,M,8.6,M*2A
$HCHDG,272.6,0.0,E,,*28
$HCHDG,272.5,0.0,E,,*2B
$GPRMC,160922.2,A,4741.19503,N,12224.25595,W,000.08,000.0,200413,016.6,E,A*27
$PGRME,3.0,M,8.0,M,8.6,M*2B
$HCHDG,272.5,0.0,E,,*2B
$HCHDG,272.4,0.0,E,,*2A
$GPRMC,160922.4,A,4741.19494,N,12224.25590,W,000.04,000.0,200413,016.6,E,A*27
$PGRME,3.0,M,7.9,M,8.5,M*2E
$YXXDR,A,4.3,D,PTCH,A,0.5,D,ROLL*5F
$PTAK,FFD1,0.5*50
$HCHDG,272.5,0.0,E,,*2B
$HCHDG,272.5,0.0,E,,*2B
$GPRMC,160922.6,A,4741.19488,N,12224.25581,W,000.08,000.0,200413,016.6,E,A*24
$GPRMB,A,-31.69,L,,Ttp,4726.8700,N,12137.4300,W,34.7,131,-0.07,V*5A
$PGRME,3.0,M,7.8,M,8.4,M*2E
$HCHDG,272.5,0.0,E,,*2B
$PTAK,FFP1,HEEL,@*07
$HCHDG,272.5,0.0,E,,*2B
$GPRMC,160922.8,A,4741.19489,N,12224.25579,W,000.04,000.0,200413,016.6,E,A*20
$PGRME,3.0,M,7.8,M,8.3,M*29
$HCHDG,272.5,0.0,E,,*2B
$YXXDR,A,4.2,D,PTCH,A,0.5,D,ROLL*5E
$HCHDG,272.5,0.0,E,,*2B
$GPRMC,160923.0,A,4741.19482,N,12224.25578,W,000.03,000.0,200413,016.6,E,A*24
$PGRME,3.0,M,7.7,M,8.3,M*26
$HCHDG,272.5,0.0,E,,*2B
$HCHDG,272.5,0.0,E,,*2B
$GPRMC,160923.2,A,4741.19476,N,12224.25578,W,000.05,000.0,200413,016.6,E,A*2B
$PGRME,3.0,M,7.6,M,8.2,M*26
$HCHDG,272.5,0.0,E,,*2B
$HCHDG,272.5,0.0,E,,*2B
$GPRMC,160923.4,A,4741.19470,N,12224.25585,W,000.05,000.0,200413,016.6,E,A*29
$PGRME,3.0,M,7.6,M,8.2,M*26
$YXXDR,A,4.0,D,PTCH,A,0.4,D,ROLL*5D
$PTAK,FFD1,0.4*51
$HCHDG,272.5,0.0,E,,*2B
$HCHDG,272.5,0.0,E,,*2B
$GPRMC,160923.6,A,4741.19463,N,12224.25590,W,000.10,000.0,200413,016.6,E,A*29
$PGRME,3.0,M,7.5,M,8.1,M*26
$HCHDG,272.5,0.0,E,,*2B
$HCHDG,272.5,0.0,E,,*2B
$GPRMC,160923.8,A,4741.19458,N,12224.25594,W,000.02,000.0,200413,016.6,E,A*28
$GPRMB,A,-31.69,L,,Ttp,4726.8700,N,12137.4300,W,34.7,131,-0.02,V*5F
$PGRME,3.0,M,7.5,M,8.0,M*27
$HCHDG,272.5,0.0,E,,*2B
$YXXDR,A,4.5,D,PTCH,A,0.2,D,ROLL*5E
$HCHDG,272.5,0.0,E,,*2B
$GPRMC,160924.0,A,4741.19454,N,12224.25596,W,000.11,000.0,200413,016.6,E,A*2B
$PGRME,3.0,M,7.4,M,8.0,M*26
$HCHDG,272.5,0.0,E,,*2B
$HCHDG,272.5,0.0,E,,*2B
$GPRMC,160924.2,A,4741.19454,N,12224.25598,W,000.01,000.0,200413,016.6,E,A*26
$PGRME,3.0,M,7.4,M,8.0,M*26
$HCHDG,272.5,0.0,E,,*2B
$HCHDG,272.5,0.0,E,,*2B
$GPRMC,160924.4,A,4741.19453,N,12224.25598,W,000.08,000.0,200413,016.6,E,A*2E
$PGRME,3.0,M,7.3,M,7.9,M*27
$YXXDR,A,4.1,D,PTCH,A,0.2,D,ROLL*5A
$HCHDG,272.5,0.0,E,,*2B
$HCHDG,272.5,0.0,E,,*2B
$GPRMC,160924.6,A,4741.19453,N,12224.25590,W,000.06,000.0,200413,016.6,E,A*2A
$PGRME,3.0,M,7.3,M,7.9,M*27
$HCHDG,272.5,0.0,E,,*2B
$HCHDG,272.5,0.0,E,,*2B
$GPRMC,160924.8,A,4741.19452,N,12224.25588,W,000.06,000.0,200413,016.6,E,A*2C
$GPRMB,A,-31.69,L,,Ttp,4726.8700,N,12137.4300,W,34.7,131,-0.05,V*58
$PGRME,3.0,M,7.3,M,7.9,M*27
$HCHDG,272.5,0.0,E,,*2B
$YXXDR,A,4.4,D,PTCH,A,0.3,D,ROLL*5E
$PTAK,FFD1,0.3*56
$HCHDG,272.5,0.0,E,,*2B
$GPRMC,160925.0,A,4741.19453,N,12224.25587,W,000.09,000.0,200413,016.6,E,A*24
$PGRME,3.0,M,7.2,M,7.8,M*27
$HCHDG,272.5,0.0,E,,*2B
$HCHDG,272.5,0.0,E,,*2B
$GPRMC,160925.2,A,4741.19455,N,12224.25584,W,000.03,000.0,200413,016.6,E,A*29
$PGRME,3.0,M,7.2,M,7.8,M*27
$HCHDG,272.5,0.0,E,,*2B
$HCHDG,272.5,0.0,E,,*2B
$GPRMC,160925.4,A,4741.19460,N,12224.25579,W,000.08,000.0,200413,016.6,E,A*20
$PGRME,3.0,M,7.2,M,7.8,M*27
$YXXDR,A,4.3,D,PTCH,A,1.2,D,ROLL*59
$HCHDG,272.6,0.0,E,,*28
$HCHDG,272.6,0.0,E,,*28
$GPRMC,160925.6,A,4741.19464,N,12224.25573,W,000.07,000.0,200413,016.6,E,A*23
$PGRME,3.0,M,7.1,M,7.7,M*2B
$HCHDG,272.6,0.0,E,,*28
$HCHDG,272.5,0.0,E,,*2B
$GPRMC,160925.8,A,4741.19467,N,12224.25572,W,000.12,000.0,200413,016.6,E,A*2B
$PGRME,3.0,M,7.1,M,7.7,M*2B
$HCHDG,272.7,0.0,E,,*29
$YXXDR,A,4.5,D,PTCH,A,0.9,D,ROLL*55
$HCHDG,272.7,0.0,E,,*29
$GPRMC,160926.0,A,4741.19472,N,12224.25566,W,000.03,000.0,200413,016.6,E,A*21
$GPRMB,A,-31.69,L,,Ttp,4726.8700,N,12137.4300,W,34.7,131,-0.03,V*5E
$PGRME,3.0,M,7.0,M,7.7,M*2A
$HCHDG,272.8,0.0,E,,*26
$HCHDG,272.8,0.0,E,,*26
$GPRMC,160926.2,A,4741.19475,N,12224.25561,W,000.01,000.0,200413,016.6,E,A*21
$PGRME,3.0,M,7.0,M,7.6,M*2B
$HCHDG,272.8,0.0,E,,*26
$HCHDG,272.8,0.0,E,,*26
$GPRMC,160926.4,A,4741.19479,N,12224.25552,W,000.03,000.0,200413,016.6,E,A*29
$PGRME,3.0,M,7.0,M,7.6,M*2B
$YXXDR,A,5.1,D,PTCH,A,0.6,D,ROLL*5F
$PTAK,FFD1,0.6*53
$HCHDG,272.8,0.0,E,,*26
$HCHDG,272.8,0.0,E,,*26
$GPRMC,160926.6,A,4741.19483,N,12224.25546,W,000.05,000.0,200413,016.6,E,A*2D
$PGRME,3.0,M,6.9,M,7.6,M*23
$HCHDG,272.8,0.0,E,,*26
$HCHDG,272.8,0.0,E,,*26
$GPRMC,160926.8,A,4741.19486,N,12224.25537,W,000.03,000.0,200413,016.6,E,A*26
$PGRME,3.0,M,6.9,M,7.5,M*20
$HCHDG,272.6,0.0,E,,*28
$PTAK,FFP1,HEEL,@*07
$YXXDR,A,4.8,D,PTCH,A,0.3,D,ROLL*52
$HCHDG,272.6,0.0,E,,*28
$GPRMC,160927.0,A,4741.19486,N,12224.25535,W,000.07,000.0,200413,016.6,E,A*29
$GPRMB,A,-31.69,L,,Ttp,4726.8700,N,12137.4300,W,34.7,131,-0.06,V*5B
$PGRME,3.0,M,6.9,M,7.5,M*20
$HCHDG,272.6,0.0,E,,*28
$HCHDG,272.6,0.0,E,,*28
$GPRMC,160927.2,A,4741.19487,N,12224.25535,W,000.05,000.0,200413,016.6,E,A*28
$PGRME,3.0,M,6.8,M,7.5,M*21
$HCHDG,272.6,0.0,E,,*28
$HCHDG,272.3,0.0,E,,*2D
$GPRMC,160927.4,A,4741.19483,N,12224.25541,W,000.07,000.0,200413,016.6,E,A*2B
$PGRME,3.0,M,6.8,M,7.4,M*20
$YXXDR,A,3.8,D,PTCH,A,0.4,D,ROLL*52
$PTAK,FFD1,0.4*51
$HCHDG,272.3,0.0,E,,*2D
$HCHDG,272.3,0.0,E,,*2D
$GPRMC,160927.6,A,4741.19481,N,12224.25546,W,000.05,000.0,200413,016.6,E,A*2E
$PGRME,3.0,M,6.7,M,7.4,M*2F
$HCHDG,272.4,0.0,E,,*2A
$HCHDG,272.4,0.0,E,,*2A
$GPRMC,160927.8,A,4741.19477,N,12224.25547,W,000.05,000.0,200413,016.6,E,A*28
$PGRME,3.0,M,6.7,M,7.4,M*2F
$HCHDG,272.4,0.0,E,,*2A
$YXXDR,A,4.5,D,PTCH,A,0.6,D,ROLL*5A
$HCHDG,272.4,0.0,E,,*2A
$GPRMC,160928.0,A,4741.19477,N,12224.25548,W,000.03,000.0,200413,016.6,E,A*26
$PGRME,3.0,M,6.7,M,7.3,M*28
$HCHDG,272.4,0.0,E,,*2A
$HCHDG,272.3,0.0,E,,*2D
$GPRMC,160928.2,A,4741.19474,N,12224.25548,W,000.03,000.0,200413,016.6,E,A*27
$GPRMB,A,-31.69,L,,Ttp,4726.8700,N,12137.4300,W,34.7,131,-0.03,V*5E
$PGRME,3.0,M,6.6,M,7.3,M*29
$HCHDG,272.3,0.0,E,,*2D
$HCHDG,272.3,0.0,E,,*2D
$GPRMC,160928.4,A,4741.19475,N,12224.25548,W,000.03,000.0,200413,016.6,E,A*20
$PGRME,3.0,M,6.6,M,7.3,M*29
$YXXDR,A,4.2,D,PTCH,A,0.7,D,ROLL*5C
$PTAK,FFD1,0.7*52
$HCHDG,272.3,0.0,E,,*2D
$HCHDG,272.3,0.0,E,,*2D
$GPRMC,160928.6,A,4741.19474,N,12224.25550,W,000.04,000.0,200413,016.6,E,A*2D
$PGRME,3.0,M,6.6,M,7.2,M*28
$HCHDG,272.3,0.0,E,,*2D
$HCHDG,272.2,0.0,E,,*2C
$GPRMC,160928.8,A,4741.19473,N,12224.25551,W,000.04,000.0,200413,016.6,E,A*25
$PGRME,3.0,M,6.5,M,7.2,M*2B
$HCHDG,272.2,0.0,E,,*2C
$YXXDR,A,4.3,D,PTCH,A,1.1,D,ROLL*5A
$HCHDG,272.2,0.0,E,,*2C
$GPRMC,160929.0,A,4741.19475,N,12224.25549,W,000.04,000.0,200413,016.6,E,A*23
$PGRME,3.0,M,6.5,M,7.2,M*2B
$HCHDG,272.2,0.0,E,,*2C
$HCHDG,272.1,0.0,E,,*2F
$GPRMC,160929.2,A,4741.19477,N,12224.25547,W,000.04,000.0,200413,016.6,E,A*2D
$PGRME,3.0,M,6.5,M,7.2,M*2B
$HCHDG,272.1,0.0,E,,*2F
$HCHDG,272.1,0.0,E,,*2F
$GPRMC,160929.4,A,4741.19476,N,12224.25545,W,000.03,000.0,200413,016.6,E,A*2F
$GPRMB,A,-31.69,L,,Ttp,4726.8700,N,12137.4300,W,34.7,131,-0.03,V*5E
$PGRME,3.0,M,6.5,M,7.1,M*28
$YXXDR,A,4.3,D,PTCH,A,0.8,D,ROLL*52
$PTAK,FFD1,0.8*5D
$HCHDG,272.1,0.0,E,,*2F
$HCHDG,272.1,0.0,E,,*2F
$GPRMC,160929.6,A,4741.19474,N,12224.25544,W,000.04,000.0,200413,016.6,E,A*29
$PGRME,3.0,M,6.4,M,7.1,M*29
$HCHDG,272.1,0.0,E,,*2F
$HCHDG,271.8,0.0,E,,*25
$GPRMC,160929.8,A,4741.19475,N,12224.25538,W,000.06,000.0,200413,016.6,E,A*2F
$PGRME,3.0,M,6.4,M,7.1,M*29
$HCHDG,271.8,0.0,E,,*25
$YXXDR,A,4.7,D,PTCH,A,0.4,D,ROLL*5A
$HCHDG,271.8,0.0,E,,*25
$GPRMC,160930.0,A,4741.19477,N,12224.25533,W,000.07,000.0,200413,016.6,E,A*27
$PGRME,3.0,M,6.4,M,7.1,M*29
$HCHDG,272.1,0.0,E,,*2F
$HCHDG,272.1,0.0,E,,*2F
$GPRMC,160930.2,A,4741.19476,N,12224.25533,W,000.07,000.0,200413,016.6,E,A*24
$PGRME,3.0,M,6.3,M,7.0,M*2F
$HCHDG,272.0,0.0,E,,*2E
$HCHDG,272.0,0.0,E,,*2E
$GPRMC,160930.4,A,4741.19476,N,12224.25532,W,000.09,000.0,200413,016.6,E,A*2D
$GPRMB,A,-31.69,L,,Ttp,4726.8700,N,12137.4300,W,34.7,131,-0.08,V*55
$PGRME,3.0,M,6.3,M,7.0,M*2F
$YXXDR,A,4.5,D,PTCH,A,0.6,D,ROLL*5A
$HCHDG,272.0,0.0,E,,*2E
$HCHDG,272.0,0.0,E,,*2E
$GPRMC,160930.6,A,4741.19476,N,12224.25532,W,000.04,000.0,200413,016.6,E,A*22
$PGRME,3.0,M,6.3,M,7.0,M*2F
$HCHDG,272.0,0.0,E,,*2E
$HCHDG,271.9,0.0,E,,*24
$GPRMC,160930.8,A,4741.19476,N,12224.25531,W,000.05,000.0,200413,016.6,E,A*2E
$PGRME,3.0,M,6.3,M,7.0,M*2F
$HCHDG,272.0,0.0,E,,*2E
$PTAK,FFP1,HEEL,@*07
$YXXDR,A,4.2,D,PTCH,A,0.1,D,ROLL*5A
$PTAK,FFD1,0.1*54
$HCHDG,272.0,0.0,E,,*2E
$GPRMC,160931.0,A,4741.19475,N,12224.25531,W,000.13,000.0,200413,016.6,E,A*23
$PGRME,3.0,M,6.2,M,6.9,M*26
$HCHDG,272.0,0.0,E,,*2E
$HCHDG,271.8,0.0,E,,*25
$GPRMC,160931.2,A,4741.19475,N,12224.25531,W,000.13,000.0,200413,016.6,E,A*21
$PGRME,3.0,M,6.2,M,6.9,M*26
$HCHDG,271.7,0.0,E,,*2A
$HCHDG,271.7,0.0,E,,*2A
$GPRMC,160931.4,A,4741.19474,N,12224.25531,W,000.09,000.0,200413,016.6,E,A*2D
$GPRMB,A,-31.69,L,,Ttp,4726.8700,N,12137.4300,W,34.7,131,-0.08,V*55
$PGRME,3.0,M,6.2,M,6.9,M*26
$YXXDR,A,3.6,D,PTCH,A,-0.4,D,ROLL*71
$HCHDG,271.6,0.0,E,,*2B
$HCHDG,271.6,0.0,E,,*2B
$GPRMC,160931.6,A,4741.19474,N,12224.25530,W,000.07,000.0,200413,016.6,E,A*20
$PGRME,3.0,M,6.1,M,6.8,M*24
$HCHDG,271.9,0.0,E,,*24
$HCHDG,272.0,0.0,E,,*2E
$GPRMC,160931.8,A,4741.19474,N,12224.25530,W,000.13,000.0,200413,016.6,E,A*2B
$PGRME,3.0,M,6.1,M,6.8,M*24
$HCHDG,272.0,0.0,E,,*2E
$YXXDR,A,5.1,D,PTCH,A,-1.1,D,ROLL*74
$HCHDG,272.2,0.0,E,,*2C
$GPRMC,160932.0,A,4741.19473,N,12224.25529,W,000.04,000.0,200413,016.6,E,A*29
$PGRME,3.0,M,6.1,M,6.8,M*24
$HCHDG,272.4,0.0,E,,*2A
$HCHDG,272.4,0.0,E,,*2A
$GPRMC,160932.2,A,4741.19473,N,12224.25529,W,000.07,000.0,200413,016.6,E,A*28
$PGRME,3.0,M,6.0,M,6.8,M*25
$HCHDG,272.3,0.0,E,,*2D
$HCHDG,272.3,0.0,E,,*2D
$GPRMC,160932.4,A,4741.19473,N,12224.25529,W,000.02,000.0,200413,016.6,E,A*2B
$PGRME,3.0,M,6.0,M,6.7,M*2A
$YXXDR,A,4.4,D,PTCH,A,-1.9,D,ROLL*78
$PTAK,FFD1,1.9*5D
$HCHDG,272.1,0.0,E,,*2F
$HCHDG,272.0,0.0,E,,*2E
$GPRMC,160932.6,A,4741.19473,N,12224.25529,W,000.06,000.0,200413,016.6,E,A*2D
$GPRMB,A,-31.69,L,,Ttp,4726.8700,N,12137.4300,W,34.7,131,-0.05,V*58
$PGRME,3.0,M,6.0,M,6.7,M*2A
$HCHDG,271.7,0.0,E,,*2A
$HCHDG,271.5,0.0,E,,*28
$GPRMC,160932.8,A,4741.19473,N,12224.25528,W,000.12,000.0,200413,016.6,E,A*27
$PGRME,3.0,M,5.9,M,6.7,M*20
$HCHDG,271.5,0.0,E,,*28
$YXXDR,A,3.2,D,PTCH,A,-1.9,D,ROLL*79
$HCHDG,271.5,0.0,E,,*28
$GPRMC,160933.0,A,4741.19474,N,12224.25528,W,000.14,000.0,200413,016.6,E,A*2F
$PGRME,3.0,M,5.9,M,6.6,M*21
$HCHDG,271.5,0.0,E,,*28
$HCHDG,271.5,0.0,E,,*28
$GPRMC,160933.2,A,4741.19475,N,12224.25527,W,000.10,000.0,200413,016.6,E,A*27
$PGRME,3.0,M,5.8,M,6.6,M*20
$HCHDG,271.5,0.0,E,,*28
$HCHDG,271.7,0.0,E,,*2A
$GPRMC,160933.4,A,4741.19475,N,12224.25527,W,000.17,000.0,200413,016.6,E,A*26
$PGRME,3.0,M,5.8,M,6.5,M*23
$YXXDR,A,5.2,D,PTCH,A,-1.5,D,ROLL*73
$HCHDG,271.8,0.0,E,,*25
$HCHDG,272.0,0.0,E,,*2E
$GPRMC,160933.6,A,4741.19476,N,12224.25527,W,000.12,000.0,200413,016.6,E,A*22
$PGRME,3.0,M,5.8,M,6.5,M*23
$HCHDG,272.1,0.0,E,,*2F
$HCHDG,272.3,0.0,E,,*2D
$GPRMC,160933.8,A,4741.19477,N,12224.25527,W,000.02,000.0,200413,016.6,E,A*2C
$GPRMB,A,-31.69,L,,Ttp,4726.8700,N,12137.4300,W,34.7,131,-0.02,V*5F
$PGRME,3.0,M,5.8,M,6.5,M*23
$HCHDG,272.4,0.0,E,,*2A
$YXXDR,A,4.9,D,PTCH,A,0.4,D,ROLL*54
$PTAK,FFD1,0.4*51
$HCHDG,272.3,0.0,E,,*2D
$GPRMC,160934.0,A,4741.19477,N,12224.25527,W,000.13,000.0,200413,016.6,E,A*23
$PGRME,3.0,M,5.7,M,6.5,M*2C
$HCHDG,272.3,0.0,E,,*2D
$HCHDG,272.1,0.0,E,,*2F
$GPRMC,160934.2,A,4741.19476,N,12224.25527,W,000.05,000.0,200413,016.6,E,A*27
$PGRME,3.0,M,5.7,M,6.5,M*2C
$HCHDG,272.2,0.0,E,,*2C
$HCHDG,272.3,0.0,E,,*2D
$GPRMC,160934.4,A,4741.19476,N,12224.25527,W,000.13,000.0,200413,016.6,E,A*26
$PGRME,3.0,M,5.7,M,6.5,M*2C
$YXXDR,A,4.0,D,PTCH,A,1.2,D,ROLL*5A
$HCHDG,272.0,0.0,E,,*2E
$HCHDG,272.2,0.0,E,,*2C
$GPRMC,160934.6,A,4741.19475,N,12224.25526,W,000.07,000.0,200413,016.6,E,A*23
$PGRME,3.0,M,5.7,M,6.5,M*2C
$HCHDG,272.2,0.0,E,,*2C
$HCHDG,272.3,0.0,E,,*2D
$GPRMC,160934.8,A,4741.19475,N,12224.25526,W,000.16,000.0,200413,016.6,E,A*2D
$GPRMB,A,-31.69,L,,Ttp,4726.8700,N,12137.4300,W,34.7,131,-0.13,V*5F
$PGRME,3.0,M,5.7,M,6.5,M*2C
$HCHDG,272.4,0.0,E,,*2A
$PTAK,FFP1,HEEL,@*07
$YXXDR,A,3.6,D,PTCH,A,0.8,D,ROLL*50
$PTAK,FFD1,0.8*5D
$HCHDG,272.4,0.0,E,,*2A
$GPRMC,160935.0,A,4741.19474,N,12224.25526,W,000.12,000.0,200413,016.6,E,A*21
$PGRME,3.0,M,5.7,M,6.5,M*2C
$HCHDG,272.5,0.0,E,,*2B
$HCHDG,272.5,0.0,E,,*2B
$GPRMC,160935.2,A,4741.19473,N,12224.25527,W,000.09,000.0,200413,016.6,E,A*2F
$PGRME,3.0,M,5.7,M,6.5,M*2C
$HCHDG,272.8,0.0,E,,*26
$HCHDG,272.7,0.0,E,,*29
$GPRMC,160935.4,A,4741.19473,N,12224.25527,W,000.06,000.0,200413,016.6,E,A*26
$PGRME,3.0,M,5.7,M,6.4,M*2D
$YXXDR,A,3.8,D,PTCH,A,0.8,D,ROLL*5E
$HCHDG,272.9,0.0,E,,*27
$HCHDG,272.9,0.0,E,,*27
$GPRMC,160935.6,A,4741.19472,N,12224.25527,W,000.13,000.0,200413,016.6,E,A*21
$PGRME,3.0,M,5.7,M,6.4,M*2D
$HCHDG,272.9,0.0,E,,*27
$HCHDG,273.0,0.0,E,,*2F
$GPRMC,160935.8,A,4741.19472,N,12224.25528,W,000.10,000.0,200413,016.6,E,A*23
$PGRME,3.0,M,5.6,M,6.4,M*2C
$HCHDG,272.7,0.0,E,,*29
$YXXDR,A,4.0,D,PTCH,A,0.3,D,ROLL*5A
$HCHDG,272.8,0.0,E,,*26
$GPRMC,160936.0,A,4741.19471,N,12224.25527,W,000.20,000.0,200413,016.6,E,A*27
$GPRMB,A,-31.69,L,,Ttp,4726.8700,N,12137.4300,W,34.7,131,-0.17,V*5B
$PGRME,3.0,M,5.6,M,6.4,M*2C
$HCHDG,272.6,0.0,E,,*28
$HCHDG,272.5,0.0,E,,*2B
$GPRMC,160936.2,A,4741.19470,N,12224.25527,W,000.15,000.0,200413,016.6,E,A*22
$PGRME,3.0,M,5.6,M,6.4,M*2C
$HCHDG,272.5,0.0,E,,*2B
$HCHDG,272.5,0.0,E,,*2B
$GPRMC,160936.4,A,4741.19470,N,12224.25527,W,000.09,000.0,200413,016.6,E,A*29
$PGRME,3.0,M,5.6,M,6.4,M*2C
$YXXDR,A,3.6,D,PTCH,A,0.1,D,ROLL*59
$PTAK,FFD1,0.1*54
$HCHDG,272.4,0.0,E,,*2A
$HCHDG,272.6,0.0,E,,*28
$GPRMC,160936.6,A,4741.19469,N,12224.25527,W,000.03,000.0,200413,016.6,E,A*29
$PGRME,3.0,M,5.6,M,6.4,M*2C
$HCHDG,272.9,0.0,E,,*27
$HCHDG,272.8,0.0,E,,*26
$GPRMC,160936.8,A,4741.19469,N,12224.25527,W,000.04,000.0,200413,016.6,E,A*20
$PGRME,3.0,M,5.6,M,6.4,M*2C
$HCHDG,273.0,0.0,E,,*2F
$YXXDR,A,4.7,D,PTCH,A,0.0,D,ROLL*5E
$HCHDG,273.3,0.0,E,,*2C
$GPRMC,160937.0,A,4741.19469,N,12224.25527,W,000.03,000.0,200413,016.6,E,A*2E
$PGRME,3.0,M,5.6,M,6.4,M*2C
$HCHDG,273.3,0.0,E,,*2C
$HCHDG,273.3,0.0,E,,*2C
$GPRMC,160937.2,A,4741.19469,N,12224.25527,W,000.02,000.0,200413,016.6,E,A*2D
$GPRMB,A,-31.69,L,,Ttp,4726.8700,N,12137.4300,W,34.7,131,-0.02,V*5F
$PGRME,3.0,M,5.6,M,6.4,M*2C
$HCHDG,273.4,0.0,E,,*2B
$HCHDG,273.2,0.0,E,,*2D
$GPRMC,160937.4,A,4741.19468,N,12224.25528,W,000.03,000.0,200413,016.6,E,A*24
$PGRME,3.0,M,5.6,M,6.4,M*2C
$YXXDR,A,5.3,D,PTCH,A,-0.3,D,ROLL*75
$PTAK,FFD1,0.3*56
$HCHDG,273.2,0.0,E,,*2D
$HCHDG,273.3,0.0,E,,*2C
$GPRMC,160937.6,A,4741.19468,N,12224.25527,W,000.04,000.0,200413,016.6,E,A*2E
$PGRME,3.0,M,5.6,M,6.4,M*2C
$HCHDG,273.2,0.0,E,,*2D
$HCHDG,273.0,0.0,E,,*2F
$GPRMC,160937.8,A,4741.19468,N,12224.25527,W,000.02,000.0,200413,016.6,E,A*26
$PGRME,3.0,M,5.6,M,6.4,M*2C
$HCHDG,273.0,0.0,E,,*2F
$YXXDR,A,3.6,D,PTCH,A,0.4,D,ROLL*5C
$HCHDG,272.7,0.0,E,,*29
$GPRMC,160938.0,A,4741.19468,N,12224.25527,W,000.07,000.0,200413,016.6,E,A*24
$PGRME,3.0,M,5.6,M,6.4,M*2C
$HCHDG,272.4,0.0,E,,*2A
$HCHDG,272.4,0.0,E,,*2A
$GPRMC,160938.2,A,4741.19468,N,12224.25527,W,000.06,000.0,200413,016.6,E,A*27
$PGRME,3.0,M,5.6,M,6.4,M*2C
$HCHDG,272.1,0.0,E,,*2F
$HCHDG,272.0,0.0,E,,*2E
$GPRMC,160938.4,A,4741.19468,N,12224.25527,W,000.08,000.0,200413,016.6,E,A*2F
$GPRMB,A,-31.69,L,,Ttp,4726.8700,N,12137.4300,W,34.7,131,-0.07,V*5A
$PGRME,3.0,M,5.6,M,6.3,M*2B
$YXXDR,A,3.9,D,PTCH,A,0.4,D,ROLL*53
$PTAK,FFD1,0.4*51
$HCHDG,272.0,0.0,E,,*2E
$HCHDG,271.8,0.0,E,,*25
$GPRMC,160938.6,A,4741.19468,N,12224.25526,W,000.04,000.0,200413,016.6,E,A*20
$PGRME,3.0,M,5.6,M,6.3,M*2B
$HCHDG,271.7,0.0,E,,*2A
$HCHDG,271.7,0.0,E,,*2A
$GPRMC,160938.8,A,4741.19468,N,12224.25526,W,000.04,000.0,200413,016.6,E,A*2E
$PGRME,3.0,M,5.6,M,6.3,M*2B
$HCHDG,271.7,0.0,E,,*2A
$YXXDR,A,4.2,D,PTCH,A,1.2,D,ROLL*58
$HCHDG,271.9,0.0,E,,*24
$GPRMC,160939.0,A,4741.19468,N,12224.25526,W,000.11,000.0,200413,016.6,E,A*23
$PGRME,3.0,M,5.5,M,6.3,M*28
$HCHDG,271.9,0.0,E,,*24
$PTAK,FFP1,HEEL,@*07
$HCHDG,272.1,0.0,E,,*2F
$GPRMC,160939.2,A,4741.19467,N,12224.25525,W,000.07,000.0,200413,016.6,E,A*2A
$PGRME,3.0,M,5.5,M,6.3,M*28
$HCHDG,272.1,0.0,E,,*2F
$HCHDG,272.2,0.0,E,,*2C
$GPRMC,160939.4,A,4741.19467,N,12224.25525,W,000.17,000.0,200413,016.6,E,A*2D
$PGRME,3.0,M,5.5,M,6.3,M*28
$YXXDR,A,5.1,D,PTCH,A,1.0,D,ROLL*58
$HCHDG,272.3,0.0,E,,*2D
$HCHDG,272.2,0.0,E,,*2C
$GPRMC,160939.6,A,4741.19467,N,12224.25523,W,000.09,000.0,200413,016.6,E,A*26
$GPRMB,A,-31.69,L,,Ttp,4726.8700,N,12137.4300,W,34.7,131,-0.08,V*55
$PGRME,3.0,M,5.5,M,6.3,M*28
$HCHDG,272.1,0.0,E,,*2F
$HCHDG,272.2,0.0,E,,*2C
$GPRMC,160939.8,A,4741.19466,N,12224.25523,W,000.15,000.0,200413,016.6,E,A*24
$PGRME,3.0,M,5.5,M,6.3,M*28
$HCHDG,272.1,0.0,E,,*2F
$YXXDR,A,4.8,D,PTCH,A,0.7,D,ROLL*56
$PTAK,FFD1,0.7*52
$HCHDG,272.1,0.0,E,,*2F
$GPRMC,160940.0,A,4741.19466,N,12224.25522,W,000.07,000.0,200413,016.6,E,A*20
$PGRME,3.0,M,5.5,M,6.3,M*28
$HCHDG,272.0,0.0,E,,*2E
$HCHDG,272.0,0.0,E,,*2E
$GPRMC,160940.2,A,4741.19465,N,12224.25522,W,000.04,000.0,200413,016.6,E,A*22
$PGRME,3.0,M,5.5,M,6.3,M*28
$HCHDG,271.8,0.0,E,,*25
$HCHDG,271.8,0.0,E,,*25
$GPRMC,160940.4,A,4741.19465,N,12224.25522,W,000.14,000.0,200413,016.6,E,A*25
$PGRME,3.0,M,5.5,M,6.3,M*28
$YXXDR,A,3.8,D,PTCH,A,0.3,D,ROLL*55
$HCHDG,271.5,0.0,E,,*28
$HCHDG,271.5,0.0,E,,*28
$GPRMC,160940.6,A,4741.19465,N,12224.25521,W,000.14,000.0,200413,016.6,E,A*24
$GPRMB,A,-31.69,L,,Ttp,4726.8700,N,12137.4300,W,34.7,131,-0.12,V*5E
$PGRME,3.0,M,5.5,M,6.3,M*28
$HCHDG,271.5,0.0,E,,*28
$HCHDG,271.5,0.0,E,,*28
$GPRMC,160940.8,A,4741.19464,N,12224.25520,W,000.13,000.0,200413,016.6,E,A*2D
$PGRME,3.0,M,5.5,M,6.3,M*28
$HCHDG,271.5,0.0,E,,*28
$YXXDR,A,3.6,D,PTCH,A,0.1,D,ROLL*59
$PTAK,FFD1,0.1*54
$HCHDG,271.7,0.0,E,,*2A
$GPRMC,160941.0,A,4741.19463,N,12224.25519,W,000.13,000.0,200413,016.6,E,A*29
$PGRME,3.0,M,5.5,M,6.3,M*28
$HCHDG,271.7,0.0,E,,*2A
$HCHDG,272.0,0.0,E,,*2E
$GPRMC,160941.2,A,4741.19463,N,12224.25519,W,000.12,000.0,200413,016.6,E,A*2A
$PGRME,3.0,M,5.5,M,6.3,M*28
$HCHDG,271.9,0.0,E,,*24
$HCHDG,272.2,0.0,E,,*2C
$GPRMC,160941.4,A,4741.19462,N,12224.25518,W,000.16,000.0,200413,016.6,E,A*28
$PGRME,3.0,M,5.5,M,6.3,M*28
$YXXDR,A,5.1,D,PTCH,A,-0.3,D,ROLL*77
$HCHDG,272.4,0.0,E,,*2A
$HCHDG,272.6,0.0,E,,*28
$GPRMC,160941.6,A,4741.19462,N,12224.25517,W,000.09,000.0,200413,016.6,E,A*2B
$PGRME,3.0,M,5.5,M,6.3,M*28
$HCHDG,272.6,0.0,E,,*28
$HCHDG,272.6,0.0,E,,*28
$GPRMC,160941.8,A,4741.19462,N,12224.25517,W,000.13,000.0,200413,016.6,E,A*2E
$GPRMB,A,-31.69,L,,Ttp,4726.8700,N,12137.4300,W,34.7,131,-0.11,V*5D
$PGRME,3.0,M,5.5,M,6.3,M*28
$HCHDG,272.8,0.0,E,,*26
$YXXDR,A,5.4,D,PTCH,A,-0.5,D,ROLL*74
$PTAK,FFD1,0.5*50
$HCHDG,272.8,0.0,E,,*26
$GPRMC,160942.0,A,4741.19462,N,12224.25516,W,000.07,000.0,200413,016.6,E,A*21
$PGRME,3.0,M,5.5,M,6.3,M*28
$HCHDG,272.6,0.0,E,,*28
$HCHDG,272.6,0.0,E,,*28
$GPRMC,160942.2,A,4741.19462,N,12224.25515,W,000.08,000.0,200413,016.6,E,A*2F
$PGRME,3.0,M,5.5,M,6.3,M*28
$HCHDG,272.4,0.0,E,,*2A
$HCHDG,272.4,0.0,E,,*2A
$GPRMC,160942.4,A,4741.19462,N,12224.25515,W,000.06,000.0,200413,016.6,E,A*27
$PGRME,3.0,M,5.5,M,6.3,M*28
$YXXDR,A,4.6,D,PTCH,A,0.1,D,ROLL*5E
$HCHDG,272.2,0.0,E,,*2C
$HCHDG,272.2,0.0,E,,*2C
$GPRMC,160942.6,A,4741.19462,N,12224.25514,W,000.06,000.0,200413,016.6,E,A*24
$PGRME,3.0,M,5.5,M,6.3,M*28
$HCHDG,272.0,0.0,E,,*2E
$HCHDG,272.0,0.0,E,,*2E
$GPRMC,160942.8,A,4741.19462,N,12224.25514,W,000.07,000.0,200413,016.6,E,A*2B
$PGRME,3.0,M,5.5,M,6.2,M*29
$HCHDG,271.8,0.0,E,,*25
$YXXDR,A,4.0,D,PTCH,A,0.8,D,ROLL*51
$HCHDG,271.8,0.0,E,,*25
$GPRMC,160943.0,A,4741.19461,N,12224.25514,W,000.03,000.0,200413,016.6,E,A*25
$GPRMB,A,-31.69,L,,Ttp,4726.8700,N,12137.4300,W,34.7,131,-0.03,V*5E
$PGRME,3.0,M,5.4,M,6.2,M*28
$HCHDG,271.7,0.0,E,,*2A
$PTAK,FFP1,HEEL,@*07
$HCHDG,271.7,0.0,E,,*2A
$GPRMC,160943.2,A,4741.19461,N,12224.25514,W,000.03,000.0,200413,016.6,E,A*27
$PGRME,3.0,M,5.4,M,6.2,M*28
$HCHDG,271.7,0.0,E,,*2A
$HCHDG,271.7,0.0,E,,*2A
$GPRMC,160943.4,A,4741.19461,N,12224.25514,W,000.06,000.0,200413,016.6,E,A*24
$PGRME,3.0,M,5.4,M,6.2,M*28
$YXXDR,A,4.1,D,PTCH,A,1.3,D,ROLL*5A
$PTAK,FFD1,1.3*57
$HCHDG,271.8,0.0,E,,*25
$HCHDG,271.8,0.0,E,,*25
$GPRMC,160943.6,A,4741.19461,N,12224.25514,W,000.12,000.0,200413,016.6,E,A*23
$PGRME,3.0,M,5.4,M,6.2,M*28
$HCHDG,271.8,0.0,E,,*25
$HCHDG,271.7,0.0,E,,*2A
$GPRMC,160943.8,A,4741.19460,N,12224.25514,W,000.12,000.0,200413,016.6,E,A*2C
$PGRME,3.0,M,5.4,M,6.2,M*28
$HCHDG,271.7,0.0,E,,*2A
$YXXDR,A,4.5,D,PTCH,A,1.5,D,ROLL*58
$HCHDG,272.0,0.0,E,,*2E
$GPRMC,160944.0,A,4741.19460,N,12224.25515,W,000.10,000.0,200413,016.6,E,A*20
$PGRME,3.0,M,5.4,M,6.2,M*28
$PGRMT,GPS 18x-5Hz software ver. 3.20,,,,,,,,*30
$HCHDG,271.9,0.0,E,,*24
$HCHDG,271.9,0.0,E,,*24
$GPRMC,160944.2,A,4741.19460,N,12224.25515,W,000.13,000.0,200413,016.6,E,A*21
$GPRMB,A,-31.69,L,,Ttp,4726.8700,N,12137.4300,W,34.7,131,-0.11,V*5D
$PGRME,3.0,M,5.3,M,6.1,M*2C
$HCHDG,272.0,0.0,E,,*2E
$HCHDG,272.0,0.0,E,,*2E
$GPRMC,160944.4,A,4741.19459,N,12224.25515,W,000.07,000.0,200413,016.6,E,A*28
$PGRME,3.0,M,5.3,M,6.1,M*2C
$YXXDR,A,4.5,D,PTCH,A,0.8,D,ROLL*54
$HCHDG,271.8,0.0,E,,*25
$HCHDG,271.8,0.0,E,,*25
$GPRMC,160944.6,A,4741.19459,N,12224.25516,W,000.07,000.0,200413,016.6,E,A*29
$PGRME,3.0,M,5.3,M,6.1,M*2C
$HCHDG,271.9,0.0,E,,*24
$HCHDG,271.9,0.0,E,,*24
$GPRMC,160944.8,A,4741.19459,N,12224.25516,W,000.05,000.0,200413,016.6,E,A*25
$PGRME,3.0,M,5.3,M,6.1,M*2C
$HCHDG,271.6,0.0,E,,*2B
$YXXDR,A,4.0,D,PTCH,A,0.0,D,ROLL*59
$PTAK,FFD1,0.0*55
$HCHDG,271.7,0.0,E,,*2A
$GPRMC,160945.0,A,4741.19458,N,12224.25517,W,000.03,000.0,200413,016.6,E,A*2A
$PGRME,3.0,M,5.3,M,6.1,M*2C
$HCHDG,271.5,0.0,E,,*28
$HCHDG,271.6,0.0,E,,*2B
$GPRMC,160945.2,A,4741.19458,N,12224.25517,W,000.04,000.0,200413,016.6,E,A*2F
$PGRME,3.0,M,5.3,M,6.1,M*2C
$HCHDG,271.4,0.0,E,,*29
$HCHDG,271.2,0.0,E,,*2F
$GPRMC,160945.4,A,4741.19458,N,12224.25517,W,000.08,000.0,200413,016.6,E,A*25
$GPRMB,A,-31.69,L,,Ttp,4726.8700,N,12137.4300,W,34.7,131,-0.07,V*5A
$PGRME,3.0,M,5.3,M,6.1,M*2C
$YXXDR,A,3.2,D,PTCH,A,0.5,D,ROLL*59
$HCHDG,271.2,0.0,E,,*2F
$HCHDG,271.1,0.0,E,,*2C
$GPRMC,160945.6,A,4741.19458,N,12224.25518,W,000.02,000.0,200413,016.6,E,A*22
$PGRME,3.0,M,5.2,M,6.1,M*2D
$HCHDG,271.1,0.0,E,,*2C
$HCHDG,271.2,0.0,E,,*2F
$GPRMC,160945.8,A,4741.19458,N,12224.25518,W,000.08,000.0,200413,016.6,E,A*26
$PGRME,3.0,M,5.2,M,6.1,M*2D
$HCHDG,271.2,0.0,E,,*2F
$YXXDR,A,3.1,D,PTCH,A,1.2,D,ROLL*5C
$PTAK,FFD1,1.2*56
$HCHDG,271.2,0.0,E,,*2F
$GPRMC,160946.0,A,4741.19458,N,12224.25519,W,000.08,000.0,200413,016.6,E,A*2C
$PGRME,3.0,M,5.2,M,6.0,M*2C
$HCHDG,271.6,0.0,E,,*2B
$HCHDG,271.6,0.0,E,,*2B
$GPRMC,160946.2,A,4741.19458,N,12224.25519,W,000.11,000.0,200413,016.6,E,A*26
$PGRME,3.0,M,5.2,M,6.0,M*2C
$HCHDG,271.8,0.0,E,,*25
$HCHDG,271.9,0.0,E,,*24
$GPRMC,160946.4,A,4741.19459,N,12224.25520,W,000.07,000.0,200413,016.6,E,A*2C
$GPRMB,A,-31.69,L,,Ttp,4726.8700,N,12137.4300,W,34.7,131,-0.06,V*5B
$PGRME,3.0,M,5.2,M,6.0,M*2C
$YXXDR,A,4.6,D,PTCH,A,2.1,D,ROLL*5C
$HCHDG,272.0,0.0,E,,*2E
$HCHDG,272.1,0.0,E,,*2F
$GPRMC,160946.6,A,4741.19459,N,12224.25520,W,000.08,000.0,200413,016.6,E,A*21
$PGRME,3.0,M,5.1,M,6.0,M*2F
$HCHDG,272.1,0.0,E,,*2F
$HCHDG,272.1,0.0,E,,*2F
$GPRMC,160946.8,A,4741.19459,N,12224.25521,W,000.10,000.0,200413,016.6,E,A*27
$PGRME,3.0,M,5.1,M,5.9,M*25
$HCHDG,272.2,0.0,E,,*2C
$YXXDR,A,4.1,D,PTCH,A,2.0,D,ROLL*5A
$HCHDG,272.3,0.0,E,,*2D
$GPRMC,160947.0,A,4741.19459,N,12224.25521,W,000.08,000.0,200413,016.6,E,A*27
$PGRME,3.0,M,5.1,M,5.9,M*25
$HCHDG,272.3,0.0,E,,*2D
$HCHDG,272.2,0.0,E,,*2C
$GPRMC,160947.2,A,4741.19459,N,12224.25522,W,000.13,000.0,200413,016.6,E,A*2C
$PGRME,3.0,M,5.0,M,5.9,M*24
$HCHDG,272.2,0.0,E,,*2C
$PTAK,FFP1,HEEL,@*07
$HCHDG,272.2,0.0,E,,*2C
$GPRMC,160947.4,A,4741.19458,N,12224.25523,W,000.14,000.0,200413,016.6,E,A*2D
$PGRME,3.0,M,5.0,M,5.8,M*25
$YXXDR,A,3.7,D,PTCH,A,1.0,D,ROLL*58
$PTAK,FFD1,1.0*54
$HCHDG,272.0,0.0,E,,*2E
$HCHDG,272.0,0.0,E,,*2E
$GPRMC,160947.6,A,4741.19458,N,12224.25523,W,000.13,000.0,200413,016.6,E,A*28
$GPRMB,A,-31.69,L,,Ttp,4726.8700,N,12137.4300,W,34.7,131,-0.11,V*5D
$PGRME,3.0,M,5.0,M,5.8,M*25
$HCHDG,272.0,0.0,E,,*2E
$HCHDG,271.9,0.0,E,,*24
$GPRMC,160947.8,A,4741.19457,N,12224.25523,W,000.02,000.0,200413,016.6,E,A*29
$PGRME,3.0,M,4.9,M,5.8,M*2D
$HCHDG,271.9,0.0,E,,*24
$YXXDR,A,3.6,D,PTCH,A,0.1,D,ROLL*59
$HCHDG,271.7,0.0,E,,*2A
$GPRMC,160948.0,A,4741.19457,N,12224.25523,W,000.08,000.0,200413,016.6,E,A*24
$PGRME,3.0,M,4.9,M,5.8,M*2D
$HCHDG,271.8,0.0,E,,*25
$HCHDG,271.6,0.0,E,,*2B
$GPRMC,160948.2,A,4741.19456,N,12224.25523,W,000.09,000.0,200413,016.6,E,A*26
$PGRME,3.0,M,4.9,M,5.8,M*2D
$HCHDG,271.4,0.0,E,,*29
$HCHDG,271.4,0.0,E,,*29
$GPRMC,160948.4,A,4741.19456,N,12224.25522,W,000.05,000.0,200413,016.6,E,A*2D
$PGRME,3.0,M,4.9,M,5.8,M*2D
$YXXDR,A,2.9,D,PTCH,A,-0.7,D,ROLL*7C
$PTAK,FFD1,0.7*52
$HCHDG,271.2,0.0,E,,*2F
$HCHDG,271.2,0.0,E,,*2F
$GPRMC,160948.6,A,4741.19456,N,12224.25522,W,000.06,000.0,200413,016.6,E,A*2C
$GPRMB,A,-31.69,L,,Ttp,4726.8700,N,12137.4300,W,34.7,131,-0.05,V*58
$PGRME,3.0,M,4.9,M,5.8,M*2D
$HCHDG,271.1,0.0,E,,*2C
$HCHDG,271.1,0.0,E,,*2C
$GPRMC,160948.8,A,4741.19455,N,12224.25521,W,000.09,000.0,200413,016.6,E,A*2D
$PGRME,3.0,M,4.9,M,5.8,M*2D
$HCHDG,271.1,0.0,E,,*2C
$YXXDR,A,2.3,D,PTCH,A,-0.3,D,ROLL*72
$HCHDG,271.1,0.0,E,,*2C
$GPRMC,160949.0,A,4741.19455,N,12224.25521,W,000.05,000.0,200413,016.6,E,A*28
$PGRME,3.0,M,4.9,M,5.8,M*2D
$HCHDG,271.1,0.0,E,,*2C
$HCHDG,271.3,0.0,E,,*2E
$GPRMC,160949.2,A,4741.19455,N,12224.25521,W,000.05,000.0,200413,016.6,E,A*2A
$PGRME,3.0,M,4.9,M,5.7,M*22
$HCHDG,271.3,0.0,E,,*2E
$HCHDG,271.5,0.0,E,,*28
$GPRMC,160949.4,A,4741.19455,N,12224.25521,W,000.06,000.0,200413,016.6,E,A*2F
$PGRME,3.0,M,4.8,M,5.7,M*23
$YXXDR,A,3.5,D,PTCH,A,0.4,D,ROLL*5F
$HCHDG,271.8,0.0,E,,*25
$HCHDG,271.9,0.0,E,,*24
$GPRMC,160949.6,A,4741.19454,N,12224.25521,W,000.03,000.0,200413,016.6,E,A*29
$GPRMB,A,-31.69,L,,Ttp,4726.8700,N,12137.4300,W,34.7,131,-0.03,V*5E
$PGRME,3.0,M,4.8,M,5.7,M*23
$HCHDG,272.1,0.0,E,,*2F
$HCHDG,272.3,0.0,E,,*2D
$GPRMC,160949.8,A,4741.19455,N,12224.25521,W,000.02,000.0,200413,016.6,E,A*27
$PGRME,3.0,M,4.8,M,5.7,M*23
$HCHDG,272.2,0.0,E,,*2C
$YXXDR,A,4.4,D,PTCH,A,1.2,D,ROLL*5E
$PTAK,FFD1,1.2*56
$HCHDG,272.4,0.0,E,,*2A
$GPRMC,160950.0,A,4741.19455,N,12224.25521,W,000.03,000.0,200413,016.6,E,A*26
$PGRME,3.0,M,4.8,M,5.7,M*23
$HCHDG,272.3,0.0,E,,*2D
$HCHDG,272.3,0.0,E,,*2D
$GPRMC,160950.2,A,4741.19455,N,12224.25521,W,000.03,000.0,200413,016.6,E,A*24
$PGRME,3.0,M,4.8,M,5.7,M*23
$HCHDG,272.3,0.0,E,,*2D
$HCHDG,272.2,0.0,E,,*2C
$GPRMC,160950.4,A,4741.19455,N,12224.25521,W,000.01,000.0,200413,016.6,E,A*20
$PGRME,3.0,M,4.7,M,5.6,M*2D
$YXXDR,A,4.6,D,PTCH,A,1.8,D,ROLL*56
$HCHDG,272.2,0.0,E,,*2C
$HCHDG,272.1,0.0,E,,*2F
$GPRMC,160950.6,A,4741.19455,N,12224.25521,W,000.02,000.0,200413,016.6,E,A*21
$GPRMB,A,-31.69,L,,Ttp,4726.8700,N,12137.4300,W,34.7,131,-0.02,V*5F
$PGRME,3.0,M,4.7,M,5.6,M*2D
$HCHDG,272.0,0.0,E,,*2E
$HCHDG,272.0,0.0,E,,*2E
$GPRMC,160950.8,A,4741.19455,N,12224.25521,W,000.03,000.0,200413,016.6,E,A*2E
$PGRME,3.0,M,4.7,M,5.6,M*2D
$HCHDG,271.9,0.0,E,,*24
$YXXDR,A,3.8,D,PTCH,A,2.1,D,ROLL*55
$PTAK,FFD1,2.1*56
$HCHDG,272.0,0.0,E,,*2E
$GPRMC,160951.0,A,4741.19455,N,12224.25521,W,000.02,000.0,200413,016.6,E,A*26
$PGRME,3.0,M,4.7,M,5.6,M*2D
$HCHDG,271.8,0.0,E,,*25
$HCHDG,271.7,0.0,E,,*2A
$GPRMC,160951.2,A,4741.19455,N,12224.25521,W,000.02,000.0,200413,016.6,E,A*24
$PGRME,3.0,M,4.6,M,5.6,M*2C
$HCHDG,271.8,0.0,E,,*25
$HCHDG,271.8,0.0,E,,*25
$PTAK,FFP1,HEEL,@*07
$GPRMC,160951.4,A,4741.19455,N,12224.25521,W,000.02,000.0,200413,016.6,E,A*22
$PGRME,3.0,M,4.6,M,5.5,M*2F
$YXXDR,A,4.0,D,PTCH,A,1.7,D,ROLL*5F
$HCHDG,271.8,0.0,E,,*25
$HCHDG,271.6,0.0,E,,*2B
$GPRMC,160951.6,A,4741.19455,N,12224.25521,W,000.01,000.0,200413,016.6,E,A*23
$PGRME,3.0,M,4.6,M,5.5,M*2F
$HCHDG,271.6,0.0,E,,*2B
$HCHDG,271.6,0.0,E,,*2B
$GPRMC,160951.8,A,4741.19455,N,12224.25521,W,000.02,000.0,200413,016.6,E,A*2E
$GPRMB,A,-31.69,L,,Ttp,4726.8700,N,12137.4300,W,34.7,131,-0.02,V*5F
$PGRME,3.0,M,4.6,M,5.5,M*2F
$HCHDG,271.5,0.0,E,,*28
$YXXDR,A,3.7,D,PTCH,A,1.0,D,ROLL*58
$PTAK,FFD1,1.0*54
$HCHDG,271.5,0.0,E,,*28
$GPRMC,160952.0,A,4741.19455,N,12224.25521,W,000.01,000.0,200413,016.6,E,A*26
$PGRME,3.0,M,4.6,M,5.5,M*2F
$HCHDG,271.5,0.0,E,,*28
$HCHDG,271.5,0.0,E,,*28
$GPRMC,160952.2,A,4741.19455,N,12224.25521,W,000.01,000.0,200413,016.6,E,A*24
$PGRME,3.0,M,4.6,M,5.5,M*2F
$HCHDG,271.5,0.0,E,,*28
$HCHDG,271.7,0.0,E,,*2A
$GPRMC,160952.4,A,4741.19455,N,12224.25521,W,000.01,000.0,200413,016.6,E,A*22
$PGRME,3.0,M,4.6,M,5.5,M*2F
$YXXDR,A,4.0,D,PTCH,A,0.6,D,ROLL*5F
$HCHDG,271.7,0.0,E,,*2A
$HCHDG,271.6,0.0,E,,*2B
$GPRMC,160952.6,A,4741.19455,N,12224.25521,W,000.02,000.0,200413,016.6,E,A*23
$PGRME,3.0,M,4.6,M,5.5,M*2F
$HCHDG,271.9,0.0,E,,*24
$HCHDG,272.1,0.0,E,,*2F
$GPRMC,160952.8,A,4741.19455,N,12224.25521,W,000.02,000.0,200413,016.6,E,A*2D
$PGRME,3.0,M,4.6,M,5.5,M*2F
$HCHDG,272.1,0.0,E,,*2F
$YXXDR,A,5.5,D,PTCH,A,0.7,D,ROLL*5A
$HCHDG,272.3,0.0,E,,*2D
$GPRMC,160953.0,A,4741.19455,N,12224.25521,W,000.03,000.0,200413,016.6,E,A*25
$GPRMB,A,-31.69,L,,Ttp,4726.8700,N,12137.4300,W,34.7,131,-0.03,V*5E
$PGRME,3.0,M,4.6,M,5.5,M*2F
$HCHDG,272.3,0.0,E,,*2D
$HCHDG,272.5,0.0,E,,*2B
$GPRMC,160953.2,A,4741.19455,N,12224.25521,W,000.01,000.0,200413,016.6,E,A*25
$PGRME,3.0,M,4.6,M,5.5,M*2F
$HCHDG,272.6,0.0,E,,*28
$HCHDG,272.3,0.0,E,,*2D
$GPRMC,160953.4,A,4741.19455,N,12224.25521,W,000.02,000.0,200413,016.6,E,A*20
$PGRME,3.0,M,4.5,M,5.5,M*2C
$YXXDR,A,4.7,D,PTCH,A,0.6,D,ROLL*58
$PTAK,FFD1,0.6*53
$HCHDG,272.4,0.0,E,,*2A
$HCHDG,272.4,0.0,E,,*2A
$GPRMC,160953.6,A,4741.19455,N,12224.25521,W,000.02,000.0,200413,016.6,E,A*22
$PGRME,3.0,M,4.5,M,5.5,M*2C
$HCHDG,272.2,0.0,E,,*2C
$HCHDG,272.1,0.0,E,,*2F
$GPRMC,160953.8,A,4741.19454,N,12224.25520,W,000.01,000.0,200413,016.6,E,A*2F
$PGRME,3.0,M,4.5,M,5.4,M*2D
$HCHDG,272.1,0.0,E,,*2F
$YXXDR,A,4.0,D,PTCH,A,0.8,D,ROLL*51
$HCHDG,271.9,0.0,E,,*24
$GPRMC,160954.0,A,4741.19454,N,12224.25520,W,000.01,000.0,200413,016.6,E,A*20
$GPRMB,A,-31.69,L,,Ttp,4726.8700,N,12137.4300,W,34.7,131,-0.01,V*5C
$PGRME,3.0,M,4.5,M,5.4,M*2D
$HCHDG,271.9,0.0,E,,*24
$HCHDG,271.8,0.0,E,,*25
$GPRMC,160954.2,A,4741.19454,N,12224.25520,W,000.01,000.0,200413,016.6,E,A*22
$PGRME,3.0,M,4.5,M,5.4,M*2D
$HCHDG,271.8,0.0,E,,*25
$HCHDG,271.6,0.0,E,,*2B
$GPRMC,160954.4,A,4741.19454,N,12224.25520,W,000.03,000.0,200413,016.6,E,A*26
$PGRME,3.0,M,4.5,M,5.4,M*2D
$YXXDR,A,4.0,D,PTCH,A,1.3,D,ROLL*5B
$PTAK,FFD1,1.3*57
$HCHDG,271.5,0.0,E,,*28
$HCHDG,271.6,0.0,E,,*2B
$GPRMC,160954.6,A,4741.19454,N,12224.25520,W,000.02,000.0,200413,016.6,E,A*25
$PGRME,3.0,M,4.5,M,5.4,M*2D
$HCHDG,271.6,0.0,E,,*2B
$HCHDG,271.6,0.0,E,,*2B
$GPRMC,160954.8,A,4741.19454,N,12224.25520,W,000.01,000.0,200413,016.6,E,A*28
$PGRME,3.0,M,4.5,M,5.4,M*2D
$HCHDG,271.8,0.0,E,,*25
$YXXDR,A,3.7,D,PTCH,A,1.6,D,ROLL*5E
$HCHDG,271.8,0.0,E,,*25
$GPRMC,160955.0,A,4741.19454,N,12224.25521,W,000.01,000.0,200413,016.6,E,A*20
$PGRME,3.0,M,4.5,M,5.4,M*2D
$HCHDG,271.8,0.0,E,,*25
$HCHDG,272.0,0.0,E,,*2E
$GPRMC,160955.2,A,4741.19454,N,12224.25521,W,000.01,000.0,200413,016.6,E,A*22
$GPRMB,A,-31.69,L,,Ttp,4726.8700,N,12137.4300,W,34.7,131,-0.01,V*5C
$PGRME,3.0,M,4.4,M,5.4,M*2C
$HCHDG,272.0,0.0,E,,*2E
$PTAK,FFP1,HEEL,@*07
$HCHDG,272.0,0.0,E,,*2E
$GPRMC,160955.4,A,4741.19454,N,12224.25521,W,000.00,000.0,200413,016.6,E,A*25
$PGRME,3.0,M,4.4,M,5.4,M*2C
$YXXDR,A,4.8,D,PTCH,A,1.3,D,ROLL*53
$PTAK,FFD1,1.3*57
$HCHDG,272.2,0.0,E,,*2C
$HCHDG,272.2,0.0,E,,*2C
$GPRMC,160955.6,A,4741.19454,N,12224.25521,W,000.01,000.0,200413,016.6,E,A*26
$PGRME,3.0,M,4.4,M,5.4,M*2C
$HCHDG,272.2,0.0,E,,*2C
$HCHDG,272.2,0.0,E,,*2C
$GPRMC,160955.8,A,4741.19454,N,12224.25521,W,000.02,000.0,200413,016.6,E,A*2B
$PGRME,3.0,M,4.4,M,5.4,M*2C
$HCHDG,272.2,0.0,E,,*2C
$YXXDR,A,4.2,D,PTCH,A,0.6,D,ROLL*5D
$HCHDG,272.2,0.0,E,,*2C
$GPRMC,160956.0,A,4741.19454,N,12224.25521,W,000.01,000.0,200413,016.6,E,A*23
$PGRME,3.0,M,4.4,M,5.4,M*2C
$HCHDG,272.0,0.0,E,,*2E
$HCHDG,272.0,0.0,E,,*2E
$GPRMC,160956.2,A,4741.19454,N,12224.25521,W,000.01,000.0,200413,016.6,E,A*21
$PGRME,3.0,M,4.4,M,5.3,M*2B
$HCHDG,271.7,0.0,E,,*2A
$HCHDG,271.8,0.0,E,,*25
$GPRMC,160956.4,A,4741.19454,N,12224.25521,W,000.01,000.0,200413,016.6,E,A*27
$GPRMB,A,-31.69,L,,Ttp,4726.8700,N,12137.4300,W,34.7,131,-0.01,V*5C
$PGRME,3.0,M,4.4,M,5.3,M*2B
$YXXDR,A,3.1,D,PTCH,A,0.6,D,ROLL*59
$PTAK,FFD1,0.6*53
$HCHDG,271.6,0.0,E,,*2B
$HCHDG,271.6,0.0,E,,*2B
$GPRMC,160956.6,A,4741.19454,N,12224.25520,W,000.01,000.0,200413,016.6,E,A*24
$PGRME,3.0,M,4.4,M,5.3,M*2B
$HCHDG,271.4,0.0,E,,*29
$HCHDG,271.3,0.0,E,,*2E
$GPRMC,160956.8,A,4741.19454,N,12224.25520,W,000.02,000.0,200413,016.6,E,A*29
$PGRME,3.0,M,4.4,M,5.3,M*2B
$HCHDG,271.1,0.0,E,,*2C
$YXXDR,A,2.7,D,PTCH,A,0.5,D,ROLL*5D
$HCHDG,271.1,0.0,E,,*2C
$GPRMC,160957.0,A,4741.19454,N,12224.25520,W,000.01,000.0,200413,016.6,E,A*23
$PGRME,3.0,M,4.4,M,5.3,M*2B
$HCHDG,270.9,0.0,E,,*25
$HCHDG,270.9,0.0,E,,*25
$GPRMC,160957.2,A,4741.19454,N,12224.25520,W,000.02,000.0,200413,016.6,E,A*22
$PGRME,3.0,M,4.4,M,5.3,M*2B
$HCHDG,270.9,0.0,E,,*25
$HCHDG,270.9,0.0,E,,*25
$GPRMC,160957.4,A,4741.19454,N,12224.25521,W,000.01,000.0,200413,016.6,E,A*26
$GPRMB,A,-31.69,L,,Ttp,4726.8700,N,12137.4300,W,34.7,131,-0.01,V*5C
$PGRME,3.0,M,4.4,M,5.3,M*2B
$YXXDR,A,3.2,D,PTCH,A,0.8,D,ROLL*54
$HCHDG,271.0,0.0,E,,*2D
$HCHDG,270.9,0.0,E,,*25
$GPRMC,160957.6,A,4741.19454,N,12224.25520,W,000.02,000.0,200413,016.6,E,A*26
$PGRME,3.0,M,4.4,M,5.3,M*2B
$HCHDG,270.9,0.0,E,,*25
$HCHDG,271.2,0.0,E,,*2F
$GPRMC,160957.8,A,4741.19454,N,12224.25521,W,000.02,000.0,200413,016.6,E,A*29
$PGRME,3.0,M,4.3,M,5.3,M*2C
$HCHDG,271.4,0.0,E,,*29
$YXXDR,A,4.3,D,PTCH,A,1.5,D,ROLL*5E
$PTAK,FFD1,1.5*51
$HCHDG,271.4,0.0,E,,*29
$GPRMC,160958.0,A,4741.19454,N,12224.25521,W,000.01,000.0,200413,016.6,E,A*2D
$PGRME,3.0,M,4.3,M,5.3,M*2C
$HCHDG,271.4,0.0,E,,*29
$HCHDG,271.6,0.0,E,,*2B
$GPRMC,160958.2,A,4741.19454,N,12224.25521,W,000.01,000.0,200413,016.6,E,A*2F
$PGRME,3.0,M,4.3,M,5.3,M*2C
$HCHDG,271.8,0.0,E,,*25
$HCHDG,271.8,0.0,E,,*25
$GPRMC,160958.4,A,4741.19454,N,12224.25521,W,000.02,000.0,200413,016.6,E,A*2A
$PGRME,3.0,M,4.3,M,5.3,M*2C
$YXXDR,A,3.9,D,PTCH,A,1.8,D,ROLL*5E
$HCHDG,272.1,0.0,E,,*2F
$HCHDG,272.1,0.0,E,,*2F
$GPRMC,160958.6,A,4741.19454,N,12224.25521,W,000.01,000.0,200413,016.6,E,A*2B
$GPRMB,A,-31.69,L,,Ttp,4726.8700,N,12137.4300,W,34.7,131,-0.01,V*5C
$PGRME,3.0,M,4.3,M,5.3,M*2C
$HCHDG,272.1,0.0,E,,*2F
$HCHDG,272.3,0.0,E,,*2D
$GPRMC,160958.8,A,4741.19455,N,12224.25521,W,000.01,000.0,200413,016.6,E,A*24
$PGRME,3.0,M,4.3,M,5.3,M*2C
$HCHDG,272.5,0.0,E,,*2B
$YXXDR,A,3.9,D,PTCH,A,1.6,D,ROLL*50
$PTAK,FFD1,1.6*52
$HCHDG,272.6,0.0,E,,*28
$GPRMC,160959.0,A,4741.19455,N,12224.25521,W,000.02,000.0,200413,016.6,E,A*2E
$PGRME,3.0,M,4.3,M,5.2,M*2D
$HCHDG,272.9,0.0,E,,*27
$HCHDG,273.0,0.0,E,,*2F
$GPRMC,160959.2,A,4741.19455,N,12224.25521,W,000.01,000.0,200413,016.6,E,A*2F
$PGRME,3.0,M,4.2,M,5.2,M*2C
$HCHDG,273.0,0.0,E,,*2F
$HCHDG,273.1,0.0,E,,*2E
$GPRMC,160959.4,A,4741.19455,N,12224.25521,W,000.00,000.0,200413,016.6,E,A*28
$PGRME,3.0,M,4.2,M,5.2,M*2C
$YXXDR,A,4.7,D,PTCH,A,0.9,D,ROLL*57
$PTAK,FFP1,HEEL,@*07
$HCHDG,273.1,0.0,E,,*2E
$HCHDG,273.1,0.0,E,,*2E
$GPRMC,160959.6,A,4741.19455,N,12224.25521,W,000.02,000.0,200413,016.6,E,A*28
$GPRMB,A,-31.69,L,,Ttp,4726.8700,N,12137.4300,W,34.7,131,-0.02,V*5F
$PGRME,3.0,M,4.2,M,5.2,M*2C
$HCHDG,273.2,0.0,E,,*2D
$HCHDG,273.3,0.0,E,,*2C
$GPRMC,160959.8,A,4741.19455,N,12224.25521,W,000.01,000.0,200413,016.6,E,A*25
$PGRME,3.0,M,4.2,M,5.2,M*2C
$HCHDG,273.3,0.0,E,,*2C
$YXXDR,A,4.0,D,PTCH,A,0.4,D,ROLL*5D
$HCHDG,273.3,0.0,E,,*2C
$GPRMC,161000.0,A,4741.19455,N,12224.25521,W,000.02,000.0,200413,016.6,E,A*2A
$PGRME,3.0,M,4.2,M,5.2,M*2C
$HCHDG,273.3,0.0,E,,*2C
$HCHDG,273.2,0.0,E,,*2D
$GPRMC,161000.2,A,4741.19455,N,12224.25521,W,000.00,000.0,200413,016.6,E,A*2A
$PGRME,3.0,M,4.2,M,5.2,M*2C
$HCHDG,273.1,0.0,E,,*2E
$HCHDG,273.1,0.0,E,,*2E
$GPRMC,161000.4,A,4741.19455,N,12224.25521,W,000.01,000.0,200413,016.6,E,A*2D
$PGRME,3.0,M,4.2,M,5.2,M*2C
$YXXDR,A,3.1,D,PTCH,A,0.5,D,ROLL*5A
$PTAK,FFD1,0.5*50
$HCHDG,273.1,0.0,E,,*2E
$HCHDG,273.0,0.0,E,,*2F
$GPRMC,161000.6,A,4741.19455,N,12224.25521,W,000.02,000.0,200413,016.6,E,A*2C
$GPRMB,A,-31.69,L,,Ttp,4726.8700,N,12137.4300,W,34.7,131,-0.02,V*5F
$PGRME,3.0,M,4.2,M,5.2,M*2C
$HCHDG,272.9,0.0,E,,*27
$HCHDG,272.7,0.0,E,,*29
$GPRMC,161000.8,A,4741.19455,N,12224.25521,W,000.01,000.0,200413,016.6,E,A*21
$PGRME,3.0,M,4.2,M,5.2,M*2C
$HCHDG,272.8,0.0,E,,*26
$YXXDR,A,2.4,D,PTCH,A,0.5,D,ROLL*5E
$HCHDG,272.5,0.0,E,,*2B
$GPRMC,161001.0,A,4741.19455,N,12224.25521,W,000.01,000.0,200413,016.6,E,A*28
$PGRME,3.0,M,4.2,M,5.2,M*2C
$HCHDG,272.5,0.0,E,,*2B
$HCHDG,272.6,0.0,E,,*28
$GPRMC,161001.2,A,4741.19455,N,12224.25521,W,000.02,000.0,200413,016.6,E,A*29
$PGRME,3.0,M,4.2,M,5.2,M*2C
$HCHDG,272.6,0.0,E,,*28
$HCHDG,272.6,0.0,E,,*28
$GPRMC,161001.4,A,4741.19455,N,12224.25521,W,000.01,000.0,200413,016.6,E,A*2C
$PGRME,3.0,M,4.2,M,5.2,M*2C
$YXXDR,A,3.5,D,PTCH,A,0.5,D,ROLL*5E
$HCHDG,272.6,0.0,E,,*28
$HCHDG,272.6,0.0,E,,*28
$GPRMC,161001.6,A,4741.19454,N,12224.25521,W,000.01,000.0,200413,016.6,E,A*2F
$PGRME,3.0,M,4.2,M,5.2,M*2C
$HCHDG,272.5,0.0,E,,*2B
$HCHDG,272.6,0.0,E,,*28
