$YXXDR,A,3.5,D,PTCH,A,-15.5,D,ROLL*47
$GPRMC,210001.0,A,4740.96917,N,12226.06712,W,012.61,023.8,130413,016.6,E*40
$GPRMC,210001.2,A,4740.96975,N,12226.06677,W,013.01,022.8,130413,016.6,E*42
$HCHDG,9.1,0.0,E,,*21
$PTAK,FFP1,HEEL,@*07
$YXXDR,A,4.1,D,PTCH,A,-14.6,D,ROLL*46
$GPRMC,210001.4,A,4740.97039,N,12226.06639,W,012.96,023.8,130413,016.6,E*40
$IIGLL,4740.969,N,12226.067,W,210000,A,A*44
$IIMTW,+08.5,C*35
$IIRMC,210000,A,4740.969,N,12226.067,W,12.6,023,130413,16,E,A*1F
$GPRMC,210001.6,A,4740.97099,N,12226.06595,W,013.00,023.6,130413,016.6,E*4D
$IIVHW,,,,,00.0,N,,*19
$IIVLW,06210,N,000.0,N*56
$HCHDG,6.8,0.0,E,,*27
$GPRMC,210001.8,A,4740.97158,N,12226.06561,W,013.00,023.7,130413,016.6,E*45
$YXXDR,A,5.2,D,PTCH,A,-16.8,D,ROLL*48
$GPRMC,210002.0,A,4740.97220,N,12226.06534,W,012.76,022.1,130413,016.6,E*45
$GPRMC,210002.2,A,4740.97291,N,12226.06494,W,013.30,021.0,130413,016.6,E*47
$HCHDG,7.9,0.0,E,,*27
$YXXDR,A,5.6,D,PTCH,A,-13.7,D,ROLL*46
$GPRMC,210002.4,A,4740.97371,N,12226.06452,W,015.11,020.7,130413,016.6,E*47
$IIGLL,4740.972,N,12226.065,W,210000,A,A*4C
$IIMTW,+08.5,C*35
$IIRMC,210000,A,4740.972,N,12226.065,W,12.7,022,130413,16,E,A*17
$GPRMC,210002.6,A,4740.97444,N,12226.06413,W,014.05,022.5,130413,016.6,E*45
$IIVHW,,,,,00.0,N,,*19
$IIVLW,06210,N,000.0,N*56
$HCHDG,8.1,0.0,E,,*20
$GPRMC,210002.8,A,4740.97514,N,12226.06363,W,013.50,024.3,130413,016.6,E*48
$YXXDR,A,4.3,D,PTCH,A,-16.3,D,ROLL*43
$GPRMC,210003.0,A,4740.97577,N,12226.06308,W,012.45,027.4,130413,016.6,E*48
$GPRMC,210003.2,A,4740.97645,N,12226.06266,W,012.77,026.5,130413,016.6,E*40
$HCHDG,3.4,0.0,E,,*2E
$YXXDR,A,2.6,D,PTCH,A,-21.3,D,ROLL*44
$GPRMC,210003.4,A,4740.97717,N,12226.06231,W,013.17,025.0,130413,016.6,E*43
$IIGLL,4740.972,N,12226.065,W,210000,A,A*4C
$IIMTW,+08.5,C*35
$GPRMC,210003.6,A,4740.97787,N,12226.06179,W,013.42,025.7,130413,016.6,E*40
$IIRMC,210000,A,4740.972,N,12226.065,W,12.7,022,130413,16,E,A*17
$IIVHW,,,,,00.0,N,,*19
$IIVLW,06210,N,000.0,N*56
$HCHDG,3.7,0.0,E,,*2D
$GPRMC,210003.8,A,4740.97855,N,12226.06128,W,013.46,026.8,130413,016.6,E*42
$YXXDR,A,0.6,D,PTCH,A,-18.3,D,ROLL*4C
$GPRMC,210004.0,A,4740.97923,N,12226.06080,W,013.47,027.0,130413,016.6,E*46
$GPRMC,210004.2,A,4740.97991,N,12226.06032,W,013.46,026.1,130413,016.6,E*45
$HCHDG,3.4,0.0,E,,*2E
$YXXDR,A,1.0,D,PTCH,A,-15.7,D,ROLL*42
$GPRMC,210004.4,A,4740.98052,N,12226.05991,W,013.12,025.2,130413,016.6,E*48
$IIGLL,4740.976,N,12226.062,W,210000,A,A*4F
$IIMTW,+08.5,C*35
$GPRMC,210004.6,A,4740.98114,N,12226.05936,W,013.10,024.7,130413,016.6,E*42
$IIRMC,210000,A,4740.976,N,12226.062,W,12.7,026,130413,16,E,A*10
$IIVHW,,,,,00.0,N,,*19
$IIVLW,06210,N,000.0,N*56
$HCHDG,8.0,0.0,E,,*21
$GPRMC,210004.8,A,4740.98182,N,12226.05890,W,013.02,024.7,130413,016.6,E*4D
$YXXDR,A,4.0,D,PTCH,A,-8.4,D,ROLL*78
$GPRMC,210005.0,A,4740.98248,N,12226.05844,W,013.00,024.8,130413,016.6,E*45
$GPRMC,210005.2,A,4740.98304,N,12226.05807,W,013.24,022.2,130413,016.6,E*43
$HCHDG,7.6,0.0,E,,*28
$YXXDR,A,5.4,D,PTCH,A,-8.9,D,ROLL*70
$GPRMC,210005.4,A,4740.98379,N,12226.05767,W,014.23,020.7,130413,016.6,E*41
$IIGLL,4740.979,N,12226.060,W,210000,A,A*42
$IIMTW,+08.5,C*35
$GPRMC,210005.6,A,4740.98453,N,12226.05725,W,014.60,020.3,130413,016.6,E*49
$IIRMC,210000,A,4740.979,N,12226.060,W,13.4,026,130413,16,E,A*1F
$IIVHW,,,,,00.0,N,,*19
$IIVLW,06210,N,000.0,N*56
$HCHDG,6.9,0.0,E,,*26
$PTAK,FFP1,HEEL,@*07
$GPRMC,210005.8,A,4740.98527,N,12226.05678,W,014.86,021.0,130413,016.6,E*46
$YXXDR,A,5.9,D,PTCH,A,-7.8,D,ROLL*73
$GPRMC,210006.0,A,4740.98603,N,12226.05632,W,014.87,021.3,130413,016.6,E*44
$GPRMC,210006.2,A,4740.98678,N,12226.05587,W,014.80,021.7,130413,016.6,E*44
$HCHDG,6.4,0.0,E,,*2B
$YXXDR,A,5.7,D,PTCH,A,-6.7,D,ROLL*73
$GPRMC,210006.4,A,4740.98753,N,12226.05542,W,014.78,021.8,130413,016.6,E*4B
$IIGLL,4740.983,N,12226.058,W,210000,A,A*4C
$IIMTW,+08.5,C*35
$GPRMC,210006.6,A,4740.98828,N,12226.05482,W,014.78,022.2,130413,016.6,E*4E
$IIRMC,210000,A,4740.983,N,12226.058,W,13.2,022,130413,16,E,A*13
$IIVHW,,,,,00.0,N,,*19
$IIVLW,06210,N,000.0,N*56
$HCHDG,5.8,0.0,E,,*24
$GPRMC,210006.8,A,4740.98898,N,12226.05436,W,014.75,021.8,130413,016.6,E*40
$YXXDR,A,5.3,D,PTCH,A,-8.0,D,ROLL*7E
$GPRMC,210007.0,A,4740.98976,N,12226.05394,W,014.72,021.7,130413,016.6,E*4F
$GPRMC,210007.2,A,4740.99046,N,12226.05350,W,014.74,022.1,130413,016.6,E*4D
$HCHDG,2.7,0.0,E,,*2C
$YXXDR,A,5.2,D,PTCH,A,-10.3,D,ROLL*45
$GPRMC,210007.4,A,4740.99121,N,12226.05305,W,014.95,022.2,130413,016.6,E*47
$IIGLL,4740.986,N,12226.055,W,210000,A,A*44
$IIMTW,+08.5,C*35
$GPRMC,210007.6,A,4740.99196,N,12226.05261,W,014.94,022.4,130413,016.6,E*4D
$IIRMC,210000,A,4740.986,N,12226.055,W,14.8,021,130413,16,E,A*15
$IIVHW,,,,,00.0,N,,*19
$IIVLW,06210,N,000.0,N*56
$HCHDG,4.3,0.0,E,,*2E
$GPRMC,210007.8,A,4740.99271,N,12226.05218,W,014.90,022.3,130413,016.6,E*44
$YXXDR,A,5.1,D,PTCH,A,-5.0,D,ROLL*71
$GPRMC,210008.0,A,4740.99344,N,12226.05174,W,014.83,022.5,130413,016.6,E*49
$GPRMC,210008.2,A,4740.99418,N,12226.05132,W,014.89,022.2,130413,016.6,E*4A
$HCHDG,6.7,0.0,E,,*28
$YXXDR,A,3.2,D,PTCH,A,-4.9,D,ROLL*7C
$GPRMC,210008.4,A,4740.99489,N,12226.05090,W,014.70,022.6,130413,016.6,E*4F
$IIGLL,4740.990,N,12226.053,W,210000,A,A*45
$IIMTW,+08.5,C*35
$GPRMC,210008.6,A,4740.99557,N,12226.05055,W,014.65,022.6,130413,016.6,E*42
$IIRMC,210000,A,4740.990,N,12226.053,W,14.7,022,130413,16,E,A*18
$IIVHW,,,,,00.0,N,,*19
$IIVLW,06210,N,000.0,N*56
$HCHDG,7.0,0.0,E,,*2E
$GPRMC,210008.8,A,4740.99637,N,12226.04997,W,014.59,022.5,130413,016.6,E*43
$YXXDR,A,3.0,D,PTCH,A,-7.2,D,ROLL*76
$GPRMC,210009.0,A,4740.99712,N,12226.04951,W,014.54,022.1,130413,016.6,E*4F
$GPRMC,210009.2,A,4740.99780,N,12226.04896,W,014.50,023.5,130413,016.6,E*4D
$HCHDG,4.3,0.0,E,,*2E
$YXXDR,A,4.3,D,PTCH,A,-11.4,D,ROLL*43
$GPRMC,210009.4,A,4740.99844,N,12226.04828,W,014.70,023.4,130413,016.6,E*4A
$IIGLL,4740.994,N,12226.051,W,210000,A,A*43
$IIMTW,+08.5,C*35
$GPRMC,210009.6,A,4740.99915,N,12226.04775,W,014.91,023.2,130413,016.6,E*43
$PTAK,FFP1,HEEL,@*07
$IIRMC,210000,A,4740.994,N,12226.051,W,14.8,022,130413,16,E,A*11
$IIVHW,,,,,00.0,N,,*19
$IIVLW,06210,N,000.0,N*56
$HCHDG,3.7,0.0,E,,*2D
$GPRMC,210009.8,A,4740.99992,N,12226.04726,W,014.92,023.7,130413,016.6,E*42
$YXXDR,A,5.1,D,PTCH,A,-11.7,D,ROLL*43
$GPRMC,210010.0,A,4741.00055,N,12226.04662,W,014.48,023.2,130413,016.6,E*42
$GPRMC,210010.2,A,4741.00130,N,12226.04617,W,014.44,023.9,130413,016.6,E*47
$HCHDG,6.6,0.0,E,,*29
$YXXDR,A,5.1,D,PTCH,A,-10.7,D,ROLL*42
$GPRMC,210010.4,A,4741.00203,N,12226.04575,W,014.00,024.2,130413,016.6,E*49
$IIGLL,4740.997,N,12226.048,W,210000,A,A*48
$IIMTW,+08.5,C*35
$GPRMC,210010.6,A,4741.00285,N,12226.04545,W,014.02,026.4,130413,016.6,E*40
$IIRMC,210000,A,4740.997,N,12226.048,W,14.5,023,130413,16,E,A*16
$IIVHW,,,,,00.0,N,,*19
$IIVLW,06210,N,000.0,N*56
$HCHDG,5.2,0.0,E,,*2E
$GPRMC,210010.8,A,4741.00363,N,12226.04500,W,014.01,026.7,130413,016.6,E*46
$YXXDR,A,4.0,D,PTCH,A,-15.6,D,ROLL*46
$GPRMC,210011.0,A,4741.00434,N,12226.04453,W,014.04,026.7,130413,016.6,E*48
$GPRMC,210011.2,A,4741.00498,N,12226.04406,W,014.01,027.0,130413,016.6,E*4F
$HCHDG,1.9,0.0,E,,*21
$YXXDR,A,4.2,D,PTCH,A,-17.2,D,ROLL*42
$GPRMC,210011.4,A,4741.00571,N,12226.04360,W,013.81,026.4,130413,016.6,E*42
$IIGLL,4741.001,N,12226.046,W,210000,A,A*41
$IIMTW,+08.5,C*35
$GPRMC,210011.6,A,4741.00642,N,12226.04314,W,013.44,025.6,130413,016.6,E*48
$IIRMC,210000,A,4741.001,N,12226.046,W,14.4,023,130413,16,E,A*1E
$IIVHW,,,,,00.0,N,,*19
$IIVLW,06210,N,000.0,N*56
$HCHDG,3.7,0.0,E,,*2D
$GPRMC,210011.8,A,4741.00703,N,12226.04266,W,013.00,024.2,130413,016.6,E*43
$YXXDR,A,4.8,D,PTCH,A,-12.5,D,ROLL*4A
$GPRMC,210012.0,A,4741.00771,N,12226.04230,W,012.80,023.6,130413,016.6,E*44
$GPRMC,210012.2,A,4741.00838,N,12226.04190,W,012.76,023.3,130413,016.6,E*41
$HCHDG,8.0,0.0,E,,*21
$YXXDR,A,5.3,D,PTCH,A,-8.6,D,ROLL*78
$GPRMC,210012.4,A,4741.00905,N,12226.04155,W,012.74,023.9,130413,016.6,E*49
$IIGLL,4741.004,N,12226.044,W,210000,A,A*46
$IIMTW,+08.5,C*35
$GPRMC,210012.6,A,4741.00973,N,12226.04110,W,012.74,022.1,130413,016.6,E*42
$IIRMC,210000,A,4741.004,N,12226.044,W,14.0,027,130413,16,E,A*19
$IIVHW,,,,,00.0,N,,*19
$IIVLW,06210,N,000.0,N*56
$HCHDG,6.6,0.0,E,,*29
$IIDPT,001.2,-1.0,*43
$GPRMC,210012.8,A,4741.01041,N,12226.04044,W,012.68,022.7,130413,016.6,E*4E
$YXXDR,A,5.8,D,PTCH,A,-8.4,D,ROLL*71
$GPRMC,210013.0,A,4741.01103,N,12226.04002,W,012.64,023.4,130413,016.6,E*4C
$GPRMC,210013.2,A,4741.01166,N,12226.03961,W,012.60,021.9,130413,016.6,E*4D
$HCHDG,5.8,0.0,E,,*24
$YXXDR,A,6.3,D,PTCH,A,-5.9,D,ROLL*79
$GPRMC,210013.4,A,4741.01220,N,12226.03917,W,012.55,021.9,130413,016.6,E*4D
$IIGLL,4741.008,N,12226.041,W,210000,A,A*4F
$IIMTW,+08.5,C*35
$GPRMC,210013.6,A,4741.01282,N,12226.03873,W,012.88,020.5,130413,016.6,E*49
$IIRMC,210000,A,4741.008,N,12226.041,W,12.7,023,130413,16,E,A*15
$IIVHW,,,,,00.0,N,,*19
$IIVLW,06210,N,000.0,N*56
$HCHDG,5.8,0.0,E,,*24
$IIDPT,001.2,-1.0,*43
$GPRMC,210013.8,A,4741.01348,N,12226.03848,W,012.91,018.6,130413,016.6,E*48
$YXXDR,A,6.5,D,PTCH,A,-1.8,D,ROLL*7A
$GPRMC,210014.0,A,4741.01421,N,12226.03824,W,012.98,017.2,130413,016.6,E*47
$GPRMC,210014.2,A,4741.01491,N,12226.03797,W,013.25,017.1,130413,016.6,E*4D
$HCHDG,8.4,0.0,E,,*25
$YXXDR,A,6.3,D,PTCH,A,1.7,D,ROLL*5E
$GPRMC,210014.4,A,4741.01561,N,12226.03766,W,013.25,017.7,130413,016.6,E*4D
$IIGLL,4741.012,N,12226.039,W,210000,A,A*4B
$IIMTW,+08.5,C*35
$GPRMC,210014.6,A,4741.01627,N,12226.03714,W,013.60,017.6,130413,016.6,E*4B
$IIRMC,210000,A,4741.012,N,12226.039,W,12.5,021,130413,16,E,A*11
$IIVHW,,,,,00.0,N,,*19
$IIVLW,06210,N,000.0,N*56
$HCHDG,7.0,0.0,E,,*2E
$PTAK,FFP1,HEEL,@*07
$IIDPT,001.2,-1.0,*43
$GPRMC,210014.8,A,4741.01692,N,12226.03674,W,013.40,017.1,130413,016.6,E*49
$YXXDR,A,5.6,D,PTCH,A,-1.3,D,ROLL*71
$GPRMC,210015.0,A,4741.01764,N,12226.03638,W,013.37,017.6,130413,016.6,E*47
$GPRMC,210015.2,A,4741.01838,N,12226.03613,W,013.11,018.4,130413,016.6,E*43
$HCHDG,4.7,0.0,E,,*2A
$YXXDR,A,5.8,D,PTCH,A,-4.9,D,ROLL*70
$GPRMC,210015.4,A,4741.01908,N,12226.03592,W,013.38,018.7,130413,016.6,E*45
$IIGLL,4741.015,N,12226.037,W,210000,A,A*42
$IIMTW,+08.5,C*35
$GPRMC,210015.6,A,4741.01982,N,12226.03558,W,013.19,019.9,130413,016.6,E*4F
$IIRMC,210000,A,4741.015,N,12226.037,W,13.2,017,130413,16,E,A*1B
$IIVHW,,,,,00.0,N,,*19
$IIVLW,06210,N,000.0,N*56
$IIDPT,001.2,-1.0,*43
$HCHDG,2.8,0.0,E,,*23
$GPRMC,210015.8,A,4741.02050,N,12226.03526,W,013.23,019.9,130413,016.6,E*44
$YXXDR,A,5.8,D,PTCH,A,-7.0,D,ROLL*7A
$GPRMC,210016.0,A,4741.02122,N,12226.03488,W,013.24,021.5,130413,016.6,E*4E
$GPRMC,210016.2,A,4741.02203,N,12226.03454,W,013.21,022.0,130413,016.6,E*4E
$HCHDG,2.1,0.0,E,,*2A
$YXXDR,A,5.5,D,PTCH,A,-8.7,D,ROLL*7F
$GPRMC,210016.4,A,4741.02284,N,12226.03424,W,012.91,021.8,130413,016.6,E*41
$IIGLL,4741.019,N,12226.035,W,210000,A,A*4C
$IIMTW,+08.5,C*35
$GPRMC,210016.6,A,4741.02346,N,12226.03383,W,012.71,022.6,130413,016.6,E*45
$IIRMC,210000,A,4741.019,N,12226.035,W,13.3,018,130413,16,E,A*1B
$IIVHW,,,,,00.0,N,,*19
$IIVLW,06210,N,000.0,N*56
$IIDPT,001.2,-1.0,*43
$HCHDG,0.8,0.0,E,,*21
$GPRMC,210016.8,A,4741.02409,N,12226.03342,W,012.70,021.8,130413,016.6,E*46
$YXXDR,A,5.5,D,PTCH,A,-9.8,D,ROLL*71
$GPRMC,210017.0,A,4741.02477,N,12226.03306,W,012.68,021.1,130413,016.6,E*46
$GPRMC,210017.2,A,4741.02549,N,12226.03272,W,012.63,020.0,130413,016.6,E*41
$HCHDG,3.8,0.0,E,,*22
$YXXDR,A,5.5,D,PTCH,A,-6.0,D,ROLL*76
$GPRMC,210017.4,A,4741.02619,N,12226.03242,W,012.58,020.0,130413,016.6,E*4A
$IIGLL,4741.022,N,12226.034,W,210000,A,A*45
$IIMTW,+08.5,C*35
$GPRMC,210017.6,A,4741.02679,N,12226.03216,W,012.55,019.1,130413,016.6,E*49
$IIRMC,210000,A,4741.022,N,12226.034,W,12.9,021,130413,16,E,A*13
$IIVHW,,,,,00.0,N,,*19
$IIVLW,06210,N,000.0,N*56
$IIDPT,001.2,-1.0,*43
$HCHDG,4.8,0.0,E,,*25
$GPRMC,210017.8,A,4741.02746,N,12226.03185,W,012.75,018.7,130413,016.6,E*46
$YXXDR,A,5.5,D,PTCH,A,-5.8,D,ROLL*7D
$GPRMC,210018.0,A,4741.02816,N,12226.03146,W,012.72,018.8,130413,016.6,E*4C
$GPRMC,210018.2,A,4741.02886,N,12226.03112,W,012.70,018.9,130413,016.6,E*45
$HCHDG,4.8,0.0,E,,*25
$YXXDR,A,6.1,D,PTCH,A,-5.4,D,ROLL*76
$GPRMC,210018.4,A,4741.02951,N,12226.03076,W,012.65,018.8,130413,016.6,E*4E
$IIGLL,4741.026,N,12226.032,W,210000,A,A*47
$IIMTW,+08.5,C*35
$GPRMC,210018.6,A,4741.03027,N,12226.03041,W,012.38,019.2,130413,016.6,E*42
$IIRMC,210000,A,4741.026,N,12226.032,W,12.5,020,130413,16,E,A*1C
$IIVHW,,,,,00.0,N,,*19
$IIVLW,06210,N,000.0,N*56
$IIDPT,001.2,-1.0,*43
$HCHDG,4.6,0.0,E,,*2B
$GPRMC,210018.8,A,4741.03098,N,12226.03001,W,012.72,018.9,130413,016.6,E*48
$YXXDR,A,6.1,D,PTCH,A,-4.4,D,ROLL*77
$GPRMC,210019.0,A,4741.03167,N,12226.02966,W,012.73,018.4,130413,016.6,E*45
$PTAK,FFP1,HEEL,@*07
$GPRMC,210019.2,A,4741.03235,N,12226.02938,W,012.71,018.7,130413,016.6,E*49
$HCHDG,5.5,0.0,E,,*29
$YXXDR,A,5.8,D,PTCH,A,-5.0,D,ROLL*78
$GPRMC,210019.4,A,4741.03304,N,12226.02910,W,012.70,019.3,130413,016.6,E*42
$IIGLL,4741.029,N,12226.030,W,210000,A,A*4A
$IIMTW,+08.5,C*35
$GPRMC,210019.6,A,4741.03381,N,12226.02885,W,012.74,020.8,130413,016.6,E*45
$IIRMC,210000,A,4741.029,N,12226.030,W,12.6,018,130413,16,E,A*19
$IIVHW,,,,,00.0,N,,*19
$IIVLW,06210,N,000.0,N*56
$IIDPT,001.2,-1.0,*43
$HCHDG,5.0,0.0,E,,*2C
$GPRMC,210019.8,A,4741.03449,N,12226.02853,W,012.78,021.4,130413,016.6,E*42
$YXXDR,A,6.5,D,PTCH,A,-9.3,D,ROLL*79
$GPRMC,210020.0,A,4741.03534,N,12226.02826,W,012.77,022.1,130413,016.6,E*40
$GPRMC,210020.2,A,4741.03603,N,12226.02784,W,012.60,023.0,130413,016.6,E*44
$HCHDG,1.0,0.0,E,,*28
$YXXDR,A,5.8,D,PTCH,A,-12.0,D,ROLL*4E
$GPRMC,210020.4,A,4741.03676,N,12226.02749,W,012.59,023.0,130413,016.6,E*4B
$IIGLL,4741.033,N,12226.029,W,210000,A,A*49
$IIMTW,+08.5,C*35
$GPRMC,210020.6,A,4741.03748,N,12226.02714,W,012.60,024.3,130413,016.6,E*43
$IIRMC,210000,A,4741.033,N,12226.029,W,12.7,019,130413,16,E,A*1A
$IIVHW,,,,,00.0,N,,*19
$IIVLW,06210,N,000.0,N*56
$HCHDG,1.0,0.0,E,,*28
$GPRMC,210020.8,A,4741.03826,N,12226.02682,W,012.89,023.4,130413,016.6,E*43
$YXXDR,A,6.2,D,PTCH,A,-9.4,D,ROLL*79
$GPRMC,210021.0,A,4741.03891,N,12226.02644,W,012.82,023.6,130413,016.6,E*45
$GPRMC,210021.2,A,4741.03955,N,12226.02608,W,012.75,023.6,130413,016.6,E*4E
$HCHDG,1.7,0.0,E,,*2F
$YXXDR,A,6.3,D,PTCH,A,-8.9,D,ROLL*74
$GPRMC,210021.4,A,4741.04018,N,12226.02562,W,012.75,022.9,130413,016.6,E*4E
$IIGLL,4741.033,N,12226.029,W,210000,A,A*49
$IIMTW,+08.5,C*35
$GPRMC,210021.6,A,4741.04083,N,12226.02519,W,012.75,022.8,130413,016.6,E*43
$IIRMC,210000,A,4741.033,N,12226.029,W,12.7,019,130413,16,E,A*1A
$IIVHW,,,,,00.0,N,,*19
$IIVLW,06210,N,000.0,N*56
$HCHDG,3.7,0.0,E,,*2D
$GPRMC,210021.8,A,4741.04153,N,12226.02479,W,012.92,022.5,130413,016.6,E*42
$YXXDR,A,5.8,D,PTCH,A,-7.4,D,ROLL*7E
$GPRMC,210022.0,A,4741.04215,N,12226.02442,W,012.89,022.6,130413,016.6,E*49
$GPRMC,210022.2,A,4741.04281,N,12226.02396,W,012.86,023.1,130413,016.6,E*41
$HCHDG,4.2,0.0,E,,*2F
$YXXDR,A,5.4,D,PTCH,A,-8.6,D,ROLL*7F
$GPRMC,210022.4,A,4741.04349,N,12226.02345,W,012.83,024.0,130413,016.6,E*4F
$IIGLL,4741.040,N,12226.025,W,210000,A,A*41
$IIMTW,+08.5,C*35
$GPRMC,210022.6,A,4741.04422,N,12226.02296,W,013.51,023.6,130413,016.6,E*47
$IIRMC,210000,A,4741.040,N,12226.025,W,12.7,022,130413,16,E,A*1A
$IIVHW,,,,,00.0,N,,*19
$IIVLW,06210,N,000.0,N*56
$HCHDG,4.2,0.0,E,,*2F
$GPRMC,210022.8,A,4741.04488,N,12226.02236,W,013.47,024.1,130413,016.6,E*44
$YXXDR,A,5.1,D,PTCH,A,-10.4,D,ROLL*41
$GPRMC,210023.0,A,4741.04556,N,12226.02185,W,013.48,024.7,130413,016.6,E*4D
$PTAK,FFP1,HEEL,@*07
$GPRMC,210023.2,A,4741.04616,N,12226.02126,W,013.67,025.3,130413,016.6,E*49
$HCHDG,2.9,0.0,E,,*22
$YXXDR,A,4.5,D,PTCH,A,-10.9,D,ROLL*49
$GPRMC,210023.4,A,4741.04681,N,12226.02085,W,013.90,024.6,130413,016.6,E*45
$IIGLL,4741.044,N,12226.022,W,210000,A,A*42
$IIMTW,+08.5,C*35
$GPRMC,210023.6,A,4741.04747,N,12226.02043,W,013.74,024.1,130413,016.6,E*4B
$IIRMC,210000,A,4741.044,N,12226.022,W,13.5,023,130413,16,E,A*1B
$IIVHW,,,,,00.0,N,,*19
$IIVLW,06210,N,000.0,N*56
$HCHDG,3.1,0.0,E,,*2B
$GPRMC,210023.8,A,4741.04814,N,12226.01996,W,013.90,023.5,130413,016.6,E*47
$YXXDR,A,4.3,D,PTCH,A,-8.4,D,ROLL*7B
$GPRMC,210024.0,A,4741.04884,N,12226.01949,W,013.95,023.7,130413,016.6,E*44
$GPRMC,210024.2,A,4741.04955,N,12226.01898,W,014.25,022.4,130413,016.6,E*48
$HCHDG,4.9,0.0,E,,*24
$YXXDR,A,3.5,D,PTCH,A,-5.5,D,ROLL*76
$GPRMC,210024.4,A,4741.05030,N,12226.01854,W,014.26,021.7,130413,016.6,E*46
$IIGLL,4741.047,N,12226.020,W,210000,A,A*43
$IIMTW,+08.5,C*35
$GPRMC,210024.6,A,4741.05112,N,12226.01819,W,014.19,021.8,130413,016.6,E*4F
$IIRMC,210000,A,4741.047,N,12226.020,W,13.7,024,130413,16,E,A*1F
$IIVHW,,,,,00.0,N,,*19
$IIVLW,06210,N,000.0,N*56
$HCHDG,7.2,0.0,E,,*2C
$GPRMC,210024.8,A,4741.05184,N,12226.01777,W,014.14,021.5,130413,016.6,E*49
$YXXDR,A,1.7,D,PTCH,A,-2.9,D,ROLL*7D
$GPRMC,210025.0,A,4741.05256,N,12226.01735,W,013.94,021.3,130413,016.6,E*43
$GPRMC,210025.2,A,4741.05335,N,12226.01680,W,013.89,019.6,130413,016.6,E*48
$HCHDG,6.7,0.0,E,,*28
$YXXDR,A,2.9,D,PTCH,A,-3.9,D,ROLL*71
$GPRMC,210025.4,A,4741.05411,N,12226.01641,W,013.82,018.5,130413,016.6,E*4B
$IIGLL,4741.051,N,12226.018,W,210000,A,A*4F
$IIMTW,+08.5,C*35
$GPRMC,210025.6,A,4741.05487,N,12226.01601,W,013.77,018.7,130413,016.6,E*4A
$IIRMC,210000,A,4741.051,N,12226.018,W,14.1,021,130413,16,E,A*17
$IIVHW,,,,,00.0,N,,*19
$IIVLW,06210,N,000.0,N*56
$HCHDG,8.1,0.0,E,,*20
$GPRMC,210025.8,A,4741.05563,N,12226.01563,W,013.31,019.3,130413,016.6,E*4F
$YXXDR,A,5.2,D,PTCH,A,-2.2,D,ROLL*77
$GPRMC,210026.0,A,4741.05636,N,12226.01534,W,012.92,020.3,130413,016.6,E*47
$GPRMC,210026.2,A,4741.05704,N,12226.01501,W,012.59,020.8,130413,016.6,E*4F
$HCHDG,7.6,0.0,E,,*28
$YXXDR,A,5.7,D,PTCH,A,-5.3,D,ROLL*74
$GPRMC,210026.4,A,4741.05765,N,12226.01464,W,012.38,021.3,130413,016.6,E*41
$IIGLL,4741.054,N,12226.016,W,210000,A,A*44
$IIMTW,+08.5,C*35
$GPRMC,210026.6,A,4741.05825,N,12226.01427,W,011.79,024.7,130413,016.6,E*48
$IIRMC,210000,A,4741.054,N,12226.016,W,13.7,018,130413,16,E,A*17
$IIVHW,,,,,00.0,N,,*19
$IIVLW,06210,N,000.0,N*56
$IIDPT,001.5,-1.0,*44
$HCHDG,4.5,0.0,E,,*28
$GPRMC,210026.8,A,4741.05886,N,12226.01388,W,011.72,024.7,130413,016.6,E*46
$YXXDR,A,4.9,D,PTCH,A,-8.4,D,ROLL*71
$GPRMC,210027.0,A,4741.05946,N,12226.01354,W,011.32,022.8,130413,016.6,E*4E
$PTAK,FFP1,HEEL,@*07
$GPRMC,210027.2,A,4741.06010,N,12226.01323,W,011.30,022.6,130413,016.6,E*49
$HCHDG,5.1,0.0,E,,*2D
$YXXDR,A,4.2,D,PTCH,A,-8.1,D,ROLL*7F
$GPRMC,210027.4,A,4741.06076,N,12226.01290,W,011.36,022.7,130413,016.6,E*41
$IIGLL,4741.054,N,12226.016,W,210000,A,A*44
$IIMTW,+08.5,C*35
$GPRMC,210027.6,A,4741.06137,N,12226.01262,W,011.10,022.3,130413,016.6,E*4A
$IIRMC,210000,A,4741.054,N,12226.016,W,13.7,018,130413,16,E,A*17
$IIVHW,,,,,00.0,N,,*19
$IIVLW,06210,N,000.0,N*56
$IIDPT,001.5,-1.0,*44
$HCHDG,6.4,0.0,E,,*2B
$GPRMC,210027.8,A,4741.06192,N,12226.01228,W,010.90,023.6,130413,016.6,E*48
$YXXDR,A,4.7,D,PTCH,A,-8.4,D,ROLL*7F
$GPRMC,210028.0,A,4741.06248,N,12226.01189,W,010.50,024.2,130413,016.6,E*4C
$GPRMC,210028.2,A,4741.06309,N,12226.01157,W,010.50,024.0,130413,016.6,E*4B
$HCHDG,5.7,0.0,E,,*2B
$YXXDR,A,5.4,D,PTCH,A,-10.8,D,ROLL*48
$GPRMC,210028.4,A,4741.06376,N,12226.01133,W,010.56,024.8,130413,016.6,E*49
$IIGLL,4741.061,N,12226.012,W,210000,A,A*46
$IIMTW,+08.5,C*35
$GPRMC,210028.6,A,4741.06429,N,12226.01094,W,010.50,023.7,130413,016.6,E*44
$IIRMC,210000,A,4741.061,N,12226.012,W,11.1,022,130413,16,E,A*18
$IIVHW,,,,,00.0,N,,*19
$IIVLW,06210,N,000.0,N*56
$IIDPT,001.4,-1.0,*45
$HCHDG,6.0,0.0,E,,*2F
$GPRMC,210028.8,A,4741.06486,N,12226.01054,W,010.18,025.0,130413,016.6,E*4E
$YXXDR,A,5.8,D,PTCH,A,-11.4,D,ROLL*49
$GPRMC,210029.0,A,4741.06538,N,12226.01017,W,010.12,023.8,130413,016.6,E*40
$GPRMC,210029.2,A,4741.06584,N,12226.00978,W,009.94,026.1,130413,016.6,E*4E
$HCHDG,3.8,0.0,E,,*22
$YXXDR,A,6.2,D,PTCH,A,-13.1,D,ROLL*47
$GPRMC,210029.4,A,4741.06633,N,12226.00936,W,010.49,027.7,130413,016.6,E*42
$IIGLL,4741.064,N,12226.010,W,210000,A,A*41
$IIMTW,+08.5,C*35
$GPRMC,210029.6,A,4741.06683,N,12226.00892,W,010.67,028.7,130413,016.6,E*47
$IIRMC,210000,A,4741.064,N,12226.010,W,10.5,023,130413,16,E,A*1B
$IIVHW,,,,,00.0,N,,*19
$IIVLW,06210,N,000.0,N*56
$IIDPT,001.4,-1.0,*45
$HCHDG,5.1,0.0,E,,*2D
$GPRMC,210029.8,A,4741.06736,N,12226.00853,W,010.65,027.1,130413,016.6,E*40
$YXXDR,A,6.5,D,PTCH,A,-10.1,D,ROLL*43
$GPRMC,210030.0,A,4741.06789,N,12226.00814,W,010.59,027.3,130413,016.6,E*4A
$GPRMC,210030.2,A,4741.06833,N,12226.00768,W,010.12,029.6,130413,016.6,E*46
$HCHDG,5.2,0.0,E,,*2E
$YXXDR,A,7.0,D,PTCH,A,-8.7,D,ROLL*78
$GPRMC,210030.4,A,4741.06881,N,12226.00720,W,010.35,028.1,130413,016.6,E*46
$IIGLL,4741.066,N,12226.008,W,210000,A,A*4A
$IIMTW,+08.5,C*35
$GPRMC,210030.6,A,4741.06940,N,12226.00677,W,010.91,027.5,130413,016.6,E*4E
$IIRMC,210000,A,4741.066,N,12226.008,W,10.6,028,130413,16,E,A*18
$IIVHW,,,,,00.0,N,,*19
$IIVLW,06210,N,000.0,N*56
$IIDPT,001.4,-1.0,*45
$HCHDG,6.1,0.0,E,,*2E
$GPRMC,210030.8,A,4741.06996,N,12226.00641,W,011.41,026.2,130413,016.6,E*44
$YXXDR,A,7.6,D,PTCH,A,-6.1,D,ROLL*76
$GPRMC,210031.0,A,4741.07055,N,12226.00602,W,011.71,025.2,130413,016.6,E*4D
$GPRMC,210031.2,A,4741.07122,N,12226.00563,W,012.08,025.3,130413,016.6,E*46
$HCHDG,5.1,0.0,E,,*2D
$PTAK,FFP1,HEEL,@*07
$YXXDR,A,6.7,D,PTCH,A,-6.4,D,ROLL*73
$GPRMC,210031.4,A,4741.07188,N,12226.00523,W,012.32,024.9,130413,016.6,E*46
$IIGLL,4741.069,N,12226.006,W,210000,A,A*4B
$IIMTW,+08.5,C*35
$GPRMC,210031.6,A,4741.07256,N,12226.00480,W,013.06,023.5,130413,016.6,E*41
$IIRMC,210000,A,4741.069,N,12226.006,W,10.9,027,130413,16,E,A*19
$IIVHW,,,,,00.0,N,,*19
$IIVLW,06210,N,000.0,N*56
$IIDPT,001.4,-1.0,*45
$HCHDG,5.5,0.0,E,,*29
$GPRMC,210031.8,A,4741.07323,N,12226.00446,W,013.24,023.2,130413,016.6,E*41
$YXXDR,A,6.2,D,PTCH,A,-4.6,D,ROLL*76
$GPRMC,210032.0,A,4741.07388,N,12226.00415,W,013.31,022.0,130413,016.6,E*4A
$GPRMC,210032.2,A,4741.07448,N,12226.00375,W,013.27,023.0,130413,016.6,E*44
$HCHDG,6.7,0.0,E,,*28
$YXXDR,A,5.6,D,PTCH,A,-3.0,D,ROLL*70
$GPRMC,210032.4,A,4741.07517,N,12226.00341,W,013.55,020.6,130413,016.6,E*4E
$IIGLL,4741.072,N,12226.004,W,210000,A,A*43
$IIMTW,+08.5,C*35
$GPRMC,210032.6,A,4741.07588,N,12226.00308,W,014.01,019.2,130413,016.6,E*4F
$IIRMC,210000,A,4741.072,N,12226.004,W,13.0,023,130413,16,E,A*1F
$IIVHW,,,,,00.0,N,,*19
$IIVLW,06210,N,000.0,N*56
$IIDPT,001.4,-1.0,*45
$HCHDG,6.2,0.0,E,,*2D
$GPRMC,210032.8,A,4741.07659,N,12226.00285,W,014.00,018.0,130413,016.6,E*48
$YXXDR,A,4.1,D,PTCH,A,-4.6,D,ROLL*77
$GPRMC,210033.0,A,4741.07723,N,12226.00258,W,013.95,019.0,130413,016.6,E*47
$GPRMC,210033.2,A,4741.07794,N,12226.00223,W,013.75,018.8,130413,016.6,E*42
$HCHDG,5.6,0.0,E,,*2A
$YXXDR,A,4.3,D,PTCH,A,-4.2,D,ROLL*71
$GPRMC,210033.4,A,4741.07866,N,12226.00186,W,013.73,019.6,130413,016.6,E*43
$IIGLL,4741.075,N,12226.003,W,210000,A,A*43
$IIMTW,+08.5,C*35
$GPRMC,210033.6,A,4741.07932,N,12226.00162,W,013.56,019.2,130413,016.6,E*48
$IIRMC,210000,A,4741.075,N,12226.003,W,14.0,019,130413,16,E,A*11
$IIVHW,,,,,00.0,N,,*19
$IIVLW,06210,N,000.0,N*56
$IIDPT,001.4,-1.0,*45
$HCHDG,4.3,0.0,E,,*2E
$GPRMC,210033.8,A,4741.08004,N,12226.00130,W,013.20,018.1,130413,016.6,E*41
$YXXDR,A,5.8,D,PTCH,A,-4.4,D,ROLL*7D
$GPRMC,210034.0,A,4741.08076,N,12226.00102,W,012.95,017.3,130413,016.6,E*48
$GPRMC,210034.2,A,4741.08147,N,12226.00073,W,012.99,018.5,130413,016.6,E*4B
$HCHDG,4.4,0.0,E,,*29
$YXXDR,A,6.5,D,PTCH,A,-3.2,D,ROLL*72
$GPRMC,210034.4,A,4741.08216,N,12226.00041,W,012.65,017.7,130413,016.6,E*45
$IIGLL,4741.079,N,12226.001,W,210000,A,A*4D
$IIMTW,+08.5,C*35
$GPRMC,210034.6,A,4741.08279,N,12226.00007,W,012.33,017.8,130413,016.6,E*40
$IIRMC,210000,A,4741.079,N,12226.001,W,13.5,019,130413,16,E,A*1D
$IIVHW,,,,,00.0,N,,*19
$IIVLW,06210,N,000.0,N*56
$IIDPT,001.4,-1.0,*45
$HCHDG,5.1,0.0,E,,*2D
$GPRMC,210034.8,A,4741.08344,N,12225.99983,W,012.38,017.5,130413,016.6,E*41
$YXXDR,A,5.5,D,PTCH,A,-2.9,D,ROLL*7B
$GPRMC,210035.0,A,4741.08410,N,12225.99953,W,012.43,017.7,130413,016.6,E*4D
$GPRMC,210035.2,A,4741.08475,N,12225.99924,W,012.40,016.6,130413,016.6,E*4F
$HCHDG,4.5,0.0,E,,*28
$YXXDR,A,4.7,D,PTCH,A,-4.3,D,ROLL*74
$GPRMC,210035.4,A,4741.08539,N,12225.99896,W,011.92,016.4,130413,016.6,E*46
$IIGLL,4741.082,N,12226.000,W,210000,A,A*48
$IIMTW,+08.5,C*35
$GPRMC,210035.6,A,4741.08607,N,12225.99863,W,012.22,017.2,130413,016.6,E*4F
$PTAK,FFP1,HEEL,@*07
$IIRMC,210000,A,4741.082,N,12226.000,W,12.3,017,130413,16,E,A*11
$IIVHW,,,,,00.0,N,,*19
$IIVLW,06210,N,000.0,N*56
$IIDPT,001.4,-1.0,*45
$HCHDG,3.8,0.0,E,,*22
$GPRMC,210035.8,A,4741.08673,N,12225.99841,W,012.28,018.1,130413,016.6,E*44
$YXXDR,A,5.0,D,PTCH,A,-4.9,D,ROLL*78
$GPRMC,210036.0,A,4741.08744,N,12225.99814,W,012.29,016.1,130413,016.6,E*45
$GPRMC,210036.2,A,4741.08813,N,12225.99791,W,012.27,016.6,130413,016.6,E*41
$HCHDG,3.0,0.0,E,,*2A
$YXXDR,A,5.3,D,PTCH,A,-5.7,D,ROLL*74
$GPRMC,210036.4,A,4741.08883,N,12225.99764,W,012.22,017.3,130413,016.6,E*45
$IIGLL,4741.086,N,12225.998,W,210000,A,A*47
$IIMTW,+08.5,C*35
$GPRMC,210036.6,A,4741.08950,N,12225.99738,W,012.15,016.8,130413,016.6,E*4F
$IIRMC,210000,A,4741.086,N,12225.998,W,12.2,017,130413,16,E,A*1F
$IIVHW,,,,,00.0,N,,*19
$IIVLW,06210,N,000.0,N*56
$IIDPT,001.4,-1.0,*45
$HCHDG,1.7,0.0,E,,*2F
$GPRMC,210036.8,A,4741.09018,N,12225.99714,W,012.11,017.4,130413,016.6,E*42
$YXXDR,A,5.4,D,PTCH,A,-6.5,D,ROLL*72
$GPRMC,210037.0,A,4741.09086,N,12225.99691,W,012.06,017.8,130413,016.6,E*4A
$GPRMC,210037.2,A,4741.09154,N,12225.99670,W,011.87,017.8,130413,016.6,E*43
$HCHDG,1.6,0.0,E,,*2E
$YXXDR,A,5.5,D,PTCH,A,-5.9,D,ROLL*7C
$GPRMC,210037.4,A,4741.09221,N,12225.99645,W,011.86,017.1,130413,016.6,E*4A
$IIGLL,4741.089,N,12225.997,W,210000,A,A*47
$IIMTW,+08.5,C*35
$GPRMC,210037.6,A,4741.09290,N,12225.99623,W,011.83,017.2,130413,016.6,E*44
$IIRMC,210000,A,4741.089,N,12225.997,W,12.1,016,130413,16,E,A*1D
$IIVHW,,,,,00.0,N,,*19
$IIVLW,06210,N,000.0,N*56
$IIDPT,001.4,-1.0,*45
$HCHDG,2.3,0.0,E,,*28
$GPRMC,210037.8,A,4741.09354,N,12225.99601,W,011.59,016.6,130413,016.6,E*41
$YXXDR,A,6.0,D,PTCH,A,-4.8,D,ROLL*7A
$GPRMC,210038.0,A,4741.09417,N,12225.99582,W,011.42,016.5,130413,016.6,E*47
$GPRMC,210038.2,A,4741.09475,N,12225.99567,W,011.26,016.5,130413,016.6,E*48
$HCHDG,3.1,0.0,E,,*2B
$YXXDR,A,6.1,D,PTCH,A,-5.2,D,ROLL*70
$GPRMC,210038.4,A,4741.09532,N,12225.99567,W,010.97,017.6,130413,016.6,E*45
$IIGLL,4741.092,N,12225.996,W,210000,A,A*4C
$IIMTW,+08.5,C*35
$GPRMC,210038.6,A,4741.09592,N,12225.99543,W,010.92,018.2,130413,016.6,E*45
$IIRMC,210000,A,4741.092,N,12225.996,W,11.8,017,130413,16,E,A*1D
$IIVHW,,,,,00.0,N,,*19
$IIVLW,06210,N,000.0,N*56
$IIDPT,001.5,-1.0,*44
$HCHDG,2.7,0.0,E,,*2C
$GPRMC,210038.8,A,4741.09659,N,12225.99516,W,010.89,019.3,130413,016.6,E*45
$YXXDR,A,7.3,D,PTCH,A,-6.6,D,ROLL*74
$GPRMC,210039.0,A,4741.09725,N,12225.99501,W,010.92,019.2,130413,016.6,E*4B
$GPRMC,210039.2,A,4741.09784,N,12225.99456,W,010.73,019.2,130413,016.6,E*4E
$HCHDG,2.7,0.0,E,,*2C
$YXXDR,A,7.2,D,PTCH,A,-7.2,D,ROLL*70
$GPRMC,210039.4,A,4741.09835,N,12225.99422,W,010.36,019.4,130413,016.6,E*49
$IIGLL,4741.095,N,12225.995,W,210000,A,A*48
$IIMTW,+08.5,C*35
$GPRMC,210039.6,A,4741.09890,N,12225.99392,W,010.29,019.4,130413,016.6,E*46
$IIRMC,210000,A,4741.095,N,12225.995,W,10.9,018,130413,16,E,A*16
$IIVHW,,,,,00.0,N,,*19
$PTAK,FFP1,HEEL,@*07
$IIVLW,06210,N,000.0,N*56
$IIDPT,001.7,-1.0,*46
$HCHDG,2.9,0.0,E,,*22
$GPRMC,210039.8,A,4741.09943,N,12225.99343,W,009.94,022.0,130413,016.6,E*49
$YXXDR,A,7.2,D,PTCH,A,-8.0,D,ROLL*7D
$GPRMC,210040.0,A,4741.10004,N,12225.99318,W,010.62,023.6,130413,016.6,E*45
$GPRMC,210040.2,A,4741.10063,N,12225.99280,W,010.60,024.2,130413,016.6,E*47
$HCHDG,2.8,0.0,E,,*23
$YXXDR,A,6.8,D,PTCH,A,-9.2,D,ROLL*75
$GPRMC,210040.4,A,4741.10114,N,12225.99252,W,010.44,024.5,130413,016.6,E*4E
$IIGLL,4741.098,N,12225.993,W,210000,A,A*43
$IIMTW,+08.5,C*35
$GPRMC,210040.6,A,4741.10172,N,12225.99203,W,010.48,024.2,130413,016.6,E*43
$IIRMC,210000,A,4741.098,N,12225.993,W,10.2,019,130413,16,E,A*17
$IIVHW,,,,,00.1,N,,*18
$IIVLW,06210,N,000.0,N*56
$IIDPT,001.7,-1.0,*46
$HCHDG,3.1,0.0,E,,*2B
$GPRMC,210040.8,A,4741.10228,N,12225.99173,W,010.54,023.0,130413,016.6,E*4D
$YXXDR,A,6.5,D,PTCH,A,-10.1,D,ROLL*43
$GPRMC,210041.0,A,4741.10286,N,12225.99143,W,010.58,023.1,130413,016.6,E*4E
$GPRMC,210041.2,A,4741.10341,N,12225.99100,W,010.85,023.6,130413,016.6,E*46
$HCHDG,4.0,0.0,E,,*2D
$YXXDR,A,5.8,D,PTCH,A,-11.4,D,ROLL*49
$GPRMC,210041.4,A,4741.10400,N,12225.99057,W,010.82,023.3,130413,016.6,E*43
$IIGLL,4741.101,N,12225.992,W,210000,A,A*43
$IIMTW,+08.5,C*35
$GPRMC,210041.6,A,4741.10454,N,12225.99021,W,010.87,025.0,130413,016.6,E*41
$IIRMC,210000,A,4741.101,N,12225.992,W,10.4,024,130413,16,E,A*1F
$IIVHW,,,,,00.1,N,,*18
$IIVLW,06210,N,000.0,N*56
$IIDPT,001.4,-1.0,*45
$HCHDG,3.9,0.0,E,,*23
$GPRMC,210041.8,A,4741.10508,N,12225.98984,W,010.88,026.4,130413,016.6,E*48
$YXXDR,A,6.0,D,PTCH,A,-12.6,D,ROLL*43
$GPRMC,210042.0,A,4741.10557,N,12225.98936,W,011.10,029.0,130413,016.6,E*4B
$GPRMC,210042.2,A,4741.10615,N,12225.98885,W,011.63,028.7,130413,016.6,E*47
$HCHDG,3.7,0.0,E,,*2D
$YXXDR,A,6.5,D,PTCH,A,-12.4,D,ROLL*44
$GPRMC,210042.4,A,4741.10671,N,12225.98834,W,011.67,030.4,130413,016.6,E*47
$IIGLL,4741.104,N,12225.990,W,210000,A,A*44
$IIMTW,+08.5,C*35
$GPRMC,210042.6,A,4741.10723,N,12225.98784,W,011.70,031.0,130413,016.6,E*44
$IIRMC,210000,A,4741.104,N,12225.990,W,10.8,025,130413,16,E,A*15
$IIVHW,,,,,00.0,N,,*19
$IIVLW,06210,N,000.0,N*56
$IIDPT,001.4,-1.0,*45
$HCHDG,3.7,0.0,E,,*2D
$GPRMC,210042.8,A,4741.10785,N,12225.98730,W,011.94,031.7,130413,016.6,E*44
$YXXDR,A,6.8,D,PTCH,A,-11.8,D,ROLL*46
$GPRMC,210043.0,A,4741.10840,N,12225.98672,W,011.76,031.4,130413,016.6,E*43
$GPRMC,210043.2,A,4741.10913,N,12225.98625,W,012.27,028.0,130413,016.6,E*4F
$HCHDG,7.3,0.0,E,,*2D
$YXXDR,A,6.6,D,PTCH,A,-7.7,D,ROLL*70
$GPRMC,210043.4,A,4741.10973,N,12225.98582,W,012.49,026.7,130413,016.6,E*40
$IIGLL,4741.107,N,12225.987,W,210000,A,A*41
$IIMTW,+08.5,C*35
$GPRMC,210043.6,A,4741.11037,N,12225.98528,W,012.54,026.8,130413,016.6,E*49
$IIRMC,210000,A,4741.107,N,12225.987,W,11.7,031,130413,16,E,A*1B
$IIVHW,,,,,00.0,N,,*19
$IIVLW,06210,N,000.0,N*56
$IIDPT,001.5,-1.0,*44
$HCHDG,8.7,0.0,E,,*26
$PTAK,FFP1,HEEL,@*07
$GPRMC,210043.8,A,4741.11103,N,12225.98474,W,012.53,027.0,130413,016.6,E*47
$YXXDR,A,5.9,D,PTCH,A,-9.9,D,ROLL*7C
$GPRMC,210044.0,A,4741.11169,N,12225.98428,W,012.60,026.2,130413,016.6,E*4E
$PGRMT,GPS 18x-5Hz software ver. 3.20,,,,,,,,*30
$GPRMC,210044.2,A,4741.11235,N,12225.98378,W,012.59,026.2,130413,016.6,E*4E
$HCHDG,8.3,0.0,E,,*22
$YXXDR,A,5.8,D,PTCH,A,-11.7,D,ROLL*4A
$GPRMC,210044.4,A,4741.11291,N,12225.98330,W,012.59,026.4,130413,016.6,E*4C
$IIGLL,4741.110,N,12225.985,W,210000,A,A*45
$IIMTW,+08.5,C*35
$GPRMC,210044.6,A,4741.11341,N,12225.98269,W,012.57,027.1,130413,016.6,E*45
$IIRMC,210000,A,4741.110,N,12225.985,W,12.5,026,130413,16,E,A*18
$IIVHW,,,,,00.0,N,,*19
$IIVLW,06210,N,000.0,N*56
$IIDPT,001.4,-1.0,*45
$HCHDG,7.9,0.0,E,,*27
$GPRMC,210044.8,A,4741.11410,N,12225.98225,W,012.57,028.2,130413,016.6,E*4C
$YXXDR,A,5.7,D,PTCH,A,-13.4,D,ROLL*44
$GPRMC,210045.0,A,4741.11472,N,12225.98171,W,012.60,029.4,130413,016.6,E*40
$GPRMC,210045.2,A,4741.11526,N,12225.98112,W,012.84,028.9,130413,016.6,E*41
$HCHDG,4.3,0.0,E,,*2E
$YXXDR,A,5.0,D,PTCH,A,-17.8,D,ROLL*4B
$GPRMC,210045.4,A,4741.11592,N,12225.98057,W,012.82,029.4,130413,016.6,E*42
$IIGLL,4741.113,N,12225.982,W,210000,A,A*41
$IIMTW,+08.5,C*35
$GPRMC,210045.6,A,4741.11649,N,12225.97998,W,012.63,028.9,130413,016.6,E*43
$IIRMC,210000,A,4741.113,N,12225.982,W,12.5,027,130413,16,E,A*1D
$IIVHW,,,,,00.0,N,,*19
$IIVLW,06210,N,000.0,N*56
$IIDPT,001.4,-1.0,*45
$HCHDG,5.5,0.0,E,,*29
$GPRMC,210045.8,A,4741.11705,N,12225.97934,W,012.61,028.1,130413,016.6,E*48
$YXXDR,A,5.0,D,PTCH,A,-13.5,D,ROLL*42
$GPRMC,210046.0,A,4741.11757,N,12225.97875,W,012.65,027.3,130413,016.6,E*49
$GPRMC,210046.2,A,4741.11825,N,12225.97834,W,012.87,026.4,130413,016.6,E*4E
$HCHDG,8.2,0.0,E,,*23
$YXXDR,A,4.8,D,PTCH,A,-10.5,D,ROLL*48
$GPRMC,210046.4,A,4741.11888,N,12225.97797,W,013.07,026.5,130413,016.6,E*41
$IIGLL,4741.116,N,12225.979,W,210000,A,A*40
$IIMTW,+08.5,C*35
$GPRMC,210046.6,A,4741.11955,N,12225.97747,W,013.26,026.3,130413,016.6,E*4A
$IIRMC,210000,A,4741.116,N,12225.979,W,12.6,028,130413,16,E,A*10
$IIVHW,,,,,00.0,N,,*19
$IIVLW,06210,N,000.0,N*56
$IIDPT,001.4,-1.0,*45
$HCHDG,8.1,0.0,E,,*20
$GPRMC,210046.8,A,4741.12023,N,12225.97695,W,013.34,025.6,130413,016.6,E*44
$YXXDR,A,4.7,D,PTCH,A,-11.6,D,ROLL*45
$GPRMC,210047.0,A,4741.12096,N,12225.97644,W,013.53,025.1,130413,016.6,E*49
$GPRMC,210047.2,A,4741.12164,N,12225.97590,W,013.71,024.3,130413,016.6,E*4E
$HCHDG,8.2,0.0,E,,*23
$YXXDR,A,3.7,D,PTCH,A,-11.3,D,ROLL*47
$GPRMC,210047.4,A,4741.12230,N,12225.97539,W,013.72,024.8,130413,016.6,E*41
$IIGLL,4741.119,N,12225.977,W,210000,A,A*41
$IIMTW,+08.5,C*35
$GPRMC,210047.6,A,4741.12295,N,12225.97486,W,013.78,025.3,130413,016.6,E*49
$IIRMC,210000,A,4741.119,N,12225.977,W,13.2,026,130413,16,E,A*1A
$IIVHW,,,,,00.0,N,,*19
$IIVLW,06210,N,000.0,N*56
$IIDPT,001.4,-1.0,*45
$HCHDG,5.6,0.0,E,,*2A
$PTAK,FFP1,HEEL,@*07
$GPRMC,210047.8,A,4741.12365,N,12225.97422,W,013.96,024.9,130413,016.6,E*4C
$YXXDR,A,4.3,D,PTCH,A,-14.4,D,ROLL*46
$GPRMC,210048.0,A,4741.12440,N,12225.97374,W,014.36,023.3,130413,016.6,E*4F
$GPRMC,210048.2,A,4741.12511,N,12225.97328,W,014.10,024.0,130413,016.6,E*41
$HCHDG,5.6,0.0,E,,*2A
$YXXDR,A,4.6,D,PTCH,A,-9.3,D,ROLL*78
$GPRMC,210048.4,A,4741.12588,N,12225.97293,W,014.17,021.6,130413,016.6,E*42
$IIGLL,4741.122,N,12225.974,W,210000,A,A*4A
$IIMTW,+08.5,C*35
$GPRMC,210048.6,A,4741.12661,N,12225.97257,W,013.92,021.9,130413,016.6,E*49
$IIRMC,210000,A,4741.122,N,12225.974,W,13.7,025,130413,16,E,A*17
$IIVHW,,,,,00.0,N,,*19
$IIVLW,06210,N,000.0,N*56
$IIDPT,001.4,-1.0,*45
$HCHDG,8.3,0.0,E,,*22
$GPRMC,210048.8,A,4741.12738,N,12225.97224,W,014.36,020.7,130413,016.6,E*48
$YXXDR,A,5.7,D,PTCH,A,-6.0,D,ROLL*74
$GPRMC,210049.0,A,4741.12816,N,12225.97186,W,014.32,021.0,130413,016.6,E*4B
$GPRMC,210049.2,A,4741.12895,N,12225.97152,W,014.05,022.0,130413,016.6,E*4C
$HCHDG,7.2,0.0,E,,*2C
$YXXDR,A,6.1,D,PTCH,A,-8.1,D,ROLL*7E
$GPRMC,210049.4,A,4741.12969,N,12225.97113,W,013.89,022.1,130413,016.6,E*4F
$IIGLL,4741.126,N,12225.972,W,210000,A,A*48
$IIMTW,+08.5,C*35
$GPRMC,210049.6,A,4741.13037,N,12225.97078,W,013.72,020.7,130413,016.6,E*42
$IIRMC,210000,A,4741.126,N,12225.972,W,13.9,021,130413,16,E,A*1F
$IIVHW,,,,,00.0,N,,*19
$IIVLW,06210,N,000.0,N*56
$IIDPT,001.4,-1.0,*45
$HCHDG,6.4,0.0,E,,*2B
$GPRMC,210049.8,A,4741.13104,N,12225.97041,W,013.69,021.1,130413,016.6,E*4A
$YXXDR,A,5.8,D,PTCH,A,-8.3,D,ROLL*76
$GPRMC,210050.0,A,4741.13170,N,12225.97017,W,013.73,020.1,130413,016.6,E*40
$GPRMC,210050.2,A,4741.13244,N,12225.96989,W,013.37,021.1,130413,016.6,E*48
$HCHDG,6.7,0.0,E,,*28
$YXXDR,A,5.4,D,PTCH,A,-8.0,D,ROLL*79
$GPRMC,210050.4,A,4741.13311,N,12225.96965,W,013.33,021.0,130413,016.6,E*48
$IIGLL,4741.130,N,12225.970,W,210000,A,A*4D
$IIMTW,+08.5,C*35
$GPRMC,210050.6,A,4741.13374,N,12225.96940,W,013.40,022.0,130413,016.6,E*49
$IIRMC,210000,A,4741.130,N,12225.970,W,13.7,020,130413,16,E,A*15
$IIVHW,,,,,00.0,N,,*19
$IIVLW,06210,N,000.0,N*56
$IIDPT,001.4,-1.0,*45
$HCHDG,6.0,0.0,E,,*2F
$GPRMC,210050.8,A,4741.13438,N,12225.96912,W,013.46,022.3,130413,016.6,E*4A
$YXXDR,A,5.4,D,PTCH,A,-9.6,D,ROLL*7E
$GPRMC,210051.0,A,4741.13505,N,12225.96876,W,013.20,022.2,130413,016.6,E*4E
$GPRMC,210051.2,A,4741.13568,N,12225.96836,W,013.00,022.9,130413,016.6,E*4A
$HCHDG,5.7,0.0,E,,*2B
$PTAK,FFP1,HEEL,@*07
$YXXDR,A,4.3,D,PTCH,A,-11.5,D,ROLL*42
$GPRMC,210051.4,A,4741.13633,N,12225.96793,W,012.99,023.3,130413,016.6,E*4B
$IIGLL,4741.133,N,12225.969,W,210000,A,A*46
$IIMTW,+08.5,C*35
$GPRMC,210051.6,A,4741.13699,N,12225.96743,W,013.00,024.8,130413,016.6,E*49
$IIRMC,210000,A,4741.133,N,12225.969,W,13.4,022,130413,16,E,A*1F
$IIVHW,,,,,00.0,N,,*19
$IIVLW,06210,N,000.0,N*56
$IIDPT,001.4,-1.0,*45
$HCHDG,0.4,0.0,E,,*2D
$GPRMC,210051.8,A,4741.13763,N,12225.96703,W,012.65,025.9,130413,016.6,E*45
$YXXDR,A,3.3,D,PTCH,A,-16.4,D,ROLL*43
$GPRMC,210052.0,A,4741.13826,N,12225.96652,W,012.64,025.4,130413,016.6,E*49
$GPRMC,210052.2,A,4741.13894,N,12225.96607,W,012.84,024.7,130413,016.6,E*4E
$HCHDG,3.7,0.0,E,,*2D
$YXXDR,A,2.9,D,PTCH,A,-9.9,D,ROLL*7B
$GPRMC,210052.4,A,4741.13958,N,12225.96556,W,013.10,024.5,130413,016.6,E*40
$IIGLL,4741.136,N,12225.967,W,210000,A,A*4D
$IIMTW,+08.5,C*35
$GPRMC,210052.6,A,4741.14029,N,12225.96513,W,013.33,022.6,130413,016.6,E*4F
$IIRMC,210000,A,4741.136,N,12225.967,W,13.0,024,130413,16,E,A*16
$IIVHW,,,,,00.0,N,,*19
$IIVLW,06210,N,000.0,N*56
$IIDPT,001.4,-1.0,*45
$HCHDG,5.3,0.0,E,,*2F
$GPRMC,210052.8,A,4741.14095,N,12225.96478,W,013.12,021.0,130413,016.6,E*4C
$YXXDR,A,2.6,D,PTCH,A,-9.1,D,ROLL*7C
$GPRMC,210053.0,A,4741.14159,N,12225.96438,W,012.86,019.5,130413,016.6,E*42
$GPRMC,210053.2,A,4741.14239,N,12225.96409,W,012.81,021.2,130413,016.6,E*4C
$HCHDG,4.5,0.0,E,,*28
$YXXDR,A,4.6,D,PTCH,A,-9.8,D,ROLL*73
$GPRMC,210053.4,A,4741.14300,N,12225.96372,W,012.50,019.9,130413,016.6,E*46
$IIGLL,4741.140,N,12225.965,W,210000,A,A*4E
$IIMTW,+08.5,C*35
$GPRMC,210053.6,A,4741.14364,N,12225.96332,W,012.55,020.6,130413,016.6,E*42
$IIRMC,210000,A,4741.140,N,12225.965,W,13.3,022,130413,16,E,A*10
$IIVHW,,,,,00.0,N,,*19
$IIVLW,06210,N,000.0,N*56
$IIDPT,001.4,-1.0,*45
$HCHDG,3.5,0.0,E,,*2F
$GPRMC,210053.8,A,4741.14432,N,12225.96293,W,013.01,016.4,130413,016.6,E*45
$YXXDR,A,6.0,D,PTCH,A,-8.6,D,ROLL*78
$GPRMC,210054.0,A,4741.14503,N,12225.96260,W,012.58,016.4,130413,016.6,E*48
$GPRMC,210054.2,A,4741.14573,N,12225.96239,W,011.86,016.9,130413,016.6,E*4C
$HCHDG,6.9,0.0,E,,*26
$YXXDR,A,6.6,D,PTCH,A,-4.8,D,ROLL*7C
$GPRMC,210054.4,A,4741.14636,N,12225.96203,W,011.86,017.8,130413,016.6,E*41
$IIGLL,4741.143,N,12225.963,W,210000,A,A*4B
$IIMTW,+08.5,C*35
$GPRMC,210054.6,A,4741.14714,N,12225.96175,W,011.80,017.7,130413,016.6,E*49
$IIRMC,210000,A,4741.143,N,12225.963,W,12.5,020,130413,16,E,A*10
$IIVHW,,,,,00.0,N,,*19
$IIVLW,06210,N,000.0,N*56
$IIDPT,001.4,-1.0,*45
$HCHDG,6.5,0.0,E,,*2A
$GPRMC,210054.8,A,4741.14775,N,12225.96144,W,011.48,018.0,130413,016.6,E*4E
$YXXDR,A,6.9,D,PTCH,A,-6.2,D,ROLL*7B
$GPRMC,210055.0,A,4741.14835,N,12225.96113,W,011.10,017.7,130413,016.6,E*4B
$GPRMC,210055.2,A,4741.14894,N,12225.96080,W,010.82,016.9,130413,016.6,E*4C
$HCHDG,6.0,0.0,E,,*2F
$YXXDR,A,6.6,D,PTCH,A,-6.6,D,ROLL*70
$GPRMC,210055.4,A,4741.14940,N,12225.96057,W,010.75,017.7,130413,016.6,E*4F
$PTAK,FFP1,HEEL,@*07
$IIGLL,4741.147,N,12225.961,W,210000,A,A*4D
$IIMTW,+08.5,C*35
$GPRMC,210055.6,A,4741.15000,N,12225.96031,W,010.71,017.2,130413,016.6,E*40
$IIRMC,210000,A,4741.147,N,12225.961,W,11.8,017,130413,16,E,A*1C
$IIVHW,,,,,00.2,N,,*1B
$IIVLW,06210,N,000.0,N*56
$IIDPT,001.5,-1.0,*44
$HCHDG,6.6,0.0,E,,*29
$GPRMC,210055.8,A,4741.15040,N,12225.95996,W,010.52,017.8,130413,016.6,E*46
$YXXDR,A,7.1,D,PTCH,A,-6.8,D,ROLL*78
$GPRMC,210056.0,A,4741.15093,N,12225.95954,W,010.51,019.9,130413,016.6,E*41
$GPRMC,210056.2,A,4741.15151,N,12225.95917,W,010.78,020.8,130413,016.6,E*4B
$HCHDG,3.9,0.0,E,,*23
$YXXDR,A,6.3,D,PTCH,A,-11.3,D,ROLL*46
$GPRMC,210056.4,A,4741.15205,N,12225.95876,W,010.62,021.1,130413,016.6,E*4A
$IIGLL,4741.150,N,12225.960,W,210000,A,A*4A
$IIMTW,+08.5,C*35
$GPRMC,210056.6,A,4741.15267,N,12225.95847,W,010.68,021.2,130413,016.6,E*47
$IIRMC,210000,A,4741.150,N,12225.960,W,10.7,017,130413,16,E,A*15
$IIVHW,,,,,00.1,N,,*18
$IIVLW,06210,N,000.0,N*56
$IIDPT,001.5,-1.0,*44
$HCHDG,3.1,0.0,E,,*2B
$GPRMC,210056.8,A,4741.15327,N,12225.95821,W,010.51,021.2,130413,016.6,E*46
$YXXDR,A,5.8,D,PTCH,A,-11.9,D,ROLL*44
$GPRMC,210057.0,A,4741.15383,N,12225.95797,W,009.90,021.3,130413,016.6,E*47
$GPRMC,210057.2,A,4741.15439,N,12225.95771,W,009.93,021.9,130413,016.6,E*42
$HCHDG,4.5,0.0,E,,*28
$YXXDR,A,6.0,D,PTCH,A,-12.5,D,ROLL*40
$GPRMC,210057.4,A,4741.15498,N,12225.95740,W,010.22,023.5,130413,016.6,E*41
$IIGLL,4741.152,N,12225.958,W,210000,A,A*43
$IIMTW,+08.5,C*35
$GPRMC,210057.6,A,4741.15547,N,12225.95705,W,009.96,025.1,130413,016.6,E*44
$IIRMC,210000,A,4741.152,N,12225.958,W,10.6,021,130413,16,E,A*18
$IIVHW,,,,,00.1,N,,*18
$IIVLW,06210,N,000.0,N*56
$IIDPT,001.5,-1.0,*44
$HCHDG,4.7,0.0,E,,*2A
$GPRMC,210057.8,A,4741.15595,N,12225.95668,W,010.01,026.7,130413,016.6,E*4C
$YXXDR,A,6.1,D,PTCH,A,-15.1,D,ROLL*42
$GPRMC,210058.0,A,4741.15642,N,12225.95627,W,009.94,029.6,130413,016.6,E*43
$GPRMC,210058.2,A,4741.15688,N,12225.95591,W,010.00,028.5,130413,016.6,E*4E
$HCHDG,1.9,0.0,E,,*21
$YXXDR,A,4.8,D,PTCH,A,-17.6,D,ROLL*4C
$GPRMC,210058.4,A,4741.15741,N,12225.95549,W,010.23,027.5,130413,016.6,E*47
$IIGLL,4741.155,N,12225.957,W,210000,A,A*4B
$IIMTW,+08.5,C*35
$GPRMC,210058.6,A,4741.15794,N,12225.95503,W,010.05,028.9,130413,016.6,E*44
$IIRMC,210000,A,4741.155,N,12225.957,W,09.9,025,130413,16,E,A*13
$IIVHW,,,,,00.1,N,,*18
$IIVLW,06210,N,000.0,N*56
$IIDPT,001.5,-1.0,*44
$HCHDG,2.4,0.0,E,,*2F
$GPRMC,210058.8,A,4741.15846,N,12225.95460,W,010.49,026.6,130413,016.6,E*47
$YXXDR,A,4.9,D,PTCH,A,-15.7,D,ROLL*4E
$GPRMC,210059.0,A,4741.15898,N,12225.95418,W,010.67,024.0,130413,016.6,E*4A
$GPRMC,210059.2,A,4741.15950,N,12225.95372,W,010.67,025.2,130413,016.6,E*45
$HCHDG,5.5,0.0,E,,*29
$PTAK,FFP1,HEEL,@*07
$YXXDR,A,5.6,D,PTCH,A,-11.2,D,ROLL*41
$GPRMC,210059.4,A,4741.16005,N,12225.95316,W,010.88,027.4,130413,016.6,E*4E
$IIGLL,4741.157,N,12225.955,W,210000,A,A*4B
$IIMTW,+08.5,C*35
$GPRMC,210059.6,A,4741.16055,N,12225.95274,W,010.91,028.1,130413,016.6,E*4E
$IIRMC,210000,A,4741.157,N,12225.955,W,10.0,028,130413,16,E,A*1F
$IIVHW,,,,,00.0,N,,*19
$IIVLW,06210,N,000.0,N*56
$IIDPT,001.5,-1.0,*44
$HCHDG,7.1,0.0,E,,*2F
$GPRMC,210059.8,A,4741.16112,N,12225.95233,W,010.97,026.5,130413,016.6,E*4D
$YXXDR,A,5.1,D,PTCH,A,-10.3,D,ROLL*46
$GPRMC,210100.0,A,4741.16164,N,12225.95194,W,010.99,026.3,130413,016.6,E*4F
$GPRMC,210100.2,A,4741.16216,N,12225.95157,W,011.07,026.0,130413,016.6,E*41
$HCHDG,6.9,0.0,E,,*26
$YXXDR,A,5.1,D,PTCH,A,-10.6,D,ROLL*43
$GPRMC,210100.4,A,4741.16267,N,12225.95119,W,011.23,025.4,130413,016.6,E*4A
$IIGLL,4741.160,N,12225.952,W,210000,A,A*48
$IIMTW,+08.5,C*35
$GPRMC,210100.6,A,4741.16322,N,12225.95081,W,011.18,024.5,130413,016.6,E*40
$IIRMC,210000,A,4741.160,N,12225.952,W,10.9,028,130413,16,E,A*15
$IIVHW,,,,,00.0,N,,*19
$IIVLW,06210,N,000.0,N*56
$IIDPT,001.5,-1.0,*44
$HCHDG,6.0,0.0,E,,*2F
$GPRMC,210100.8,A,4741.16375,N,12225.95043,W,010.98,024.2,130413,016.6,E*4C
$YXXDR,A,4.4,D,PTCH,A,-9.0,D,ROLL*79
$GPRMC,210101.0,A,4741.16429,N,12225.95007,W,010.91,023.6,130413,016.6,E*41
$GPRMC,210101.2,A,4741.16484,N,12225.94965,W,010.88,024.3,130413,016.6,E*42
$HCHDG,6.8,0.0,E,,*27
$YXXDR,A,5.1,D,PTCH,A,-7.0,D,ROLL*73
$GPRMC,210101.4,A,4741.16544,N,12225.94932,W,010.88,023.2,130413,016.6,E*4D
$IIGLL,4741.163,N,12225.950,W,210100,A,A*48
$IIMTW,+08.5,C*35
$GPRMC,210101.6,A,4741.16592,N,12225.94902,W,011.06,022.3,130413,016.6,E*40
$IIRMC,210100,A,4741.163,N,12225.950,W,11.1,024,130413,16,E,A*10
$IIVHW,,,,,00.0,N,,*19
$IIVLW,06210,N,000.0,N*56
$IIDPT,001.5,-1.0,*44
$HCHDG,7.3,0.0,E,,*2D
$GPRMC,210101.8,A,4741.16644,N,12225.94874,W,011.02,023.0,130413,016.6,E*40
$YXXDR,A,6.0,D,PTCH,A,-6.6,D,ROLL*76
$GPRMC,210102.0,A,4741.16701,N,12225.94842,W,010.83,022.5,130413,016.6,E*42
$GPRMC,210102.2,A,4741.16754,N,12225.94806,W,010.68,022.7,130413,016.6,E*47
$HCHDG,8.1,0.0,E,,*20
$YXXDR,A,6.1,D,PTCH,A,-5.6,D,ROLL*74
$GPRMC,210102.4,A,4741.16809,N,12225.94776,W,010.69,022.4,130413,016.6,E*4C
$IIGLL,4741.165,N,12225.949,W,210100,A,A*46
$IIMTW,+08.5,C*35
$GPRMC,210102.6,A,4741.16855,N,12225.94743,W,010.68,022.1,130413,016.6,E*45
$IIRMC,210100,A,4741.165,N,12225.949,W,11.0,022,130413,16,E,A*19
$IIVHW,,,,,00.1,N,,*18
$IIVLW,06210,N,000.0,N*56
$IIDPT,001.5,-1.0,*44
$HCHDG,8.6,0.0,E,,*27
$GPRMC,210102.8,A,4741.16904,N,12225.94701,W,010.67,022.8,130413,016.6,E*4E
$YXXDR,A,5.7,D,PTCH,A,-6.7,D,ROLL*73
$GPRMC,210103.0,A,4741.16964,N,12225.94670,W,010.70,022.9,130413,016.6,E*41
$GPRMC,210103.2,A,4741.17023,N,12225.94644,W,010.51,022.9,130413,016.6,E*4C
$HCHDG,8.2,0.0,E,,*23
$YXXDR,A,5.2,D,PTCH,A,-8.6,D,ROLL*79
$GPRMC,210103.4,A,4741.17076,N,12225.94615,W,010.43,022.8,130413,016.6,E*4C
$IIGLL,4741.168,N,12225.947,W,210100,A,A*45
$IIMTW,+08.5,C*35
$GPRMC,210103.6,A,4741.17127,N,12225.94591,W,009.94,023.7,130413,016.6,E*48
$PTAK,FFP1,HEEL,@*07
$IIRMC,210100,A,4741.168,N,12225.947,W,10.6,022,130413,16,E,A*1D
$IIVHW,,,,,00.2,N,,*1B
$IIVLW,06210,N,000.0,N*56
$IIDPT,001.5,-1.0,*44
$HCHDG,7.9,0.0,E,,*27
$GPRMC,210103.8,A,4741.17181,N,12225.94567,W,010.01,024.7,130413,016.6,E*40
$YXXDR,A,5.0,D,PTCH,A,-9.9,D,ROLL*75
$GPRMC,210104.0,A,4741.17236,N,12225.94539,W,010.01,024.0,130413,016.6,E*4C
$GPRMC,210104.2,A,4741.17285,N,12225.94512,W,009.43,025.6,130413,016.6,E*46
$HCHDG,8.1,0.0,E,,*20
$YXXDR,A,5.1,D,PTCH,A,-10.7,D,ROLL*42
$GPRMC,210104.4,A,4741.17339,N,12225.94483,W,009.48,025.8,130413,016.6,E*4A
$IIGLL,4741.171,N,12225.945,W,210100,A,A*4F
$IIMTW,+08.5,C*35
$GPRMC,210104.6,A,4741.17392,N,12225.94452,W,009.48,025.0,130413,016.6,E*4D
$IIRMC,210100,A,4741.171,N,12225.945,W,09.9,023,130413,16,E,A*11
$IIVHW,,,,,00.2,N,,*1B
$IIVLW,06210,N,000.0,N*56
$IIDPT,001.5,-1.0,*44
$HCHDG,8.6,0.0,E,,*27
$GPRMC,210104.8,A,4741.17442,N,12225.94416,W,009.68,027.7,130413,016.6,E*4E
$YXXDR,A,5.3,D,PTCH,A,-11.7,D,ROLL*41
$GPRMC,210105.0,A,4741.17495,N,12225.94379,W,009.85,028.0,130413,016.6,E*48
$GPRMC,210105.2,A,4741.17548,N,12225.94342,W,009.91,028.2,130413,016.6,E*44
$HCHDG,8.0,0.0,E,,*21
$YXXDR,A,5.5,D,PTCH,A,-13.2,D,ROLL*40
$GPRMC,210105.4,A,4741.17601,N,12225.94305,W,009.69,028.7,130413,016.6,E*4D
$IIGLL,4741.173,N,12225.944,W,210100,A,A*4C
$IIMTW,+08.5,C*35
$GPRMC,210105.6,A,4741.17655,N,12225.94269,W,009.66,028.7,130413,016.6,E*4A
$IIRMC,210100,A,4741.173,N,12225.944,W,09.4,025,130413,16,E,A*19
$IIVHW,,,,,00.1,N,,*18
$IIVLW,06210,N,000.0,N*56
$IIDPT,001.5,-1.0,*44
$HCHDG,8.4,0.0,E,,*25
$GPRMC,210105.8,A,4741.17708,N,12225.94227,W,009.96,029.0,130413,016.6,E*4E
$YXXDR,A,6.2,D,PTCH,A,-13.5,D,ROLL*43
$GPRMC,210106.0,A,4741.17761,N,12225.94185,W,009.92,029.8,130413,016.6,E*4D
$GPRMC,210106.2,A,4741.17819,N,12225.94148,W,010.18,030.6,130413,016.6,E*42
$HCHDG,8.8,0.0,E,,*29
$YXXDR,A,5.8,D,PTCH,A,-13.8,D,ROLL*47
$GPRMC,210106.4,A,4741.17870,N,12225.94098,W,009.98,031.0,130413,016.6,E*40
$IIGLL,4741.176,N,12225.942,W,210100,A,A*4F
$IIMTW,+08.5,C*35
$GPRMC,210106.6,A,4741.17917,N,12225.94047,W,009.98,032.2,130413,016.6,E*41
$IIRMC,210100,A,4741.176,N,12225.942,W,09.6,028,130413,16,E,A*15
$IIVHW,,,,,00.1,N,,*18
$IIVLW,06210,N,000.0,N*56
$HCHDG,9.3,0.0,E,,*23
$GPRMC,210106.8,A,4741.17965,N,12225.93994,W,009.98,030.6,130413,016.6,E*4C
$YXXDR,A,5.4,D,PTCH,A,-13.5,D,ROLL*46
$GPRMC,210107.0,A,4741.18020,N,12225.93941,W,010.51,030.1,130413,016.6,E*40
$GPRMC,210107.2,A,4741.18078,N,12225.93887,W,010.47,030.5,130413,016.6,E*47
$HCHDG,9.9,0.0,E,,*29
$YXXDR,A,5.2,D,PTCH,A,-13.0,D,ROLL*45
$GPRMC,210107.4,A,4741.18128,N,12225.93837,W,010.50,030.1,130413,016.6,E*4C
$IIGLL,4741.179,N,12225.940,W,210100,A,A*42
$IIMTW,+08.5,C*35
$GPRMC,210107.6,A,4741.18187,N,12225.93771,W,010.55,030.4,130413,016.6,E*46
$IIRMC,210100,A,4741.179,N,12225.940,W,09.9,032,130413,16,E,A*1C
$IIVHW,,,,,00.1,N,,*18
$IIVLW,06210,N,000.0,N*56
$IIDPT,001.4,-1.0,*45
$HCHDG,10.2,0.0,E,,*1A
$PTAK,FFP1,HEEL,@*07
$GPRMC,210107.8,A,4741.18244,N,12225.93712,W,010.73,031.2,130413,016.6,E*42
$YXXDR,A,4.6,D,PTCH,A,-11.8,D,ROLL*4A
$GPRMC,210108.0,A,4741.18297,N,12225.93666,W,010.73,029.9,130413,016.6,E*4B
$GPRMC,210108.2,A,4741.18352,N,12225.93613,W,010.68,030.0,130413,016.6,E*48
$HCHDG,10.2,0.0,E,,*1A
$YXXDR,A,4.6,D,PTCH,A,-10.6,D,ROLL*45
$GPRMC,210108.4,A,4741.18405,N,12225.93559,W,010.73,029.4,130413,016.6,E*40
$IIGLL,4741.181,N,12225.937,W,210100,A,A*45
$IIMTW,+08.5,C*35
$GPRMC,210108.6,A,4741.18463,N,12225.93513,W,011.06,029.9,130413,016.6,E*42
$IIRMC,210100,A,4741.181,N,12225.937,W,10.5,030,130413,16,E,A*1D
$IIVHW,,,,,00.1,N,,*18
$IIVLW,06210,N,000.0,N*56
$IIDPT,001.2,-1.0,*43
$HCHDG,10.4,0.0,E,,*1C
$GPRMC,210108.8,A,4741.18518,N,12225.93467,W,011.30,027.1,130413,016.6,E*40
$YXXDR,A,5.2,D,PTCH,A,-8.6,D,ROLL*79
$GPRMC,210109.0,A,4741.18569,N,12225.93429,W,010.84,028.5,130413,016.6,E*40
$GPRMC,210109.2,A,4741.18621,N,12225.93387,W,010.52,026.4,130413,016.6,E*4A
$HCHDG,12.6,0.0,E,,*1C
$YXXDR,A,6.0,D,PTCH,A,-5.4,D,ROLL*77
$GPRMC,210109.4,A,4741.18675,N,12225.93354,W,010.48,025.1,130413,016.6,E*4E
$IIGLL,4741.184,N,12225.935,W,210100,A,A*42
$IIMTW,+08.5,C*35
$GPRMC,210109.6,A,4741.18731,N,12225.93314,W,010.45,024.9,130413,016.6,E*4D
$IIRMC,210100,A,4741.184,N,12225.935,W,11.0,029,130413,16,E,A*16
$IIVHW,,,,,00.0,N,,*19
$IIVLW,06210,N,000.0,N*56
$IIDPT,001.2,-1.0,*43
$HCHDG,12.2,0.0,E,,*18
$GPRMC,210109.8,A,4741.18787,N,12225.93277,W,010.45,026.0,130413,016.6,E*41
$YXXDR,A,6.7,D,PTCH,A,-6.2,D,ROLL*75
$GPRMC,210110.0,A,4741.18840,N,12225.93229,W,010.69,027.1,130413,016.6,E*40
$GPRMC,210110.2,A,4741.18906,N,12225.93194,W,011.22,024.9,130413,016.6,E*41
$HCHDG,11.5,0.0,E,,*1C
$YXXDR,A,6.7,D,PTCH,A,-6.2,D,ROLL*75
$GPRMC,210110.4,A,4741.18969,N,12225.93155,W,011.46,025.8,130413,016.6,E*41
$IIGLL,4741.187,N,12225.933,W,210100,A,A*47
$IIMTW,+08.5,C*35
$GPRMC,210110.6,A,4741.19028,N,12225.93115,W,011.63,027.1,130413,016.6,E*46
$IIRMC,210100,A,4741.187,N,12225.933,W,10.4,024,130413,16,E,A*1B
$IIVHW,,,,,00.0,N,,*19
$IIVLW,06210,N,000.0,N*56
$IIDPT,001.2,-1.0,*43
$HCHDG,11.0,0.0,E,,*19
$GPRMC,210110.8,A,4741.19087,N,12225.93077,W,011.59,025.7,130413,016.6,E*45
$YXXDR,A,6.2,D,PTCH,A,-6.5,D,ROLL*77
$GPRMC,210111.0,A,4741.19148,N,12225.93039,W,011.62,025.4,130413,016.6,E*4F
$GPRMC,210111.2,A,4741.19210,N,12225.93000,W,011.81,025.8,130413,016.6,E*48
$HCHDG,10.9,0.0,E,,*11
$YXXDR,A,5.2,D,PTCH,A,-8.3,D,ROLL*7C
$GPRMC,210111.4,A,4741.19264,N,12225.92956,W,011.59,026.4,130413,016.6,E*4C
$IIGLL,4741.190,N,12225.931,W,210100,A,A*43
$IIMTW,+08.5,C*35
$GPRMC,210111.6,A,4741.19320,N,12225.92908,W,012.07,026.0,130413,016.6,E*48
$IIRMC,210100,A,4741.190,N,12225.931,W,11.6,027,130413,16,E,A*1F
$IIVHW,,,,,00.0,N,,*19
$IIVLW,06210,N,000.0,N*56
$IIDPT,001.4,-1.0,*45
$HCHDG,11.3,0.0,E,,*1A
$PTAK,FFP1,HEEL,@*07
$GPRMC,210111.8,A,4741.19379,N,12225.92860,W,011.81,026.5,130413,016.6,E*4D
$YXXDR,A,4.5,D,PTCH,A,-9.8,D,ROLL*70
$GPRMC,210112.0,A,4741.19437,N,12225.92812,W,011.75,027.0,130413,016.6,E*41
$GPRMC,210112.2,A,4741.19492,N,12225.92769,W,011.71,028.1,130413,016.6,E*45
$HCHDG,11.2,0.0,E,,*1B
$YXXDR,A,4.1,D,PTCH,A,-12.5,D,ROLL*43
$GPRMC,210112.4,A,4741.19545,N,12225.92724,W,011.26,027.4,130413,016.6,E*49
$IIGLL,4741.190,N,12225.931,W,210100,A,A*43
$IIMTW,+08.5,C*35
$GPRMC,210112.6,A,4741.19600,N,12225.92677,W,011.23,028.2,130413,016.6,E*42
$IIRMC,210100,A,4741.190,N,12225.931,W,11.6,027,130413,16,E,A*1F
$IIVHW,,,,,00.0,N,,*19
$IIVLW,06210,N,000.0,N*56
$IIDPT,001.4,-1.0,*45
$HCHDG,10.5,0.0,E,,*1D
$GPRMC,210112.8,A,4741.19660,N,12225.92626,W,011.27,028.5,130413,016.6,E*4D
$YXXDR,A,4.1,D,PTCH,A,-14.7,D,ROLL*47
$GPRMC,210113.0,A,4741.19715,N,12225.92577,W,011.33,027.8,130413,016.6,E*47
$GPRMC,210113.2,A,4741.19769,N,12225.92535,W,011.12,028.1,130413,016.6,E*4D
$HCHDG,11.0,0.0,E,,*19
$YXXDR,A,4.4,D,PTCH,A,-15.6,D,ROLL*42
$GPRMC,210113.4,A,4741.19822,N,12225.92497,W,010.87,029.1,130413,016.6,E*4E
$IIGLL,4741.196,N,12225.926,W,210100,A,A*43
$IIMTW,+08.5,C*35
$GPRMC,210113.6,A,4741.19865,N,12225.92469,W,010.61,030.5,130413,016.6,E*4A
$IIRMC,210100,A,4741.196,N,12225.926,W,11.2,028,130413,16,E,A*14
$IIVHW,,,,,00.0,N,,*19
$IIVLW,06210,N,000.0,N*56
$IIDPT,001.4,-1.0,*45
$HCHDG,12.5,0.0,E,,*1F
$GPRMC,210113.8,A,4741.19912,N,12225.92427,W,010.58,030.3,130413,016.6,E*43
$YXXDR,A,4.6,D,PTCH,A,-15.8,D,ROLL*4E
$GPRMC,210114.0,A,4741.19961,N,12225.92383,W,010.54,031.7,130413,016.6,E*48
$GPRMC,210114.2,A,4741.20012,N,12225.92340,W,010.23,032.5,130413,016.6,E*43
$HCHDG,10.8,0.0,E,,*10
$YXXDR,A,4.0,D,PTCH,A,-20.4,D,ROLL*42
$GPRMC,210114.4,A,4741.20063,N,12225.92283,W,010.06,032.8,130413,016.6,E*47
$IIGLL,4741.198,N,12225.924,W,210100,A,A*4F
$IIMTW,+08.5,C*35
$GPRMC,210114.6,A,4741.20115,N,12225.92211,W,009.84,033.2,130413,016.6,E*47
$IIRMC,210100,A,4741.198,N,12225.924,W,10.6,030,130413,16,E,A*14
$IIVHW,,,,,00.0,N,,*19
$IIVLW,06210,N,000.0,N*56
$IIDPT,001.4,-1.0,*45
$HCHDG,11.9,0.0,E,,*10
$GPRMC,210114.8,A,4741.20160,N,12225.92169,W,009.77,032.9,130413,016.6,E*41
$YXXDR,A,4.4,D,PTCH,A,-17.0,D,ROLL*46
$GPRMC,210115.0,A,4741.20206,N,12225.92110,W,009.81,032.1,130413,016.6,E*44
$GPRMC,210115.2,A,4741.20250,N,12225.92075,W,009.88,032.8,130413,016.6,E*47
$HCHDG,13.6,0.0,E,,*1D
$YXXDR,A,4.9,D,PTCH,A,-15.1,D,ROLL*48
$GPRMC,210115.4,A,4741.20302,N,12225.92031,W,009.82,032.5,130413,016.6,E*40
$IIGLL,4741.201,N,12225.922,W,210100,A,A*4A
$IIMTW,+08.5,C*35
$GPRMC,210115.6,A,4741.20359,N,12225.91993,W,009.77,033.0,130413,016.6,E*40
$IIRMC,210100,A,4741.201,N,12225.922,W,09.8,033,130413,16,E,A*14
$IIVHW,,,,,00.0,N,,*19
$IIVLW,06210,N,000.0,N*56
$IIDPT,001.4,-1.0,*45
$HCHDG,13.2,0.0,E,,*19
$GPRMC,210115.8,A,4741.20413,N,12225.91944,W,009.82,034.0,130413,016.6,E*40
$PTAK,FFP1,HEEL,@*07
$YXXDR,A,5.5,D,PTCH,A,-14.7,D,ROLL*42
$GPRMC,210116.0,A,4741.20454,N,12225.91899,W,009.79,033.4,130413,016.6,E*4E
$GPRMC,210116.2,A,4741.20504,N,12225.91849,W,010.26,032.9,130413,016.6,E*4B
$HCHDG,12.9,0.0,E,,*13
$YXXDR,A,5.8,D,PTCH,A,-13.6,D,ROLL*49
$GPRMC,210116.4,A,4741.20555,N,12225.91793,W,010.21,032.4,130413,016.6,E*4B
$IIGLL,4741.203,N,12225.919,W,210100,A,A*40
$IIMTW,+08.5,C*35
$GPRMC,210116.6,A,4741.20603,N,12225.91741,W,010.24,032.2,130413,016.6,E*45
$IIRMC,210100,A,4741.203,N,12225.919,W,09.7,033,130413,16,E,A*11
$IIVHW,,,,,00.0,N,,*19
$IIVLW,06210,N,000.0,N*56
$IIDPT,001.4,-1.0,*45
$HCHDG,10.9,0.0,E,,*11
$GPRMC,210116.8,A,4741.20658,N,12225.91684,W,010.32,030.4,130413,016.6,E*4E
$YXXDR,A,5.0,D,PTCH,A,-13.3,D,ROLL*44
$GPRMC,210117.0,A,4741.20717,N,12225.91637,W,010.26,029.8,130413,016.6,E*44
$GPRMC,210117.2,A,4741.20767,N,12225.91591,W,010.06,029.5,130413,016.6,E*41
$HCHDG,15.6,0.0,E,,*1B
$YXXDR,A,5.8,D,PTCH,A,-6.1,D,ROLL*7A
$GPRMC,210117.4,A,4741.20817,N,12225.91539,W,010.01,029.7,130413,016.6,E*48
$IIGLL,4741.206,N,12225.917,W,210100,A,A*4B
$IIMTW,+08.5,C*35
$GPRMC,210117.6,A,4741.20861,N,12225.91492,W,009.38,030.5,130413,016.6,E*43
$IIRMC,210100,A,4741.206,N,12225.917,W,10.2,032,130413,16,E,A*16
$IIVHW,,,,,00.0,N,,*19
$IIVLW,06210,N,000.0,N*56
$IIDPT,001.4,-1.0,*45
$HCHDG,16.6,0.0,E,,*18
$GPRMC,210117.8,A,4741.20905,N,12225.91447,W,009.40,031.0,130413,016.6,E*4D
$YXXDR,A,5.1,D,PTCH,A,-7.6,D,ROLL*75
$GPRMC,210118.0,A,4741.20953,N,12225.91402,W,009.37,030.4,130413,016.6,E*4D
$GPRMC,210118.2,A,4741.20993,N,12225.91364,W,009.34,030.2,130413,016.6,E*41
$HCHDG,17.1,0.0,E,,*1E
$YXXDR,A,4.4,D,PTCH,A,-8.5,D,ROLL*7D
$GPRMC,210118.4,A,4741.21033,N,12225.91324,W,009.31,031.4,130413,016.6,E*43
$IIGLL,4741.208,N,12225.914,W,210100,A,A*46
$IIMTW,+08.5,C*35
$GPRMC,210118.6,A,4741.21068,N,12225.91282,W,009.48,029.8,130413,016.6,E*49
$IIRMC,210100,A,4741.208,N,12225.914,W,09.3,030,130413,16,E,A*10
$IIVHW,,,,,00.0,N,,*19
$IIVLW,06210,N,000.0,N*56
$IIDPT,001.4,-1.0,*45
$HCHDG,16.7,0.0,E,,*19
$GPRMC,210118.8,A,4741.21112,N,12225.91246,W,009.44,031.7,130413,016.6,E*49
$YXXDR,A,4.4,D,PTCH,A,-11.1,D,ROLL*41
$GPRMC,210119.0,A,4741.21151,N,12225.91200,W,009.48,032.6,130413,016.6,E*4B
$GPRMC,210119.2,A,4741.21193,N,12225.91156,W,009.42,033.1,130413,016.6,E*4B
$HCHDG,15.7,0.0,E,,*1A
$YXXDR,A,4.3,D,PTCH,A,-14.1,D,ROLL*43
$GPRMC,210119.4,A,4741.21237,N,12225.91108,W,009.45,033.3,130413,016.6,E*4E
$IIGLL,4741.210,N,12225.912,W,210100,A,A*49
$IIMTW,+08.5,C*35
$GPRMC,210119.6,A,4741.21288,N,12225.91072,W,009.69,033.3,130413,016.6,E*4A
$IIRMC,210100,A,4741.210,N,12225.912,W,09.4,029,130413,16,E,A*10
$IIVHW,,,,,00.0,N,,*19
$IIVLW,06210,N,000.0,N*56
$IIDPT,001.4,-1.0,*45
$HCHDG,15.9,0.0,E,,*14
$GPRMC,210119.8,A,4741.21334,N,12225.91027,W,009.50,034.4,130413,016.6,E*48
$YXXDR,A,4.2,D,PTCH,A,-15.5,D,ROLL*47
$GPRMC,210120.0,A,4741.21378,N,12225.90974,W,009.77,034.9,130413,016.6,E*44
$PTAK,FFP1,HEEL,@*07
$GPRMC,210120.2,A,4741.21417,N,12225.90928,W,009.81,033.8,130413,016.6,E*4E
$HCHDG,16.0,0.0,E,,*1E
$YXXDR,A,3.9,D,PTCH,A,-18.0,D,ROLL*43
$GPRMC,210120.4,A,4741.21457,N,12225.90883,W,009.78,036.5,130413,016.6,E*42
$IIGLL,4741.212,N,12225.910,W,210100,A,A*49
$IIMTW,+08.5,C*35
$GPRMC,210120.6,A,4741.21499,N,12225.90836,W,009.82,036.6,130413,016.6,E*4A
$IIRMC,210100,A,4741.212,N,12225.910,W,09.6,033,130413,16,E,A*19
$IIVHW,,,,,00.0,N,,*19
$IIVLW,06210,N,000.0,N*56
$IIDPT,001.4,-1.0,*45
$HCHDG,15.7,0.0,E,,*1A
$GPRMC,210120.8,A,4741.21537,N,12225.90785,W,009.79,039.2,130413,016.6,E*49
$YXXDR,A,4.1,D,PTCH,A,-17.8,D,ROLL*4B
$GPRMC,210121.0,A,4741.21575,N,12225.90742,W,009.83,038.5,130413,016.6,E*4E
$GPRMC,210121.2,A,4741.21608,N,12225.90690,W,009.83,039.8,130413,016.6,E*47
$HCHDG,16.2,0.0,E,,*1C
$YXXDR,A,4.1,D,PTCH,A,-15.4,D,ROLL*45
$GPRMC,210121.4,A,4741.21646,N,12225.90635,W,009.80,040.6,130413,016.6,E*47
$IIGLL,4741.214,N,12225.908,W,210100,A,A*46
$IIMTW,+08.5,C*35
$GPRMC,210121.6,A,4741.21680,N,12225.90575,W,009.80,039.7,130413,016.6,E*47
$IIRMC,210100,A,4741.214,N,12225.908,W,09.8,036,130413,16,E,A*1D
$IIVHW,,,,,00.0,N,,*19
$IIVLW,06210,N,000.0,N*56
$IIDPT,001.4,-1.0,*45
$HCHDG,18.1,0.0,E,,*11
$GPRMC,210121.8,A,4741.21715,N,12225.90521,W,009.81,040.5,130413,016.6,E*48
$YXXDR,A,4.5,D,PTCH,A,-11.9,D,ROLL*48
$GPRMC,210122.0,A,4741.21757,N,12225.90472,W,009.80,040.4,130413,016.6,E*42
$GPRMC,210122.2,A,4741.21800,N,12225.90415,W,009.83,040.5,130413,016.6,E*4E
$HCHDG,19.9,0.0,E,,*18
$YXXDR,A,4.7,D,PTCH,A,-9.5,D,ROLL*7F
$GPRMC,210122.4,A,4741.21850,N,12225.90365,W,010.03,040.1,130413,016.6,E*49
$IIGLL,4741.216,N,12225.905,W,210100,A,A*49
$IIMTW,+08.5,C*35
$GPRMC,210122.6,A,4741.21899,N,12225.90315,W,010.07,040.3,130413,016.6,E*4F
$IIRMC,210100,A,4741.216,N,12225.905,W,09.8,039,130413,16,E,A*1D
$IIVHW,,,,,00.0,N,,*19
$IIVLW,06210,N,000.0,N*56
$IIDPT,001.4,-1.0,*45
$HCHDG,20.3,0.0,E,,*18
$GPRMC,210122.8,A,4741.21941,N,12225.90267,W,010.00,040.3,130413,016.6,E*46
$YXXDR,A,4.8,D,PTCH,A,-9.1,D,ROLL*74
$GPRMC,210123.0,A,4741.21978,N,12225.90218,W,010.01,041.5,130413,016.6,E*4B
$GPRMC,210123.2,A,4741.22013,N,12225.90162,W,010.21,040.8,130413,016.6,E*4E
$HCHDG,20.3,0.0,E,,*18
$YXXDR,A,4.6,D,PTCH,A,-9.0,D,ROLL*7B
$GPRMC,210123.4,A,4741.22050,N,12225.90103,W,009.96,041.5,130413,016.6,E*40
$IIGLL,4741.218,N,12225.903,W,210100,A,A*41
$IIMTW,+08.5,C*35
$GPRMC,210123.6,A,4741.22091,N,12225.90043,W,010.02,040.9,130413,016.6,E*42
$IIRMC,210100,A,4741.218,N,12225.903,W,10.0,040,130413,16,E,A*1B
$IIVHW,,,,,00.0,N,,*19
$IIVLW,06210,N,000.0,N*56
$IIDPT,001.4,-1.0,*45
$HCHDG,21.6,0.0,E,,*1C
$GPRMC,210123.8,A,4741.22133,N,12225.89979,W,010.18,040.9,130413,016.6,E*46
$YXXDR,A,4.7,D,PTCH,A,-7.8,D,ROLL*7C
$GPRMC,210124.0,A,4741.22173,N,12225.89920,W,010.13,041.6,130413,016.6,E*44
$GPRMC,210124.2,A,4741.22220,N,12225.89867,W,010.15,040.9,130413,016.6,E*49
$PTAK,FFP1,HEEL,@*07
$HCHDG,22.4,0.0,E,,*1D
$YXXDR,A,4.1,D,PTCH,A,-8.2,D,ROLL*7F
$GPRMC,210124.4,A,4741.22262,N,12225.89820,W,009.97,040.7,130413,016.6,E*46
$IIGLL,4741.220,N,12225.900,W,210100,A,A*49
$IIMTW,+08.5,C*35
$GPRMC,210124.6,A,4741.22300,N,12225.89770,W,009.95,042.3,130413,016.6,E*4F
$IIRMC,210100,A,4741.220,N,12225.900,W,10.0,040,130413,16,E,A*13
$IIVHW,,,,,00.0,N,,*19
$IIVLW,06210,N,000.0,N*56
$HCHDG,22.9,0.0,E,,*10
$GPRMC,210124.8,A,4741.22340,N,12225.89713,W,009.90,042.8,130413,016.6,E*4E
$YXXDR,A,3.7,D,PTCH,A,-8.6,D,ROLL*7A
