$PGRME,,M,,M,,M*00
$HCHDG,333.4,0.0,E,,*2E
$PTAK,FFP1,HEEL,@*07
$HCHDG,333.3,0.0,E,,*29
$GPRMC,163925.0,V,4741.53154,N,12224.90323,W,,,210413,016.6,E,N*0D
$PGRME,,M,,M,,M*00
$HCHDG,333.1,0.0,E,,*2B
$YXXDR,A,4.7,D,PTCH,A,0.0,D,ROLL*5E
$PTAK,FFD1,0.0*55
$GPRMC,163925.2,V,4741.53154,N,12224.90323,W,,,210413,016.6,E,N*0F
$PGRME,,M,,M,,M*00
$HCHDG,333.0,0.0,E,,*2A
$HCHDG,333.2,0.0,E,,*28
$HCHDG,333.2,0.0,E,,*28
$GPRMC,163925.4,V,4741.53154,N,12224.90323,W,,,210413,016.6,E,N*09
$PGRME,,M,,M,,M*00
$HCHDG,333.4,0.0,E,,*2E
$HCHDG,333.2,0.0,E,,*28
$GPRMC,163925.6,V,4741.53154,N,12224.90323,W,,,210413,016.6,E,N*0B
$PGRME,,M,,M,,M*00
$YXXDR,A,5.0,D,PTCH,A,0.3,D,ROLL*5B
$HCHDG,333.4,0.0,E,,*2E
$HCHDG,333.6,0.0,E,,*2C
$GPRMC,163925.8,V,4741.53154,N,12224.90323,W,,,210413,016.6,E,N*05
$PGRME,,M,,M,,M*00
$HCHDG,333.5,0.0,E,,*2F
$HCHDG,333.6,0.0,E,,*2C
$GPRMC,163926.0,V,4741.53154,N,12224.90323,W,,,210413,016.6,E,N*0E
$PGRME,,M,,M,,M*00
$HCHDG,333.5,0.0,E,,*2F
$YXXDR,A,4.2,D,PTCH,A,0.3,D,ROLL*58
$IIVHW,,,,,04.2,N,,*1F
$HCHDG,333.2,0.0,E,,*28
$IIVLW,06228,N,000.0,N*5D
$HCHDG,333.1,0.0,E,,*2B
$GPRMC,163926.4,A,4741.81615,N,12224.67706,W,005.31,346.6,210413,016.6,E,A*24
$PGRME,19.3,M,2033.9,M,2034.0,M*1B
$HCHDG,333.1,0.0,E,,*2B
$HCHDG,333.1,0.0,E,,*2B
$GPRMC,163926.6,A,4741.81546,N,12224.67801,W,005.36,347.5,210413,016.6,E,A*2E
$PGRME,12.7,M,782.6,M,782.7,M*1B
$HCHDG,332.9,0.0,E,,*22
$YXXDR,A,5.0,D,PTCH,A,0.1,D,ROLL*59
$HCHDG,332.9,0.0,E,,*22
$GPRMC,163926.8,A,4741.81510,N,12224.67762,W,005.33,348.4,210413,016.6,E,A*22
$PGRME,9.1,M,322.3,M,322.4,M*21
$HCHDG,332.9,0.0,E,,*22
$HCHDG,333.0,0.0,E,,*2A
$GPRMC,163927.0,A,4741.81526,N,12224.67750,W,005.44,348.4,210413,016.6,E,A*2F
$PGRME,8.0,M,300.6,M,300.7,M*27
$HCHDG,332.8,0.0,E,,*23
$HCHDG,332.9,0.0,E,,*22
$GPRMC,163927.2,A,4741.81557,N,12224.67724,W,005.34,348.7,210413,016.6,E,A*2C
$PGRME,7.3,M,286.4,M,286.5,M*2B
$YXXDR,A,5.3,D,PTCH,A,-0.7,D,ROLL*71
$IIVHW,,,,,03.4,N,,*1E
$HCHDG,332.6,0.0,E,,*2D
$IIVLW,06228,N,000.0,N*5D
$HCHDG,332.7,0.0,E,,*2C
$GPRMC,163927.4,A,4741.81573,N,12224.67664,W,005.44,348.1,210413,016.6,E,A*28
$PGRME,6.6,M,273.5,M,273.5,M*2E
$IIGLL,4741.815,N,12224.678,W,163900,A,A*4B
$HCHDG,332.7,0.0,E,,*2C
$IIRMC,163900,A,4741.815,N,12224.678,W,05.3,347,210413,16,E,A*13
$HCHDG,332.5,0.0,E,,*2E
$GPRMC,163927.6,A,4741.81615,N,12224.67633,W,005.46,349.0,210413,016.6,E,A*29
$PGRME,6.0,M,206.9,M,207.0,M*20
$HCHDG,332.5,0.0,E,,*2E
$YXXDR,A,4.6,D,PTCH,A,-0.5,D,ROLL*77
$HCHDG,332.5,0.0,E,,*2E
$GPRMC,163927.8,A,4741.81645,N,12224.67592,W,005.37,348.2,210413,016.6,E,A*2F
$PGRME,5.5,M,167.0,M,167.1,M*2F
$HCHDG,332.5,0.0,E,,*2E
$HCHDG,332.7,0.0,E,,*2C
$GPRMC,163928.0,A,4741.81692,N,12224.67582,W,005.39,347.5,210413,016.6,E,A*25
$GPRMB,A,-0.07,L,,M,4741.7720,N,12224.5760,W,0.1,140,-5.30,V*45
$PGRME,5.1,M,140.3,M,140.4,M*2D
$HCHDG,332.9,0.0,E,,*22
$HCHDG,332.9,0.0,E,,*22
$GPRMC,163928.2,A,4741.81739,N,12224.67545,W,005.38,348.4,210413,016.6,E,A*23
$PGRME,4.9,M,121.0,M,121.1,M*22
$YXXDR,A,4.8,D,PTCH,A,0.0,D,ROLL*51
$PTAK,FFD1,0.0*55
$IIVHW,,,,,02.7,N,,*1C
$HCHDG,332.9,0.0,E,,*22
$IIVLW,06228,N,000.0,N*5D
$HCHDG,332.9,0.0,E,,*22
$GPRMC,163928.4,A,4741.81778,N,12224.67557,W,005.43,347.9,210413,016.6,E,A*2D
$PGRME,4.6,M,114.1,M,114.2,M*2F
$IIGLL,4741.816,N,12224.676,W,163900,A,A*46
$HCHDG,332.9,0.0,E,,*22
$IIRMC,163900,A,4741.816,N,12224.676,W,05.4,349,210413,16,E,A*17
$HCHDG,333.0,0.0,E,,*2A
$GPRMC,163928.6,A,4741.81809,N,12224.67538,W,005.37,348.2,210413,016.6,E,A*28
$PGRME,4.4,M,107.9,M,108.0,M*28
$HCHDG,332.8,0.0,E,,*23
$YXXDR,A,5.1,D,PTCH,A,-0.2,D,ROLL*76
$HCHDG,332.8,0.0,E,,*23
$GPRMC,163928.8,A,4741.81835,N,12224.67554,W,005.39,347.7,210413,016.6,E,A*27
$PGRME,4.3,M,102.5,M,102.5,M*29
$HCHDG,332.8,0.0,E,,*23
$HCHDG,332.9,0.0,E,,*22
$GPRMC,163929.0,A,4741.81861,N,12224.67566,W,005.34,348.1,210413,016.6,E,A*2A
$PGRME,4.1,M,91.8,M,91.9,M*2A
$HCHDG,332.9,0.0,E,,*22
$HCHDG,332.8,0.0,E,,*23
$GPRMC,163929.2,A,4741.81889,N,12224.67600,W,005.38,346.7,210413,016.6,E,A*29
$PGRME,4.0,M,83.4,M,83.5,M*2B
$YXXDR,A,4.9,D,PTCH,A,-0.3,D,ROLL*7E
$IIVHW,,,,,02.2,N,,*19
$HCHDG,332.9,0.0,E,,*22
$IIVLW,06228,N,000.0,N*5D
$HCHDG,333.0,0.0,E,,*2A
$GPRMC,163929.4,A,4741.81912,N,12224.67616,W,005.45,348.4,210413,016.6,E,A*2C
$PGRME,3.9,M,82.0,M,82.1,M*25
$IIGLL,4741.818,N,12224.675,W,163900,A,A*4B
$HCHDG,333.0,0.0,E,,*2A
$IIRMB,A,,,,M   ,,,,,000.1,140,,V,A*7C
$HCHDG,333.0,0.0,E,,*2A
$GPRMC,163929.6,A,4741.81936,N,12224.67665,W,005.34,347.4,210413,016.6,E,A*25
$PGRME,3.7,M,71.6,M,71.7,M*2B
$IIRMC,163900,A,4741.818,N,12224.675,W,05.3,348,210413,16,E,A*1C
$HCHDG,332.8,0.0,E,,*23
$YXXDR,A,4.8,D,PTCH,A,-0.5,D,ROLL*79
$HCHDG,332.8,0.0,E,,*23
$GPRMC,163929.8,A,4741.81960,N,12224.67672,W,005.38,347.8,210413,016.6,E,A*2E
$GPRMB,A,-0.07,L,,M,4741.7720,N,12224.5760,W,0.1,142,-5.31,V*46
$PGRME,3.6,M,66.3,M,66.4,M*2C
$HCHDG,332.7,0.0,E,,*2C
$HCHDG,332.7,0.0,E,,*2C
$GPRMC,163930.0,A,4741.81981,N,12224.67692,W,005.43,347.9,210413,016.6,E,A*22
$PGRME,3.5,M,61.8,M,61.9,M*29
$HCHDG,332.6,0.0,E,,*2D
$HCHDG,332.7,0.0,E,,*2C
$GPRMC,163930.2,A,4741.82013,N,12224.67698,W,005.44,348.6,210413,016.6,E,A*2C
$PGRME,3.4,M,57.9,M,58.0,M*2F
$YXXDR,A,5.0,D,PTCH,A,-1.2,D,ROLL*76
$PTAK,FFD1,1.2*56
$IIVHW,,,,,01.8,N,,*10
$HCHDG,332.6,0.0,E,,*2D
$IIVLW,06228,N,000.0,N*5D
$HCHDG,332.6,0.0,E,,*2D
$GPRMC,163930.4,A,4741.82046,N,12224.67719,W,005.46,348.6,210413,016.6,E,A*20
$PGRME,3.3,M,54.5,M,54.6,M*2D
$IIGLL,4741.819,N,12224.676,W,163900,A,A*49
$HCHDG,332.6,0.0,E,,*2D
$IIRMB,A,,,,M   ,,,,,000.1,140,,V,A*7C
$HCHDG,332.4,0.0,E,,*2F
$GPRMC,163930.6,A,4741.82070,N,12224.67729,W,005.49,348.5,210413,016.6,E,A*28
$PTAK,FFP1,HEEL,@*07
$PGRME,3.3,M,53.3,M,53.4,M*29
$IIRMC,163900,A,4741.819,N,12224.676,W,05.3,347,210413,16,E,A*11
$HCHDG,332.4,0.0,E,,*2F
$YXXDR,A,4.7,D,PTCH,A,-0.9,D,ROLL*7A
$HCHDG,332.4,0.0,E,,*2F
$GPRMC,163930.8,A,4741.82098,N,12224.67748,W,005.48,348.2,210413,016.6,E,A*21
$PGRME,3.2,M,52.2,M,52.3,M*2E
$HCHDG,332.4,0.0,E,,*2F
$HCHDG,332.3,0.0,E,,*28
$GPRMC,163931.0,A,4741.82136,N,12224.67752,W,005.50,348.5,210413,016.6,E,A*28
$GPRMB,A,-0.07,L,,M,4741.7720,N,12224.5760,W,0.1,142,-5.43,V*43
$PGRME,3.1,M,51.2,M,51.3,M*2D
$HCHDG,332.5,0.0,E,,*2E
$HCHDG,332.5,0.0,E,,*2E
$GPRMC,163931.2,A,4741.82175,N,12224.67769,W,005.49,347.5,210413,016.6,E,A*22
$PGRME,3.1,M,50.2,M,50.3,M*2D
$YXXDR,A,5.0,D,PTCH,A,-0.4,D,ROLL*71
$PTAK,FFD1,0.4*51
$HCHDG,332.9,0.0,E,,*22
$HCHDG,332.8,0.0,E,,*23
$GPRMC,163931.4,A,4741.82210,N,12224.67778,W,005.48,347.7,210413,016.6,E,A*27
$PGRME,3.1,M,49.8,M,49.9,M*2D
$HCHDG,332.8,0.0,E,,*23
$HCHDG,332.9,0.0,E,,*22
$GPRMC,163931.6,A,4741.82240,N,12224.67791,W,005.41,347.9,210413,016.6,E,A*20
$PGRME,3.0,M,49.4,M,49.5,M*2C
$HCHDG,332.9,0.0,E,,*22
$YXXDR,A,5.0,D,PTCH,A,-0.3,D,ROLL*76
$HCHDG,332.8,0.0,E,,*23
$GPRMC,163931.8,A,4741.82278,N,12224.67806,W,005.46,348.8,210413,016.6,E,A*2D
$GPRMB,A,-0.07,L,,M,4741.7720,N,12224.5760,W,0.1,143,-5.39,V*4F
$PGRME,3.0,M,46.8,M,46.9,M*2C
$HCHDG,332.8,0.0,E,,*23
$HCHDG,332.8,0.0,E,,*23
$GPRMC,163932.0,A,4741.82313,N,12224.67821,W,005.50,347.7,210413,016.6,E,A*28
$PGRME,3.0,M,44.6,M,44.7,M*2C
$HCHDG,332.6,0.0,E,,*2D
$HCHDG,332.8,0.0,E,,*23
$GPRMC,163932.2,A,4741.82351,N,12224.67839,W,005.47,348.9,210413,016.6,E,A*22
$PGRME,3.0,M,39.1,M,39.2,M*2E
$YXXDR,A,5.1,D,PTCH,A,-0.4,D,ROLL*70
$PTAK,FFD1,0.4*51
$IIVHW,,,,,01.5,N,,*1D
$HCHDG,332.8,0.0,E,,*23
$IIVLW,06228,N,000.0,N*5D
$HCHDG,332.8,0.0,E,,*23
$GPRMC,163932.4,A,4741.82399,N,12224.67833,W,005.54,348.5,210413,016.6,E,A*24
$IIGLL,4741.820,N,12224.677,W,163900,A,A*42
$PGRME,3.0,M,36.6,M,36.7,M*2C
$HCHDG,332.8,0.0,E,,*23
$IIRMB,A,,,,M   ,,,,,000.1,142,,V,A*7E
$HCHDG,332.8,0.0,E,,*23
$GPRMC,163932.6,A,4741.82442,N,12224.67839,W,005.44,347.3,210413,016.6,E,A*25
$PGRME,3.0,M,33.6,M,33.7,M*2C
$IIRMC,163900,A,4741.820,N,12224.677,W,05.4,348,210413,16,E,A*12
$HCHDG,332.9,0.0,E,,*22
$IIVHW,,,,,01.2,N,,*1A
$IIVLW,06228,N,000.0,N*5D
$YXXDR,A,4.5,D,PTCH,A,-0.1,D,ROLL*70
$HCHDG,332.9,0.0,E,,*22
$GPRMC,163932.8,A,4741.82481,N,12224.67853,W,005.57,349.2,210413,016.6,E,A*25
$PGRME,3.0,M,31.3,M,31.5,M*2B
$IIGLL,4741.822,N,12224.677,W,163900,A,A*40
$HCHDG,332.7,0.0,E,,*2C
$HCHDG,333.1,0.0,E,,*2B
$GPRMC,163933.0,A,4741.82518,N,12224.67866,W,005.38,348.4,210413,016.6,E,A*25
$PGRME,3.0,M,28.7,M,28.9,M*23
$HCHDG,333.1,0.0,E,,*2B
$HCHDG,332.8,0.0,E,,*23
$GPRMC,163933.2,A,4741.82548,N,12224.67868,W,005.45,348.4,210413,016.6,E,A*26
$PGRME,3.0,M,26.6,M,26.8,M*23
$YXXDR,A,4.8,D,PTCH,A,-0.6,D,ROLL*7A
$HCHDG,332.7,0.0,E,,*2C
$IIRMB,A,,,,M   ,,,,,000.1,142,,V,A*7E
$HCHDG,332.8,0.0,E,,*23
$GPRMC,163933.4,A,4741.82576,N,12224.67868,W,005.47,347.3,210413,016.6,E,A*27
$PGRME,3.0,M,25.1,M,25.3,M*2F
$IIRMC,163900,A,4741.824,N,12224.678,W,05.4,347,210413,16,E,A*16
$HCHDG,332.8,0.0,E,,*23
$IIVHW,,,,,01.0,N,,*18
$IIVLW,06228,N,000.0,N*5D
$HCHDG,332.8,0.0,E,,*23
$GPRMC,163933.6,A,4741.82614,N,12224.67865,W,005.49,349.1,210413,016.6,E,A*2D
$PGRME,3.0,M,23.9,M,24.1,M*22
$IIGLL,4741.824,N,12224.678,W,163900,A,A*49
$HCHDG,332.6,0.0,E,,*2D
$YXXDR,A,4.6,D,PTCH,A,-0.5,D,ROLL*77
$HCHDG,332.6,0.0,E,,*2D
$GPRMC,163933.8,A,4741.82648,N,12224.67875,W,005.46,347.9,210413,016.6,E,A*22
$PGRME,3.0,M,22.7,M,22.9,M*23
$HCHDG,332.7,0.0,E,,*2C
$HCHDG,332.6,0.0,E,,*2D
$GPRMC,163934.0,A,4741.82682,N,12224.67882,W,005.48,348.3,210413,016.6,E,A*28
$GPRMB,A,-0.07,L,,M,4741.7720,N,12224.5760,W,0.1,145,-5.44,V*43
$PGRME,3.0,M,21.7,M,21.9,M*23
$HCHDG,332.6,0.0,E,,*2D
$HCHDG,332.7,0.0,E,,*2C
$GPRMC,163934.2,A,4741.82716,N,12224.67900,W,005.56,349.7,210413,016.6,E,A*27
$PGRME,3.0,M,20.8,M,21.0,M*24
$YXXDR,A,4.8,D,PTCH,A,-0.5,D,ROLL*79
$PTAK,FFD1,0.5*50
$HCHDG,332.7,0.0,E,,*2C
$IIRMB,A,,,,M   ,,,,,000.1,143,,V,A*7F
$HCHDG,332.7,0.0,E,,*2C
$GPRMC,163934.4,A,4741.82744,N,12224.67907,W,005.40,349.2,210413,016.6,E,A*23
$PGRME,3.0,M,20.0,M,20.2,M*2F
$IIRMC,163900,A,4741.826,N,12224.678,W,05.4,349,210413,16,E,A*1A
$HCHDG,332.7,0.0,E,,*2C
$IIVHW,,,,,00.8,N,,*11
$IIVLW,06228,N,000.0,N*5D
$HCHDG,332.6,0.0,E,,*2D
$GPRMC,163934.6,A,4741.82776,N,12224.67918,W,005.41,348.0,210413,016.6,E,A*2C
$PGRME,3.0,M,19.3,M,19.5,M*2B
$IIGLL,4741.826,N,12224.678,W,163900,A,A*4B
$HCHDG,332.8,0.0,E,,*23
$PTAK,FFP1,HEEL,@*07
$YXXDR,A,5.1,D,PTCH,A,0.0,D,ROLL*59
$HCHDG,332.8,0.0,E,,*23
$GPRMC,163934.8,A,4741.82809,N,12224.67930,W,005.44,348.8,210413,016.6,E,A*22
$PGRME,3.0,M,18.7,M,18.9,M*23
$HCHDG,332.7,0.0,E,,*2C
$HCHDG,332.9,0.0,E,,*22
$GPRMC,163935.0,A,4741.82847,N,12224.67938,W,005.46,348.5,210413,016.6,E,A*26
$PGRME,3.0,M,18.1,M,18.4,M*28
$HCHDG,333.0,0.0,E,,*2A
$HCHDG,333.0,0.0,E,,*2A
$GPRMC,163935.2,A,4741.82880,N,12224.67934,W,005.38,348.3,210413,016.6,E,A*2C
$GPRMB,A,-0.07,L,,M,4741.7720,N,12224.5760,W,0.1,146,-5.35,V*46
$PGRME,3.0,M,17.7,M,18.0,M*25
$YXXDR,A,4.9,D,PTCH,A,0.1,D,ROLL*51
$PTAK,FFD1,0.1*54
$HCHDG,333.2,0.0,E,,*28
$IIRMB,A,,,,M   ,,,,,000.1,145,,V,A*79
$HCHDG,333.4,0.0,E,,*2E
$GPRMC,163935.4,A,4741.82915,N,12224.67933,W,005.51,348.7,210413,016.6,E,A*2B
$PGRME,3.0,M,17.3,M,17.5,M*2B
$IIRMC,163900,A,4741.828,N,12224.679,W,05.4,348,210413,16,E,A*14
$HCHDG,333.3,0.0,E,,*29
$IIVHW,,,,,00.6,N,,*1F
$IIVLW,06228,N,000.0,N*5D
$HCHDG,333.4,0.0,E,,*2E
$GPRMC,163935.6,A,4741.82947,N,12224.67937,W,005.37,348.2,210413,016.6,E,A*2F
$PGRME,3.0,M,16.6,M,16.8,M*23
$IIGLL,4741.828,N,12224.679,W,163900,A,A*44
$HCHDG,333.3,0.0,E,,*29
$IIMTW,+00.0,C*38
$YXXDR,A,5.6,D,PTCH,A,0.0,D,ROLL*5E
$HCHDG,333.3,0.0,E,,*29
$GPRMC,163935.8,A,4741.82986,N,12224.67953,W,005.39,348.6,210413,016.6,E,A*24
$PGRME,3.0,M,15.9,M,16.2,M*25
$HCHDG,333.2,0.0,E,,*28
$HCHDG,333.3,0.0,E,,*29
$GPRMC,163936.0,A,4741.83017,N,12224.67959,W,005.45,348.8,210413,016.6,E,A*20
$PGRME,3.0,M,15.6,M,15.9,M*22
$HCHDG,333.3,0.0,E,,*29
$HCHDG,333.0,0.0,E,,*2A
$GPRMC,163936.2,A,4741.83053,N,12224.67967,W,005.22,348.6,210413,016.6,E,A*20
$PGRME,3.0,M,14.9,M,15.2,M*27
$YXXDR,A,4.8,D,PTCH,A,-0.6,D,ROLL*7A
$HCHDG,333.1,0.0,E,,*2B
$IIRMB,A,,,,M   ,,,,,000.1,146,,V,A*7A
$HCHDG,332.9,0.0,E,,*22
$GPRMC,163936.4,A,4741.83085,N,12224.67973,W,005.32,348.7,210413,016.6,E,A*28
$GPRMB,A,-0.07,L,,M,4741.7720,N,12224.5760,W,0.1,147,-5.30,V*42
$PGRME,3.0,M,14.7,M,15.0,M*2B
$IIRMC,163900,A,4741.829,N,12224.679,W,05.3,348,210413,16,E,A*12
$HCHDG,333.1,0.0,E,,*2B
$IIVHW,,,,,00.5,N,,*1C
$IIVLW,06228,N,000.0,N*5D
$HCHDG,333.0,0.0,E,,*2A
$GPRMC,163936.6,A,4741.83119,N,12224.67986,W,005.35,348.2,210413,016.6,E,A*26
$PGRME,3.0,M,14.1,M,14.4,M*28
$IIGLL,4741.829,N,12224.679,W,163900,A,A*45
$HCHDG,332.8,0.0,E,,*23
$IIMTW,+08.0,C*30
$YXXDR,A,4.5,D,PTCH,A,-1.1,D,ROLL*71
$PTAK,FFD1,1.1*55
$HCHDG,333.0,0.0,E,,*2A
$GPRMC,163936.8,A,4741.83149,N,12224.67996,W,005.33,349.3,210413,016.6,E,A*2A
$PGRME,3.0,M,13.8,M,14.2,M*20
$HCHDG,333.0,0.0,E,,*2A
$HCHDG,332.8,0.0,E,,*23
$GPRMC,163937.0,A,4741.83176,N,12224.67998,W,005.43,348.4,210413,016.6,E,A*20
$PGRME,3.0,M,13.6,M,14.0,M*2C
$HCHDG,332.9,0.0,E,,*22
$HCHDG,332.9,0.0,E,,*22
$GPRMC,163937.2,A,4741.83210,N,12224.68002,W,005.32,349.3,210413,016.6,E,A*24
$PGRME,3.0,M,13.4,M,13.8,M*21
$YXXDR,A,4.5,D,PTCH,A,-1.2,D,ROLL*72
$HCHDG,333.1,0.0,E,,*2B
$IIRMB,A,,,,M   ,,,,,000.1,147,,V,A*7B
$HCHDG,332.8,0.0,E,,*23
$GPRMC,163937.4,A,4741.83236,N,12224.68016,W,005.46,349.1,210413,016.6,E,A*22
$PGRME,3.0,M,13.2,M,13.5,M*2A
$IIRMC,163900,A,4741.829,N,12224.679,W,05.3,348,210413,16,E,A*12
$HCHDG,332.9,0.0,E,,*22
$IIVHW,,,,,00.4,N,,*1D
$IIVLW,06228,N,000.0,N*5D
$HCHDG,332.9,0.0,E,,*22
$GPRMC,163937.6,A,4741.83268,N,12224.68018,W,005.41,349.7,210413,016.6,E,A*24
$GPRMB,A,-0.07,L,,M,4741.7720,N,12224.5760,W,0.1,147,-5.38,V*4A
$PGRME,3.0,M,13.0,M,13.3,M*2E
$IIGLL,4741.829,N,12224.679,W,163900,A,A*45
$HCHDG,333.0,0.0,E,,*2A
$IIMTW,+08.5,C*35
$YXXDR,A,4.7,D,PTCH,A,-0.8,D,ROLL*7B
$PTAK,FFD1,0.8*5D
$HCHDG,333.1,0.0,E,,*2B
$GPRMC,163937.8,A,4741.83303,N,12224.68025,W,005.31,349.7,210413,016.6,E,A*2F
$PGRME,3.0,M,12.7,M,13.0,M*2B
$HCHDG,333.5,0.0,E,,*2F
$HCHDG,333.3,0.0,E,,*29
$GPRMC,163938.0,A,4741.83331,N,12224.68031,W,005.32,347.9,210413,016.6,E,A*2F
$PGRME,3.0,M,12.4,M,12.8,M*21
$HCHDG,333.4,0.0,E,,*2E
$HCHDG,333.4,0.0,E,,*2E
$GPRMC,163938.2,A,4741.83365,N,12224.68039,W,005.39,349.3,210413,016.6,E,A*2B
$PGRME,3.0,M,12.2,M,12.6,M*29
$YXXDR,A,4.8,D,PTCH,A,-0.6,D,ROLL*7A
$HCHDG,333.4,0.0,E,,*2E
$IIRMB,A,,,,M   ,,,,,000.1,147,,V,A*7B
$HCHDG,333.1,0.0,E,,*2B
$GPRMC,163938.4,A,4741.83403,N,12224.68047,W,005.27,349.6,210413,016.6,E,A*29
$PGRME,3.0,M,11.9,M,12.3,M*24
$IIRMC,163900,A,4741.831,N,12224.679,W,05.4,348,210413,16,E,A*1C
$HCHDG,333.1,0.0,E,,*2B
$IIVHW,,,,,00.3,N,,*1A
$IIVLW,06228,N,000.0,N*5D
$HCHDG,333.3,0.0,E,,*29
$GPRMC,163938.6,A,4741.83437,N,12224.68050,W,005.40,349.1,210413,016.6,E,A*2C
$PGRME,3.0,M,11.7,M,12.1,M*28
$IIGLL,4741.831,N,12224.679,W,163900,A,A*4C
$HCHDG,333.4,0.0,E,,*2E
$PTAK,FFP1,HEEL,@*07
$IIMTW,+08.5,C*35
$YXXDR,A,5.1,D,PTCH,A,-0.4,D,ROLL*70
$HCHDG,333.2,0.0,E,,*28
$GPRMC,163938.8,A,4741.83472,N,12224.68063,W,005.34,349.2,210413,016.6,E,A*23
$GPRMB,A,-0.07,L,,M,4741.7720,N,12224.5760,W,0.1,148,-5.32,V*4F
$PGRME,3.0,M,11.4,M,11.8,M*21
$HCHDG,333.4,0.0,E,,*2E
$HCHDG,333.2,0.0,E,,*28
$GPRMC,163939.0,A,4741.83504,N,12224.68062,W,005.39,349.4,210413,016.6,E,A*20
$PGRME,3.0,M,11.2,M,11.6,M*29
$HCHDG,333.5,0.0,E,,*2F
$HCHDG,333.4,0.0,E,,*2E
$GPRMC,163939.2,A,4741.83535,N,12224.68069,W,005.40,349.2,210413,016.6,E,A*23
$PGRME,3.0,M,10.9,M,11.3,M*26
$YXXDR,A,4.8,D,PTCH,A,-0.1,D,ROLL*7D
$PTAK,FFD1,0.1*54
$HCHDG,333.4,0.0,E,,*2E
$IIRMB,A,,,,M   ,,,,,000.1,148,,V,A*74
$HCHDG,333.3,0.0,E,,*29
$GPRMC,163939.4,A,4741.83569,N,12224.68075,W,005.32,349.6,210413,016.6,E,A*20
$PGRME,3.0,M,10.7,M,11.1,M*2A
$IIRMC,163900,A,4741.833,N,12224.680,W,05.3,347,210413,16,E,A*10
$HCHDG,333.3,0.0,E,,*29
$IIVHW,,,,,00.2,N,,*1B
$IIVLW,06228,N,000.0,N*5D
$HCHDG,333.7,0.0,E,,*2D
$GPRMC,163939.6,A,4741.83598,N,12224.68086,W,005.33,349.1,210413,016.6,E,A*26
$PGRME,3.0,M,10.5,M,10.9,M*21
$IIGLL,4741.833,N,12224.680,W,163900,A,A*48
$HCHDG,333.6,0.0,E,,*2C
$IIMTW,+08.5,C*35
$YXXDR,A,3.9,D,PTCH,A,0.0,D,ROLL*57
$HCHDG,333.6,0.0,E,,*2C
$GPRMC,163939.8,A,4741.83627,N,12224.68090,W,005.40,348.9,210413,016.6,E,A*25
$GPRMB,A,-0.07,L,,M,4741.7720,N,12224.5760,W,0.1,149,-5.39,V*45
$PGRME,3.0,M,10.3,M,10.8,M*26
$HCHDG,333.6,0.0,E,,*2C
$HCHDG,334.0,0.0,E,,*2D
$GPRMC,163940.0,A,4741.83657,N,12224.68105,W,005.41,348.9,210413,016.6,E,A*28
$PGRME,3.0,M,10.1,M,10.6,M*2A
$HCHDG,334.0,0.0,E,,*2D
$HCHDG,334.0,0.0,E,,*2D
$GPRMC,163940.2,A,4741.83691,N,12224.68121,W,005.41,349.2,210413,016.6,E,A*2C
$PGRME,3.0,M,10.0,M,10.4,M*29
$YXXDR,A,4.5,D,PTCH,A,-0.2,D,ROLL*73
$HCHDG,333.9,0.0,E,,*23
$IIRMB,A,,,,M   ,,,,,000.1,149,,V,A*75
$HCHDG,334.0,0.0,E,,*2D
$GPRMC,163940.4,A,4741.83725,N,12224.68130,W,005.35,348.8,210413,016.6,E,A*2C
$PGRME,3.0,M,9.8,M,10.2,M*1F
$IIRMC,163900,A,4741.835,N,12224.680,W,05.3,349,210413,16,E,A*18
$HCHDG,333.8,0.0,E,,*22
$IIVHW,,,,,00.2,N,,*1B
$IIVLW,06228,N,000.0,N*5D
$HCHDG,333.9,0.0,E,,*23
$GPRMC,163940.6,A,4741.83756,N,12224.68140,W,005.42,349.3,210413,016.6,E,A*27
$PGRME,3.0,M,9.6,M,10.1,M*12
$IIGLL,4741.835,N,12224.680,W,163900,A,A*4E
$HCHDG,333.7,0.0,E,,*2D
$IIMTW,+08.5,C*35
$YXXDR,A,4.5,D,PTCH,A,-0.8,D,ROLL*79
$PTAK,FFD1,0.8*5D
$HCHDG,333.8,0.0,E,,*22
$GPRMC,163940.8,A,4741.83782,N,12224.68145,W,005.44,349.8,210413,016.6,E,A*28
$PGRME,3.0,M,9.4,M,9.9,M*20
$HCHDG,333.4,0.0,E,,*2E
$HCHDG,333.6,0.0,E,,*2C
$GPRMC,163941.0,A,4741.83815,N,12224.68143,W,005.41,349.6,210413,016.6,E,A*2D
$GPRMB,A,-0.07,L,,M,4741.7720,N,12224.5760,W,0.1,150,-5.40,V*43
$PGRME,3.0,M,9.3,M,9.8,M*26
$HCHDG,333.5,0.0,E,,*2F
$HCHDG,333.6,0.0,E,,*2C
$GPRMC,163941.2,A,4741.83850,N,12224.68144,W,005.41,349.2,210413,016.6,E,A*2D
$PGRME,3.0,M,9.2,M,9.6,M*29
$YXXDR,A,5.1,D,PTCH,A,-1.0,D,ROLL*75
$HCHDG,333.8,0.0,E,,*22
$IIRMB,A,,,,M   ,,,,,000.1,149,,V,A*75
$HCHDG,333.9,0.0,E,,*23
$GPRMC,163941.4,A,4741.83886,N,12224.68152,W,005.46,349.6,210413,016.6,E,A*24
$PGRME,3.0,M,9.0,M,9.5,M*28
$IIRMC,163900,A,4741.836,N,12224.681,W,05.4,348,210413,16,E,A*1C
$HCHDG,334.0,0.0,E,,*2D
$IIVHW,,,,,00.1,N,,*18
$IIVLW,06228,N,000.0,N*5D
$HCHDG,333.7,0.0,E,,*2D
$GPRMC,163941.6,A,4741.83919,N,12224.68166,W,005.43,349.5,210413,016.6,E,A*20
$PGRME,3.0,M,8.9,M,9.4,M*21
$IIGLL,4741.836,N,12224.681,W,163900,A,A*4C
$HCHDG,333.9,0.0,E,,*23
$IIMTW,+08.5,C*35
$YXXDR,A,5.1,D,PTCH,A,-0.7,D,ROLL*73
$HCHDG,334.1,0.0,E,,*2C
$GPRMC,163941.8,A,4741.83951,N,12224.68171,W,005.46,350.2,210413,016.6,E,A*2E
$PGRME,3.0,M,8.8,M,9.3,M*27
$HCHDG,334.3,0.0,E,,*2E
$HCHDG,334.3,0.0,E,,*2E
$GPRMC,163942.0,A,4741.83984,N,12224.68175,W,005.48,350.2,210413,016.6,E,A*27
$GPRMB,A,-0.07,L,,M,4741.7720,N,12224.5760,W,0.1,150,-5.47,V*44
$PGRME,3.0,M,8.7,M,9.2,M*29
$HCHDG,334.4,0.0,E,,*29
$HCHDG,334.6,0.0,E,,*2B
$GPRMC,163942.2,A,4741.84014,N,12224.68182,W,005.48,350.1,210413,016.6,E,A*29
$PGRME,3.0,M,8.6,M,9.1,M*2B
$YXXDR,A,5.5,D,PTCH,A,-0.4,D,ROLL*74
$PTAK,FFD1,0.4*51
$HCHDG,334.5,0.0,E,,*28
$IIRMB,A,,,,M   ,,,,,000.1,150,,V,A*7D
$HCHDG,334.2,0.0,E,,*2F
$GPRMC,163942.4,A,4741.84043,N,12224.68192,W,005.50,350.5,210413,016.6,E,A*21
$PGRME,3.0,M,8.4,M,9.0,M*28
$IIRMC,163900,A,4741.838,N,12224.681,W,05.4,349,210413,16,E,A*13
$HCHDG,334.1,0.0,E,,*2C
$IIVHW,,,,,00.1,N,,*18
$IIVLW,06228,N,000.0,N*5D
$HCHDG,334.2,0.0,E,,*2F
$GPRMC,163942.6,A,4741.84076,N,12224.68209,W,005.41,349.5,210413,016.6,E,A*2C
$PGRME,3.0,M,8.3,M,8.9,M*27
$IIGLL,4741.838,N,12224.681,W,163900,A,A*42
$HCHDG,334.2,0.0,E,,*2F
$PTAK,FFP1,HEEL,@*07
$IIMTW,+08.5,C*35
$YXXDR,A,4.4,D,PTCH,A,-0.3,D,ROLL*73
$HCHDG,334.1,0.0,E,,*2C
$GPRMC,163942.8,A,4741.84106,N,12224.68216,W,005.41,350.1,210413,016.6,E,A*26
$PGRME,3.0,M,8.2,M,8.7,M*28
$HCHDG,334.0,0.0,E,,*2D
$HCHDG,333.9,0.0,E,,*23
$GPRMC,163943.0,A,4741.84133,N,12224.68225,W,005.33,349.5,210413,016.6,E,A*20
$GPRMB,A,-0.07,L,,M,4741.7720,N,12224.5760,W,0.1,151,-5.33,V*46
$PGRME,3.0,M,8.1,M,8.6,M*2A
$HCHDG,334.1,0.0,E,,*2C
$HCHDG,334.1,0.0,E,,*2C
$GPRMC,163943.2,A,4741.84163,N,12224.68232,W,005.46,349.9,210413,016.6,E,A*2F
$PGRME,3.0,M,8.0,M,8.6,M*2B
$YXXDR,A,4.5,D,PTCH,A,-0.2,D,ROLL*73
$PTAK,FFD1,0.2*57
$HCHDG,334.0,0.0,E,,*2D
$IIRMB,A,,,,M   ,,,,,000.1,150,,V,A*7D
$HCHDG,334.3,0.0,E,,*2E
$GPRMC,163943.4,A,4741.84197,N,12224.68235,W,005.35,348.7,210413,016.6,E,A*2E
$PGRME,3.0,M,7.9,M,8.5,M*2E
$IIRMC,163900,A,4741.839,N,12224.681,W,05.4,350,210413,16,E,A*1A
$HCHDG,334.2,0.0,E,,*2F
$IIVHW,,,,,00.1,N,,*18
$IIVLW,06228,N,000.0,N*5D
$HCHDG,334.2,0.0,E,,*2F
$GPRMC,163943.6,A,4741.84230,N,12224.68237,W,005.39,349.9,210413,016.6,E,A*23
$PGRME,3.0,M,7.8,M,8.4,M*2E
$IIGLL,4741.839,N,12224.681,W,163900,A,A*43
$HCHDG,334.2,0.0,E,,*2F
$IIMTW,+08.5,C*35
$YXXDR,A,5.0,D,PTCH,A,-0.1,D,ROLL*74
$HCHDG,334.2,0.0,E,,*2F
$GPRMC,163943.8,A,4741.84259,N,12224.68237,W,005.35,349.4,210413,016.6,E,A*23
$PGRME,3.0,M,7.7,M,8.3,M*26
$HCHDG,334.3,0.0,E,,*2E
$HCHDG,334.4,0.0,E,,*29
$GPRMC,163944.0,A,4741.84287,N,12224.68246,W,005.40,349.8,210413,016.6,E,A*27
$GPRMB,A,-0.07,L,,M,4741.7720,N,12224.5760,W,0.1,151,-5.40,V*42
$PGRME,3.0,M,7.6,M,8.2,M*26
$PGRMT,GPS 18x-5Hz software ver. 3.20,,,,,,,,*30
$HCHDG,334.4,0.0,E,,*29
$HCHDG,334.1,0.0,E,,*2C
$GPRMC,163944.2,A,4741.84316,N,12224.68253,W,005.31,349.9,210413,016.6,E,A*2F
$PGRME,3.0,M,7.5,M,8.1,M*26
$YXXDR,A,4.8,D,PTCH,A,-0.6,D,ROLL*7A
$PTAK,FFD1,0.6*53
$HCHDG,334.2,0.0,E,,*2F
$IIRMB,A,,,,M   ,,,,,000.1,151,,V,A*7C
$HCHDG,334.2,0.0,E,,*2F
$GPRMC,163944.4,A,4741.84348,N,12224.68258,W,005.45,350.0,210413,016.6,E,A*2B
$PGRME,3.0,M,7.4,M,8.0,M*26
$IIRMC,163900,A,4741.841,N,12224.682,W,05.3,349,210413,16,E,A*19
$HCHDG,334.2,0.0,E,,*2F
$IIVHW,,,,,00.1,N,,*18
$IIVLW,06228,N,000.0,N*5D
$HCHDG,334.2,0.0,E,,*2F
$GPRMC,163944.6,A,4741.84383,N,12224.68265,W,005.36,349.7,210413,016.6,E,A*2B
$PGRME,3.0,M,7.3,M,7.9,M*27
$IIGLL,4741.841,N,12224.682,W,163900,A,A*4F
$HCHDG,334.3,0.0,E,,*2E
$IIMTW,+08.5,C*35
$YXXDR,A,4.8,D,PTCH,A,-0.3,D,ROLL*7F
$HCHDG,334.4,0.0,E,,*29
$GPRMC,163944.8,A,4741.84417,N,12224.68272,W,005.48,350.8,210413,016.6,E,A*27
$PGRME,3.0,M,7.3,M,7.9,M*27
$HCHDG,334.4,0.0,E,,*29
$HCHDG,334.5,0.0,E,,*28
$GPRMC,163945.0,A,4741.84452,N,12224.68274,W,005.43,351.0,210413,016.6,E,A*2B
$GPRMB,A,-0.07,L,,M,4741.7720,N,12224.5760,W,0.1,152,-5.42,V*43
$PGRME,3.0,M,7.2,M,7.8,M*27
$HCHDG,334.5,0.0,E,,*28
$HCHDG,334.6,0.0,E,,*2B
$GPRMC,163945.2,A,4741.84482,N,12224.68278,W,005.44,350.5,210413,016.6,E,A*2B
$PGRME,3.0,M,7.1,M,7.7,M*2B
$YXXDR,A,5.2,D,PTCH,A,-0.5,D,ROLL*72
$HCHDG,334.7,0.0,E,,*2A
$IIRMB,A,,,,M   ,,,,,000.1,151,,V,A*7C
$HCHDG,334.4,0.0,E,,*29
$GPRMC,163945.4,A,4741.84512,N,12224.68285,W,005.41,349.9,210413,016.6,E,A*26
$PGRME,3.0,M,7.0,M,7.7,M*2A
$IIRMC,163900,A,4741.842,N,12224.682,W,05.4,349,210413,16,E,A*1D
$HCHDG,334.4,0.0,E,,*29
$IIVHW,,,,,00.0,N,,*19
$IIVLW,06228,N,000.0,N*5D
$HCHDG,334.2,0.0,E,,*2F
$GPRMC,163945.6,A,4741.84547,N,12224.68293,W,005.49,351.0,210413,016.6,E,A*2B
$PGRME,3.0,M,6.9,M,7.6,M*23
$IIGLL,4741.842,N,12224.682,W,163900,A,A*4C
$HCHDG,334.2,0.0,E,,*2F
$IIMTW,+08.5,C*35
$YXXDR,A,5.4,D,PTCH,A,-1.0,D,ROLL*70
$PTAK,FFD1,1.0*54
$HCHDG,334.2,0.0,E,,*2F
$GPRMC,163945.8,A,4741.84578,N,12224.68302,W,005.39,350.1,210413,016.6,E,A*27
$PGRME,3.0,M,6.9,M,7.6,M*23
$HCHDG,334.2,0.0,E,,*2F
$HCHDG,334.2,0.0,E,,*2F
$GPRMC,163946.0,A,4741.84613,N,12224.68312,W,005.47,350.7,210413,016.6,E,A*2C
$PGRME,3.0,M,6.8,M,7.5,M*21
$HCHDG,334.2,0.0,E,,*2F
$HCHDG,334.4,0.0,E,,*29
$GPRMC,163946.2,A,4741.84643,N,12224.68325,W,005.35,349.1,210413,016.6,E,A*24
$GPRMB,A,-0.07,L,,M,4741.7720,N,12224.5760,W,0.1,152,-5.35,V*43
$PGRME,3.0,M,6.8,M,7.4,M*20
$YXXDR,A,4.9,D,PTCH,A,-0.7,D,ROLL*7A
$HCHDG,334.4,0.0,E,,*29
$IIRMB,A,,,,M   ,,,,,000.1,151,,V,A*7C
$HCHDG,334.4,0.0,E,,*29
$GPRMC,163946.4,A,4741.84675,N,12224.68332,W,005.50,350.6,210413,016.6,E,A*2D
$PGRME,3.0,M,6.7,M,7.4,M*2F
$IIRMC,163900,A,4741.844,N,12224.682,W,05.4,351,210413,16,E,A*12
$HCHDG,334.4,0.0,E,,*29
$IIVHW,,,,,00.0,N,,*19
$IIVLW,06228,N,000.0,N*5D
$HCHDG,334.4,0.0,E,,*29
$GPRMC,163946.6,A,4741.84706,N,12224.68340,W,005.47,350.1,210413,016.6,E,A*2E
$PGRME,3.0,M,6.6,M,7.3,M*29
$IIGLL,4741.844,N,12224.682,W,163900,A,A*4A
$HCHDG,334.4,0.0,E,,*29
$PTAK,FFP1,HEEL,@*07
$IIMTW,+08.5,C*35
$YXXDR,A,4.7,D,PTCH,A,-0.6,D,ROLL*75
$PTAK,FFD1,0.6*53
$HCHDG,334.4,0.0,E,,*29
$GPRMC,163946.8,A,4741.84738,N,12224.68345,W,005.48,350.7,210413,016.6,E,A*21
$PGRME,3.0,M,6.6,M,7.2,M*28
$HCHDG,334.4,0.0,E,,*29
$HCHDG,334.4,0.0,E,,*29
$GPRMC,163947.0,A,4741.84769,N,12224.68346,W,005.45,349.4,210413,016.6,E,A*29
$PGRME,3.0,M,6.5,M,7.2,M*2B
$HCHDG,334.2,0.0,E,,*2F
$HCHDG,334.3,0.0,E,,*2E
$GPRMC,163947.2,A,4741.84799,N,12224.68354,W,005.50,350.6,210413,016.6,E,A*29
$PGRME,3.0,M,6.4,M,7.1,M*29
$YXXDR,A,4.8,D,PTCH,A,-0.5,D,ROLL*79
$HCHDG,334.3,0.0,E,,*2E
$IIRMB,A,,,,M   ,,,,,000.1,152,,V,A*7F
$HCHDG,334.6,0.0,E,,*2B
$GPRMC,163947.4,A,4741.84829,N,12224.68357,W,005.49,350.2,210413,016.6,E,A*24
$GPRMB,A,-0.07,L,,M,4741.7720,N,12224.5760,W,0.1,153,-5.49,V*49
$PGRME,3.0,M,6.4,M,7.1,M*29
$IIRMC,163900,A,4741.846,N,12224.683,W,05.4,350,210413,16,E,A*10
$HCHDG,334.6,0.0,E,,*2B
$IIVHW,,,,,00.0,N,,*19
$IIVLW,06228,N,000.0,N*5D
$HCHDG,334.6,0.0,E,,*2B
$GPRMC,163947.6,A,4741.84858,N,12224.68357,W,005.52,351.1,210413,016.6,E,A*28
$PGRME,3.0,M,6.3,M,7.0,M*2F
$IIGLL,4741.846,N,12224.683,W,163900,A,A*49
$HCHDG,334.4,0.0,E,,*29
$IIMTW,+08.5,C*35
$YXXDR,A,4.8,D,PTCH,A,-0.5,D,ROLL*79
$PTAK,FFD1,0.5*50
$HCHDG,334.4,0.0,E,,*29
$GPRMC,163947.8,A,4741.84886,N,12224.68358,W,005.52,350.7,210413,016.6,E,A*2D
$PGRME,3.0,M,6.3,M,7.0,M*2F
$HCHDG,334.4,0.0,E,,*29
$HCHDG,334.7,0.0,E,,*2A
$GPRMC,163948.0,A,4741.84918,N,12224.68366,W,005.52,350.2,210413,016.6,E,A*24
$PGRME,3.0,M,6.3,M,7.0,M*2F
$HCHDG,334.6,0.0,E,,*2B
$HCHDG,334.5,0.0,E,,*28
$GPRMC,163948.2,A,4741.84953,N,12224.68378,W,005.48,350.7,210413,016.6,E,A*28
$PGRME,3.0,M,6.2,M,6.9,M*26
$YXXDR,A,4.6,D,PTCH,A,-0.5,D,ROLL*77
$HCHDG,334.5,0.0,E,,*28
$IIRMB,A,,,,M   ,,,,,000.1,153,,V,A*7E
$HCHDG,334.4,0.0,E,,*29
$GPRMC,163948.4,A,4741.84984,N,12224.68384,W,005.53,350.9,210413,016.6,E,A*23
$GPRMB,A,-0.07,L,,M,4741.7720,N,12224.5760,W,0.1,154,-5.53,V*45
$PGRME,3.0,M,6.2,M,6.9,M*26
$IIRMC,163900,A,4741.847,N,12224.683,W,05.4,349,210413,16,E,A*19
$HCHDG,334.4,0.0,E,,*29
$IIVHW,,,,,00.0,N,,*19
$IIVLW,06228,N,000.0,N*5D
$HCHDG,334.3,0.0,E,,*2E
$GPRMC,163948.6,A,4741.85016,N,12224.68391,W,005.52,350.8,210413,016.6,E,A*26
$PGRME,3.0,M,6.1,M,6.8,M*24
$IIGLL,4741.847,N,12224.683,W,163900,A,A*48
$HCHDG,334.3,0.0,E,,*2E
$IIMTW,+08.5,C*35
$YXXDR,A,4.9,D,PTCH,A,-0.6,D,ROLL*7B
$PTAK,FFD1,0.6*53
$HCHDG,334.4,0.0,E,,*29
$GPRMC,163948.8,A,4741.85044,N,12224.68395,W,005.51,350.1,210413,016.6,E,A*21
$PGRME,3.0,M,6.1,M,6.8,M*24
$HCHDG,334.3,0.0,E,,*2E
$HCHDG,334.5,0.0,E,,*28
$GPRMC,163949.0,A,4741.85075,N,12224.68410,W,005.46,350.0,210413,016.6,E,A*27
$PGRME,3.0,M,6.1,M,6.8,M*24
$HCHDG,334.5,0.0,E,,*28
$HCHDG,334.7,0.0,E,,*2A
$GPRMC,163949.2,A,4741.85105,N,12224.68421,W,005.52,351.2,210413,016.6,E,A*27
$PGRME,3.0,M,6.0,M,6.7,M*2A
$YXXDR,A,5.4,D,PTCH,A,-0.5,D,ROLL*74
$IIRMB,A,,,,M   ,,,,,000.1,154,,V,A*79
$HCHDG,334.4,0.0,E,,*29
$HCHDG,334.4,0.0,E,,*29
$GPRMC,163949.4,A,4741.85140,N,12224.68425,W,005.48,351.4,210413,016.6,E,A*29
$PGRME,3.0,M,6.0,M,6.7,M*2A
$IIRMC,163900,A,4741.849,N,12224.683,W,05.5,350,210413,16,E,A*1E
$HCHDG,334.3,0.0,E,,*2E
$IIVHW,,,,,00.0,N,,*19
$IIVLW,06228,N,000.0,N*5D
$HCHDG,334.1,0.0,E,,*2C
$GPRMC,163949.6,A,4741.85171,N,12224.68432,W,005.55,351.4,210413,016.6,E,A*23
$GPRMB,A,-0.07,L,,M,4741.7720,N,12224.5760,W,0.1,154,-5.55,V*43
$PGRME,3.0,M,5.9,M,6.7,M*20
$IIGLL,4741.849,N,12224.683,W,163900,A,A*46
$HCHDG,334.0,0.0,E,,*2D
$IIMTW,+08.5,C*35
$YXXDR,A,4.6,D,PTCH,A,-1.0,D,ROLL*73
$PTAK,FFD1,1.0*54
$HCHDG,334.2,0.0,E,,*2F
$GPRMC,163949.8,A,4741.85205,N,12224.68438,W,005.42,350.5,210413,016.6,E,A*21
$PGRME,3.0,M,5.9,M,6.6,M*21
$HCHDG,334.2,0.0,E,,*2F
$HCHDG,334.6,0.0,E,,*2B
$GPRMC,163950.0,A,4741.85241,N,12224.68450,W,005.43,350.4,210413,016.6,E,A*2F
$PGRME,3.0,M,5.8,M,6.6,M*20
$HCHDG,334.6,0.0,E,,*2B
$HCHDG,334.2,0.0,E,,*2F
$GPRMC,163950.2,A,4741.85272,N,12224.68453,W,005.43,350.5,210413,016.6,E,A*2F
$PGRME,3.0,M,5.8,M,6.6,M*20
$YXXDR,A,4.7,D,PTCH,A,-0.8,D,ROLL*7B
$HCHDG,334.2,0.0,E,,*2F
$IIRMB,A,,,,M   ,,,,,000.1,154,,V,A*79
$HCHDG,334.2,0.0,E,,*2F
$GPRMC,163950.4,A,4741.85303,N,12224.68459,W,005.46,351.1,210413,016.6,E,A*24
$PGRME,3.0,M,5.8,M,6.5,M*23
$IIRMC,163900,A,4741.850,N,12224.684,W,05.4,350,210413,16,E,A*10
$HCHDG,334.2,0.0,E,,*2F
$IIVHW,,,,,00.0,N,,*19
$IIVLW,06228,N,000.0,N*5D
$HCHDG,334.0,0.0,E,,*2D
$IIDPT,047.7,-1.0,*44
$GPRMC,163950.6,A,4741.85331,N,12224.68466,W,005.45,350.4,210413,016.6,E,A*2C
$GPRMB,A,-0.07,L,,M,4741.7720,N,12224.5760,W,0.1,155,-5.45,V*43
$PGRME,3.0,M,5.8,M,6.5,M*23
$HCHDG,334.1,0.0,E,,*2C
$PTAK,FFP1,HEEL,@*07
$IIGLL,4741.850,N,12224.684,W,163900,A,A*49
$IIMTW,+08.5,C*35
$YXXDR,A,5.0,D,PTCH,A,-0.8,D,ROLL*7D
$PTAK,FFD1,0.8*5D
$HCHDG,334.1,0.0,E,,*2C
$GPRMC,163950.8,A,4741.85359,N,12224.68474,W,005.47,350.7,210413,016.6,E,A*2E
$PGRME,3.0,M,5.7,M,6.5,M*2C
$HCHDG,334.1,0.0,E,,*2C
$HCHDG,334.4,0.0,E,,*29
$GPRMC,163951.0,A,4741.85394,N,12224.68475,W,005.50,351.4,210413,016.6,E,A*23
$PGRME,3.0,M,5.7,M,6.4,M*2D
$HCHDG,334.4,0.0,E,,*29
$HCHDG,334.5,0.0,E,,*28
$GPRMC,163951.2,A,4741.85425,N,12224.68483,W,005.46,350.2,210413,016.6,E,A*25
$PGRME,3.0,M,5.6,M,6.4,M*2C
$YXXDR,A,4.3,D,PTCH,A,-0.3,D,ROLL*74
$HCHDG,334.5,0.0,E,,*28
$IIRMB,A,,,,M   ,,,,,000.1,155,,V,A*78
$HCHDG,334.4,0.0,E,,*29
$GPRMC,163951.4,A,4741.85451,N,12224.68490,W,005.50,350.9,210413,016.6,E,A*2E
$PGRME,3.0,M,5.6,M,6.4,M*2C
$IIRMC,163900,A,4741.852,N,12224.684,W,05.4,350,210413,16,E,A*12
$HCHDG,334.5,0.0,E,,*28
$IIVHW,,,,,00.0,N,,*19
$IIVLW,06228,N,000.0,N*5D
$HCHDG,334.4,0.0,E,,*29
$IIDPT,047.9,-1.0,*4A
$GPRMC,163951.6,A,4741.85484,N,12224.68490,W,005.48,351.7,210413,016.6,E,A*22
$PGRME,3.0,M,5.6,M,6.4,M*2C
$HCHDG,334.5,0.0,E,,*28
$IIGLL,4741.852,N,12224.684,W,163900,A,A*4B
$IIMTW,+08.5,C*35
$YXXDR,A,5.3,D,PTCH,A,-0.4,D,ROLL*72
$HCHDG,334.8,0.0,E,,*25
$GPRMC,163951.8,A,4741.85517,N,12224.68490,W,005.54,351.8,210413,016.6,E,A*25
$GPRMB,A,-0.07,L,,M,4741.7720,N,12224.5760,W,0.1,155,-5.54,V*43
$PGRME,3.0,M,5.6,M,6.3,M*2B
$HCHDG,334.7,0.0,E,,*2A
$HCHDG,334.6,0.0,E,,*2B
$GPRMC,163952.0,A,4741.85550,N,12224.68488,W,005.53,350.6,210413,016.6,E,A*2C
$PGRME,3.0,M,5.5,M,6.3,M*28
$HCHDG,334.7,0.0,E,,*2A
$HCHDG,334.6,0.0,E,,*2B
$GPRMC,163952.2,A,4741.85581,N,12224.68490,W,005.51,350.2,210413,016.6,E,A*2D
$PGRME,3.0,M,5.5,M,6.3,M*28
$YXXDR,A,4.7,D,PTCH,A,-0.2,D,ROLL*71
$PTAK,FFD1,0.2*57
$HCHDG,334.8,0.0,E,,*25
$HCHDG,334.7,0.0,E,,*2A
$GPRMC,163952.4,A,4741.85612,N,12224.68495,W,005.45,351.1,210413,016.6,E,A*20
$PGRME,3.0,M,5.5,M,6.2,M*29
$HCHDG,334.6,0.0,E,,*2B
$HCHDG,334.8,0.0,E,,*25
$GPRMC,163952.6,A,4741.85649,N,12224.68501,W,005.55,351.0,210413,016.6,E,A*20
$PGRME,3.0,M,5.4,M,6.2,M*28
$HCHDG,334.7,0.0,E,,*2A
$YXXDR,A,4.3,D,PTCH,A,0.0,D,ROLL*5A
$HCHDG,334.7,0.0,E,,*2A
$GPRMC,163952.8,A,4741.85677,N,12224.68513,W,005.35,349.7,210413,016.6,E,A*28
$GPRMB,A,-0.07,L,,M,4741.7720,N,12224.5760,W,0.1,156,-5.34,V*46
$PGRME,3.0,M,5.4,M,6.2,M*28
$HCHDG,334.7,0.0,E,,*2A
$HCHDG,334.3,0.0,E,,*2E
$GPRMC,163953.0,A,4741.85711,N,12224.68519,W,005.30,350.7,210413,016.6,E,A*27
$PGRME,3.0,M,5.4,M,6.2,M*28
$HCHDG,334.3,0.0,E,,*2E
$HCHDG,334.3,0.0,E,,*2E
$GPRMC,163953.2,A,4741.85743,N,12224.68529,W,005.44,350.5,210413,016.6,E,A*20
$PGRME,3.0,M,5.3,M,6.2,M*2F
$YXXDR,A,4.7,D,PTCH,A,-0.4,D,ROLL*77
$PTAK,FFD1,0.4*51
$HCHDG,334.3,0.0,E,,*2E
$IIRMB,A,,,,M   ,,,,,000.1,155,,V,A*78
$HCHDG,334.3,0.0,E,,*2E
$GPRMC,163953.4,A,4741.85780,N,12224.68543,W,005.41,351.0,210413,016.6,E,A*24
$PGRME,3.0,M,5.3,M,6.1,M*2C
$IIRMC,163900,A,4741.853,N,12224.684,W,05.5,351,210413,16,E,A*13
$HCHDG,334.2,0.0,E,,*2F
$IIVHW,,,,,00.0,N,,*19
$IIVLW,06228,N,000.0,N*5D
$HCHDG,334.3,0.0,E,,*2E
$IIDPT,048.5,-1.0,*49
$GPRMC,163953.6,A,4741.85808,N,12224.68559,W,005.34,350.3,210413,016.6,E,A*22
$PGRME,3.0,M,5.3,M,6.1,M*2C
$HCHDG,334.3,0.0,E,,*2E
$IIGLL,4741.853,N,12224.684,W,163900,A,A*4A
$IIMTW,+08.5,C*35
$YXXDR,A,5.1,D,PTCH,A,-0.6,D,ROLL*72
$HCHDG,334.5,0.0,E,,*28
$IIRMB,A,,,,M   ,,,,,000.1,156,,V,A*7B
$GPRMC,163953.8,A,4741.85841,N,12224.68571,W,005.33,350.6,210413,016.6,E,A*29
$GPRMB,A,-0.07,L,,M,4741.7720,N,12224.5760,W,0.1,156,-5.33,V*41
$PGRME,3.0,M,5.3,M,6.1,M*2C
$HCHDG,334.5,0.0,E,,*28
$HCHDG,334.5,0.0,E,,*28
$GPRMC,163954.0,A,4741.85867,N,12224.68585,W,005.49,350.3,210413,016.6,E,A*21
$PGRME,3.0,M,5.2,M,6.1,M*2D
$HCHDG,334.5,0.0,E,,*28
$HCHDG,334.6,0.0,E,,*2B
$GPRMC,163954.2,A,4741.85897,N,12224.68598,W,005.45,350.8,210413,016.6,E,A*27
$PGRME,3.0,M,5.2,M,6.0,M*2C
$YXXDR,A,5.0,D,PTCH,A,-0.3,D,ROLL*76
$HCHDG,334.7,0.0,E,,*2A
$IIRMC,163900,A,4741.857,N,12224.685,W,05.3,350,210413,16,E,A*11
$HCHDG,334.6,0.0,E,,*2B
$IIVHW,,,,,00.0,N,,*19
$GPRMC,163954.4,A,4741.85926,N,12224.68613,W,005.43,350.8,210413,016.6,E,A*2C
$PGRME,3.0,M,5.2,M,6.0,M*2C
$HCHDG,334.6,0.0,E,,*2B
$IIVLW,06228,N,000.0,N*5D
$IIDPT,048.7,-1.0,*4B
$HCHDG,334.5,0.0,E,,*28
$IIGLL,4741.857,N,12224.685,W,163900,A,A*4F
$GPRMC,163954.6,A,4741.85953,N,12224.68619,W,005.31,350.1,210413,016.6,E,A*2A
$PGRME,3.0,M,5.1,M,6.0,M*2F
$IIMTW,+08.5,C*35
$HCHDG,334.5,0.0,E,,*28
$IIRMB,A,,,,M   ,,,,,000.1,156,,V,A*7B
$YXXDR,A,4.2,D,PTCH,A,-0.1,D,ROLL*77
$PTAK,FFD1,0.1*54
$HCHDG,334.5,0.0,E,,*28
$GPRMC,163954.8,A,4741.85983,N,12224.68624,W,005.47,351.6,210413,016.6,E,A*20
$PTAK,FFP1,HEEL,@*07
$PGRME,3.0,M,5.1,M,6.0,M*2F
$HCHDG,334.3,0.0,E,,*2E
$HCHDG,334.5,0.0,E,,*28
$GPRMC,163955.0,A,4741.86009,N,12224.68637,W,005.43,350.3,210413,016.6,E,A*23
$GPRMB,A,-0.07,L,,M,4741.7720,N,12224.5760,W,0.1,156,-5.42,V*47
$PGRME,3.0,M,5.1,M,5.9,M*25
$HCHDG,334.3,0.0,E,,*2E
$HCHDG,334.3,0.0,E,,*2E
$GPRMC,163955.2,A,4741.86038,N,12224.68649,W,005.41,350.6,210413,016.6,E,A*2D
$PGRME,3.0,M,5.1,M,5.9,M*25
$YXXDR,A,4.2,D,PTCH,A,0.0,D,ROLL*5B
$HCHDG,334.1,0.0,E,,*2C
$IIRMC,163900,A,4741.858,N,12224.685,W,05.4,350,210413,16,E,A*19
$HCHDG,334.2,0.0,E,,*2F
$IIVHW,,,,,00.0,N,,*19
$GPRMC,163955.4,A,4741.86067,N,12224.68661,W,005.42,350.8,210413,016.6,E,A*26
$PGRME,3.0,M,5.0,M,5.9,M*24
$HCHDG,334.0,0.0,E,,*2D
$IIVLW,06228,N,000.0,N*5D
$IIDPT,049.4,-1.0,*49
$HCHDG,334.0,0.0,E,,*2D
$IIGLL,4741.858,N,12224.685,W,163900,A,A*40
$GPRMC,163955.6,A,4741.86102,N,12224.68671,W,005.43,349.5,210413,016.6,E,A*23
$PGRME,3.0,M,5.0,M,5.9,M*24
$IIMTW,+08.5,C*35
$HCHDG,333.9,0.0,E,,*23
$IIRMB,A,,,,M   ,,,,,000.1,156,,V,A*7B
$YXXDR,A,3.6,D,PTCH,A,0.0,D,ROLL*58
$HCHDG,334.1,0.0,E,,*2C
$GPRMC,163955.8,A,4741.86128,N,12224.68679,W,005.41,348.7,210413,016.6,E,A*2C
$PGRME,3.0,M,5.0,M,5.8,M*25
$HCHDG,334.1,0.0,E,,*2C
$HCHDG,334.4,0.0,E,,*29
$GPRMC,163956.0,A,4741.86152,N,12224.68686,W,005.41,349.8,210413,016.6,E,A*24
$PGRME,3.0,M,4.9,M,5.8,M*2D
$HCHDG,334.4,0.0,E,,*29
$HCHDG,334.5,0.0,E,,*28
$GPRMC,163956.2,A,4741.86180,N,12224.68711,W,005.39,350.4,210413,016.6,E,A*2D
$GPRMB,A,-0.07,L,,M,4741.7720,N,12224.5760,W,0.1,157,-5.38,V*4B
$PGRME,3.0,M,4.8,M,5.7,M*23
$YXXDR,A,5.0,D,PTCH,A,0.0,D,ROLL*58
$PTAK,FFD1,0.0*55
$HCHDG,334.1,0.0,E,,*2C
$IIRMC,163900,A,4741.860,N,12224.686,W,05.4,350,210413,16,E,A*11
$HCHDG,334.2,0.0,E,,*2F
$IIVHW,,,,,00.0,N,,*19
$GPRMC,163956.4,A,4741.86205,N,12224.68725,W,005.50,351.1,210413,016.6,E,A*29
$PGRME,3.0,M,4.7,M,5.6,M*2D
$HCHDG,333.9,0.0,E,,*23
$IIVLW,06228,N,000.0,N*5D
$IIDPT,049.4,-1.0,*49
$HCHDG,333.8,0.0,E,,*22
$IIGLL,4741.860,N,12224.686,W,163900,A,A*48
$GPRMC,163956.6,A,4741.86229,N,12224.68734,W,005.33,350.9,210413,016.6,E,A*29
$PGRME,3.0,M,4.6,M,5.6,M*2C
$IIMTW,+08.5,C*35
$HCHDG,333.7,0.0,E,,*2D
$IIRMB,A,,,,M   ,,,,,000.1,156,,V,A*7B
$YXXDR,A,4.8,D,PTCH,A,-0.4,D,ROLL*78
$HCHDG,333.7,0.0,E,,*2D
$GPRMC,163956.8,A,4741.86258,N,12224.68750,W,005.35,350.3,210413,016.6,E,A*2F
$PGRME,3.0,M,4.6,M,5.5,M*2F
$HCHDG,333.6,0.0,E,,*2C
$HCHDG,333.8,0.0,E,,*22
$GPRMC,163957.0,A,4741.86284,N,12224.68765,W,005.36,350.2,210413,016.6,E,A*23
$PGRME,3.0,M,4.5,M,5.4,M*2D
$HCHDG,333.9,0.0,E,,*23
$HCHDG,334.1,0.0,E,,*2C
$GPRMC,163957.2,A,4741.86310,N,12224.68773,W,005.38,349.0,210413,016.6,E,A*2E
$GPRMB,A,-0.08,L,,M,4741.7720,N,12224.5760,W,0.1,157,-5.36,V*4A
$PGRME,3.0,M,4.4,M,5.4,M*2C
$YXXDR,A,4.5,D,PTCH,A,0.0,D,ROLL*5C
$HCHDG,334.4,0.0,E,,*29
$IIRMC,163900,A,4741.861,N,12224.687,W,05.3,350,210413,16,E,A*16
$HCHDG,334.4,0.0,E,,*29
$IIVHW,,,,,00.0,N,,*19
$GPRMC,163957.4,A,4741.86343,N,12224.68784,W,005.40,350.2,210413,016.6,E,A*23
$PGRME,3.0,M,4.4,M,5.4,M*2C
$HCHDG,334.2,0.0,E,,*2F
$IIVLW,06228,N,000.0,N*5D
$IIDPT,049.5,-1.0,*48
$HCHDG,334.4,0.0,E,,*29
$IIGLL,4741.861,N,12224.687,W,163900,A,A*48
$GPRMC,163957.6,A,4741.86372,N,12224.68788,W,005.37,349.4,210413,016.6,E,A*21
$PGRME,3.0,M,4.4,M,5.4,M*2C
$IIMTW,+08.5,C*35
$HCHDG,334.4,0.0,E,,*29
$IIRMB,A,,,,M   ,,,,,000.1,157,,V,A*7A
$YXXDR,A,4.3,D,PTCH,A,-0.5,D,ROLL*72
$PTAK,FFD1,0.5*50
$HCHDG,334.3,0.0,E,,*2E
$GPRMC,163957.8,A,4741.86399,N,12224.68792,W,005.37,350.0,210413,016.6,E,A*2D
$PGRME,3.0,M,4.4,M,5.3,M*2B
$HCHDG,334.2,0.0,E,,*2F
$HCHDG,334.2,0.0,E,,*2F
$GPRMC,163958.0,A,4741.86430,N,12224.68802,W,005.35,350.3,210413,016.6,E,A*29
$PGRME,3.0,M,4.4,M,5.3,M*2B
$HCHDG,334.1,0.0,E,,*2C
$HCHDG,334.1,0.0,E,,*2C
$GPRMC,163958.2,A,4741.86458,N,12224.68816,W,005.35,350.9,210413,016.6,E,A*2A
$PGRME,3.0,M,4.3,M,5.3,M*2C
$YXXDR,A,4.2,D,PTCH,A,-1.1,D,ROLL*76
$HCHDG,334.0,0.0,E,,*2D
$IIRMC,163900,A,4741.863,N,12224.687,W,05.3,349,210413,16,E,A*1C
$HCHDG,333.9,0.0,E,,*23
$IIVHW,,,,,00.0,N,,*19
$GPRMC,163958.4,A,4741.86486,N,12224.68825,W,005.35,351.5,210413,016.6,E,A*22
$GPRMB,A,-0.08,L,,M,4741.7720,N,12224.5760,W,0.1,157,-5.34,V*48
$PGRME,3.0,M,4.3,M,5.3,M*2C
$HCHDG,334.1,0.0,E,,*2C
$IIVLW,06228,N,000.0,N*5D
$IIDPT,049.5,-1.0,*48
$HCHDG,334.0,0.0,E,,*2D
$IIGLL,4741.863,N,12224.687,W,163900,A,A*4A
$GPRMC,163958.6,A,4741.86515,N,12224.68833,W,005.38,351.1,210413,016.6,E,A*25
$PGRME,3.0,M,4.3,M,5.2,M*2D
$IIMTW,+08.5,C*35
$HCHDG,334.2,0.0,E,,*2F
$IIRMB,A,,,,M   ,,,,,000.1,157,,V,A*7A
$YXXDR,A,4.8,D,PTCH,A,-1.6,D,ROLL*7B
$HCHDG,334.1,0.0,E,,*2C
$GPRMC,163958.8,A,4741.86544,N,12224.68843,W,005.42,352.1,210413,016.6,E,A*26
$PTAK,FFP1,HEEL,@*07
$PGRME,3.0,M,4.2,M,5.2,M*2C
$HCHDG,334.2,0.0,E,,*2F
$HCHDG,334.0,0.0,E,,*2D
$GPRMC,163959.0,A,4741.86575,N,12224.68853,W,005.43,351.9,210413,016.6,E,A*26
$PGRME,3.0,M,4.2,M,5.2,M*2C
$HCHDG,333.8,0.0,E,,*22
$HCHDG,333.9,0.0,E,,*23
$GPRMC,163959.2,A,4741.86612,N,12224.68851,W,005.45,351.7,210413,016.6,E,A*2C
$PGRME,3.0,M,4.2,M,5.2,M*2C
$YXXDR,A,4.8,D,PTCH,A,-1.2,D,ROLL*7F
$PTAK,FFD1,1.2*56
$HCHDG,334.1,0.0,E,,*2C
$IIRMC,163900,A,4741.864,N,12224.688,W,05.3,351,210413,16,E,A*1D
$HCHDG,334.4,0.0,E,,*29
$IIVHW,,,,,00.0,N,,*19
$GPRMC,163959.4,A,4741.86642,N,12224.68862,W,005.45,350.6,210413,016.6,E,A*2F
$PGRME,3.0,M,4.2,M,5.2,M*2C
$HCHDG,334.3,0.0,E,,*2E
$IIVLW,06228,N,000.0,N*5D
$IIDPT,049.7,-1.0,*4A
$HCHDG,334.4,0.0,E,,*29
$IIGLL,4741.864,N,12224.688,W,163900,A,A*42
$GPRMC,163959.6,A,4741.86669,N,12224.68869,W,005.48,351.1,210413,016.6,E,A*24
$GPRMB,A,-0.08,L,,M,4741.7720,N,12224.5760,W,0.1,158,-5.47,V*43
$PGRME,3.0,M,4.1,M,5.1,M*2C
$IIMTW,+08.5,C*35
$HCHDG,334.7,0.0,E,,*2A
$IIRMB,A,,,,M   ,,,,,000.1,157,,V,A*7A
$YXXDR,A,4.9,D,PTCH,A,-0.6,D,ROLL*7B
$HCHDG,334.6,0.0,E,,*2B
$GPRMC,163959.8,A,4741.86701,N,12224.68877,W,005.49,352.4,210413,016.6,E,A*2D
$PGRME,3.0,M,4.1,M,5.1,M*2C
$HCHDG,334.6,0.0,E,,*2B
$HCHDG,334.4,0.0,E,,*29
$GPRMC,164000.0,A,4741.86732,N,12224.68896,W,005.51,352.8,210413,016.6,E,A*2D
$PGRME,3.0,M,4.0,M,5.1,M*2D
$HCHDG,334.5,0.0,E,,*28
$HCHDG,334.6,0.0,E,,*2B
$GPRMC,164000.2,A,4741.86760,N,12224.68902,W,005.52,352.8,210413,016.6,E,A*27
$PGRME,3.0,M,4.0,M,5.0,M*2C
$YXXDR,A,4.7,D,PTCH,A,-0.3,D,ROLL*70
$PTAK,FFD1,0.3*56
$HCHDG,334.8,0.0,E,,*25
$IIRMC,163900,A,4741.866,N,12224.688,W,05.4,350,210413,16,E,A*19
$HCHDG,334.6,0.0,E,,*2B
$IIVHW,,,,,00.0,N,,*19
$GPRMC,164000.4,A,4741.86792,N,12224.68905,W,005.52,352.3,210413,016.6,E,A*20
$PGRME,3.0,M,4.0,M,5.0,M*2C
$HCHDG,334.5,0.0,E,,*28
$IIVLW,06228,N,000.0,N*5D
$IIDPT,050.6,-1.0,*43
$HCHDG,334.7,0.0,E,,*2A
$IIGLL,4741.866,N,12224.688,W,163900,A,A*40
$GPRMC,164000.6,A,4741.86821,N,12224.68906,W,005.34,350.9,210413,016.6,E,A*2E
$PGRME,3.0,M,3.9,M,5.0,M*22
$IIMTW,+08.5,C*35
$HCHDG,335.1,0.0,E,,*2D
$IIRMB,A,,,,M   ,,,,,000.1,158,,V,A*75
$YXXDR,A,4.7,D,PTCH,A,-0.2,D,ROLL*71
$HCHDG,335.1,0.0,E,,*2D
$GPRMC,164000.8,A,4741.86852,N,12224.68911,W,005.51,351.2,210413,016.6,E,A*2B
$GPRMB,A,-0.08,L,,M,4741.7720,N,12224.5760,W,0.1,158,-5.50,V*45
$PGRME,3.0,M,3.9,M,5.0,M*22
$HCHDG,335.3,0.0,E,,*2F
$HCHDG,335.3,0.0,E,,*2F
$GPRMC,164001.0,A,4741.86882,N,12224.68919,W,005.45,350.8,210413,016.6,E,A*29
$PGRME,3.0,M,3.9,M,4.9,M*2A
$HCHDG,335.2,0.0,E,,*2E
$HCHDG,335.2,0.0,E,,*2E
$GPRMC,164001.2,A,4741.86911,N,12224.68928,W,005.47,352.5,210413,016.6,E,A*2F
$PGRME,3.0,M,3.9,M,4.9,M*2A
$YXXDR,A,4.6,D,PTCH,A,-0.4,D,ROLL*76
$PTAK,FFD1,0.4*51
$HCHDG,335.2,0.0,E,,*2E
$IIRMC,164000,A,4741.867,N,12224.689,W,05.5,352,210413,16,E,A*14
$HCHDG,335.2,0.0,E,,*2E
$IIVHW,,,,,00.0,N,,*19
$GPRMC,164001.4,A,4741.86938,N,12224.68940,W,005.22,350.1,210413,016.6,E,A*29
$PGRME,3.0,M,3.8,M,4.9,M*2B
$HCHDG,335.1,0.0,E,,*2D
$IIVLW,06228,N,000.0,N*5D
$IIDPT,050.6,-1.0,*43
$HCHDG,335.0,0.0,E,,*2C
$IIGLL,4741.867,N,12224.689,W,164000,A,A*4E
$GPRMC,164001.6,A,4741.86968,N,12224.68954,W,005.42,353.3,210413,016.6,E,A*2C
$PGRME,3.0,M,3.8,M,4.9,M*2B
$IIMTW,+08.5,C*35
$HCHDG,334.7,0.0,E,,*2A
$IIRMB,A,,,,M   ,,,,,000.1,158,,V,A*75
$YXXDR,A,4.3,D,PTCH,A,-1.7,D,ROLL*71
$HCHDG,334.6,0.0,E,,*2B
$GPRMC,164001.8,A,4741.86998,N,12224.68958,W,005.37,351.1,210413,016.6,E,A*23
$GPRMB,A,-0.08,L,,M,4741.7720,N,12224.5760,W,0.1,159,-5.36,V*44
$PGRME,3.0,M,3.8,M,4.9,M*2B
$HCHDG,334.5,0.0,E,,*28
$HCHDG,334.5,0.0,E,,*28
$GPRMC,164002.0,A,4741.87023,N,12224.68961,W,005.35,352.3,210413,016.6,E,A*29
$PGRME,3.0,M,3.8,M,4.9,M*2B
$HCHDG,334.5,0.0,E,,*28
$HCHDG,334.2,0.0,E,,*2F
$GPRMC,164002.2,A,4741.87050,N,12224.68965,W,005.35,352.9,210413,016.6,E,A*21
$PGRME,3.0,M,3.8,M,4.9,M*2B
$YXXDR,A,5.0,D,PTCH,A,-2.0,D,ROLL*77
$PTAK,FFD1,2.0*57
$HCHDG,334.4,0.0,E,,*29
$IIRMC,164000,A,4741.869,N,12224.689,W,05.2,350,210413,16,E,A*1F
$HCHDG,334.2,0.0,E,,*2F
$IIVHW,,,,,00.0,N,,*19
$GPRMC,164002.4,A,4741.87081,N,12224.68971,W,005.42,353.4,210413,016.6,E,A*22
$PGRME,3.0,M,3.8,M,4.8,M*2A
$IIVLW,06228,N,000.0,N*5D
$HCHDG,334.2,0.0,E,,*2F
$IIDPT,050.6,-1.0,*43
$HCHDG,334.3,0.0,E,,*2E
$IIGLL,4741.869,N,12224.689,W,164000,A,A*40
$GPRMC,164002.6,A,4741.87111,N,12224.68975,W,005.47,354.1,210413,016.6,E,A*2B
$PGRME,3.0,M,3.7,M,4.8,M*25
$IIMTW,+08.5,C*35
$HCHDG,334.6,0.0,E,,*2B
$IIRMB,A,,,,M   ,,,,,000.1,159,,V,A*74
$YXXDR,A,5.1,D,PTCH,A,-0.9,D,ROLL*7D
$HCHDG,334.6,0.0,E,,*2B
$GPRMC,164002.8,A,4741.87144,N,12224.68978,W,005.31,352.0,210413,016.6,E,A*2E
$PTAK,FFP1,HEEL,@*07
$PGRME,3.0,M,3.7,M,4.8,M*25
$HCHDG,334.5,0.0,E,,*28
$HCHDG,334.7,0.0,E,,*2A
$GPRMC,164003.0,A,4741.87175,N,12224.68989,W,005.54,353.2,210413,016.6,E,A*2B
$GPRMB,A,-0.08,L,,M,4741.7720,N,12224.5760,W,0.1,159,-5.53,V*47
$PGRME,3.0,M,3.7,M,4.8,M*25
$HCHDG,334.8,0.0,E,,*25
$HCHDG,334.8,0.0,E,,*25
$GPRMC,164003.2,A,4741.87203,N,12224.68988,W,005.47,353.4,210413,016.6,E,A*2E
$PGRME,3.0,M,3.7,M,4.8,M*25
$YXXDR,A,5.1,D,PTCH,A,0.4,D,ROLL*5D
$HCHDG,334.8,0.0,E,,*25
$IIRMC,164000,A,4741.870,N,12224.689,W,05.4,353,210413,16,E,A*12
$HCHDG,334.8,0.0,E,,*25
$IIVHW,,,,,00.0,N,,*19
$GPRMC,164003.4,A,4741.87233,N,12224.68989,W,005.46,353.7,210413,016.6,E,A*28
$PGRME,3.0,M,3.7,M,4.8,M*25
$IIVLW,06228,N,000.0,N*5D
$HCHDG,334.8,0.0,E,,*25
$IIDPT,051.2,-1.0,*46
$HCHDG,334.7,0.0,E,,*2A
$IIGLL,4741.870,N,12224.689,W,164000,A,A*48
$GPRMC,164003.6,A,4741.87263,N,12224.68996,W,005.43,351.7,210413,016.6,E,A*26
$PGRME,3.0,M,3.7,M,4.8,M*25
$IIMTW,+08.5,C*35
$HCHDG,334.9,0.0,E,,*24
$IIRMB,A,,,,M   ,,,,,000.1,159,,V,A*74
$YXXDR,A,5.1,D,PTCH,A,1.0,D,ROLL*58
$PTAK,FFD1,1.0*54
$HCHDG,335.0,0.0,E,,*2C
$GPRMC,164003.8,A,4741.87291,N,12224.69005,W,005.40,351.9,210413,016.6,E,A*2A
$PGRME,3.0,M,3.7,M,4.8,M*25
$HCHDG,334.9,0.0,E,,*24
$HCHDG,335.1,0.0,E,,*2D
$GPRMC,164004.0,A,4741.87324,N,12224.69014,W,005.38,352.0,210413,016.6,E,A*2F
$PGRME,3.0,M,3.7,M,4.8,M*25
$HCHDG,335.0,0.0,E,,*2C
$HCHDG,334.9,0.0,E,,*24
$GPRMC,164004.2,A,4741.87357,N,12224.69031,W,005.34,350.4,210413,016.6,E,A*24
$GPRMB,A,-0.08,L,,M,4741.7720,N,12224.5760,W,0.1,159,-5.31,V*43
$PGRME,3.0,M,3.7,M,4.8,M*25
$YXXDR,A,5.4,D,PTCH,A,2.2,D,ROLL*5C
$HCHDG,334.9,0.0,E,,*24
$IIRMC,164000,A,4741.872,N,12224.689,W,05.4,353,210413,16,E,A*10
$HCHDG,334.9,0.0,E,,*24
$IIVHW,,,,,00.0,N,,*19
$GPRMC,164004.4,A,4741.87390,N,12224.69055,W,005.34,351.5,210413,016.6,E,A*2B
$PGRME,3.0,M,3.6,M,4.8,M*24
$IIVLW,06228,N,000.0,N*5D
$HCHDG,335.0,0.0,E,,*2C
$IIDPT,051.3,-1.0,*47
$HCHDG,335.2,0.0,E,,*2E
$IIGLL,4741.872,N,12224.689,W,164000,A,A*4A
$GPRMC,164004.6,A,4741.87419,N,12224.69067,W,005.31,351.9,210413,016.6,E,A*27
$PGRME,3.0,M,3.6,M,4.7,M*2B
$IIMTW,+08.5,C*35
$HCHDG,335.0,0.0,E,,*2C
$IIRMB,A,,,,M   ,,,,,000.1,159,,V,A*74
$YXXDR,A,5.4,D,PTCH,A,1.0,D,ROLL*5D
$HCHDG,335.0,0.0,E,,*2C
$GPRMC,164004.8,A,4741.87449,N,12224.69081,W,005.30,350.6,210413,016.6,E,A*2B
$PGRME,3.0,M,3.6,M,4.7,M*2B
$HCHDG,334.6,0.0,E,,*2B
$HCHDG,334.6,0.0,E,,*2B
$GPRMC,164005.0,A,4741.87476,N,12224.69092,W,005.28,350.8,210413,016.6,E,A*2B
$PGRME,3.0,M,3.6,M,4.7,M*2B
$HCHDG,334.7,0.0,E,,*2A
$HCHDG,334.8,0.0,E,,*25
$GPRMC,164005.2,A,4741.87504,N,12224.69095,W,005.29,350.9,210413,016.6,E,A*2A
$GPRMB,A,-0.08,L,,M,4741.7720,N,12224.5760,W,0.1,160,-5.27,V*4E
$PGRME,3.0,M,3.6,M,4.7,M*2B
$YXXDR,A,4.8,D,PTCH,A,-0.1,D,ROLL*7D
$PTAK,FFD1,0.1*54
$HCHDG,334.6,0.0,E,,*2B
$IIRMC,164000,A,4741.873,N,12224.690,W,05.3,351,210413,16,E,A*1C
$HCHDG,334.7,0.0,E,,*2A
$IIVHW,,,,,00.0,N,,*19
$GPRMC,164005.4,A,4741.87534,N,12224.69102,W,005.27,351.8,210413,016.6,E,A*2E
$PGRME,3.0,M,3.6,M,4.7,M*2B
$IIVLW,06228,N,000.0,N*5D
$HCHDG,334.6,0.0,E,,*2B
$IIDPT,052.0,-1.0,*47
$HCHDG,334.6,0.0,E,,*2B
$IIGLL,4741.873,N,12224.690,W,164000,A,A*43
$GPRMC,164005.6,A,4741.87565,N,12224.69106,W,005.27,351.3,210413,016.6,E,A*27
$PGRME,3.0,M,3.6,M,4.7,M*2B
$IIMTW,+08.5,C*35
$HCHDG,334.7,0.0,E,,*2A
$IIRMB,A,,,,M   ,,,,,000.1,159,,V,A*74
$YXXDR,A,4.9,D,PTCH,A,-0.6,D,ROLL*7B
$HCHDG,334.9,0.0,E,,*24
$GPRMC,164005.8,A,4741.87595,N,12224.69113,W,005.30,352.4,210413,016.6,E,A*20
$PGRME,3.0,M,3.5,M,4.7,M*28
$HCHDG,335.0,0.0,E,,*2C
$HCHDG,334.9,0.0,E,,*24
$GPRMC,164006.0,A,4741.87622,N,12224.69111,W,005.34,352.4,210413,016.6,E,A*22
$PGRME,3.0,M,3.5,M,4.7,M*28
$HCHDG,335.1,0.0,E,,*2D
$HCHDG,334.9,0.0,E,,*24
$GPRMC,164006.2,A,4741.87650,N,12224.69119,W,005.35,352.6,210413,016.6,E,A*2E
$GPRMB,A,-0.08,L,,M,4741.7720,N,12224.5760,W,0.1,160,-5.34,V*4C
$PGRME,3.0,M,3.5,M,4.6,M*29
$YXXDR,A,5.4,D,PTCH,A,-1.7,D,ROLL*77
$PTAK,FFD1,1.7*53
$HCHDG,334.9,0.0,E,,*24
$IIRMC,164000,A,4741.875,N,12224.691,W,05.2,351,210413,16,E,A*1A
$HCHDG,335.2,0.0,E,,*2E
$IIVHW,,,,,00.0,N,,*19
$GPRMC,164006.4,A,4741.87678,N,12224.69117,W,005.36,352.6,210413,016.6,E,A*2F
$PGRME,3.0,M,3.5,M,4.6,M*29
$IIVLW,06228,N,000.0,N*5D
$HCHDG,335.2,0.0,E,,*2E
$IIDPT,052.0,-1.0,*47
$HCHDG,335.3,0.0,E,,*2F
$IIGLL,4741.875,N,12224.691,W,164000,A,A*44
$GPRMC,164006.6,A,4741.87706,N,12224.69112,W,005.37,353.9,210413,016.6,E,A*2F
$PGRME,3.0,M,3.5,M,4.6,M*29
$IIMTW,+08.5,C*35
$HCHDG,335.2,0.0,E,,*2E
$IIRMB,A,,,,M   ,,,,,000.1,160,,V,A*7E
$YXXDR,A,4.8,D,PTCH,A,-1.1,D,ROLL*7C
$HCHDG,335.4,0.0,E,,*28
$GPRMC,164006.8,A,4741.87737,N,12224.69113,W,005.35,353.7,210413,016.6,E,A*2E
$PTAK,FFP1,HEEL,@*07
$PGRME,3.0,M,3.4,M,4.6,M*28
$HCHDG,335.3,0.0,E,,*2F
$HCHDG,335.4,0.0,E,,*28
$GPRMC,164007.0,A,4741.87770,N,12224.69126,W,005.35,354.4,210413,016.6,E,A*26
$PGRME,3.0,M,3.4,M,4.6,M*28
$HCHDG,335.4,0.0,E,,*28
$HCHDG,335.4,0.0,E,,*28
$GPRMC,164007.2,A,4741.87800,N,12224.69138,W,005.35,353.1,210413,016.6,E,A*21
$PGRME,3.0,M,3.4,M,4.6,M*28
$YXXDR,A,5.0,D,PTCH,A,-0.8,D,ROLL*7D
$HCHDG,335.6,0.0,E,,*2A
$IIRMC,164000,A,4741.876,N,12224.691,W,05.3,352,210413,16,E,A*1B
$HCHDG,335.5,0.0,E,,*29
$IIVHW,,,,,00.0,N,,*19
$GPRMC,164007.4,A,4741.87832,N,12224.69149,W,005.36,353.4,210413,016.6,E,A*26
$GPRMB,A,-0.08,L,,M,4741.7720,N,12224.5760,W,0.1,160,-5.35,V*4D
$PGRME,3.0,M,3.4,M,4.6,M*28
$IIVLW,06228,N,000.0,N*5D
$HCHDG,335.6,0.0,E,,*2A
$IIDPT,052.0,-1.0,*47
$HCHDG,335.6,0.0,E,,*2A
$IIGLL,4741.876,N,12224.691,W,164000,A,A*47
$GPRMC,164007.6,A,4741.87861,N,12224.69157,W,005.34,353.4,210413,016.6,E,A*2F
$PGRME,3.0,M,3.4,M,4.6,M*28
$IIMTW,+08.5,C*35
$HCHDG,335.7,0.0,E,,*2B
$IIRMB,A,,,,M   ,,,,,000.1,160,,V,A*7E
$YXXDR,A,5.0,D,PTCH,A,-0.7,D,ROLL*72
$PTAK,FFD1,0.7*52
$HCHDG,335.6,0.0,E,,*2A
$GPRMC,164007.8,A,4741.87890,N,12224.69165,W,005.34,354.2,210413,016.6,E,A*2F
$PGRME,3.0,M,3.4,M,4.6,M*28
$HCHDG,335.6,0.0,E,,*2A
$HCHDG,335.6,0.0,E,,*2A
$GPRMC,164008.0,A,4741.87919,N,12224.69175,W,005.35,354.0,210413,016.6,E,A*2A
$PGRME,3.0,M,3.4,M,4.6,M*28
$HCHDG,335.7,0.0,E,,*2B
$HCHDG,335.8,0.0,E,,*24
$GPRMC,164008.2,A,4741.87948,N,12224.69183,W,005.33,353.8,210413,016.6,E,A*2C
$PGRME,3.0,M,3.4,M,4.6,M*28
$YXXDR,A,5.5,D,PTCH,A,-0.2,D,ROLL*72
$HCHDG,335.8,0.0,E,,*24
$IIRMC,164000,A,4741.878,N,12224.691,W,05.3,353,210413,16,E,A*14
$HCHDG,335.9,0.0,E,,*25
$IIVHW,,,,,00.0,N,,*19
$GPRMC,164008.4,A,4741.87981,N,12224.69187,W,005.33,353.7,210413,016.6,E,A*24
$PGRME,3.0,M,3.4,M,4.5,M*2B
$IIVLW,06228,N,000.0,N*5D
$HCHDG,335.9,0.0,E,,*25
$IIDPT,052.0,-1.0,*47
$HCHDG,336.1,0.0,E,,*2E
$IIGLL,4741.878,N,12224.691,W,164000,A,A*49
$GPRMC,164008.6,A,4741.88011,N,12224.69199,W,005.34,353.6,210413,016.6,E,A*20
$GPRMB,A,-0.08,L,,M,4741.7720,N,12224.5760,W,0.1,161,-5.33,V*4A
$PGRME,3.0,M,3.4,M,4.5,M*2B
$IIMTW,+08.5,C*35
$HCHDG,336.0,0.0,E,,*2F
$IIRMB,A,,,,M   ,,,,,000.1,160,,V,A*7E
$YXXDR,A,5.1,D,PTCH,A,-0.2,D,ROLL*76
$PTAK,FFD1,0.2*57
$HCHDG,336.0,0.0,E,,*2F
$GPRMC,164008.8,A,4741.88040,N,12224.69205,W,005.37,354.0,210413,016.6,E,A*2E
$PGRME,3.0,M,3.4,M,4.5,M*2B
$HCHDG,336.3,0.0,E,,*2C
$HCHDG,336.2,0.0,E,,*2D
$GPRMC,164009.0,A,4741.88064,N,12224.69203,W,005.40,353.2,210413,016.6,E,A*22
$PGRME,3.0,M,3.4,M,4.5,M*2B
$HCHDG,336.2,0.0,E,,*2D
$HCHDG,336.1,0.0,E,,*2E
$GPRMC,164009.2,A,4741.88093,N,12224.69211,W,005.44,353.6,210413,016.6,E,A*2B
$PGRME,3.0,M,3.3,M,4.5,M*2C
$YXXDR,A,4.7,D,PTCH,A,0.0,D,ROLL*5E
$HCHDG,336.0,0.0,E,,*2F
$IIRMC,164000,A,4741.879,N,12224.691,W,05.3,353,210413,16,E,A*15
$HCHDG,336.1,0.0,E,,*2E
$IIVHW,,,,,00.0,N,,*19
$GPRMC,164009.4,A,4741.88121,N,12224.69212,W,005.44,354.5,210413,016.6,E,A*22
$PGRME,3.0,M,3.3,M,4.5,M*2C
$IIVLW,06228,N,000.0,N*5D
$HCHDG,335.9,0.0,E,,*25
$IIDPT,052.0,-1.0,*47
$HCHDG,335.9,0.0,E,,*25
$IIGLL,4741.879,N,12224.691,W,164000,A,A*48
$GPRMC,164009.6,A,4741.88151,N,12224.69222,W,005.44,353.7,210413,016.6,E,A*21
$PGRME,3.0,M,3.3,M,4.5,M*2C
$IIMTW,+08.5,C*35
$HCHDG,335.7,0.0,E,,*2B
$IIRMB,A,,,,M   ,,,,,000.1,161,,V,A*7F
$YXXDR,A,4.8,D,PTCH,A,0.1,D,ROLL*50
$HCHDG,335.6,0.0,E,,*2A
$GPRMC,164009.8,A,4741.88180,N,12224.69230,W,005.44,353.6,210413,016.6,E,A*21
$GPRMB,A,-0.08,L,,M,4741.7720,N,12224.5760,W,0.1,161,-5.43,V*4D
$PGRME,3.0,M,3.3,M,4.5,M*2C
$HCHDG,335.6,0.0,E,,*2A
$HCHDG,335.5,0.0,E,,*29
$GPRMC,164010.0,A,4741.88209,N,12224.69235,W,005.45,354.8,210413,016.6,E,A*2E
$PGRME,3.0,M,3.3,M,4.5,M*2C
$HCHDG,335.5,0.0,E,,*29
$HCHDG,335.7,0.0,E,,*2B
$GPRMC,164010.2,A,4741.88238,N,12224.69240,W,005.45,353.6,210413,016.6,E,A*25
$PGRME,3.0,M,3.3,M,4.5,M*2C
$YXXDR,A,4.9,D,PTCH,A,0.7,D,ROLL*57
$PTAK,FFD1,0.7*52
$HCHDG,335.7,0.0,E,,*2B
$IIRMC,164000,A,4741.881,N,12224.692,W,05.4,353,210413,16,E,A*16
$HCHDG,335.6,0.0,E,,*2A
$IIVHW,,,,,00.0,N,,*19
$GPRMC,164010.4,A,4741.88267,N,12224.69247,W,005.43,352.9,210413,016.6,E,A*26
$PGRME,3.0,M,3.3,M,4.5,M*2C
$IIVLW,06228,N,000.0,N*5D
$HCHDG,335.6,0.0,E,,*2A
$IIDPT,052.0,-1.0,*47
$HCHDG,335.6,0.0,E,,*2A
$IIGLL,4741.881,N,12224.692,W,164000,A,A*4C
$GPRMC,164010.6,A,4741.88296,N,12224.69252,W,005.43,353.8,210413,016.6,E,A*2E
$PGRME,3.0,M,3.3,M,4.5,M*2C
$IIMTW,+08.5,C*35
$HCHDG,335.4,0.0,E,,*28
$IIRMB,A,,,,M   ,,,,,000.1,161,,V,A*7F
$YXXDR,A,4.7,D,PTCH,A,1.3,D,ROLL*5C
$HCHDG,335.4,0.0,E,,*28
$GPRMC,164010.8,A,4741.88326,N,12224.69263,W,005.41,351.9,210413,016.6,E,A*29
$PGRME,3.0,M,3.3,M,4.5,M*2C
$HCHDG,335.6,0.0,E,,*2A
$PTAK,FFP1,HEEL,@*07
$HCHDG,335.5,0.0,E,,*29
$GPRMC,164011.0,A,4741.88360,N,12224.69283,W,005.38,352.3,210413,016.6,E,A*2B
$GPRMB,A,-0.08,L,,M,4741.7720,N,12224.5760,W,0.1,161,-5.35,V*4C
$PGRME,3.0,M,3.2,M,4.5,M*2D
$HCHDG,335.6,0.0,E,,*2A
$HCHDG,335.6,0.0,E,,*2A
$GPRMC,164011.2,A,4741.88391,N,12224.69290,W,005.34,352.0,210413,016.6,E,A*2A
$PGRME,3.0,M,3.2,M,4.4,M*2C
$YXXDR,A,5.2,D,PTCH,A,1.2,D,ROLL*59
$PTAK,FFD1,1.2*56
$HCHDG,335.7,0.0,E,,*2B
$IIRMC,164000,A,4741.882,N,12224.692,W,05.4,353,210413,16,E,A*15
$HCHDG,335.6,0.0,E,,*2A
$IIVHW,,,,,00.0,N,,*19
$GPRMC,164011.4,A,4741.88420,N,12224.69299,W,005.35,352.6,210413,016.6,E,A*2F
$PGRME,3.0,M,3.2,M,4.4,M*2C
$IIVLW,06228,N,000.0,N*5D
$HCHDG,335.8,0.0,E,,*24
$IIDPT,053.1,-1.0,*47
$HCHDG,335.7,0.0,E,,*2B
$IIGLL,4741.882,N,12224.692,W,164000,A,A*4F
$GPRMC,164011.6,A,4741.88446,N,12224.69303,W,005.31,352.3,210413,016.6,E,A*2E
$PGRME,3.0,M,3.2,M,4.4,M*2C
$IIMTW,+08.5,C*35
$HCHDG,335.5,0.0,E,,*29
$IIRMB,A,,,,M   ,,,,,000.1,161,,V,A*7F
$YXXDR,A,4.2,D,PTCH,A,0.6,D,ROLL*5D
$HCHDG,335.5,0.0,E,,*29
$GPRMC,164011.8,A,4741.88471,N,12224.69305,W,005.32,353.2,210413,016.6,E,A*21
$PGRME,3.0,M,3.2,M,4.4,M*2C
$HCHDG,335.7,0.0,E,,*2B
$HCHDG,335.5,0.0,E,,*29
$GPRMC,164012.0,A,4741.88494,N,12224.69310,W,005.29,351.8,210413,016.6,E,A*27
$GPRMB,A,-0.08,L,,M,4741.7720,N,12224.5760,W,0.1,162,-5.26,V*4D
$PGRME,3.0,M,3.2,M,4.4,M*2C
$HCHDG,335.4,0.0,E,,*28
$HCHDG,335.3,0.0,E,,*2F
$GPRMC,164012.2,A,4741.88524,N,12224.69314,W,005.28,352.7,210413,016.6,E,A*26
$PGRME,3.0,M,3.2,M,4.4,M*2C
$YXXDR,A,5.1,D,PTCH,A,-0.1,D,ROLL*75
$PTAK,FFD1,0.1*54
$HCHDG,335.4,0.0,E,,*28
$IIRMC,164000,A,4741.884,N,12224.693,W,05.3,352,210413,16,E,A*14
$HCHDG,335.2,0.0,E,,*2E
$IIVHW,,,,,00.0,N,,*19
$GPRMC,164012.4,A,4741.88551,N,12224.69317,W,005.27,352.4,210413,016.6,E,A*2D
$PGRME,3.0,M,3.2,M,4.4,M*2C
$IIVLW,06228,N,000.0,N*5D
$HCHDG,335.1,0.0,E,,*2D
$IIDPT,053.1,-1.0,*47
$HCHDG,335.0,0.0,E,,*2C
$IIGLL,4741.884,N,12224.693,W,164000,A,A*48
$GPRMC,164012.6,A,4741.88577,N,12224.69316,W,005.29,352.4,210413,016.6,E,A*24
$PGRME,3.0,M,3.2,M,4.4,M*2C
$IIMTW,+08.5,C*35
$HCHDG,334.9,0.0,E,,*24
$IIRMB,A,,,,M   ,,,,,000.1,161,,V,A*7F
$YXXDR,A,5.0,D,PTCH,A,-0.5,D,ROLL*70
$HCHDG,335.1,0.0,E,,*2D
$GPRMC,164012.8,A,4741.88599,N,12224.69321,W,005.29,353.4,210413,016.6,E,A*2F
$PGRME,3.0,M,3.2,M,4.4,M*2C
$HCHDG,335.2,0.0,E,,*2E
$HCHDG,335.2,0.0,E,,*2E
$GPRMC,164013.0,A,4741.88626,N,12224.69326,W,005.31,353.4,210413,016.6,E,A*2F
$PGRME,3.0,M,3.2,M,4.4,M*2C
$HCHDG,335.0,0.0,E,,*2C
$HCHDG,334.9,0.0,E,,*24
$GPRMC,164013.2,A,4741.88651,N,12224.69323,W,005.27,352.0,210413,016.6,E,A*2A
$GPRMB,A,-0.08,L,,M,4741.7720,N,12224.5760,W,0.1,162,-5.23,V*48
$PGRME,3.0,M,3.2,M,4.4,M*2C
$YXXDR,A,4.3,D,PTCH,A,-0.7,D,ROLL*70
$PTAK,FFD1,0.7*52
$HCHDG,334.7,0.0,E,,*2A
$IIRMC,164000,A,4741.885,N,12224.693,W,05.2,352,210413,16,E,A*14
$HCHDG,334.9,0.0,E,,*24
$IIVHW,,,,,00.0,N,,*19
$GPRMC,164013.4,A,4741.88674,N,12224.69321,W,005.50,354.7,210413,016.6,E,A*28
$PGRME,3.0,M,3.2,M,4.4,M*2C
$HCHDG,334.8,0.0,E,,*25
$IIVLW,06228,N,000.0,N*5D
$IIDPT,053.7,-1.0,*41
$HCHDG,335.0,0.0,E,,*2C
$IIGLL,4741.885,N,12224.693,W,164000,A,A*49
$GPRMC,164013.6,A,4741.88700,N,12224.69319,W,005.43,353.6,210413,016.6,E,A*27
$PGRME,3.0,M,3.2,M,4.4,M*2C
$IIMTW,+08.5,C*35
$HCHDG,335.0,0.0,E,,*2C
$IIRMB,A,,,,M   ,,,,,000.1,162,,V,A*7C
$YXXDR,A,4.8,D,PTCH,A,0.0,D,ROLL*51
$HCHDG,335.0,0.0,E,,*2C
$GPRMC,164013.8,A,4741.88728,N,12224.69318,W,005.41,353.6,210413,016.6,E,A*20
$PGRME,3.0,M,3.2,M,4.4,M*2C
$HCHDG,335.2,0.0,E,,*2E
$HCHDG,335.1,0.0,E,,*2D
$GPRMC,164014.0,A,4741.88757,N,12224.69322,W,005.38,352.7,210413,016.6,E,A*20
$PGRME,3.0,M,3.1,M,4.4,M*2F
$HCHDG,335.2,0.0,E,,*2E
$HCHDG,335.4,0.0,E,,*28
$GPRMC,164014.2,A,4741.88787,N,12224.69327,W,005.44,353.5,210413,016.6,E,A*22
$PGRME,3.0,M,3.1,M,4.4,M*2F
$YXXDR,A,5.5,D,PTCH,A,0.8,D,ROLL*55
$HCHDG,335.6,0.0,E,,*2A
$IIRMC,164000,A,4741.887,N,12224.693,W,05.4,353,210413,16,E,A*11
$HCHDG,335.4,0.0,E,,*28
$IIVHW,,,,,00.0,N,,*19
$GPRMC,164014.4,A,4741.88813,N,12224.69329,W,005.41,352.9,210413,016.6,E,A*20
$GPRMB,A,-0.08,L,,M,4741.7720,N,12224.5760,W,0.1,162,-5.38,V*42
$PGRME,3.0,M,3.1,M,4.4,M*2F
$IIVLW,06228,N,000.0,N*5D
$HCHDG,335.3,0.0,E,,*2F
$IIDPT,053.7,-1.0,*41
$HCHDG,335.4,0.0,E,,*28
$IIGLL,4741.887,N,12224.693,W,164000,A,A*4B
$GPRMC,164014.6,A,4741.88840,N,12224.69335,W,005.40,352.8,210413,016.6,E,A*29
$PGRME,3.0,M,3.1,M,4.4,M*2F
$IIMTW,+08.5,C*35
$HCHDG,335.5,0.0,E,,*29
$IIRMB,A,,,,M   ,,,,,000.1,162,,V,A*7C
$YXXDR,A,5.5,D,PTCH,A,0.9,D,ROLL*54
$PTAK,FFD1,0.9*5C
$HCHDG,335.3,0.0,E,,*2F
$GPRMC,164014.8,A,4741.88865,N,12224.69337,W,005.38,351.9,210413,016.6,E,A*2F
$PGRME,3.0,M,3.1,M,4.4,M*2F
$HCHDG,335.6,0.0,E,,*2A
$PTAK,FFP1,HEEL,@*07
$HCHDG,335.4,0.0,E,,*28
$GPRMC,164015.0,A,4741.88897,N,12224.69345,W,005.37,352.9,210413,016.6,E,A*22
$PGRME,3.0,M,3.1,M,4.4,M*2F
$HCHDG,335.3,0.0,E,,*2F
$HCHDG,335.2,0.0,E,,*2E
$GPRMC,164015.2,A,4741.88929,N,12224.69344,W,005.32,351.8,210413,016.6,E,A*22
$PGRME,3.0,M,3.1,M,4.4,M*2F
$YXXDR,A,5.0,D,PTCH,A,0.3,D,ROLL*5B
$HCHDG,335.2,0.0,E,,*2E
$IIRMC,164000,A,4741.888,N,12224.693,W,05.4,352,210413,16,E,A*1F
$HCHDG,335.2,0.0,E,,*2E
$IIVHW,,,,,00.0,N,,*19
$GPRMC,164015.4,A,4741.88962,N,12224.69355,W,005.34,353.3,210413,016.6,E,A*24
$GPRMB,A,-0.08,L,,M,4741.7720,N,12224.5760,W,0.1,163,-5.31,V*4A
$PGRME,3.0,M,3.1,M,4.4,M*2F
$IIVLW,06228,N,000.0,N*5D
$HCHDG,334.9,0.0,E,,*24
$IIDPT,054.4,-1.0,*45
$HCHDG,335.0,0.0,E,,*2C
$IIGLL,4741.888,N,12224.693,W,164000,A,A*44
$GPRMC,164015.6,A,4741.88989,N,12224.69358,W,005.30,351.8,210413,016.6,E,A*23
$PGRME,3.0,M,3.1,M,4.4,M*2F
$IIMTW,+08.5,C*35
$HCHDG,334.9,0.0,E,,*24
$IIRMB,A,,,,M   ,,,,,000.1,162,,V,A*7C
$YXXDR,A,4.8,D,PTCH,A,-0.3,D,ROLL*7F
$PTAK,FFD1,0.3*56
$HCHDG,334.8,0.0,E,,*25
$GPRMC,164015.8,A,4741.89020,N,12224.69359,W,005.30,352.7,210413,016.6,E,A*2B
$PGRME,3.0,M,3.1,M,4.3,M*28
$HCHDG,334.7,0.0,E,,*2A
$HCHDG,334.8,0.0,E,,*25
$GPRMC,164016.0,A,4741.89044,N,12224.69353,W,005.30,352.3,210413,016.6,E,A*2C
$PGRME,3.0,M,3.1,M,4.3,M*28
$HCHDG,335.0,0.0,E,,*2C
$HCHDG,334.9,0.0,E,,*24
$GPRMC,164016.2,A,4741.89073,N,12224.69359,W,005.32,353.0,210413,016.6,E,A*20
$PGRME,3.0,M,3.1,M,4.3,M*28
$YXXDR,A,5.8,D,PTCH,A,-0.5,D,ROLL*78
$HCHDG,335.0,0.0,E,,*2C
$IIRMC,164000,A,4741.889,N,12224.693,W,05.3,351,210413,16,E,A*1A
$HCHDG,334.9,0.0,E,,*24
$IIVHW,,,,,00.0,N,,*19
$GPRMC,164016.4,A,4741.89101,N,12224.69355,W,005.34,353.6,210413,016.6,E,A*2E
$GPRMB,A,-0.08,L,,M,4741.7720,N,12224.5760,W,0.1,163,-5.31,V*4A
$PGRME,3.0,M,3.1,M,4.3,M*28
$IIVLW,06228,N,000.0,N*5D
$HCHDG,334.9,0.0,E,,*24
$IIDPT,054.4,-1.0,*45
$HCHDG,335.0,0.0,E,,*2C
$IIGLL,4741.889,N,12224.693,W,164000,A,A*45
$GPRMC,164016.6,A,4741.89129,N,12224.69358,W,005.36,353.3,210413,016.6,E,A*2C
$PGRME,3.0,M,3.1,M,4.3,M*28
$IIMTW,+08.5,C*35
$HCHDG,335.0,0.0,E,,*2C
$IIRMB,A,,,,M   ,,,,,000.1,163,,V,A*7D
$YXXDR,A,5.1,D,PTCH,A,0.0,D,ROLL*59
$PTAK,FFD1,0.0*55
$HCHDG,335.0,0.0,E,,*2C
