$PGRME,2.4,M,2.4,M,3.5,M*28
$HCHDG,165.7,0.0,E,,*2C
$HCHDG,165.6,0.0,E,,*2D
$GPRMC,210000.6,A,4742.73275,N,12224.78395,W,001.09,188.3,200413,016.6,E,D*2E
$PGRME,2.4,M,2.4,M,3.5,M*28
$HCHDG,165.8,0.0,E,,*23
$HCHDG,165.8,0.0,E,,*23
$YXXDR,A,5.4,D,PTCH,A,3.5,D,ROLL*5A
$GPRMC,210000.8,A,4742.73271,N,12224.78392,W,001.15,188.3,200413,016.6,E,D*2E
$PGRME,2.4,M,2.4,M,3.5,M*28
$HCHDG,165.6,0.0,E,,*2D
$IIRMC,205900,A,4742.732,N,12224.783,W,00.8,188,200413,16,E,A*12
$HCHDG,165.8,0.0,E,,*23
$IIVHW,,,,,00.0,N,,*19
$GPRMC,210001.0,A,4742.73263,N,12224.78392,W,001.18,188.4,200413,016.6,E,D*2E
$GPRMB,A,-0.14,L,,M,4741.7720,N,12224.5760,W,1.0,188,1.13,V*6B
$IIVLW,06220,N,010.4,N*50
$PGRME,2.4,M,2.4,M,3.5,M*28
$HCHDG,165.9,0.0,E,,*22
$IIGLL,4742.732,N,12224.783,W,205900,A,A*44
$HCHDG,165.7,0.0,E,,*2C
$IIMTW,+09.0,C*31
$GPRMC,210001.2,A,4742.73255,N,12224.78397,W,001.23,188.6,200413,016.6,E,D*26
$PGRME,2.5,M,2.4,M,3.5,M*29
$IIRMB,A,,,,M   ,,,,,001.0,188,,V,A*78
$HCHDG,165.8,0.0,E,,*23
$YXXDR,A,5.4,D,PTCH,A,3.0,D,ROLL*5F
$PTAK,FFD1,3.0*56
$HCHDG,165.9,0.0,E,,*22
$GPRMC,210001.4,A,4742.73246,N,12224.78401,W,001.19,188.6,200413,016.6,E,D*23
$PGRME,2.5,M,2.4,M,3.5,M*29
$HCHDG,165.8,0.0,E,,*23
$HCHDG,165.7,0.0,E,,*2C
$GPRMC,210001.6,A,4742.73235,N,12224.78399,W,001.22,188.8,200413,016.6,E,D*25
$PGRME,2.5,M,2.4,M,3.5,M*29
$HCHDG,166.0,0.0,E,,*28
$HCHDG,166.0,0.0,E,,*28
$GPRMC,210001.8,A,4742.73228,N,12224.78399,W,001.23,188.6,200413,016.6,E,D*28
$YXXDR,A,5.4,D,PTCH,A,3.5,D,ROLL*5A
$PGRME,2.5,M,2.4,M,3.5,M*29
$HCHDG,165.9,0.0,E,,*22
$IIRMC,210000,A,4742.732,N,12224.783,W,01.1,188,200413,16,E,A*17
$HCHDG,166.0,0.0,E,,*28
$IIVHW,,,,,00.0,N,,*19
$GPRMC,210002.0,A,4742.73220,N,12224.78399,W,001.22,188.4,200413,016.6,E,D*28
$IIVLW,06220,N,010.4,N*50
$PGRME,2.5,M,2.4,M,3.5,M*29
$HCHDG,166.0,0.0,E,,*28
$IIGLL,4742.732,N,12224.783,W,210000,A,A*49
$HCHDG,165.9,0.0,E,,*22
$IIMTW,+09.0,C*31
$GPRMC,210002.2,A,4742.73216,N,12224.78397,W,001.21,188.4,200413,016.6,E,D*22
$GPRMB,A,-0.14,L,,M,4741.7720,N,12224.5760,W,1.0,188,1.16,V*6E
$PGRME,2.5,M,2.4,M,3.5,M*29
$IIRMB,A,,,,M   ,,,,,001.0,188,,V,A*78
$HCHDG,166.0,0.0,E,,*28
$YXXDR,A,5.6,D,PTCH,A,3.6,D,ROLL*5B
$PTAK,FFD1,3.6*50
$HCHDG,166.0,0.0,E,,*28
$GPRMC,210002.4,A,4742.73205,N,12224.78391,W,001.18,188.4,200413,016.6,E,D*2A
$PGRME,2.5,M,2.4,M,3.5,M*29
$HCHDG,166.0,0.0,E,,*28
$HCHDG,166.0,0.0,E,,*28
$GPRMC,210002.6,A,4742.73199,N,12224.78386,W,001.14,188.5,200413,016.6,E,D*25
$PGRME,2.5,M,2.4,M,3.5,M*29
$HCHDG,166.1,0.0,E,,*29
$HCHDG,166.4,0.0,E,,*2C
$YXXDR,A,5.3,D,PTCH,A,3.3,D,ROLL*5B
$GPRMC,210002.8,A,4742.73193,N,12224.78393,W,001.10,188.6,200413,016.6,E,D*22
$PGRME,2.5,M,2.4,M,3.5,M*29
$HCHDG,166.4,0.0,E,,*2C
$IIRMC,210000,A,4742.732,N,12224.783,W,01.2,188,200413,16,E,A*14
$HCHDG,166.4,0.0,E,,*2C
$IIVHW,,,,,00.0,N,,*19
$IIVLW,06220,N,010.4,N*50
$GPRMC,210003.0,A,4742.73181,N,12224.78400,W,001.09,188.6,200413,016.6,E,D*2D
$PGRME,2.5,M,2.4,M,3.5,M*29
$HCHDG,166.4,0.0,E,,*2C
$IIGLL,4742.732,N,12224.783,W,210000,A,A*49
$HCHDG,166.3,0.0,E,,*2B
$IIMTW,+08.0,C*30
$GPRMC,210003.2,A,4742.73174,N,12224.78395,W,001.06,188.5,200413,016.6,E,D*22
$PGRME,2.5,M,2.4,M,3.5,M*29
$IIRMB,A,,,,M   ,,,,,001.0,188,,V,A*78
$HCHDG,166.2,0.0,E,,*2A
$YXXDR,A,5.3,D,PTCH,A,3.3,D,ROLL*5B
$HCHDG,166.2,0.0,E,,*2A
$GPRMC,210003.4,A,4742.73172,N,12224.78393,W,001.08,188.6,200413,016.6,E,D*29
$GPRMB,A,-0.14,L,,M,4741.7720,N,12224.5760,W,1.0,188,1.04,V*6D
$PGRME,2.5,M,2.4,M,3.5,M*29
$HCHDG,165.9,0.0,E,,*22
$HCHDG,165.8,0.0,E,,*23
$GPRMC,210003.6,A,4742.73164,N,12224.78394,W,001.10,188.7,200413,016.6,E,D*23
$PGRME,2.5,M,2.4,M,3.5,M*29
$HCHDG,166.1,0.0,E,,*29
$PTAK,FFP1,HEEL,@*07
$HCHDG,166.1,0.0,E,,*29
$GPRMC,210003.8,A,4742.73163,N,12224.78400,W,001.14,188.8,200413,016.6,E,D*2B
$YXXDR,A,5.2,D,PTCH,A,3.4,D,ROLL*5D
$PTAK,FFD1,3.4*52
$PGRME,2.5,M,2.4,M,3.5,M*29
$HCHDG,166.0,0.0,E,,*28
$IIRMC,210000,A,4742.731,N,12224.784,W,01.0,188,200413,16,E,A*12
$HCHDG,165.9,0.0,E,,*22
$IIVHW,,,,,00.0,N,,*19
$GPRMC,210004.0,A,4742.73165,N,12224.78398,W,001.13,188.8,200413,016.6,E,D*23
$IIVLW,06220,N,010.4,N*50
$PGRME,2.5,M,2.4,M,3.5,M*29
$HCHDG,165.8,0.0,E,,*23
$IIGLL,4742.731,N,12224.784,W,210000,A,A*4D
$HCHDG,165.8,0.0,E,,*23
$IIMTW,+09.0,C*31
$GPRMC,210004.2,A,4742.73162,N,12224.78403,W,001.13,188.9,200413,016.6,E,D*22
$PGRME,2.5,M,2.4,M,3.5,M*29
$IIRMB,A,,,,M   ,,,,,001.0,188,,V,A*78
$HCHDG,165.8,0.0,E,,*23
$YXXDR,A,5.4,D,PTCH,A,3.3,D,ROLL*5C
$HCHDG,165.8,0.0,E,,*23
$GPRMC,210004.4,A,4742.73154,N,12224.78399,W,001.14,189.0,200413,016.6,E,D*2A
$PGRME,2.5,M,2.4,M,3.5,M*29
$HCHDG,165.7,0.0,E,,*2C
$HCHDG,165.7,0.0,E,,*2C
$GPRMC,210004.6,A,4742.73143,N,12224.78390,W,001.13,189.0,200413,016.6,E,D*20
$GPRMB,A,-0.14,L,,M,4741.7720,N,12224.5760,W,1.0,188,1.09,V*60
$PGRME,2.5,M,2.4,M,3.5,M*29
$HCHDG,165.6,0.0,E,,*2D
$HCHDG,165.6,0.0,E,,*2D
$YXXDR,A,5.3,D,PTCH,A,3.3,D,ROLL*5B
$GPRMC,210004.8,A,4742.73134,N,12224.78374,W,001.11,189.1,200413,016.6,E,D*27
$PGRME,2.5,M,2.4,M,3.5,M*29
$HCHDG,165.5,0.0,E,,*2E
$IIRMC,210000,A,4742.731,N,12224.784,W,01.1,188,200413,16,E,A*13
$HCHDG,165.5,0.0,E,,*2E
$IIVHW,,,,,00.0,N,,*19
$IIVLW,06220,N,010.4,N*50
$GPRMC,210005.0,A,4742.73126,N,12224.78369,W,001.12,189.1,200413,016.6,E,D*22
$PGRME,2.5,M,2.4,M,3.5,M*29
$HCHDG,165.4,0.0,E,,*2F
$IIGLL,4742.731,N,12224.784,W,210000,A,A*4D
$HCHDG,165.4,0.0,E,,*2F
$IIMTW,+09.0,C*31
$GPRMC,210005.2,A,4742.73114,N,12224.78370,W,001.12,188.8,200413,016.6,E,D*21
$PGRME,2.5,M,2.4,M,3.5,M*29
$IIRMB,A,,,,M   ,,,,,001.0,188,,V,A*78
$HCHDG,165.3,0.0,E,,*28
$YXXDR,A,5.4,D,PTCH,A,3.5,D,ROLL*5A
$PTAK,FFD1,3.5*53
$HCHDG,165.3,0.0,E,,*28
$GPRMC,210005.4,A,4742.73103,N,12224.78375,W,001.11,188.6,200413,016.6,E,D*29
$PGRME,2.5,M,2.4,M,3.5,M*29
$HCHDG,165.3,0.0,E,,*28
$HCHDG,165.5,0.0,E,,*2E
$GPRMC,210005.6,A,4742.73096,N,12224.78381,W,001.13,188.3,200413,016.6,E,D*2A
$GPRMB,A,-0.14,L,,M,4741.7720,N,12224.5760,W,1.0,188,1.08,V*61
$PGRME,2.5,M,2.4,M,3.5,M*29
$HCHDG,165.6,0.0,E,,*2D
$HCHDG,165.5,0.0,E,,*2E
$YXXDR,A,5.4,D,PTCH,A,3.0,D,ROLL*5F
$GPRMC,210005.8,A,4742.73085,N,12224.78381,W,001.14,188.2,200413,016.6,E,D*20
$PGRME,2.5,M,2.4,M,3.5,M*29
$HCHDG,165.7,0.0,E,,*2C
$IIRMC,210000,A,4742.731,N,12224.783,W,01.1,188,200413,16,E,A*14
$HCHDG,165.7,0.0,E,,*2C
$IIVHW,,,,,00.0,N,,*19
$GPRMC,210006.0,A,4742.73076,N,12224.78385,W,001.15,188.0,200413,016.6,E,D*20
$IIVLW,06220,N,010.4,N*50
$PGRME,2.5,M,2.4,M,3.5,M*29
$HCHDG,165.6,0.0,E,,*2D
$IIGLL,4742.731,N,12224.783,W,210000,A,A*4A
$HCHDG,165.8,0.0,E,,*23
$IIMTW,+09.0,C*31
$GPRMC,210006.2,A,4742.73072,N,12224.78387,W,001.15,188.2,200413,016.6,E,D*26
$PGRME,2.5,M,2.4,M,3.5,M*29
$IIRMB,A,,,,M   ,,,,,001.0,188,,V,A*78
$HCHDG,165.7,0.0,E,,*2C
$YXXDR,A,5.2,D,PTCH,A,2.6,D,ROLL*5E
$HCHDG,165.9,0.0,E,,*22
$GPRMC,210006.4,A,4742.73074,N,12224.78388,W,001.16,188.1,200413,016.6,E,D*29
$PGRME,2.5,M,2.4,M,3.5,M*29
$HCHDG,165.9,0.0,E,,*22
$HCHDG,165.8,0.0,E,,*23
$GPRMC,210006.6,A,4742.73065,N,12224.78386,W,001.14,188.2,200413,016.6,E,D*24
$PGRME,2.5,M,2.4,M,3.5,M*29
$HCHDG,166.1,0.0,E,,*29
$HCHDG,166.1,0.0,E,,*29
$YXXDR,A,5.3,D,PTCH,A,2.7,D,ROLL*5E
$PTAK,FFD1,2.7*50
$GPRMC,210006.8,A,4742.73050,N,12224.78383,W,001.15,188.2,200413,016.6,E,D*28
$GPRMB,A,-0.14,L,,M,4741.7720,N,12224.5760,W,1.0,188,1.10,V*68
$PGRME,2.5,M,2.4,M,3.5,M*29
$HCHDG,166.1,0.0,E,,*29
$IIRMC,210000,A,4742.730,N,12224.783,W,01.1,188,200413,16,E,A*15
$HCHDG,166.1,0.0,E,,*29
$IIVHW,,,,,00.0,N,,*19
$IIVLW,06220,N,010.4,N*50
$GPRMC,210007.0,A,4742.73044,N,12224.78380,W,001.14,188.1,200413,016.6,E,D*25
$PGRME,2.5,M,2.4,M,3.5,M*29
$HCHDG,166.1,0.0,E,,*29
$IIGLL,4742.730,N,12224.783,W,210000,A,A*4B
$HCHDG,166.1,0.0,E,,*29
$IIMTW,+08.5,C*35
$GPRMC,210007.2,A,4742.73033,N,12224.78385,W,001.14,188.2,200413,016.6,E,D*21
$PGRME,2.5,M,2.4,M,3.5,M*29
$IIRMB,A,,,,M   ,,,,,001.0,188,,V,A*78
$HCHDG,166.1,0.0,E,,*29
$YXXDR,A,5.4,D,PTCH,A,3.1,D,ROLL*5E
$HCHDG,166.0,0.0,E,,*28
$GPRMC,210007.4,A,4742.73021,N,12224.78386,W,001.10,188.2,200413,016.6,E,D*23
$PGRME,2.4,M,2.4,M,3.5,M*28
$HCHDG,166.0,0.0,E,,*28
$HCHDG,166.0,0.0,E,,*28
$GPRMC,210007.6,A,4742.73009,N,12224.78390,W,001.10,188.1,200413,016.6,E,D*2F
$PGRME,2.4,M,2.4,M,3.4,M*29
$HCHDG,165.8,0.0,E,,*23
$PTAK,FFP1,HEEL,@*07
$HCHDG,165.8,0.0,E,,*23
$GPRMC,210007.8,A,4742.72997,N,12224.78389,W,001.08,188.0,200413,016.6,E,D*2E
$YXXDR,A,5.4,D,PTCH,A,3.7,D,ROLL*58
$PTAK,FFD1,3.7*51
$PGRME,2.4,M,2.4,M,3.4,M*29
$HCHDG,165.8,0.0,E,,*23
$IIRMC,210000,A,4742.730,N,12224.783,W,01.1,188,200413,16,E,A*15
$HCHDG,165.9,0.0,E,,*22
$IIVHW,,,,,00.0,N,,*19
$IIVLW,06220,N,010.4,N*50
$GPRMC,210008.0,A,4742.72991,N,12224.78389,W,001.05,187.9,200413,016.6,E,D*24
$GPRMB,A,-0.14,L,,M,4741.7720,N,12224.5760,W,1.0,188,1.00,V*69
$PGRME,2.4,M,2.4,M,3.4,M*29
$HCHDG,165.9,0.0,E,,*22
$IIGLL,4742.730,N,12224.783,W,210000,A,A*4B
$HCHDG,165.7,0.0,E,,*2C
$IIMTW,+09.0,C*31
$GPRMC,210008.2,A,4742.72985,N,12224.78390,W,001.01,187.6,200413,016.6,E,D*20
$PGRME,2.4,M,2.4,M,3.4,M*29
$IIRMB,A,,,,M   ,,,,,001.0,188,,V,A*78
$HCHDG,165.7,0.0,E,,*2C
$YXXDR,A,5.1,D,PTCH,A,3.5,D,ROLL*5F
$HCHDG,165.7,0.0,E,,*2C
$GPRMC,210008.4,A,4742.72981,N,12224.78392,W,001.00,187.3,200413,016.6,E,D*24
$PGRME,2.4,M,2.4,M,3.4,M*29
$HCHDG,165.4,0.0,E,,*2F
$HCHDG,165.4,0.0,E,,*2F
$GPRMC,210008.6,A,4742.72975,N,12224.78406,W,001.00,187.1,200413,016.6,E,D*25
$PGRME,2.4,M,2.4,M,3.4,M*29
$HCHDG,165.3,0.0,E,,*28
$HCHDG,165.5,0.0,E,,*2E
$GPRMC,210008.8,A,4742.72966,N,12224.78399,W,001.02,186.9,200413,016.6,E,D*23
$YXXDR,A,5.1,D,PTCH,A,3.4,D,ROLL*5E
$PTAK,FFD1,3.4*52
$PGRME,2.4,M,2.4,M,3.4,M*29
$HCHDG,165.6,0.0,E,,*2D
$IIRMC,210000,A,4742.729,N,12224.783,W,01.0,187,200413,16,E,A*13
$HCHDG,165.5,0.0,E,,*2E
$IIVHW,,,,,00.0,N,,*19
$GPRMC,210009.0,A,4742.72957,N,12224.78394,W,001.07,187.0,200413,016.6,E,D*28
$IIVLW,06220,N,010.4,N*50
$PGRME,2.4,M,2.4,M,3.4,M*29
$HCHDG,165.7,0.0,E,,*2C
$IIGLL,4742.729,N,12224.783,W,210000,A,A*43
$HCHDG,166.0,0.0,E,,*28
$IIMTW,+09.0,C*31
$GPRMC,210009.2,A,4742.72949,N,12224.78396,W,001.25,187.1,200413,016.6,E,D*26
$GPRMB,A,-0.14,L,,M,4741.7720,N,12224.5760,W,1.0,188,1.19,V*61
$PGRME,2.4,M,2.4,M,3.4,M*29
$IIRMB,A,,,,M   ,,,,,001.0,188,,V,A*78
$HCHDG,166.2,0.0,E,,*2A
$YXXDR,A,5.1,D,PTCH,A,2.3,D,ROLL*58
$HCHDG,166.3,0.0,E,,*2B
$GPRMC,210009.4,A,4742.72942,N,12224.78392,W,001.30,187.4,200413,016.6,E,D*2E
$PGRME,2.4,M,2.4,M,3.4,M*29
$HCHDG,166.2,0.0,E,,*2A
$HCHDG,166.1,0.0,E,,*29
$GPRMC,210009.6,A,4742.72935,N,12224.78400,W,001.30,187.5,200413,016.6,E,D*21
$PGRME,2.4,M,2.4,M,3.4,M*29
$HCHDG,166.2,0.0,E,,*2A
$HCHDG,166.2,0.0,E,,*2A
$GPRMC,210009.8,A,4742.72929,N,12224.78403,W,001.23,187.6,200413,016.6,E,D*20
$YXXDR,A,5.6,D,PTCH,A,3.0,D,ROLL*5D
$PGRME,2.4,M,2.4,M,3.4,M*29
$HCHDG,166.0,0.0,E,,*28
$IIRMC,210000,A,4742.729,N,12224.783,W,01.3,187,200413,16,E,A*10
$HCHDG,166.0,0.0,E,,*28
$IIVHW,,,,,00.0,N,,*19
$GPRMC,210010.0,A,4742.72926,N,12224.78403,W,001.18,187.7,200413,016.6,E,D*26
$IIVLW,06220,N,010.4,N*50
$PGRME,2.4,M,2.4,M,3.4,M*29
$HCHDG,165.8,0.0,E,,*23
$IIGLL,4742.729,N,12224.783,W,210000,A,A*43
$HCHDG,165.9,0.0,E,,*22
$IIMTW,+09.0,C*31
$GPRMC,210010.2,A,4742.72921,N,12224.78403,W,001.17,187.6,200413,016.6,E,D*2D
$PGRME,2.4,M,2.4,M,3.4,M*29
$IIRMB,A,,,,M   ,,,,,001.0,188,,V,A*78
$HCHDG,165.7,0.0,E,,*2C
$YXXDR,A,5.5,D,PTCH,A,3.4,D,ROLL*5A
$PTAK,FFD1,3.4*52
$HCHDG,165.6,0.0,E,,*2D
$GPRMC,210010.4,A,4742.72913,N,12224.78402,W,001.13,187.5,200413,016.6,E,D*2C
$GPRMB,A,-0.14,L,,M,4741.7720,N,12224.5760,W,1.0,188,1.08,V*61
$PGRME,2.4,M,2.4,M,3.5,M*28
$HCHDG,165.7,0.0,E,,*2C
$HCHDG,165.7,0.0,E,,*2C
$GPRMC,210010.6,A,4742.72905,N,12224.78402,W,001.11,187.2,200413,016.6,E,D*2C
$PGRME,2.4,M,2.4,M,3.5,M*28
$HCHDG,165.5,0.0,E,,*2E
$HCHDG,165.5,0.0,E,,*2E
$GPRMC,210010.8,A,4742.72903,N,12224.78397,W,001.10,186.9,200413,016.6,E,D*24
$YXXDR,A,5.2,D,PTCH,A,3.6,D,ROLL*5F
$PGRME,2.4,M,2.4,M,3.5,M*28
$HCHDG,165.4,0.0,E,,*2F
$IIRMC,210000,A,4742.729,N,12224.784,W,01.1,187,200413,16,E,A*15
$HCHDG,165.4,0.0,E,,*2F
$IIVHW,,,,,00.0,N,,*19
$GPRMC,210011.0,A,4742.72895,N,12224.78395,W,001.28,186.5,200413,016.6,E,D*26
$IIVLW,06220,N,010.4,N*50
$PGRME,2.4,M,2.4,M,3.5,M*28
$HCHDG,165.3,0.0,E,,*28
$IIGLL,4742.729,N,12224.784,W,210000,A,A*44
$HCHDG,165.2,0.0,E,,*29
$IIMTW,+09.0,C*31
$GPRMC,210011.2,A,4742.72887,N,12224.78400,W,001.24,186.3,200413,016.6,E,D*26
$PGRME,2.4,M,2.4,M,3.5,M*28
$IIRMB,A,,,,M   ,,,,,001.0,188,,V,A*78
$HCHDG,165.3,0.0,E,,*28
$YXXDR,A,5.1,D,PTCH,A,3.4,D,ROLL*5E
$HCHDG,165.5,0.0,E,,*2E
$GPRMC,210011.4,A,4742.72881,N,12224.78400,W,001.20,186.3,200413,016.6,E,D*22
$GPRMB,A,-0.14,L,,M,4741.7720,N,12224.5760,W,1.0,188,1.14,V*6C
$PGRME,2.4,M,2.4,M,3.5,M*28
$HCHDG,165.4,0.0,E,,*2F
$HCHDG,165.6,0.0,E,,*2D
$GPRMC,210011.6,A,4742.72873,N,12224.78398,W,001.22,186.3,200413,016.6,E,D*29
$PGRME,2.4,M,2.4,M,3.5,M*28
$HCHDG,165.8,0.0,E,,*23
$PTAK,FFP1,HEEL,@*07
$HCHDG,165.8,0.0,E,,*23
$GPRMC,210011.8,A,4742.72867,N,12224.78393,W,001.24,186.4,200413,016.6,E,D*28
$YXXDR,A,5.1,D,PTCH,A,2.3,D,ROLL*58
$PTAK,FFD1,2.3*54
$PGRME,2.4,M,2.4,M,3.5,M*28
$HCHDG,166.0,0.0,E,,*28
$IIRMC,210000,A,4742.729,N,12224.784,W,01.1,187,200413,16,E,A*15
$HCHDG,166.1,0.0,E,,*29
$IIVHW,,,,,00.0,N,,*19
$GPRMC,210012.0,A,4742.72860,N,12224.78389,W,001.22,186.7,200413,016.6,E,D*2A
$IIVLW,06220,N,010.4,N*50
$PGRME,2.4,M,2.4,M,3.5,M*28
$HCHDG,166.0,0.0,E,,*28
$IIGLL,4742.729,N,12224.784,W,210000,A,A*44
$HCHDG,166.1,0.0,E,,*29
$IIMTW,+08.0,C*30
$GPRMC,210012.2,A,4742.72856,N,12224.78385,W,001.01,186.8,200413,016.6,E,D*2F
$PGRME,2.4,M,2.4,M,3.5,M*28
$IIRMB,A,,,,M   ,,,,,001.0,188,,V,A*78
$HCHDG,166.3,0.0,E,,*2B
$YXXDR,A,5.3,D,PTCH,A,2.4,D,ROLL*5D
$HCHDG,166.3,0.0,E,,*2B
$GPRMC,210012.4,A,4742.72848,N,12224.78395,W,001.08,186.9,200413,016.6,E,D*2F
$GPRMB,A,-0.14,L,,M,4741.7720,N,12224.5760,W,1.0,188,1.03,V*6A
$PGRME,2.4,M,2.4,M,3.5,M*28
$HCHDG,166.1,0.0,E,,*29
$HCHDG,166.1,0.0,E,,*29
$GPRMC,210012.6,A,4742.72840,N,12224.78392,W,001.13,187.0,200413,016.6,E,D*20
$PGRME,2.4,M,2.4,M,3.5,M*28
$HCHDG,166.1,0.0,E,,*29
$HCHDG,165.9,0.0,E,,*22
$GPRMC,210012.8,A,4742.72834,N,12224.78388,W,001.10,187.0,200413,016.6,E,D*25
$YXXDR,A,5.3,D,PTCH,A,3.3,D,ROLL*5B
$PTAK,FFD1,3.3*55
$PGRME,2.4,M,2.4,M,3.5,M*28
$HCHDG,165.9,0.0,E,,*22
$IIRMC,210000,A,4742.728,N,12224.783,W,01.2,186,200413,16,E,A*11
$HCHDG,165.9,0.0,E,,*22
$IIVHW,,,,,00.0,N,,*19
$GPRMC,210013.0,A,4742.72834,N,12224.78386,W,001.09,187.0,200413,016.6,E,D*2A
$IIVLW,06220,N,010.4,N*50
$PGRME,2.5,M,2.4,M,3.5,M*29
$HCHDG,165.7,0.0,E,,*2C
$IIGLL,4742.728,N,12224.783,W,210000,A,A*42
$HCHDG,165.6,0.0,E,,*2D
$IIMTW,+08.5,C*35
$GPRMC,210013.2,A,4742.72829,N,12224.78391,W,001.12,187.1,200413,016.6,E,D*29
$PGRME,2.5,M,2.4,M,3.5,M*29
$IIRMB,A,,,,M   ,,,,,001.0,188,,V,A*78
$HCHDG,165.6,0.0,E,,*2D
$YXXDR,A,5.1,D,PTCH,A,3.4,D,ROLL*5E
$HCHDG,165.6,0.0,E,,*2D
$GPRMC,210013.4,A,4742.72831,N,12224.78392,W,001.13,187.0,200413,016.6,E,D*25
$GPRMB,A,-0.14,L,,M,4741.7720,N,12224.5760,W,1.0,188,1.08,V*61
$PGRME,2.5,M,2.4,M,3.5,M*29
$HCHDG,165.5,0.0,E,,*2E
$HCHDG,165.5,0.0,E,,*2E
$GPRMC,210013.6,A,4742.72828,N,12224.78392,W,001.13,187.1,200413,016.6,E,D*2E
$PGRME,2.5,M,2.4,M,3.5,M*29
$HCHDG,165.5,0.0,E,,*2E
$HCHDG,165.8,0.0,E,,*23
$GPRMC,210013.8,A,4742.72825,N,12224.78399,W,001.16,187.3,200413,016.6,E,D*21
$YXXDR,A,5.3,D,PTCH,A,2.8,D,ROLL*51
$PTAK,FFD1,2.8*5F
$PGRME,2.5,M,2.4,M,3.5,M*29
$HCHDG,165.7,0.0,E,,*2C
$IIRMC,210000,A,4742.728,N,12224.783,W,01.2,186,200413,16,E,A*11
$HCHDG,165.7,0.0,E,,*2C
$IIVHW,,,,,00.0,N,,*19
$IIVLW,06220,N,010.4,N*50
$GPRMC,210014.0,A,4742.72820,N,12224.78401,W,001.17,187.3,200413,016.6,E,D*2C
$PGRME,2.5,M,2.4,M,3.5,M*29
$HCHDG,165.8,0.0,E,,*23
$IIGLL,4742.728,N,12224.783,W,210000,A,A*42
$HCHDG,165.9,0.0,E,,*22
$IIMTW,+09.0,C*31
$GPRMC,210014.2,A,4742.72819,N,12224.78403,W,001.18,187.5,200413,016.6,E,D*2F
$PGRME,2.5,M,2.4,M,3.5,M*29
$IIRMB,A,,,,M   ,,,,,001.0,188,,V,A*78
$HCHDG,165.9,0.0,E,,*22
$YXXDR,A,5.3,D,PTCH,A,2.7,D,ROLL*5E
$HCHDG,165.9,0.0,E,,*22
$GPRMC,210014.4,A,4742.72820,N,12224.78410,W,001.16,187.5,200413,016.6,E,D*2F
$PGRME,2.5,M,2.4,M,3.5,M*29
$HCHDG,165.9,0.0,E,,*22
$HCHDG,165.9,0.0,E,,*22
$GPRMC,210014.6,A,4742.72817,N,12224.78412,W,001.16,187.4,200413,016.6,E,D*2A
$GPRMB,A,-0.14,L,,M,4741.7720,N,12224.5760,W,1.0,188,1.11,V*69
$PGRME,2.5,M,2.4,M,3.5,M*29
$HCHDG,166.0,0.0,E,,*28
$HCHDG,166.0,0.0,E,,*28
$GPRMC,210014.8,A,4742.72809,N,12224.78426,W,001.16,187.4,200413,016.6,E,D*2C
$YXXDR,A,5.4,D,PTCH,A,3.0,D,ROLL*5F
$PTAK,FFD1,3.0*56
$PGRME,2.4,M,2.4,M,3.4,M*29
$HCHDG,165.9,0.0,E,,*22
$IIRMC,210000,A,4742.728,N,12224.783,W,01.1,187,200413,16,E,A*13
$HCHDG,165.9,0.0,E,,*22
$IIVHW,,,,,00.0,N,,*19
$GPRMC,210015.0,A,4742.72801,N,12224.78437,W,001.16,187.4,200413,016.6,E,D*2D
$IIVLW,06220,N,010.4,N*50
$PGRME,2.4,M,2.4,M,3.4,M*29
$HCHDG,165.8,0.0,E,,*23
$IIGLL,4742.728,N,12224.783,W,210000,A,A*42
$HCHDG,165.6,0.0,E,,*2D
$IIMTW,+09.0,C*31
$GPRMC,210015.2,A,4742.72797,N,12224.78441,W,001.14,187.2,200413,016.6,E,D*2A
$PGRME,2.4,M,2.4,M,3.4,M*29
$IIRMB,A,,,,M   ,,,,,001.0,188,,V,A*78
$HCHDG,165.6,0.0,E,,*2D
$YXXDR,A,5.2,D,PTCH,A,3.1,D,ROLL*58
$HCHDG,165.6,0.0,E,,*2D
$GPRMC,210015.4,A,4742.72788,N,12224.78434,W,001.11,187.3,200413,016.6,E,D*24
$PGRME,2.4,M,2.4,M,3.4,M*29
$HCHDG,165.6,0.0,E,,*2D
$HCHDG,165.6,0.0,E,,*2D
$GPRMC,210015.6,A,4742.72782,N,12224.78440,W,001.10,187.2,200413,016.6,E,D*2F
$PGRME,2.4,M,2.4,M,3.4,M*29
$HCHDG,165.6,0.0,E,,*2D
$HCHDG,165.6,0.0,E,,*2D
$PTAK,FFP1,HEEL,@*07
$GPRMC,210015.8,A,4742.72774,N,12224.78428,W,001.12,187.4,200413,016.6,E,D*22
$GPRMB,A,-0.14,L,,M,4741.7720,N,12224.5760,W,1.0,188,1.07,V*6E
$YXXDR,A,5.1,D,PTCH,A,3.0,D,ROLL*5A
$PTAK,FFD1,3.0*56
$PGRME,2.4,M,2.4,M,3.4,M*29
$HCHDG,165.8,0.0,E,,*23
$IIRMC,210000,A,4742.728,N,12224.784,W,01.1,187,200413,16,E,A*14
$HCHDG,165.8,0.0,E,,*23
$IIVHW,,,,,00.0,N,,*19
$GPRMC,210016.0,A,4742.72767,N,12224.78425,W,001.15,187.5,200413,016.6,E,D*20
$IIVLW,06220,N,010.4,N*50
$PGRME,2.4,M,2.4,M,3.4,M*29
$HCHDG,165.8,0.0,E,,*23
$IIGLL,4742.728,N,12224.784,W,210000,A,A*45
$HCHDG,165.8,0.0,E,,*23
$IIMTW,+09.0,C*31
$GPRMC,210016.2,A,4742.72757,N,12224.78418,W,001.15,187.5,200413,016.6,E,D*2F
$PGRME,2.4,M,2.4,M,3.4,M*29
$IIRMB,A,,,,M   ,,,,,001.0,188,,V,A*78
$HCHDG,165.8,0.0,E,,*23
$YXXDR,A,5.1,D,PTCH,A,2.9,D,ROLL*52
$HCHDG,165.7,0.0,E,,*2C
$GPRMC,210016.4,A,4742.72748,N,12224.78422,W,001.17,187.6,200413,016.6,E,D*2F
$PGRME,2.4,M,2.4,M,3.4,M*29
$HCHDG,165.7,0.0,E,,*2C
$HCHDG,165.8,0.0,E,,*23
$GPRMC,210016.6,A,4742.72741,N,12224.78421,W,001.15,187.9,200413,016.6,E,D*2A
$PGRME,2.4,M,2.4,M,3.4,M*29
$HCHDG,165.7,0.0,E,,*2C
$HCHDG,165.6,0.0,E,,*2D
$GPRMC,210016.8,A,4742.72737,N,12224.78422,W,001.11,187.9,200413,016.6,E,D*22
$YXXDR,A,5.4,D,PTCH,A,3.0,D,ROLL*5F
$PGRME,2.4,M,2.4,M,3.4,M*29
$HCHDG,165.6,0.0,E,,*2D
$IIRMC,210000,A,4742.727,N,12224.784,W,01.1,187,200413,16,E,A*1B
$HCHDG,165.6,0.0,E,,*2D
$IIVHW,,,,,00.0,N,,*19
$GPRMC,210017.0,A,4742.72736,N,12224.78426,W,001.11,188.0,200413,016.6,E,D*28
$GPRMB,A,-0.14,L,,M,4741.7720,N,12224.5760,W,1.0,188,1.06,V*6F
$IIVLW,06220,N,010.4,N*50
$PGRME,2.4,M,2.4,M,3.4,M*29
$HCHDG,165.6,0.0,E,,*2D
$IIGLL,4742.727,N,12224.784,W,210000,A,A*4A
$HCHDG,165.6,0.0,E,,*2D
$IIMTW,+08.0,C*30
$GPRMC,210017.2,A,4742.72731,N,12224.78433,W,001.09,187.9,200413,016.6,E,D*26
$PGRME,2.4,M,2.4,M,3.4,M*29
$IIRMB,A,,,,M   ,,,,,001.0,188,,V,A*78
$HCHDG,165.4,0.0,E,,*2F
$YXXDR,A,5.4,D,PTCH,A,3.1,D,ROLL*5E
$PTAK,FFD1,3.1*57
$HCHDG,165.4,0.0,E,,*2F
$GPRMC,210017.4,A,4742.72727,N,12224.78428,W,000.93,188.0,200413,016.6,E,D*29
$PGRME,2.4,M,2.4,M,3.4,M*29
$HCHDG,165.4,0.0,E,,*2F
$HCHDG,165.6,0.0,E,,*2D
$GPRMC,210017.6,A,4742.72721,N,12224.78432,W,001.17,188.0,200413,016.6,E,D*2B
$PGRME,2.4,M,2.4,M,3.4,M*29
$HCHDG,165.6,0.0,E,,*2D
$HCHDG,165.7,0.0,E,,*2C
$GPRMC,210017.8,A,4742.72716,N,12224.78428,W,001.00,188.0,200413,016.6,E,D*2C
$YXXDR,A,5.5,D,PTCH,A,2.9,D,ROLL*56
$PGRME,2.4,M,2.4,M,3.4,M*29
$HCHDG,165.6,0.0,E,,*2D
$IIRMC,210000,A,4742.727,N,12224.784,W,01.1,187,200413,16,E,A*1B
$HCHDG,165.6,0.0,E,,*2D
$IIVHW,,,,,00.0,N,,*19
$GPRMC,210018.0,A,4742.72709,N,12224.78431,W,001.03,188.0,200413,016.6,E,D*2E
$IIVLW,06220,N,010.4,N*50
$PGRME,2.4,M,2.4,M,3.4,M*29
$HCHDG,165.6,0.0,E,,*2D
$IIGLL,4742.727,N,12224.784,W,210000,A,A*4A
$HCHDG,165.7,0.0,E,,*2C
$IIMTW,+09.0,C*31
$GPRMC,210018.2,A,4742.72706,N,12224.78431,W,001.07,188.1,200413,016.6,E,D*26
$GPRMB,A,-0.14,L,,M,4741.7720,N,12224.5760,W,1.0,188,1.02,V*6B
$PGRME,2.4,M,2.4,M,3.4,M*29
$IIRMB,A,,,,M   ,,,,,001.0,188,,V,A*78
$HCHDG,165.7,0.0,E,,*2C
$YXXDR,A,5.3,D,PTCH,A,2.8,D,ROLL*51
$PTAK,FFD1,2.8*5F
$HCHDG,165.7,0.0,E,,*2C
$GPRMC,210018.4,A,4742.72700,N,12224.78429,W,001.09,188.1,200413,016.6,E,D*21
$PGRME,2.4,M,2.4,M,3.4,M*29
$HCHDG,165.6,0.0,E,,*2D
$HCHDG,165.7,0.0,E,,*2C
$GPRMC,210018.6,A,4742.72691,N,12224.78429,W,001.08,188.1,200413,016.6,E,D*2B
$PGRME,2.4,M,2.4,M,3.4,M*29
$HCHDG,165.7,0.0,E,,*2C
$HCHDG,165.7,0.0,E,,*2C
$GPRMC,210018.8,A,4742.72676,N,12224.78421,W,001.09,187.9,200413,016.6,E,D*22
$YXXDR,A,5.1,D,PTCH,A,3.0,D,ROLL*5A
$PGRME,2.4,M,2.4,M,3.4,M*29
$HCHDG,165.7,0.0,E,,*2C
$IIRMC,210000,A,4742.727,N,12224.784,W,01.1,188,200413,16,E,A*14
$HCHDG,165.6,0.0,E,,*2D
$IIVHW,,,,,00.0,N,,*19
$GPRMC,210019.0,A,4742.72662,N,12224.78419,W,001.10,187.8,200413,016.6,E,D*2C
$IIVLW,06220,N,010.4,N*50
$PGRME,2.4,M,2.4,M,3.4,M*29
$HCHDG,165.6,0.0,E,,*2D
$IIGLL,4742.727,N,12224.784,W,210000,A,A*4A
$HCHDG,165.6,0.0,E,,*2D
$IIMTW,+09.0,C*31
$GPRMC,210019.2,A,4742.72655,N,12224.78420,W,001.12,187.6,200413,016.6,E,D*2C
$GPRMB,A,-0.14,L,,M,4741.7720,N,12224.5760,W,1.0,188,1.07,V*6E
$PGRME,2.4,M,2.4,M,3.4,M*29
$IIRMB,A,,,,M   ,,,,,001.0,188,,V,A*78
$HCHDG,165.6,0.0,E,,*2D
$YXXDR,A,5.4,D,PTCH,A,3.1,D,ROLL*5E
$HCHDG,165.6,0.0,E,,*2D
$GPRMC,210019.4,A,4742.72648,N,12224.78420,W,001.12,187.5,200413,016.6,E,D*25
$PGRME,2.4,M,2.4,M,3.4,M*29
$HCHDG,165.6,0.0,E,,*2D
$HCHDG,165.7,0.0,E,,*2C
$GPRMC,210019.6,A,4742.72643,N,12224.78423,W,001.11,187.4,200413,016.6,E,D*2D
$PGRME,2.4,M,2.4,M,3.4,M*29
$HCHDG,165.6,0.0,E,,*2D
$HCHDG,165.6,0.0,E,,*2D
$PTAK,FFP1,HEEL,@*07
$GPRMC,210019.8,A,4742.72639,N,12224.78428,W,001.14,187.4,200413,016.6,E,D*20
$YXXDR,A,5.4,D,PTCH,A,2.9,D,ROLL*57
$PTAK,FFD1,2.9*5E
$PGRME,2.4,M,2.4,M,3.4,M*29
$HCHDG,165.9,0.0,E,,*22
$IIRMC,210000,A,4742.726,N,12224.784,W,01.0,188,200413,16,E,A*14
$HCHDG,165.9,0.0,E,,*22
$IIVHW,,,,,00.0,N,,*19
$IIVLW,06220,N,010.4,N*50
$GPRMC,210020.0,A,4742.72633,N,12224.78430,W,001.16,187.6,200413,016.6,E,D*21
$PGRME,2.4,M,2.4,M,3.4,M*29
$HCHDG,165.8,0.0,E,,*23
$IIGLL,4742.726,N,12224.784,W,210000,A,A*4B
$HCHDG,165.9,0.0,E,,*22
$IIMTW,+09.0,C*31
$GPRMC,210020.2,A,4742.72628,N,12224.78428,W,001.17,187.9,200413,016.6,E,D*2E
$GPRMB,A,-0.14,L,,M,4741.7720,N,12224.5760,W,1.0,188,1.12,V*6A
$PGRME,2.4,M,2.4,M,3.4,M*29
$IIRMB,A,,,,M   ,,,,,001.0,188,,V,A*78
$HCHDG,165.9,0.0,E,,*22
$YXXDR,A,5.4,D,PTCH,A,2.9,D,ROLL*57
$HCHDG,165.9,0.0,E,,*22
$GPRMC,210020.4,A,4742.72624,N,12224.78426,W,001.16,187.8,200413,016.6,E,D*2A
$PGRME,2.4,M,2.4,M,3.4,M*29
$HCHDG,166.0,0.0,E,,*28
$HCHDG,165.8,0.0,E,,*23
$GPRMC,210020.6,A,4742.72621,N,12224.78434,W,001.14,187.9,200413,016.6,E,D*2D
$PGRME,2.4,M,2.4,M,3.4,M*29
$HCHDG,165.8,0.0,E,,*23
$HCHDG,165.9,0.0,E,,*22
$GPRMC,210020.8,A,4742.72616,N,12224.78436,W,001.13,187.8,200413,016.6,E,D*23
$YXXDR,A,5.4,D,PTCH,A,3.5,D,ROLL*5A
$PTAK,FFD1,3.5*53
$PGRME,2.4,M,2.4,M,3.4,M*29
$HCHDG,165.7,0.0,E,,*2C
$IIRMC,210000,A,4742.726,N,12224.784,W,01.1,187,200413,16,E,A*1A
$HCHDG,165.8,0.0,E,,*23
$IIVHW,,,,,00.0,N,,*19
$GPRMC,210021.0,A,4742.72610,N,12224.78439,W,001.12,187.7,200413,016.6,E,D*2D
$IIVLW,06220,N,010.4,N*50
$PGRME,2.4,M,2.4,M,3.4,M*29
$HCHDG,165.7,0.0,E,,*2C
$IIGLL,4742.726,N,12224.784,W,210000,A,A*4B
$HCHDG,165.6,0.0,E,,*2D
$IIMTW,+09.0,C*31
$GPRMC,210021.2,A,4742.72609,N,12224.78444,W,001.11,187.3,200413,016.6,E,D*2A
$GPRMB,A,-0.14,L,,M,4741.7720,N,12224.5760,W,1.0,188,1.06,V*6F
$PGRME,2.4,M,2.4,M,3.5,M*28
$IIRMB,A,,,,M   ,,,,,001.0,188,,V,A*78
$HCHDG,165.6,0.0,E,,*2D
$YXXDR,A,5.2,D,PTCH,A,3.5,D,ROLL*5C
$HCHDG,165.7,0.0,E,,*2C
$GPRMC,210021.4,A,4742.72605,N,12224.78443,W,000.94,187.3,200413,016.6,E,D*2B
$PGRME,2.4,M,2.4,M,3.5,M*28
$HCHDG,165.6,0.0,E,,*2D
$HCHDG,165.7,0.0,E,,*2C
$GPRMC,210021.6,A,4742.72598,N,12224.78439,W,001.00,187.1,200413,016.6,E,D*2D
$PGRME,2.4,M,2.4,M,3.5,M*28
$HCHDG,165.4,0.0,E,,*2F
$HCHDG,165.4,0.0,E,,*2F
$GPRMC,210021.8,A,4742.72593,N,12224.78439,W,001.04,186.9,200413,016.6,E,D*25
$YXXDR,A,5.2,D,PTCH,A,3.5,D,ROLL*5C
$PTAK,FFD1,3.5*53
$PGRME,2.4,M,2.4,M,3.5,M*28
$HCHDG,165.4,0.0,E,,*2F
$IIRMC,210000,A,4742.726,N,12224.784,W,01.1,187,200413,16,E,A*1A
$HCHDG,165.4,0.0,E,,*2F
$IIVHW,,,,,00.0,N,,*19
$GPRMC,210022.0,A,4742.72585,N,12224.78439,W,001.03,187.0,200413,016.6,E,D*26
$IIVLW,06220,N,010.4,N*50
$PGRME,2.4,M,2.4,M,3.5,M*28
$HCHDG,165.4,0.0,E,,*2F
$IIGLL,4742.726,N,12224.784,W,210000,A,A*4B
$HCHDG,165.4,0.0,E,,*2F
$IIMTW,+09.0,C*31
$GPRMC,210022.2,A,4742.72579,N,12224.78449,W,001.03,187.0,200413,016.6,E,D*20
$PGRME,2.4,M,2.4,M,3.5,M*28
$IIRMB,A,,,,M   ,,,,,001.0,188,,V,A*78
$HCHDG,165.6,0.0,E,,*2D
$YXXDR,A,5.4,D,PTCH,A,3.1,D,ROLL*5E
$HCHDG,165.6,0.0,E,,*2D
$GPRMC,210022.4,A,4742.72572,N,12224.78457,W,001.19,187.0,200413,016.6,E,D*29
$GPRMB,A,-0.14,L,,M,4741.7720,N,12224.5760,W,1.0,188,1.13,V*6B
$PGRME,2.4,M,2.4,M,3.5,M*28
$HCHDG,165.5,0.0,E,,*2E
$HCHDG,165.8,0.0,E,,*23
$GPRMC,210022.6,A,4742.72560,N,12224.78469,W,001.17,187.0,200413,016.6,E,D*2B
$PGRME,2.4,M,2.4,M,3.5,M*28
$HCHDG,165.8,0.0,E,,*23
$HCHDG,165.8,0.0,E,,*23
$GPRMC,210022.8,A,4742.72549,N,12224.78478,W,001.13,187.1,200413,016.6,E,D*2B
$YXXDR,A,5.4,D,PTCH,A,2.9,D,ROLL*57
$PTAK,FFD1,2.9*5E
$PGRME,2.4,M,2.4,M,3.5,M*28
$HCHDG,165.9,0.0,E,,*22
$IIRMC,210000,A,4742.725,N,12224.784,W,01.0,187,200413,16,E,A*18
$HCHDG,165.8,0.0,E,,*23
$IIVHW,,,,,00.0,N,,*19
$IIVLW,06220,N,010.4,N*50
$GPRMC,210023.0,A,4742.72540,N,12224.78483,W,001.10,187.0,200413,016.6,E,D*2D
$PGRME,2.4,M,2.4,M,3.5,M*28
$HCHDG,165.8,0.0,E,,*23
$IIGLL,4742.725,N,12224.784,W,210000,A,A*48
$HCHDG,165.6,0.0,E,,*2D
$IIMTW,+09.0,C*31
$GPRMC,210023.2,A,4742.72538,N,12224.78487,W,001.11,187.0,200413,016.6,E,D*25
$PGRME,2.4,M,2.4,M,3.5,M*28
$IIRMB,A,,,,M   ,,,,,001.0,188,,V,A*78
$HCHDG,165.6,0.0,E,,*2D
$YXXDR,A,5.5,D,PTCH,A,3.1,D,ROLL*5F
$HCHDG,165.6,0.0,E,,*2D
$GPRMC,210023.4,A,4742.72528,N,12224.78487,W,001.10,187.0,200413,016.6,E,D*23
$GPRMB,A,-0.14,L,,M,4741.7720,N,12224.5760,W,1.0,188,1.05,V*6C
$PGRME,2.4,M,2.4,M,3.5,M*28
$HCHDG,165.3,0.0,E,,*28
$HCHDG,165.3,0.0,E,,*28
$GPRMC,210023.6,A,4742.72518,N,12224.78485,W,001.10,186.8,200413,016.6,E,D*29
$PGRME,2.4,M,2.4,M,3.5,M*28
$HCHDG,165.3,0.0,E,,*28
$HCHDG,165.2,0.0,E,,*29
$PTAK,FFP1,HEEL,@*07
$GPRMC,210023.8,A,4742.72508,N,12224.78489,W,001.07,186.8,200413,016.6,E,D*2C
$YXXDR,A,5.4,D,PTCH,A,3.5,D,ROLL*5A
$PGRME,2.4,M,2.4,M,3.5,M*28
$HCHDG,165.1,0.0,E,,*2A
$IIRMC,210000,A,4742.725,N,12224.784,W,01.1,187,200413,16,E,A*19
$HCHDG,165.1,0.0,E,,*2A
$IIVHW,,,,,00.0,N,,*19
$IIVLW,06220,N,010.4,N*50
$GPRMC,210024.0,A,4742.72498,N,12224.78483,W,001.06,186.9,200413,016.6,E,D*21
$PGRME,2.4,M,2.4,M,3.5,M*28
$HCHDG,165.1,0.0,E,,*2A
$IIGLL,4742.725,N,12224.784,W,210000,A,A*48
$HCHDG,165.0,0.0,E,,*2B
$IIMTW,+09.0,C*31
$GPRMC,210024.2,A,4742.72490,N,12224.78479,W,001.06,186.9,200413,016.6,E,D*2E
$PGRME,2.4,M,2.4,M,3.5,M*28
$IIRMB,A,,,,M   ,,,,,001.0,188,,V,A*78
$HCHDG,165.2,0.0,E,,*29
$YXXDR,A,5.0,D,PTCH,A,3.2,D,ROLL*59
$PTAK,FFD1,3.2*54
$HCHDG,165.2,0.0,E,,*29
$GPRMC,210024.4,A,4742.72485,N,12224.78477,W,001.10,187.1,200413,016.6,E,D*2C
$PGRME,2.4,M,2.4,M,3.5,M*28
$HCHDG,165.2,0.0,E,,*29
$HCHDG,165.3,0.0,E,,*28
$GPRMC,210024.6,A,4742.72479,N,12224.78485,W,001.09,187.2,200413,016.6,E,D*2B
$GPRMB,A,-0.14,L,,M,4741.7720,N,12224.5760,W,1.0,188,1.04,V*6D
$PGRME,2.4,M,2.4,M,3.5,M*28
$HCHDG,165.3,0.0,E,,*28
$HCHDG,165.3,0.0,E,,*28
$GPRMC,210024.8,A,4742.72475,N,12224.78495,W,001.12,187.5,200413,016.6,E,D*25
$YXXDR,A,5.2,D,PTCH,A,2.7,D,ROLL*5F
$PGRME,2.4,M,2.4,M,3.5,M*28
$HCHDG,165.2,0.0,E,,*29
$IIRMC,210000,A,4742.725,N,12224.784,W,01.1,186,200413,16,E,A*18
$HCHDG,165.2,0.0,E,,*29
$IIVHW,,,,,00.0,N,,*19
$GPRMC,210025.0,A,4742.72472,N,12224.78502,W,001.15,187.8,200413,016.6,E,D*2E
$IIVLW,06220,N,010.4,N*50
$PGRME,2.4,M,2.4,M,3.5,M*28
$HCHDG,165.4,0.0,E,,*2F
$IIGLL,4742.725,N,12224.784,W,210000,A,A*48
$HCHDG,165.4,0.0,E,,*2F
$IIMTW,+09.0,C*31
$GPRMC,210025.2,A,4742.72462,N,12224.78504,W,001.19,187.8,200413,016.6,E,D*27
$PGRME,2.4,M,2.4,M,3.5,M*28
$IIRMB,A,,,,M   ,,,,,001.0,188,,V,A*78
$HCHDG,165.4,0.0,E,,*2F
$YXXDR,A,5.4,D,PTCH,A,3.0,D,ROLL*5F
$HCHDG,165.4,0.0,E,,*2F
$GPRMC,210025.4,A,4742.72453,N,12224.78497,W,001.21,187.7,200413,016.6,E,D*2C
$PGRME,2.5,M,2.4,M,3.5,M*29
$HCHDG,165.4,0.0,E,,*2F
$HCHDG,165.4,0.0,E,,*2F
$GPRMC,210025.6,A,4742.72449,N,12224.78491,W,001.26,187.9,200413,016.6,E,D*2A
$GPRMB,A,-0.14,L,,M,4741.7720,N,12224.5760,W,1.0,188,1.21,V*6A
$PGRME,2.5,M,2.4,M,3.5,M*29
$HCHDG,165.5,0.0,E,,*2E
$HCHDG,165.5,0.0,E,,*2E
$GPRMC,210025.8,A,4742.72451,N,12224.78483,W,001.23,188.0,200413,016.6,E,D*2D
$YXXDR,A,5.5,D,PTCH,A,2.9,D,ROLL*56
$PTAK,FFD1,2.9*5E
$PGRME,2.5,M,2.4,M,3.5,M*29
$HCHDG,165.4,0.0,E,,*2F
$IIRMC,210000,A,4742.724,N,12224.784,W,01.0,187,200413,16,E,A*19
$HCHDG,165.4,0.0,E,,*2F
$IIVHW,,,,,00.0,N,,*19
$IIVLW,06220,N,010.4,N*50
$GPRMC,210026.0,A,4742.72443,N,12224.78477,W,001.22,187.9,200413,016.6,E,D*29
$PGRME,2.5,M,2.4,M,3.5,M*29
$HCHDG,165.2,0.0,E,,*29
$IIGLL,4742.724,N,12224.784,W,210000,A,A*49
$HCHDG,165.2,0.0,E,,*29
$IIMTW,+08.0,C*30
$GPRMC,210026.2,A,4742.72437,N,12224.78484,W,001.19,187.8,200413,016.6,E,D*2D
$PGRME,2.5,M,2.4,M,3.5,M*29
$IIRMB,A,,,,M   ,,,,,001.0,188,,V,A*78
$HCHDG,165.1,0.0,E,,*2A
$YXXDR,A,5.4,D,PTCH,A,3.1,D,ROLL*5E
$HCHDG,165.1,0.0,E,,*2A
$GPRMC,210026.4,A,4742.72429,N,12224.78485,W,001.18,187.8,200413,016.6,E,D*24
$PGRME,2.5,M,2.4,M,3.5,M*29
$HCHDG,165.2,0.0,E,,*29
$HCHDG,165.1,0.0,E,,*2A
$GPRMC,210026.6,A,4742.72424,N,12224.78488,W,001.14,187.9,200413,016.6,E,D*2B
$PGRME,2.5,M,2.4,M,3.5,M*29
$HCHDG,165.2,0.0,E,,*29
$HCHDG,165.1,0.0,E,,*2A
$GPRMC,210026.8,A,4742.72419,N,12224.78487,W,001.13,187.8,200413,016.6,E,D*22
$GPRMB,A,-0.14,L,,M,4741.7720,N,12224.5760,W,1.0,188,1.08,V*61
$YXXDR,A,5.4,D,PTCH,A,3.1,D,ROLL*5E
$PTAK,FFD1,3.1*57
$PGRME,2.5,M,2.4,M,3.5,M*29
$HCHDG,165.2,0.0,E,,*29
$HCHDG,165.5,0.0,E,,*2E
$GPRMC,210027.0,A,4742.72416,N,12224.78487,W,001.09,187.4,200413,016.6,E,D*23
$PGRME,2.5,M,2.4,M,3.5,M*29
$HCHDG,165.5,0.0,E,,*2E
$HCHDG,165.5,0.0,E,,*2E
$GPRMC,210027.2,A,4742.72417,N,12224.78486,W,001.05,187.4,200413,016.6,E,D*2D
$PGRME,2.5,M,2.4,M,3.5,M*29
$HCHDG,165.5,0.0,E,,*2E
$YXXDR,A,5.1,D,PTCH,A,2.9,D,ROLL*52
$HCHDG,165.4,0.0,E,,*2F
$GPRMC,210027.4,A,4742.72411,N,12224.78488,W,001.05,187.3,200413,016.6,E,D*24
$PGRME,2.5,M,2.4,M,3.5,M*29
$HCHDG,165.4,0.0,E,,*2F
$HCHDG,165.3,0.0,E,,*28
$GPRMC,210027.6,A,4742.72405,N,12224.78496,W,001.07,187.3,200413,016.6,E,D*2E
$PGRME,2.5,M,2.4,M,3.5,M*29
$HCHDG,165.3,0.0,E,,*28
$HCHDG,165.3,0.0,E,,*28
$YXXDR,A,5.3,D,PTCH,A,2.8,D,ROLL*51
$PTAK,FFP1,HEEL,@*07
$GPRMC,210027.8,A,4742.72396,N,12224.78498,W,001.08,187.4,200413,016.6,E,D*2B
$GPRMB,A,-0.14,L,,M,4741.7720,N,12224.5760,W,1.0,188,1.03,V*6A
$PGRME,2.5,M,2.4,M,3.5,M*29
$HCHDG,165.3,0.0,E,,*28
$HCHDG,165.2,0.0,E,,*29
$GPRMC,210028.0,A,4742.72392,N,12224.78498,W,001.12,187.6,200413,016.6,E,D*21
$PGRME,2.5,M,2.4,M,3.5,M*29
$HCHDG,165.3,0.0,E,,*28
$HCHDG,165.5,0.0,E,,*2E
$GPRMC,210028.2,A,4742.72393,N,12224.78499,W,001.13,187.6,200413,016.6,E,D*22
$PGRME,2.5,M,2.4,M,3.5,M*29
$HCHDG,165.5,0.0,E,,*2E
$YXXDR,A,5.3,D,PTCH,A,2.8,D,ROLL*51
$PTAK,FFD1,2.8*5F
$HCHDG,165.5,0.0,E,,*2E
$GPRMC,210028.4,A,4742.72388,N,12224.78503,W,001.16,187.6,200413,016.6,E,D*29
$PGRME,2.5,M,2.4,M,3.5,M*29
$HCHDG,165.2,0.0,E,,*29
$HCHDG,165.2,0.0,E,,*29
$GPRMC,210028.6,A,4742.72382,N,12224.78507,W,001.19,187.5,200413,016.6,E,D*29
$PGRME,2.5,M,2.4,M,3.5,M*29
$HCHDG,165.3,0.0,E,,*28
$HCHDG,165.2,0.0,E,,*29
$GPRMC,210028.8,A,4742.72374,N,12224.78509,W,001.22,187.3,200413,016.6,E,D*2E
$YXXDR,A,5.4,D,PTCH,A,3.1,D,ROLL*5E
$PGRME,2.5,M,2.4,M,3.5,M*29
$HCHDG,165.3,0.0,E,,*28
$HCHDG,165.3,0.0,E,,*28
$GPRMC,210029.0,A,4742.72366,N,12224.78505,W,001.21,187.5,200413,016.6,E,D*2D
$GPRMB,A,-0.14,L,,M,4741.7720,N,12224.5760,W,1.0,188,1.16,V*6E
$PGRME,2.5,M,2.4,M,3.5,M*29
$HCHDG,165.3,0.0,E,,*28
$HCHDG,165.6,0.0,E,,*2D
$GPRMC,210029.2,A,4742.72351,N,12224.78522,W,001.21,187.4,200413,016.6,E,D*2F
$PGRME,2.5,M,2.4,M,3.5,M*29
$HCHDG,165.7,0.0,E,,*2C
$YXXDR,A,5.3,D,PTCH,A,2.7,D,ROLL*5E
$PTAK,FFD1,2.7*50
$HCHDG,165.7,0.0,E,,*2C
$GPRMC,210029.4,A,4742.72342,N,12224.78525,W,001.04,187.4,200413,016.6,E,D*2B
$PGRME,2.5,M,2.4,M,3.5,M*29
$HCHDG,165.8,0.0,E,,*23
$HCHDG,165.7,0.0,E,,*2C
$GPRMC,210029.6,A,4742.72336,N,12224.78516,W,001.07,187.4,200413,016.6,E,D*29
$PGRME,2.5,M,2.4,M,3.5,M*29
$HCHDG,165.5,0.0,E,,*2E
$HCHDG,165.6,0.0,E,,*2D
$GPRMC,210029.8,A,4742.72328,N,12224.78508,W,001.09,187.2,200413,016.6,E,D*2F
$YXXDR,A,5.5,D,PTCH,A,3.1,D,ROLL*5F
$PGRME,2.5,M,2.4,M,3.5,M*29
$HCHDG,165.8,0.0,E,,*23
$IIRMC,210000,A,4742.724,N,12224.784,W,01.2,187,200413,16,E,A*1B
$HCHDG,165.6,0.0,E,,*2D
$IIVHW,,,,,00.0,N,,*19
$IIVLW,06220,N,010.4,N*50
$GPRMC,210030.0,A,4742.72322,N,12224.78509,W,001.10,187.0,200413,016.6,E,D*2E
$GPRMB,A,-0.14,L,,M,4741.7720,N,12224.5760,W,1.0,188,1.05,V*6C
$PGRME,2.5,M,2.4,M,3.5,M*29
$HCHDG,165.6,0.0,E,,*2D
$IIGLL,4742.724,N,12224.784,W,210000,A,A*49
$HCHDG,165.5,0.0,E,,*2E
$IIMTW,+09.0,C*31
$GPRMC,210030.2,A,4742.72317,N,12224.78509,W,001.11,187.1,200413,016.6,E,D*2A
$IIRMB,A,,,,M   ,,,,,001.0,188,,V,A*78
$PGRME,2.5,M,2.4,M,3.5,M*29
$HCHDG,165.6,0.0,E,,*2D
$YXXDR,A,5.3,D,PTCH,A,3.6,D,ROLL*5E
$PTAK,FFD1,3.6*50
$IIRMC,210000,A,4742.724,N,12224.784,W,01.1,187,200413,16,E,A*18
$HCHDG,165.5,0.0,E,,*2E
$GPRMC,210030.4,A,4742.72303,N,12224.78508,W,001.12,187.0,200413,016.6,E,D*2A
$PGRME,2.4,M,2.4,M,3.5,M*28
$HCHDG,165.7,0.0,E,,*2C
$HCHDG,165.7,0.0,E,,*2C
$GPRMC,210030.6,A,4742.72296,N,12224.78509,W,001.13,187.2,200413,016.6,E,D*27
$PGRME,2.4,M,2.4,M,3.4,M*29
$HCHDG,165.6,0.0,E,,*2D
$HCHDG,165.9,0.0,E,,*22
$GPRMC,210030.8,A,4742.72291,N,12224.78519,W,001.12,187.5,200413,016.6,E,D*29
$YXXDR,A,5.4,D,PTCH,A,3.9,D,ROLL*56
$IIVHW,,,,,00.0,N,,*19
$PGRME,2.4,M,2.4,M,3.4,M*29
$HCHDG,166.0,0.0,E,,*28
$IIVLW,06220,N,010.4,N*50
$HCHDG,165.9,0.0,E,,*22
$IIGLL,4742.723,N,12224.785,W,210000,A,A*4F
$IIMTW,+09.0,C*31
$GPRMC,210031.0,A,4742.72297,N,12224.78525,W,001.13,187.7,200413,016.6,E,D*2A
$PGRME,2.4,M,2.4,M,3.4,M*29
$HCHDG,166.0,0.0,E,,*28
$IIRMB,A,,,,M   ,,,,,001.0,188,,V,A*78
$HCHDG,166.0,0.0,E,,*28
$GPRMC,210031.2,A,4742.72299,N,12224.78535,W,001.10,187.9,200413,016.6,E,D*2A
$GPRMB,A,-0.14,L,,M,4741.7720,N,12224.5760,W,1.0,188,1.05,V*6C
$PGRME,2.4,M,2.4,M,3.4,M*29
$IIRMC,210000,A,4742.723,N,12224.785,W,01.0,187,200413,16,E,A*1F
$HCHDG,165.9,0.0,E,,*22
$YXXDR,A,5.5,D,PTCH,A,4.0,D,ROLL*59
$PTAK,FFD1,4.0*51
$HCHDG,166.1,0.0,E,,*29
$GPRMC,210031.4,A,4742.72292,N,12224.78545,W,001.11,187.9,200413,016.6,E,D*21
$PGRME,2.4,M,2.4,M,3.4,M*29
$HCHDG,166.0,0.0,E,,*28
$HCHDG,166.2,0.0,E,,*2A
$GPRMC,210031.6,A,4742.72287,N,12224.78548,W,001.09,188.0,200413,016.6,E,D*25
$PGRME,2.4,M,2.4,M,3.4,M*29
$HCHDG,166.0,0.0,E,,*28
$HCHDG,165.9,0.0,E,,*22
$GPRMC,210031.8,A,4742.72281,N,12224.78547,W,000.89,188.2,200413,016.6,E,D*29
$PTAK,FFP1,HEEL,@*07
$PGRME,2.4,M,2.4,M,3.4,M*29
$YXXDR,A,5.6,D,PTCH,A,4.4,D,ROLL*5E
$IIVHW,,,,,00.0,N,,*19
$HCHDG,165.7,0.0,E,,*2C
$IIVLW,06220,N,010.4,N*50
$HCHDG,165.7,0.0,E,,*2C
$IIGLL,4742.722,N,12224.785,W,210000,A,A*4E
$IIMTW,+09.0,C*31
$GPRMC,210032.0,A,4742.72275,N,12224.78539,W,000.90,187.9,200413,016.6,E,D*2C
$PGRME,2.4,M,2.4,M,3.4,M*29
$HCHDG,165.4,0.0,E,,*2F
$IIRMB,A,,,,M   ,,,,,001.0,188,,V,A*78
$HCHDG,165.3,0.0,E,,*28
$GPRMC,210032.2,A,4742.72272,N,12224.78531,W,000.94,187.5,200413,016.6,E,D*29
$PGRME,2.4,M,2.4,M,3.4,M*29
$IIRMC,210000,A,4742.722,N,12224.785,W,01.1,187,200413,16,E,A*1F
$HCHDG,165.1,0.0,E,,*2A
$YXXDR,A,5.6,D,PTCH,A,5.6,D,ROLL*5D
$HCHDG,164.8,0.0,E,,*22
$GPRMC,210032.4,A,4742.72264,N,12224.78528,W,000.94,187.2,200413,016.6,E,D*27
$GPRMB,A,-0.14,L,,M,4741.7720,N,12224.5760,W,1.0,188,0.90,V*61
$PGRME,2.4,M,2.4,M,3.4,M*29
$HCHDG,164.9,0.0,E,,*23
$HCHDG,165.0,0.0,E,,*2B
$GPRMC,210032.6,A,4742.72262,N,12224.78531,W,001.24,186.9,200413,016.6,E,D*2B
$PGRME,2.4,M,2.4,M,3.4,M*29
$HCHDG,164.9,0.0,E,,*23
$HCHDG,164.9,0.0,E,,*23
$GPRMC,210032.8,A,4742.72256,N,12224.78534,W,001.03,186.6,200413,016.6,E,D*2D
$YXXDR,A,5.2,D,PTCH,A,4.9,D,ROLL*57
$PTAK,FFD1,4.9*58
$IIVHW,,,,,00.0,N,,*19
$PGRME,2.4,M,2.4,M,3.4,M*29
$HCHDG,164.8,0.0,E,,*22
$IIVLW,06220,N,010.4,N*50
$HCHDG,164.8,0.0,E,,*22
$IIGLL,4742.722,N,12224.785,W,210000,A,A*4E
$IIMTW,+09.0,C*31
$GPRMC,210033.0,A,4742.72247,N,12224.78533,W,001.05,186.5,200413,016.6,E,D*26
$PGRME,2.4,M,2.4,M,3.4,M*29
$HCHDG,164.7,0.0,E,,*2D
$IIRMB,A,,,,M   ,,,,,001.0,188,,V,A*78
$HCHDG,165.1,0.0,E,,*2A
$GPRMC,210033.2,A,4742.72238,N,12224.78532,W,001.10,186.5,200413,016.6,E,D*29
$PGRME,2.4,M,2.4,M,3.4,M*29
$IIRMC,210000,A,4742.722,N,12224.785,W,00.9,187,200413,16,E,A*16
$HCHDG,165.0,0.0,E,,*2B
$YXXDR,A,5.4,D,PTCH,A,4.4,D,ROLL*5C
$HCHDG,165.0,0.0,E,,*2B
$GPRMC,210033.4,A,4742.72226,N,12224.78521,W,001.10,186.6,200413,016.6,E,D*21
$GPRMB,A,-0.14,L,,M,4741.7720,N,12224.5760,W,1.0,188,1.05,V*6C
$PGRME,2.4,M,2.4,M,3.4,M*29
$HCHDG,165.2,0.0,E,,*29
$HCHDG,165.1,0.0,E,,*2A
$GPRMC,210033.6,A,4742.72220,N,12224.78523,W,001.09,186.4,200413,016.6,E,D*2D
$PGRME,2.4,M,2.4,M,3.4,M*29
$HCHDG,165.2,0.0,E,,*29
$HCHDG,165.5,0.0,E,,*2E
$GPRMC,210033.8,A,4742.72215,N,12224.78526,W,001.10,186.5,200413,016.6,E,D*29
$YXXDR,A,5.8,D,PTCH,A,3.9,D,ROLL*5A
$PGRME,2.4,M,2.4,M,3.4,M*29
$IIVHW,,,,,00.0,N,,*19
$HCHDG,165.5,0.0,E,,*2E
$IIVLW,06220,N,010.4,N*50
$HCHDG,165.6,0.0,E,,*2D
$IIGLL,4742.722,N,12224.785,W,210000,A,A*4E
$IIMTW,+09.0,C*31
$GPRMC,210034.0,A,4742.72207,N,12224.78525,W,001.12,186.6,200413,016.6,E,D*27
$PGRME,2.4,M,2.4,M,3.4,M*29
$HCHDG,165.5,0.0,E,,*2E
$IIRMB,A,,,,M   ,,,,,001.0,188,,V,A*78
$HCHDG,165.6,0.0,E,,*2D
$GPRMC,210034.2,A,4742.72200,N,12224.78528,W,001.11,186.5,200413,016.6,E,D*2F
$PGRME,2.4,M,2.4,M,3.4,M*29
$IIRMC,210000,A,4742.722,N,12224.785,W,01.0,186,200413,16,E,A*1F
$HCHDG,165.3,0.0,E,,*28
$YXXDR,A,5.8,D,PTCH,A,4.3,D,ROLL*57
$PTAK,FFD1,4.3*52
$HCHDG,165.3,0.0,E,,*28
$GPRMC,210034.4,A,4742.72197,N,12224.78536,W,001.11,186.6,200413,016.6,E,D*28
$PGRME,2.4,M,2.4,M,3.4,M*29
$HCHDG,165.3,0.0,E,,*28
$HCHDG,165.1,0.0,E,,*2A
$GPRMC,210034.6,A,4742.72190,N,12224.78543,W,001.09,186.5,200413,016.6,E,D*25
$GPRMB,A,-0.14,L,,M,4741.7720,N,12224.5760,W,1.0,188,1.04,V*6D
$PGRME,2.4,M,2.4,M,3.4,M*29
$HCHDG,165.1,0.0,E,,*2A
$HCHDG,164.9,0.0,E,,*23
$GPRMC,210034.8,A,4742.72186,N,12224.78549,W,001.07,186.4,200413,016.6,E,D*29
$PGRME,2.4,M,2.4,M,3.4,M*29
$IIVHW,,,,,00.0,N,,*19
$YXXDR,A,5.7,D,PTCH,A,4.8,D,ROLL*53
$IIVLW,06220,N,010.4,N*50
$HCHDG,164.9,0.0,E,,*23
$HCHDG,164.7,0.0,E,,*2D
$IIGLL,4742.722,N,12224.785,W,210000,A,A*4E
$IIMTW,+09.0,C*31
$GPRMC,210035.0,A,4742.72182,N,12224.78547,W,001.03,186.3,200413,016.6,E,D*29
$PGRME,2.4,M,2.4,M,3.4,M*29
$HCHDG,164.8,0.0,E,,*22
$IIRMB,A,,,,M   ,,,,,001.0,188,,V,A*78
$HCHDG,164.9,0.0,E,,*23
$GPRMC,210035.2,A,4742.72177,N,12224.78545,W,001.03,186.2,200413,016.6,E,D*22
$PGRME,2.4,M,2.4,M,3.4,M*29
$IIRMC,210000,A,4742.722,N,12224.785,W,01.1,186,200413,16,E,A*1E
$HCHDG,164.8,0.0,E,,*22
$YXXDR,A,5.4,D,PTCH,A,4.9,D,ROLL*51
$PTAK,FFD1,4.9*58
$HCHDG,164.9,0.0,E,,*23
$GPRMC,210035.4,A,4742.72172,N,12224.78545,W,001.04,186.3,200413,016.6,E,D*27
$PGRME,2.4,M,2.4,M,3.4,M*29
$HCHDG,165.0,0.0,E,,*2B
$HCHDG,165.0,0.0,E,,*2B
$GPRMC,210035.6,A,4742.72166,N,12224.78542,W,001.04,186.4,200413,016.6,E,D*20
$PGRME,2.4,M,2.4,M,3.4,M*29
$HCHDG,165.0,0.0,E,,*2B
$HCHDG,165.0,0.0,E,,*2B
$GPRMC,210035.8,A,4742.72160,N,12224.78540,W,001.05,186.3,200413,016.6,E,D*2C
$GPRMB,A,-0.14,L,,M,4741.7720,N,12224.5760,W,1.0,188,1.00,V*69
$YXXDR,A,5.6,D,PTCH,A,4.5,D,ROLL*5F
$PTAK,FFP1,HEEL,@*07
$PGRME,2.4,M,2.4,M,3.4,M*29
$IIVHW,,,,,00.0,N,,*19
$HCHDG,165.0,0.0,E,,*2B
$IIVLW,06220,N,010.4,N*50
$HCHDG,165.0,0.0,E,,*2B
$IIGLL,4742.721,N,12224.785,W,210000,A,A*4D
$IIMTW,+09.0,C*31
$GPRMC,210036.0,A,4742.72159,N,12224.78547,W,001.06,186.3,200413,016.6,E,D*29
$PGRME,2.4,M,2.4,M,3.4,M*29
$HCHDG,165.0,0.0,E,,*2B
$IIRMB,A,,,,M   ,,,,,001.0,188,,V,A*78
$HCHDG,165.0,0.0,E,,*2B
$GPRMC,210036.2,A,4742.72154,N,12224.78550,W,001.06,186.2,200413,016.6,E,D*21
$PGRME,2.4,M,2.4,M,3.4,M*29
$IIRMC,210000,A,4742.721,N,12224.785,W,01.0,186,200413,16,E,A*1C
$HCHDG,165.1,0.0,E,,*2A
$YXXDR,A,5.4,D,PTCH,A,4.6,D,ROLL*5E
$HCHDG,165.1,0.0,E,,*2A
$GPRMC,210036.4,A,4742.72155,N,12224.78559,W,001.07,186.4,200413,016.6,E,D*28
$PGRME,2.4,M,2.4,M,3.4,M*29
$HCHDG,165.0,0.0,E,,*2B
$HCHDG,165.2,0.0,E,,*29
$GPRMC,210036.6,A,4742.72154,N,12224.78567,W,001.07,186.4,200413,016.6,E,D*26
$PGRME,2.4,M,2.4,M,3.4,M*29
$HCHDG,165.1,0.0,E,,*2A
$HCHDG,165.1,0.0,E,,*2A
$GPRMC,210036.8,A,4742.72149,N,12224.78567,W,001.09,186.5,200413,016.6,E,D*2B
$YXXDR,A,5.6,D,PTCH,A,4.4,D,ROLL*5E
$PTAK,FFD1,4.4*55
$PGRME,2.4,M,2.4,M,3.4,M*29
$IIVHW,,,,,00.0,N,,*19
$HCHDG,165.1,0.0,E,,*2A
$IIVLW,06220,N,010.4,N*50
$HCHDG,165.1,0.0,E,,*2A
$IIGLL,4742.721,N,12224.785,W,210000,A,A*4D
$IIMTW,+09.0,C*31
$GPRMC,210037.0,A,4742.72150,N,12224.78576,W,001.09,186.6,200413,016.6,E,D*29
$GPRMB,A,-0.14,L,,M,4741.7720,N,12224.5760,W,1.0,188,1.04,V*6D
$PGRME,2.4,M,2.4,M,3.5,M*28
$HCHDG,165.1,0.0,E,,*2A
$IIRMB,A,,,,M   ,,,,,001.0,188,,V,A*78
$HCHDG,165.2,0.0,E,,*29
$GPRMC,210037.2,A,4742.72149,N,12224.78585,W,001.08,186.8,200413,016.6,E,D*20
$PGRME,2.4,M,2.4,M,3.5,M*28
$IIRMC,210000,A,4742.721,N,12224.785,W,01.0,186,200413,16,E,A*1C
$HCHDG,165.2,0.0,E,,*29
$YXXDR,A,5.6,D,PTCH,A,4.5,D,ROLL*5F
$HCHDG,165.2,0.0,E,,*29
$GPRMC,210037.4,A,4742.72153,N,12224.78589,W,001.07,186.9,200413,016.6,E,D*2F
$PGRME,2.4,M,2.4,M,3.5,M*28
$HCHDG,165.2,0.0,E,,*29
$HCHDG,165.3,0.0,E,,*28
$GPRMC,210037.6,A,4742.72149,N,12224.78597,W,001.07,186.9,200413,016.6,E,D*29
$PGRME,2.4,M,2.4,M,3.5,M*28
$HCHDG,165.1,0.0,E,,*2A
$HCHDG,165.1,0.0,E,,*2A
$GPRMC,210037.8,A,4742.72140,N,12224.78599,W,001.07,187.0,200413,016.6,E,D*28
$PGRME,2.4,M,2.4,M,3.5,M*28
$IIVHW,,,,,00.0,N,,*19
$YXXDR,A,5.5,D,PTCH,A,4.7,D,ROLL*5E
$PTAK,FFD1,4.7*56
$IIVLW,06220,N,010.4,N*50
$HCHDG,165.2,0.0,E,,*29
$HCHDG,165.1,0.0,E,,*2A
$IIGLL,4742.721,N,12224.785,W,210000,A,A*4D
$IIMTW,+09.0,C*31
$GPRMC,210038.0,A,4742.72140,N,12224.78598,W,001.07,186.9,200413,016.6,E,D*26
$GPRMB,A,-0.14,L,,M,4741.7720,N,12224.5760,W,1.0,188,1.02,V*6B
$PGRME,2.4,M,2.4,M,3.5,M*28
$HCHDG,165.1,0.0,E,,*2A
$IIRMB,A,,,,M   ,,,,,001.0,188,,V,A*78
$HCHDG,165.2,0.0,E,,*29
$GPRMC,210038.2,A,4742.72136,N,12224.78602,W,001.08,187.0,200413,016.6,E,D*22
$PGRME,2.4,M,2.4,M,3.5,M*28
$IIRMC,210000,A,4742.721,N,12224.785,W,01.0,186,200413,16,E,A*1C
$HCHDG,165.0,0.0,E,,*2B
$YXXDR,A,5.6,D,PTCH,A,5.6,D,ROLL*5D
$HCHDG,165.0,0.0,E,,*2B
$GPRMC,210038.4,A,4742.72132,N,12224.78606,W,001.07,187.0,200413,016.6,E,D*2B
$PGRME,2.4,M,2.4,M,3.5,M*28
$HCHDG,165.1,0.0,E,,*2A
$HCHDG,165.1,0.0,E,,*2A
$GPRMC,210038.6,A,4742.72131,N,12224.78610,W,001.07,187.1,200413,016.6,E,D*2C
$PGRME,2.4,M,2.4,M,3.5,M*28
$HCHDG,165.1,0.0,E,,*2A
$HCHDG,165.2,0.0,E,,*29
$GPRMC,210038.8,A,4742.72126,N,12224.78608,W,001.08,187.2,200413,016.6,E,D*21
$YXXDR,A,5.6,D,PTCH,A,5.0,D,ROLL*5B
$IIVHW,,,,,00.0,N,,*19
$PGRME,2.4,M,2.4,M,3.5,M*28
$HCHDG,165.2,0.0,E,,*29
$IIVLW,06220,N,010.4,N*50
$HCHDG,165.1,0.0,E,,*2A
$IIGLL,4742.721,N,12224.786,W,210000,A,A*4E
$IIMTW,+09.0,C*31
$GPRMC,210039.0,A,4742.72123,N,12224.78610,W,001.08,187.4,200413,016.6,E,D*22
$PGRME,2.4,M,2.4,M,3.5,M*28
$HCHDG,165.1,0.0,E,,*2A
$IIRMB,A,,,,M   ,,,,,001.0,188,,V,A*78
$HCHDG,165.2,0.0,E,,*29
$GPRMC,210039.2,A,4742.72116,N,12224.78604,W,001.07,187.4,200413,016.6,E,D*2C
$GPRMB,A,-0.14,L,,M,4741.7720,N,12224.5760,W,1.0,188,1.02,V*6B
$PGRME,2.4,M,2.4,M,3.5,M*28
$IIRMC,210000,A,4742.721,N,12224.786,W,01.0,187,200413,16,E,A*1E
$HCHDG,165.2,0.0,E,,*29
$YXXDR,A,5.6,D,PTCH,A,4.5,D,ROLL*5F
$PTAK,FFD1,4.5*54
$HCHDG,165.4,0.0,E,,*2F
$GPRMC,210039.4,A,4742.72109,N,12224.78607,W,001.08,187.7,200413,016.6,E,D*2B
$PGRME,2.4,M,2.4,M,3.5,M*28
$HCHDG,165.4,0.0,E,,*2F
$HCHDG,165.4,0.0,E,,*2F
$GPRMC,210039.6,A,4742.72103,N,12224.78600,W,001.10,188.0,200413,016.6,E,D*25
$PGRME,2.4,M,2.4,M,3.5,M*28
$HCHDG,165.5,0.0,E,,*2E
$HCHDG,165.3,0.0,E,,*28
$GPRMC,210039.8,A,4742.72096,N,12224.78593,W,001.09,188.1,200413,016.6,E,D*26
$YXXDR,A,5.5,D,PTCH,A,4.7,D,ROLL*5E
$PGRME,2.4,M,2.4,M,3.5,M*28
$IIVHW,,,,,00.0,N,,*19
$HCHDG,165.3,0.0,E,,*28
$IIVLW,06220,N,010.4,N*50
$HCHDG,165.4,0.0,E,,*2F
$IIGLL,4742.721,N,12224.786,W,210000,A,A*4E
$IIMTW,+09.0,C*31
$GPRMC,210040.0,A,4742.72092,N,12224.78602,W,001.06,188.2,200413,016.6,E,D*23
$PTAK,FFP1,HEEL,@*07
$PGRME,2.4,M,2.4,M,3.5,M*28
$HCHDG,165.5,0.0,E,,*2E
$IIRMB,A,,,,M   ,,,,,001.0,188,,V,A*78
$HCHDG,165.5,0.0,E,,*2E
$GPRMC,210040.2,A,4742.72085,N,12224.78601,W,001.03,188.2,200413,016.6,E,D*21
$GPRMB,A,-0.14,L,,M,4741.7720,N,12224.5760,W,1.0,188,0.99,V*68
$PGRME,2.4,M,2.4,M,3.5,M*28
$IIRMC,210000,A,4742.721,N,12224.786,W,01.0,187,200413,16,E,A*1E
$HCHDG,165.3,0.0,E,,*28
$YXXDR,A,5.3,D,PTCH,A,5.0,D,ROLL*5E
$HCHDG,165.4,0.0,E,,*2F
$GPRMC,210040.4,A,4742.72078,N,12224.78595,W,001.00,187.9,200413,016.6,E,D*2C
$PGRME,2.4,M,2.4,M,3.5,M*28
$HCHDG,165.4,0.0,E,,*2F
$HCHDG,165.2,0.0,E,,*29
$GPRMC,210040.6,A,4742.72068,N,12224.78589,W,000.97,187.8,200413,016.6,E,D*2C
$PGRME,2.4,M,2.4,M,3.5,M*28
$HCHDG,165.1,0.0,E,,*2A
$HCHDG,164.9,0.0,E,,*23
$GPRMC,210040.8,A,4742.72064,N,12224.78592,W,000.95,187.6,200413,016.6,E,D*28
$PGRME,2.4,M,2.4,M,3.5,M*28
$IIVHW,,,,,00.0,N,,*19
$YXXDR,A,5.5,D,PTCH,A,5.6,D,ROLL*5E
$PTAK,FFD1,5.6*56
$IIVLW,06220,N,010.4,N*50
$HCHDG,164.9,0.0,E,,*23
$HCHDG,164.8,0.0,E,,*22
$IIGLL,4742.720,N,12224.786,W,210000,A,A*4F
$IIMTW,+09.0,C*31
$GPRMC,210041.0,A,4742.72061,N,12224.78594,W,000.98,187.5,200413,016.6,E,D*2C
$PGRME,2.4,M,2.4,M,3.5,M*28
$HCHDG,164.8,0.0,E,,*22
$IIRMB,A,,,,M   ,,,,,001.0,188,,V,A*78
$HCHDG,164.7,0.0,E,,*2D
$GPRMC,210041.2,A,4742.72060,N,12224.78598,W,000.98,187.5,200413,016.6,E,D*23
$PGRME,2.5,M,2.4,M,3.5,M*29
$IIRMC,210000,A,4742.720,N,12224.786,W,01.0,188,200413,16,E,A*10
$HCHDG,164.6,0.0,E,,*2C
$YXXDR,A,5.5,D,PTCH,A,4.9,D,ROLL*50
$HCHDG,164.6,0.0,E,,*2C
$GPRMC,210041.4,A,4742.72046,N,12224.78595,W,001.02,187.3,200413,016.6,E,D*28
$GPRMB,A,-0.14,L,,M,4741.7720,N,12224.5760,W,1.0,188,0.97,V*66
$PGRME,2.5,M,2.4,M,3.5,M*29
$HCHDG,164.7,0.0,E,,*2D
$HCHDG,164.6,0.0,E,,*2C
$GPRMC,210041.6,A,4742.72037,N,12224.78592,W,001.07,187.4,200413,016.6,E,D*29
$PGRME,2.5,M,2.4,M,3.5,M*29
$HCHDG,164.8,0.0,E,,*22
$HCHDG,164.8,0.0,E,,*22
$GPRMC,210041.8,A,4742.72028,N,12224.78592,W,001.12,187.6,200413,016.6,E,D*2F
$YXXDR,A,5.8,D,PTCH,A,4.3,D,ROLL*57
$IIVHW,,,,,00.0,N,,*19
$PGRME,2.5,M,2.4,M,3.5,M*29
$HCHDG,165.0,0.0,E,,*2B
$IIVLW,06220,N,010.4,N*50
$HCHDG,165.0,0.0,E,,*2B
$IIGLL,4742.720,N,12224.785,W,210000,A,A*4C
$IIMTW,+09.0,C*31
$GPRMC,210042.0,A,4742.72021,N,12224.78598,W,001.11,187.8,200413,016.6,E,D*2A
$PGRME,2.5,M,2.4,M,3.5,M*29
$HCHDG,165.0,0.0,E,,*2B
$IIRMB,A,,,,M   ,,,,,001.0,188,,V,A*78
$HCHDG,165.0,0.0,E,,*2B
$GPRMC,210042.2,A,4742.72018,N,12224.78606,W,001.12,188.1,200413,016.6,E,D*23
$PGRME,2.5,M,2.4,M,3.5,M*29
$IIRMC,210000,A,4742.720,N,12224.785,W,00.9,187,200413,16,E,A*14
$HCHDG,165.0,0.0,E,,*2B
$YXXDR,A,6.0,D,PTCH,A,4.5,D,ROLL*5A
$PTAK,FFD1,4.5*54
$HCHDG,165.1,0.0,E,,*2A
$GPRMC,210042.4,A,4742.72013,N,12224.78604,W,001.12,188.0,200413,016.6,E,D*2D
$GPRMB,A,-0.14,L,,M,4741.7720,N,12224.5760,W,1.0,188,1.07,V*6E
$PGRME,2.5,M,2.4,M,3.5,M*29
$HCHDG,165.2,0.0,E,,*29
$HCHDG,165.1,0.0,E,,*2A
$GPRMC,210042.6,A,4742.72006,N,12224.78598,W,000.94,187.8,200413,016.6,E,D*25
$PGRME,2.5,M,2.4,M,3.5,M*29
$HCHDG,165.2,0.0,E,,*29
$HCHDG,165.0,0.0,E,,*2B
$GPRMC,210042.8,A,4742.71997,N,12224.78591,W,000.96,187.6,200413,016.6,E,D*2C
$YXXDR,A,5.6,D,PTCH,A,5.6,D,ROLL*5D
$PGRME,2.5,M,2.4,M,3.5,M*29
$IIVHW,,,,,00.0,N,,*19
$HCHDG,165.1,0.0,E,,*2A
$IIVLW,06220,N,010.4,N*50
$HCHDG,165.0,0.0,E,,*2B
$IIGLL,4742.720,N,12224.786,W,210000,A,A*4F
$IIMTW,+09.0,C*31
$GPRMC,210043.0,A,4742.71992,N,12224.78590,W,000.94,187.4,200413,016.6,E,D*21
$PGRME,2.5,M,2.4,M,3.5,M*29
$HCHDG,164.9,0.0,E,,*23
$IIRMB,A,,,,M   ,,,,,001.0,188,,V,A*78
$HCHDG,164.7,0.0,E,,*2D
$GPRMC,210043.2,A,4742.71989,N,12224.78591,W,000.96,187.0,200413,016.6,E,D*2E
$PGRME,2.5,M,2.4,M,3.5,M*29
$IIRMC,210000,A,4742.720,N,12224.786,W,01.1,188,200413,16,E,A*11
$HCHDG,164.8,0.0,E,,*22
$YXXDR,A,5.1,D,PTCH,A,5.6,D,ROLL*5A
$HCHDG,164.7,0.0,E,,*2D
$GPRMC,210043.4,A,4742.71985,N,12224.78588,W,000.97,186.8,200413,016.6,E,D*24
$PGRME,2.5,M,2.4,M,3.5,M*29
$HCHDG,164.7,0.0,E,,*2D
$HCHDG,164.7,0.0,E,,*2D
$GPRMC,210043.6,A,4742.71982,N,12224.78583,W,001.01,186.6,200413,016.6,E,D*2A
$GPRMB,A,-0.14,L,,M,4741.7720,N,12224.5760,W,1.0,188,0.96,V*67
$PGRME,2.5,M,2.4,M,3.5,M*29
$HCHDG,164.6,0.0,E,,*2C
$HCHDG,164.7,0.0,E,,*2D
$GPRMC,210043.8,A,4742.71974,N,12224.78584,W,001.04,186.5,200413,016.6,E,D*2C
$PGRME,2.5,M,2.4,M,3.5,M*29
$IIVHW,,,,,00.0,N,,*19
$YXXDR,A,5.1,D,PTCH,A,5.2,D,ROLL*5E
$PTAK,FFD1,5.2*52
$IIVLW,06220,N,010.4,N*50
$HCHDG,164.9,0.0,E,,*23
$HCHDG,164.8,0.0,E,,*22
$IIGLL,4742.719,N,12224.785,W,210000,A,A*46
$IIMTW,+09.0,C*31
$GPRMC,210044.0,A,4742.71971,N,12224.78580,W,001.08,186.4,200413,016.6,E,D*2F
$PTAK,FFP1,HEEL,@*07
$PGRME,2.5,M,2.4,M,3.5,M*29
$PGRMT,GPS 18x-5Hz software ver. 3.20,,,,,,,,*30
$HCHDG,164.9,0.0,E,,*23
$IIRMB,A,,,,M   ,,,,,001.0,188,,V,A*78
$HCHDG,164.9,0.0,E,,*23
$GPRMC,210044.2,A,4742.71976,N,12224.78584,W,001.11,186.6,200413,016.6,E,D*24
$PGRME,2.5,M,2.4,M,3.5,M*29
$IIRMC,210000,A,4742.719,N,12224.785,W,00.9,186,200413,16,E,A*1F
$HCHDG,165.1,0.0,E,,*2A
$YXXDR,A,5.4,D,PTCH,A,4.7,D,ROLL*5F
$HCHDG,165.1,0.0,E,,*2A
$GPRMC,210044.4,A,4742.71980,N,12224.78588,W,001.11,186.9,200413,016.6,E,D*28
$PGRME,2.5,M,2.4,M,3.5,M*29
$HCHDG,165.1,0.0,E,,*2A
$HCHDG,165.1,0.0,E,,*2A
$GPRMC,210044.6,A,4742.71970,N,12224.78586,W,001.12,187.0,200413,016.6,E,D*20
$GPRMB,A,-0.14,L,,M,4741.7720,N,12224.5760,W,1.0,188,1.07,V*6E
$PGRME,2.5,M,2.4,M,3.5,M*29
$HCHDG,165.1,0.0,E,,*2A
$HCHDG,165.2,0.0,E,,*29
$GPRMC,210044.8,A,4742.71960,N,12224.78589,W,001.14,187.2,200413,016.6,E,D*24
$YXXDR,A,5.8,D,PTCH,A,5.0,D,ROLL*55
$PGRME,2.5,M,2.4,M,3.5,M*29
$IIVHW,,,,,00.0,N,,*19
$HCHDG,165.0,0.0,E,,*2B
$IIVLW,06220,N,010.4,N*50
$HCHDG,165.1,0.0,E,,*2A
$IIGLL,4742.719,N,12224.785,W,210000,A,A*46
$IIMTW,+09.0,C*31
$GPRMC,210045.0,A,4742.71949,N,12224.78584,W,001.13,187.2,200413,016.6,E,D*2C
$PGRME,2.5,M,2.4,M,3.5,M*29
$HCHDG,165.2,0.0,E,,*29
$IIRMB,A,,,,M   ,,,,,001.0,188,,V,A*78
$HCHDG,165.0,0.0,E,,*2B
$GPRMC,210045.2,A,4742.71942,N,12224.78574,W,001.10,187.0,200413,016.6,E,D*2B
$PGRME,2.5,M,2.4,M,3.5,M*29
$IIRMC,210000,A,4742.719,N,12224.785,W,01.1,186,200413,16,E,A*16
$HCHDG,165.1,0.0,E,,*2A
$YXXDR,A,5.6,D,PTCH,A,5.5,D,ROLL*5E
$PTAK,FFD1,5.5*55
$HCHDG,165.1,0.0,E,,*2A
$GPRMC,210045.4,A,4742.71938,N,12224.78566,W,001.09,186.7,200413,016.6,E,D*2D
$PGRME,2.5,M,2.4,M,3.5,M*29
$HCHDG,164.9,0.0,E,,*23
$HCHDG,164.8,0.0,E,,*22
$GPRMC,210045.6,A,4742.71931,N,12224.78562,W,001.06,186.6,200413,016.6,E,D*2C
$GPRMB,A,-0.14,L,,M,4741.7720,N,12224.5760,W,1.0,188,1.01,V*68
$PGRME,2.5,M,2.4,M,3.5,M*29
$HCHDG,164.6,0.0,E,,*2C
$HCHDG,164.6,0.0,E,,*2C
$GPRMC,210045.8,A,4742.71927,N,12224.78555,W,001.03,186.5,200413,016.6,E,D*27
$YXXDR,A,5.5,D,PTCH,A,5.8,D,ROLL*50
$PGRME,2.5,M,2.4,M,3.5,M*29
$IIVHW,,,,,00.0,N,,*19
$HCHDG,164.6,0.0,E,,*2C
$IIVLW,06220,N,010.4,N*50
$HCHDG,164.6,0.0,E,,*2C
$IIGLL,4742.719,N,12224.785,W,210000,A,A*46
$IIMTW,+09.0,C*31
$GPRMC,210046.0,A,4742.71923,N,12224.78558,W,001.01,186.4,200413,016.6,E,D*26
$PGRME,2.5,M,2.4,M,3.5,M*29
$HCHDG,164.5,0.0,E,,*2F
$IIRMB,A,,,,M   ,,,,,001.0,188,,V,A*78
$HCHDG,164.5,0.0,E,,*2F
$GPRMC,210046.2,A,4742.71917,N,12224.78554,W,000.99,186.3,200413,016.6,E,D*28
$PGRME,2.5,M,2.4,M,3.5,M*29
$IIRMC,210000,A,4742.719,N,12224.785,W,01.1,186,200413,16,E,A*16
$HCHDG,164.4,0.0,E,,*2E
$YXXDR,A,5.3,D,PTCH,A,5.6,D,ROLL*58
$PTAK,FFD1,5.6*56
$HCHDG,164.5,0.0,E,,*2F
$GPRMC,210046.4,A,4742.71902,N,12224.78542,W,000.99,186.2,200413,016.6,E,D*2C
$PGRME,2.5,M,2.4,M,3.5,M*29
$HCHDG,164.4,0.0,E,,*2E
$HCHDG,164.6,0.0,E,,*2C
$GPRMC,210046.6,A,4742.71890,N,12224.78540,W,000.98,186.2,200413,016.6,E,D*27
$PGRME,2.5,M,2.4,M,3.5,M*29
$HCHDG,164.5,0.0,E,,*2F
$HCHDG,164.6,0.0,E,,*2C
$GPRMC,210046.8,A,4742.71889,N,12224.78548,W,001.01,186.1,200413,016.6,E,D*2B
$GPRMB,A,-0.14,L,,M,4741.7720,N,12224.5760,W,1.0,188,0.96,V*67
$PGRME,2.5,M,2.4,M,3.5,M*29
$IIVHW,,,,,00.0,N,,*19
$YXXDR,A,5.4,D,PTCH,A,4.9,D,ROLL*51
$IIVLW,06220,N,010.4,N*50
$HCHDG,164.8,0.0,E,,*22
$HCHDG,164.7,0.0,E,,*2D
$IIGLL,4742.719,N,12224.785,W,210000,A,A*46
$IIMTW,+09.0,C*31
$GPRMC,210047.0,A,4742.71883,N,12224.78558,W,001.04,186.1,200413,016.6,E,D*2C
$PGRME,2.5,M,2.4,M,3.5,M*29
$HCHDG,164.7,0.0,E,,*2D
$IIRMB,A,,,,M   ,,,,,001.0,188,,V,A*78
$HCHDG,164.7,0.0,E,,*2D
$GPRMC,210047.2,A,4742.71875,N,12224.78562,W,001.09,186.1,200413,016.6,E,D*23
$PGRME,2.5,M,2.4,M,3.5,M*29
$IIRMC,210000,A,4742.719,N,12224.785,W,01.0,186,200413,16,E,A*17
$HCHDG,164.7,0.0,E,,*2D
$YXXDR,A,5.6,D,PTCH,A,5.0,D,ROLL*5B
$PTAK,FFD1,5.0*50
$HCHDG,164.7,0.0,E,,*2D
$GPRMC,210047.4,A,4742.71865,N,12224.78558,W,001.11,186.1,200413,016.6,E,D*24
$PGRME,2.5,M,2.4,M,3.5,M*29
$HCHDG,164.7,0.0,E,,*2D
$HCHDG,165.0,0.0,E,,*2B
$GPRMC,210047.6,A,4742.71858,N,12224.78563,W,001.11,186.2,200413,016.6,E,D*23
$PGRME,2.5,M,2.4,M,3.5,M*29
$HCHDG,165.0,0.0,E,,*2B
$HCHDG,165.0,0.0,E,,*2B
$GPRMC,210047.8,A,4742.71848,N,12224.78569,W,001.10,186.2,200413,016.6,E,D*27
$YXXDR,A,5.5,D,PTCH,A,5.0,D,ROLL*58
$PGRME,2.5,M,2.4,M,3.5,M*29
$IIVHW,,,,,00.0,N,,*19
$HCHDG,164.9,0.0,E,,*23
$IIVLW,06220,N,010.4,N*50
$HCHDG,164.9,0.0,E,,*23
$IIGLL,4742.718,N,12224.785,W,210000,A,A*47
$IIMTW,+09.0,C*31
$GPRMC,210048.0,A,4742.71842,N,12224.78576,W,001.12,186.3,200413,016.6,E,D*27
$GPRMB,A,-0.14,L,,M,4741.7720,N,12224.5760,W,1.0,188,1.06,V*6F
$PTAK,FFP1,HEEL,@*07
$PGRME,2.5,M,2.4,M,3.5,M*29
$HCHDG,164.9,0.0,E,,*23
$IIRMB,A,,,,M   ,,,,,001.0,188,,V,A*78
$HCHDG,164.8,0.0,E,,*22
$GPRMC,210048.2,A,4742.71837,N,12224.78591,W,001.10,186.4,200413,016.6,E,D*2B
$PGRME,2.5,M,2.4,M,3.5,M*29
$IIRMC,210000,A,4742.718,N,12224.785,W,00.9,186,200413,16,E,A*1E
$HCHDG,164.9,0.0,E,,*23
$YXXDR,A,5.5,D,PTCH,A,5.0,D,ROLL*58
$PTAK,FFD1,5.0*50
$HCHDG,164.9,0.0,E,,*23
$GPRMC,210048.4,A,4742.71829,N,12224.78597,W,001.07,186.7,200413,016.6,E,D*21
$PGRME,2.5,M,2.4,M,3.5,M*29
$HCHDG,164.9,0.0,E,,*23
$HCHDG,164.9,0.0,E,,*23
$GPRMC,210048.6,A,4742.71819,N,12224.78592,W,001.03,186.8,200413,016.6,E,D*2E
$PGRME,2.5,M,2.4,M,3.5,M*29
$HCHDG,164.8,0.0,E,,*22
$HCHDG,164.8,0.0,E,,*22
$GPRMC,210048.8,A,4742.71811,N,12224.78586,W,001.00,186.9,200413,016.6,E,D*2F
$YXXDR,A,5.2,D,PTCH,A,5.2,D,ROLL*5D
$IIVHW,,,,,00.0,N,,*19
$PGRME,2.5,M,2.4,M,3.5,M*29
$HCHDG,164.6,0.0,E,,*2C
$IIVLW,06220,N,010.4,N*50
$HCHDG,164.6,0.0,E,,*2C
$IIGLL,4742.718,N,12224.785,W,210000,A,A*47
$IIMTW,+09.0,C*31
$GPRMC,210049.0,A,4742.71804,N,12224.78585,W,000.97,186.9,200413,016.6,E,D*2E
$PGRME,2.5,M,2.4,M,3.5,M*29
$HCHDG,164.6,0.0,E,,*2C
$IIRMB,A,,,,M   ,,,,,001.0,188,,V,A*78
$HCHDG,164.5,0.0,E,,*2F
$GPRMC,210049.2,A,4742.71797,N,12224.78588,W,000.99,187.0,200413,016.6,E,D*22
$GPRMB,A,-0.14,L,,M,4741.7720,N,12224.5760,W,1.0,188,0.94,V*65
$PGRME,2.5,M,2.4,M,3.5,M*29
$IIRMC,210000,A,4742.718,N,12224.785,W,01.1,186,200413,16,E,A*17
$HCHDG,164.6,0.0,E,,*2C
$YXXDR,A,5.2,D,PTCH,A,5.3,D,ROLL*5C
$PTAK,FFD1,5.3*53
$HCHDG,164.5,0.0,E,,*2F
$GPRMC,210049.4,A,4742.71790,N,12224.78599,W,001.03,187.1,200413,016.6,E,D*20
$PGRME,2.5,M,2.4,M,3.5,M*29
$HCHDG,164.5,0.0,E,,*2F
$HCHDG,164.5,0.0,E,,*2F
$GPRMC,210049.6,A,4742.71786,N,12224.78608,W,001.07,187.1,200413,016.6,E,D*2A
$PGRME,2.5,M,2.4,M,3.5,M*29
$HCHDG,164.5,0.0,E,,*2F
$HCHDG,164.5,0.0,E,,*2F
$GPRMC,210049.8,A,4742.71779,N,12224.78603,W,001.08,187.2,200413,016.6,E,D*23
$PGRME,2.5,M,2.4,M,3.5,M*29
$IIVHW,,,,,00.0,N,,*19
$YXXDR,A,5.6,D,PTCH,A,5.1,D,ROLL*5A
$IIVLW,06220,N,010.4,N*50
$HCHDG,164.3,0.0,E,,*29
$HCHDG,164.6,0.0,E,,*2C
$IIGLL,4742.718,N,12224.785,W,210000,A,A*47
$IIMTW,+09.0,C*31
$GPRMC,210050.0,A,4742.71777,N,12224.78609,W,001.12,187.4,200413,016.6,E,D*2A
$PGRME,2.5,M,2.4,M,3.5,M*29
$HCHDG,164.6,0.0,E,,*2C
$IIRMB,A,,,,M   ,,,,,001.0,188,,V,A*78
$HCHDG,164.7,0.0,E,,*2D
$GPRMC,210050.2,A,4742.71777,N,12224.78622,W,001.13,187.5,200413,016.6,E,D*21
$PGRME,2.5,M,2.4,M,3.5,M*29
$IIRMC,210000,A,4742.718,N,12224.785,W,01.0,186,200413,16,E,A*16
$HCHDG,164.9,0.0,E,,*23
$YXXDR,A,5.7,D,PTCH,A,4.8,D,ROLL*53
$HCHDG,164.9,0.0,E,,*23
$GPRMC,210050.4,A,4742.71773,N,12224.78633,W,001.12,187.6,200413,016.6,E,D*21
$GPRMB,A,-0.14,L,,M,4741.7720,N,12224.5760,W,1.0,188,1.07,V*6E
$PGRME,2.5,M,2.4,M,3.5,M*29
$HCHDG,164.9,0.0,E,,*23
$HCHDG,164.9,0.0,E,,*23
$GPRMC,210050.6,A,4742.71766,N,12224.78641,W,000.91,187.8,200413,016.6,E,D*26
$PGRME,2.5,M,2.4,M,3.5,M*29
$HCHDG,164.9,0.0,E,,*23
$HCHDG,165.0,0.0,E,,*2B
$GPRMC,210050.8,A,4742.71768,N,12224.78639,W,000.92,187.9,200413,016.6,E,D*2B
$YXXDR,A,5.6,D,PTCH,A,5.0,D,ROLL*5B
$PTAK,FFD1,5.0*50
$IIVHW,,,,,00.0,N,,*19
$PGRME,2.5,M,2.4,M,3.5,M*29
$HCHDG,164.9,0.0,E,,*23
$IIVLW,06220,N,010.4,N*50
$HCHDG,164.7,0.0,E,,*2D
$IIGLL,4742.717,N,12224.786,W,210000,A,A*4B
$IIMTW,+08.5,C*35
$GPRMC,210051.0,A,4742.71765,N,12224.78639,W,000.93,188.0,200413,016.6,E,D*28
$PGRME,2.5,M,2.4,M,3.5,M*29
$HCHDG,164.7,0.0,E,,*2D
$IIRMB,A,,,,M   ,,,,,001.0,188,,V,A*78
$HCHDG,164.7,0.0,E,,*2D
$GPRMC,210051.2,A,4742.71760,N,12224.78634,W,000.90,188.0,200413,016.6,E,D*21
$PGRME,2.5,M,2.4,M,3.5,M*29
$IIRMC,210000,A,4742.717,N,12224.786,W,01.0,187,200413,16,E,A*1B
$HCHDG,164.7,0.0,E,,*2D
$YXXDR,A,5.5,D,PTCH,A,5.3,D,ROLL*5B
$HCHDG,164.7,0.0,E,,*2D
$GPRMC,210051.4,A,4742.71757,N,12224.78639,W,000.88,188.0,200413,016.6,E,D*27
$GPRMB,A,-0.14,L,,M,4741.7720,N,12224.5760,W,1.0,188,0.84,V*64
$PGRME,2.5,M,2.4,M,3.5,M*29
$HCHDG,164.4,0.0,E,,*2E
$HCHDG,164.4,0.0,E,,*2E
$GPRMC,210051.6,A,4742.71750,N,12224.78629,W,001.16,187.9,200413,016.6,E,D*23
$PGRME,2.5,M,2.4,M,3.5,M*29
$HCHDG,164.4,0.0,E,,*2E
$HCHDG,164.3,0.0,E,,*29
$GPRMC,210051.8,A,4742.71745,N,12224.78627,W,001.13,187.9,200413,016.6,E,D*22
$YXXDR,A,5.5,D,PTCH,A,5.3,D,ROLL*5B
$PTAK,FFD1,5.3*53
$IIVHW,,,,,00.0,N,,*19
$PGRME,2.5,M,2.4,M,3.5,M*29
$HCHDG,164.4,0.0,E,,*2E
$IIVLW,06220,N,010.4,N*50
$HCHDG,164.4,0.0,E,,*2E
$IIGLL,4742.717,N,12224.786,W,210000,A,A*4B
$IIMTW,+09.0,C*31
$GPRMC,210052.0,A,4742.71737,N,12224.78632,W,001.09,187.9,200413,016.6,E,D*23
$PTAK,FFP1,HEEL,@*07
$PGRME,2.5,M,2.4,M,3.5,M*29
$HCHDG,164.6,0.0,E,,*2C
$IIRMB,A,,,,M   ,,,,,001.0,188,,V,A*78
$HCHDG,164.5,0.0,E,,*2F
$GPRMC,210052.2,A,4742.71731,N,12224.78632,W,001.06,188.2,200413,016.6,E,D*2C
$PGRME,2.5,M,2.4,M,3.5,M*29
$IIRMC,210000,A,4742.717,N,12224.786,W,00.9,187,200413,16,E,A*13
$HCHDG,164.6,0.0,E,,*2C
$YXXDR,A,5.5,D,PTCH,A,4.9,D,ROLL*50
$HCHDG,164.6,0.0,E,,*2C
$GPRMC,210052.4,A,4742.71723,N,12224.78634,W,001.09,188.4,200413,016.6,E,D*26
$PGRME,2.5,M,2.4,M,3.5,M*29
$HCHDG,164.6,0.0,E,,*2C
$HCHDG,164.5,0.0,E,,*2F
