$PGRME,2.6,M,2.4,M,3.6,M*29
$HCHDG,33.0,0.0,E,,*19
$HCHDG,32.9,0.0,E,,*11
$HCHDG,32.8,0.0,E,,*10
$GPRMC,230000.6,A,4741.22140,N,12224.95044,W,002.85,042.8,200413,016.6,E,D*29
$PGRME,2.6,M,2.4,M,3.6,M*29
$HCHDG,32.9,0.0,E,,*11
$IIRMC,225900,A,4741.220,N,12224.951,W,02.8,037,200413,16,E,A*13
$IIVHW,,,,,02.1,N,,*1A
$HCHDG,32.8,0.0,E,,*10
$GPRMC,230000.8,A,4741.22152,N,12224.95028,W,002.88,040.5,200413,016.6,E,D*2C
$PGRME,2.6,M,2.4,M,3.6,M*29
$IIVLW,06227,N,017.6,N*52
$YXXDR,A,4.3,D,PTCH,A,-3.2,D,ROLL*76
$PTAK,FFD1,3.2*54
$IIDPT,066.4,-1.0,*44
$HCHDG,32.6,0.0,E,,*1E
$IIGLL,4741.220,N,12224.951,W,225900,A,A*42
$HCHDG,32.4,0.0,E,,*1C
$GPRMC,230001.0,A,4741.22161,N,12224.95018,W,002.86,039.7,200413,016.6,E,D*24
$PGRME,2.6,M,2.4,M,3.6,M*29
$IIMTW,+09.0,C*31
$HCHDG,32.3,0.0,E,,*1B
$IIRMB,A,,,,M   ,,,,,000.6,041,,V,A*7B
$GPRMC,230001.2,A,4741.22171,N,12224.95007,W,002.85,042.4,200413,016.6,E,D*25
$GPRMB,A,-0.25,L,,M,4741.7720,N,12224.5760,W,0.6,41,2.75,V*59
$HCHDG,32.2,0.0,E,,*1A
$PGRME,2.6,M,2.4,M,3.6,M*29
$HCHDG,31.9,0.0,E,,*12
$YXXDR,A,4.6,D,PTCH,A,-2.9,D,ROLL*79
$GPRMC,230001.4,A,4741.22183,N,12224.94993,W,002.84,040.5,200413,016.6,E,D*29
$PGRME,2.6,M,2.4,M,3.6,M*29
$HCHDG,31.8,0.0,E,,*13
$HCHDG,31.7,0.0,E,,*1C
$GPRMC,230001.6,A,4741.22195,N,12224.94978,W,002.84,041.1,200413,016.6,E,D*2C
$HCHDG,31.7,0.0,E,,*1C
$PGRME,2.6,M,2.4,M,3.6,M*29
$HCHDG,31.4,0.0,E,,*1F
$IIRMC,225900,A,4741.220,N,12224.951,W,02.8,037,200413,16,E,A*13
$IIVHW,,,,,02.1,N,,*1A
$HCHDG,31.2,0.0,E,,*19
$GPRMC,230001.8,A,4741.22210,N,12224.94964,W,002.82,043.2,200413,016.6,E,D*26
$PGRME,2.6,M,2.4,M,3.6,M*29
$IIVLW,06227,N,017.6,N*52
$YXXDR,A,4.7,D,PTCH,A,-2.9,D,ROLL*78
$IIDPT,066.5,-1.0,*45
$HCHDG,31.1,0.0,E,,*1A
$IIGLL,4741.220,N,12224.951,W,225900,A,A*42
$HCHDG,30.9,0.0,E,,*13
$GPRMC,230002.0,A,4741.22224,N,12224.94944,W,002.81,041.3,200413,016.6,E,D*28
$PGRME,2.6,M,2.4,M,3.6,M*29
$IIMTW,+09.0,C*31
$HCHDG,30.8,0.0,E,,*12
$IIRMB,A,,,,M   ,,,,,000.6,041,,V,A*7B
$HCHDG,30.8,0.0,E,,*12
$GPRMC,230002.2,A,4741.22239,N,12224.94920,W,002.99,040.8,200413,016.6,E,D*27
$GPRMB,A,-0.25,L,,M,4741.7720,N,12224.5760,W,0.6,41,2.86,V*55
$PGRME,2.6,M,2.4,M,3.6,M*29
$HCHDG,30.6,0.0,E,,*1C
$YXXDR,A,4.7,D,PTCH,A,-3.2,D,ROLL*72
$PTAK,FFD1,3.2*54
$GPRMC,230002.4,A,4741.22252,N,12224.94893,W,002.96,044.0,200413,016.6,E,D*26
$PGRME,2.6,M,2.4,M,3.6,M*29
$HCHDG,30.3,0.0,E,,*19
$HCHDG,30.4,0.0,E,,*1E
$HCHDG,30.2,0.0,E,,*18
$GPRMC,230002.6,A,4741.22264,N,12224.94862,W,002.63,045.9,200413,016.6,E,D*2D
$PGRME,2.6,M,2.4,M,3.6,M*29
$HCHDG,30.2,0.0,E,,*18
$IIRMC,230000,A,4741.222,N,12224.949,W,02.8,043,200413,16,E,A*16
$IIVHW,,,,,02.1,N,,*1A
$HCHDG,29.9,0.0,E,,*1B
$GPRMC,230002.8,A,4741.22275,N,12224.94837,W,002.79,041.0,200413,016.6,E,D*25
$PGRME,2.6,M,2.4,M,3.6,M*29
$IIVLW,06227,N,017.6,N*52
$YXXDR,A,4.6,D,PTCH,A,-3.5,D,ROLL*74
$IIDPT,066.5,-1.0,*45
$HCHDG,29.9,0.0,E,,*1B
$IIGLL,4741.222,N,12224.949,W,230000,A,A*44
$HCHDG,29.9,0.0,E,,*1B
$GPRMC,230003.0,A,4741.22284,N,12224.94814,W,002.61,044.9,200413,016.6,E,D*26
$PGRME,2.6,M,2.4,M,3.6,M*29
$IIMTW,+09.0,C*31
$HCHDG,29.9,0.0,E,,*1B
$IIRMB,A,,,,M   ,,,,,000.6,041,,V,A*7B
$GPRMC,230003.2,A,4741.22296,N,12224.94798,W,002.81,041.1,200413,016.6,E,D*2F
$HCHDG,29.9,0.0,E,,*1B
$PGRME,2.6,M,2.4,M,3.6,M*29
$HCHDG,29.8,0.0,E,,*1A
$YXXDR,A,4.5,D,PTCH,A,-3.3,D,ROLL*71
$GPRMC,230003.4,A,4741.22305,N,12224.94783,W,002.78,040.5,200413,016.6,E,D*2B
$GPRMB,A,-0.25,L,,M,4741.7720,N,12224.5760,W,0.6,41,2.66,V*5B
$PGRME,2.6,M,2.4,M,3.6,M*29
$HCHDG,29.5,0.0,E,,*17
$HCHDG,29.3,0.0,E,,*11
$GPRMC,230003.6,A,4741.22314,N,12224.94762,W,002.83,039.5,200413,016.6,E,D*2C
$HCHDG,29.2,0.0,E,,*10
$PGRME,2.6,M,2.4,M,3.6,M*29
$HCHDG,29.1,0.0,E,,*13
$IIRMC,230000,A,4741.222,N,12224.948,W,02.7,041,200413,16,E,A*1A
$IIVHW,,,,,02.1,N,,*1A
$HCHDG,29.1,0.0,E,,*13
$GPRMC,230003.8,A,4741.22322,N,12224.94741,W,002.85,041.5,200413,016.6,E,D*2F
$PGRME,2.6,M,2.4,M,3.6,M*29
$IIVLW,06227,N,017.6,N*52
$YXXDR,A,4.4,D,PTCH,A,-3.6,D,ROLL*75
$PTAK,FFD1,3.6*50
$IIDPT,066.5,-1.0,*45
$HCHDG,28.6,0.0,E,,*15
$PTAK,FFP1,HEEL,@*07
$IIGLL,4741.222,N,12224.948,W,230000,A,A*45
$GPRMC,230004.0,A,4741.22329,N,12224.94724,W,002.87,041.8,200413,016.6,E,D*27
$HCHDG,28.7,0.0,E,,*14
$PGRME,2.6,M,2.4,M,3.6,M*29
$IIMTW,+09.0,C*31
$HCHDG,28.4,0.0,E,,*17
$IIRMB,A,,,,M   ,,,,,000.6,041,,V,A*7B
$GPRMC,230004.2,A,4741.22338,N,12224.94702,W,002.92,040.3,200413,016.6,E,D*2F
$HCHDG,28.3,0.0,E,,*10
$PGRME,2.6,M,2.4,M,3.6,M*29
$HCHDG,28.1,0.0,E,,*12
$YXXDR,A,4.5,D,PTCH,A,-3.5,D,ROLL*77
$GPRMC,230004.4,A,4741.22352,N,12224.94685,W,002.90,039.1,200413,016.6,E,D*25
$PGRME,2.6,M,2.4,M,3.6,M*29
$HCHDG,28.0,0.0,E,,*13
$HCHDG,28.0,0.0,E,,*13
$GPRMC,230004.6,A,4741.22366,N,12224.94669,W,002.94,038.6,200413,016.6,E,D*20
$GPRMB,A,-0.25,L,,M,4741.7720,N,12224.5760,W,0.6,41,2.78,V*54
$HCHDG,27.8,0.0,E,,*14
$PGRME,2.6,M,2.4,M,3.6,M*29
$HCHDG,27.3,0.0,E,,*1F
$IIRMC,230000,A,4741.223,N,12224.947,W,02.8,041,200413,16,E,A*1B
$IIVHW,,,,,02.1,N,,*1A
$GPRMC,230004.8,A,4741.22378,N,12224.94651,W,002.96,039.3,200413,016.6,E,D*2C
$HCHDG,27.2,0.0,E,,*1E
$PGRME,2.6,M,2.4,M,3.6,M*29
$IIVLW,06227,N,017.6,N*52
$YXXDR,A,4.7,D,PTCH,A,-3.6,D,ROLL*76
$PTAK,FFD1,3.6*50
$IIDPT,066.5,-1.0,*45
$HCHDG,27.2,0.0,E,,*1E
$IIGLL,4741.223,N,12224.947,W,230000,A,A*4B
$GPRMC,230005.0,A,4741.22391,N,12224.94635,W,002.97,039.3,200413,016.6,E,D*21
$HCHDG,27.0,0.0,E,,*1C
$PGRME,2.6,M,2.4,M,3.6,M*29
$IIMTW,+09.0,C*31
$HCHDG,26.9,0.0,E,,*14
$IIRMB,A,,,,M   ,,,,,000.6,041,,V,A*7B
$GPRMC,230005.2,A,4741.22404,N,12224.94619,W,002.94,040.4,200413,016.6,E,D*2C
$HCHDG,26.9,0.0,E,,*14
$PGRME,2.6,M,2.4,M,3.6,M*29
$HCHDG,26.5,0.0,E,,*18
$YXXDR,A,4.0,D,PTCH,A,-4.3,D,ROLL*73
$GPRMC,230005.4,A,4741.22410,N,12224.94609,W,002.94,038.8,200413,016.6,E,D*2D
$PGRME,2.7,M,2.4,M,3.6,M*28
$HCHDG,26.0,0.0,E,,*1D
$HCHDG,25.9,0.0,E,,*17
$HCHDG,25.5,0.0,E,,*1B
$GPRMC,230005.6,A,4741.22419,N,12224.94595,W,002.90,046.6,200413,016.6,E,D*23
$GPRMB,A,-0.25,L,,M,4741.7720,N,12224.5760,W,0.6,41,2.85,V*56
$PGRME,2.7,M,2.4,M,3.6,M*28
$HCHDG,24.9,0.0,E,,*16
$IIRMC,230000,A,4741.223,N,12224.946,W,02.9,039,200413,16,E,A*14
$IIVHW,,,,,02.1,N,,*1A
$GPRMC,230005.8,A,4741.22429,N,12224.94585,W,002.89,041.0,200413,016.6,E,D*26
$HCHDG,24.7,0.0,E,,*18
$PGRME,2.7,M,2.4,M,3.6,M*28
$IIVLW,06227,N,017.6,N*52
$YXXDR,A,4.4,D,PTCH,A,-4.2,D,ROLL*76
$PTAK,FFD1,4.2*53
$IIDPT,066.5,-1.0,*45
$HCHDG,24.4,0.0,E,,*1B
$IIGLL,4741.223,N,12224.946,W,230000,A,A*4A
$GPRMC,230006.0,A,4741.22444,N,12224.94568,W,002.89,040.4,200413,016.6,E,D*20
$HCHDG,24.2,0.0,E,,*1D
$PGRME,2.7,M,2.4,M,3.6,M*28
$IIMTW,+09.0,C*31
$HCHDG,23.8,0.0,E,,*10
$IIRMB,A,,,,M   ,,,,,000.6,041,,V,A*7B
$HCHDG,23.4,0.0,E,,*1C
$GPRMC,230006.2,A,4741.22454,N,12224.94548,W,003.06,038.9,200413,016.6,E,D*25
$PGRME,2.7,M,2.4,M,3.6,M*28
$HCHDG,23.1,0.0,E,,*19
$YXXDR,A,4.7,D,PTCH,A,-3.8,D,ROLL*78
$GPRMC,230006.4,A,4741.22461,N,12224.94542,W,002.99,040.4,200413,016.6,E,D*2A
$PGRME,2.7,M,2.4,M,3.6,M*28
$HCHDG,22.7,0.0,E,,*1E
$HCHDG,22.2,0.0,E,,*1B
$GPRMC,230006.6,A,4741.22476,N,12224.94532,W,003.00,039.6,200413,016.6,E,D*24
$HCHDG,21.9,0.0,E,,*13
$PGRME,2.6,M,2.4,M,3.6,M*29
$HCHDG,21.8,0.0,E,,*12
$IIRMC,230000,A,4741.224,N,12224.945,W,02.8,041,200413,16,E,A*1E
$IIVHW,,,,,02.1,N,,*1A
$HCHDG,21.4,0.0,E,,*1E
$GPRMC,230006.8,A,4741.22485,N,12224.94522,W,003.02,038.4,200413,016.6,E,D*26
$GPRMB,A,-0.25,L,,M,4741.7720,N,12224.5760,W,0.6,41,2.85,V*56
$PGRME,2.6,M,2.4,M,3.6,M*29
$IIVLW,06227,N,017.6,N*52
$YXXDR,A,4.5,D,PTCH,A,-3.7,D,ROLL*75
$PTAK,FFD1,3.7*51
$IIDPT,066.5,-1.0,*45
$HCHDG,20.7,0.0,E,,*1C
$IIGLL,4741.224,N,12224.945,W,230000,A,A*4E
$HCHDG,20.6,0.0,E,,*1D
$GPRMC,230007.0,A,4741.22494,N,12224.94516,W,003.02,037.8,200413,016.6,E,D*2B
$PGRME,2.6,M,2.4,M,3.6,M*29
$IIMTW,+09.0,C*31
$HCHDG,20.1,0.0,E,,*1A
$IIRMB,A,,,,M   ,,,,,000.6,041,,V,A*7B
$GPRMC,230007.2,A,4741.22501,N,12224.94483,W,003.06,036.6,200413,016.6,E,D*22
$HCHDG,19.6,0.0,E,,*17
$PGRME,2.6,M,2.4,M,3.5,M*2A
$HCHDG,19.3,0.0,E,,*12
$YXXDR,A,4.5,D,PTCH,A,-3.1,D,ROLL*73
$GPRMC,230007.4,A,4741.22503,N,12224.94466,W,003.06,037.4,200413,016.6,E,D*2E
$PGRME,2.6,M,2.4,M,3.5,M*2A
$HCHDG,19.0,0.0,E,,*11
$HCHDG,18.5,0.0,E,,*15
$HCHDG,18.1,0.0,E,,*11
$GPRMC,230007.6,A,4741.22518,N,12224.94452,W,003.04,036.8,200413,016.6,E,D*2E
$PGRME,2.6,M,2.4,M,3.5,M*2A
$HCHDG,17.6,0.0,E,,*19
$IIRMC,230000,A,4741.224,N,12224.945,W,03.0,038,200413,16,E,A*19
$IIVHW,,,,,02.2,N,,*19
$HCHDG,17.0,0.0,E,,*1F
$GPRMC,230007.8,A,4741.22530,N,12224.94440,W,003.06,035.9,200413,016.6,E,D*29
$PGRME,2.5,M,2.4,M,3.5,M*29
$IIVLW,06227,N,017.6,N*52
$YXXDR,A,4.5,D,PTCH,A,-3.1,D,ROLL*73
$IIDPT,066.7,-1.0,*47
$HCHDG,16.7,0.0,E,,*19
$IIGLL,4741.224,N,12224.945,W,230000,A,A*4E
$HCHDG,16.4,0.0,E,,*1A
$PTAK,FFP1,HEEL,@*07
$GPRMC,230008.0,A,4741.22543,N,12224.94428,W,003.09,033.6,200413,016.6,E,D*22
$GPRMB,A,-0.25,L,,M,4741.7720,N,12224.5760,W,0.6,41,2.82,V*51
$PGRME,2.5,M,2.4,M,3.5,M*29
$IIMTW,+09.0,C*31
$HCHDG,15.9,0.0,E,,*14
$IIRMB,A,,,,M   ,,,,,000.6,041,,V,A*7B
$HCHDG,15.8,0.0,E,,*15
$GPRMC,230008.2,A,4741.22559,N,12224.94411,W,003.10,032.5,200413,016.6,E,D*2B
$PGRME,2.5,M,2.4,M,3.5,M*29
$HCHDG,15.5,0.0,E,,*18
$YXXDR,A,4.6,D,PTCH,A,-1.8,D,ROLL*7B
$PTAK,FFD1,1.8*5C
$GPRMC,230008.4,A,4741.22575,N,12224.94398,W,003.11,031.8,200413,016.6,E,D*2A
$PGRME,2.5,M,2.4,M,3.5,M*29
$HCHDG,15.6,0.0,E,,*1B
$HCHDG,15.4,0.0,E,,*19
$HCHDG,15.1,0.0,E,,*1C
$GPRMC,230008.6,A,4741.22587,N,12224.94382,W,003.12,027.5,200413,016.6,E,D*27
$PGRME,2.5,M,2.4,M,3.5,M*29
$HCHDG,15.0,0.0,E,,*1D
$IIRMC,230000,A,4741.225,N,12224.944,W,03.0,035,200413,16,E,A*14
$IIVHW,,,,,02.2,N,,*19
$HCHDG,14.9,0.0,E,,*15
$GPRMC,230008.8,A,4741.22604,N,12224.94367,W,003.12,027.4,200413,016.6,E,D*2B
$PGRME,2.5,M,2.4,M,3.5,M*29
$IIVLW,06227,N,017.6,N*52
$YXXDR,A,4.6,D,PTCH,A,-0.7,D,ROLL*75
$IIDPT,066.7,-1.0,*47
$HCHDG,14.8,0.0,E,,*14
$IIGLL,4741.225,N,12224.944,W,230000,A,A*4E
$HCHDG,14.6,0.0,E,,*1A
$GPRMC,230009.0,A,4741.22614,N,12224.94362,W,003.13,023.6,200413,016.6,E,D*21
$PGRME,2.5,M,2.4,M,3.5,M*29
$IIMTW,+09.0,C*31
$HCHDG,14.8,0.0,E,,*14
$IIRMB,A,,,,M   ,,,,,000.6,041,,V,A*7B
$HCHDG,14.8,0.0,E,,*14
$GPRMC,230009.2,A,4741.22624,N,12224.94359,W,002.97,024.3,200413,016.6,E,D*27
$GPRMB,A,-0.25,L,,M,4741.7720,N,12224.5760,W,0.6,41,2.48,V*57
$PGRME,2.5,M,2.4,M,3.5,M*29
$HCHDG,14.4,0.0,E,,*18
$YXXDR,A,4.6,D,PTCH,A,-0.5,D,ROLL*77
$PTAK,FFD1,0.5*50
$GPRMC,230009.4,A,4741.22643,N,12224.94346,W,003.18,020.2,200413,016.6,E,D*2D
$PGRME,2.5,M,2.4,M,3.5,M*29
$HCHDG,14.2,0.0,E,,*1E
$HCHDG,13.8,0.0,E,,*13
$HCHDG,13.2,0.0,E,,*19
$GPRMC,230009.6,A,4741.22655,N,12224.94340,W,002.95,026.4,200413,016.6,E,D*2A
$PGRME,2.5,M,2.4,M,3.5,M*29
$HCHDG,12.8,0.0,E,,*12
$IIRMC,230000,A,4741.226,N,12224.943,W,03.1,027,200413,16,E,A*12
$IIVHW,,,,,02.2,N,,*19
$HCHDG,12.1,0.0,E,,*1B
$GPRMC,230009.8,A,4741.22669,N,12224.94326,W,002.96,028.1,200413,016.6,E,D*23
$PGRME,2.5,M,2.4,M,3.5,M*29
$IIVLW,06227,N,017.6,N*52
$YXXDR,A,4.3,D,PTCH,A,-2.0,D,ROLL*75
$IIDPT,066.7,-1.0,*47
$HCHDG,11.6,0.0,E,,*1F
$IIGLL,4741.226,N,12224.943,W,230000,A,A*4A
$HCHDG,11.0,0.0,E,,*19
$GPRMC,230010.0,A,4741.22679,N,12224.94317,W,003.01,026.3,200413,016.6,E,D*23
$PGRME,2.5,M,2.4,M,3.5,M*29
$IIMTW,+09.0,C*31
$HCHDG,10.5,0.0,E,,*1D
$IIRMB,A,,,,M   ,,,,,000.6,041,,V,A*7B
$HCHDG,10.1,0.0,E,,*19
$GPRMC,230010.2,A,4741.22692,N,12224.94311,W,003.04,028.2,200413,016.6,E,D*28
$PGRME,2.5,M,2.4,M,3.5,M*29
$HCHDG,9.6,0.0,E,,*26
$YXXDR,A,4.4,D,PTCH,A,-2.0,D,ROLL*72
$GPRMC,230010.4,A,4741.22705,N,12224.94308,W,003.08,027.7,200413,016.6,E,D*2F
$GPRMB,A,-0.25,L,,M,4741.7720,N,12224.5760,W,0.6,41,2.67,V*5A
$PGRME,2.5,M,2.4,M,3.5,M*29
$HCHDG,9.3,0.0,E,,*23
$HCHDG,8.8,0.0,E,,*29
$HCHDG,8.5,0.0,E,,*24
$GPRMC,230010.6,A,4741.22718,N,12224.94294,W,003.15,025.3,200413,016.6,E,D*2F
$PGRME,2.5,M,2.4,M,3.5,M*29
$HCHDG,8.0,0.0,E,,*21
$IIRMC,230000,A,4741.226,N,12224.943,W,02.9,028,200413,16,E,A*14
$IIVHW,,,,,02.4,N,,*1F
$HCHDG,7.7,0.0,E,,*29
$GPRMC,230010.8,A,4741.22729,N,12224.94289,W,003.30,024.5,200413,016.6,E,D*2F
$PGRME,2.5,M,2.4,M,3.5,M*29
$IIVLW,06227,N,017.6,N*52
$YXXDR,A,4.9,D,PTCH,A,-1.5,D,ROLL*79
$PTAK,FFD1,1.5*51
$IIDPT,066.9,-1.0,*49
$HCHDG,7.4,0.0,E,,*2A
$IIGLL,4741.226,N,12224.943,W,230000,A,A*4A
$HCHDG,7.2,0.0,E,,*2C
$GPRMC,230011.0,A,4741.22743,N,12224.94281,W,003.26,023.4,200413,016.6,E,D*23
$PGRME,2.5,M,2.4,M,3.5,M*29
$IIMTW,+09.0,C*31
$HCHDG,6.7,0.0,E,,*28
$IIRMB,A,,,,M   ,,,,,000.6,041,,V,A*7B
$HCHDG,6.4,0.0,E,,*2B
$GPRMC,230011.2,A,4741.22763,N,12224.94261,W,003.28,020.6,200413,016.6,E,D*22
$PGRME,2.5,M,2.4,M,3.5,M*29
$HCHDG,6.2,0.0,E,,*2D
$YXXDR,A,4.5,D,PTCH,A,-1.5,D,ROLL*75
$GPRMC,230011.4,A,4741.22781,N,12224.94243,W,002.97,027.0,200413,016.6,E,D*2C
$GPRMB,A,-0.25,L,,M,4741.7720,N,12224.5760,W,0.6,41,2.56,V*58
$PGRME,2.5,M,2.4,M,3.5,M*29
$HCHDG,5.8,0.0,E,,*24
$HCHDG,5.4,0.0,E,,*28
$HCHDG,5.3,0.0,E,,*2F
$GPRMC,230011.6,A,4741.22811,N,12224.94241,W,003.25,023.3,200413,016.6,E,D*25
$PGRME,2.5,M,2.4,M,3.5,M*29
$HCHDG,4.9,0.0,E,,*24
$IIRMC,230000,A,4741.227,N,12224.942,W,03.3,024,200413,16,E,A*13
$IIVHW,,,,,02.5,N,,*1E
$HCHDG,4.8,0.0,E,,*25
$GPRMC,230011.8,A,4741.22827,N,12224.94230,W,003.19,023.8,200413,016.6,E,D*2C
$PGRME,2.5,M,2.4,M,3.5,M*29
$IIVLW,06227,N,017.6,N*52
$YXXDR,A,4.9,D,PTCH,A,-0.8,D,ROLL*75
$IIDPT,066.9,-1.0,*49
$HCHDG,4.6,0.0,E,,*2B
$IIGLL,4741.227,N,12224.942,W,230000,A,A*4A
$HCHDG,4.2,0.0,E,,*2F
$PTAK,FFP1,HEEL,@*07
$GPRMC,230012.0,A,4741.22843,N,12224.94220,W,003.24,018.6,200413,016.6,E,D*2C
$PGRME,2.5,M,2.4,M,3.5,M*29
$IIMTW,+09.0,C*31
$HCHDG,3.9,0.0,E,,*23
$IIRMB,A,,,,M   ,,,,,000.6,041,,V,A*7B
$HCHDG,3.5,0.0,E,,*2F
$GPRMC,230012.2,A,4741.22865,N,12224.94208,W,003.21,017.5,200413,016.6,E,D*29
$PGRME,2.5,M,2.4,M,3.5,M*29
$HCHDG,2.9,0.0,E,,*22
$YXXDR,A,4.5,D,PTCH,A,-1.5,D,ROLL*75
$PTAK,FFD1,1.5*51
$GPRMC,230012.4,A,4741.22885,N,12224.94200,W,003.15,016.4,200413,016.6,E,D*2E
$GPRMB,A,-0.25,L,,M,4741.7720,N,12224.5760,W,0.6,41,2.37,V*5F
$PGRME,2.5,M,2.4,M,3.5,M*29
$HCHDG,2.7,0.0,E,,*2C
$HCHDG,2.3,0.0,E,,*28
$HCHDG,1.8,0.0,E,,*20
$GPRMC,230012.6,A,4741.22903,N,12224.94193,W,003.17,020.0,200413,016.6,E,D*29
$PGRME,2.5,M,2.4,M,3.5,M*29
$HCHDG,1.5,0.0,E,,*2D
$IIRMC,230000,A,4741.228,N,12224.942,W,03.1,023,200413,16,E,A*19
$IIVHW,,,,,02.4,N,,*1F
$HCHDG,1.2,0.0,E,,*2A
$GPRMC,230012.8,A,4741.22928,N,12224.94185,W,003.17,019.3,200413,016.6,E,D*20
$PGRME,2.5,M,2.4,M,3.5,M*29
$IIVLW,06227,N,017.6,N*52
$YXXDR,A,4.7,D,PTCH,A,-1.9,D,ROLL*7B
$IIDPT,067.1,-1.0,*40
$HCHDG,0.6,0.0,E,,*2F
$IIGLL,4741.228,N,12224.942,W,230000,A,A*45
$HCHDG,0.4,0.0,E,,*2D
$GPRMC,230013.0,A,4741.22949,N,12224.94181,W,003.14,018.5,200413,016.6,E,D*2E
$PGRME,2.5,M,2.4,M,3.5,M*29
$IIMTW,+09.0,C*31
$HCHDG,0.1,0.0,E,,*28
$IIRMB,A,,,,M   ,,,,,000.6,041,,V,A*7B
$HCHDG,359.7,0.0,E,,*21
$GPRMC,230013.2,A,4741.22970,N,12224.94175,W,003.14,018.0,200413,016.6,E,D*28
$PGRME,2.5,M,2.4,M,3.5,M*29
$HCHDG,359.4,0.0,E,,*22
$YXXDR,A,4.6,D,PTCH,A,-1.8,D,ROLL*7B
$PTAK,FFD1,1.8*5C
$GPRMC,230013.4,A,4741.22995,N,12224.94179,W,003.30,017.3,200413,016.6,E,D*23
$GPRMB,A,-0.25,L,,M,4741.7720,N,12224.5760,W,0.6,41,2.52,V*5C
$PGRME,2.5,M,2.4,M,3.5,M*29
$HCHDG,359.1,0.0,E,,*27
$HCHDG,358.7,0.0,E,,*20
$GPRMC,230013.6,A,4741.23020,N,12224.94180,W,003.24,017.4,200413,016.6,E,D*23
$HCHDG,358.4,0.0,E,,*23
$PGRME,2.5,M,2.4,M,3.5,M*29
$HCHDG,357.9,0.0,E,,*21
$IIRMC,230000,A,4741.229,N,12224.941,W,03.1,019,200413,16,E,A*12
$IIVHW,,,,,02.4,N,,*1F
$GPRMC,230013.8,A,4741.23044,N,12224.94180,W,003.22,014.7,200413,016.6,E,D*29
$HCHDG,357.8,0.0,E,,*20
$PGRME,2.5,M,2.4,M,3.5,M*29
$IIVLW,06227,N,017.6,N*52
$YXXDR,A,4.4,D,PTCH,A,-1.2,D,ROLL*73
$IIDPT,067.1,-1.0,*40
$HCHDG,357.5,0.0,E,,*2D
$IIGLL,4741.229,N,12224.941,W,230000,A,A*47
$HCHDG,357.1,0.0,E,,*29
$GPRMC,230014.0,A,4741.23067,N,12224.94168,W,003.43,011.0,200413,016.6,E,D*24
$PGRME,2.5,M,2.4,M,3.5,M*29
$IIMTW,+09.0,C*31
$HCHDG,356.9,0.0,E,,*20
$IIRMB,A,,,,M   ,,,,,000.6,041,,V,A*7B
$HCHDG,356.8,0.0,E,,*21
$GPRMC,230014.2,A,4741.23090,N,12224.94163,W,003.39,011.5,200413,016.6,E,D*2D
$PGRME,2.5,M,2.4,M,3.5,M*29
$HCHDG,356.6,0.0,E,,*2F
$YXXDR,A,4.4,D,PTCH,A,-0.8,D,ROLL*78
$PTAK,FFD1,0.8*5D
$GPRMC,230014.4,A,4741.23112,N,12224.94162,W,003.19,009.7,200413,016.6,E,D*28
$PGRME,2.5,M,2.4,M,3.5,M*29
$HCHDG,356.4,0.0,E,,*2D
$HCHDG,356.3,0.0,E,,*2A
$HCHDG,356.2,0.0,E,,*2B
$GPRMC,230014.6,A,4741.23136,N,12224.94161,W,003.44,010.7,200413,016.6,E,D*2F
$GPRMB,A,-0.25,L,,M,4741.7720,N,12224.5760,W,0.6,41,2.35,V*5D
$PGRME,2.5,M,2.4,M,3.5,M*29
$HCHDG,356.1,0.0,E,,*28
$IIRMC,230000,A,4741.229,N,12224.941,W,03.1,019,200413,16,E,A*12
$IIVHW,,,,,02.4,N,,*1F
$HCHDG,355.9,0.0,E,,*23
$GPRMC,230014.8,A,4741.23159,N,12224.94161,W,003.43,010.2,200413,016.6,E,D*2A
$PGRME,2.5,M,2.4,M,3.5,M*29
$IIVLW,06227,N,017.6,N*52
$YXXDR,A,5.1,D,PTCH,A,0.0,D,ROLL*59
$IIDPT,067.3,-1.0,*42
$HCHDG,355.8,0.0,E,,*22
$IIGLL,4741.229,N,12224.941,W,230000,A,A*47
$HCHDG,355.5,0.0,E,,*2F
$GPRMC,230015.0,A,4741.23178,N,12224.94164,W,003.27,009.2,200413,016.6,E,D*2F
$PGRME,2.5,M,2.4,M,3.5,M*29
$IIMTW,+09.0,C*31
$HCHDG,355.1,0.0,E,,*2B
$IIRMB,A,,,,M   ,,,,,000.6,041,,V,A*7B
$HCHDG,355.2,0.0,E,,*28
$GPRMC,230015.2,A,4741.23197,N,12224.94162,W,003.29,007.4,200413,016.6,E,D*2C
$PGRME,2.5,M,2.4,M,3.5,M*29
$HCHDG,355.0,0.0,E,,*2A
$YXXDR,A,4.8,D,PTCH,A,-0.2,D,ROLL*7E
$PTAK,FFD1,0.2*57
$GPRMC,230015.4,A,4741.23224,N,12224.94166,W,003.32,007.5,200413,016.6,E,D*2E
$PGRME,2.5,M,2.4,M,3.5,M*29
$HCHDG,354.8,0.0,E,,*23
$HCHDG,354.5,0.0,E,,*2E
$GPRMC,230015.6,A,4741.23256,N,12224.94167,W,003.30,006.1,200413,016.6,E,D*2F
$HCHDG,354.3,0.0,E,,*28
$PGRME,2.5,M,2.4,M,3.5,M*29
$HCHDG,354.4,0.0,E,,*2F
$IIRMC,230000,A,4741.231,N,12224.941,W,03.4,010,200413,16,E,A*17
$IIVHW,,,,,02.4,N,,*1F
$HCHDG,354.1,0.0,E,,*2A
$GPRMC,230015.8,A,4741.23280,N,12224.94173,W,003.32,005.6,200413,016.6,E,D*29
$GPRMB,A,-0.25,L,,M,4741.7720,N,12224.5760,W,0.6,41,2.04,V*5F
$PGRME,2.5,M,2.4,M,3.5,M*29
$IIVLW,06227,N,017.6,N*52
$YXXDR,A,4.5,D,PTCH,A,-0.2,D,ROLL*73
$PTAK,FFP1,HEEL,@*07
$IIDPT,067.4,-1.0,*45
$HCHDG,354.0,0.0,E,,*2B
$IIGLL,4741.231,N,12224.941,W,230000,A,A*4E
$HCHDG,354.0,0.0,E,,*2B
$GPRMC,230016.0,A,4741.23302,N,12224.94179,W,003.40,007.0,200413,016.6,E,D*22
$PGRME,2.5,M,2.4,M,3.5,M*29
$IIMTW,+09.0,C*31
$HCHDG,353.9,0.0,E,,*25
$IIRMB,A,,,,M   ,,,,,000.6,041,,V,A*7B
$GPRMC,230016.2,A,4741.23322,N,12224.94179,W,003.36,005.8,200413,016.6,E,D*29
$HCHDG,353.8,0.0,E,,*24
$PGRME,2.5,M,2.4,M,3.5,M*29
$HCHDG,353.5,0.0,E,,*29
$YXXDR,A,4.5,D,PTCH,A,-0.4,D,ROLL*75
$GPRMC,230016.4,A,4741.23348,N,12224.94182,W,003.39,009.5,200413,016.6,E,D*29
$PGRME,2.5,M,2.4,M,3.5,M*29
$HCHDG,353.3,0.0,E,,*2F
$HCHDG,353.2,0.0,E,,*2E
$GPRMC,230016.6,A,4741.23369,N,12224.94177,W,003.40,006.1,200413,016.6,E,D*27
$HCHDG,353.0,0.0,E,,*2C
$PGRME,2.5,M,2.4,M,3.5,M*29
$HCHDG,352.5,0.0,E,,*28
$IIRMC,230000,A,4741.232,N,12224.941,W,03.3,005,200413,16,E,A*17
$IIVHW,,,,,02.5,N,,*1E
$GPRMC,230016.8,A,4741.23390,N,12224.94179,W,003.38,006.7,200413,016.6,E,D*28
$HCHDG,352.3,0.0,E,,*2E
$PGRME,2.5,M,2.4,M,3.5,M*29
$IIVLW,06227,N,017.6,N*52
$YXXDR,A,4.5,D,PTCH,A,-1.1,D,ROLL*71
$PTAK,FFD1,1.1*55
$IIDPT,067.4,-1.0,*45
$HCHDG,352.0,0.0,E,,*2D
$IIGLL,4741.232,N,12224.941,W,230000,A,A*4D
$HCHDG,351.5,0.0,E,,*2B
$GPRMC,230017.0,A,4741.23406,N,12224.94177,W,003.37,004.8,200413,016.6,E,D*25
$GPRMB,A,-0.25,L,,M,4741.7720,N,12224.5760,W,0.6,41,2.03,V*58
$PGRME,2.5,M,2.4,M,3.5,M*29
$IIMTW,+09.0,C*31
$HCHDG,351.3,0.0,E,,*2D
$IIRMB,A,,,,M   ,,,,,000.6,041,,V,A*7B
$GPRMC,230017.2,A,4741.23430,N,12224.94183,W,003.39,005.1,200413,016.6,E,D*2F
$PGRME,2.5,M,2.4,M,3.5,M*29
$HCHDG,351.2,0.0,E,,*2C
$HCHDG,351.0,0.0,E,,*2E
$YXXDR,A,5.0,D,PTCH,A,-1.0,D,ROLL*74
$GPRMC,230017.4,A,4741.23453,N,12224.94189,W,003.36,002.6,200413,016.6,E,D*29
$PGRME,2.5,M,2.4,M,3.5,M*29
$HCHDG,351.0,0.0,E,,*2E
$HCHDG,350.8,0.0,E,,*27
$GPRMC,230017.6,A,4741.23474,N,12224.94197,W,003.33,002.1,200413,016.6,E,D*23
$HCHDG,350.8,0.0,E,,*27
$PGRME,2.5,M,2.4,M,3.5,M*29
$HCHDG,350.6,0.0,E,,*29
$IIRMC,230000,A,4741.232,N,12224.941,W,03.3,005,200413,16,E,A*17
$IIVHW,,,,,02.5,N,,*1E
$GPRMC,230017.8,A,4741.23496,N,12224.94203,W,003.33,004.0,200413,016.6,E,D*28
$HCHDG,350.3,0.0,E,,*2C
$PGRME,2.5,M,2.4,M,3.5,M*29
$IIVLW,06227,N,017.6,N*52
$YXXDR,A,4.5,D,PTCH,A,-1.0,D,ROLL*70
$PTAK,FFD1,1.0*54
$IIDPT,068.0,-1.0,*4E
$HCHDG,349.9,0.0,E,,*2E
$IIGLL,4741.232,N,12224.941,W,230000,A,A*4D
$GPRMC,230018.0,A,4741.23519,N,12224.94210,W,003.29,003.2,200413,016.6,E,D*25
$HCHDG,349.6,0.0,E,,*21
$PGRME,2.5,M,2.4,M,3.5,M*29
$IIMTW,+09.0,C*31
$HCHDG,349.4,0.0,E,,*23
$IIRMB,A,,,,M   ,,,,,000.6,041,,V,A*7B
$HCHDG,349.3,0.0,E,,*24
$GPRMC,230018.2,A,4741.23540,N,12224.94207,W,003.46,004.8,200413,016.6,E,D*29
$GPRMB,A,-0.25,L,,M,4741.7720,N,12224.5760,W,0.6,41,2.08,V*53
$PGRME,2.5,M,2.4,M,3.5,M*29
$HCHDG,349.2,0.0,E,,*25
$YXXDR,A,4.5,D,PTCH,A,-1.1,D,ROLL*71
$GPRMC,230018.4,A,4741.23562,N,12224.94208,W,003.39,003.0,200413,016.6,E,D*27
$PGRME,2.5,M,2.4,M,3.5,M*29
$HCHDG,349.2,0.0,E,,*25
$HCHDG,349.2,0.0,E,,*25
$GPRMC,230018.6,A,4741.23581,N,12224.94210,W,003.38,003.1,200413,016.6,E,D*21
$HCHDG,349.0,0.0,E,,*27
$PGRME,2.5,M,2.4,M,3.5,M*29
$HCHDG,349.2,0.0,E,,*25
$IIRMC,230000,A,4741.235,N,12224.942,W,03.4,004,200413,16,E,A*15
$IIVHW,,,,,02.6,N,,*1D
$GPRMC,230018.8,A,4741.23598,N,12224.94208,W,003.36,002.3,200413,016.6,E,D*23
$HCHDG,349.1,0.0,E,,*26
$PGRME,2.5,M,2.4,M,3.5,M*29
$IIVLW,06227,N,017.6,N*52
$YXXDR,A,4.6,D,PTCH,A,-0.4,D,ROLL*76
$PTAK,FFD1,0.4*51
$IIDPT,068.2,-1.0,*4C
$HCHDG,349.0,0.0,E,,*27
$IIGLL,4741.235,N,12224.942,W,230000,A,A*49
$GPRMC,230019.0,A,4741.23612,N,12224.94206,W,003.31,001.4,200413,016.6,E,D*26
$HCHDG,348.9,0.0,E,,*2F
$PGRME,2.5,M,2.4,M,3.5,M*29
$IIMTW,+09.0,C*31
$HCHDG,348.8,0.0,E,,*2E
$IIRMB,A,,,,M   ,,,,,000.6,041,,V,A*7B
$GPRMC,230019.2,A,4741.23628,N,12224.94199,W,003.34,002.1,200413,016.6,E,D*2B
$HCHDG,348.8,0.0,E,,*2E
$PGRME,2.4,M,2.4,M,3.5,M*28
$HCHDG,348.7,0.0,E,,*21
$YXXDR,A,4.6,D,PTCH,A,-1.0,D,ROLL*73
$GPRMC,230019.4,A,4741.23644,N,12224.94201,W,003.32,003.3,200413,016.6,E,D*20
$GPRMB,A,-0.25,L,,M,4741.7720,N,12224.5760,W,0.6,41,1.92,V*53
$PGRME,2.4,M,2.4,M,3.5,M*28
$HCHDG,348.5,0.0,E,,*23
$HCHDG,348.3,0.0,E,,*25
$GPRMC,230019.6,A,4741.23661,N,12224.94204,W,003.31,003.8,200413,016.6,E,D*28
$HCHDG,348.2,0.0,E,,*24
$PGRME,2.4,M,2.4,M,3.4,M*29
$HCHDG,348.1,0.0,E,,*27
$IIRMC,230000,A,4741.235,N,12224.942,W,03.4,004,200413,16,E,A*15
$IIVHW,,,,,02.6,N,,*1D
$GPRMC,230019.8,A,4741.23680,N,12224.94206,W,003.27,001.3,200413,016.6,E,D*25
$HCHDG,347.9,0.0,E,,*20
$PGRME,2.4,M,2.4,M,3.4,M*29
$IIVLW,06227,N,017.6,N*52
$YXXDR,A,4.5,D,PTCH,A,-0.8,D,ROLL*79
$PTAK,FFD1,0.8*5D
$IIDPT,068.2,-1.0,*4C
$HCHDG,347.8,0.0,E,,*21
$IIGLL,4741.235,N,12224.942,W,230000,A,A*49
$GPRMC,230020.0,A,4741.23696,N,12224.94209,W,003.26,001.4,200413,016.6,E,D*29
$PTAK,FFP1,HEEL,@*07
$HCHDG,347.6,0.0,E,,*2F
$PGRME,2.4,M,2.4,M,3.4,M*29
$IIMTW,+09.0,C*31
$HCHDG,347.7,0.0,E,,*2E
$IIRMB,A,,,,M   ,,,,,000.6,041,,V,A*7B
$HCHDG,347.7,0.0,E,,*2E
$GPRMC,230020.2,A,4741.23710,N,12224.94207,W,003.28,004.5,200413,016.6,E,D*20
$PGRME,2.4,M,2.4,M,3.4,M*29
$HCHDG,347.5,0.0,E,,*2C
$YXXDR,A,4.4,D,PTCH,A,-0.8,D,ROLL*78
$GPRMC,230020.4,A,4741.23727,N,12224.94206,W,003.28,002.2,200413,016.6,E,D*22
$PGRME,2.4,M,2.4,M,3.4,M*29
$HCHDG,347.4,0.0,E,,*2D
$HCHDG,347.3,0.0,E,,*2A
$GPRMC,230020.6,A,4741.23748,N,12224.94208,W,003.45,003.9,200413,016.6,E,D*26
$GPRMB,A,-0.25,L,,M,4741.7720,N,12224.5760,W,0.6,41,2.03,V*58
$HCHDG,347.2,0.0,E,,*2B
$PGRME,2.4,M,2.4,M,3.4,M*29
$HCHDG,347.1,0.0,E,,*28
$IIRMC,230000,A,4741.236,N,12224.942,W,03.3,003,200413,16,E,A*16
$IIVHW,,,,,02.7,N,,*1C
$GPRMC,230020.8,A,4741.23767,N,12224.94207,W,003.26,003.3,200413,016.6,E,D*25
$HCHDG,346.8,0.0,E,,*20
$PGRME,2.4,M,2.5,M,3.5,M*29
$IIVLW,06227,N,017.6,N*52
$YXXDR,A,4.3,D,PTCH,A,-1.0,D,ROLL*76
$PTAK,FFD1,1.0*54
$IIDPT,068.3,-1.0,*4D
$HCHDG,346.5,0.0,E,,*2D
$IIGLL,4741.236,N,12224.942,W,230000,A,A*4A
$GPRMC,230021.0,A,4741.23786,N,12224.94204,W,003.26,002.6,200413,016.6,E,D*24
$HCHDG,346.4,0.0,E,,*2C
$PGRME,2.4,M,2.5,M,3.5,M*29
$IIMTW,+09.0,C*31
$HCHDG,346.3,0.0,E,,*2B
$IIRMB,A,,,,M   ,,,,,000.6,041,,V,A*7B
$GPRMC,230021.2,A,4741.23802,N,12224.94203,W,003.20,359.9,200413,016.6,E,D*26
$HCHDG,346.2,0.0,E,,*2A
$PGRME,2.4,M,2.5,M,3.5,M*29
$HCHDG,346.3,0.0,E,,*2B
$YXXDR,A,4.4,D,PTCH,A,-0.3,D,ROLL*73
$GPRMC,230021.4,A,4741.23817,N,12224.94200,W,003.19,001.3,200413,016.6,E,D*29
$PGRME,2.4,M,2.5,M,3.5,M*29
$HCHDG,346.2,0.0,E,,*2A
$HCHDG,346.4,0.0,E,,*2C
$GPRMC,230021.6,A,4741.23836,N,12224.94204,W,003.17,001.1,200413,016.6,E,D*20
$GPRMB,A,-0.25,L,,M,4741.7720,N,12224.5760,W,0.6,41,1.73,V*5C
$HCHDG,346.3,0.0,E,,*2B
$PGRME,2.4,M,2.5,M,3.5,M*29
$HCHDG,346.5,0.0,E,,*2D
$IIRMC,230000,A,4741.237,N,12224.942,W,03.2,002,200413,16,E,A*17
$IIVHW,,,,,02.6,N,,*1D
$GPRMC,230021.8,A,4741.23852,N,12224.94201,W,003.35,001.3,200413,016.6,E,D*2B
$HCHDG,346.4,0.0,E,,*2C
$PGRME,2.4,M,2.6,M,3.5,M*2A
$IIVLW,06227,N,017.6,N*52
$YXXDR,A,4.5,D,PTCH,A,-0.2,D,ROLL*73
$IIDPT,068.5,-1.0,*4B
$HCHDG,346.3,0.0,E,,*2B
$IIGLL,4741.237,N,12224.942,W,230000,A,A*4B
$GPRMC,230022.0,A,4741.23874,N,12224.94201,W,003.60,003.9,200413,016.6,E,D*2C
$HCHDG,346.3,0.0,E,,*2B
$PGRME,2.4,M,2.6,M,3.5,M*2A
$IIMTW,+09.0,C*31
$HCHDG,345.9,0.0,E,,*22
$IIRMB,A,,,,M   ,,,,,000.6,041,,V,A*7B
$GPRMC,230022.2,A,4741.23892,N,12224.94199,W,003.39,003.4,200413,016.6,E,D*25
$PGRME,2.4,M,2.6,M,3.6,M*29
$HCHDG,345.8,0.0,E,,*23
$HCHDG,345.7,0.0,E,,*2C
$YXXDR,A,4.6,D,PTCH,A,-0.7,D,ROLL*75
$PTAK,FFD1,0.7*52
$GPRMC,230022.4,A,4741.23913,N,12224.94203,W,003.31,003.9,200413,016.6,E,D*2E
$PGRME,2.4,M,2.6,M,3.6,M*29
$HCHDG,345.4,0.0,E,,*2F
$HCHDG,345.3,0.0,E,,*28
$GPRMC,230022.6,A,4741.23930,N,12224.94198,W,003.33,002.8,200413,016.6,E,D*2E
$HCHDG,345.2,0.0,E,,*29
$PGRME,2.4,M,2.6,M,3.6,M*29
$HCHDG,344.9,0.0,E,,*23
$IIRMC,230000,A,4741.238,N,12224.942,W,03.1,001,200413,16,E,A*18
$IIVHW,,,,,02.7,N,,*1C
$GPRMC,230022.8,A,4741.23953,N,12224.94204,W,003.31,002.1,200413,016.6,E,D*28
$GPRMB,A,-0.25,L,,M,4741.7720,N,12224.5760,W,0.6,41,1.85,V*55
$HCHDG,344.6,0.0,E,,*2C
$PGRME,2.4,M,2.7,M,3.6,M*28
$IIVLW,06227,N,017.6,N*52
$YXXDR,A,4.7,D,PTCH,A,-0.4,D,ROLL*77
$IIDPT,068.5,-1.0,*4B
$HCHDG,344.7,0.0,E,,*2D
$IIGLL,4741.238,N,12224.942,W,230000,A,A*44
$GPRMC,230023.0,A,4741.23967,N,12224.94201,W,003.33,002.5,200413,016.6,E,D*25
$HCHDG,344.4,0.0,E,,*2E
$PGRME,2.4,M,2.7,M,3.6,M*28
$IIMTW,+09.0,C*31
$HCHDG,344.3,0.0,E,,*29
$IIRMB,A,,,,M   ,,,,,000.6,041,,V,A*7B
$GPRMC,230023.2,A,4741.23981,N,12224.94201,W,003.30,001.2,200413,016.6,E,D*28
$HCHDG,344.5,0.0,E,,*2F
$PGRME,2.4,M,2.7,M,3.7,M*29
$HCHDG,344.3,0.0,E,,*29
$YXXDR,A,4.5,D,PTCH,A,-0.1,D,ROLL*70
$GPRMC,230023.4,A,4741.23993,N,12224.94198,W,003.31,003.5,200413,016.6,E,D*2A
$PGRME,2.4,M,2.7,M,3.7,M*29
$HCHDG,344.4,0.0,E,,*2E
$HCHDG,344.1,0.0,E,,*2B
$GPRMC,230023.6,A,4741.24008,N,12224.94199,W,003.28,000.0,200413,016.6,E,D*2B
$HCHDG,344.1,0.0,E,,*2B
$PGRME,2.4,M,2.8,M,3.7,M*26
$HCHDG,344.0,0.0,E,,*2A
$IIRMC,230000,A,4741.239,N,12224.942,W,03.3,003,200413,16,E,A*19
$IIVHW,,,,,02.7,N,,*1C
$GPRMC,230023.8,A,4741.24022,N,12224.94196,W,003.27,002.3,200413,016.6,E,D*2C
$HCHDG,344.2,0.0,E,,*28
$PGRME,2.4,M,2.8,M,3.7,M*26
$IIVLW,06227,N,017.6,N*52
$YXXDR,A,4.8,D,PTCH,A,-0.2,D,ROLL*7E
$PTAK,FFD1,0.2*57
$IIDPT,068.5,-1.0,*4B
$HCHDG,344.1,0.0,E,,*2B
$IIGLL,4741.239,N,12224.942,W,230000,A,A*45
$GPRMC,230024.0,A,4741.24041,N,12224.94194,W,003.28,359.0,200413,016.6,E,D*25
$GPRMB,A,-0.25,L,,M,4741.7720,N,12224.5760,W,0.6,41,1.69,V*57
$HCHDG,344.1,0.0,E,,*2B
$PTAK,FFP1,HEEL,@*07
$PGRME,2.4,M,2.8,M,3.7,M*26
$IIMTW,+09.0,C*31
$HCHDG,344.2,0.0,E,,*28
$IIRMB,A,,,,M   ,,,,,000.6,041,,V,A*7B
$GPRMC,230024.2,A,4741.24059,N,12224.94191,W,003.25,354.4,200413,016.6,E,D*2F
$HCHDG,344.4,0.0,E,,*2E
$PGRME,2.4,M,2.9,M,3.8,M*28
$HCHDG,344.4,0.0,E,,*2E
$YXXDR,A,5.1,D,PTCH,A,-0.3,D,ROLL*77
$GPRMC,230024.4,A,4741.24079,N,12224.94186,W,003.27,359.8,200413,016.6,E,D*2E
$PGRME,2.4,M,2.9,M,3.8,M*28
$HCHDG,344.3,0.0,E,,*29
$HCHDG,344.6,0.0,E,,*2C
$GPRMC,230024.6,A,4741.24094,N,12224.94189,W,003.29,358.1,200413,016.6,E,D*26
$HCHDG,344.6,0.0,E,,*2C
$PGRME,2.5,M,2.9,M,3.8,M*29
$HCHDG,344.5,0.0,E,,*2F
$IIRMC,230000,A,4741.239,N,12224.941,W,03.3,003,200413,16,E,A*1A
$IIVHW,,,,,02.7,N,,*1C
$GPRMC,230024.8,A,4741.24113,N,12224.94190,W,003.49,359.9,200413,016.6,E,D*21
$PGRME,2.5,M,2.9,M,3.8,M*29
$HCHDG,344.3,0.0,E,,*29
$IIVLW,06227,N,017.6,N*52
$YXXDR,A,4.3,D,PTCH,A,-2.0,D,ROLL*75
$PTAK,FFD1,2.0*57
$IIDPT,068.9,-1.0,*47
$HCHDG,343.9,0.0,E,,*24
$IIGLL,4741.239,N,12224.941,W,230000,A,A*46
$GPRMC,230025.0,A,4741.24126,N,12224.94187,W,003.43,000.3,200413,016.6,E,D*27
$GPRMB,A,-0.25,L,,M,4741.7720,N,12224.5760,W,0.6,41,1.83,V*53
$HCHDG,343.9,0.0,E,,*24
$PGRME,2.5,M,2.8,M,3.7,M*27
$IIMTW,+09.0,C*31
$HCHDG,343.9,0.0,E,,*24
$IIRMB,A,,,,M   ,,,,,000.6,041,,V,A*7B
$GPRMC,230025.2,A,4741.24140,N,12224.94186,W,003.27,358.8,200413,016.6,E,D*23
$HCHDG,343.7,0.0,E,,*2A
$PGRME,2.5,M,2.7,M,3.7,M*28
$HCHDG,343.6,0.0,E,,*2B
$YXXDR,A,4.4,D,PTCH,A,-2.2,D,ROLL*70
$GPRMC,230025.4,A,4741.24153,N,12224.94183,W,003.29,358.5,200413,016.6,E,D*21
$PGRME,2.5,M,2.7,M,3.6,M*29
$HCHDG,343.9,0.0,E,,*24
$HCHDG,344.0,0.0,E,,*2A
$GPRMC,230025.6,A,4741.24170,N,12224.94184,W,003.32,359.2,200413,016.6,E,D*29
$HCHDG,343.9,0.0,E,,*24
$PGRME,2.5,M,2.7,M,3.6,M*29
$HCHDG,343.9,0.0,E,,*24
$IIRMC,230000,A,4741.240,N,12224.941,W,03.2,358,200413,16,E,A*18
$IIVHW,,,,,02.6,N,,*1D
$GPRMC,230025.8,A,4741.24184,N,12224.94180,W,003.32,001.0,200413,016.6,E,D*24
$HCHDG,344.1,0.0,E,,*2B
$PGRME,2.5,M,2.6,M,3.6,M*28
$IIVLW,06227,N,017.6,N*52
$YXXDR,A,4.3,D,PTCH,A,-1.4,D,ROLL*72
$IIDPT,068.9,-1.0,*47
$HCHDG,344.2,0.0,E,,*28
$IIGLL,4741.240,N,12224.941,W,230000,A,A*48
$GPRMC,230026.0,A,4741.24198,N,12224.94178,W,003.35,000.0,200413,016.6,E,D*23
$HCHDG,344.2,0.0,E,,*28
$PGRME,2.5,M,2.6,M,3.6,M*28
$IIMTW,+09.0,C*31
$HCHDG,344.0,0.0,E,,*2A
$IIRMB,A,,,,M   ,,,,,000.6,041,,V,A*7B
$GPRMC,230026.2,A,4741.24214,N,12224.94180,W,003.31,357.8,200413,016.6,E,D*2C
$GPRMB,A,-0.25,L,,M,4741.7720,N,12224.5760,W,0.6,42,1.64,V*59
$HCHDG,344.1,0.0,E,,*2B
$PGRME,2.5,M,2.6,M,3.6,M*28
$HCHDG,343.8,0.0,E,,*25
$YXXDR,A,4.3,D,PTCH,A,-1.7,D,ROLL*71
$PTAK,FFD1,1.7*53
$GPRMC,230026.4,A,4741.24234,N,12224.94180,W,003.32,002.3,200413,016.6,E,D*23
$PGRME,2.5,M,2.7,M,3.6,M*29
$HCHDG,343.8,0.0,E,,*25
$HCHDG,343.5,0.0,E,,*28
$GPRMC,230026.6,A,4741.24256,N,12224.94177,W,003.27,001.9,200413,016.6,E,D*20
$HCHDG,343.4,0.0,E,,*29
$PGRME,2.5,M,2.6,M,3.6,M*28
$HCHDG,343.3,0.0,E,,*2E
$IIRMC,230000,A,4741.240,N,12224.941,W,03.2,358,200413,16,E,A*18
$IIVHW,,,,,02.6,N,,*1D
$GPRMC,230026.8,A,4741.24277,N,12224.94178,W,003.24,000.5,200413,016.6,E,D*2C
$HCHDG,343.3,0.0,E,,*2E
$PGRME,2.5,M,2.5,M,3.5,M*28
$IIVLW,06227,N,017.6,N*52
$YXXDR,A,4.5,D,PTCH,A,-1.5,D,ROLL*75
$IIDPT,068.9,-1.0,*47
$HCHDG,343.2,0.0,E,,*2F
$IIGLL,4741.240,N,12224.941,W,230000,A,A*48
$GPRMC,230027.0,A,4741.24297,N,12224.94178,W,003.20,001.1,200413,016.6,E,D*2A
$PGRME,2.5,M,2.5,M,3.5,M*28
$HCHDG,343.1,0.0,E,,*2C
$IIMTW,+09.0,C*31
$HCHDG,343.2,0.0,E,,*2F
$IIRMB,A,,,,M   ,,,,,000.6,042,,V,A*78
$GPRMC,230027.2,A,4741.24319,N,12224.94179,W,003.20,003.0,200413,016.6,E,D*2D
$PGRME,2.5,M,2.5,M,3.5,M*28
$HCHDG,343.1,0.0,E,,*2C
$HCHDG,342.9,0.0,E,,*25
$YXXDR,A,4.6,D,PTCH,A,-1.0,D,ROLL*73
$GPRMC,230027.4,A,4741.24342,N,12224.94179,W,003.18,002.0,200413,016.6,E,D*2F
$GPRMB,A,-0.25,L,,M,4741.7720,N,12224.5760,W,0.6,42,1.77,V*5B
$PGRME,2.5,M,2.5,M,3.5,M*28
$HCHDG,343.0,0.0,E,,*2D
$HCHDG,342.8,0.0,E,,*24
$GPRMC,230027.6,A,4741.24360,N,12224.94180,W,003.19,000.3,200413,016.6,E,D*2B
$HCHDG,342.9,0.0,E,,*25
$PGRME,2.5,M,2.5,M,3.6,M*2B
$HCHDG,343.1,0.0,E,,*2C
$IIRMC,230000,A,4741.242,N,12224.941,W,03.2,001,200413,16,E,A*15
$IIVHW,,,,,02.6,N,,*1D
$GPRMC,230027.8,A,4741.24379,N,12224.94181,W,003.22,002.2,200413,016.6,E,D*27
$HCHDG,343.0,0.0,E,,*2D
$PGRME,2.5,M,2.6,M,3.6,M*28
$IIVLW,06227,N,017.6,N*52
$YXXDR,A,4.7,D,PTCH,A,0.0,D,ROLL*5E
$PTAK,FFD1,0.0*55
$IIDPT,069.6,-1.0,*49
$HCHDG,343.1,0.0,E,,*2C
$IIGLL,4741.242,N,12224.941,W,230000,A,A*4A
$GPRMC,230028.0,A,4741.24398,N,12224.94182,W,003.22,000.7,200413,016.6,E,D*2B
$HCHDG,342.9,0.0,E,,*25
$PGRME,2.5,M,2.6,M,3.6,M*28
$IIMTW,+09.0,C*31
$HCHDG,342.9,0.0,E,,*25
$IIRMB,A,,,,M   ,,,,,000.6,042,,V,A*78
$GPRMC,230028.2,A,4741.24416,N,12224.94182,W,003.22,358.4,200413,016.6,E,D*25
$HCHDG,343.1,0.0,E,,*2C
$PTAK,FFP1,HEEL,@*07
$PGRME,2.5,M,2.6,M,3.6,M*28
$HCHDG,343.0,0.0,E,,*2D
$YXXDR,A,4.3,D,PTCH,A,0.5,D,ROLL*5F
$GPRMC,230028.4,A,4741.24435,N,12224.94182,W,003.21,357.3,200413,016.6,E,D*29
$PGRME,2.5,M,2.7,M,3.7,M*28
$HCHDG,343.2,0.0,E,,*2F
$HCHDG,343.3,0.0,E,,*2E
$GPRMC,230028.6,A,4741.24455,N,12224.94182,W,003.18,359.4,200413,016.6,E,D*2E
$GPRMB,A,-0.25,L,,M,4741.7720,N,12224.5760,W,0.6,42,1.65,V*58
$PGRME,2.5,M,2.7,M,3.7,M*28
$HCHDG,343.2,0.0,E,,*2F
$HCHDG,343.1,0.0,E,,*2C
$IIRMC,230000,A,4741.243,N,12224.941,W,03.1,000,200413,16,E,A*16
$GPRMC,230028.8,A,4741.24472,N,12224.94190,W,003.16,357.9,200413,016.6,E,D*2B
$IIVHW,,,,,02.6,N,,*1D
$PGRME,2.5,M,2.7,M,3.7,M*28
$HCHDG,343.3,0.0,E,,*2E
$IIVLW,06227,N,017.6,N*52
$YXXDR,A,4.5,D,PTCH,A,0.0,D,ROLL*5C
$PTAK,FFD1,0.0*55
$IIDPT,069.6,-1.0,*49
$HCHDG,343.3,0.0,E,,*2E
$IIGLL,4741.243,N,12224.941,W,230000,A,A*4B
$GPRMC,230029.0,A,4741.24490,N,12224.94190,W,002.97,357.4,200413,016.6,E,D*2B
$HCHDG,343.2,0.0,E,,*2F
$PGRME,2.5,M,2.7,M,3.7,M*28
$IIMTW,+09.0,C*31
$HCHDG,343.3,0.0,E,,*2E
$IIRMB,A,,,,M   ,,,,,000.6,042,,V,A*78
$GPRMC,230029.2,A,4741.24513,N,12224.94194,W,003.12,000.0,200413,016.6,E,D*2E
$HCHDG,343.3,0.0,E,,*2E
$PGRME,2.5,M,2.7,M,3.7,M*28
$HCHDG,343.2,0.0,E,,*2F
$YXXDR,A,4.6,D,PTCH,A,-0.1,D,ROLL*73
$GPRMC,230029.4,A,4741.24529,N,12224.94190,W,002.94,355.9,200413,016.6,E,D*20
$PGRME,2.5,M,2.7,M,3.7,M*28
$HCHDG,343.3,0.0,E,,*2E
$HCHDG,343.2,0.0,E,,*2F
$GPRMC,230029.6,A,4741.24554,N,12224.94193,W,003.11,357.8,200413,016.6,E,D*24
$HCHDG,343.4,0.0,E,,*29
$PGRME,2.5,M,2.7,M,3.7,M*28
$HCHDG,343.2,0.0,E,,*2F
$IIRMC,230000,A,4741.244,N,12224.941,W,03.1,357,200413,16,E,A*10
$IIVHW,,,,,02.5,N,,*1E
$GPRMC,230029.8,A,4741.24575,N,12224.94191,W,003.08,358.1,200413,016.6,E,D*25
$GPRMB,A,-0.25,L,,M,4741.7720,N,12224.5760,W,0.6,42,1.53,V*5D
$HCHDG,343.3,0.0,E,,*2E
$PGRME,2.5,M,2.7,M,3.7,M*28
$IIVLW,06227,N,017.6,N*52
$YXXDR,A,4.3,D,PTCH,A,-0.5,D,ROLL*72
$PTAK,FFD1,0.5*50
$IIDPT,069.6,-1.0,*49
$HCHDG,343.2,0.0,E,,*2F
$IIGLL,4741.244,N,12224.941,W,230000,A,A*4C
$GPRMC,230030.0,A,4741.24592,N,12224.94188,W,003.15,000.0,200413,016.6,E,D*27
$PGRME,2.5,M,2.8,M,3.7,M*27
$HCHDG,342.8,0.0,E,,*24
$IIMTW,+09.0,C*31
$HCHDG,342.6,0.0,E,,*2A
$IIRMB,A,,,,M   ,,,,,000.6,042,,V,A*78
$GPRMC,230030.2,A,4741.24607,N,12224.94182,W,003.08,359.2,200413,016.6,E,D*21
$PGRME,2.5,M,2.8,M,3.8,M*28
$HCHDG,342.6,0.0,E,,*2A
$HCHDG,342.4,0.0,E,,*28
$YXXDR,A,4.3,D,PTCH,A,-1.2,D,ROLL*74
$GPRMC,230030.4,A,4741.24619,N,12224.94174,W,003.11,002.5,200413,016.6,E,D*23
$PGRME,2.5,M,2.8,M,3.8,M*28
$HCHDG,342.4,0.0,E,,*28
$HCHDG,342.3,0.0,E,,*2F
$GPRMC,230030.6,A,4741.24621,N,12224.94164,W,002.86,002.1,200413,016.6,E,D*20
$PGRME,2.5,M,2.8,M,3.8,M*28
$HCHDG,342.4,0.0,E,,*28
$HCHDG,342.5,0.0,E,,*29
$IIRMC,230000,A,4741.245,N,12224.941,W,03.0,358,200413,16,E,A*1F
$IIVHW,,,,,02.5,N,,*1E
$GPRMC,230030.8,A,4741.24630,N,12224.94153,W,003.16,001.8,200413,016.6,E,D*28
$GPRMB,A,-0.25,L,,M,4741.7720,N,12224.5760,W,0.6,42,1.75,V*59
$PGRME,2.5,M,2.9,M,3.8,M*29
$HCHDG,342.7,0.0,E,,*2B
$IIVLW,06227,N,017.6,N*52
$YXXDR,A,4.4,D,PTCH,A,0.3,D,ROLL*5E
$IIDPT,069.6,-1.0,*49
$HCHDG,342.5,0.0,E,,*29
$IIGLL,4741.245,N,12224.941,W,230000,A,A*4D
$GPRMC,230031.0,A,4741.24641,N,12224.94145,W,002.94,001.0,200413,016.6,E,D*23
$PGRME,2.5,M,2.9,M,3.8,M*29
$HCHDG,342.8,0.0,E,,*24
$IIMTW,+09.0,C*31
$HCHDG,342.9,0.0,E,,*25
$IIRMB,A,,,,M   ,,,,,000.6,042,,V,A*78
$GPRMC,230031.2,A,4741.24654,N,12224.94136,W,003.18,002.6,200413,016.6,E,D*21
$PGRME,2.5,M,2.9,M,3.8,M*29
$HCHDG,342.8,0.0,E,,*24
$HCHDG,342.9,0.0,E,,*25
$YXXDR,A,4.7,D,PTCH,A,0.4,D,ROLL*5A
$PTAK,FFD1,0.4*51
$GPRMC,230031.4,A,4741.24666,N,12224.94147,W,003.14,359.6,200413,016.6,E,D*21
$PGRME,2.5,M,2.9,M,3.9,M*28
$HCHDG,342.9,0.0,E,,*25
$HCHDG,342.8,0.0,E,,*24
$GPRMC,230031.6,A,4741.24679,N,12224.94144,W,003.42,002.9,200413,016.6,E,D*2F
$PGRME,2.5,M,3.0,M,3.9,M*20
$HCHDG,343.1,0.0,E,,*2C
$HCHDG,342.8,0.0,E,,*24
$IIRMC,230000,A,4741.246,N,12224.941,W,03.1,001,200413,16,E,A*12
$GPRMC,230031.8,A,4741.24699,N,12224.94149,W,003.23,004.4,200413,016.6,E,D*2E
$IIVHW,,,,,02.5,N,,*1E
$PGRME,2.5,M,3.0,M,3.9,M*20
$HCHDG,342.7,0.0,E,,*2B
$IIVLW,06227,N,017.6,N*52
$YXXDR,A,4.3,D,PTCH,A,0.5,D,ROLL*5F
$IIDPT,069.6,-1.0,*49
$HCHDG,342.5,0.0,E,,*29
$IIGLL,4741.246,N,12224.941,W,230000,A,A*4E
$GPRMC,230032.0,A,4741.24719,N,12224.94156,W,003.23,003.4,200413,016.6,E,D*25
$GPRMB,A,-0.25,L,,M,4741.7720,N,12224.5760,W,0.6,42,1.86,V*55
$HCHDG,342.5,0.0,E,,*29
$PGRME,2.5,M,3.0,M,3.9,M*20
$IIMTW,+09.0,C*31
$HCHDG,342.6,0.0,E,,*2A
$IIRMB,A,,,,M   ,,,,,000.6,042,,V,A*78
$GPRMC,230032.2,A,4741.24738,N,12224.94159,W,003.21,001.4,200413,016.6,E,D*2B
$PTAK,FFP1,HEEL,@*07
$HCHDG,342.2,0.0,E,,*2E
$PGRME,2.5,M,3.1,M,4.0,M*2F
$HCHDG,342.5,0.0,E,,*29
$YXXDR,A,4.5,D,PTCH,A,0.4,D,ROLL*58
$GPRMC,230032.4,A,4741.24758,N,12224.94160,W,003.27,002.0,200413,016.6,E,D*20
$PGRME,2.5,M,3.1,M,4.0,M*2F
$HCHDG,342.5,0.0,E,,*29
$HCHDG,342.5,0.0,E,,*29
$GPRMC,230032.6,A,4741.24773,N,12224.94164,W,002.95,000.1,200413,016.6,E,D*24
$HCHDG,342.7,0.0,E,,*2B
$PGRME,2.5,M,3.1,M,4.0,M*2F
$HCHDG,342.6,0.0,E,,*2A
$IIRMC,230000,A,4741.247,N,12224.941,W,03.2,003,200413,16,E,A*12
$IIVHW,,,,,02.5,N,,*1E
$GPRMC,230032.8,A,4741.24796,N,12224.94169,W,002.94,357.9,200413,016.6,E,D*24
$HCHDG,342.5,0.0,E,,*29
$PGRME,2.5,M,3.2,M,4.1,M*2D
$IIVLW,06227,N,017.6,N*52
$YXXDR,A,4.5,D,PTCH,A,0.0,D,ROLL*5C
$PTAK,FFD1,0.0*55
$IIDPT,069.6,-1.0,*49
$HCHDG,342.2,0.0,E,,*2E
$IIGLL,4741.247,N,12224.941,W,230000,A,A*4F
$GPRMC,230033.0,A,4741.24818,N,12224.94171,W,002.96,000.3,200413,016.6,E,D*24
$HCHDG,342.1,0.0,E,,*2D
$PGRME,2.5,M,3.1,M,4.0,M*2F
$IIMTW,+09.0,C*31
$HCHDG,342.2,0.0,E,,*2E
$IIRMB,A,,,,M   ,,,,,000.6,042,,V,A*78
$GPRMC,230033.2,A,4741.24841,N,12224.94168,W,003.00,001.2,200413,016.6,E,D*2C
$GPRMB,A,-0.25,L,,M,4741.7720,N,12224.5760,W,0.6,42,1.63,V*5E
$HCHDG,342.2,0.0,E,,*2E
$PGRME,2.5,M,3.1,M,4.0,M*2F
$HCHDG,342.3,0.0,E,,*2F
$YXXDR,A,4.8,D,PTCH,A,0.1,D,ROLL*50
$GPRMC,230033.4,A,4741.24866,N,12224.94170,W,002.98,003.7,200413,016.6,E,D*21
$PGRME,2.5,M,3.1,M,4.0,M*2F
$HCHDG,342.2,0.0,E,,*2E
$HCHDG,342.3,0.0,E,,*2F
$GPRMC,230033.6,A,4741.24882,N,12224.94170,W,002.96,357.1,200413,016.6,E,D*23
$HCHDG,342.3,0.0,E,,*2F
$PGRME,2.5,M,3.2,M,4.1,M*2D
$HCHDG,342.3,0.0,E,,*2F
$IIRMC,230000,A,4741.248,N,12224.941,W,02.9,000,200413,16,E,A*14
$GPRMC,230033.8,A,4741.24898,N,12224.94166,W,002.96,356.8,200413,016.6,E,D*29
$IIVHW,,,,,02.5,N,,*1E
$PGRME,2.5,M,3.2,M,4.1,M*2D
$HCHDG,342.4,0.0,E,,*28
$IIVLW,06227,N,017.6,N*52
$YXXDR,A,4.6,D,PTCH,A,-0.7,D,ROLL*75
$IIDPT,069.6,-1.0,*49
$HCHDG,342.4,0.0,E,,*28
$IIGLL,4741.248,N,12224.941,W,230000,A,A*40
$GPRMC,230034.0,A,4741.24914,N,12224.94170,W,002.76,354.7,200413,016.6,E,D*27
$HCHDG,342.5,0.0,E,,*29
$PGRME,2.5,M,3.3,M,4.1,M*2C
$IIMTW,+09.0,C*31
$HCHDG,342.4,0.0,E,,*28
$IIRMB,A,,,,M   ,,,,,000.6,042,,V,A*78
$GPRMC,230034.2,A,4741.24927,N,12224.94171,W,002.69,352.3,200413,016.6,E,D*28
$PGRME,2.5,M,3.3,M,4.2,M*2F
$HCHDG,342.2,0.0,E,,*2E
$HCHDG,342.2,0.0,E,,*2E
$YXXDR,A,4.2,D,PTCH,A,-2.0,D,ROLL*74
$PTAK,FFD1,2.0*57
$GPRMC,230034.4,A,4741.24943,N,12224.94174,W,002.71,355.7,200413,016.6,E,D*23
$GPRMB,A,-0.25,L,,M,4741.7720,N,12224.5760,W,0.6,42,1.24,V*5D
$PGRME,2.6,M,3.2,M,4.1,M*2E
$HCHDG,342.2,0.0,E,,*2E
$HCHDG,342.4,0.0,E,,*28
$GPRMC,230034.6,A,4741.24958,N,12224.94176,W,002.69,354.9,200413,016.6,E,D*2F
$HCHDG,342.2,0.0,E,,*2E
$PGRME,2.6,M,3.1,M,4.1,M*2D
$HCHDG,342.3,0.0,E,,*2F
$IIRMC,230000,A,4741.249,N,12224.941,W,02.7,354,200413,16,E,A*19
$IIVHW,,,,,02.4,N,,*1F
$GPRMC,230034.8,A,4741.24978,N,12224.94178,W,003.06,353.7,200413,016.6,E,D*2C
$HCHDG,342.4,0.0,E,,*28
$PGRME,2.6,M,3.2,M,4.1,M*2E
$IIVLW,06227,N,017.6,N*52
$YXXDR,A,4.7,D,PTCH,A,-2.8,D,ROLL*79
$IIDPT,070.3,-1.0,*44
$HCHDG,342.7,0.0,E,,*2B
$IIGLL,4741.249,N,12224.941,W,230000,A,A*41
$GPRMC,230035.0,A,4741.24995,N,12224.94178,W,002.75,358.1,200413,016.6,E,D*2E
$HCHDG,342.7,0.0,E,,*2B
$PGRME,2.6,M,3.2,M,4.1,M*2E
$IIMTW,+09.0,C*31
$HCHDG,342.8,0.0,E,,*24
$IIRMB,A,,,,M   ,,,,,000.6,042,,V,A*78
$GPRMC,230035.2,A,4741.25014,N,12224.94181,W,002.95,359.6,200413,016.6,E,D*23
$HCHDG,342.9,0.0,E,,*25
$PGRME,2.6,M,3.1,M,4.0,M*2C
$HCHDG,342.8,0.0,E,,*24
$YXXDR,A,4.3,D,PTCH,A,-3.4,D,ROLL*70
$PTAK,FFD1,3.4*52
$GPRMC,230035.4,A,4741.25030,N,12224.94181,W,002.94,000.5,200413,016.6,E,D*2E
$PGRME,2.6,M,3.2,M,4.1,M*2E
$HCHDG,342.7,0.0,E,,*2B
$HCHDG,342.9,0.0,E,,*25
$GPRMC,230035.6,A,4741.25046,N,12224.94182,W,002.93,001.2,200413,016.6,E,D*2F
$GPRMB,A,-0.25,L,,M,4741.7720,N,12224.5760,W,0.6,42,1.58,V*56
$PGRME,2.6,M,3.2,M,4.1,M*2E
$HCHDG,342.6,0.0,E,,*2A
$HCHDG,342.6,0.0,E,,*2A
$IIRMC,230000,A,4741.249,N,12224.941,W,02.7,354,200413,16,E,A*19
$IIVHW,,,,,02.4,N,,*1F
$GPRMC,230035.8,A,4741.25060,N,12224.94186,W,002.86,000.2,200413,016.6,E,D*24
$HCHDG,342.4,0.0,E,,*28
$PGRME,2.6,M,3.1,M,4.0,M*2C
$IIVLW,06227,N,017.6,N*52
$YXXDR,A,4.2,D,PTCH,A,-5.1,D,ROLL*72
$IIDPT,070.3,-1.0,*44
$HCHDG,342.3,0.0,E,,*2F
$IIGLL,4741.249,N,12224.941,W,230000,A,A*41
$GPRMC,230036.0,A,4741.25078,N,12224.94192,W,002.87,001.8,200413,016.6,E,D*29
$HCHDG,342.2,0.0,E,,*2E
$PGRME,2.6,M,3.1,M,4.0,M*2C
$IIMTW,+09.0,C*31
$HCHDG,342.2,0.0,E,,*2E
$IIRMB,A,,,,M   ,,,,,000.6,042,,V,A*78
$GPRMC,230036.2,A,4741.25097,N,12224.94194,W,002.84,000.4,200413,016.6,E,D*22
$HCHDG,341.9,0.0,E,,*26
$PTAK,FFP1,HEEL,@*07
$PGRME,2.6,M,3.1,M,4.0,M*2C
$HCHDG,341.7,0.0,E,,*28
$YXXDR,A,4.6,D,PTCH,A,-6.0,D,ROLL*74
$PTAK,FFD1,6.0*53
$GPRMC,230036.4,A,4741.25112,N,12224.94190,W,002.83,000.7,200413,016.6,E,D*28
$PGRME,2.6,M,3.1,M,4.1,M*2D
$HCHDG,341.6,0.0,E,,*29
$HCHDG,341.6,0.0,E,,*29
$GPRMC,230036.6,A,4741.25138,N,12224.94196,W,003.00,003.8,200413,016.6,E,D*22
$GPRMB,A,-0.25,L,,M,4741.7720,N,12224.5760,W,0.6,42,1.73,V*5F
$PGRME,2.6,M,3.1,M,4.1,M*2D
$HCHDG,341.5,0.0,E,,*2A
$HCHDG,341.8,0.0,E,,*27
$IIRMC,230000,A,4741.250,N,12224.941,W,02.8,000,200413,16,E,A*1C
$IIVHW,,,,,02.3,N,,*18
$GPRMC,230036.8,A,4741.25164,N,12224.94196,W,002.96,002.1,200413,016.6,E,D*23
$HCHDG,341.8,0.0,E,,*27
$PGRME,2.6,M,3.2,M,4.1,M*2E
$IIVLW,06227,N,017.6,N*52
$YXXDR,A,4.4,D,PTCH,A,-5.4,D,ROLL*71
$IIDPT,070.3,-1.0,*44
$HCHDG,342.0,0.0,E,,*2C
$IIGLL,4741.250,N,12224.941,W,230000,A,A*49
$GPRMC,230037.0,A,4741.25187,N,12224.94201,W,002.92,355.8,200413,016.6,E,D*26
$PGRME,2.6,M,3.2,M,4.1,M*2E
$HCHDG,342.1,0.0,E,,*2D
$IIMTW,+09.0,C*31
$HCHDG,342.2,0.0,E,,*2E
$IIRMB,A,,,,M   ,,,,,000.6,042,,V,A*78
$GPRMC,230037.2,A,4741.25207,N,12224.94200,W,002.94,359.4,200413,016.6,E,D*28
$HCHDG,342.3,0.0,E,,*2F
$PGRME,2.6,M,3.2,M,4.1,M*2E
$HCHDG,342.7,0.0,E,,*2B
$YXXDR,A,4.5,D,PTCH,A,-5.6,D,ROLL*72
$PTAK,FFD1,5.6*56
$GPRMC,230037.4,A,4741.25227,N,12224.94205,W,002.92,358.1,200413,016.6,E,D*2B
$PGRME,2.6,M,3.2,M,4.1,M*2E
$HCHDG,342.7,0.0,E,,*2B
$HCHDG,342.7,0.0,E,,*2B
$GPRMC,230037.6,A,4741.25244,N,12224.94207,W,002.91,000.8,200413,016.6,E,D*2A
$GPRMB,A,-0.25,L,,M,4741.7720,N,12224.5760,W,0.6,42,1.55,V*5B
$PGRME,2.6,M,3.2,M,4.2,M*2D
$HCHDG,342.8,0.0,E,,*24
$HCHDG,342.4,0.0,E,,*28
$IIRMC,230000,A,4741.252,N,12224.942,W,02.9,359,200413,16,E,A*13
$IIVHW,,,,,02.2,N,,*19
$GPRMC,230037.8,A,4741.25257,N,12224.94212,W,002.90,357.2,200413,016.6,E,D*28
$HCHDG,342.3,0.0,E,,*2F
$PGRME,2.6,M,3.2,M,4.2,M*2D
$IIVLW,06227,N,017.6,N*52
$YXXDR,A,4.1,D,PTCH,A,-6.7,D,ROLL*74
$IIDPT,070.3,-1.0,*44
$HCHDG,342.3,0.0,E,,*2F
$IIGLL,4741.252,N,12224.942,W,230000,A,A*48
$GPRMC,230038.0,A,4741.25278,N,12224.94221,W,002.87,356.6,200413,016.6,E,D*21
$HCHDG,342.1,0.0,E,,*2D
$PGRME,2.6,M,3.3,M,4.2,M*2C
$IIMTW,+09.0,C*31
$HCHDG,342.0,0.0,E,,*2C
$IIRMB,A,,,,M   ,,,,,000.6,042,,V,A*78
$GPRMC,230038.2,A,4741.25296,N,12224.94222,W,002.87,003.0,200413,016.6,E,D*25
$HCHDG,341.7,0.0,E,,*28
$PGRME,2.6,M,3.3,M,4.2,M*2C
$HCHDG,341.7,0.0,E,,*28
$YXXDR,A,3.7,D,PTCH,A,-7.6,D,ROLL*75
$GPRMC,230038.4,A,4741.25309,N,12224.94220,W,002.84,359.3,200413,016.6,E,D*2A
$PGRME,2.6,M,3.3,M,4.2,M*2C
$HCHDG,341.4,0.0,E,,*2B
$HCHDG,341.5,0.0,E,,*2A
$GPRMC,230038.6,A,4741.25324,N,12224.94229,W,002.82,000.4,200413,016.6,E,D*20
$GPRMB,A,-0.25,L,,M,4741.7720,N,12224.5760,W,0.6,42,1.49,V*56
$PGRME,2.6,M,3.3,M,4.2,M*2C
$HCHDG,341.5,0.0,E,,*2A
$HCHDG,341.6,0.0,E,,*29
$IIRMC,230000,A,4741.252,N,12224.942,W,02.8,003,200413,16,E,A*1E
$IIVHW,,,,,02.1,N,,*1A
$GPRMC,230038.8,A,4741.25340,N,12224.94237,W,002.82,358.7,200413,016.6,E,D*2E
$HCHDG,341.4,0.0,E,,*2B
$PGRME,2.6,M,3.3,M,4.2,M*2C
$IIVLW,06227,N,017.6,N*52
$YXXDR,A,4.1,D,PTCH,A,-6.7,D,ROLL*74
$PTAK,FFD1,6.7*54
$IIDPT,070.3,-1.0,*44
$HCHDG,341.3,0.0,E,,*2C
$IIGLL,4741.252,N,12224.942,W,230000,A,A*48
$GPRMC,230039.0,A,4741.25356,N,12224.94246,W,003.12,006.4,200413,016.6,E,D*25
$PGRME,2.6,M,3.3,M,4.2,M*2C
$HCHDG,341.1,0.0,E,,*2E
$IIMTW,+09.0,C*31
$HCHDG,341.1,0.0,E,,*2E
$IIRMB,A,,,,M   ,,,,,000.6,042,,V,A*78
$GPRMC,230039.2,A,4741.25376,N,12224.94245,W,002.77,003.2,200413,016.6,E,D*27
$HCHDG,341.1,0.0,E,,*2E
$PGRME,2.6,M,3.3,M,4.2,M*2C
$HCHDG,340.9,0.0,E,,*27
$YXXDR,A,4.0,D,PTCH,A,-6.9,D,ROLL*7B
$GPRMC,230039.4,A,4741.25393,N,12224.94241,W,003.04,359.8,200413,016.6,E,D*2D
$PGRME,2.6,M,3.3,M,4.2,M*2C
$HCHDG,341.0,0.0,E,,*2F
$HCHDG,341.2,0.0,E,,*2D
$GPRMC,230039.6,A,4741.25409,N,12224.94234,W,003.00,003.7,200413,016.6,E,D*2E
$GPRMB,A,-0.25,L,,M,4741.7720,N,12224.5760,W,0.6,42,1.72,V*5E
$HCHDG,341.2,0.0,E,,*2D
$PGRME,2.6,M,3.3,M,4.2,M*2C
$HCHDG,341.3,0.0,E,,*2C
$IIRMC,230000,A,4741.253,N,12224.942,W,02.7,003,200413,16,E,A*10
$IIVHW,,,,,02.1,N,,*1A
$GPRMC,230039.8,A,4741.25420,N,12224.94228,W,002.72,357.8,200413,016.6,E,D*2F
$HCHDG,341.4,0.0,E,,*2B
$PGRME,2.6,M,3.3,M,4.2,M*2C
$IIVLW,06227,N,017.6,N*52
$YXXDR,A,4.0,D,PTCH,A,-6.1,D,ROLL*73
$PTAK,FFD1,6.1*52
$IIDPT,070.3,-1.0,*44
$HCHDG,341.3,0.0,E,,*2C
$IIGLL,4741.253,N,12224.942,W,230000,A,A*49
$GPRMC,230040.0,A,4741.25434,N,12224.94215,W,003.21,003.0,200413,016.6,E,D*2F
$HCHDG,341.5,0.0,E,,*2A
$PGRME,2.6,M,3.2,M,4.1,M*2E
$IIMTW,+09.0,C*31
$HCHDG,341.5,0.0,E,,*2A
$IIRMB,A,,,,M   ,,,,,000.6,042,,V,A*78
$GPRMC,230040.2,A,4741.25451,N,12224.94212,W,003.19,002.7,200413,016.6,E,D*24
$PGRME,2.6,M,3.0,M,4.0,M*2D
$HCHDG,341.1,0.0,E,,*2E
$PTAK,FFP1,HEEL,@*07
$HCHDG,341.0,0.0,E,,*2F
$YXXDR,A,3.8,D,PTCH,A,-6.9,D,ROLL*74
$GPRMC,230040.4,A,4741.25459,N,12224.94205,W,003.14,002.3,200413,016.6,E,D*25
$PGRME,2.6,M,3.1,M,4.0,M*2C
$HCHDG,340.9,0.0,E,,*27
$HCHDG,340.5,0.0,E,,*2B
$GPRMC,230040.6,A,4741.25477,N,12224.94205,W,003.31,002.5,200413,016.6,E,D*2A
$HCHDG,340.4,0.0,E,,*2A
$PGRME,2.6,M,3.0,M,4.0,M*2D
$HCHDG,340.3,0.0,E,,*2D
$IIRMC,230000,A,4741.254,N,12224.942,W,03.1,002,200413,16,E,A*11
$IIVHW,,,,,02.1,N,,*1A
$GPRMC,230040.8,A,4741.25491,N,12224.94201,W,003.01,359.7,200413,016.6,E,D*24
$GPRMB,A,-0.25,L,,M,4741.7720,N,12224.5760,W,0.6,42,1.55,V*5B
$PGRME,2.6,M,3.0,M,4.0,M*2D
$HCHDG,340.5,0.0,E,,*2B
$IIVLW,06227,N,017.6,N*52
$YXXDR,A,4.2,D,PTCH,A,-6.3,D,ROLL*73
$PTAK,FFD1,6.3*50
$IIDPT,070.3,-1.0,*44
$HCHDG,340.4,0.0,E,,*2A
$IIGLL,4741.254,N,12224.942,W,230000,A,A*4E
$GPRMC,230041.0,A,4741.25506,N,12224.94199,W,003.04,359.9,200413,016.6,E,D*2B
$HCHDG,340.2,0.0,E,,*2C
$PGRME,2.6,M,2.9,M,3.9,M*2B
$IIMTW,+09.0,C*31
$HCHDG,340.0,0.0,E,,*2E
$IIRMB,A,,,,M   ,,,,,000.6,042,,V,A*78
$GPRMC,230041.2,A,4741.25520,N,12224.94204,W,002.99,001.8,200413,016.6,E,D*20
$HCHDG,340.1,0.0,E,,*2F
$PGRME,2.6,M,2.8,M,3.9,M*2A
$HCHDG,340.1,0.0,E,,*2F
$YXXDR,A,4.1,D,PTCH,A,-5.4,D,ROLL*74
$GPRMC,230041.4,A,4741.25537,N,12224.94208,W,002.98,002.2,200413,016.6,E,D*24
$PGRME,2.6,M,2.7,M,3.8,M*24
$HCHDG,340.1,0.0,E,,*2F
$HCHDG,340.2,0.0,E,,*2C
$GPRMC,230041.6,A,4741.25551,N,12224.94201,W,002.95,000.7,200413,016.6,E,D*25
$HCHDG,340.2,0.0,E,,*2C
$PGRME,2.6,M,2.7,M,3.8,M*24
$HCHDG,340.0,0.0,E,,*2E
$IIRMC,230000,A,4741.255,N,12224.942,W,02.9,001,200413,16,E,A*1A
$IIVHW,,,,,02.0,N,,*1B
$GPRMC,230041.8,A,4741.25570,N,12224.94201,W,002.63,000.0,200413,016.6,E,D*26
$PGRME,2.6,M,2.7,M,3.8,M*24
$HCHDG,340.1,0.0,E,,*2F
$IIVLW,06227,N,017.6,N*52
$YXXDR,A,4.2,D,PTCH,A,-4.8,D,ROLL*7A
$IIDPT,070.3,-1.0,*44
$HCHDG,339.9,0.0,E,,*29
$IIGLL,4741.255,N,12224.942,W,230000,A,A*4F
$GPRMC,230042.0,A,4741.25579,N,12224.94200,W,002.87,002.2,200413,016.6,E,D*2F
$GPRMB,A,-0.25,L,,M,4741.7720,N,12224.5760,W,0.6,42,1.58,V*56
$PGRME,2.7,M,2.7,M,3.8,M*25
$HCHDG,340.0,0.0,E,,*2E
$IIMTW,+09.0,C*31
$HCHDG,339.7,0.0,E,,*27
$IIRMB,A,,,,M   ,,,,,000.6,042,,V,A*78
$GPRMC,230042.2,A,4741.25595,N,12224.94208,W,002.64,354.7,200413,016.6,E,D*2F
$PGRME,2.7,M,2.7,M,3.8,M*25
$HCHDG,339.7,0.0,E,,*27
$HCHDG,339.8,0.0,E,,*28
$YXXDR,A,4.6,D,PTCH,A,-4.1,D,ROLL*77
$PTAK,FFD1,4.1*50
$GPRMC,230042.4,A,4741.25617,N,12224.94183,W,003.12,354.4,200413,016.6,E,D*23
$PGRME,2.7,M,2.8,M,3.8,M*2A
$HCHDG,339.9,0.0,E,,*29
$HCHDG,339.6,0.0,E,,*26
$GPRMC,230042.6,A,4741.25622,N,12224.94203,W,003.07,002.0,200413,016.6,E,D*2C
$HCHDG,339.5,0.0,E,,*25
$PGRME,2.7,M,2.8,M,3.8,M*2A
$HCHDG,339.5,0.0,E,,*25
$IIRMC,230000,A,4741.255,N,12224.942,W,02.6,354,200413,16,E,A*16
$IIVHW,,,,,02.0,N,,*1B
$GPRMC,230042.8,A,4741.25639,N,12224.94203,W,003.07,000.8,200413,016.6,E,D*22
$PGRME,2.7,M,2.7,M,3.8,M*25
$HCHDG,339.3,0.0,E,,*23
$IIVLW,06227,N,017.6,N*52
$YXXDR,A,4.2,D,PTCH,A,-5.1,D,ROLL*72
$IIDPT,070.3,-1.0,*44
$HCHDG,339.1,0.0,E,,*21
$IIGLL,4741.255,N,12224.942,W,230000,A,A*4F
$GPRMC,230043.0,A,4741.25655,N,12224.94198,W,002.78,000.2,200413,016.6,E,D*23
$HCHDG,338.8,0.0,E,,*29
$PGRME,2.7,M,2.6,M,3.7,M*2B
$IIMTW,+09.0,C*31
$HCHDG,338.9,0.0,E,,*28
$IIRMB,A,,,,M   ,,,,,000.6,042,,V,A*78
$GPRMC,230043.2,A,4741.25667,N,12224.94190,W,002.73,357.3,200413,016.6,E,D*23
$GPRMB,A,-0.25,L,,M,4741.7720,N,12224.5760,W,0.6,42,1.31,V*59
$PGRME,2.7,M,2.5,M,3.7,M*28
$HCHDG,338.9,0.0,E,,*28
$HCHDG,338.7,0.0,E,,*26
$YXXDR,A,3.9,D,PTCH,A,-4.1,D,ROLL*7F
$PTAK,FFD1,4.1*50
$GPRMC,230043.4,A,4741.25683,N,12224.94182,W,002.70,357.4,200413,016.6,E,D*28
$PGRME,2.7,M,2.5,M,3.6,M*29
$HCHDG,338.7,0.0,E,,*26
$HCHDG,338.7,0.0,E,,*26
$GPRMC,230043.6,A,4741.25702,N,12224.94178,W,002.71,359.6,200413,016.6,E,D*2A
$HCHDG,338.6,0.0,E,,*27
$PGRME,2.7,M,2.4,M,3.6,M*28
$HCHDG,338.6,0.0,E,,*27
$IIRMC,230000,A,4741.256,N,12224.941,W,02.7,357,200413,16,E,A*14
$IIVHW,,,,,02.0,N,,*1B
$GPRMC,230043.8,A,4741.25718,N,12224.94180,W,002.71,003.1,200413,016.6,E,D*23
$PGRME,2.7,M,2.4,M,3.6,M*28
$HCHDG,338.7,0.0,E,,*26
$IIVLW,06227,N,017.6,N*52
$YXXDR,A,4.0,D,PTCH,A,-3.1,D,ROLL*76
$HCHDG,338.7,0.0,E,,*26
$IIGLL,4741.256,N,12224.941,W,230000,A,A*4F
$IIMTW,+09.0,C*31
$GPRMC,230044.0,A,4741.25736,N,12224.94183,W,002.93,356.2,200413,016.6,E,D*2F
$HCHDG,338.3,0.0,E,,*22
$PGRME,2.7,M,2.4,M,3.6,M*28
$PGRMT,GPS 18x-5Hz software ver. 3.20,,,,,,,,*30
$IIRMB,A,,,,M   ,,,,,000.6,042,,V,A*78
$HCHDG,338.5,0.0,E,,*24
$GPRMC,230044.2,A,4741.25753,N,12224.94186,W,002.96,357.4,200413,016.6,E,D*29
$HCHDG,338.6,0.0,E,,*27
$PGRME,2.7,M,2.4,M,3.6,M*28
$HCHDG,338.8,0.0,E,,*29
$YXXDR,A,4.6,D,PTCH,A,-2.3,D,ROLL*73
$PTAK,FFP1,HEEL,@*07
$GPRMC,230044.4,A,4741.25771,N,12224.94164,W,002.93,003.3,200413,016.6,E,D*23
$GPRMB,A,-0.25,L,,M,4741.7720,N,12224.5760,W,0.6,42,1.66,V*5B
$PGRME,2.7,M,2.4,M,3.6,M*28
$HCHDG,339.1,0.0,E,,*21
$HCHDG,339.1,0.0,E,,*21
$GPRMC,230044.6,A,4741.25786,N,12224.94163,W,002.71,001.3,200413,016.6,E,D*20
$HCHDG,339.1,0.0,E,,*21
$PGRME,2.7,M,2.4,M,3.6,M*28
$HCHDG,339.2,0.0,E,,*22
$IIRMC,230000,A,4741.257,N,12224.941,W,02.9,357,200413,16,E,A*1B
$IIVHW,,,,,02.0,N,,*1B
$GPRMC,230044.8,A,4741.25801,N,12224.94164,W,002.76,358.5,200413,016.6,E,D*27
$PGRME,2.7,M,2.4,M,3.6,M*28
$HCHDG,339.3,0.0,E,,*23
$IIVLW,06227,N,017.6,N*52
$YXXDR,A,4.1,D,PTCH,A,-1.7,D,ROLL*73
$PTAK,FFD1,1.7*53
$HCHDG,339.2,0.0,E,,*22
$IIGLL,4741.257,N,12224.941,W,230000,A,A*4E
$IIMTW,+09.0,C*31
$GPRMC,230045.0,A,4741.25815,N,12224.94165,W,002.76,000.2,200413,016.6,E,D*23
$HCHDG,338.9,0.0,E,,*28
$PGRME,2.7,M,2.4,M,3.6,M*28
$IIRMB,A,,,,M   ,,,,,000.6,042,,V,A*78
$HCHDG,338.9,0.0,E,,*28
$GPRMC,230045.2,A,4741.25829,N,12224.94166,W,002.80,000.6,200413,016.6,E,D*20
$PGRME,2.7,M,2.4,M,3.6,M*28
$HCHDG,338.6,0.0,E,,*27
$HCHDG,338.3,0.0,E,,*22
$YXXDR,A,4.3,D,PTCH,A,-2.3,D,ROLL*76
$GPRMC,230045.4,A,4741.25845,N,12224.94165,W,003.04,004.3,200413,016.6,E,D*23
$GPRMB,A,-0.25,L,,M,4741.7720,N,12224.5760,W,0.6,42,1.77,V*5B
$PGRME,2.7,M,2.4,M,3.6,M*28
$HCHDG,338.1,0.0,E,,*20
$HCHDG,337.7,0.0,E,,*29
$GPRMC,230045.6,A,4741.25859,N,12224.94163,W,002.83,002.6,200413,016.6,E,D*27
$PGRME,2.7,M,2.4,M,3.6,M*28
$HCHDG,337.5,0.0,E,,*2B
$HCHDG,337.1,0.0,E,,*2F
$IIRMC,230000,A,4741.257,N,12224.941,W,02.9,357,200413,16,E,A*1B
$IIVHW,,,,,02.0,N,,*1B
$GPRMC,230045.8,A,4741.25871,N,12224.94163,W,002.54,359.5,200413,016.6,E,D*27
$PGRME,2.7,M,2.4,M,3.6,M*28
$HCHDG,337.0,0.0,E,,*2E
$IIVLW,06227,N,017.6,N*52
$YXXDR,A,4.2,D,PTCH,A,-2.6,D,ROLL*72
$PTAK,FFD1,2.6*51
$HCHDG,337.1,0.0,E,,*2F
$IIGLL,4741.257,N,12224.941,W,230000,A,A*4E
$IIMTW,+09.0,C*31
$GPRMC,230046.0,A,4741.25884,N,12224.94162,W,002.76,356.5,200413,016.6,E,D*28
$HCHDG,337.1,0.0,E,,*2F
$PGRME,2.7,M,2.4,M,3.6,M*28
$IIRMB,A,,,,M   ,,,,,000.6,042,,V,A*78
$HCHDG,337.5,0.0,E,,*2B
$GPRMC,230046.2,A,4741.25900,N,12224.94162,W,002.80,356.8,200413,016.6,E,D*23
$HCHDG,337.5,0.0,E,,*2B
$PGRME,2.7,M,2.4,M,3.6,M*28
$HCHDG,337.7,0.0,E,,*29
$YXXDR,A,4.3,D,PTCH,A,-1.5,D,ROLL*73
$GPRMC,230046.4,A,4741.25915,N,12224.94162,W,002.76,358.1,200413,016.6,E,D*2F
$GPRMB,A,-0.25,L,,M,4741.7720,N,12224.5760,W,0.6,42,1.35,V*5D
$PGRME,2.7,M,2.4,M,3.6,M*28
$HCHDG,337.5,0.0,E,,*2B
$HCHDG,337.9,0.0,E,,*27
$GPRMC,230046.6,A,4741.25933,N,12224.94157,W,002.72,354.0,200413,016.6,E,D*26
$HCHDG,338.1,0.0,E,,*20
$PGRME,2.7,M,2.4,M,3.6,M*28
$HCHDG,338.2,0.0,E,,*23
$IIRMC,230000,A,4741.258,N,12224.941,W,03.0,004,200413,16,E,A*19
$IIVHW,,,,,01.9,N,,*11
$GPRMC,230046.8,A,4741.25949,N,12224.94157,W,002.68,355.4,200413,016.6,E,D*2B
$PGRME,2.7,M,2.4,M,3.6,M*28
$HCHDG,338.3,0.0,E,,*22
$IIVLW,06227,N,017.6,N*52
$YXXDR,A,4.5,D,PTCH,A,-1.2,D,ROLL*72
$HCHDG,338.6,0.0,E,,*27
$IIGLL,4741.258,N,12224.941,W,230000,A,A*41
$IIMTW,+09.0,C*31
$GPRMC,230047.0,A,4741.25966,N,12224.94164,W,002.92,359.5,200413,016.6,E,D*27
$PGRME,2.7,M,2.4,M,3.6,M*28
$HCHDG,338.6,0.0,E,,*27
$IIRMB,A,,,,M   ,,,,,000.6,042,,V,A*78
$HCHDG,338.6,0.0,E,,*27
$GPRMC,230047.2,A,4741.25984,N,12224.94176,W,002.85,356.7,200413,016.6,E,D*21
$PGRME,2.7,M,2.4,M,3.6,M*28
$HCHDG,338.5,0.0,E,,*24
$HCHDG,338.7,0.0,E,,*26
$YXXDR,A,4.3,D,PTCH,A,-2.0,D,ROLL*75
$PTAK,FFD1,2.0*57
$GPRMC,230047.4,A,4741.26001,N,12224.94178,W,002.62,357.5,200413,016.6,E,D*24
$GPRMB,A,-0.25,L,,M,4741.7720,N,12224.5760,W,0.6,42,1.25,V*5C
$PGRME,2.7,M,2.4,M,3.6,M*28
$HCHDG,338.5,0.0,E,,*24
$HCHDG,338.5,0.0,E,,*24
$GPRMC,230047.6,A,4741.26017,N,12224.94177,W,002.66,358.0,200413,016.6,E,D*20
$HCHDG,338.6,0.0,E,,*27
$PGRME,2.7,M,2.4,M,3.6,M*28
$HCHDG,338.4,0.0,E,,*25
$IIRMC,230000,A,4741.259,N,12224.941,W,02.7,358,200413,16,E,A*14
$IIVHW,,,,,01.8,N,,*10
$GPRMC,230047.8,A,4741.26025,N,12224.94160,W,002.64,004.9,200413,016.6,E,D*28
$PGRME,2.7,M,2.4,M,3.6,M*28
$HCHDG,338.5,0.0,E,,*24
$IIVLW,06227,N,017.6,N*52
$YXXDR,A,4.2,D,PTCH,A,-2.8,D,ROLL*7C
$HCHDG,338.3,0.0,E,,*22
$IIGLL,4741.259,N,12224.941,W,230000,A,A*40
$IIMTW,+09.0,C*31
$GPRMC,230048.0,A,4741.26041,N,12224.94159,W,002.68,356.1,200413,016.6,E,D*27
$PGRME,2.7,M,2.4,M,3.6,M*28
$HCHDG,338.5,0.0,E,,*24
$IIRMB,A,,,,M   ,,,,,000.6,042,,V,A*78
$HCHDG,338.3,0.0,E,,*22
$GPRMC,230048.2,A,4741.26057,N,12224.94164,W,002.66,353.4,200413,016.6,E,D*22
$PGRME,2.7,M,2.4,M,3.6,M*28
$HCHDG,338.4,0.0,E,,*25
$HCHDG,338.2,0.0,E,,*23
$YXXDR,A,4.4,D,PTCH,A,-3.6,D,ROLL*75
$PTAK,FFD1,3.6*50
$PTAK,FFP1,HEEL,@*07
$GPRMC,230048.4,A,4741.26069,N,12224.94162,W,002.61,359.2,200413,016.6,E,D*24
$GPRMB,A,-0.25,L,,M,4741.7720,N,12224.5760,W,0.6,42,1.32,V*5A
$PGRME,2.7,M,2.4,M,3.6,M*28
$HCHDG,338.3,0.0,E,,*22
$HCHDG,338.2,0.0,E,,*23
$GPRMC,230048.6,A,4741.26089,N,12224.94155,W,002.66,358.3,200413,016.6,E,D*2B
$PGRME,2.7,M,2.4,M,3.6,M*28
$HCHDG,338.2,0.0,E,,*23
$HCHDG,338.0,0.0,E,,*21
$IIRMC,230000,A,4741.260,N,12224.941,W,02.6,357,200413,16,E,A*10
$IIVHW,,,,,01.8,N,,*10
$GPRMC,230048.8,A,4741.26105,N,12224.94154,W,002.68,355.7,200413,016.6,E,D*26
$PGRME,2.7,M,2.4,M,3.6,M*28
$HCHDG,338.1,0.0,E,,*20
$IIVLW,06227,N,017.6,N*52
$YXXDR,A,4.3,D,PTCH,A,-3.5,D,ROLL*71
$HCHDG,338.0,0.0,E,,*21
$IIGLL,4741.260,N,12224.941,W,230000,A,A*4A
$IIMTW,+09.0,C*31
$GPRMC,230049.0,A,4741.26119,N,12224.94157,W,002.47,354.4,200413,016.6,E,D*2E
$PGRME,2.7,M,2.4,M,3.6,M*28
$HCHDG,337.8,0.0,E,,*26
$IIRMB,A,,,,M   ,,,,,000.6,042,,V,A*78
$HCHDG,337.9,0.0,E,,*27
$GPRMC,230049.2,A,4741.26133,N,12224.94152,W,002.55,358.5,200413,016.6,E,D*2F
$PGRME,2.7,M,2.4,M,3.6,M*28
$HCHDG,337.8,0.0,E,,*26
$HCHDG,337.9,0.0,E,,*27
$YXXDR,A,4.3,D,PTCH,A,-3.7,D,ROLL*73
$PTAK,FFD1,3.7*51
$GPRMC,230049.4,A,4741.26150,N,12224.94148,W,002.60,000.4,200413,016.6,E,D*2E
$PGRME,2.7,M,2.4,M,3.7,M*29
$HCHDG,337.7,0.0,E,,*29
$HCHDG,337.8,0.0,E,,*26
$GPRMC,230049.6,A,4741.26163,N,12224.94144,W,002.59,358.1,200413,016.6,E,D*21
$GPRMB,A,-0.25,L,,M,4741.7720,N,12224.5760,W,0.6,42,1.26,V*5F
$PGRME,2.7,M,2.5,M,3.7,M*28
$HCHDG,337.8,0.0,E,,*26
$HCHDG,338.0,0.0,E,,*21
$IIRMC,230000,A,4741.260,N,12224.941,W,02.6,359,200413,16,E,A*1E
$IIVHW,,,,,01.7,N,,*1F
$GPRMC,230049.8,A,4741.26175,N,12224.94143,W,002.56,359.0,200413,016.6,E,D*20
$PGRME,2.7,M,2.6,M,3.7,M*2B
$HCHDG,338.1,0.0,E,,*20
$IIVLW,06227,N,017.6,N*52
$YXXDR,A,4.2,D,PTCH,A,-3.5,D,ROLL*70
$HCHDG,338.1,0.0,E,,*20
$IIGLL,4741.260,N,12224.941,W,230000,A,A*4A
$IIMTW,+09.0,C*31
$GPRMC,230050.0,A,4741.26190,N,12224.94145,W,002.59,357.9,200413,016.6,E,D*25
$HCHDG,338.2,0.0,E,,*23
$PGRME,2.7,M,2.6,M,3.8,M*24
$IIRMB,A,,,,M   ,,,,,000.6,042,,V,A*78
$HCHDG,338.0,0.0,E,,*21
$GPRMC,230050.2,A,4741.26205,N,12224.94146,W,002.56,358.1,200413,016.6,E,D*23
$HCHDG,338.1,0.0,E,,*20
$PGRME,2.7,M,2.6,M,3.8,M*24
$HCHDG,338.0,0.0,E,,*21
$YXXDR,A,4.1,D,PTCH,A,-4.0,D,ROLL*71
$GPRMC,230050.4,A,4741.26218,N,12224.94150,W,002.55,000.3,200413,016.6,E,D*21
$PGRME,2.7,M,2.7,M,3.8,M*25
$HCHDG,338.1,0.0,E,,*20
$HCHDG,338.0,0.0,E,,*21
$GPRMC,230050.6,A,4741.26239,N,12224.94152,W,002.59,358.1,200413,016.6,E,D*22
$PGRME,2.7,M,2.7,M,3.8,M*25
$HCHDG,337.7,0.0,E,,*29
$HCHDG,337.9,0.0,E,,*27
$IIRMC,230000,A,4741.261,N,12224.941,W,02.6,000,200413,16,E,A*10
$IIVHW,,,,,01.7,N,,*1F
$GPRMC,230050.8,A,4741.26253,N,12224.94159,W,002.56,355.7,200413,016.6,E,D*2F
$GPRMB,A,-0.25,L,,M,4741.7720,N,12224.5760,W,0.6,42,1.15,V*5F
$HCHDG,337.7,0.0,E,,*29
$PGRME,2.7,M,2.7,M,3.8,M*25
$IIVLW,06227,N,017.6,N*52
$YXXDR,A,4.0,D,PTCH,A,-4.3,D,ROLL*73
$PTAK,FFD1,4.3*52
$HCHDG,337.8,0.0,E,,*26
$IIGLL,4741.261,N,12224.941,W,230000,A,A*4B
$IIMTW,+09.0,C*31
$GPRMC,230051.0,A,4741.26261,N,12224.94160,W,002.53,000.1,200413,016.6,E,D*2D
$HCHDG,337.6,0.0,E,,*28
$PGRME,2.7,M,2.7,M,3.9,M*24
$IIRMB,A,,,,M   ,,,,,000.6,042,,V,A*78
$HCHDG,337.6,0.0,E,,*28
