$PGRME,3.4,M,2.4,M,4.2,M*29
$YXXDR,A,4.8,D,PTCH,A,20.0,D,ROLL*63
$PTAK,FFD1,20.0*67
$HCHDG,45.9,0.0,E,,*11
$HCHDG,45.9,0.0,E,,*11
$GPRMC,175959.8,A,4743.25384,N,12224.96960,W,005.21,077.4,210413,016.6,E,D*21
$PGRME,3.4,M,2.4,M,4.2,M*29
$HCHDG,45.9,0.0,E,,*11
$HCHDG,45.8,0.0,E,,*10
$GPRMC,180000.0,A,4743.25387,N,12224.96908,W,005.25,074.8,210413,016.6,E,D*20
$PGRME,3.4,M,2.4,M,4.2,M*29
$HCHDG,46.0,0.0,E,,*1B
$YXXDR,A,4.7,D,PTCH,A,19.7,D,ROLL*61
$HCHDG,46.4,0.0,E,,*1F
$IIVHW,,,,,04.9,N,,*14
$GPRMC,180000.2,A,4743.25394,N,12224.96857,W,005.46,077.5,210413,016.6,E,D*20
$PGRME,3.4,M,2.4,M,4.2,M*29
$HCHDG,46.5,0.0,E,,*1E
$IIVLW,06229,N,000.9,N*55
$HCHDG,46.4,0.0,E,,*1F
$IIGLL,4743.253,N,12224.971,W,175900,A,A*40
$IIMTW,+09.0,C*31
$GPRMC,180000.4,A,4743.25403,N,12224.96812,W,005.47,075.3,210413,016.6,E,D*2B
$PGRME,3.4,M,2.4,M,4.2,M*29
$HCHDG,46.7,0.0,E,,*1C
$IIRMB,A,,,,M   ,,,,,001.5,186,,V,A*73
$HCHDG,46.6,0.0,E,,*1D
$IIRMC,175900,A,4743.253,N,12224.971,W,05.1,077,210413,16,E,A*1A
$GPRMC,180000.6,A,4743.25411,N,12224.96762,W,005.63,076.9,210413,016.6,E,D*2D
$PGRME,3.4,M,2.4,M,4.2,M*29
$YXXDR,A,4.8,D,PTCH,A,19.2,D,ROLL*6B
$HCHDG,46.4,0.0,E,,*1F
$HCHDG,46.3,0.0,E,,*18
$GPRMC,180000.8,A,4743.25415,N,12224.96716,W,005.69,078.3,210413,016.6,E,D*2A
$PGRME,3.4,M,2.4,M,4.2,M*29
$HCHDG,46.3,0.0,E,,*18
$HCHDG,46.4,0.0,E,,*1F
$GPRMC,180001.0,A,4743.25418,N,12224.96672,W,005.69,078.8,210413,016.6,E,D*26
$GPRMB,A,-0.26,L,,M,4741.7720,N,12224.5760,W,1.5,187,-3.21,V*4E
$PGRME,3.4,M,2.4,M,4.2,M*29
$HCHDG,46.3,0.0,E,,*18
$YXXDR,A,4.9,D,PTCH,A,18.4,D,ROLL*6D
$PTAK,FFD1,18.4*68
$HCHDG,46.2,0.0,E,,*19
$IIVHW,,,,,05.1,N,,*1D
$GPRMC,180001.2,A,4743.25430,N,12224.96642,W,005.71,077.0,210413,016.6,E,D*23
$PGRME,3.4,M,2.4,M,4.2,M*29
$HCHDG,46.5,0.0,E,,*1E
$IIVLW,06229,N,000.9,N*55
$HCHDG,46.6,0.0,E,,*1D
$IIGLL,4743.253,N,12224.969,W,180000,A,A*4A
$IIMTW,+09.0,C*31
$GPRMC,180001.4,A,4743.25434,N,12224.96584,W,005.74,074.5,210413,016.6,E,D*2B
$PGRME,3.4,M,2.4,M,4.2,M*29
$HCHDG,46.6,0.0,E,,*1D
$IIRMB,A,,,,M   ,,,,,001.5,186,,V,A*73
$HCHDG,46.8,0.0,E,,*13
$GPRMC,180001.6,A,4743.25437,N,12224.96535,W,005.78,076.0,210413,016.6,E,D*2B
$IIRMC,180000,A,4743.253,N,12224.969,W,05.2,074,210413,16,E,A*10
$PGRME,3.4,M,2.4,M,4.2,M*29
$YXXDR,A,4.6,D,PTCH,A,19.1,D,ROLL*66
$HCHDG,46.8,0.0,E,,*13
$HCHDG,46.7,0.0,E,,*1C
$PTAK,FFP1,HEEL,@*07
$GPRMC,180001.8,A,4743.25445,N,12224.96484,W,005.82,076.0,210413,016.6,E,D*2E
$PGRME,3.4,M,2.4,M,4.2,M*29
$HCHDG,46.5,0.0,E,,*1E
$HCHDG,46.5,0.0,E,,*1E
$GPRMC,180002.0,A,4743.25455,N,12224.96438,W,005.87,077.5,210413,016.6,E,D*22
$GPRMB,A,-0.26,L,,M,4741.7720,N,12224.5760,W,1.5,187,-3.43,V*4A
$PGRME,3.4,M,2.4,M,4.2,M*29
$HCHDG,46.4,0.0,E,,*1F
$YXXDR,A,4.8,D,PTCH,A,19.4,D,ROLL*6D
$PTAK,FFD1,19.4*69
$HCHDG,46.5,0.0,E,,*1E
$IIVHW,,,,,05.2,N,,*1E
$GPRMC,180002.2,A,4743.25467,N,12224.96391,W,005.89,075.7,210413,016.6,E,D*2B
$PGRME,3.4,M,2.4,M,4.2,M*29
$HCHDG,46.6,0.0,E,,*1D
$IIVLW,06229,N,000.9,N*55
$HCHDG,46.6,0.0,E,,*1D
$IIGLL,4743.254,N,12224.966,W,180000,A,A*42
$IIMTW,+09.0,C*31
$GPRMC,180002.4,A,4743.25482,N,12224.96342,W,005.94,073.8,210413,016.6,E,D*2D
$PGRME,3.4,M,2.4,M,4.2,M*29
$HCHDG,46.6,0.0,E,,*1D
$IIRMB,A,,,,M   ,,,,,001.5,187,,V,A*72
$HCHDG,46.6,0.0,E,,*1D
$IIRMC,180000,A,4743.254,N,12224.966,W,05.7,077,210413,16,E,A*1E
$GPRMC,180002.6,A,4743.25493,N,12224.96292,W,005.98,075.5,210413,016.6,E,D*24
$PGRME,3.4,M,2.4,M,4.2,M*29
$YXXDR,A,5.0,D,PTCH,A,20.6,D,ROLL*6C
$HCHDG,46.6,0.0,E,,*1D
$HCHDG,46.5,0.0,E,,*1E
$GPRMC,180002.8,A,4743.25503,N,12224.96239,W,005.99,074.3,210413,016.6,E,D*25
$PGRME,3.4,M,2.4,M,4.2,M*29
$HCHDG,46.3,0.0,E,,*18
$HCHDG,46.3,0.0,E,,*18
$GPRMC,180003.0,A,4743.25515,N,12224.96185,W,006.01,074.3,210413,016.6,E,D*2D
$PGRME,3.4,M,2.4,M,4.2,M*29
$HCHDG,46.2,0.0,E,,*19
$YXXDR,A,4.8,D,PTCH,A,21.1,D,ROLL*63
$HCHDG,45.9,0.0,E,,*11
$IIVHW,,,,,05.4,N,,*18
$GPRMC,180003.2,A,4743.25525,N,12224.96122,W,006.03,075.0,210413,016.6,E,D*21
$GPRMB,A,-0.26,L,,M,4741.7720,N,12224.5760,W,1.5,187,-3.74,V*4E
$PGRME,3.4,M,2.4,M,4.2,M*29
$HCHDG,45.9,0.0,E,,*11
$IIVLW,06229,N,000.9,N*55
$HCHDG,45.8,0.0,E,,*10
$IIGLL,4743.254,N,12224.963,W,180000,A,A*47
$IIMTW,+09.0,C*31
$GPRMC,180003.4,A,4743.25534,N,12224.96075,W,006.02,073.7,210413,016.6,E,D*24
$PGRME,3.4,M,2.4,M,4.2,M*29
$HCHDG,45.6,0.0,E,,*1E
$IIRMB,A,,,,M   ,,,,,001.5,187,,V,A*72
$HCHDG,45.9,0.0,E,,*11
$GPRMC,180003.6,A,4743.25544,N,12224.96017,W,006.02,075.0,210413,016.6,E,D*24
$YXXDR,A,4.0,D,PTCH,A,22.7,D,ROLL*6E
$PTAK,FFD1,22.7*62
$IIRMC,180000,A,4743.254,N,12224.963,W,05.8,075,210413,16,E,A*16
$PGRME,3.4,M,2.4,M,4.2,M*29
$HCHDG,46.0,0.0,E,,*1B
$HCHDG,45.7,0.0,E,,*1F
$GPRMC,180003.8,A,4743.25551,N,12224.95967,W,006.03,076.3,210413,016.6,E,D*22
$PGRME,3.4,M,2.4,M,4.2,M*29
$HCHDG,46.1,0.0,E,,*1A
$HCHDG,45.8,0.0,E,,*10
$GPRMC,180004.0,A,4743.25562,N,12224.95923,W,006.04,074.7,210413,016.6,E,D*2C
$PGRME,3.4,M,2.4,M,4.2,M*29
$HCHDG,45.9,0.0,E,,*11
$YXXDR,A,4.5,D,PTCH,A,23.9,D,ROLL*64
$HCHDG,45.9,0.0,E,,*11
$IIVHW,,,,,05.5,N,,*19
$GPRMC,180004.2,A,4743.25573,N,12224.95873,W,006.04,072.0,210413,016.6,E,D*2B
$GPRMB,A,-0.26,L,,M,4741.7720,N,12224.5760,W,1.5,187,-3.99,V*4D
$PGRME,3.4,M,2.4,M,4.2,M*29
$HCHDG,45.9,0.0,E,,*11
$IIVLW,06229,N,000.9,N*55
$HCHDG,45.9,0.0,E,,*11
$IIGLL,4743.255,N,12224.961,W,180000,A,A*44
$IIMTW,+09.0,C*31
$GPRMC,180004.4,A,4743.25590,N,12224.95830,W,006.06,073.6,210413,016.6,E,D*22
$PGRME,3.4,M,2.4,M,4.2,M*29
$HCHDG,46.0,0.0,E,,*1B
$IIRMB,A,,,,M   ,,,,,001.5,187,,V,A*72
$HCHDG,45.9,0.0,E,,*11
$IIRMC,180000,A,4743.255,N,12224.961,W,06.0,075,210413,16,E,A*1E
$GPRMC,180004.6,A,4743.25603,N,12224.95782,W,006.10,073.2,210413,016.6,E,D*2C
$PGRME,3.4,M,2.4,M,4.2,M*29
$YXXDR,A,4.5,D,PTCH,A,24.1,D,ROLL*6B
$PTAK,FFD1,24.1*62
$HCHDG,46.0,0.0,E,,*1B
$HCHDG,46.1,0.0,E,,*1A
$GPRMC,180004.8,A,4743.25616,N,12224.95737,W,006.14,072.9,210413,016.6,E,D*26
$PGRME,3.4,M,2.4,M,4.2,M*29
$HCHDG,45.9,0.0,E,,*11
$HCHDG,45.8,0.0,E,,*10
$GPRMC,180005.0,A,4743.25629,N,12224.95694,W,006.17,069.6,210413,016.6,E,D*2D
$PGRME,3.4,M,2.4,M,4.2,M*29
$HCHDG,45.7,0.0,E,,*1F
$YXXDR,A,4.4,D,PTCH,A,24.2,D,ROLL*69
$HCHDG,46.0,0.0,E,,*1B
$IIVHW,,,,,05.5,N,,*19
$GPRMC,180005.2,A,4743.25637,N,12224.95638,W,006.18,071.5,210413,016.6,E,D*23
$PGRME,3.4,M,2.4,M,4.2,M*29
$HCHDG,45.8,0.0,E,,*10
$IIVLW,06229,N,000.9,N*55
$HCHDG,45.7,0.0,E,,*1F
$IIGLL,4743.255,N,12224.958,W,180000,A,A*4E
$IIMTW,+09.0,C*31
$GPRMC,180005.4,A,4743.25640,N,12224.95585,W,006.23,074.6,210413,016.6,E,D*2E
$GPRMB,A,-0.26,L,,M,4741.7720,N,12224.5760,W,1.5,187,-3.91,V*45
$PGRME,3.4,M,2.4,M,4.2,M*29
$HCHDG,45.6,0.0,E,,*1E
$IIRMB,A,,,,M   ,,,,,001.5,187,,V,A*72
$HCHDG,45.6,0.0,E,,*1E
$IIRMC,180000,A,4743.255,N,12224.958,W,06.0,072,210413,16,E,A*13
$GPRMC,180005.6,A,4743.25645,N,12224.95529,W,006.25,072.6,210413,016.6,E,D*2F
$PGRME,3.4,M,2.4,M,4.2,M*29
$YXXDR,A,4.1,D,PTCH,A,24.0,D,ROLL*6E
$PTAK,FFD1,24.0*63
$PTAK,FFP1,HEEL,@*07
$HCHDG,45.5,0.0,E,,*1D
$HCHDG,45.2,0.0,E,,*1A
$GPRMC,180005.8,A,4743.25650,N,12224.95475,W,006.29,073.1,210413,016.6,E,D*27
$PGRME,3.4,M,2.4,M,4.2,M*29
$HCHDG,45.0,0.0,E,,*18
$HCHDG,44.8,0.0,E,,*11
$GPRMC,180006.0,A,4743.25656,N,12224.95426,W,006.33,072.3,210413,016.6,E,D*24
$PGRME,3.4,M,2.4,M,4.2,M*29
$HCHDG,44.7,0.0,E,,*1E
$YXXDR,A,4.3,D,PTCH,A,24.1,D,ROLL*6D
$HCHDG,44.5,0.0,E,,*1C
$IIVHW,,,,,05.6,N,,*1A
$GPRMC,180006.2,A,4743.25663,N,12224.95371,W,006.33,071.2,210413,016.6,E,D*27
$PGRME,3.4,M,2.4,M,4.2,M*29
$HCHDG,44.0,0.0,E,,*19
$IIVLW,06229,N,000.9,N*55
$HCHDG,44.1,0.0,E,,*18
$IIGLL,4743.256,N,12224.956,W,180000,A,A*43
$IIMTW,+09.0,C*31
$GPRMC,180006.4,A,4743.25674,N,12224.95325,W,006.34,069.8,210413,016.6,E,D*22
$PGRME,3.4,M,2.4,M,4.2,M*29
$HCHDG,43.8,0.0,E,,*16
$IIRMB,A,,,,M   ,,,,,001.5,187,,V,A*72
$HCHDG,43.7,0.0,E,,*19
$IIRMC,180000,A,4743.256,N,12224.956,W,06.1,071,210413,16,E,A*1C
$GPRMC,180006.6,A,4743.25687,N,12224.95293,W,006.36,069.6,210413,016.6,E,D*2C
$GPRMB,A,-0.25,L,,M,4741.7720,N,12224.5760,W,1.5,187,-4.41,V*4C
$PGRME,3.4,M,2.4,M,4.2,M*29
$YXXDR,A,4.3,D,PTCH,A,24.5,D,ROLL*69
$PTAK,FFD1,24.5*66
$HCHDG,43.5,0.0,E,,*1B
$HCHDG,43.7,0.0,E,,*19
$GPRMC,180006.8,A,4743.25705,N,12224.95239,W,006.36,069.8,210413,016.6,E,D*27
$PGRME,3.4,M,2.4,M,4.2,M*29
$HCHDG,43.7,0.0,E,,*19
$HCHDG,43.9,0.0,E,,*17
$GPRMC,180007.0,A,4743.25721,N,12224.95191,W,006.35,066.9,210413,016.6,E,D*24
$PGRME,3.4,M,2.4,M,4.2,M*29
$HCHDG,44.3,0.0,E,,*1A
$YXXDR,A,4.4,D,PTCH,A,26.0,D,ROLL*69
$HCHDG,44.3,0.0,E,,*1A
$IIVHW,,,,,05.7,N,,*1B
$GPRMC,180007.2,A,4743.25738,N,12224.95143,W,006.36,066.6,210413,016.6,E,D*2D
$PGRME,3.4,M,2.4,M,4.2,M*29
$HCHDG,44.5,0.0,E,,*1C
$IIVLW,06229,N,000.9,N*55
$HCHDG,44.5,0.0,E,,*1C
$IIGLL,4743.256,N,12224.953,W,180000,A,A*46
$IIMTW,+09.0,C*31
$GPRMC,180007.4,A,4743.25750,N,12224.95093,W,006.33,068.8,210413,016.6,E,D*2C
$PGRME,3.4,M,2.4,M,4.2,M*29
$HCHDG,44.6,0.0,E,,*1F
$IIRMB,A,,,,M   ,,,,,001.5,187,,V,A*72
$HCHDG,44.5,0.0,E,,*1C
$IIRMC,180000,A,4743.256,N,12224.953,W,06.3,071,210413,16,E,A*1B
$GPRMC,180007.6,A,4743.25765,N,12224.95049,W,006.31,069.0,210413,016.6,E,D*24
$GPRMB,A,-0.25,L,,M,4741.7720,N,12224.5760,W,1.5,187,-4.43,V*4E
$PGRME,3.4,M,2.4,M,4.2,M*29
$YXXDR,A,4.2,D,PTCH,A,25.6,D,ROLL*6A
$PTAK,FFD1,25.6*64
$HCHDG,44.5,0.0,E,,*1C
$HCHDG,44.3,0.0,E,,*1A
$GPRMC,180007.8,A,4743.25777,N,12224.95005,W,006.31,068.7,210413,016.6,E,D*27
$PGRME,3.4,M,2.4,M,4.2,M*29
$HCHDG,44.2,0.0,E,,*1B
$HCHDG,43.9,0.0,E,,*17
$GPRMC,180008.0,A,4743.25786,N,12224.94966,W,006.30,067.5,210413,016.6,E,D*2F
$PGRME,3.4,M,2.4,M,4.2,M*29
$HCHDG,43.8,0.0,E,,*16
$YXXDR,A,4.4,D,PTCH,A,24.0,D,ROLL*6B
$HCHDG,43.8,0.0,E,,*16
$IIVHW,,,,,05.8,N,,*14
$GPRMC,180008.2,A,4743.25792,N,12224.94925,W,006.27,069.2,210413,016.6,E,D*20
$PGRME,3.4,M,2.4,M,4.2,M*29
$HCHDG,43.6,0.0,E,,*18
$IIVLW,06229,N,000.9,N*55
$HCHDG,43.6,0.0,E,,*18
$IIGLL,4743.257,N,12224.950,W,180000,A,A*44
$IIMTW,+09.0,C*31
$GPRMC,180008.4,A,4743.25800,N,12224.94881,W,006.26,069.3,210413,016.6,E,D*2D
$PGRME,3.4,M,2.4,M,4.2,M*29
$HCHDG,43.6,0.0,E,,*18
$IIRMB,A,,,,M   ,,,,,001.5,187,,V,A*72
$HCHDG,43.7,0.0,E,,*19
$IIRMC,180000,A,4743.257,N,12224.950,W,06.3,068,210413,16,E,A*11
$GPRMC,180008.6,A,4743.25816,N,12224.94844,W,006.25,068.1,210413,016.6,E,D*21
$PGRME,3.4,M,2.4,M,4.2,M*29
$YXXDR,A,4.2,D,PTCH,A,24.6,D,ROLL*6B
$HCHDG,43.7,0.0,E,,*19
$HCHDG,43.6,0.0,E,,*18
$GPRMC,180008.8,A,4743.25826,N,12224.94799,W,006.24,068.3,210413,016.6,E,D*20
$GPRMB,A,-0.25,L,,M,4741.7720,N,12224.5760,W,1.5,187,-4.44,V*49
$PGRME,3.4,M,2.4,M,4.2,M*29
$HCHDG,43.5,0.0,E,,*1B
$HCHDG,43.5,0.0,E,,*1B
$GPRMC,180009.0,A,4743.25829,N,12224.94751,W,006.26,067.9,210413,016.6,E,D*25
$PGRME,3.4,M,2.4,M,4.1,M*2A
$HCHDG,43.5,0.0,E,,*1B
$YXXDR,A,4.3,D,PTCH,A,24.7,D,ROLL*6B
$PTAK,FFD1,24.7*64
$HCHDG,43.5,0.0,E,,*1B
$IIVHW,,,,,05.8,N,,*14
$GPRMC,180009.2,A,4743.25827,N,12224.94703,W,006.26,069.1,210413,016.6,E,D*28
$PGRME,3.3,M,2.4,M,4.1,M*2D
$HCHDG,43.5,0.0,E,,*1B
$IIVLW,06229,N,000.9,N*55
$HCHDG,43.4,0.0,E,,*1A
$IIGLL,4743.258,N,12224.948,W,180000,A,A*42
$IIMTW,+09.0,C*31
$GPRMC,180009.4,A,4743.25836,N,12224.94656,W,006.28,066.3,210413,016.6,E,D*2C
$PGRME,3.3,M,2.4,M,4.1,M*2D
$HCHDG,43.4,0.0,E,,*1A
$IIRMB,A,,,,M   ,,,,,001.5,187,,V,A*72
$HCHDG,43.4,0.0,E,,*1A
$IIRMC,180000,A,4743.258,N,12224.948,W,06.2,069,210413,16,E,A*17
$GPRMC,180009.6,A,4743.25845,N,12224.94616,W,006.30,067.8,210413,016.6,E,D*2D
$PGRME,3.3,M,2.4,M,4.1,M*2D
$YXXDR,A,4.4,D,PTCH,A,25.0,D,ROLL*6A
$HCHDG,43.4,0.0,E,,*1A
$HCHDG,43.2,0.0,E,,*1C
$GPRMC,180009.8,A,4743.25855,N,12224.94573,W,006.35,067.6,210413,016.6,E,D*29
$PTAK,FFP1,HEEL,@*07
$PGRME,3.3,M,2.4,M,4.1,M*2D
$HCHDG,43.2,0.0,E,,*1C
$HCHDG,43.2,0.0,E,,*1C
$GPRMC,180010.0,A,4743.25863,N,12224.94533,W,006.39,067.6,210413,016.6,E,D*24
$GPRMB,A,-0.25,L,,M,4741.7720,N,12224.5760,W,1.5,187,-4.60,V*4F
$PGRME,3.3,M,2.4,M,4.1,M*2D
$HCHDG,43.2,0.0,E,,*1C
$YXXDR,A,4.3,D,PTCH,A,24.5,D,ROLL*69
$PTAK,FFD1,24.5*66
$HCHDG,43.1,0.0,E,,*1F
$IIVHW,,,,,05.9,N,,*15
$GPRMC,180010.2,A,4743.25867,N,12224.94484,W,006.44,067.3,210413,016.6,E,D*20
$PGRME,3.3,M,2.4,M,4.1,M*2D
$HCHDG,43.3,0.0,E,,*1D
$IIVLW,06229,N,000.9,N*55
$HCHDG,43.3,0.0,E,,*1D
$IIGLL,4743.258,N,12224.946,W,180000,A,A*4C
$IIMTW,+09.0,C*31
$GPRMC,180010.4,A,4743.25871,N,12224.94431,W,006.48,067.1,210413,016.6,E,D*21
$PGRME,3.3,M,2.4,M,4.1,M*2D
$HCHDG,43.2,0.0,E,,*1C
$IIRMB,A,,,,M   ,,,,,001.5,187,,V,A*72
$HCHDG,43.0,0.0,E,,*1E
$IIRMC,180000,A,4743.258,N,12224.946,W,06.2,066,210413,16,E,A*16
$GPRMC,180010.6,A,4743.25883,N,12224.94382,W,006.52,067.7,210413,016.6,E,D*2C
$PGRME,3.3,M,2.4,M,4.1,M*2D
$YXXDR,A,4.1,D,PTCH,A,24.3,D,ROLL*6D
$HCHDG,42.8,0.0,E,,*17
$HCHDG,42.8,0.0,E,,*17
$GPRMC,180010.8,A,4743.25897,N,12224.94341,W,006.57,068.8,210413,016.6,E,D*2D
$PGRME,3.3,M,2.4,M,4.1,M*2D
$HCHDG,42.8,0.0,E,,*17
$HCHDG,42.6,0.0,E,,*19
$GPRMC,180011.0,A,4743.25904,N,12224.94304,W,006.61,068.5,210413,016.6,E,D*26
$GPRMB,A,-0.25,L,,M,4741.7720,N,12224.5760,W,1.5,187,-4.70,V*4E
$PGRME,3.3,M,2.4,M,4.1,M*2D
$HCHDG,42.5,0.0,E,,*1A
$YXXDR,A,4.2,D,PTCH,A,24.2,D,ROLL*6F
$HCHDG,42.5,0.0,E,,*1A
$IIVHW,,,,,06.1,N,,*1E
$GPRMC,180011.2,A,4743.25917,N,12224.94258,W,006.65,067.6,210413,016.6,E,D*26
$PGRME,3.2,M,2.4,M,4.1,M*2C
$HCHDG,42.3,0.0,E,,*1C
$IIVLW,06229,N,000.9,N*55
$HCHDG,42.3,0.0,E,,*1C
$IIGLL,4743.258,N,12224.944,W,180000,A,A*4E
$IIMTW,+09.0,C*31
$GPRMC,180011.4,A,4743.25938,N,12224.94217,W,006.66,066.8,210413,016.6,E,D*2A
$PGRME,3.2,M,2.4,M,4.0,M*2D
$HCHDG,42.2,0.0,E,,*1D
$IIRMB,A,,,,M   ,,,,,001.5,187,,V,A*72
$HCHDG,42.1,0.0,E,,*1E
$IIRMC,180000,A,4743.258,N,12224.944,W,06.4,067,210413,16,E,A*13
$GPRMC,180011.6,A,4743.25952,N,12224.94167,W,006.66,066.9,210413,016.6,E,D*21
$PGRME,3.2,M,2.4,M,4.0,M*2D
$YXXDR,A,4.3,D,PTCH,A,24.6,D,ROLL*6A
$PTAK,FFD1,24.6*65
$HCHDG,42.0,0.0,E,,*1F
$HCHDG,42.1,0.0,E,,*1E
$GPRMC,180011.8,A,4743.25968,N,12224.94117,W,006.63,066.3,210413,016.6,E,D*2E
$PGRME,3.2,M,2.4,M,4.0,M*2D
$HCHDG,42.0,0.0,E,,*1F
$HCHDG,42.0,0.0,E,,*1F
$GPRMC,180012.0,A,4743.25982,N,12224.94068,W,006.59,065.4,210413,016.6,E,D*25
$GPRMB,A,-0.25,L,,M,4741.7720,N,12224.5760,W,1.5,187,-4.93,V*43
$PGRME,3.2,M,2.4,M,4.0,M*2D
$HCHDG,42.0,0.0,E,,*1F
$YXXDR,A,4.0,D,PTCH,A,25.1,D,ROLL*6F
$HCHDG,42.0,0.0,E,,*1F
$IIVHW,,,,,06.2,N,,*1D
$GPRMC,180012.2,A,4743.25999,N,12224.94016,W,006.31,065.4,210413,016.6,E,D*2A
$PGRME,3.2,M,2.4,M,4.0,M*2D
$HCHDG,42.2,0.0,E,,*1D
$IIVLW,06229,N,000.9,N*55
$HCHDG,42.1,0.0,E,,*1E
$IIGLL,4743.259,N,12224.942,W,180000,A,A*49
$IIMTW,+09.0,C*31
$GPRMC,180012.4,A,4743.26012,N,12224.93967,W,006.37,064.0,210413,016.6,E,D*2E
$PGRME,3.2,M,2.4,M,4.0,M*2D
$HCHDG,42.0,0.0,E,,*1F
$IIRMB,A,,,,M   ,,,,,001.5,187,,V,A*72
$HCHDG,41.8,0.0,E,,*14
$IIRMC,180000,A,4743.259,N,12224.942,W,06.6,066,210413,16,E,A*17
$GPRMC,180012.6,A,4743.26029,N,12224.93926,W,006.42,063.1,210413,016.6,E,D*25
$PGRME,3.2,M,2.4,M,4.0,M*2D
$YXXDR,A,4.2,D,PTCH,A,25.1,D,ROLL*6D
$PTAK,FFD1,25.1*63
$HCHDG,41.7,0.0,E,,*1B
$HCHDG,41.5,0.0,E,,*19
$GPRMC,180012.8,A,4743.26042,N,12224.93878,W,006.39,063.2,210413,016.6,E,D*23
$PGRME,3.1,M,2.4,M,4.0,M*2E
$HCHDG,41.5,0.0,E,,*19
$HCHDG,41.4,0.0,E,,*18
$GPRMC,180013.0,A,4743.26054,N,12224.93831,W,006.35,062.9,210413,016.6,E,D*26
$GPRMB,A,-0.24,L,,M,4741.7720,N,12224.5760,W,1.5,187,-4.93,V*42
$PGRME,3.1,M,2.4,M,4.0,M*2E
$HCHDG,41.7,0.0,E,,*1B
$YXXDR,A,4.1,D,PTCH,A,26.1,D,ROLL*6D
$HCHDG,41.8,0.0,E,,*14
$IIVHW,,,,,06.2,N,,*1D
$GPRMC,180013.2,A,4743.26062,N,12224.93788,W,006.36,063.0,210413,016.6,E,D*27
$PGRME,3.1,M,2.4,M,3.9,M*20
$HCHDG,42.0,0.0,E,,*1F
$IIVLW,06229,N,000.9,N*55
$HCHDG,42.0,0.0,E,,*1F
$IIGLL,4743.260,N,12224.939,W,180000,A,A*4F
$IIMTW,+09.0,C*31
$GPRMC,180013.4,A,4743.26068,N,12224.93736,W,006.33,061.9,210413,016.6,E,D*20
$PGRME,3.1,M,2.4,M,3.9,M*20
$HCHDG,42.0,0.0,E,,*1F
$IIRMB,A,,,,M   ,,,,,001.5,187,,V,A*72
$HCHDG,42.1,0.0,E,,*1E
$IIRMC,180000,A,4743.260,N,12224.939,W,06.3,064,210413,16,E,A*16
$GPRMC,180013.6,A,4743.26078,N,12224.93686,W,006.29,062.6,210413,016.6,E,D*2E
$PGRME,3.1,M,2.4,M,3.9,M*20
$YXXDR,A,3.9,D,PTCH,A,24.9,D,ROLL*68
$PTAK,FFD1,24.9*6A
$HCHDG,42.0,0.0,E,,*1F
$HCHDG,42.2,0.0,E,,*1D
$GPRMC,180013.8,A,4743.26090,N,12224.93641,W,006.26,064.2,210413,016.6,E,D*20
$PTAK,FFP1,HEEL,@*07
$PGRME,3.0,M,2.4,M,3.9,M*21
$HCHDG,42.1,0.0,E,,*1E
$HCHDG,42.1,0.0,E,,*1E
$GPRMC,180014.0,A,4743.26103,N,12224.93587,W,006.25,062.4,210413,016.6,E,D*2E
$PGRME,3.0,M,2.4,M,3.9,M*21
$HCHDG,42.1,0.0,E,,*1E
$YXXDR,A,4.0,D,PTCH,A,24.6,D,ROLL*69
$HCHDG,42.2,0.0,E,,*1D
$IIVHW,,,,,06.1,N,,*1E
$GPRMC,180014.2,A,4743.26118,N,12224.93533,W,006.25,063.1,210413,016.6,E,D*2D
$GPRMB,A,-0.24,L,,M,4741.7720,N,12224.5760,W,1.5,187,-4.85,V*45
$PGRME,3.0,M,2.4,M,3.9,M*21
$HCHDG,42.2,0.0,E,,*1D
$IIVLW,06229,N,000.9,N*55
$HCHDG,42.3,0.0,E,,*1C
$IIGLL,4743.260,N,12224.937,W,180000,A,A*41
$IIMTW,+09.0,C*31
$GPRMC,180014.4,A,4743.26127,N,12224.93485,W,006.25,063.5,210413,016.6,E,D*2F
$PGRME,3.0,M,2.4,M,3.9,M*21
$HCHDG,42.2,0.0,E,,*1D
$IIRMB,A,,,,M   ,,,,,001.5,187,,V,A*72
$HCHDG,42.1,0.0,E,,*1E
$IIRMC,180000,A,4743.260,N,12224.937,W,06.3,061,210413,16,E,A*1D
$GPRMC,180014.6,A,4743.26143,N,12224.93439,W,006.27,064.0,210413,016.6,E,D*28
$YXXDR,A,4.1,D,PTCH,A,24.1,D,ROLL*6F
$PGRME,3.0,M,2.4,M,3.9,M*21
$HCHDG,42.2,0.0,E,,*1D
$HCHDG,42.0,0.0,E,,*1F
$GPRMC,180014.8,A,4743.26158,N,12224.93390,W,006.28,063.3,210413,016.6,E,D*23
$PGRME,3.0,M,2.4,M,3.9,M*21
$HCHDG,41.8,0.0,E,,*14
$HCHDG,41.8,0.0,E,,*14
$GPRMC,180015.0,A,4743.26177,N,12224.93329,W,006.30,063.6,210413,016.6,E,D*29
$PGRME,3.0,M,2.4,M,3.9,M*21
$HCHDG,41.8,0.0,E,,*14
$YXXDR,A,4.1,D,PTCH,A,23.9,D,ROLL*60
$PTAK,FFD1,23.9*6D
$HCHDG,42.0,0.0,E,,*1F
$IIVHW,,,,,06.2,N,,*1D
$GPRMC,180015.2,A,4743.26194,N,12224.93277,W,006.32,061.8,210413,016.6,E,D*22
$GPRMB,A,-0.24,L,,M,4741.7720,N,12224.5760,W,1.5,187,-5.00,V*49
$PGRME,3.0,M,2.4,M,3.9,M*21
$HCHDG,41.8,0.0,E,,*14
$IIVLW,06229,N,000.9,N*55
$HCHDG,41.9,0.0,E,,*15
$IIGLL,4743.261,N,12224.934,W,180000,A,A*43
$IIMTW,+09.0,C*31
$GPRMC,180015.4,A,4743.26213,N,12224.93233,W,006.36,063.0,210413,016.6,E,D*26
$PGRME,3.0,M,2.4,M,3.9,M*21
$HCHDG,42.2,0.0,E,,*1D
$IIRMB,A,,,,M   ,,,,,001.5,187,,V,A*72
$HCHDG,42.2,0.0,E,,*1D
$IIRMC,180000,A,4743.261,N,12224.934,W,06.2,063,210413,16,E,A*1C
$GPRMC,180015.6,A,4743.26232,N,12224.93188,W,006.37,062.2,210413,016.6,E,D*26
$PGRME,3.0,M,2.4,M,3.9,M*21
$YXXDR,A,3.9,D,PTCH,A,23.8,D,ROLL*6E
$HCHDG,42.4,0.0,E,,*1B
$HCHDG,42.6,0.0,E,,*19
$GPRMC,180015.8,A,4743.26246,N,12224.93147,W,006.40,062.2,210413,016.6,E,D*28
$PGRME,3.0,M,2.4,M,3.9,M*21
$HCHDG,42.6,0.0,E,,*19
$HCHDG,42.8,0.0,E,,*17
$GPRMC,180016.0,A,4743.26260,N,12224.93110,W,006.44,063.5,210413,016.6,E,D*27
$PGRME,3.0,M,2.4,M,3.9,M*21
$HCHDG,42.7,0.0,E,,*18
$YXXDR,A,3.7,D,PTCH,A,24.0,D,ROLL*6F
$PTAK,FFD1,24.0*63
$HCHDG,42.8,0.0,E,,*17
$IIVHW,,,,,06.2,N,,*1D
$GPRMC,180016.2,A,4743.26276,N,12224.93073,W,006.45,062.9,210413,016.6,E,D*2A
$PGRME,3.0,M,2.4,M,3.9,M*21
$HCHDG,42.6,0.0,E,,*19
$IIVLW,06229,N,000.9,N*55
$HCHDG,42.3,0.0,E,,*1C
$IIGLL,4743.262,N,12224.932,W,180000,A,A*46
$IIMTW,+09.0,C*31
$GPRMC,180016.4,A,4743.26290,N,12224.93028,W,006.48,063.9,210413,016.6,E,D*26
$GPRMB,A,-0.24,L,,M,4741.7720,N,12224.5760,W,1.5,188,-4.98,V*46
$PGRME,3.0,M,2.4,M,3.9,M*21
$HCHDG,41.9,0.0,E,,*15
$IIRMB,A,,,,M   ,,,,,001.5,187,,V,A*72
$HCHDG,41.8,0.0,E,,*14
$IIRMC,180000,A,4743.262,N,12224.932,W,06.3,063,210413,16,E,A*18
$GPRMC,180016.6,A,4743.26304,N,12224.92977,W,006.66,066.5,210413,016.6,E,D*2F
$PGRME,3.0,M,2.4,M,3.9,M*21
$YXXDR,A,4.0,D,PTCH,A,21.7,D,ROLL*6D
$HCHDG,41.4,0.0,E,,*18
$HCHDG,41.3,0.0,E,,*1F
$GPRMC,180016.8,A,4743.26316,N,12224.92928,W,006.67,066.6,210413,016.6,E,D*2A
$PGRME,3.0,M,2.4,M,3.9,M*21
$HCHDG,41.1,0.0,E,,*1D
$HCHDG,41.0,0.0,E,,*1C
$GPRMC,180017.0,A,4743.26335,N,12224.92877,W,006.83,066.4,210413,016.6,E,D*21
$PGRME,3.0,M,2.4,M,3.9,M*21
$HCHDG,40.8,0.0,E,,*15
$YXXDR,A,4.3,D,PTCH,A,23.8,D,ROLL*63
$PTAK,FFD1,23.8*6C
$HCHDG,40.6,0.0,E,,*1B
$IIVHW,,,,,06.3,N,,*1C
$GPRMC,180017.2,A,4743.26354,N,12224.92828,W,006.65,065.9,210413,016.6,E,D*28
$PGRME,3.0,M,2.4,M,3.9,M*21
$HCHDG,40.6,0.0,E,,*1B
$IIVLW,06229,N,000.9,N*55
$HCHDG,40.7,0.0,E,,*1A
$IIGLL,4743.262,N,12224.930,W,180000,A,A*44
$IIMTW,+09.0,C*31
$GPRMC,180017.4,A,4743.26370,N,12224.92777,W,006.65,065.9,210413,016.6,E,D*2D
$GPRMB,A,-0.24,L,,M,4741.7720,N,12224.5760,W,1.5,188,-4.96,V*48
$PGRME,3.0,M,2.4,M,3.9,M*21
$HCHDG,41.0,0.0,E,,*1C
$IIRMB,A,,,,M   ,,,,,001.5,188,,V,A*7D
$HCHDG,41.0,0.0,E,,*1C
$IIRMC,180000,A,4743.262,N,12224.930,W,06.4,063,210413,16,E,A*1D
$GPRMC,180017.6,A,4743.26381,N,12224.92723,W,006.60,065.5,210413,016.6,E,D*29
$YXXDR,A,3.6,D,PTCH,A,26.8,D,ROLL*64
$PGRME,3.0,M,2.4,M,3.9,M*21
$HCHDG,41.2,0.0,E,,*1E
$HCHDG,41.3,0.0,E,,*1F
$GPRMC,180017.8,A,4743.26392,N,12224.92672,W,006.56,065.2,210413,016.6,E,D*22
$PTAK,FFP1,HEEL,@*07
$PGRME,3.0,M,2.4,M,3.9,M*21
$HCHDG,41.3,0.0,E,,*1F
$HCHDG,41.2,0.0,E,,*1E
$GPRMC,180018.0,A,4743.26408,N,12224.92626,W,006.56,063.1,210413,016.6,E,D*25
$PGRME,3.0,M,2.4,M,3.9,M*21
$HCHDG,41.3,0.0,E,,*1F
$YXXDR,A,4.3,D,PTCH,A,26.2,D,ROLL*6C
$HCHDG,41.2,0.0,E,,*1E
$IIVHW,,,,,06.3,N,,*1C
$GPRMC,180018.2,A,4743.26424,N,12224.92575,W,006.38,063.1,210413,016.6,E,D*24
$PGRME,3.0,M,2.4,M,3.9,M*21
$HCHDG,41.1,0.0,E,,*1D
$IIVLW,06229,N,000.9,N*55
$HCHDG,41.1,0.0,E,,*1D
$IIGLL,4743.263,N,12224.927,W,180000,A,A*43
$IIMTW,+09.0,C*31
$GPRMC,180018.4,A,4743.26438,N,12224.92525,W,006.37,064.0,210413,016.6,E,D*23
$PGRME,3.0,M,2.4,M,3.9,M*21
$HCHDG,41.1,0.0,E,,*1D
$IIRMB,A,,,,M   ,,,,,001.5,188,,V,A*7D
$HCHDG,41.1,0.0,E,,*1D
$IIRMC,180000,A,4743.263,N,12224.927,W,06.6,065,210413,16,E,A*1E
$GPRMC,180018.6,A,4743.26456,N,12224.92479,W,006.37,060.9,210413,016.6,E,D*2C
$GPRMB,A,-0.23,L,,M,4741.7720,N,12224.5760,W,1.5,188,-5.11,V*41
$PGRME,3.0,M,2.4,M,3.9,M*21
$YXXDR,A,4.0,D,PTCH,A,25.8,D,ROLL*66
$PTAK,FFD1,25.8*6A
$HCHDG,41.1,0.0,E,,*1D
$HCHDG,41.1,0.0,E,,*1D
$GPRMC,180018.8,A,4743.26474,N,12224.92433,W,006.33,062.8,210413,016.6,E,D*2B
$PGRME,3.0,M,2.4,M,3.9,M*21
$HCHDG,41.0,0.0,E,,*1C
$HCHDG,40.9,0.0,E,,*14
$GPRMC,180019.0,A,4743.26490,N,12224.92395,W,006.10,061.7,210413,016.6,E,D*2E
$PGRME,3.0,M,2.4,M,3.9,M*21
$HCHDG,41.1,0.0,E,,*1D
$YXXDR,A,3.9,D,PTCH,A,25.5,D,ROLL*65
$HCHDG,41.0,0.0,E,,*1C
$IIVHW,,,,,06.2,N,,*1D
$GPRMC,180019.2,A,4743.26506,N,12224.92346,W,006.15,061.3,210413,016.6,E,D*2D
$PGRME,3.0,M,2.4,M,3.9,M*21
$HCHDG,41.2,0.0,E,,*1E
$IIVLW,06229,N,000.9,N*55
$HCHDG,41.2,0.0,E,,*1E
$IIGLL,4743.264,N,12224.924,W,180000,A,A*47
$IIMTW,+09.0,C*31
$GPRMC,180019.4,A,4743.26522,N,12224.92303,W,006.10,060.2,210413,016.6,E,D*29
$PGRME,3.0,M,2.4,M,3.9,M*21
$HCHDG,41.3,0.0,E,,*1F
$IIRMB,A,,,,M   ,,,,,001.5,188,,V,A*7D
$HCHDG,41.3,0.0,E,,*1F
$IIRMC,180000,A,4743.264,N,12224.924,W,06.3,060,210413,16,E,A*1A
$GPRMC,180019.6,A,4743.26537,N,12224.92260,W,006.10,059.4,210413,016.6,E,D*27
$GPRMB,A,-0.23,L,,M,4741.7720,N,12224.5760,W,1.5,188,-4.99,V*40
$PGRME,3.0,M,2.4,M,3.9,M*21
$YXXDR,A,3.8,D,PTCH,A,24.6,D,ROLL*66
$HCHDG,41.3,0.0,E,,*1F
$HCHDG,41.2,0.0,E,,*1E
$GPRMC,180019.8,A,4743.26557,N,12224.92217,W,006.10,060.3,210413,016.6,E,D*22
$PGRME,3.0,M,2.4,M,3.9,M*21
$HCHDG,41.3,0.0,E,,*1F
$HCHDG,41.1,0.0,E,,*1D
$GPRMC,180020.0,A,4743.26577,N,12224.92171,W,006.10,062.5,210413,016.6,E,D*25
$PGRME,3.0,M,2.4,M,3.9,M*21
$HCHDG,41.0,0.0,E,,*1C
$YXXDR,A,3.6,D,PTCH,A,22.5,D,ROLL*6D
$PTAK,FFD1,22.5*60
$HCHDG,40.9,0.0,E,,*14
$IIVHW,,,,,06.1,N,,*1E
$GPRMC,180020.2,A,4743.26591,N,12224.92126,W,006.32,065.0,210413,016.6,E,D*2F
$PGRME,3.0,M,2.4,M,3.9,M*21
$HCHDG,40.5,0.0,E,,*18
$IIVLW,06229,N,000.9,N*55
$HCHDG,40.2,0.0,E,,*1F
$IIGLL,4743.265,N,12224.922,W,180000,A,A*40
$IIMTW,+09.0,C*31
$GPRMC,180020.4,A,4743.26606,N,12224.92080,W,006.03,062.7,210413,016.6,E,D*2B
$PGRME,3.0,M,2.4,M,3.9,M*21
$HCHDG,40.0,0.0,E,,*1D
$IIRMB,A,,,,M   ,,,,,001.5,188,,V,A*7D
$HCHDG,39.9,0.0,E,,*1A
$IIRMC,180000,A,4743.265,N,12224.922,W,06.1,059,210413,16,E,A*15
$GPRMC,180020.6,A,4743.26619,N,12224.92041,W,006.20,060.0,210413,016.6,E,D*2E
$YXXDR,A,3.8,D,PTCH,A,19.8,D,ROLL*66
$PGRME,3.0,M,2.4,M,3.9,M*21
$HCHDG,39.8,0.0,E,,*1B
$HCHDG,39.8,0.0,E,,*1B
$GPRMC,180020.8,A,4743.26634,N,12224.92002,W,006.22,061.4,210413,016.6,E,D*2F
$GPRMB,A,-0.23,L,,M,4741.7720,N,12224.5760,W,1.5,188,-4.97,V*4E
$PGRME,3.0,M,2.4,M,3.9,M*21
$HCHDG,39.7,0.0,E,,*14
$HCHDG,40.0,0.0,E,,*1D
$GPRMC,180021.0,A,4743.26649,N,12224.91963,W,006.26,057.6,210413,016.6,E,D*22
$PGRME,3.0,M,2.4,M,3.9,M*21
$HCHDG,40.1,0.0,E,,*1C
$YXXDR,A,3.9,D,PTCH,A,19.4,D,ROLL*6B
$PTAK,FFD1,19.4*69
$HCHDG,40.2,0.0,E,,*1F
$IIVHW,,,,,06.1,N,,*1E
$GPRMC,180021.2,A,4743.26673,N,12224.91920,W,006.22,059.7,210413,016.6,E,D*25
$PGRME,3.0,M,2.4,M,3.9,M*21
$HCHDG,40.2,0.0,E,,*1F
$IIVLW,06229,N,000.9,N*55
$HCHDG,40.1,0.0,E,,*1C
$IIGLL,4743.266,N,12224.920,W,180000,A,A*41
$IIMTW,+09.0,C*31
$GPRMC,180021.4,A,4743.26689,N,12224.91868,W,006.29,061.3,210413,016.6,E,D*2F
$PGRME,3.0,M,2.4,M,3.9,M*21
$HCHDG,40.2,0.0,E,,*1F
$IIRMB,A,,,,M   ,,,,,001.5,188,,V,A*7D
$HCHDG,40.1,0.0,E,,*1C
$IIRMC,180000,A,4743.266,N,12224.920,W,06.2,060,210413,16,E,A*1D
$GPRMC,180021.6,A,4743.26707,N,12224.91817,W,006.30,060.4,210413,016.6,E,D*2C
$YXXDR,A,3.7,D,PTCH,A,18.0,D,ROLL*60
$PGRME,3.0,M,2.4,M,3.9,M*21
$HCHDG,39.9,0.0,E,,*1A
$HCHDG,39.7,0.0,E,,*14
$GPRMC,180021.8,A,4743.26725,N,12224.91766,W,006.33,059.1,210413,016.6,E,D*27
$GPRMB,A,-0.23,L,,M,4741.7720,N,12224.5760,W,1.5,188,-5.21,V*42
$PTAK,FFP1,HEEL,@*07
$PGRME,3.0,M,2.4,M,3.9,M*21
$HCHDG,39.8,0.0,E,,*1B
$HCHDG,39.7,0.0,E,,*14
$GPRMC,180022.0,A,4743.26736,N,12224.91712,W,006.32,061.8,210413,016.6,E,D*2E
$PGRME,3.0,M,2.4,M,3.9,M*21
$HCHDG,39.5,0.0,E,,*16
$YXXDR,A,4.2,D,PTCH,A,16.9,D,ROLL*65
$PTAK,FFD1,16.9*6B
$HCHDG,39.6,0.0,E,,*15
$IIVHW,,,,,06.1,N,,*1E
$GPRMC,180022.2,A,4743.26745,N,12224.91661,W,006.34,060.4,210413,016.6,E,D*26
$PGRME,3.0,M,2.4,M,3.9,M*21
$HCHDG,39.4,0.0,E,,*17
$IIVLW,06229,N,000.9,N*55
$HCHDG,39.4,0.0,E,,*17
$IIGLL,4743.267,N,12224.918,W,180000,A,A*4B
$IIMTW,+09.0,C*31
$GPRMC,180022.4,A,4743.26757,N,12224.91610,W,006.15,059.4,210413,016.6,E,D*2C
$PGRME,3.0,M,2.4,M,3.9,M*21
$HCHDG,39.4,0.0,E,,*17
$IIRMB,A,,,,M   ,,,,,001.5,188,,V,A*7D
$HCHDG,39.6,0.0,E,,*15
$IIRMC,180000,A,4743.267,N,12224.918,W,06.3,060,210413,16,E,A*16
$GPRMC,180022.6,A,4743.26778,N,12224.91563,W,006.22,059.9,210413,016.6,E,D*2D
$YXXDR,A,4.4,D,PTCH,A,16.3,D,ROLL*69
$PGRME,3.0,M,2.4,M,3.9,M*21
$HCHDG,39.5,0.0,E,,*16
$HCHDG,39.7,0.0,E,,*14
$GPRMC,180022.8,A,4743.26800,N,12224.91515,W,006.20,060.6,210413,016.6,E,D*25
$PGRME,3.0,M,2.4,M,3.9,M*21
$HCHDG,39.8,0.0,E,,*1B
$HCHDG,39.9,0.0,E,,*1A
$GPRMC,180023.0,A,4743.26813,N,12224.91465,W,006.19,061.7,210413,016.6,E,D*22
$GPRMB,A,-0.23,L,,M,4741.7720,N,12224.5760,W,1.5,188,-4.93,V*4A
$PGRME,3.0,M,2.4,M,3.9,M*21
$HCHDG,39.9,0.0,E,,*1A
$YXXDR,A,4.4,D,PTCH,A,16.3,D,ROLL*69
$PTAK,FFD1,16.3*61
$HCHDG,40.0,0.0,E,,*1D
$IIVHW,,,,,06.1,N,,*1E
$GPRMC,180023.2,A,4743.26829,N,12224.91425,W,006.01,059.5,210413,016.6,E,D*2D
$PGRME,3.0,M,2.4,M,3.9,M*21
$HCHDG,39.8,0.0,E,,*1B
$IIVLW,06229,N,000.9,N*55
$HCHDG,39.9,0.0,E,,*1A
$IIGLL,4743.267,N,12224.915,W,180000,A,A*46
$IIMTW,+09.0,C*31
$GPRMC,180023.4,A,4743.26847,N,12224.91384,W,006.09,061.1,210413,016.6,E,D*28
$PGRME,3.0,M,2.4,M,3.9,M*21
$HCHDG,39.8,0.0,E,,*1B
$IIRMB,A,,,,M   ,,,,,001.5,188,,V,A*7D
$HCHDG,39.6,0.0,E,,*15
$IIRMC,180000,A,4743.267,N,12224.915,W,06.2,059,210413,16,E,A*10
$GPRMC,180023.6,A,4743.26860,N,12224.91346,W,006.07,059.8,210413,016.6,E,D*2D
$YXXDR,A,4.4,D,PTCH,A,15.3,D,ROLL*6A
$PGRME,3.0,M,2.4,M,3.9,M*21
$HCHDG,39.6,0.0,E,,*15
$HCHDG,39.6,0.0,E,,*15
$GPRMC,180023.8,A,4743.26873,N,12224.91301,W,005.99,061.3,210413,016.6,E,D*26
$PGRME,3.0,M,2.4,M,3.9,M*21
$HCHDG,39.4,0.0,E,,*17
$HCHDG,39.5,0.0,E,,*16
$GPRMC,180024.0,A,4743.26886,N,12224.91253,W,005.97,061.3,210413,016.6,E,D*2B
$GPRMB,A,-0.23,L,,M,4741.7720,N,12224.5760,W,1.5,188,-4.79,V*4E
$PGRME,3.0,M,2.4,M,3.8,M*20
$HCHDG,39.3,0.0,E,,*10
$YXXDR,A,4.0,D,PTCH,A,14.4,D,ROLL*68
$HCHDG,39.3,0.0,E,,*10
$IIVHW,,,,,06.1,N,,*1E
$GPRMC,180024.2,A,4743.26906,N,12224.91206,W,005.77,062.3,210413,016.6,E,D*2D
$PGRME,3.0,M,2.4,M,3.9,M*21
$HCHDG,39.3,0.0,E,,*10
$IIVLW,06229,N,000.9,N*55
$HCHDG,39.4,0.0,E,,*17
$IIGLL,4743.268,N,12224.913,W,180000,A,A*4F
$IIMTW,+09.0,C*31
$GPRMC,180024.4,A,4743.26926,N,12224.91159,W,005.77,060.7,210413,016.6,E,D*26
$PGRME,3.0,M,2.4,M,3.9,M*21
$HCHDG,39.3,0.0,E,,*10
$IIRMB,A,,,,M   ,,,,,001.5,188,,V,A*7D
$HCHDG,39.6,0.0,E,,*15
$IIRMC,180000,A,4743.268,N,12224.913,W,06.0,059,210413,16,E,A*1B
$GPRMC,180024.6,A,4743.26945,N,12224.91124,W,005.72,060.6,210413,016.6,E,D*2F
$YXXDR,A,4.2,D,PTCH,A,14.7,D,ROLL*69
$PTAK,FFD1,14.7*67
$PGRME,3.0,M,2.5,M,3.9,M*20
$HCHDG,39.7,0.0,E,,*14
$HCHDG,39.9,0.0,E,,*1A
$GPRMC,180024.8,A,4743.26970,N,12224.91090,W,005.66,060.2,210413,016.6,E,D*28
$PGRME,3.0,M,2.5,M,3.8,M*21
$HCHDG,40.0,0.0,E,,*1D
$HCHDG,40.2,0.0,E,,*1F
$GPRMC,180025.0,A,4743.26995,N,12224.91058,W,005.60,059.6,210413,016.6,E,D*26
$PGRME,3.0,M,2.5,M,3.8,M*21
$HCHDG,40.1,0.0,E,,*1C
$YXXDR,A,4.2,D,PTCH,A,14.7,D,ROLL*69
$HCHDG,40.2,0.0,E,,*1F
$IIVHW,,,,,06.1,N,,*1E
$GPRMC,180025.2,A,4743.27019,N,12224.91017,W,005.62,056.7,210413,016.6,E,D*2F
$GPRMB,A,-0.23,L,,M,4741.7720,N,12224.5760,W,1.5,188,-4.76,V*41
$PGRME,2.9,M,2.5,M,3.8,M*29
$HCHDG,40.3,0.0,E,,*1E
$IIVLW,06229,N,000.9,N*55
$HCHDG,40.4,0.0,E,,*19
$IIGLL,4743.269,N,12224.911,W,180000,A,A*4C
$IIMTW,+09.0,C*31
$GPRMC,180025.4,A,4743.27037,N,12224.90973,W,005.58,058.3,210413,016.6,E,D*2C
$PGRME,2.9,M,2.5,M,3.8,M*29
$HCHDG,40.4,0.0,E,,*19
$IIRMB,A,,,,M   ,,,,,001.5,188,,V,A*7D
$HCHDG,40.2,0.0,E,,*1F
$IIRMC,180000,A,4743.269,N,12224.911,W,05.7,060,210413,16,E,A*16
$GPRMC,180025.6,A,4743.27053,N,12224.90933,W,005.57,061.1,210413,016.6,E,D*2F
$YXXDR,A,4.3,D,PTCH,A,13.4,D,ROLL*6C
$PTAK,FFD1,13.4*63
$PGRME,2.9,M,2.5,M,3.9,M*28
$HCHDG,40.2,0.0,E,,*1F
$HCHDG,40.1,0.0,E,,*1C
$GPRMC,180025.8,A,4743.27075,N,12224.90903,W,005.58,058.7,210413,016.6,E,D*25
$PGRME,3.0,M,2.5,M,3.9,M*20
$HCHDG,40.0,0.0,E,,*1D
$PTAK,FFP1,HEEL,@*07
$HCHDG,40.0,0.0,E,,*1D
$GPRMC,180026.0,A,4743.27096,N,12224.90885,W,005.60,059.1,210413,016.6,E,D*20
$PGRME,2.9,M,2.5,M,3.8,M*29
$HCHDG,39.9,0.0,E,,*1A
$YXXDR,A,4.3,D,PTCH,A,12.0,D,ROLL*69
$HCHDG,39.8,0.0,E,,*1B
$IIVHW,,,,,06.0,N,,*1F
$GPRMC,180026.2,A,4743.27113,N,12224.90852,W,005.61,059.4,210413,016.6,E,D*20
$PGRME,2.9,M,2.5,M,3.8,M*29
$HCHDG,39.9,0.0,E,,*1A
$IIVLW,06229,N,000.9,N*55
$HCHDG,40.0,0.0,E,,*1D
$IIGLL,4743.270,N,12224.909,W,180000,A,A*4D
$IIMTW,+09.0,C*31
$GPRMC,180026.4,A,4743.27132,N,12224.90819,W,005.65,059.1,210413,016.6,E,D*2B
$GPRMB,A,-0.22,L,,M,4741.7720,N,12224.5760,W,1.5,188,-4.66,V*41
$PGRME,2.9,M,2.4,M,3.8,M*28
$HCHDG,40.2,0.0,E,,*1F
$IIRMB,A,,,,M   ,,,,,001.5,188,,V,A*7D
$HCHDG,40.1,0.0,E,,*1C
$IIRMC,180000,A,4743.270,N,12224.909,W,05.5,061,210413,16,E,A*14
$GPRMC,180026.6,A,4743.27152,N,12224.90785,W,005.71,059.9,210413,016.6,E,D*28
$YXXDR,A,4.3,D,PTCH,A,12.0,D,ROLL*69
$PTAK,FFD1,12.0*66
$PGRME,2.9,M,2.4,M,3.8,M*28
$HCHDG,40.3,0.0,E,,*1E
$HCHDG,40.2,0.0,E,,*1F
$GPRMC,180026.8,A,4743.27173,N,12224.90754,W,005.76,059.7,210413,016.6,E,D*20
$PGRME,2.9,M,2.4,M,3.8,M*28
$HCHDG,40.2,0.0,E,,*1F
$HCHDG,40.5,0.0,E,,*18
$GPRMC,180027.0,A,4743.27192,N,12224.90720,W,005.81,060.9,210413,016.6,E,D*29
$PGRME,2.9,M,2.4,M,3.8,M*28
$HCHDG,40.4,0.0,E,,*19
$YXXDR,A,4.5,D,PTCH,A,10.7,D,ROLL*6A
$HCHDG,40.4,0.0,E,,*19
$IIVHW,,,,,05.9,N,,*15
$GPRMC,180027.2,A,4743.27213,N,12224.90695,W,005.98,061.0,210413,016.6,E,D*2E
$PGRME,2.9,M,2.4,M,3.8,M*28
$HCHDG,40.2,0.0,E,,*1F
$IIVLW,06229,N,000.9,N*55
$HCHDG,40.1,0.0,E,,*1C
$IIGLL,4743.271,N,12224.907,W,180000,A,A*42
$IIMTW,+09.0,C*31
$GPRMC,180027.4,A,4743.27231,N,12224.90661,W,005.91,061.1,210413,016.6,E,D*2B
$PGRME,2.9,M,2.4,M,3.8,M*28
$HCHDG,40.3,0.0,E,,*1E
$IIRMB,A,,,,M   ,,,,,001.5,188,,V,A*7D
$HCHDG,40.2,0.0,E,,*1F
$IIRMC,180000,A,4743.271,N,12224.907,W,05.7,059,210413,16,E,A*12
$GPRMC,180027.6,A,4743.27247,N,12224.90628,W,005.89,063.1,210413,016.6,E,D*2E
$GPRMB,A,-0.22,L,,M,4741.7720,N,12224.5760,W,1.5,188,-4.62,V*45
$YXXDR,A,4.6,D,PTCH,A,10.1,D,ROLL*6F
$PTAK,FFD1,10.1*65
$PGRME,2.9,M,2.4,M,3.8,M*28
$HCHDG,40.1,0.0,E,,*1C
$HCHDG,40.3,0.0,E,,*1E
$GPRMC,180027.8,A,4743.27265,N,12224.90597,W,005.70,061.2,210413,016.6,E,D*20
$PGRME,2.9,M,2.4,M,3.8,M*28
$HCHDG,40.6,0.0,E,,*1B
$HCHDG,40.9,0.0,E,,*14
$GPRMC,180028.0,A,4743.27281,N,12224.90559,W,005.75,060.7,210413,016.6,E,D*2E
$PGRME,2.9,M,2.4,M,3.8,M*28
$HCHDG,41.1,0.0,E,,*1D
$YXXDR,A,4.5,D,PTCH,A,11.8,D,ROLL*64
$HCHDG,41.5,0.0,E,,*19
$IIVHW,,,,,05.8,N,,*14
$GPRMC,180028.2,A,4743.27297,N,12224.90526,W,005.78,060.1,210413,016.6,E,D*28
$PGRME,2.9,M,2.4,M,3.8,M*28
$HCHDG,41.9,0.0,E,,*15
$IIVLW,06229,N,000.9,N*55
$HCHDG,42.3,0.0,E,,*1C
$IIGLL,4743.272,N,12224.906,W,180000,A,A*40
$IIMTW,+09.0,C*31
$GPRMC,180028.4,A,4743.27311,N,12224.90491,W,005.80,061.0,210413,016.6,E,D*2B
$PGRME,2.9,M,2.4,M,3.8,M*28
$HCHDG,42.4,0.0,E,,*1B
$IIRMB,A,,,,M   ,,,,,001.5,188,,V,A*7D
$HCHDG,42.7,0.0,E,,*18
$IIRMC,180000,A,4743.272,N,12224.906,W,05.8,063,210413,16,E,A*16
$GPRMC,180028.6,A,4743.27327,N,12224.90448,W,005.75,061.5,210413,016.6,E,D*27
$PGRME,2.9,M,2.4,M,3.8,M*28
$YXXDR,A,4.5,D,PTCH,A,11.8,D,ROLL*64
$HCHDG,42.9,0.0,E,,*16
$HCHDG,43.1,0.0,E,,*1F
$GPRMC,180028.8,A,4743.27346,N,12224.90411,W,005.78,062.3,210413,016.6,E,D*2A
$GPRMB,A,-0.22,L,,M,4741.7720,N,12224.5760,W,1.5,188,-4.59,V*4D
$PGRME,2.9,M,2.4,M,3.8,M*28
$HCHDG,43.4,0.0,E,,*1A
$HCHDG,43.4,0.0,E,,*1A
$GPRMC,180029.0,A,4743.27361,N,12224.90371,W,005.76,063.5,210413,016.6,E,D*2E
$PGRME,2.9,M,2.4,M,3.8,M*28
$HCHDG,43.6,0.0,E,,*18
$YXXDR,A,4.5,D,PTCH,A,11.2,D,ROLL*6E
$PTAK,FFD1,11.2*67
$HCHDG,43.7,0.0,E,,*19
$IIVHW,,,,,05.8,N,,*14
$GPRMC,180029.2,A,4743.27372,N,12224.90331,W,005.71,065.4,210413,016.6,E,D*2A
$PGRME,2.9,M,2.4,M,3.8,M*28
$HCHDG,43.7,0.0,E,,*19
$IIVLW,06229,N,000.9,N*55
$HCHDG,43.8,0.0,E,,*16
$IIGLL,4743.273,N,12224.904,W,180000,A,A*43
$IIMTW,+09.0,C*31
$GPRMC,180029.4,A,4743.27385,N,12224.90292,W,005.35,064.3,210413,016.6,E,D*2A
$PGRME,2.9,M,2.4,M,3.8,M*28
$HCHDG,43.8,0.0,E,,*16
$IIRMB,A,,,,M   ,,,,,001.5,188,,V,A*7D
$HCHDG,43.9,0.0,E,,*17
$IIRMC,180000,A,4743.273,N,12224.904,W,05.7,061,210413,16,E,A*18
$GPRMC,180029.6,A,4743.27396,N,12224.90253,W,005.35,063.0,210413,016.6,E,D*23
$PGRME,2.9,M,2.4,M,3.8,M*28
$YXXDR,A,4.6,D,PTCH,A,10.6,D,ROLL*68
$HCHDG,44.1,0.0,E,,*18
$HCHDG,44.3,0.0,E,,*1A
$GPRMC,180029.8,A,4743.27401,N,12224.90215,W,005.39,066.5,210413,016.6,E,D*2A
$PGRME,2.9,M,2.4,M,3.8,M*28
$HCHDG,44.3,0.0,E,,*1A
$HCHDG,44.5,0.0,E,,*1C
$PTAK,FFP1,HEEL,@*07
$GPRMC,180030.0,A,4743.27416,N,12224.90171,W,005.33,067.3,210413,016.6,E,D*20
$GPRMB,A,-0.22,L,,M,4741.7720,N,12224.5760,W,1.5,188,-3.94,V*4B
$PGRME,2.9,M,2.4,M,3.8,M*28
$HCHDG,44.9,0.0,E,,*10
$YXXDR,A,4.5,D,PTCH,A,11.8,D,ROLL*64
$PTAK,FFD1,11.8*6D
$HCHDG,44.9,0.0,E,,*10
$IIVHW,,,,,05.8,N,,*14
$GPRMC,180030.2,A,4743.27428,N,12224.90131,W,005.33,070.6,210413,016.6,E,D*28
$PGRME,2.9,M,2.4,M,3.8,M*28
$HCHDG,45.2,0.0,E,,*1A
$IIVLW,06229,N,000.9,N*55
$HCHDG,45.4,0.0,E,,*1C
$IIGLL,4743.273,N,12224.902,W,180000,A,A*45
$IIMTW,+09.0,C*31
$GPRMC,180030.4,A,4743.27437,N,12224.90089,W,005.29,068.0,210413,016.6,E,D*26
$PGRME,2.9,M,2.4,M,3.8,M*28
$HCHDG,45.7,0.0,E,,*1F
$IIRMB,A,,,,M   ,,,,,001.5,188,,V,A*7D
$HCHDG,46.0,0.0,E,,*1B
$IIRMC,180000,A,4743.273,N,12224.902,W,05.3,063,210413,16,E,A*18
$GPRMC,180030.6,A,4743.27446,N,12224.90048,W,005.08,067.7,210413,016.6,E,D*24
$PGRME,2.9,M,2.4,M,3.8,M*28
$YXXDR,A,4.6,D,PTCH,A,12.0,D,ROLL*6C
$HCHDG,45.9,0.0,E,,*11
$HCHDG,46.3,0.0,E,,*18
$GPRMC,180030.8,A,4743.27455,N,12224.90005,W,005.30,070.0,210413,016.6,E,D*2B
$PGRME,2.9,M,2.4,M,3.8,M*28
$HCHDG,46.6,0.0,E,,*1D
$HCHDG,46.7,0.0,E,,*1C
$GPRMC,180031.0,A,4743.27461,N,12224.89963,W,005.30,072.2,210413,016.6,E,D*24
$PGRME,2.9,M,2.4,M,3.8,M*28
$HCHDG,46.9,0.0,E,,*12
$YXXDR,A,4.4,D,PTCH,A,11.9,D,ROLL*64
$HCHDG,47.2,0.0,E,,*18
$IIVHW,,,,,05.8,N,,*14
$GPRMC,180031.2,A,4743.27466,N,12224.89913,W,005.30,071.2,210413,016.6,E,D*25
$GPRMB,A,-0.22,L,,M,4741.7720,N,12224.5760,W,1.5,188,-3.67,V*47
$PGRME,2.9,M,2.4,M,3.8,M*28
$HCHDG,47.1,0.0,E,,*1B
$IIVLW,06229,N,000.9,N*55
$HCHDG,47.3,0.0,E,,*19
$IIGLL,4743.274,N,12224.900,W,180000,A,A*40
$IIMTW,+09.0,C*31
$GPRMC,180031.4,A,4743.27479,N,12224.89864,W,005.32,072.3,210413,016.6,E,D*2C
$PGRME,2.9,M,2.4,M,3.8,M*28
$HCHDG,47.1,0.0,E,,*1B
$IIRMB,A,,,,M   ,,,,,001.5,188,,V,A*7D
$HCHDG,47.0,0.0,E,,*1A
$IIRMC,180000,A,4743.274,N,12224.900,W,05.0,067,210413,16,E,A*1A
$GPRMC,180031.6,A,4743.27488,N,12224.89820,W,005.39,071.1,210413,016.6,E,D*2A
$PGRME,2.9,M,2.4,M,3.8,M*28
$YXXDR,A,4.4,D,PTCH,A,11.5,D,ROLL*68
$PTAK,FFD1,11.5*60
$HCHDG,47.1,0.0,E,,*1B
$HCHDG,47.2,0.0,E,,*18
$GPRMC,180031.8,A,4743.27497,N,12224.89776,W,005.43,071.3,210413,016.6,E,D*29
$PGRME,2.9,M,2.4,M,3.8,M*28
$HCHDG,47.4,0.0,E,,*1E
$HCHDG,47.3,0.0,E,,*19
$GPRMC,180032.0,A,4743.27508,N,12224.89733,W,005.74,073.7,210413,016.6,E,D*26
$PGRME,2.9,M,2.4,M,3.8,M*28
$HCHDG,47.5,0.0,E,,*1F
$YXXDR,A,4.5,D,PTCH,A,12.1,D,ROLL*6E
$HCHDG,47.5,0.0,E,,*1F
$IIVHW,,,,,05.7,N,,*1B
$GPRMC,180032.2,A,4743.27513,N,12224.89692,W,005.70,075.9,210413,016.6,E,D*28
$PGRME,2.9,M,2.4,M,3.8,M*28
$HCHDG,47.4,0.0,E,,*1E
$IIVLW,06229,N,000.9,N*55
$HCHDG,47.1,0.0,E,,*1B
$IIGLL,4743.274,N,12224.898,W,180000,A,A*40
$IIMTW,+09.0,C*31
$GPRMC,180032.4,A,4743.27521,N,12224.89648,W,005.70,076.2,210413,016.6,E,D*20
$GPRMB,A,-0.22,L,,M,4741.7720,N,12224.5760,W,1.5,188,-3.57,V*44
$PGRME,2.9,M,2.4,M,3.8,M*28
$HCHDG,46.9,0.0,E,,*12
$IIRMB,A,,,,M   ,,,,,001.5,188,,V,A*7D
$HCHDG,46.9,0.0,E,,*12
$IIRMC,180000,A,4743.274,N,12224.898,W,05.3,071,210413,16,E,A*1E
$GPRMC,180032.6,A,4743.27531,N,12224.89611,W,005.76,075.1,210413,016.6,E,D*29
$PGRME,2.9,M,2.4,M,3.8,M*28
$YXXDR,A,4.8,D,PTCH,A,12.4,D,ROLL*66
$PTAK,FFD1,12.4*62
$HCHDG,46.9,0.0,E,,*12
$HCHDG,47.0,0.0,E,,*1A
$GPRMC,180032.8,A,4743.27538,N,12224.89568,W,005.72,076.7,210413,016.6,E,D*22
$PGRME,2.9,M,2.4,M,3.8,M*28
$HCHDG,47.6,0.0,E,,*1C
$HCHDG,47.7,0.0,E,,*1D
$GPRMC,180033.0,A,4743.27549,N,12224.89530,W,005.74,074.2,210413,016.6,E,D*21
$PGRME,2.9,M,2.4,M,3.8,M*28
$HCHDG,47.6,0.0,E,,*1C
$YXXDR,A,4.6,D,PTCH,A,14.8,D,ROLL*62
$HCHDG,47.8,0.0,E,,*12
$IIVHW,,,,,05.7,N,,*1B
$GPRMC,180033.2,A,4743.27560,N,12224.89484,W,005.92,071.7,210413,016.6,E,D*2E
$PGRME,2.9,M,2.4,M,3.8,M*28
$HCHDG,47.7,0.0,E,,*1D
$IIVLW,06229,N,000.9,N*55
$HCHDG,47.6,0.0,E,,*1C
$IIGLL,4743.275,N,12224.896,W,180000,A,A*4F
$IIMTW,+09.0,C*31
$GPRMC,180033.4,A,4743.27572,N,12224.89440,W,005.64,073.1,210413,016.6,E,D*2E
$PGRME,2.9,M,2.4,M,3.8,M*28
$HCHDG,47.5,0.0,E,,*1F
$IIRMB,A,,,,M   ,,,,,001.5,188,,V,A*7D
$HCHDG,47.8,0.0,E,,*12
$IIRMC,180000,A,4743.275,N,12224.896,W,05.7,075,210413,16,E,A*11
$GPRMC,180033.6,A,4743.27587,N,12224.89385,W,005.68,072.4,210413,016.6,E,D*20
$GPRMB,A,-0.21,L,,M,4741.7720,N,12224.5760,W,1.5,189,-3.85,V*49
$PGRME,2.9,M,2.4,M,3.8,M*28
$YXXDR,A,4.5,D,PTCH,A,15.3,D,ROLL*6B
$PTAK,FFD1,15.3*62
$HCHDG,47.6,0.0,E,,*1C
$HCHDG,47.7,0.0,E,,*1D
$GPRMC,180033.8,A,4743.27600,N,12224.89341,W,005.65,072.5,210413,016.6,E,D*26
$PGRME,2.9,M,2.4,M,3.8,M*28
$HCHDG,47.8,0.0,E,,*12
$PTAK,FFP1,HEEL,@*07
$HCHDG,48.0,0.0,E,,*15
$GPRMC,180034.0,A,4743.27616,N,12224.89298,W,005.65,071.0,210413,016.6,E,D*2D
$PGRME,2.9,M,2.4,M,3.8,M*28
$HCHDG,48.2,0.0,E,,*17
$YXXDR,A,4.5,D,PTCH,A,16.5,D,ROLL*6E
$HCHDG,48.2,0.0,E,,*17
$IIVHW,,,,,05.7,N,,*1B
$GPRMC,180034.2,A,4743.27628,N,12224.89259,W,005.59,071.5,210413,016.6,E,D*25
$PGRME,2.9,M,2.4,M,3.8,M*28
$HCHDG,48.6,0.0,E,,*13
$IIVLW,06229,N,000.9,N*55
$HCHDG,48.7,0.0,E,,*12
$IIGLL,4743.275,N,12224.893,W,180000,A,A*4A
$IIMTW,+09.0,C*31
$GPRMC,180034.4,A,4743.27641,N,12224.89228,W,005.52,071.9,210413,016.6,E,D*2D
$PGRME,2.9,M,2.4,M,3.8,M*28
$HCHDG,49.1,0.0,E,,*15
$IIRMB,A,,,,M   ,,,,,001.5,189,,V,A*7C
$HCHDG,49.4,0.0,E,,*10
$IIRMC,180000,A,4743.275,N,12224.893,W,05.6,072,210413,16,E,A*12
$GPRMC,180034.6,A,4743.27650,N,12224.89181,W,005.51,073.0,210413,016.6,E,D*27
$PGRME,2.9,M,2.4,M,3.8,M*28
$YXXDR,A,4.4,D,PTCH,A,16.3,D,ROLL*69
$HCHDG,49.3,0.0,E,,*17
$HCHDG,49.3,0.0,E,,*17
$GPRMC,180034.8,A,4743.27664,N,12224.89140,W,005.45,070.1,210413,016.6,E,D*24
$GPRMB,A,-0.21,L,,M,4741.7720,N,12224.5760,W,1.5,189,-3.86,V*4A
$PGRME,2.9,M,2.4,M,3.8,M*28
$HCHDG,49.4,0.0,E,,*10
$HCHDG,49.6,0.0,E,,*12
$GPRMC,180035.0,A,4743.27676,N,12224.89100,W,005.41,072.2,210413,016.6,E,D*2F
$PGRME,2.9,M,2.4,M,3.8,M*28
$HCHDG,49.8,0.0,E,,*1C
$YXXDR,A,4.8,D,PTCH,A,16.2,D,ROLL*64
$PTAK,FFD1,16.2*60
$HCHDG,50.0,0.0,E,,*1C
$IIVHW,,,,,05.8,N,,*14
$GPRMC,180035.2,A,4743.27683,N,12224.89050,W,005.39,076.0,210413,016.6,E,D*2A
$PGRME,2.9,M,2.4,M,3.8,M*28
$HCHDG,50.1,0.0,E,,*1D
$IIVLW,06229,N,000.9,N*55
$HCHDG,50.1,0.0,E,,*1D
$IIGLL,4743.276,N,12224.891,W,180000,A,A*4B
$IIMTW,+09.0,C*31
$GPRMC,180035.4,A,4743.27689,N,12224.89015,W,005.38,076.1,210413,016.6,E,D*27
$PGRME,2.9,M,2.4,M,3.8,M*28
$HCHDG,50.2,0.0,E,,*1E
$IIRMB,A,,,,M   ,,,,,001.5,189,,V,A*7C
$HCHDG,50.2,0.0,E,,*1E
$IIRMC,180000,A,4743.276,N,12224.891,W,05.5,073,210413,16,E,A*11
$GPRMC,180035.6,A,4743.27702,N,12224.88981,W,005.36,070.6,210413,016.6,E,D*2D
$YXXDR,A,4.6,D,PTCH,A,15.5,D,ROLL*6E
$PGRME,2.9,M,2.4,M,3.8,M*28
$HCHDG,50.2,0.0,E,,*1E
$HCHDG,50.2,0.0,E,,*1E
$GPRMC,180035.8,A,4743.27714,N,12224.88943,W,005.37,071.8,210413,016.6,E,D*24
$PGRME,2.9,M,2.4,M,3.8,M*28
$HCHDG,50.2,0.0,E,,*1E
$HCHDG,50.4,0.0,E,,*18
$GPRMC,180036.0,A,4743.27723,N,12224.88901,W,005.37,072.0,210413,016.6,E,D*26
$GPRMB,A,-0.21,L,,M,4741.7720,N,12224.5760,W,1.5,189,-3.68,V*4A
$PGRME,3.0,M,2.4,M,3.8,M*20
$HCHDG,50.5,0.0,E,,*19
$YXXDR,A,4.6,D,PTCH,A,15.4,D,ROLL*6F
$PTAK,FFD1,15.4*65
$HCHDG,50.6,0.0,E,,*1A
$IIVHW,,,,,05.7,N,,*1B
$GPRMC,180036.2,A,4743.27728,N,12224.88864,W,005.38,071.2,210413,016.6,E,D*23
$PGRME,3.0,M,2.4,M,3.8,M*20
$HCHDG,50.7,0.0,E,,*1B
$IIVLW,06229,N,000.9,N*55
$HCHDG,50.7,0.0,E,,*1B
$IIGLL,4743.277,N,12224.889,W,180000,A,A*43
$IIMTW,+09.0,C*31
$GPRMC,180036.4,A,4743.27737,N,12224.88821,W,005.39,071.5,210413,016.6,E,D*2C
$PGRME,3.0,M,2.4,M,3.8,M*20
$HCHDG,50.8,0.0,E,,*14
$IIRMB,A,,,,M   ,,,,,001.5,189,,V,A*7C
$HCHDG,50.9,0.0,E,,*15
$IIRMC,180000,A,4743.277,N,12224.889,W,05.3,070,210413,16,E,A*1C
$GPRMC,180036.6,A,4743.27748,N,12224.88779,W,005.41,071.6,210413,016.6,E,D*28
$PGRME,3.0,M,2.4,M,3.8,M*20
$YXXDR,A,4.7,D,PTCH,A,14.7,D,ROLL*6C
$HCHDG,50.9,0.0,E,,*15
$HCHDG,51.1,0.0,E,,*1C
$GPRMC,180036.8,A,4743.27757,N,12224.88736,W,005.42,071.8,210413,016.6,E,D*2E
$PGRME,3.0,M,2.4,M,3.8,M*20
$HCHDG,51.0,0.0,E,,*1D
$HCHDG,51.0,0.0,E,,*1D
$GPRMC,180037.0,A,4743.27766,N,12224.88692,W,005.66,073.4,210413,016.6,E,D*22
$GPRMB,A,-0.21,L,,M,4741.7720,N,12224.5760,W,1.5,189,-3.78,V*4B
$PGRME,3.0,M,2.4,M,3.8,M*20
$HCHDG,51.1,0.0,E,,*1C
$YXXDR,A,4.6,D,PTCH,A,14.7,D,ROLL*6D
$HCHDG,50.8,0.0,E,,*14
$IIVHW,,,,,05.7,N,,*1B
$GPRMC,180037.2,A,4743.27779,N,12224.88648,W,005.63,072.1,210413,016.6,E,D*28
$PGRME,3.0,M,2.4,M,3.8,M*20
$HCHDG,50.8,0.0,E,,*14
$IIVLW,06229,N,000.9,N*55
$HCHDG,51.0,0.0,E,,*1D
$IIGLL,4743.277,N,12224.887,W,180000,A,A*4D
$IIMTW,+09.0,C*31
$GPRMC,180037.4,A,4743.27792,N,12224.88603,W,005.45,073.3,210413,016.6,E,D*23
$PGRME,3.0,M,2.4,M,3.8,M*20
$HCHDG,51.2,0.0,E,,*1F
$IIRMB,A,,,,M   ,,,,,001.5,189,,V,A*7C
$HCHDG,51.1,0.0,E,,*1C
$IIRMC,180000,A,4743.277,N,12224.887,W,05.4,071,210413,16,E,A*14
$GPRMC,180037.6,A,4743.27800,N,12224.88559,W,005.61,073.7,210413,016.6,E,D*2B
$PGRME,3.0,M,2.4,M,3.8,M*20
$YXXDR,A,4.6,D,PTCH,A,14.7,D,ROLL*6D
$PTAK,FFD1,14.7*67
$HCHDG,51.3,0.0,E,,*1E
$HCHDG,51.2,0.0,E,,*1F
$GPRMC,180037.8,A,4743.27800,N,12224.88514,W,005.60,072.6,210413,016.6,E,D*2D
$PGRME,3.0,M,2.4,M,3.8,M*20
$HCHDG,51.5,0.0,E,,*18
$HCHDG,51.7,0.0,E,,*1A
$GPRMC,180038.0,A,4743.27804,N,12224.88467,W,005.56,074.3,210413,016.6,E,D*2D
$PTAK,FFP1,HEEL,@*07
$PGRME,3.0,M,2.4,M,3.8,M*20
$HCHDG,51.7,0.0,E,,*1A
$YXXDR,A,4.6,D,PTCH,A,15.6,D,ROLL*6D
$HCHDG,51.8,0.0,E,,*15
$IIVHW,,,,,05.7,N,,*1B
$GPRMC,180038.2,A,4743.27817,N,12224.88422,W,005.59,073.8,210413,016.6,E,D*2F
$GPRMB,A,-0.21,L,,M,4741.7720,N,12224.5760,W,1.5,189,-3.71,V*42
$PGRME,3.0,M,2.4,M,3.8,M*20
$HCHDG,52.0,0.0,E,,*1E
$IIVLW,06229,N,000.9,N*55
$HCHDG,52.2,0.0,E,,*1C
$IIGLL,4743.278,N,12224.885,W,180000,A,A*40
$IIMTW,+09.0,C*31
$GPRMC,180038.4,A,4743.27825,N,12224.88376,W,005.64,075.7,210413,016.6,E,D*29
$PGRME,3.0,M,2.4,M,3.8,M*20
$HCHDG,51.9,0.0,E,,*14
$IIRMB,A,,,,M   ,,,,,001.5,189,,V,A*7C
$HCHDG,52.2,0.0,E,,*1C
$IIRMC,180000,A,4743.278,N,12224.885,W,05.6,073,210413,16,E,A*19
$GPRMC,180038.6,A,4743.27828,N,12224.88333,W,005.66,074.9,210413,016.6,E,D*2A
$YXXDR,A,4.8,D,PTCH,A,15.6,D,ROLL*63
$PGRME,3.0,M,2.4,M,3.8,M*20
$HCHDG,52.2,0.0,E,,*1C
$HCHDG,52.2,0.0,E,,*1C
$GPRMC,180038.8,A,4743.27834,N,12224.88295,W,005.67,076.8,210413,016.6,E,D*26
$PGRME,3.0,M,2.4,M,3.8,M*20
$HCHDG,52.2,0.0,E,,*1C
$HCHDG,52.5,0.0,E,,*1B
$GPRMC,180039.0,A,4743.27842,N,12224.88250,W,005.70,077.4,210413,016.6,E,D*2C
$PGRME,3.0,M,2.4,M,3.8,M*20
$HCHDG,52.6,0.0,E,,*18
$YXXDR,A,4.6,D,PTCH,A,15.8,D,ROLL*63
$PTAK,FFD1,15.8*69
$HCHDG,52.8,0.0,E,,*16
$IIVHW,,,,,05.6,N,,*1A
$GPRMC,180039.2,A,4743.27843,N,12224.88212,W,005.69,076.1,210413,016.6,E,D*25
$PGRME,3.0,M,2.4,M,3.8,M*20
$HCHDG,53.0,0.0,E,,*1F
$IIVLW,06229,N,000.9,N*55
$HCHDG,53.0,0.0,E,,*1F
$IIGLL,4743.278,N,12224.883,W,180000,A,A*46
$IIMTW,+09.0,C*31
$GPRMC,180039.4,A,4743.27851,N,12224.88171,W,005.65,074.7,210413,016.6,E,D*2E
$GPRMB,A,-0.21,L,,M,4741.7720,N,12224.5760,W,1.5,189,-3.69,V*4B
$PGRME,3.0,M,2.4,M,3.8,M*20
$HCHDG,53.3,0.0,E,,*1C
$IIRMB,A,,,,M   ,,,,,001.5,189,,V,A*7C
$HCHDG,53.4,0.0,E,,*1B
$IIRMC,180000,A,4743.278,N,12224.883,W,05.6,074,210413,16,E,A*18
$GPRMC,180039.6,A,4743.27854,N,12224.88126,W,005.66,077.0,210413,016.6,E,D*2C
$YXXDR,A,4.4,D,PTCH,A,16.1,D,ROLL*6B
$PGRME,3.0,M,2.4,M,3.8,M*20
$HCHDG,53.7,0.0,E,,*18
$HCHDG,53.8,0.0,E,,*17
$GPRMC,180039.8,A,4743.27859,N,12224.88088,W,005.67,078.0,210413,016.6,E,D*24
$PGRME,3.0,M,2.4,M,3.9,M*21
$HCHDG,53.8,0.0,E,,*17
$HCHDG,53.8,0.0,E,,*17
$GPRMC,180040.0,A,4743.27868,N,12224.88049,W,005.66,074.8,210413,016.6,E,D*28
$PGRME,3.0,M,2.4,M,3.9,M*21
$HCHDG,53.9,0.0,E,,*16
$YXXDR,A,4.7,D,PTCH,A,15.5,D,ROLL*6F
$HCHDG,54.0,0.0,E,,*18
$IIVHW,,,,,05.8,N,,*14
$GPRMC,180040.2,A,4743.27873,N,12224.88014,W,005.69,077.9,210413,016.6,E,D*25
$PGRME,3.0,M,2.4,M,3.9,M*21
$HCHDG,54.0,0.0,E,,*18
$IIVLW,06229,N,000.9,N*55
$HCHDG,54.1,0.0,E,,*19
$IIGLL,4743.278,N,12224.881,W,180000,A,A*44
$IIMTW,+09.0,C*31
$GPRMC,180040.4,A,4743.27885,N,12224.87964,W,005.71,076.9,210413,016.6,E,D*23
$PGRME,3.0,M,2.4,M,3.8,M*20
$HCHDG,54.1,0.0,E,,*19
$IIRMB,A,,,,M   ,,,,,001.5,189,,V,A*7C
$HCHDG,54.5,0.0,E,,*1D
$IIRMC,180000,A,4743.278,N,12224.881,W,05.6,077,210413,16,E,A*19
$GPRMC,180040.6,A,4743.27891,N,12224.87915,W,005.71,077.7,210413,016.6,E,D*2D
$GPRMB,A,-0.20,L,,M,4741.7720,N,12224.5760,W,1.5,189,-3.50,V*40
$YXXDR,A,4.6,D,PTCH,A,16.3,D,ROLL*6B
$PTAK,FFD1,16.3*61
$PGRME,3.0,M,2.4,M,3.8,M*20
$HCHDG,54.7,0.0,E,,*1F
$HCHDG,54.8,0.0,E,,*10
$GPRMC,180040.8,A,4743.27895,N,12224.87874,W,005.97,078.2,210413,016.6,E,D*23
$PGRME,2.9,M,2.4,M,3.8,M*28
$HCHDG,55.0,0.0,E,,*19
$HCHDG,55.0,0.0,E,,*19
$GPRMC,180041.0,A,4743.27907,N,12224.87832,W,005.92,078.2,210413,016.6,E,D*27
$PGRME,2.9,M,2.4,M,3.8,M*28
$HCHDG,54.8,0.0,E,,*10
$YXXDR,A,4.6,D,PTCH,A,16.3,D,ROLL*6B
$HCHDG,54.9,0.0,E,,*11
$IIVHW,,,,,05.8,N,,*14
$GPRMC,180041.2,A,4743.27914,N,12224.87785,W,005.76,077.0,210413,016.6,E,D*23
$PGRME,2.9,M,2.4,M,3.8,M*28
$HCHDG,54.8,0.0,E,,*10
$IIVLW,06229,N,000.9,N*55
$HCHDG,54.7,0.0,E,,*1F
$IIGLL,4743.278,N,12224.879,W,180000,A,A*43
$IIMTW,+09.0,C*31
$GPRMC,180041.4,A,4743.27918,N,12224.87730,W,006.05,080.3,210413,016.6,E,D*2B
$PGRME,2.9,M,2.4,M,3.8,M*28
$HCHDG,54.9,0.0,E,,*11
$IIRMB,A,,,,M   ,,,,,001.5,189,,V,A*7C
$HCHDG,54.8,0.0,E,,*10
$IIRMC,180000,A,4743.278,N,12224.879,W,05.7,077,210413,16,E,A*1F
$GPRMC,180041.6,A,4743.27920,N,12224.87670,W,006.03,079.4,210413,016.6,E,D*20
$PGRME,2.9,M,2.4,M,3.8,M*28
$YXXDR,A,4.5,D,PTCH,A,16.5,D,ROLL*6E
$HCHDG,54.7,0.0,E,,*1F
$HCHDG,54.6,0.0,E,,*1E
$GPRMC,180041.8,A,4743.27923,N,12224.87621,W,006.06,080.7,210413,016.6,E,D*29
$GPRMB,A,-0.20,L,,M,4741.7720,N,12224.5760,W,1.5,189,-3.46,V*47
$PGRME,2.9,M,2.4,M,3.8,M*28
$HCHDG,54.5,0.0,E,,*1D
$PTAK,FFP1,HEEL,@*07
$HCHDG,54.3,0.0,E,,*1B
$GPRMC,180042.0,A,4743.27930,N,12224.87574,W,005.89,078.1,210413,016.6,E,D*26
$PGRME,2.9,M,2.4,M,3.8,M*28
$HCHDG,54.2,0.0,E,,*1A
$YXXDR,A,4.6,D,PTCH,A,17.1,D,ROLL*68
$PTAK,FFD1,17.1*62
$HCHDG,54.2,0.0,E,,*1A
$IIVHW,,,,,05.8,N,,*14
$GPRMC,180042.2,A,4743.27941,N,12224.87528,W,005.90,078.6,210413,016.6,E,D*24
$PGRME,2.9,M,2.4,M,3.8,M*28
$HCHDG,54.1,0.0,E,,*19
$IIVLW,06229,N,000.9,N*55
$HCHDG,54.4,0.0,E,,*1C
$IIGLL,4743.279,N,12224.876,W,180000,A,A*4D
$IIMTW,+09.0,C*31
$GPRMC,180042.4,A,4743.27947,N,12224.87479,W,005.87,078.6,210413,016.6,E,D*27
$PGRME,2.8,M,2.4,M,3.7,M*26
$HCHDG,54.2,0.0,E,,*1A
$IIRMB,A,,,,M   ,,,,,001.5,189,,V,A*7C
$HCHDG,54.3,0.0,E,,*1B
$IIRMC,180000,A,4743.279,N,12224.876,W,06.0,079,210413,16,E,A*1B
$GPRMC,180042.6,A,4743.27945,N,12224.87431,W,005.87,078.0,210413,016.6,E,D*2D
$YXXDR,A,4.6,D,PTCH,A,18.4,D,ROLL*62
$PGRME,2.8,M,2.4,M,3.7,M*26
$HCHDG,54.3,0.0,E,,*1B
$HCHDG,54.6,0.0,E,,*1E
$GPRMC,180042.8,A,4743.27956,N,12224.87391,W,005.83,077.8,210413,016.6,E,D*2F
$PGRME,2.8,M,2.4,M,3.7,M*26
$HCHDG,54.9,0.0,E,,*11
$HCHDG,55.0,0.0,E,,*19
$GPRMC,180043.0,A,4743.27961,N,12224.87339,W,005.79,079.6,210413,016.6,E,D*25
$GPRMB,A,-0.20,L,,M,4741.7720,N,12224.5760,W,1.5,189,-3.41,V*40
$PGRME,2.8,M,2.4,M,3.7,M*26
$HCHDG,55.1,0.0,E,,*18
$YXXDR,A,4.6,D,PTCH,A,19.8,D,ROLL*6F
$PTAK,FFD1,19.8*65
$HCHDG,55.1,0.0,E,,*18
$IIVHW,,,,,05.9,N,,*15
$GPRMC,180043.2,A,4743.27966,N,12224.87282,W,005.75,078.9,210413,016.6,E,D*23
$PGRME,2.8,M,2.4,M,3.7,M*26
$HCHDG,54.9,0.0,E,,*11
$IIVLW,06229,N,000.9,N*55
$HCHDG,55.1,0.0,E,,*18
$IIGLL,4743.279,N,12224.874,W,180000,A,A*4F
$IIMTW,+09.0,C*31
$GPRMC,180043.4,A,4743.27975,N,12224.87227,W,005.69,077.3,210413,016.6,E,D*20
$PGRME,2.8,M,2.4,M,3.7,M*26
$HCHDG,55.1,0.0,E,,*18
$IIRMB,A,,,,M   ,,,,,001.5,189,,V,A*7C
$HCHDG,55.0,0.0,E,,*19
$IIRMC,180000,A,4743.279,N,12224.874,W,05.8,078,210413,16,E,A*13
$GPRMC,180043.6,A,4743.27977,N,12224.87168,W,005.66,078.5,210413,016.6,E,D*2E
$YXXDR,A,4.3,D,PTCH,A,19.2,D,ROLL*60
$PGRME,2.8,M,2.4,M,3.7,M*26
$HCHDG,54.9,0.0,E,,*11
$HCHDG,55.0,0.0,E,,*19
$GPRMC,180043.8,A,4743.27980,N,12224.87110,W,005.67,078.8,210413,016.6,E,D*2B
$PGRME,2.8,M,2.4,M,3.7,M*26
$HCHDG,55.1,0.0,E,,*18
$HCHDG,55.1,0.0,E,,*18
$GPRMC,180044.0,A,4743.27981,N,12224.87057,W,005.67,078.2,210413,016.6,E,D*2D
$PGRME,2.8,M,2.4,M,3.7,M*26
$PGRMT,GPS 18x-5Hz software ver. 3.20,,,,,,,,*30
$HCHDG,55.3,0.0,E,,*1A
$YXXDR,A,4.4,D,PTCH,A,20.4,D,ROLL*6B
$HCHDG,55.3,0.0,E,,*1A
$IIVHW,,,,,05.9,N,,*15
$GPRMC,180044.2,A,4743.27985,N,12224.87011,W,005.68,076.1,210413,016.6,E,D*2B
$GPRMB,A,-0.20,L,,M,4741.7720,N,12224.5760,W,1.5,189,-3.62,V*41
$PGRME,2.8,M,2.4,M,3.7,M*26
$HCHDG,55.1,0.0,E,,*18
$IIVLW,06229,N,001.0,N*5D
$HCHDG,55.2,0.0,E,,*1B
$IIGLL,4743.279,N,12224.871,W,180000,A,A*4A
$IIMTW,+09.0,C*31
$GPRMC,180044.4,A,4743.27991,N,12224.86955,W,005.72,078.5,210413,016.6,E,D*21
$PGRME,2.8,M,2.4,M,3.7,M*26
$HCHDG,55.3,0.0,E,,*1A
$IIRMB,A,,,,M   ,,,,,001.5,189,,V,A*7C
$HCHDG,55.3,0.0,E,,*1A
$IIRMC,180000,A,4743.279,N,12224.871,W,05.6,078,210413,16,E,A*18
$GPRMC,180044.6,A,4743.28000,N,12224.86909,W,005.74,077.6,210413,016.6,E,D*2E
$YXXDR,A,4.5,D,PTCH,A,20.8,D,ROLL*66
$PTAK,FFD1,20.8*6F
$PGRME,2.8,M,2.4,M,3.7,M*26
$HCHDG,55.4,0.0,E,,*1D
$HCHDG,55.5,0.0,E,,*1C
$GPRMC,180044.8,A,4743.28009,N,12224.86857,W,005.78,077.8,210413,016.6,E,D*21
$PGRME,2.7,M,2.4,M,3.7,M*29
$HCHDG,55.7,0.0,E,,*1E
$HCHDG,55.8,0.0,E,,*11
$GPRMC,180045.0,A,4743.28015,N,12224.86804,W,005.83,078.3,210413,016.6,E,D*23
$PGRME,2.7,M,2.4,M,3.7,M*29
$HCHDG,55.8,0.0,E,,*11
$YXXDR,A,4.4,D,PTCH,A,20.3,D,ROLL*6C
$HCHDG,55.8,0.0,E,,*11
$IIVHW,,,,,05.9,N,,*15
$GPRMC,180045.2,A,4743.28025,N,12224.86740,W,005.88,077.7,210413,016.6,E,D*2D
$GPRMB,A,-0.20,L,,M,4741.7720,N,12224.5760,W,1.5,189,-3.63,V*40
$PGRME,2.7,M,2.4,M,3.7,M*29
$HCHDG,55.9,0.0,E,,*10
$IIVLW,06229,N,001.0,N*5D
$HCHDG,55.7,0.0,E,,*1E
$IIGLL,4743.280,N,12224.869,W,180000,A,A*45
$IIMTW,+09.0,C*31
$GPRMC,180045.4,A,4743.28037,N,12224.86679,W,005.92,079.2,210413,016.6,E,D*23
$PGRME,2.7,M,2.4,M,3.7,M*29
$HCHDG,55.8,0.0,E,,*11
$IIRMB,A,,,,M   ,,,,,001.5,189,,V,A*7C
$HCHDG,55.6,0.0,E,,*1F
$IIRMC,180000,A,4743.280,N,12224.869,W,05.7,077,210413,16,E,A*19
$GPRMC,180045.6,A,4743.28047,N,12224.86629,W,005.96,079.8,210413,016.6,E,D*2D
$YXXDR,A,4.6,D,PTCH,A,19.4,D,ROLL*63
$PTAK,FFD1,19.4*69
$PGRME,2.7,M,2.4,M,3.7,M*29
$HCHDG,55.5,0.0,E,,*1C
$HCHDG,55.4,0.0,E,,*1D
$GPRMC,180045.8,A,4743.28053,N,12224.86566,W,006.24,082.2,210413,016.6,E,D*2A
$PGRME,2.7,M,2.4,M,3.7,M*29
$HCHDG,55.3,0.0,E,,*1A
$HCHDG,55.1,0.0,E,,*18
$GPRMC,180046.0,A,4743.28062,N,12224.86508,W,006.27,083.6,210413,016.6,E,D*2D
$PGRME,2.7,M,2.4,M,3.7,M*29
$HCHDG,54.9,0.0,E,,*11
$PTAK,FFP1,HEEL,@*07
$YXXDR,A,4.7,D,PTCH,A,18.1,D,ROLL*66
$HCHDG,54.8,0.0,E,,*10
$IIVHW,,,,,06.0,N,,*1F
$GPRMC,180046.2,A,4743.28066,N,12224.86448,W,006.24,083.1,210413,016.6,E,D*2A
$PGRME,2.7,M,2.4,M,3.7,M*29
$HCHDG,54.6,0.0,E,,*1E
$IIVLW,06229,N,001.0,N*5D
$HCHDG,54.6,0.0,E,,*1E
$IIGLL,4743.280,N,12224.866,W,180000,A,A*4A
$IIMTW,+09.0,C*31
$GPRMC,180046.4,A,4743.28068,N,12224.86390,W,006.27,083.5,210413,016.6,E,D*27
$GPRMB,A,-0.19,L,,M,4741.7720,N,12224.5760,W,1.5,189,-3.36,V*4A
$PGRME,2.7,M,2.4,M,3.7,M*29
$HCHDG,54.7,0.0,E,,*1F
$IIRMB,A,,,,M   ,,,,,001.5,189,,V,A*7C
$HCHDG,54.4,0.0,E,,*1C
$IIRMC,180000,A,4743.280,N,12224.866,W,05.9,079,210413,16,E,A*16
$GPRMC,180046.6,A,4743.28073,N,12224.86339,W,006.28,084.3,210413,016.6,E,D*22
$PGRME,2.7,M,2.4,M,3.7,M*29
$YXXDR,A,4.6,D,PTCH,A,19.1,D,ROLL*66
$PTAK,FFD1,19.1*6C
$HCHDG,54.5,0.0,E,,*1D
$HCHDG,54.3,0.0,E,,*1B
$GPRMC,180046.8,A,4743.28078,N,12224.86282,W,006.29,083.6,210413,016.6,E,D*25
$PGRME,2.7,M,2.4,M,3.7,M*29
$HCHDG,54.2,0.0,E,,*1A
$HCHDG,54.0,0.0,E,,*18
$GPRMC,180047.0,A,4743.28079,N,12224.86228,W,006.06,080.9,210413,016.6,E,D*2C
$PGRME,2.7,M,2.4,M,3.7,M*29
$HCHDG,53.9,0.0,E,,*16
$YXXDR,A,4.7,D,PTCH,A,21.1,D,ROLL*6C
$HCHDG,53.7,0.0,E,,*18
$IIVHW,,,,,06.0,N,,*1F
$GPRMC,180047.2,A,4743.28079,N,12224.86175,W,006.07,079.8,210413,016.6,E,D*23
$PGRME,2.7,M,2.4,M,3.7,M*29
$HCHDG,53.9,0.0,E,,*16
$IIVLW,06229,N,001.0,N*5D
$HCHDG,53.7,0.0,E,,*18
$IIGLL,4743.280,N,12224.863,W,180000,A,A*4F
$IIMTW,+09.0,C*31
$GPRMC,180047.4,A,4743.28081,N,12224.86114,W,006.13,080.8,210413,016.6,E,D*26
$PGRME,2.7,M,2.4,M,3.7,M*29
$HCHDG,53.5,0.0,E,,*1A
$IIRMB,A,,,,M   ,,,,,001.5,189,,V,A*7C
$HCHDG,53.3,0.0,E,,*1C
$IIRMC,180000,A,4743.280,N,12224.863,W,06.2,084,210413,16,E,A*19
$GPRMC,180047.6,A,4743.28086,N,12224.86055,W,006.17,081.1,210413,016.6,E,D*2B
$GPRMB,A,-0.19,L,,M,4741.7720,N,12224.5760,W,1.5,189,-3.53,V*49
$YXXDR,A,4.7,D,PTCH,A,21.5,D,ROLL*68
$PTAK,FFD1,21.5*63
$PGRME,2.8,M,2.4,M,3.7,M*26
$HCHDG,53.0,0.0,E,,*1F
$HCHDG,52.8,0.0,E,,*16
$GPRMC,180047.8,A,4743.28092,N,12224.85997,W,006.18,081.1,210413,016.6,E,D*2B
$PGRME,2.8,M,2.4,M,3.7,M*26
$HCHDG,52.4,0.0,E,,*1A
$HCHDG,52.2,0.0,E,,*1C
$GPRMC,180048.0,A,4743.28101,N,12224.85944,W,006.12,079.8,210413,016.6,E,D*2D
$PGRME,2.8,M,2.4,M,3.7,M*26
$HCHDG,52.0,0.0,E,,*1E
$YXXDR,A,4.7,D,PTCH,A,21.5,D,ROLL*68
$HCHDG,51.8,0.0,E,,*15
$IIVHW,,,,,06.1,N,,*1E
$GPRMC,180048.2,A,4743.28111,N,12224.85891,W,006.13,078.0,210413,016.6,E,D*2F
$PGRME,2.8,M,2.4,M,3.7,M*26
$HCHDG,51.6,0.0,E,,*1B
$IIVLW,06229,N,001.0,N*5D
$HCHDG,51.7,0.0,E,,*1A
$IIGLL,4743.280,N,12224.860,W,180000,A,A*4C
$IIMTW,+09.0,C*31
$GPRMC,180048.4,A,4743.28121,N,12224.85836,W,006.10,075.4,210413,016.6,E,D*2D
$PGRME,2.8,M,2.4,M,3.7,M*26
$HCHDG,51.6,0.0,E,,*1B
$IIRMB,A,,,,M   ,,,,,001.5,189,,V,A*7C
$HCHDG,51.8,0.0,E,,*15
$IIRMC,180000,A,4743.280,N,12224.860,W,06.1,081,210413,16,E,A*1C
$GPRMC,180048.6,A,4743.28137,N,12224.85775,W,006.05,073.2,210413,016.6,E,D*24
$PGRME,2.8,M,2.4,M,3.7,M*26
$YXXDR,A,4.5,D,PTCH,A,23.2,D,ROLL*6F
$HCHDG,51.9,0.0,E,,*14
$HCHDG,52.0,0.0,E,,*1E
$GPRMC,180048.8,A,4743.28151,N,12224.85708,W,006.04,073.2,210413,016.6,E,D*21
$GPRMB,A,-0.19,L,,M,4741.7720,N,12224.5760,W,1.5,189,-4.11,V*48
$PGRME,2.8,M,2.4,M,3.7,M*26
$HCHDG,52.1,0.0,E,,*1F
$HCHDG,51.9,0.0,E,,*14
$GPRMC,180049.0,A,4743.28163,N,12224.85656,W,006.06,069.6,210413,016.6,E,D*2E
$PGRME,2.8,M,2.4,M,3.7,M*26
$HCHDG,51.8,0.0,E,,*15
$YXXDR,A,4.0,D,PTCH,A,22.7,D,ROLL*6E
$PTAK,FFD1,22.7*62
$HCHDG,51.8,0.0,E,,*15
$IIVHW,,,,,06.1,N,,*1E
$GPRMC,180049.2,A,4743.28173,N,12224.85607,W,006.02,071.6,210413,016.6,E,D*24
$PGRME,2.8,M,2.4,M,3.7,M*26
$HCHDG,51.6,0.0,E,,*1B
$IIVLW,06229,N,001.0,N*5D
$HCHDG,51.4,0.0,E,,*19
$IIGLL,4743.281,N,12224.857,W,180000,A,A*49
$IIMTW,+09.0,C*31
$GPRMC,180049.4,A,4743.28186,N,12224.85547,W,006.04,071.2,210413,016.6,E,D*2D
$PGRME,2.8,M,2.4,M,3.7,M*26
$HCHDG,51.4,0.0,E,,*19
$IIRMB,A,,,,M   ,,,,,001.5,189,,V,A*7C
$HCHDG,51.1,0.0,E,,*1C
$GPRMC,180049.6,A,4743.28201,N,12224.85489,W,006.06,071.7,210413,016.6,E,D*27
$IIRMC,180000,A,4743.281,N,12224.857,W,06.0,073,210413,16,E,A*15
$PGRME,2.8,M,2.4,M,3.7,M*26
$YXXDR,A,4.2,D,PTCH,A,21.5,D,ROLL*6D
$HCHDG,50.9,0.0,E,,*15
$HCHDG,50.8,0.0,E,,*14
$GPRMC,180049.8,A,4743.28217,N,12224.85436,W,006.07,068.9,210413,016.6,E,D*2D
$PGRME,2.8,M,2.4,M,3.7,M*26
$HCHDG,50.7,0.0,E,,*1B
$HCHDG,50.5,0.0,E,,*19
$GPRMC,180050.0,A,4743.28229,N,12224.85388,W,006.06,070.4,210413,016.6,E,D*27
$GPRMB,A,-0.19,L,,M,4741.7720,N,12224.5760,W,1.5,190,-4.34,V*47
$PGRME,2.8,M,2.4,M,3.7,M*26
$HCHDG,50.3,0.0,E,,*1F
$PTAK,FFP1,HEEL,@*07
$YXXDR,A,4.1,D,PTCH,A,20.7,D,ROLL*6D
$PTAK,FFD1,20.7*60
$HCHDG,50.1,0.0,E,,*1D
$IIVHW,,,,,06.2,N,,*1D
$GPRMC,180050.2,A,4743.28241,N,12224.85340,W,006.09,072.2,210413,016.6,E,D*24
$PGRME,2.8,M,2.4,M,3.7,M*26
$HCHDG,50.0,0.0,E,,*1C
$IIVLW,06229,N,001.0,N*5D
$HCHDG,49.9,0.0,E,,*1D
$IIGLL,4743.282,N,12224.854,W,180000,A,A*49
$IIMTW,+09.0,C*31
$GPRMC,180050.4,A,4743.28255,N,12224.85296,W,006.07,070.6,210413,016.6,E,D*25
$PGRME,2.8,M,2.4,M,3.7,M*26
$HCHDG,49.6,0.0,E,,*12
$IIRMB,A,,,,M   ,,,,,001.5,189,,V,A*7C
$HCHDG,49.4,0.0,E,,*10
$IIRMC,180000,A,4743.282,N,12224.854,W,06.0,068,210413,16,E,A*1F
$GPRMC,180050.6,A,4743.28269,N,12224.85251,W,006.06,070.6,210413,016.6,E,D*22
$PGRME,2.8,M,2.4,M,3.7,M*26
$YXXDR,A,4.4,D,PTCH,A,21.1,D,ROLL*6F
$HCHDG,49.4,0.0,E,,*10
$HCHDG,49.5,0.0,E,,*11
$GPRMC,180050.8,A,4743.28284,N,12224.85208,W,006.05,066.0,210413,016.6,E,D*21
$PGRME,2.8,M,2.4,M,3.7,M*26
$HCHDG,49.3,0.0,E,,*17
$HCHDG,49.2,0.0,E,,*16
$GPRMC,180051.0,A,4743.28298,N,12224.85159,W,006.02,070.4,210413,016.6,E,D*26
$PGRME,2.8,M,2.4,M,3.7,M*26
$HCHDG,49.1,0.0,E,,*15
$YXXDR,A,4.4,D,PTCH,A,21.7,D,ROLL*69
$HCHDG,49.0,0.0,E,,*14
$IIVHW,,,,,06.2,N,,*1D
$GPRMC,180051.2,A,4743.28312,N,12224.85111,W,005.97,070.8,210413,016.6,E,D*28
$GPRMB,A,-0.19,L,,M,4741.7720,N,12224.5760,W,1.5,190,-4.25,V*47
$PGRME,2.8,M,2.4,M,3.7,M*26
$HCHDG,48.9,0.0,E,,*1C
$IIVLW,06229,N,001.0,N*5D
$HCHDG,48.9,0.0,E,,*1C
$IIGLL,4743.282,N,12224.852,W,180000,A,A*4F
$IIMTW,+09.0,C*31
$GPRMC,180051.4,A,4743.28326,N,12224.85060,W,005.96,070.6,210413,016.6,E,D*21
$PGRME,2.8,M,2.4,M,3.7,M*26
$HCHDG,48.6,0.0,E,,*13
$IIRMB,A,,,,M   ,,,,,001.5,190,,V,A*74
$HCHDG,48.6,0.0,E,,*13
