$GPRMC,200000.4,A,4737.17207,N,12228.29016,W,006.51,226.5,130413,016.6,E*4B
$HCHDG,208.4,0.0,E,,*27
$IIRMC,195900,A,4737.173,N,12228.287,W,06.2,230,130413,16,E,A*18
$YXXDR,A,5.4,D,PTCH,A,17.6,D,ROLL*6C
$IIVHW,,,,,00.0,N,,*19
$GPRMC,200000.6,A,4737.17184,N,12228.29047,W,006.33,228.9,130413,016.6,E*43
$PTAK,FFP1,HEEL,@*07
$IIVLW,06210,N,000.0,N*56
$IIGLL,4737.173,N,12228.287,W,195900,A,A*42
$IIMTW,+08.0,C*30
$GPRMC,200000.8,A,4737.17162,N,12228.29088,W,006.40,230.0,130413,016.6,E*42
$HCHDG,208.7,0.0,E,,*24
$GPRMC,200001.0,A,4737.17138,N,12228.29131,W,006.37,228.9,130413,016.6,E*47
$YXXDR,A,4.8,D,PTCH,A,16.9,D,ROLL*6F
$GPRMC,200001.2,A,4737.17112,N,12228.29175,W,006.33,228.7,130413,016.6,E*47
$GPRMC,200001.4,A,4737.17091,N,12228.29213,W,006.32,232.8,130413,016.6,E*4D
$HCHDG,209.8,0.0,E,,*2A
$IIRMC,200000,A,4737.172,N,12228.289,W,06.2,227,130413,16,E,A*17
$YXXDR,A,5.4,D,PTCH,A,17.0,D,ROLL*6A
$IIVHW,,,,,00.0,N,,*19
$GPRMC,200001.6,A,4737.17067,N,12228.29250,W,006.31,230.7,130413,016.6,E*4F
$IIVLW,06210,N,000.0,N*56
$IIGLL,4737.172,N,12228.289,W,200000,A,A*4B
$IIMTW,+08.0,C*30
$GPRMC,200001.8,A,4737.17044,N,12228.29290,W,006.31,231.9,130413,016.6,E*43
$HCHDG,210.1,0.0,E,,*2B
$GPRMC,200002.0,A,4737.17019,N,12228.29338,W,006.28,232.3,130413,016.6,E*42
$YXXDR,A,3.7,D,PTCH,A,19.3,D,ROLL*62
$GPRMC,200002.2,A,4737.16997,N,12228.29383,W,006.29,236.2,130413,016.6,E*4A
$GPRMC,200002.4,A,4737.16979,N,12228.29425,W,006.27,237.1,130413,016.6,E*4B
$HCHDG,210.9,0.0,E,,*23
$IIRMC,200000,A,4737.171,N,12228.291,W,06.3,228,130413,16,E,A*13
$YXXDR,A,3.7,D,PTCH,A,19.6,D,ROLL*67
$IIVHW,,,,,00.0,N,,*19
$GPRMC,200002.6,A,4737.16957,N,12228.29469,W,006.30,234.8,130413,016.6,E*41
$IIVLW,06210,N,000.0,N*56
$IIGLL,4737.171,N,12228.291,W,200000,A,A*41
$IIMTW,+08.0,C*30
$GPRMC,200002.8,A,4737.16929,N,12228.29512,W,006.30,233.1,130413,016.6,E*45
$HCHDG,211.5,0.0,E,,*2E
$GPRMC,200003.0,A,4737.16901,N,12228.29558,W,006.46,232.0,130413,016.6,E*49
$YXXDR,A,4.8,D,PTCH,A,20.8,D,ROLL*6B
$GPRMC,200003.2,A,4737.16876,N,12228.29600,W,006.48,229.7,130413,016.6,E*47
$GPRMC,200003.4,A,4737.16852,N,12228.29644,W,006.80,231.1,130413,016.6,E*4C
$HCHDG,209.1,0.0,E,,*23
$IIRMC,200000,A,4737.169,N,12228.293,W,06.2,236,130413,16,E,A*16
$YXXDR,A,4.5,D,PTCH,A,24.2,D,ROLL*68
$IIVHW,,,,,00.0,N,,*19
$GPRMC,200003.6,A,4737.16829,N,12228.29684,W,006.52,231.3,130413,016.6,E*43
$IIVLW,06210,N,000.0,N*56
$IIGLL,4737.169,N,12228.293,W,200000,A,A*4A
$IIMTW,+08.0,C*30
$GPRMC,200003.8,A,4737.16803,N,12228.29728,W,006.68,231.5,130413,016.6,E*4D
$HCHDG,208.7,0.0,E,,*24
$GPRMC,200004.0,A,4737.16782,N,12228.29771,W,006.10,231.7,130413,016.6,E*45
$YXXDR,A,4.4,D,PTCH,A,24.2,D,ROLL*69
$GPRMC,200004.2,A,4737.16760,N,12228.29813,W,006.09,232.5,130413,016.6,E*49
$GPRMC,200004.4,A,4737.16739,N,12228.29855,W,006.07,233.0,130413,016.6,E*4B
$HCHDG,209.5,0.0,E,,*27
$IIRMC,200000,A,4737.168,N,12228.296,W,06.8,231,130413,16,E,A*1F
$YXXDR,A,5.5,D,PTCH,A,24.6,D,ROLL*6D
$IIVHW,,,,,00.0,N,,*19
$GPRMC,200004.6,A,4737.16717,N,12228.29900,W,006.26,230.4,130413,016.6,E*40
$PTAK,FFP1,HEEL,@*07
$IIVLW,06210,N,000.0,N*56
$IIGLL,4737.168,N,12228.296,W,200000,A,A*4E
$IIMTW,+08.0,C*30
$GPRMC,200004.8,A,4737.16694,N,12228.29942,W,006.32,229.0,130413,016.6,E*4B
$HCHDG,208.0,0.0,E,,*23
$GPRMC,200005.0,A,4737.16670,N,12228.29978,W,005.91,227.4,130413,016.6,E*41
$YXXDR,A,5.5,D,PTCH,A,28.4,D,ROLL*63
$GPRMC,200005.2,A,4737.16645,N,12228.30015,W,005.96,225.2,130413,016.6,E*4C
$GPRMC,200005.4,A,4737.16617,N,12228.30054,W,006.00,228.3,130413,016.6,E*48
$HCHDG,208.6,0.0,E,,*25
$IIRMC,200000,A,4737.167,N,12228.299,W,06.2,230,130413,16,E,A*14
$YXXDR,A,4.4,D,PTCH,A,26.7,D,ROLL*6E
$IIVHW,,,,,00.0,N,,*19
$GPRMC,200005.6,A,4737.16594,N,12228.30090,W,006.03,229.4,130413,016.6,E*4F
$IIVLW,06210,N,000.0,N*56
$IIGLL,4737.167,N,12228.299,W,200000,A,A*4E
$IIMTW,+08.0,C*30
$GPRMC,200005.8,A,4737.16570,N,12228.30132,W,005.84,232.1,130413,016.6,E*41
$HCHDG,212.3,0.0,E,,*2B
$GPRMC,200006.0,A,4737.16546,N,12228.30175,W,006.06,231.8,130413,016.6,E*4F
$YXXDR,A,4.1,D,PTCH,A,23.2,D,ROLL*6B
$GPRMC,200006.2,A,4737.16524,N,12228.30214,W,006.13,232.1,130413,016.6,E*43
$GPRMC,200006.4,A,4737.16502,N,12228.30248,W,005.76,233.1,130413,016.6,E*49
$HCHDG,211.7,0.0,E,,*2C
$IIRMC,200000,A,4737.165,N,12228.300,W,06.0,229,130413,16,E,A*1D
$YXXDR,A,4.1,D,PTCH,A,25.1,D,ROLL*6E
$IIVHW,,,,,00.0,N,,*19
$GPRMC,200006.6,A,4737.16484,N,12228.30286,W,006.00,233.4,130413,016.6,E*41
$IIVLW,06210,N,000.0,N*56
$IIGLL,4737.165,N,12228.300,W,200000,A,A*4D
$IIMTW,+08.0,C*30
$GPRMC,200006.8,A,4737.16467,N,12228.30323,W,006.60,233.1,130413,016.6,E*4F
$HCHDG,209.6,0.0,E,,*24
$GPRMC,200007.0,A,4737.16448,N,12228.30372,W,006.64,230.4,130413,016.6,E*4D
$YXXDR,A,3.9,D,PTCH,A,26.6,D,ROLL*65
$GPRMC,200007.2,A,4737.16425,N,12228.30409,W,006.30,231.2,130413,016.6,E*49
$GPRMC,200007.4,A,4737.16399,N,12228.30439,W,006.34,228.7,130413,016.6,E*45
$HCHDG,208.1,0.0,E,,*22
$IIRMC,200000,A,4737.164,N,12228.302,W,06.0,233,130413,16,E,A*15
$YXXDR,A,5.0,D,PTCH,A,26.6,D,ROLL*6A
$IIVHW,,,,,00.0,N,,*19
$GPRMC,200007.6,A,4737.16385,N,12228.30445,W,006.15,227.2,130413,016.6,E*48
$IIVLW,06210,N,000.0,N*56
$IIGLL,4737.164,N,12228.302,W,200000,A,A*4E
$IIMTW,+08.0,C*30
$GPRMC,200007.8,A,4737.16371,N,12228.30455,W,006.35,224.9,130413,016.6,E*46
$HCHDG,204.9,0.0,E,,*26
$GPRMC,200008.0,A,4737.16347,N,12228.30491,W,006.40,220.2,130413,016.6,E*41
$YXXDR,A,5.2,D,PTCH,A,27.9,D,ROLL*66
$GPRMC,200008.2,A,4737.16323,N,12228.30528,W,006.40,223.1,130413,016.6,E*42
$GPRMC,200008.4,A,4737.16299,N,12228.30559,W,006.42,223.7,130413,016.6,E*46
$HCHDG,204.8,0.0,E,,*27
$IIRMC,200000,A,4737.163,N,12228.304,W,06.1,227,130413,16,E,A*10
$YXXDR,A,5.1,D,PTCH,A,23.0,D,ROLL*68
$IIVHW,,,,,00.0,N,,*19
$GPRMC,200008.6,A,4737.16275,N,12228.30594,W,006.65,221.8,130413,016.6,E*4F
$PTAK,FFP1,HEEL,@*07
$IIVLW,06210,N,000.0,N*56
$IIGLL,4737.163,N,12228.304,W,200000,A,A*4F
$IIMTW,+08.0,C*30
$GPRMC,200008.8,A,4737.16256,N,12228.30635,W,006.42,225.5,130413,016.6,E*44
$HCHDG,206.7,0.0,E,,*2A
$GPRMC,200009.0,A,4737.16234,N,12228.30674,W,006.75,224.1,130413,016.6,E*4D
$YXXDR,A,4.6,D,PTCH,A,20.9,D,ROLL*64
$GPRMC,200009.2,A,4737.16210,N,12228.30715,W,006.76,224.1,130413,016.6,E*4C
$GPRMC,200009.4,A,4737.16184,N,12228.30752,W,006.80,225.8,130413,016.6,E*46
$HCHDG,208.4,0.0,E,,*27
$IIRMC,200000,A,4737.162,N,12228.305,W,06.6,221,130413,16,E,A*11
$YXXDR,A,5.5,D,PTCH,A,21.3,D,ROLL*6D
$IIVHW,,,,,00.0,N,,*19
$GPRMC,200009.6,A,4737.16158,N,12228.30796,W,007.25,228.0,130413,016.6,E*46
$IIVLW,06210,N,000.0,N*56
$IIGLL,4737.162,N,12228.305,W,200000,A,A*4F
$IIMTW,+08.0,C*30
$GPRMC,200009.8,A,4737.16138,N,12228.30848,W,007.28,231.6,130413,016.6,E*41
$HCHDG,210.7,0.0,E,,*2D
$GPRMC,200010.0,A,4737.16114,N,12228.30898,W,007.74,235.8,130413,016.6,E*41
$YXXDR,A,5.0,D,PTCH,A,20.0,D,ROLL*6A
$GPRMC,200010.2,A,4737.16088,N,12228.30943,W,007.06,236.1,130413,016.6,E*4F
$GPRMC,200010.4,A,4737.16069,N,12228.30986,W,006.65,240.3,130413,016.6,E*48
$HCHDG,213.0,0.0,E,,*29
$IIRMC,200000,A,4737.161,N,12228.307,W,07.2,228,130413,16,E,A*1C
$YXXDR,A,3.7,D,PTCH,A,19.8,D,ROLL*69
$IIVHW,,,,,00.0,N,,*19
$GPRMC,200010.6,A,4737.16050,N,12228.31023,W,006.02,236.3,130413,016.6,E*47
$IIVLW,06210,N,000.0,N*56
$IIGLL,4737.161,N,12228.307,W,200000,A,A*4E
$IIMTW,+08.0,C*30
$GPRMC,200010.8,A,4737.16027,N,12228.31061,W,005.58,234.1,130413,016.6,E*43
$HCHDG,210.5,0.0,E,,*2F
$GPRMC,200011.0,A,4737.15998,N,12228.31097,W,005.75,226.5,130413,016.6,E*45
$YXXDR,A,5.0,D,PTCH,A,27.5,D,ROLL*68
$GPRMC,200011.2,A,4737.15961,N,12228.31133,W,006.55,223.5,130413,016.6,E*4A
$GPRMC,200011.4,A,4737.15931,N,12228.31171,W,006.95,222.2,130413,016.6,E*45
$HCHDG,206.3,0.0,E,,*2E
$IIRMC,200000,A,4737.160,N,12228.310,W,06.0,236,130413,16,E,A*17
$YXXDR,A,4.9,D,PTCH,A,29.7,D,ROLL*6C
$IIVHW,,,,,00.0,N,,*19
$GPRMC,200011.6,A,4737.15905,N,12228.31218,W,007.00,226.4,130413,016.6,E*43
$IIVLW,06210,N,000.0,N*56
$IIGLL,4737.160,N,12228.310,W,200000,A,A*49
$IIMTW,+08.0,C*30
$GPRMC,200011.8,A,4737.15878,N,12228.31262,W,007.07,230.1,130413,016.6,E*4E
$HCHDG,208.9,0.0,E,,*2A
$GPRMC,200012.0,A,4737.15852,N,12228.31308,W,007.13,231.9,130413,016.6,E*4C
$YXXDR,A,3.6,D,PTCH,A,23.2,D,ROLL*6B
$GPRMC,200012.2,A,4737.15827,N,12228.31358,W,007.15,234.4,130413,016.6,E*47
$GPRMC,200012.4,A,4737.15803,N,12228.31398,W,006.85,234.7,130413,016.6,E*40
$HCHDG,210.5,0.0,E,,*2F
$IIRMC,200000,A,4737.159,N,12228.312,W,07.0,226,130413,16,E,A*1F
$YXXDR,A,5.5,D,PTCH,A,22.5,D,ROLL*68
$IIVHW,,,,,00.0,N,,*19
$GPRMC,200012.6,A,4737.15779,N,12228.31438,W,006.91,232.4,130413,016.6,E*4D
$IIVLW,06210,N,000.0,N*56
$IIGLL,4737.159,N,12228.312,W,200000,A,A*41
$IIMTW,+08.0,C*30
$GPRMC,200012.8,A,4737.15751,N,12228.31479,W,007.11,229.7,130413,016.6,E*4C
$PTAK,FFP1,HEEL,@*07
$HCHDG,205.0,0.0,E,,*2E
$GPRMC,200013.0,A,4737.15729,N,12228.31515,W,006.63,226.8,130413,016.6,E*45
$YXXDR,A,5.8,D,PTCH,A,29.4,D,ROLL*6F
$GPRMC,200013.2,A,4737.15703,N,12228.31547,W,006.57,227.1,130413,016.6,E*47
$GPRMC,200013.4,A,4737.15673,N,12228.31594,W,006.63,224.1,130413,016.6,E*4D
$HCHDG,202.8,0.0,E,,*21
$IIRMC,200000,A,4737.157,N,12228.314,W,06.9,232,130413,16,E,A*1A
$YXXDR,A,5.2,D,PTCH,A,26.8,D,ROLL*66
$IIVHW,,,,,00.0,N,,*19
$GPRMC,200013.6,A,4737.15644,N,12228.31633,W,006.65,223.1,130413,016.6,E*44
$IIVLW,06210,N,000.0,N*56
$IIGLL,4737.157,N,12228.314,W,200000,A,A*49
$IIMTW,+08.0,C*30
$GPRMC,200013.8,A,4737.15619,N,12228.31652,W,006.59,220.7,130413,016.6,E*4F
$HCHDG,201.6,0.0,E,,*2C
$GPRMC,200014.0,A,4737.15591,N,12228.31686,W,006.59,221.3,130413,016.6,E*4F
$YXXDR,A,5.2,D,PTCH,A,24.4,D,ROLL*68
$GPRMC,200014.2,A,4737.15564,N,12228.31719,W,006.77,221.7,130413,016.6,E*48
$GPRMC,200014.4,A,4737.15536,N,12228.31761,W,007.01,221.6,130413,016.6,E*47
$HCHDG,203.3,0.0,E,,*2B
$IIRMC,200000,A,4737.156,N,12228.316,W,06.6,223,130413,16,E,A*16
$YXXDR,A,4.7,D,PTCH,A,19.6,D,ROLL*60
$IIVHW,,,,,00.0,N,,*19
$GPRMC,200014.6,A,4737.15507,N,12228.31794,W,006.94,223.3,130413,016.6,E*47
$IIVLW,06210,N,000.0,N*56
$IIGLL,4737.156,N,12228.316,W,200000,A,A*4A
$IIMTW,+08.0,C*30
$GPRMC,200014.8,A,4737.15483,N,12228.31838,W,006.59,226.6,130413,016.6,E*4C
$HCHDG,207.3,0.0,E,,*2F
$GPRMC,200015.0,A,4737.15456,N,12228.31880,W,006.60,226.6,130413,016.6,E*44
$YXXDR,A,4.3,D,PTCH,A,16.2,D,ROLL*6F
$GPRMC,200015.2,A,4737.15431,N,12228.31924,W,006.52,226.6,130413,016.6,E*49
$GPRMC,200015.4,A,4737.15408,N,12228.31966,W,006.45,228.1,130413,016.6,E*4C
$HCHDG,210.5,0.0,E,,*2F
$IIRMC,200000,A,4737.155,N,12228.317,W,06.9,223,130413,16,E,A*1B
$YXXDR,A,4.8,D,PTCH,A,15.6,D,ROLL*63
$IIVHW,,,,,00.0,N,,*19
$GPRMC,200015.6,A,4737.15380,N,12228.32013,W,006.39,229.7,130413,016.6,E*4D
$IIVLW,06210,N,000.0,N*56
$IIGLL,4737.155,N,12228.317,W,200000,A,A*48
$IIMTW,+08.0,C*30
$GPRMC,200015.8,A,4737.15356,N,12228.32056,W,006.39,229.9,130413,016.6,E*47
$HCHDG,209.2,0.0,E,,*20
$GPRMC,200016.0,A,4737.15329,N,12228.32103,W,006.39,226.7,130413,016.6,E*44
$YXXDR,A,4.5,D,PTCH,A,18.9,D,ROLL*6C
$GPRMC,200016.2,A,4737.15302,N,12228.32148,W,006.40,228.4,130413,016.6,E*43
$GPRMC,200016.4,A,4737.15274,N,12228.32195,W,006.72,226.9,130413,016.6,E*47
$HCHDG,209.2,0.0,E,,*20
$IIRMC,200000,A,4737.153,N,12228.320,W,06.3,229,130413,16,E,A*19
$YXXDR,A,5.7,D,PTCH,A,18.7,D,ROLL*61
$IIVHW,,,,,00.0,N,,*19
$GPRMC,200016.6,A,4737.15245,N,12228.32242,W,006.96,225.8,130413,016.6,E*46
$IIVLW,06210,N,000.0,N*56
$IIGLL,4737.153,N,12228.320,W,200000,A,A*4A
$IIMTW,+08.0,C*30
$GPRMC,200016.8,A,4737.15219,N,12228.32285,W,006.92,225.6,130413,016.6,E*40
$PTAK,FFP1,HEEL,@*07
$HCHDG,207.1,0.0,E,,*2D
$GPRMC,200017.0,A,4737.15190,N,12228.32329,W,006.94,226.5,130413,016.6,E*4A
$YXXDR,A,5.1,D,PTCH,A,20.5,D,ROLL*6E
$GPRMC,200017.2,A,4737.15165,N,12228.32374,W,006.74,226.4,130413,016.6,E*45
$GPRMC,200017.4,A,4737.15138,N,12228.32420,W,006.80,226.4,130413,016.6,E*46
$HCHDG,208.0,0.0,E,,*23
$IIRMC,200000,A,4737.152,N,12228.322,W,06.9,225,130413,16,E,A*1C
$YXXDR,A,4.8,D,PTCH,A,18.3,D,ROLL*6B
$IIVHW,,,,,00.0,N,,*19
$GPRMC,200017.6,A,4737.15118,N,12228.32469,W,006.29,229.2,130413,016.6,E*41
$IIVLW,06210,N,000.0,N*56
$IIGLL,4737.152,N,12228.322,W,200000,A,A*49
$IIMTW,+08.0,C*30
$GPRMC,200017.8,A,4737.15095,N,12228.32519,W,006.59,229.5,130413,016.6,E*4D
$HCHDG,211.3,0.0,E,,*28
$GPRMC,200018.0,A,4737.15077,N,12228.32567,W,006.81,229.5,130413,016.6,E*4A
$YXXDR,A,5.6,D,PTCH,A,16.5,D,ROLL*6C
$GPRMC,200018.2,A,4737.15054,N,12228.32610,W,006.79,230.1,130413,016.6,E*41
$GPRMC,200018.4,A,4737.15031,N,12228.32664,W,006.86,230.8,130413,016.6,E*4E
$HCHDG,213.1,0.0,E,,*28
$IIRMC,200000,A,4737.151,N,12228.324,W,06.2,229,130413,16,E,A*1E
$YXXDR,A,4.5,D,PTCH,A,16.1,D,ROLL*6A
$IIVHW,,,,,00.0,N,,*19
$GPRMC,200018.6,A,4737.15008,N,12228.32716,W,007.14,232.5,130413,016.6,E*47
$IIVLW,06210,N,000.0,N*56
$IIGLL,4737.151,N,12228.324,W,200000,A,A*4C
$IIMTW,+08.0,C*30
$GPRMC,200018.8,A,4737.14988,N,12228.32763,W,006.97,233.9,130413,016.6,E*4C
$HCHDG,215.5,0.0,E,,*2A
$GPRMC,200019.0,A,4737.14965,N,12228.32810,W,006.71,231.6,130413,016.6,E*48
$YXXDR,A,4.5,D,PTCH,A,15.1,D,ROLL*69
$GPRMC,200019.2,A,4737.14943,N,12228.32846,W,006.69,227.8,130413,016.6,E*4D
$GPRMC,200019.4,A,4737.14925,N,12228.32896,W,006.69,229.1,130413,016.6,E*41
$HCHDG,213.3,0.0,E,,*2A
$IIRMC,200000,A,4737.150,N,12228.327,W,07.1,232,130413,16,E,A*14
$YXXDR,A,5.8,D,PTCH,A,20.4,D,ROLL*66
$IIVHW,,,,,00.0,N,,*19
$GPRMC,200019.6,A,4737.14908,N,12228.32937,W,006.63,230.4,130413,016.6,E*41
$IIVLW,06210,N,000.0,N*56
$IIGLL,4737.150,N,12228.327,W,200000,A,A*4E
$IIMTW,+08.0,C*30
$GPRMC,200019.8,A,4737.14891,N,12228.32976,W,006.65,231.0,130413,016.6,E*48
$HCHDG,210.9,0.0,E,,*23
$GPRMC,200020.0,A,4737.14880,N,12228.33013,W,006.40,231.8,130413,016.6,E*4E
$YXXDR,A,5.0,D,PTCH,A,22.3,D,ROLL*6B
$GPRMC,200020.2,A,4737.14867,N,12228.33056,W,006.14,233.3,130413,016.6,E*4C
$GPRMC,200020.4,A,4737.14852,N,12228.33102,W,005.92,235.6,130413,016.6,E*42
$HCHDG,213.0,0.0,E,,*29
$IIRMC,200000,A,4737.149,N,12228.329,W,06.6,230,130413,16,E,A*16
$YXXDR,A,5.1,D,PTCH,A,18.9,D,ROLL*69
$IIVHW,,,,,00.0,N,,*19
$GPRMC,200020.6,A,4737.14835,N,12228.33145,W,005.61,236.0,130413,016.6,E*4B
$IIVLW,06210,N,000.0,N*56
$IIGLL,4737.149,N,12228.329,W,200000,A,A*48
$IIMTW,+08.0,C*30
$GPRMC,200020.8,A,4737.14815,N,12228.33200,W,006.11,235.6,130413,016.6,E*44
$PTAK,FFP1,HEEL,@*07
$HCHDG,213.2,0.0,E,,*2B
$GPRMC,200021.0,A,4737.14795,N,12228.33247,W,006.29,234.0,130413,016.6,E*45
$YXXDR,A,4.5,D,PTCH,A,19.9,D,ROLL*6D
$GPRMC,200021.2,A,4737.14774,N,12228.33290,W,006.29,231.6,130413,016.6,E*41
$GPRMC,200021.4,A,4737.14754,N,12228.33331,W,006.22,233.6,130413,016.6,E*46
$HCHDG,211.7,0.0,E,,*2C
$IIRMC,200000,A,4737.148,N,12228.331,W,05.6,236,130413,16,E,A*1B
$YXXDR,A,4.6,D,PTCH,A,23.3,D,ROLL*6D
$IIVHW,,,,,00.0,N,,*19
$GPRMC,200021.6,A,4737.14730,N,12228.33372,W,006.24,230.0,130413,016.6,E*42
$IIVLW,06210,N,000.0,N*56
$IIGLL,4737.148,N,12228.331,W,200000,A,A*40
$IIMTW,+08.0,C*30
$GPRMC,200021.8,A,4737.14710,N,12228.33412,W,006.40,230.0,130413,016.6,E*4D
$HCHDG,210.8,0.0,E,,*22
$GPRMC,200022.0,A,4737.14683,N,12228.33456,W,006.57,229.6,130413,016.6,E*45
$YXXDR,A,4.8,D,PTCH,A,24.3,D,ROLL*64
$GPRMC,200022.2,A,4737.14661,N,12228.33499,W,006.52,229.7,130413,016.6,E*4C
$GPRMC,200022.4,A,4737.14638,N,12228.33542,W,006.48,230.2,130413,016.6,E*47
$HCHDG,210.2,0.0,E,,*28
$IIRMC,200000,A,4737.147,N,12228.333,W,06.2,230,130413,16,E,A*17
$YXXDR,A,4.4,D,PTCH,A,23.6,D,ROLL*6A
$IIVHW,,,,,00.0,N,,*19
$GPRMC,200022.6,A,4737.14619,N,12228.33585,W,006.55,230.7,130413,016.6,E*44
$IIVLW,06210,N,000.0,N*56
$IIGLL,4737.147,N,12228.333,W,200000,A,A*4D
$IIMTW,+08.0,C*30
$GPRMC,200022.8,A,4737.14597,N,12228.33627,W,006.55,230.8,130413,016.6,E*4B
$HCHDG,210.4,0.0,E,,*2E
$GPRMC,200023.0,A,4737.14577,N,12228.33669,W,006.49,233.6,130413,016.6,E*46
$YXXDR,A,3.9,D,PTCH,A,22.5,D,ROLL*62
$GPRMC,200023.2,A,4737.14554,N,12228.33718,W,006.72,231.5,130413,016.6,E*4B
$GPRMC,200023.4,A,4737.14533,N,12228.33762,W,006.36,232.6,130413,016.6,E*41
$HCHDG,210.5,0.0,E,,*2F
$IIRMC,200000,A,4737.147,N,12228.333,W,06.2,230,130413,16,E,A*17
$YXXDR,A,5.2,D,PTCH,A,22.4,D,ROLL*6E
$IIVHW,,,,,00.0,N,,*19
$GPRMC,200023.6,A,4737.14511,N,12228.33808,W,006.81,230.3,130413,016.6,E*4B
$IIVLW,06210,N,000.0,N*56
$IIGLL,4737.147,N,12228.333,W,200000,A,A*4D
$IIMTW,+08.0,C*30
$GPRMC,200023.8,A,4737.14488,N,12228.33849,W,006.75,230.0,130413,016.6,E*49
$HCHDG,207.9,0.0,E,,*25
$GPRMC,200024.0,A,4737.14464,N,12228.33889,W,006.73,231.1,130413,016.6,E*4E
$YXXDR,A,5.2,D,PTCH,A,24.8,D,ROLL*64
$GPRMC,200024.2,A,4737.14438,N,12228.33933,W,006.76,230.2,130413,016.6,E*42
$GPRMC,200024.4,A,4737.14417,N,12228.33974,W,006.30,232.0,130413,016.6,E*48
$HCHDG,208.2,0.0,E,,*21
$IIRMC,200000,A,4737.144,N,12228.338,W,06.7,230,130413,16,E,A*1A
$YXXDR,A,4.8,D,PTCH,A,22.9,D,ROLL*68
$IIVHW,,,,,00.0,N,,*19
$GPRMC,200024.6,A,4737.14397,N,12228.34011,W,005.96,231.3,130413,016.6,E*47
$IIVLW,06210,N,000.0,N*56
$IIGLL,4737.144,N,12228.338,W,200000,A,A*45
$IIMTW,+08.0,C*30
$GPRMC,200024.8,A,4737.14377,N,12228.34048,W,005.52,231.5,130413,016.6,E*45
$HCHDG,207.7,0.0,E,,*2B
$PTAK,FFP1,HEEL,@*07
$GPRMC,200025.0,A,4737.14365,N,12228.34070,W,005.45,225.7,130413,016.6,E*45
$YXXDR,A,5.4,D,PTCH,A,23.4,D,ROLL*69
$GPRMC,200025.2,A,4737.14343,N,12228.34102,W,005.61,223.8,130413,016.6,E*48
$GPRMC,200025.4,A,4737.14315,N,12228.34145,W,006.62,225.1,130413,016.6,E*41
$HCHDG,206.6,0.0,E,,*2B
$IIRMC,200000,A,4737.143,N,12228.340,W,05.5,231,130413,16,E,A*12
$YXXDR,A,4.8,D,PTCH,A,23.5,D,ROLL*65
$IIVHW,,,,,00.0,N,,*19
$GPRMC,200025.6,A,4737.14289,N,12228.34187,W,006.79,226.3,130413,016.6,E*42
$IIVLW,06210,N,000.0,N*56
$IIGLL,4737.143,N,12228.340,W,200000,A,A*4D
$IIMTW,+08.0,C*30
$GPRMC,200025.8,A,4737.14262,N,12228.34235,W,006.98,230.1,130413,016.6,E*49
$HCHDG,210.5,0.0,E,,*2F
$GPRMC,200026.0,A,4737.14239,N,12228.34284,W,007.20,230.1,130413,016.6,E*44
$YXXDR,A,4.0,D,PTCH,A,18.0,D,ROLL*60
$GPRMC,200026.2,A,4737.14213,N,12228.34329,W,006.85,231.9,130413,016.6,E*4F
$GPRMC,200026.4,A,4737.14189,N,12228.34373,W,007.08,231.9,130413,016.6,E*42
$HCHDG,211.8,0.0,E,,*23
$IIRMC,200000,A,4737.142,N,12228.342,W,06.9,230,130413,16,E,A*1F
$YXXDR,A,4.9,D,PTCH,A,20.7,D,ROLL*65
$IIVHW,,,,,00.0,N,,*19
$GPRMC,200026.6,A,4737.14162,N,12228.34424,W,007.13,232.4,130413,016.6,E*44
$IIVLW,06210,N,000.0,N*56
$IIGLL,4737.142,N,12228.342,W,200000,A,A*4E
$IIMTW,+08.0,C*30
$GPRMC,200026.8,A,4737.14143,N,12228.34476,W,007.41,232.5,130413,016.6,E*48
$HCHDG,210.3,0.0,E,,*29
$GPRMC,200027.0,A,4737.14122,N,12228.34520,W,006.89,233.6,130413,016.6,E*43
$YXXDR,A,5.2,D,PTCH,A,23.2,D,ROLL*69
$GPRMC,200027.2,A,4737.14098,N,12228.34572,W,007.18,233.4,130413,016.6,E*4D
$GPRMC,200027.4,A,4737.14073,N,12228.34619,W,007.00,232.4,130413,016.6,E*48
$HCHDG,209.1,0.0,E,,*23
$IIRMC,200000,A,4737.141,N,12228.344,W,07.4,232,130413,16,E,A*14
$YXXDR,A,5.1,D,PTCH,A,24.3,D,ROLL*6C
$IIVHW,,,,,00.0,N,,*19
$GPRMC,200027.6,A,4737.14049,N,12228.34660,W,006.73,230.9,130413,016.6,E*47
$IIVLW,06210,N,000.0,N*56
$IIGLL,4737.141,N,12228.344,W,200000,A,A*4B
$IIMTW,+08.0,C*30
$GPRMC,200027.8,A,4737.14024,N,12228.34704,W,006.47,230.1,130413,016.6,E*4E
$HCHDG,206.8,0.0,E,,*25
$GPRMC,200028.0,A,4737.13995,N,12228.34750,W,006.83,227.9,130413,016.6,E*4A
$YXXDR,A,4.4,D,PTCH,A,26.2,D,ROLL*6B
$GPRMC,200028.2,A,4737.13969,N,12228.34791,W,006.82,226.1,130413,016.6,E*4E
$GPRMC,200028.4,A,4737.13942,N,12228.34829,W,006.84,225.6,130413,016.6,E*4F
$HCHDG,206.6,0.0,E,,*2B
$IIRMC,200000,A,4737.140,N,12228.347,W,06.4,230,130413,16,E,A*15
$YXXDR,A,5.1,D,PTCH,A,24.6,D,ROLL*69
$IIVHW,,,,,00.0,N,,*19
$GPRMC,200028.6,A,4737.13920,N,12228.34865,W,006.84,224.9,130413,016.6,E*4F
$IIVLW,06210,N,000.0,N*56
$IIGLL,4737.140,N,12228.347,W,200000,A,A*49
$IIMTW,+08.0,C*30
$GPRMC,200028.8,A,4737.13891,N,12228.34906,W,007.34,225.1,130413,016.6,E*4D
$HCHDG,208.6,0.0,E,,*25
$GPRMC,200029.0,A,4737.13867,N,12228.34943,W,007.27,226.8,130413,016.6,E*44
$PTAK,FFP1,HEEL,@*07
$YXXDR,A,4.8,D,PTCH,A,21.5,D,ROLL*67
$GPRMC,200029.2,A,4737.13840,N,12228.34989,W,007.51,229.2,130413,016.6,E*41
$GPRMC,200029.4,A,4737.13813,N,12228.35040,W,007.51,231.6,130413,016.6,E*41
$HCHDG,210.6,0.0,E,,*2C
$IIRMC,200000,A,4737.138,N,12228.349,W,07.2,226,130413,16,E,A*14
$YXXDR,A,3.8,D,PTCH,A,19.3,D,ROLL*6D
$IIVHW,,,,,00.0,N,,*19
$GPRMC,200029.6,A,4737.13790,N,12228.35093,W,007.30,232.0,130413,016.6,E*4B
$IIVLW,06210,N,000.0,N*56
$IIGLL,4737.138,N,12228.349,W,200000,A,A*48
$IIMTW,+08.0,C*30
$GPRMC,200029.8,A,4737.13770,N,12228.35139,W,006.66,234.9,130413,016.6,E*47
$HCHDG,211.6,0.0,E,,*2D
$GPRMC,200030.0,A,4737.13744,N,12228.35183,W,006.41,234.5,130413,016.6,E*48
$YXXDR,A,5.1,D,PTCH,A,20.5,D,ROLL*6E
$GPRMC,200030.2,A,4737.13718,N,12228.35221,W,006.14,232.2,130413,016.6,E*49
$GPRMC,200030.4,A,4737.13694,N,12228.35255,W,006.20,229.0,130413,016.6,E*46
$HCHDG,207.0,0.0,E,,*2C
$IIRMC,200000,A,4737.137,N,12228.351,W,06.4,234,130413,16,E,A*16
$YXXDR,A,5.8,D,PTCH,A,26.4,D,ROLL*60
$IIVHW,,,,,00.0,N,,*19
$GPRMC,200030.6,A,4737.13673,N,12228.35286,W,006.17,226.6,130413,016.6,E*4E
$IIVLW,06210,N,000.0,N*56
$IIGLL,4737.137,N,12228.351,W,200000,A,A*4E
$IIMTW,+08.0,C*30
$GPRMC,200030.8,A,4737.13650,N,12228.35323,W,006.22,225.9,130413,016.6,E*45
$HCHDG,205.4,0.0,E,,*2A
$GPRMC,200031.0,A,4737.13629,N,12228.35362,W,006.49,226.5,130413,016.6,E*45
$YXXDR,A,5.2,D,PTCH,A,24.2,D,ROLL*6E
$GPRMC,200031.2,A,4737.13602,N,12228.35407,W,006.86,227.4,130413,016.6,E*49
$GPRMC,200031.4,A,4737.13581,N,12228.35449,W,006.51,226.8,130413,016.6,E*4A
$HCHDG,208.2,0.0,E,,*21
$IIRMC,200000,A,4737.136,N,12228.353,W,06.4,226,130413,16,E,A*16
$YXXDR,A,4.4,D,PTCH,A,18.5,D,ROLL*61
$IIVHW,,,,,00.0,N,,*19
$GPRMC,200031.6,A,4737.13558,N,12228.35486,W,006.46,228.6,130413,016.6,E*49
$IIVLW,06210,N,000.0,N*56
$IIGLL,4737.136,N,12228.353,W,200000,A,A*4D
$IIMTW,+08.0,C*30
$GPRMC,200031.8,A,4737.13536,N,12228.35512,W,006.10,228.9,130413,016.6,E*4F
$HCHDG,210.7,0.0,E,,*2D
$GPRMC,200032.0,A,4737.13512,N,12228.35539,W,006.15,229.8,130413,016.6,E*4E
$YXXDR,A,4.8,D,PTCH,A,17.4,D,ROLL*63
$GPRMC,200032.2,A,4737.13489,N,12228.35582,W,006.43,231.7,130413,016.6,E*4A
$GPRMC,200032.4,A,4737.13467,N,12228.35625,W,006.61,231.9,130413,016.6,E*4C
$HCHDG,210.9,0.0,E,,*23
$IIRMC,200000,A,4737.135,N,12228.355,W,06.1,229,130413,16,E,A*19
$YXXDR,A,4.6,D,PTCH,A,19.4,D,ROLL*63
$IIVHW,,,,,00.0,N,,*19
$GPRMC,200032.6,A,4737.13446,N,12228.35671,W,006.63,233.1,130413,016.6,E*44
$IIVLW,06210,N,000.0,N*56
$IIGLL,4737.135,N,12228.355,W,200000,A,A*48
$IIMTW,+08.0,C*30
$GPRMC,200032.8,A,4737.13425,N,12228.35710,W,006.40,233.1,130413,016.6,E*48
$HCHDG,210.5,0.0,E,,*2F
$GPRMC,200033.0,A,4737.13403,N,12228.35752,W,006.47,233.2,130413,016.6,E*47
$PTAK,FFP1,HEEL,@*07
$YXXDR,A,4.2,D,PTCH,A,21.6,D,ROLL*6E
$GPRMC,200033.2,A,4737.13378,N,12228.35793,W,006.51,232.1,130413,016.6,E*46
$GPRMC,200033.4,A,4737.13353,N,12228.35834,W,006.56,230.8,130413,016.6,E*47
$HCHDG,208.2,0.0,E,,*21
$IIRMC,200000,A,4737.134,N,12228.357,W,06.4,233,130413,16,E,A*14
$YXXDR,A,4.6,D,PTCH,A,25.5,D,ROLL*6D
$IIVHW,,,,,00.0,N,,*19
$GPRMC,200033.6,A,4737.13326,N,12228.35874,W,006.88,229.1,130413,016.6,E*41
$IIVLW,06210,N,000.0,N*56
$IIGLL,4737.134,N,12228.357,W,200000,A,A*4B
$IIMTW,+08.0,C*30
$GPRMC,200033.8,A,4737.13298,N,12228.35915,W,006.86,228.8,130413,016.6,E*4B
$HCHDG,205.2,0.0,E,,*2C
$GPRMC,200034.0,A,4737.13273,N,12228.35954,W,007.04,226.3,130413,016.6,E*4A
$YXXDR,A,4.8,D,PTCH,A,29.1,D,ROLL*6B
$GPRMC,200034.2,A,4737.13248,N,12228.35991,W,007.00,225.9,130413,016.6,E*44
$GPRMC,200034.4,A,4737.13217,N,12228.36029,W,006.94,225.7,130413,016.6,E*43
$HCHDG,203.0,0.0,E,,*28
$IIRMC,200000,A,4737.132,N,12228.359,W,07.0,226,130413,16,E,A*1D
$YXXDR,A,4.4,D,PTCH,A,28.9,D,ROLL*6E
$IIVHW,,,,,00.0,N,,*19
$GPRMC,200034.6,A,4737.13187,N,12228.36070,W,006.90,225.2,130413,016.6,E*46
$IIVLW,06210,N,000.0,N*56
$IIGLL,4737.132,N,12228.359,W,200000,A,A*43
$IIMTW,+08.0,C*30
$GPRMC,200034.8,A,4737.13160,N,12228.36113,W,006.66,224.2,130413,016.6,E*4D
$HCHDG,201.5,0.0,E,,*2F
$GPRMC,200035.0,A,4737.13133,N,12228.36152,W,006.59,223.2,130413,016.6,E*4C
$YXXDR,A,3.9,D,PTCH,A,28.4,D,ROLL*69
$GPRMC,200035.2,A,4737.13101,N,12228.36195,W,006.62,223.2,130413,016.6,E*4C
$GPRMC,200035.4,A,4737.13069,N,12228.36232,W,006.65,222.7,130413,016.6,E*48
$HCHDG,201.4,0.0,E,,*2E
$IIRMC,200000,A,4737.131,N,12228.361,W,06.5,223,130413,16,E,A*14
$YXXDR,A,5.4,D,PTCH,A,27.3,D,ROLL*6A
$IIVHW,,,,,00.0,N,,*19
$GPRMC,200035.6,A,4737.13040,N,12228.36270,W,007.02,222.2,130413,016.6,E*42
$IIVLW,06210,N,000.0,N*56
$IIGLL,4737.131,N,12228.361,W,200000,A,A*4B
$IIMTW,+08.0,C*30
$GPRMC,200035.8,A,4737.13012,N,12228.36304,W,007.09,221.1,130413,016.6,E*42
$HCHDG,200.2,0.0,E,,*29
$GPRMC,200036.0,A,4737.12981,N,12228.36343,W,006.93,222.4,130413,016.6,E*4C
$YXXDR,A,4.8,D,PTCH,A,26.8,D,ROLL*6D
$GPRMC,200036.2,A,4737.12956,N,12228.36378,W,006.49,224.6,130413,016.6,E*4F
$GPRMC,200036.4,A,4737.12926,N,12228.36417,W,006.51,224.0,130413,016.6,E*4F
$HCHDG,203.5,0.0,E,,*2D
$IIRMC,200000,A,4737.129,N,12228.363,W,06.9,222,130413,16,E,A*12
$YXXDR,A,4.6,D,PTCH,A,22.2,D,ROLL*6D
$IIVHW,,,,,00.0,N,,*19
$GPRMC,200036.6,A,4737.12898,N,12228.36456,W,006.04,224.9,130413,016.6,E*45
$IIVLW,06210,N,000.0,N*56
$IIGLL,4737.129,N,12228.363,W,200000,A,A*40
$IIMTW,+08.0,C*30
$GPRMC,200036.8,A,4737.12867,N,12228.36491,W,006.08,223.6,130413,016.6,E*44
$HCHDG,203.3,0.0,E,,*2B
$GPRMC,200037.0,A,4737.12842,N,12228.36526,W,006.13,221.0,130413,016.6,E*49
$PTAK,FFP1,HEEL,@*07
$YXXDR,A,4.4,D,PTCH,A,24.6,D,ROLL*6D
$GPRMC,200037.2,A,4737.12810,N,12228.36558,W,006.53,221.2,130413,016.6,E*43
$GPRMC,200037.4,A,4737.12779,N,12228.36593,W,006.50,221.4,130413,016.6,E*47
$HCHDG,202.1,0.0,E,,*28
$IIRMC,200000,A,4737.129,N,12228.363,W,06.9,222,130413,16,E,A*12
$YXXDR,A,4.2,D,PTCH,A,25.9,D,ROLL*65
$IIVHW,,,,,00.0,N,,*19
$GPRMC,200037.6,A,4737.12749,N,12228.36635,W,006.53,223.0,130413,016.6,E*4C
$IIVLW,06210,N,000.0,N*56
$IIGLL,4737.129,N,12228.363,W,200000,A,A*40
$IIMTW,+08.0,C*30
$GPRMC,200037.8,A,4737.12720,N,12228.36684,W,006.71,223.7,130413,016.6,E*40
$HCHDG,204.1,0.0,E,,*2E
$GPRMC,200038.0,A,4737.12692,N,12228.36728,W,006.35,225.6,130413,016.6,E*4F
$YXXDR,A,4.2,D,PTCH,A,22.7,D,ROLL*6C
$GPRMC,200038.2,A,4737.12663,N,12228.36773,W,006.43,225.4,130413,016.6,E*4E
$GPRMC,200038.4,A,4737.12633,N,12228.36811,W,006.20,225.2,130413,016.6,E*45
$HCHDG,204.6,0.0,E,,*29
$IIRMC,200000,A,4737.128,N,12228.365,W,06.5,221,130413,16,E,A*1A
$YXXDR,A,4.5,D,PTCH,A,22.9,D,ROLL*65
$IIVHW,,,,,00.0,N,,*19
$GPRMC,200038.6,A,4737.12602,N,12228.36851,W,006.48,223.8,130413,016.6,E*43
$IIVLW,06210,N,000.0,N*56
$IIGLL,4737.128,N,12228.365,W,200000,A,A*47
$IIMTW,+08.0,C*30
$GPRMC,200038.8,A,4737.12566,N,12228.36897,W,006.45,221.5,130413,016.6,E*44
$HCHDG,200.6,0.0,E,,*2D
$GPRMC,200039.0,A,4737.12532,N,12228.36938,W,006.44,218.6,130413,016.6,E*40
$YXXDR,A,5.1,D,PTCH,A,28.0,D,ROLL*63
$GPRMC,200039.2,A,4737.12502,N,12228.36975,W,006.39,219.4,130413,016.6,E*41
$GPRMC,200039.4,A,4737.12475,N,12228.37017,W,006.58,216.9,130413,016.6,E*4F
$HCHDG,199.6,0.0,E,,*2E
$IIRMC,200000,A,4737.126,N,12228.368,W,06.2,225,130413,16,E,A*1A
$YXXDR,A,4.7,D,PTCH,A,25.8,D,ROLL*61
$IIVHW,,,,,00.0,N,,*19
$GPRMC,200039.6,A,4737.12445,N,12228.37053,W,006.90,219.0,130413,016.6,E*4C
$IIVLW,06210,N,000.0,N*56
$IIGLL,4737.126,N,12228.368,W,200000,A,A*44
$IIMTW,+08.0,C*30
$GPRMC,200039.8,A,4737.12417,N,12228.37084,W,006.89,220.4,130413,016.6,E*49
$HCHDG,202.6,0.0,E,,*2F
$GPRMC,200040.0,A,4737.12384,N,12228.37120,W,006.56,221.0,130413,016.6,E*4A
$YXXDR,A,4.5,D,PTCH,A,23.1,D,ROLL*6C
$GPRMC,200040.2,A,4737.12354,N,12228.37152,W,006.50,223.4,130413,016.6,E*40
$GPRMC,200040.4,A,4737.12327,N,12228.37192,W,006.50,224.4,130413,016.6,E*49
$HCHDG,206.0,0.0,E,,*2D
$IIRMC,200000,A,4737.124,N,12228.370,W,06.5,216,130413,16,E,A*16
$YXXDR,A,4.4,D,PTCH,A,21.2,D,ROLL*6C
$IIVHW,,,,,00.0,N,,*19
$GPRMC,200040.6,A,4737.12295,N,12228.37237,W,006.76,223.9,130413,016.6,E*41
$IIVLW,06210,N,000.0,N*56
$IIGLL,4737.124,N,12228.370,W,200000,A,A*4F
$IIMTW,+08.0,C*30
$GPRMC,200040.8,A,4737.12269,N,12228.37279,W,006.55,223.8,130413,016.6,E*46
$HCHDG,205.3,0.0,E,,*2D
$GPRMC,200041.0,A,4737.12244,N,12228.37318,W,006.50,224.6,130413,016.6,E*4A
$PTAK,FFP1,HEEL,@*07
$YXXDR,A,4.4,D,PTCH,A,25.0,D,ROLL*6A
$GPRMC,200041.2,A,4737.12218,N,12228.37358,W,006.55,223.6,130413,016.6,E*47
$GPRMC,200041.4,A,4737.12192,N,12228.37394,W,006.29,222.4,130413,016.6,E*48
$HCHDG,204.0,0.0,E,,*2F
$IIRMC,200000,A,4737.123,N,12228.371,W,06.5,224,130413,16,E,A*11
$YXXDR,A,4.2,D,PTCH,A,27.6,D,ROLL*68
$IIVHW,,,,,00.0,N,,*19
$GPRMC,200041.6,A,4737.12164,N,12228.37434,W,006.48,221.1,130413,016.6,E*4F
$IIVLW,06210,N,000.0,N*56
$IIGLL,4737.123,N,12228.371,W,200000,A,A*49
$IIMTW,+08.0,C*30
$GPRMC,200041.8,A,4737.12136,N,12228.37477,W,006.51,222.0,130413,016.6,E*4B
$HCHDG,203.0,0.0,E,,*28
$GPRMC,200042.0,A,4737.12112,N,12228.37521,W,006.22,222.9,130413,016.6,E*49
$YXXDR,A,3.2,D,PTCH,A,27.7,D,ROLL*6E
$GPRMC,200042.2,A,4737.12088,N,12228.37561,W,005.75,223.9,130413,016.6,E*4D
$GPRMC,200042.4,A,4737.12057,N,12228.37599,W,006.22,221.7,130413,016.6,E*43
$HCHDG,205.0,0.0,E,,*2E
$IIRMC,200000,A,4737.121,N,12228.373,W,06.2,222,130413,16,E,A*10
$YXXDR,A,4.4,D,PTCH,A,25.6,D,ROLL*6C
$IIVHW,,,,,00.0,N,,*19
$GPRMC,200042.6,A,4737.12024,N,12228.37635,W,006.72,221.5,130413,016.6,E*47
$IIVLW,06210,N,000.0,N*56
$IIGLL,4737.121,N,12228.373,W,200000,A,A*49
$IIMTW,+08.0,C*30
$GPRMC,200042.8,A,4737.12001,N,12228.37674,W,006.77,219.8,130413,016.6,E*48
$HCHDG,203.2,0.0,E,,*2A
$GPRMC,200043.0,A,4737.11978,N,12228.37714,W,006.75,221.8,130413,016.6,E*4B
$YXXDR,A,5.5,D,PTCH,A,29.0,D,ROLL*66
$GPRMC,200043.2,A,4737.11959,N,12228.37755,W,006.44,222.9,130413,016.6,E*4F
$GPRMC,200043.4,A,4737.11930,N,12228.37795,W,006.64,225.9,130413,016.6,E*4F
$HCHDG,204.3,0.0,E,,*2C
$IIRMC,200000,A,4737.120,N,12228.375,W,06.2,221,130413,16,E,A*14
$YXXDR,A,4.8,D,PTCH,A,24.5,D,ROLL*62
$IIVHW,,,,,00.0,N,,*19
$GPRMC,200043.6,A,4737.11904,N,12228.37838,W,006.58,228.4,130413,016.6,E*4D
$IIVLW,06210,N,000.0,N*56
$IIGLL,4737.120,N,12228.375,W,200000,A,A*4E
$IIMTW,+08.0,C*30
$GPRMC,200043.8,A,4737.11875,N,12228.37873,W,006.36,229.4,130413,016.6,E*42
$HCHDG,206.6,0.0,E,,*2B
$GPRMC,200044.0,A,4737.11847,N,12228.37908,W,006.30,229.7,130413,016.6,E*44
$PGRMT,GPS 18x-5Hz software ver. 3.20,,,,,,,,*30
$YXXDR,A,3.5,D,PTCH,A,23.5,D,ROLL*6F
$GPRMC,200044.2,A,4737.11820,N,12228.37943,W,006.46,226.5,130413,016.6,E*44
$GPRMC,200044.4,A,4737.11795,N,12228.37973,W,006.50,223.0,130413,016.6,E*47
$HCHDG,204.6,0.0,E,,*29
$IIRMC,200000,A,4737.119,N,12228.377,W,06.6,225,130413,16,E,A*1C
$YXXDR,A,4.5,D,PTCH,A,27.9,D,ROLL*60
$IIVHW,,,,,00.0,N,,*19
$GPRMC,200044.6,A,4737.11773,N,12228.38001,W,007.02,219.2,130413,016.6,E*43
$IIVLW,06210,N,000.0,N*56
$IIGLL,4737.119,N,12228.377,W,200000,A,A*46
$IIMTW,+08.0,C*30
$GPRMC,200044.8,A,4737.11746,N,12228.38037,W,006.97,219.8,130413,016.6,E*49
$HCHDG,201.2,0.0,E,,*28
$GPRMC,200045.0,A,4737.11717,N,12228.38077,W,007.03,219.0,130413,016.6,E*44
$PTAK,FFP1,HEEL,@*07
$YXXDR,A,4.6,D,PTCH,A,30.5,D,ROLL*69
$GPRMC,200045.2,A,4737.11688,N,12228.38114,W,006.97,219.1,130413,016.6,E*48
$GPRMC,200045.4,A,4737.11656,N,12228.38152,W,006.59,221.9,130413,016.6,E*4E
$HCHDG,203.1,0.0,E,,*29
$IIRMC,200000,A,4737.117,N,12228.379,W,06.5,223,130413,16,E,A*19
$YXXDR,A,4.2,D,PTCH,A,24.6,D,ROLL*6B
$IIVHW,,,,,00.0,N,,*19
$GPRMC,200045.6,A,4737.11633,N,12228.38191,W,006.32,223.7,130413,016.6,E*41
$IIVLW,06210,N,000.0,N*56
$IIGLL,4737.117,N,12228.379,W,200000,A,A*46
$IIMTW,+08.0,C*30
$GPRMC,200045.8,A,4737.11607,N,12228.38226,W,006.33,225.7,130413,016.6,E*40
$HCHDG,205.2,0.0,E,,*2C
$GPRMC,200046.0,A,4737.11586,N,12228.38268,W,006.36,224.6,130413,016.6,E*4E
$YXXDR,A,4.8,D,PTCH,A,22.6,D,ROLL*67
$GPRMC,200046.2,A,4737.11557,N,12228.38309,W,006.32,223.2,130413,016.6,E*41
$GPRMC,200046.4,A,4737.11528,N,12228.38354,W,006.16,223.5,130413,016.6,E*46
$HCHDG,202.5,0.0,E,,*2C
$IIRMC,200000,A,4737.116,N,12228.381,W,06.5,221,130413,16,E,A*1D
$YXXDR,A,4.7,D,PTCH,A,25.8,D,ROLL*61
$IIVHW,,,,,00.0,N,,*19
$GPRMC,200046.6,A,4737.11498,N,12228.38388,W,006.57,222.2,130413,016.6,E*4C
$IIVLW,06210,N,000.0,N*56
$IIDPT,002.3,-1.0,*41
$IIGLL,4737.116,N,12228.381,W,200000,A,A*40
$GPRMC,200046.8,A,4737.11467,N,12228.38416,W,006.55,220.3,130413,016.6,E*43
$IIMTW,+08.0,C*30
$HCHDG,202.3,0.0,E,,*2A
$GPRMC,200047.0,A,4737.11441,N,12228.38449,W,006.54,220.6,130413,016.6,E*40
$YXXDR,A,4.9,D,PTCH,A,23.8,D,ROLL*69
$GPRMC,200047.2,A,4737.11410,N,12228.38488,W,006.58,220.6,130413,016.6,E*47
$GPRMC,200047.4,A,4737.11386,N,12228.38530,W,006.62,221.1,130413,016.6,E*44
$HCHDG,203.8,0.0,E,,*20
$IIRMC,200000,A,4737.115,N,12228.383,W,06.1,223,130413,16,E,A*1A
$YXXDR,A,5.4,D,PTCH,A,21.1,D,ROLL*6E
$IIVHW,,,,,00.0,N,,*19
$GPRMC,200047.6,A,4737.11362,N,12228.38569,W,006.90,222.1,130413,016.6,E*4E
$IIVLW,06210,N,000.0,N*56
$IIDPT,002.3,-1.0,*41
$IIGLL,4737.115,N,12228.383,W,200000,A,A*41
$GPRMC,200047.8,A,4737.11339,N,12228.38609,W,006.93,223.1,130413,016.6,E*49
$IIMTW,+08.0,C*30
$HCHDG,205.5,0.0,E,,*2B
$GPRMC,200048.0,A,4737.11312,N,12228.38653,W,006.94,224.9,130413,016.6,E*40
$YXXDR,A,4.9,D,PTCH,A,20.0,D,ROLL*62
$GPRMC,200048.2,A,4737.11287,N,12228.38697,W,006.74,227.9,130413,016.6,E*4A
$GPRMC,200048.4,A,4737.11267,N,12228.38739,W,006.45,229.7,130413,016.6,E*45
$HCHDG,209.5,0.0,E,,*27
$IIRMC,200000,A,4737.113,N,12228.385,W,06.6,221,130413,16,E,A*1F
$YXXDR,A,4.9,D,PTCH,A,17.4,D,ROLL*62
$IIVHW,,,,,00.0,N,,*19
$GPRMC,200048.6,A,4737.11247,N,12228.38777,W,006.23,230.3,130413,016.6,E*43
$IIVLW,06210,N,000.0,N*56
$IIDPT,002.3,-1.0,*41
$IIGLL,4737.113,N,12228.385,W,200000,A,A*41
$GPRMC,200048.8,A,4737.11230,N,12228.38821,W,006.27,230.1,130413,016.6,E*47
$IIMTW,+08.0,C*30
$HCHDG,208.1,0.0,E,,*22
$PTAK,FFP1,HEEL,@*07
$GPRMC,200049.0,A,4737.11205,N,12228.38862,W,006.53,225.8,130413,016.6,E*41
$YXXDR,A,4.3,D,PTCH,A,22.0,D,ROLL*6A
$GPRMC,200049.2,A,4737.11185,N,12228.38900,W,006.26,228.8,130413,016.6,E*42
$GPRMC,200049.4,A,4737.11161,N,12228.38922,W,006.33,228.5,130413,016.6,E*47
$HCHDG,207.1,0.0,E,,*2D
$IIRMC,200000,A,4737.112,N,12228.387,W,06.4,229,130413,16,E,A*16
$YXXDR,A,4.1,D,PTCH,A,23.9,D,ROLL*60
$IIVHW,,,,,00.0,N,,*19
$GPRMC,200049.6,A,4737.11140,N,12228.38949,W,006.38,228.7,130413,016.6,E*42
$IIVLW,06210,N,000.0,N*56
$IIDPT,002.3,-1.0,*41
$IIGLL,4737.112,N,12228.387,W,200000,A,A*42
$GPRMC,200049.8,A,4737.11124,N,12228.38984,W,006.38,229.1,130413,016.6,E*48
$IIMTW,+08.0,C*30
$HCHDG,206.7,0.0,E,,*2A
$GPRMC,200050.0,A,4737.11101,N,12228.39027,W,006.40,228.7,130413,016.6,E*46
$YXXDR,A,4.3,D,PTCH,A,25.1,D,ROLL*6C
$GPRMC,200050.2,A,4737.11087,N,12228.39068,W,006.20,228.8,130413,016.6,E*49
$GPRMC,200050.4,A,4737.11072,N,12228.39108,W,006.01,229.3,130413,016.6,E*4B
$HCHDG,204.7,0.0,E,,*28
$IIRMC,200000,A,4737.111,N,12228.389,W,06.3,228,130413,16,E,A*1D
$YXXDR,A,4.4,D,PTCH,A,26.8,D,ROLL*61
$IIVHW,,,,,00.0,N,,*19
$GPRMC,200050.6,A,4737.11054,N,12228.39151,W,006.00,227.4,130413,016.6,E*49
$IIVLW,06210,N,000.0,N*56
$IIDPT,002.3,-1.0,*41
$IIGLL,4737.111,N,12228.389,W,200000,A,A*4F
$GPRMC,200050.8,A,4737.11028,N,12228.39190,W,006.05,227.3,130413,016.6,E*43
$IIMTW,+08.0,C*30
$HCHDG,202.2,0.0,E,,*2B
$GPRMC,200051.0,A,4737.11003,N,12228.39226,W,006.10,224.4,130413,016.6,E*4D
$YXXDR,A,4.5,D,PTCH,A,29.3,D,ROLL*64
$GPRMC,200051.2,A,4737.10978,N,12228.39262,W,006.66,224.3,130413,016.6,E*4D
$GPRMC,200051.4,A,4737.10953,N,12228.39294,W,006.30,221.4,130413,016.6,E*4A
$HCHDG,198.8,0.0,E,,*21
$IIRMC,200000,A,4737.110,N,12228.391,W,06.0,229,130413,16,E,A*17
$YXXDR,A,4.7,D,PTCH,A,30.2,D,ROLL*6F
$IIVHW,,,,,00.0,N,,*19
$GPRMC,200051.6,A,4737.10931,N,12228.39331,W,006.25,221.0,130413,016.6,E*42
$IIVLW,06210,N,000.0,N*56
$IIDPT,002.3,-1.0,*41
$IIGLL,4737.110,N,12228.391,W,200000,A,A*47
$GPRMC,200051.8,A,4737.10898,N,12228.39363,W,006.30,217.6,130413,016.6,E*4E
$IIMTW,+08.0,C*30
$HCHDG,196.5,0.0,E,,*22
$GPRMC,200052.0,A,4737.10863,N,12228.39395,W,006.31,218.8,130413,016.6,E*48
$YXXDR,A,4.6,D,PTCH,A,28.6,D,ROLL*63
$GPRMC,200052.2,A,4737.10828,N,12228.39429,W,006.48,219.2,130413,016.6,E*40
$GPRMC,200052.4,A,4737.10802,N,12228.39460,W,006.19,217.7,130413,016.6,E*4C
$HCHDG,197.7,0.0,E,,*21
$IIRMC,200000,A,4737.109,N,12228.393,W,06.2,221,130413,16,E,A*17
$YXXDR,A,5.1,D,PTCH,A,24.3,D,ROLL*6C
$IIVHW,,,,,00.0,N,,*19
$GPRMC,200052.6,A,4737.10773,N,12228.39492,W,006.58,216.7,130413,016.6,E*4E
$IIVLW,06210,N,000.0,N*56
$IIDPT,002.3,-1.0,*41
$IIGLL,4737.109,N,12228.393,W,200000,A,A*4D
$GPRMC,200052.8,A,4737.10742,N,12228.39521,W,006.61,217.2,130413,016.6,E*45
$IIMTW,+08.0,C*30
$HCHDG,199.1,0.0,E,,*29
$GPRMC,200053.0,A,4737.10715,N,12228.39556,W,006.33,219.4,130413,016.6,E*41
$PTAK,FFP1,HEEL,@*07
$YXXDR,A,5.1,D,PTCH,A,22.0,D,ROLL*69
$GPRMC,200053.2,A,4737.10686,N,12228.39592,W,006.57,218.8,130413,016.6,E*4F
$GPRMC,200053.4,A,4737.10660,N,12228.39625,W,006.56,219.0,130413,016.6,E*46
$HCHDG,201.7,0.0,E,,*2D
$IIRMC,200000,A,4737.107,N,12228.394,W,06.5,216,130413,16,E,A*1D
$YXXDR,A,5.6,D,PTCH,A,18.3,D,ROLL*64
$IIVHW,,,,,00.0,N,,*19
$GPRMC,200053.6,A,4737.10637,N,12228.39657,W,006.50,221.0,130413,016.6,E*4E
$IIVLW,06210,N,000.0,N*56
$IIDPT,002.3,-1.0,*41
$IIGLL,4737.107,N,12228.394,W,200000,A,A*44
$GPRMC,200053.8,A,4737.10612,N,12228.39693,W,006.47,223.0,130413,016.6,E*4B
$IIMTW,+08.0,C*30
$HCHDG,203.2,0.0,E,,*2A
$GPRMC,200054.0,A,4737.10590,N,12228.39729,W,006.06,227.4,130413,016.6,E*48
$YXXDR,A,3.8,D,PTCH,A,17.8,D,ROLL*68
$GPRMC,200054.2,A,4737.10564,N,12228.39768,W,006.36,225.7,130413,016.6,E*46
$GPRMC,200054.4,A,4737.10539,N,12228.39806,W,006.19,223.5,130413,016.6,E*46
$HCHDG,204.3,0.0,E,,*2C
$IIRMC,200000,A,4737.106,N,12228.396,W,06.5,221,130413,16,E,A*1A
$YXXDR,A,4.0,D,PTCH,A,17.8,D,ROLL*67
$IIVHW,,,,,00.0,N,,*19
$GPRMC,200054.6,A,4737.10512,N,12228.39845,W,006.23,223.4,130413,016.6,E*42
$IIVLW,06210,N,000.0,N*56
$IIDPT,002.3,-1.0,*41
$IIGLL,4737.106,N,12228.396,W,200000,A,A*47
$GPRMC,200054.8,A,4737.10487,N,12228.39886,W,006.60,219.7,130413,016.6,E*43
$IIMTW,+08.0,C*30
$HCHDG,200.3,0.0,E,,*28
$GPRMC,200055.0,A,4737.10461,N,12228.39923,W,006.89,217.7,130413,016.6,E*45
$YXXDR,A,4.8,D,PTCH,A,24.4,D,ROLL*63
$GPRMC,200055.2,A,4737.10429,N,12228.39957,W,006.69,215.5,130413,016.6,E*46
$GPRMC,200055.4,A,4737.10398,N,12228.39990,W,006.76,213.9,130413,016.6,E*42
$HCHDG,196.5,0.0,E,,*22
$IIRMC,200000,A,4737.105,N,12228.398,W,06.2,223,130413,16,E,A*12
$YXXDR,A,3.9,D,PTCH,A,27.7,D,ROLL*65
$IIVHW,,,,,00.0,N,,*19
$GPRMC,200055.6,A,4737.10363,N,12228.40020,W,006.79,216.2,130413,016.6,E*49
$IIVLW,06210,N,000.0,N*56
$IIGLL,4737.105,N,12228.398,W,200000,A,A*4A
$IIMTW,+08.0,C*30
$GPRMC,200055.8,A,4737.10333,N,12228.40058,W,006.84,217.5,130413,016.6,E*49
$HCHDG,200.7,0.0,E,,*2C
$GPRMC,200056.0,A,4737.10303,N,12228.40101,W,006.89,222.2,130413,016.6,E*40
$YXXDR,A,4.0,D,PTCH,A,21.6,D,ROLL*6C
$GPRMC,200056.2,A,4737.10273,N,12228.40146,W,006.90,225.3,130413,016.6,E*49
$GPRMC,200056.4,A,4737.10250,N,12228.40194,W,006.69,228.4,130413,016.6,E*4D
$HCHDG,207.6,0.0,E,,*2A
$IIRMC,200000,A,4737.103,N,12228.400,W,06.7,216,130413,16,E,A*11
$YXXDR,A,5.1,D,PTCH,A,16.9,D,ROLL*67
$IIVHW,,,,,00.0,N,,*19
$GPRMC,200056.6,A,4737.10222,N,12228.40243,W,006.53,229.0,130413,016.6,E*4F
$IIVLW,06210,N,000.0,N*56
$IIGLL,4737.103,N,12228.400,W,200000,A,A*4A
$IIMTW,+08.0,C*30
$GPRMC,200056.8,A,4737.10201,N,12228.40282,W,006.49,229.5,130413,016.6,E*43
$HCHDG,205.3,0.0,E,,*2D
$GPRMC,200057.0,A,4737.10178,N,12228.40324,W,006.43,228.1,130413,016.6,E*45
$PTAK,FFP1,HEEL,@*07
$YXXDR,A,4.4,D,PTCH,A,23.2,D,ROLL*6E
$GPRMC,200057.2,A,4737.10151,N,12228.40377,W,006.43,227.9,130413,016.6,E*4D
$GPRMC,200057.4,A,4737.10127,N,12228.40419,W,006.47,227.6,130413,016.6,E*4E
$HCHDG,203.9,0.0,E,,*21
$IIRMC,200000,A,4737.102,N,12228.402,W,06.5,229,130413,16,E,A*1C
$YXXDR,A,4.5,D,PTCH,A,24.5,D,ROLL*6F
$IIVHW,,,,,00.0,N,,*19
$GPRMC,200057.6,A,4737.10104,N,12228.40455,W,006.24,226.6,130413,016.6,E*41
$IIVLW,06210,N,000.0,N*56
$IIGLL,4737.102,N,12228.402,W,200000,A,A*49
$IIMTW,+08.0,C*30
$GPRMC,200057.8,A,4737.10079,N,12228.40484,W,006.66,220.4,130413,016.6,E*4A
$HCHDG,200.5,0.0,E,,*2E
$GPRMC,200058.0,A,4737.10052,N,12228.40515,W,006.44,219.3,130413,016.6,E*40
$YXXDR,A,4.5,D,PTCH,A,29.3,D,ROLL*64
$GPRMC,200058.2,A,4737.10027,N,12228.40545,W,006.28,219.9,130413,016.6,E*45
$GPRMC,200058.4,A,4737.10000,N,12228.40587,W,006.47,219.7,130413,016.6,E*4F
$HCHDG,199.3,0.0,E,,*2B
$IIRMC,200000,A,4737.101,N,12228.404,W,06.2,226,130413,16,E,A*11
$YXXDR,A,4.3,D,PTCH,A,26.4,D,ROLL*6A
$IIVHW,,,,,00.0,N,,*19
$GPRMC,200058.6,A,4737.09975,N,12228.40613,W,006.21,217.5,130413,016.6,E*4C
$IIVLW,06210,N,000.0,N*56
$IIGLL,4737.101,N,12228.404,W,200000,A,A*4C
$IIMTW,+08.0,C*30
$GPRMC,200058.8,A,4737.09951,N,12228.40634,W,005.55,217.1,130413,016.6,E*45
$HCHDG,200.3,0.0,E,,*28
$GPRMC,200059.0,A,4737.09923,N,12228.40661,W,005.78,219.9,130413,016.6,E*40
$YXXDR,A,4.7,D,PTCH,A,24.4,D,ROLL*6C
$GPRMC,200059.2,A,4737.09899,N,12228.40701,W,006.28,218.4,130413,016.6,E*4F
$GPRMC,200059.4,A,4737.09879,N,12228.40737,W,006.21,220.3,130413,016.6,E*47
$HCHDG,200.1,0.0,E,,*2A
$IIRMC,200000,A,4737.099,N,12228.406,W,06.2,217,130413,16,E,A*11
$YXXDR,A,4.7,D,PTCH,A,24.0,D,ROLL*68
$IIVHW,,,,,00.0,N,,*19
$GPRMC,200059.6,A,4737.09852,N,12228.40777,W,006.16,219.9,130413,016.6,E*4C
$IIVLW,06210,N,000.0,N*56
$IIGLL,4737.099,N,12228.406,W,200000,A,A*4E
$IIMTW,+08.0,C*30
$GPRMC,200059.8,A,4737.09825,N,12228.40813,W,005.92,220.8,130413,016.6,E*4B
$HCHDG,199.6,0.0,E,,*2E
$GPRMC,200100.0,A,4737.09800,N,12228.40859,W,005.88,221.1,130413,016.6,E*44
$YXXDR,A,4.3,D,PTCH,A,23.5,D,ROLL*6E
$GPRMC,200100.2,A,4737.09771,N,12228.40896,W,005.90,219.5,130413,016.6,E*4A
$GPRMC,200100.4,A,4737.09742,N,12228.40931,W,006.31,216.8,130413,016.6,E*4A
$HCHDG,198.7,0.0,E,,*2E
$IIRMC,200000,A,4737.098,N,12228.407,W,06.1,219,130413,16,E,A*1C
$YXXDR,A,5.4,D,PTCH,A,24.6,D,ROLL*6C
$IIVHW,,,,,00.0,N,,*19
$GPRMC,200100.6,A,4737.09714,N,12228.40963,W,006.63,217.7,130413,016.6,E*45
$IIVLW,06210,N,000.0,N*56
$IIGLL,4737.098,N,12228.407,W,200000,A,A*4E
$IIMTW,+08.0,C*30
$GPRMC,200100.8,A,4737.09688,N,12228.40992,W,006.58,216.4,130413,016.6,E*4B
$HCHDG,197.1,0.0,E,,*27
$GPRMC,200101.0,A,4737.09656,N,12228.41026,W,007.24,215.6,130413,016.6,E*4D
$YXXDR,A,5.0,D,PTCH,A,24.9,D,ROLL*67
$GPRMC,200101.2,A,4737.09627,N,12228.41061,W,006.67,217.3,130413,016.6,E*4B
$GPRMC,200101.4,A,4737.09598,N,12228.41097,W,006.65,217.9,130413,016.6,E*4B
$PTAK,FFP1,HEEL,@*07
$HCHDG,201.6,0.0,E,,*2C
$IIRMC,200100,A,4737.097,N,12228.409,W,06.6,217,130413,16,E,A*15
$YXXDR,A,4.2,D,PTCH,A,18.0,D,ROLL*62
$IIVHW,,,,,00.0,N,,*19
$GPRMC,200101.6,A,4737.09571,N,12228.41128,W,006.44,218.9,130413,016.6,E*47
$IIVLW,06210,N,000.0,N*56
$IIGLL,4737.097,N,12228.409,W,200100,A,A*4E
$IIMTW,+08.0,C*30
$GPRMC,200101.8,A,4737.09543,N,12228.41163,W,006.48,219.9,130413,016.6,E*4A
$HCHDG,204.8,0.0,E,,*27
$GPRMC,200102.0,A,4737.09516,N,12228.41200,W,006.54,220.5,130413,016.6,E*4C
$YXXDR,A,4.7,D,PTCH,A,16.2,D,ROLL*6B
$GPRMC,200102.2,A,4737.09486,N,12228.41242,W,007.13,221.1,130413,016.6,E*47
$GPRMC,200102.4,A,4737.09456,N,12228.41288,W,007.35,223.5,130413,016.6,E*48
$HCHDG,204.7,0.0,E,,*28
$IIRMC,200100,A,4737.095,N,12228.411,W,06.4,218,130413,16,E,A*13
$YXXDR,A,4.5,D,PTCH,A,17.3,D,ROLL*69
$IIVHW,,,,,00.0,N,,*19
$GPRMC,200102.6,A,4737.09428,N,12228.41339,W,007.59,225.7,130413,016.6,E*46
$IIVLW,06210,N,000.0,N*56
$IIDPT,001.7,-1.0,*46
$IIGLL,4737.095,N,12228.411,W,200100,A,A*45
$GPRMC,200102.8,A,4737.09399,N,12228.41386,W,007.13,226.4,130413,016.6,E*4F
$IIMTW,+08.0,C*30
$HCHDG,205.3,0.0,E,,*2D
$GPRMC,200103.0,A,4737.09373,N,12228.41428,W,006.79,226.9,130413,016.6,E*41
$YXXDR,A,5.4,D,PTCH,A,17.2,D,ROLL*68
$GPRMC,200103.2,A,4737.09348,N,12228.41471,W,006.73,226.8,130413,016.6,E*4C
$GPRMC,200103.4,A,4737.09323,N,12228.41511,W,006.57,224.9,130413,016.6,E*45
$HCHDG,203.4,0.0,E,,*2C
$IIRMC,200100,A,4737.094,N,12228.413,W,07.5,225,130413,16,E,A*1E
$YXXDR,A,4.5,D,PTCH,A,19.7,D,ROLL*63
$IIVHW,,,,,00.0,N,,*19
$GPRMC,200103.6,A,4737.09298,N,12228.41553,W,006.41,224.8,130413,016.6,E*46
$IIVLW,06210,N,000.0,N*56
$IIDPT,001.7,-1.0,*46
$IIGLL,4737.094,N,12228.413,W,200100,A,A*46
$GPRMC,200103.8,A,4737.09268,N,12228.41594,W,006.44,224.5,130413,016.6,E*44
$IIMTW,+08.0,C*30
$HCHDG,201.1,0.0,E,,*2B
$GPRMC,200104.0,A,4737.09238,N,12228.41633,W,006.44,223.8,130413,016.6,E*4A
$YXXDR,A,4.3,D,PTCH,A,20.2,D,ROLL*6A
$GPRMC,200104.2,A,4737.09206,N,12228.41671,W,006.51,221.2,130413,016.6,E*4F
$GPRMC,200104.4,A,4737.09177,N,12228.41699,W,006.73,216.3,130413,016.6,E*4F
$HCHDG,197.9,0.0,E,,*2F
$IIRMC,200100,A,4737.092,N,12228.415,W,06.4,224,130413,16,E,A*1F
$YXXDR,A,5.6,D,PTCH,A,23.0,D,ROLL*6F
$IIVHW,,,,,00.0,N,,*19
$GPRMC,200104.6,A,4737.09141,N,12228.41733,W,007.20,214.2,130413,016.6,E*4D
$IIVLW,06210,N,000.0,N*56
$IIDPT,001.7,-1.0,*46
$IIGLL,4737.092,N,12228.415,W,200100,A,A*46
$GPRMC,200104.8,A,4737.09103,N,12228.41767,W,007.20,214.5,130413,016.6,E*43
$IIMTW,+08.0,C*30
$HCHDG,197.7,0.0,E,,*21
$GPRMC,200105.0,A,4737.09072,N,12228.41807,W,006.90,214.2,130413,016.6,E*49
$YXXDR,A,5.7,D,PTCH,A,21.4,D,ROLL*68
$GPRMC,200105.2,A,4737.09040,N,12228.41845,W,006.90,220.6,130413,016.6,E*4F
$GPRMC,200105.4,A,4737.09017,N,12228.41889,W,007.29,222.1,130413,016.6,E*4D
$HCHDG,204.4,0.0,E,,*2B
$PTAK,FFP1,HEEL,@*07
$IIRMC,200100,A,4737.092,N,12228.415,W,06.4,224,130413,16,E,A*1F
$YXXDR,A,4.6,D,PTCH,A,14.8,D,ROLL*62
$IIVHW,,,,,00.0,N,,*19
$GPRMC,200105.6,A,4737.08996,N,12228.41930,W,006.58,228.9,130413,016.6,E*48
$IIVLW,06210,N,000.0,N*56
$IIDPT,001.7,-1.0,*46
$IIGLL,4737.092,N,12228.415,W,200100,A,A*46
$GPRMC,200105.8,A,4737.08975,N,12228.41969,W,006.29,230.6,130413,016.6,E*47
$IIMTW,+08.0,C*30
$HCHDG,211.5,0.0,E,,*2E
$GPRMC,200106.0,A,4737.08956,N,12228.42012,W,006.01,232.3,130413,016.6,E*46
$YXXDR,A,5.0,D,PTCH,A,11.9,D,ROLL*61
$GPRMC,200106.2,A,4737.08936,N,12228.42052,W,005.95,232.6,130413,016.6,E*4D
$GPRMC,200106.4,A,4737.08917,N,12228.42090,W,005.95,231.4,130413,016.6,E*47
$HCHDG,211.4,0.0,E,,*2F
$IIRMC,200100,A,4737.089,N,12228.419,W,06.5,228,130413,16,E,A*14
$YXXDR,A,4.7,D,PTCH,A,18.1,D,ROLL*66
$IIVHW,,,,,00.0,N,,*19
$GPRMC,200106.6,A,4737.08897,N,12228.42129,W,005.98,230.9,130413,016.6,E*4E
$IIVLW,06210,N,000.0,N*56
$IIDPT,001.7,-1.0,*46
$IIGLL,4737.089,N,12228.419,W,200100,A,A*40
$GPRMC,200106.8,A,4737.08877,N,12228.42166,W,006.03,230.6,130413,016.6,E*4B
$IIMTW,+08.0,C*30
$HCHDG,209.5,0.0,E,,*27
$GPRMC,200107.0,A,4737.08855,N,12228.42203,W,006.02,230.3,130413,016.6,E*46
$YXXDR,A,4.0,D,PTCH,A,21.2,D,ROLL*68
$GPRMC,200107.2,A,4737.08835,N,12228.42243,W,006.01,231.0,130413,016.6,E*47
$GPRMC,200107.4,A,4737.08815,N,12228.42285,W,006.20,229.8,130413,016.6,E*4B
$HCHDG,208.7,0.0,E,,*24
$IIRMC,200100,A,4737.088,N,12228.421,W,05.9,230,130413,16,E,A*18
$YXXDR,A,4.8,D,PTCH,A,23.5,D,ROLL*65
$IIVHW,,,,,00.0,N,,*19
$GPRMC,200107.6,A,4737.08791,N,12228.42322,W,006.22,230.0,130413,016.6,E*44
$IIVLW,06210,N,000.0,N*56
$IIDPT,001.7,-1.0,*46
$IIGLL,4737.088,N,12228.421,W,200100,A,A*4A
$GPRMC,200107.8,A,4737.08775,N,12228.42354,W,006.27,229.9,130413,016.6,E*45
$IIMTW,+08.0,C*30
$HCHDG,208.1,0.0,E,,*22
$GPRMC,200108.0,A,4737.08752,N,12228.42398,W,006.63,229.3,130413,016.6,E*4D
$YXXDR,A,3.7,D,PTCH,A,25.1,D,ROLL*6F
$GPRMC,200108.2,A,4737.08729,N,12228.42435,W,006.17,229.1,130413,016.6,E*42
$GPRMC,200108.4,A,4737.08706,N,12228.42473,W,006.13,232.2,130413,016.6,E*46
$HCHDG,208.3,0.0,E,,*20
$IIRMC,200100,A,4737.087,N,12228.423,W,06.2,230,130413,16,E,A*1D
$YXXDR,A,3.9,D,PTCH,A,25.2,D,ROLL*62
$IIVHW,,,,,00.0,N,,*19
$GPRMC,200108.6,A,4737.08682,N,12228.42512,W,006.18,229.5,130413,016.6,E*49
$IIVLW,06210,N,000.0,N*56
$IIDPT,001.7,-1.0,*46
$IIGLL,4737.087,N,12228.423,W,200100,A,A*47
$GPRMC,200108.8,A,4737.08658,N,12228.42556,W,007.10,230.4,130413,016.6,E*40
$IIMTW,+08.0,C*30
$HCHDG,208.0,0.0,E,,*23
$GPRMC,200109.0,A,4737.08632,N,12228.42600,W,007.15,229.2,130413,016.6,E*4E
$YXXDR,A,5.8,D,PTCH,A,27.0,D,ROLL*65
$GPRMC,200109.2,A,4737.08610,N,12228.42639,W,006.60,228.3,130413,016.6,E*45
$GPRMC,200109.4,A,4737.08590,N,12228.42689,W,007.24,227.9,130413,016.6,E*47
$HCHDG,205.1,0.0,E,,*2F
$IIRMC,200100,A,4737.086,N,12228.425,W,06.1,229,130413,16,E,A*11
$YXXDR,A,5.7,D,PTCH,A,28.9,D,ROLL*6C
$GPRMC,200109.6,A,4737.08559,N,12228.42733,W,006.81,227.7,130413,016.6,E*40
$PTAK,FFP1,HEEL,@*07
$IIVHW,,,,,00.0,N,,*19
$IIVLW,06210,N,000.0,N*56
$IIDPT,001.7,-1.0,*46
$IIGLL,4737.086,N,12228.425,W,200100,A,A*40
$GPRMC,200109.8,A,4737.08537,N,12228.42776,W,006.62,227.3,130413,016.6,E*4E
$IIMTW,+08.0,C*30
$HCHDG,202.7,0.0,E,,*2E
$GPRMC,200110.0,A,4737.08510,N,12228.42816,W,006.57,226.1,130413,016.6,E*47
$YXXDR,A,4.8,D,PTCH,A,27.3,D,ROLL*67
$GPRMC,200110.2,A,4737.08482,N,12228.42853,W,006.55,224.5,130413,016.6,E*4A
$GPRMC,200110.4,A,4737.08450,N,12228.42891,W,006.55,221.0,130413,016.6,E*4D
$HCHDG,199.6,0.0,E,,*2E
$IIRMC,200100,A,4737.085,N,12228.427,W,06.8,227,130413,16,E,A*17
$YXXDR,A,5.1,D,PTCH,A,28.3,D,ROLL*60
$IIVHW,,,,,00.0,N,,*19
$GPRMC,200110.6,A,4737.08416,N,12228.42922,W,006.90,218.3,130413,016.6,E*44
$IIVLW,06210,N,000.0,N*56
$IIGLL,4737.085,N,12228.427,W,200100,A,A*41
$IIMTW,+08.0,C*30
$GPRMC,200110.8,A,4737.08383,N,12228.42957,W,006.90,216.1,130413,016.6,E*4F
$HCHDG,198.3,0.0,E,,*2A
$GPRMC,200111.0,A,4737.08347,N,12228.42992,W,007.32,217.9,130413,016.6,E*47
$YXXDR,A,5.0,D,PTCH,A,26.1,D,ROLL*6D
$GPRMC,200111.2,A,4737.08322,N,12228.43032,W,007.02,219.0,130413,016.6,E*40
$GPRMC,200111.4,A,4737.08288,N,12228.43069,W,007.32,223.0,130413,016.6,E*43
$HCHDG,203.2,0.0,E,,*2A
$IIRMC,200100,A,4737.084,N,12228.429,W,06.9,218,130413,16,E,A*15
$YXXDR,A,4.6,D,PTCH,A,18.8,D,ROLL*6E
$GPRMC,200111.6,A,4737.08262,N,12228.43111,W,006.97,227.1,130413,016.6,E*40
$IIVHW,,,,,00.0,N,,*19
$IIVLW,06210,N,000.0,N*56
$IIGLL,4737.084,N,12228.429,W,200100,A,A*4E
$IIMTW,+08.0,C*30
$GPRMC,200111.8,A,4737.08239,N,12228.43155,W,006.90,228.8,130413,016.6,E*41
$HCHDG,208.9,0.0,E,,*2A
$GPRMC,200112.0,A,4737.08211,N,12228.43201,W,006.68,229.8,130413,016.6,E*44
$YXXDR,A,4.9,D,PTCH,A,15.7,D,ROLL*63
$GPRMC,200112.2,A,4737.08186,N,12228.43250,W,006.72,228.7,130413,016.6,E*4A
$GPRMC,200112.4,A,4737.08169,N,12228.43290,W,006.04,227.1,130413,016.6,E*49
$HCHDG,207.1,0.0,E,,*2D
$IIRMC,200100,A,4737.082,N,12228.431,W,06.9,228,130413,16,E,A*19
$YXXDR,A,4.5,D,PTCH,A,22.6,D,ROLL*6A
$IIVHW,,,,,00.0,N,,*19
$GPRMC,200112.6,A,4737.08155,N,12228.43334,W,006.25,227.8,130413,016.6,E*41
$IIVLW,06210,N,000.0,N*56
$IIGLL,4737.082,N,12228.431,W,200100,A,A*41
$IIMTW,+08.0,C*30
$GPRMC,200112.8,A,4737.08128,N,12228.43376,W,006.26,227.0,130413,016.6,E*48
$HCHDG,205.9,0.0,E,,*27
$GPRMC,200113.0,A,4737.08096,N,12228.43415,W,006.42,225.3,130413,016.6,E*44
$YXXDR,A,4.9,D,PTCH,A,23.8,D,ROLL*69
$GPRMC,200113.2,A,4737.08072,N,12228.43454,W,006.66,223.7,130413,016.6,E*4D
$GPRMC,200113.4,A,4737.08046,N,12228.43490,W,006.69,223.7,130413,016.6,E*4B
$HCHDG,205.0,0.0,E,,*2E
$IIRMC,200100,A,4737.081,N,12228.433,W,06.2,227,130413,16,E,A*1C
$YXXDR,A,5.0,D,PTCH,A,23.9,D,ROLL*60
$IIVHW,,,,,00.0,N,,*19
$GPRMC,200113.6,A,4737.08022,N,12228.43524,W,006.70,224.7,130413,016.6,E*4A
$PTAK,FFP1,HEEL,@*07
$IIVLW,06210,N,000.0,N*56
$IIGLL,4737.081,N,12228.433,W,200100,A,A*40
$IIMTW,+08.0,C*30
$GPRMC,200113.8,A,4737.07991,N,12228.43562,W,006.89,226.6,130413,016.6,E*4D
$HCHDG,205.8,0.0,E,,*26
$GPRMC,200114.0,A,4737.07964,N,12228.43597,W,006.45,228.3,130413,016.6,E*49
$YXXDR,A,4.4,D,PTCH,A,20.2,D,ROLL*6D
$GPRMC,200114.2,A,4737.07942,N,12228.43639,W,006.79,229.4,130413,016.6,E*41
$GPRMC,200114.4,A,4737.07913,N,12228.43673,W,006.21,230.4,130413,016.6,E*48
$HCHDG,206.6,0.0,E,,*2B
$YXXDR,A,4.8,D,PTCH,A,20.7,D,ROLL*64
$GPRMC,200114.6,A,4737.07885,N,12228.43711,W,006.16,229.4,130413,016.6,E*4D
$GPRMC,200114.8,A,4737.07857,N,12228.43747,W,006.41,227.0,130413,016.6,E*47
$HCHDG,203.2,0.0,E,,*2A
$GPRMC,200115.0,A,4737.07830,N,12228.43779,W,006.34,223.5,130413,016.6,E*41
$YXXDR,A,5.5,D,PTCH,A,25.9,D,ROLL*63
$GPRMC,200115.2,A,4737.07797,N,12228.43817,W,007.14,221.4,130413,016.6,E*46
$GPRMC,200115.4,A,4737.07760,N,12228.43851,W,006.79,220.4,130413,016.6,E*41
$HCHDG,200.9,0.0,E,,*22
$IIRMC,200100,A,4737.079,N,12228.435,W,06.8,226,130413,16,E,A*16
$YXXDR,A,5.0,D,PTCH,A,25.8,D,ROLL*67
$IIVHW,,,,,00.0,N,,*19
$GPRMC,200115.6,A,4737.07733,N,12228.43888,W,006.81,221.8,130413,016.6,E*4B
$IIVLW,06210,N,000.0,N*56
$IIGLL,4737.079,N,12228.435,W,200100,A,A*41
$IIMTW,+08.0,C*30
$GPRMC,200115.8,A,4737.07700,N,12228.43931,W,006.85,222.9,130413,016.6,E*40
$IIRMC,200100,A,4737.078,N,12228.437,W,06.4,227,130413,16,E,A*18
$IIVHW,,,,,00.0,N,,*19
$HCHDG,206.0,0.0,E,,*2D
$GPRMC,200116.0,A,4737.07677,N,12228.43969,W,006.92,224.4,130413,016.6,E*4A
$IIVLW,06210,N,000.0,N*56
$YXXDR,A,4.8,D,PTCH,A,18.5,D,ROLL*6D
$GPRMC,200116.2,A,4737.07649,N,12228.44007,W,006.87,226.6,130413,016.6,E*47
$GPRMC,200116.4,A,4737.07623,N,12228.44049,W,006.81,227.4,130413,016.6,E*42
$HCHDG,209.2,0.0,E,,*20
$IIGLL,4737.077,N,12228.439,W,200100,A,A*43
$IIMTW,+08.0,C*30
$YXXDR,A,4.8,D,PTCH,A,17.4,D,ROLL*63
$GPRMC,200116.6,A,4737.07598,N,12228.44095,W,006.80,228.3,130413,016.6,E*4B
$IIRMC,200100,A,4737.077,N,12228.439,W,06.8,222,130413,16,E,A*10
$IIVHW,,,,,00.0,N,,*19
$IIVLW,06210,N,000.0,N*56
$GPRMC,200116.8,A,4737.07576,N,12228.44135,W,006.61,227.5,130413,016.6,E*48
$HCHDG,207.5,0.0,E,,*29
$GPRMC,200117.0,A,4737.07562,N,12228.44175,W,006.67,226.2,130413,016.6,E*40
$YXXDR,A,4.9,D,PTCH,A,26.2,D,ROLL*66
$GPRMC,200117.2,A,4737.07535,N,12228.44215,W,006.94,226.3,130413,016.6,E*48
$GPRMC,200117.4,A,4737.07508,N,12228.44254,W,006.78,226.2,130413,016.6,E*46
$HCHDG,206.4,0.0,E,,*29
$IIGLL,4737.075,N,12228.441,W,200100,A,A*4E
$IIMTW,+08.0,C*30
$YXXDR,A,5.1,D,PTCH,A,25.5,D,ROLL*6B
$GPRMC,200117.6,A,4737.07476,N,12228.44265,W,007.56,228.7,130413,016.6,E*48
$PTAK,FFP1,HEEL,@*07
$IIRMC,200100,A,4737.075,N,12228.441,W,06.6,227,130413,16,E,A*16
$IIVHW,,,,,00.0,N,,*19
$IIVLW,06210,N,000.0,N*56
$GPRMC,200117.8,A,4737.07457,N,12228.44311,W,007.26,229.4,130413,016.6,E*42
$HCHDG,208.2,0.0,E,,*21
$GPRMC,200118.0,A,4737.07434,N,12228.44359,W,007.23,230.2,130413,016.6,E*47
$YXXDR,A,4.5,D,PTCH,A,21.6,D,ROLL*69
$GPRMC,200118.2,A,4737.07414,N,12228.44400,W,006.47,232.1,130413,016.6,E*4E
$GPRMC,200118.4,A,4737.07393,N,12228.44448,W,006.52,231.8,130413,016.6,E*42
$HCHDG,209.2,0.0,E,,*20
$IIGLL,4737.074,N,12228.443,W,200100,A,A*4D
$IIMTW,+08.0,C*30
$YXXDR,A,4.4,D,PTCH,A,21.7,D,ROLL*69
$GPRMC,200118.6,A,4737.07368,N,12228.44493,W,006.54,231.4,130413,016.6,E*48
$IIRMC,200100,A,4737.074,N,12228.443,W,07.2,229,130413,16,E,A*1E
$IIVHW,,,,,00.0,N,,*19
$IIVLW,06210,N,000.0,N*56
$GPRMC,200118.8,A,4737.07339,N,12228.44533,W,006.79,228.3,130413,016.6,E*49
$HCHDG,207.8,0.0,E,,*24
$GPRMC,200119.0,A,4737.07314,N,12228.44574,W,006.83,225.6,130413,016.6,E*41
$YXXDR,A,5.5,D,PTCH,A,25.0,D,ROLL*6A
$GPRMC,200119.2,A,4737.07290,N,12228.44612,W,007.06,225.3,130413,016.6,E*44
$GPRMC,200119.4,A,4737.07261,N,12228.44657,W,007.55,225.4,130413,016.6,E*4C
$HCHDG,207.0,0.0,E,,*2C
$IIGLL,4737.073,N,12228.445,W,200100,A,A*4C
$IIMTW,+08.0,C*30
$YXXDR,A,4.8,D,PTCH,A,25.4,D,ROLL*62
$GPRMC,200119.6,A,4737.07238,N,12228.44702,W,006.97,227.5,130413,016.6,E*4F
$IIRMC,200100,A,4737.073,N,12228.445,W,06.7,228,130413,16,E,A*1A
$IIVHW,,,,,00.0,N,,*19
$IIVLW,06210,N,000.0,N*56
$GPRMC,200119.8,A,4737.07214,N,12228.44741,W,006.92,231.4,130413,016.6,E*4B
$HCHDG,210.0,0.0,E,,*2A
$GPRMC,200120.0,A,4737.07189,N,12228.44779,W,006.89,232.0,130413,016.6,E*48
$YXXDR,A,4.3,D,PTCH,A,22.0,D,ROLL*6A
$GPRMC,200120.2,A,4737.07168,N,12228.44823,W,006.83,232.8,130413,016.6,E*47
$GPRMC,200120.4,A,4737.07146,N,12228.44867,W,007.01,232.3,130413,016.6,E*4D
$HCHDG,210.2,0.0,E,,*28
$IIGLL,4737.072,N,12228.447,W,200100,A,A*4F
$IIMTW,+08.0,C*30
$YXXDR,A,4.6,D,PTCH,A,24.2,D,ROLL*6B
$GPRMC,200120.6,A,4737.07121,N,12228.44906,W,006.72,231.6,130413,016.6,E*4B
$IIRMC,200100,A,4737.072,N,12228.447,W,06.9,231,130413,16,E,A*1F
$IIVHW,,,,,00.0,N,,*19
$IIVLW,06210,N,000.0,N*56
$GPRMC,200120.8,A,4737.07097,N,12228.44946,W,006.71,232.4,130413,016.6,E*4F
$HCHDG,207.8,0.0,E,,*24
$GPRMC,200121.0,A,4737.07072,N,12228.44992,W,006.72,231.7,130413,016.6,E*47
$YXXDR,A,4.8,D,PTCH,A,27.5,D,ROLL*61
$GPRMC,200121.2,A,4737.07046,N,12228.45036,W,006.75,231.2,130413,016.6,E*46
$GPRMC,200121.4,A,4737.07021,N,12228.45083,W,006.93,229.0,130413,016.6,E*4C
$HCHDG,205.5,0.0,E,,*2B
$IIGLL,4737.070,N,12228.449,W,200100,A,A*43
$IIMTW,+08.0,C*30
$YXXDR,A,4.3,D,PTCH,A,27.6,D,ROLL*69
$GPRMC,200121.6,A,4737.06998,N,12228.45119,W,006.68,227.3,130413,016.6,E*4F
$IIRMC,200100,A,4737.070,N,12228.449,W,06.7,232,130413,16,E,A*1E
$IIVHW,,,,,00.0,N,,*19
$PTAK,FFP1,HEEL,@*07
$IIVLW,06210,N,000.0,N*56
$GPRMC,200121.8,A,4737.06966,N,12228.45158,W,006.35,221.6,130413,016.6,E*4E
$HCHDG,201.0,0.0,E,,*2A
$GPRMC,200122.0,A,4737.06937,N,12228.45195,W,006.38,219.3,130413,016.6,E*43
$YXXDR,A,4.5,D,PTCH,A,30.2,D,ROLL*6D
$GPRMC,200122.2,A,4737.06903,N,12228.45234,W,006.93,219.1,130413,016.6,E*4D
$GPRMC,200122.4,A,4737.06876,N,12228.45269,W,006.85,216.8,130413,016.6,E*41
$HCHDG,199.1,0.0,E,,*29
$IIGLL,4737.069,N,12228.451,W,200100,A,A*42
$IIMTW,+08.0,C*30
$YXXDR,A,5.0,D,PTCH,A,29.7,D,ROLL*64
$GPRMC,200122.6,A,4737.06842,N,12228.45298,W,006.90,218.0,130413,016.6,E*48
$IIRMC,200100,A,4737.069,N,12228.451,W,06.3,219,130413,16,E,A*12
$IIVHW,,,,,00.0,N,,*19
$IIVLW,06210,N,000.0,N*56
$GPRMC,200122.8,A,4737.06815,N,12228.45337,W,006.83,223.7,130413,016.6,E*4D
$HCHDG,204.6,0.0,E,,*29
$GPRMC,200123.0,A,4737.06791,N,12228.45381,W,006.57,228.0,130413,016.6,E*4F
$YXXDR,A,4.8,D,PTCH,A,22.2,D,ROLL*63
$GPRMC,200123.2,A,4737.06762,N,12228.45435,W,006.91,232.5,130413,016.6,E*4D
$GPRMC,200123.4,A,4737.06743,N,12228.45484,W,006.84,232.8,130413,016.6,E*4B
$HCHDG,210.1,0.0,E,,*2B
$IIGLL,4737.067,N,12228.453,W,200100,A,A*4E
$IIMTW,+08.0,C*30
$YXXDR,A,5.2,D,PTCH,A,18.9,D,ROLL*6A
$GPRMC,200123.6,A,4737.06715,N,12228.45522,W,006.59,232.5,130413,016.6,E*4A
$IIRMC,200100,A,4737.067,N,12228.453,W,06.5,228,130413,16,E,A*1A
$IIVHW,,,,,00.0,N,,*19
$IIVLW,06210,N,000.0,N*56
$GPRMC,200123.8,A,4737.06693,N,12228.45565,W,006.43,230.0,130413,016.6,E*44
$HCHDG,206.7,0.0,E,,*2A
$GPRMC,200124.0,A,4737.06675,N,12228.45604,W,006.67,228.5,130413,016.6,E*4D
$YXXDR,A,4.9,D,PTCH,A,26.5,D,ROLL*61
$GPRMC,200124.2,A,4737.06644,N,12228.45617,W,006.96,227.2,130413,016.6,E*49
$GPRMC,200124.4,A,4737.06614,N,12228.45622,W,006.16,222.1,130413,016.6,E*42
$HCHDG,202.9,0.0,E,,*20
$IIGLL,4737.066,N,12228.456,W,200100,A,A*4A
$IIMTW,+08.0,C*30
$YXXDR,A,4.8,D,PTCH,A,28.1,D,ROLL*6A
$GPRMC,200124.6,A,4737.06582,N,12228.45658,W,006.45,220.7,130413,016.6,E*43
$IIRMC,200100,A,4737.066,N,12228.456,W,06.6,228,130413,16,E,A*1D
$IIVHW,,,,,00.0,N,,*19
$IIVLW,06210,N,000.0,N*56
$GPRMC,200124.8,A,4737.06559,N,12228.45694,W,006.23,222.3,130413,016.6,E*4D
$HCHDG,202.3,0.0,E,,*2A
$GPRMC,200125.0,A,4737.06532,N,12228.45727,W,006.30,222.7,130413,016.6,E*46
$YXXDR,A,4.6,D,PTCH,A,26.5,D,ROLL*6E
$GPRMC,200125.2,A,4737.06510,N,12228.45766,W,006.66,222.6,130413,016.6,E*43
$GPRMC,200125.4,A,4737.06487,N,12228.45809,W,006.63,223.4,130413,016.6,E*4A
$HCHDG,204.6,0.0,E,,*29
$IIGLL,4737.065,N,12228.457,W,200100,A,A*48
$IIMTW,+08.0,C*30
$YXXDR,A,4.5,D,PTCH,A,22.2,D,ROLL*6E
$GPRMC,200125.6,A,4737.06458,N,12228.45849,W,006.63,225.8,130413,016.6,E*44
