$HCHDG,268.1,0.0,E,,*24
$HCHDG,268.1,0.0,E,,*24
$HCHDG,268.1,0.0,E,,*24
$IIRMC,215900,A,4741.204,N,12224.273,W,00.0,257,210413,16,E,A*12
$GPRMC,220001.0,A,4741.20430,N,12224.27311,W,000.01,257.6,210413,016.6,E,D*22
$PGRME,2.4,M,5.2,M,5.8,M*22
$IIVHW,,,,,00.0,N,,*19
$HCHDG,268.1,0.0,E,,*24
$IIVLW,06236,N,007.8,N*5D
$IIDPT,007.8,-1.0,*4F
$HCHDG,268.1,0.0,E,,*24
$GPRMC,220001.2,A,4741.20430,N,12224.27311,W,000.01,257.6,210413,016.6,E,D*20
$PGRME,2.4,M,5.2,M,5.8,M*22
$IIGLL,4741.204,N,12224.273,W,215900,A,A*4C
$YXXDR,A,4.5,D,PTCH,A,0.0,D,ROLL*5C
$PTAK,FFD1,0.0*55
$IIMTW,+09.0,C*31
$HCHDG,268.1,0.0,E,,*24
$IIRMB,A,0.00,L,,M   ,,,,,000.6,357,,V,A*2D
$HCHDG,268.1,0.0,E,,*24
$GPRMC,220001.4,A,4741.20430,N,12224.27311,W,000.00,257.6,210413,016.6,E,D*27
$GPRMB,A,0.00,L,M,M,4741.7720,N,12224.5760,W,0.6,357,-0.00,V*27
$PGRME,2.4,M,5.2,M,5.8,M*22
$HCHDG,268.1,0.0,E,,*24
$HCHDG,268.1,0.0,E,,*24
$GPRMC,220001.6,A,4741.20430,N,12224.27311,W,000.01,257.6,210413,016.6,E,D*24
$PGRME,2.4,M,5.2,M,5.8,M*22
$HCHDG,268.1,0.0,E,,*24
$YXXDR,A,4.5,D,PTCH,A,0.0,D,ROLL*5C
$GPRMC,220001.8,A,4741.20430,N,12224.27312,W,000.01,257.6,210413,016.6,E,D*29
$PGRME,2.4,M,5.2,M,5.8,M*22
$HCHDG,268.0,0.0,E,,*25
$HCHDG,268.0,0.0,E,,*25
$HCHDG,268.0,0.0,E,,*25
$IIRMC,220000,A,4741.204,N,12224.273,W,00.0,257,210413,16,E,A*1D
$GPRMC,220002.0,A,4741.20430,N,12224.27312,W,000.00,257.6,210413,016.6,E,D*23
$PGRME,2.4,M,5.2,M,5.8,M*22
$IIVHW,,,,,00.0,N,,*19
$HCHDG,268.0,0.0,E,,*25
$IIVLW,06236,N,007.8,N*5D
$IIDPT,007.8,-1.0,*4F
$HCHDG,268.0,0.0,E,,*25
$GPRMC,220002.2,A,4741.20430,N,12224.27312,W,000.01,257.6,210413,016.6,E,D*20
$PGRME,2.4,M,5.2,M,5.8,M*22
$IIGLL,4741.204,N,12224.273,W,220000,A,A*43
$YXXDR,A,4.5,D,PTCH,A,0.1,D,ROLL*5D
$PTAK,FFD1,0.1*54
$IIMTW,+09.0,C*31
$HCHDG,268.0,0.0,E,,*25
$IIRMB,A,0.00,L,,M   ,,,,,000.6,357,,V,A*2D
$HCHDG,268.0,0.0,E,,*25
$GPRMC,220002.4,A,4741.20430,N,12224.27312,W,000.01,257.6,210413,016.6,E,D*26
$GPRMB,A,0.00,L,M,M,4741.7720,N,12224.5760,W,0.6,357,-0.00,V*27
$PGRME,2.4,M,5.2,M,5.7,M*2D
$HCHDG,268.0,0.0,E,,*25
$HCHDG,268.0,0.0,E,,*25
$GPRMC,220002.6,A,4741.20430,N,12224.27312,W,000.01,257.6,210413,016.6,E,D*24
$PGRME,2.4,M,5.2,M,5.7,M*2D
$HCHDG,268.0,0.0,E,,*25
$YXXDR,A,4.6,D,PTCH,A,0.2,D,ROLL*5D
$GPRMC,220002.8,A,4741.20430,N,12224.27312,W,000.00,257.6,210413,016.6,E,D*2B
$PGRME,2.4,M,5.2,M,5.7,M*2D
$HCHDG,268.0,0.0,E,,*25
$HCHDG,268.0,0.0,E,,*25
$HCHDG,268.0,0.0,E,,*25
$IIRMC,220000,A,4741.204,N,12224.273,W,00.0,257,210413,16,E,A*1D
$GPRMC,220003.0,A,4741.20430,N,12224.27312,W,000.01,257.6,210413,016.6,E,D*23
$PGRME,2.4,M,5.2,M,5.7,M*2D
$IIVHW,,,,,00.0,N,,*19
$HCHDG,268.0,0.0,E,,*25
$IIVLW,06236,N,007.8,N*5D
$IIDPT,007.8,-1.0,*4F
$HCHDG,268.0,0.0,E,,*25
$GPRMC,220003.2,A,4741.20430,N,12224.27312,W,000.00,257.6,210413,016.6,E,D*20
$PGRME,2.4,M,5.2,M,5.7,M*2D
$IIGLL,4741.204,N,12224.273,W,220000,A,A*43
$YXXDR,A,4.7,D,PTCH,A,0.4,D,ROLL*5A
$IIMTW,+09.0,C*31
$HCHDG,268.0,0.0,E,,*25
$IIRMB,A,0.00,L,,M   ,,,,,000.6,357,,V,A*2D
$HCHDG,268.0,0.0,E,,*25
$GPRMC,220003.4,A,4741.20430,N,12224.27312,W,000.01,257.6,210413,016.6,E,D*27
$GPRMB,A,0.00,L,M,M,4741.7720,N,12224.5760,W,0.6,357,-0.00,V*27
$PGRME,2.4,M,5.2,M,5.7,M*2D
$HCHDG,268.1,0.0,E,,*24
$HCHDG,268.1,0.0,E,,*24
$GPRMC,220003.6,A,4741.20430,N,12224.27312,W,000.00,257.6,210413,016.6,E,D*24
$PGRME,2.4,M,5.2,M,5.7,M*2D
$HCHDG,268.1,0.0,E,,*24
$YXXDR,A,4.7,D,PTCH,A,0.2,D,ROLL*5C
$PTAK,FFD1,0.2*57
$GPRMC,220003.8,A,4741.20430,N,12224.27312,W,000.00,257.6,210413,016.6,E,D*2A
$PGRME,2.4,M,5.2,M,5.7,M*2D
$HCHDG,268.1,0.0,E,,*24
$HCHDG,268.1,0.0,E,,*24
$HCHDG,268.1,0.0,E,,*24
$IIRMC,220000,A,4741.204,N,12224.273,W,00.0,257,210413,16,E,A*1D
$GPRMC,220004.0,A,4741.20430,N,12224.27313,W,000.01,257.6,210413,016.6,E,D*25
$PGRME,2.4,M,5.2,M,5.7,M*2D
$IIVHW,,,,,00.0,N,,*19
$HCHDG,268.1,0.0,E,,*24
$IIVLW,06236,N,007.8,N*5D
$IIDPT,007.8,-1.0,*4F
$HCHDG,268.0,0.0,E,,*25
$GPRMC,220004.2,A,4741.20430,N,12224.27313,W,000.01,257.6,210413,016.6,E,D*27
$PGRME,2.4,M,5.2,M,5.7,M*2D
$IIGLL,4741.204,N,12224.273,W,220000,A,A*43
$YXXDR,A,4.7,D,PTCH,A,0.0,D,ROLL*5E
$PTAK,FFP1,HEEL,@*07
$IIMTW,+08.0,C*30
$HCHDG,268.0,0.0,E,,*25
$IIRMB,A,0.00,L,,M   ,,,,,000.6,357,,V,A*2D
$HCHDG,268.0,0.0,E,,*25
$GPRMC,220004.4,A,4741.20430,N,12224.27313,W,000.01,257.6,210413,016.6,E,D*21
$PGRME,2.4,M,5.2,M,5.7,M*2D
$HCHDG,267.9,0.0,E,,*23
$HCHDG,268.0,0.0,E,,*25
$GPRMC,220004.6,A,4741.20430,N,12224.27313,W,000.00,257.6,210413,016.6,E,D*22
$GPRMB,A,0.00,L,M,M,4741.7720,N,12224.5760,W,0.6,357,-0.00,V*27
$PGRME,2.4,M,5.2,M,5.7,M*2D
$HCHDG,267.9,0.0,E,,*23
$YXXDR,A,4.5,D,PTCH,A,0.0,D,ROLL*5C
$PTAK,FFD1,0.0*55
$GPRMC,220004.8,A,4741.20430,N,12224.27313,W,000.01,257.6,210413,016.6,E,D*2D
$PGRME,2.4,M,5.2,M,5.7,M*2D
$HCHDG,267.8,0.0,E,,*22
$HCHDG,267.8,0.0,E,,*22
$HCHDG,267.8,0.0,E,,*22
$IIRMC,220000,A,4741.204,N,12224.273,W,00.0,257,210413,16,E,A*1D
$GPRMC,220005.0,A,4741.20430,N,12224.27313,W,000.01,257.6,210413,016.6,E,D*24
$PGRME,2.4,M,5.2,M,5.7,M*2D
$IIVHW,,,,,00.0,N,,*19
$HCHDG,267.7,0.0,E,,*2D
$IIVLW,06236,N,007.8,N*5D
$IIDPT,007.8,-1.0,*4F
$HCHDG,267.6,0.0,E,,*2C
$GPRMC,220005.2,A,4741.20430,N,12224.27313,W,000.01,257.6,210413,016.6,E,D*26
$PGRME,2.4,M,5.2,M,5.7,M*2D
$IIGLL,4741.204,N,12224.273,W,220000,A,A*43
$YXXDR,A,4.7,D,PTCH,A,0.0,D,ROLL*5E
$IIMTW,+09.0,C*31
$HCHDG,267.6,0.0,E,,*2C
$IIRMB,A,0.00,L,,M   ,,,,,000.6,357,,V,A*2D
$HCHDG,267.7,0.0,E,,*2D
$GPRMC,220005.4,A,4741.20430,N,12224.27313,W,000.01,257.6,210413,016.6,E,D*20
$PGRME,2.4,M,5.2,M,5.7,M*2D
$HCHDG,267.6,0.0,E,,*2C
$HCHDG,267.6,0.0,E,,*2C
$GPRMC,220005.6,A,4741.20430,N,12224.27313,W,000.01,257.6,210413,016.6,E,D*22
$PGRME,2.4,M,5.2,M,5.7,M*2D
$HCHDG,267.6,0.0,E,,*2C
$YXXDR,A,4.7,D,PTCH,A,0.0,D,ROLL*5E
$GPRMC,220005.8,A,4741.20430,N,12224.27313,W,000.00,257.6,210413,016.6,E,D*2D
$GPRMB,A,0.00,L,M,M,4741.7720,N,12224.5760,W,0.6,357,-0.00,V*27
$PGRME,2.4,M,5.2,M,5.7,M*2D
$HCHDG,267.6,0.0,E,,*2C
$HCHDG,267.6,0.0,E,,*2C
$HCHDG,267.7,0.0,E,,*2D
$IIRMC,220000,A,4741.204,N,12224.273,W,00.0,257,210413,16,E,A*1D
$GPRMC,220006.0,A,4741.20430,N,12224.27313,W,000.01,257.6,210413,016.6,E,D*27
$PGRME,2.4,M,5.2,M,5.7,M*2D
$IIVHW,,,,,00.0,N,,*19
$HCHDG,267.7,0.0,E,,*2D
$IIVLW,06236,N,007.8,N*5D
$IIDPT,007.8,-1.0,*4F
$HCHDG,267.7,0.0,E,,*2D
$GPRMC,220006.2,A,4741.20430,N,12224.27313,W,000.00,257.6,210413,016.6,E,D*24
$PGRME,2.4,M,5.2,M,5.7,M*2D
$IIGLL,4741.204,N,12224.273,W,220000,A,A*43
$YXXDR,A,4.7,D,PTCH,A,0.0,D,ROLL*5E
$PTAK,FFD1,0.0*55
$IIMTW,+09.0,C*31
$HCHDG,267.8,0.0,E,,*22
$IIRMB,A,0.00,L,,M   ,,,,,000.6,357,,V,A*2D
$HCHDG,267.8,0.0,E,,*22
$GPRMC,220006.4,A,4741.20430,N,12224.27313,W,000.01,257.6,210413,016.6,E,D*23
$PGRME,2.4,M,5.2,M,5.7,M*2D
$HCHDG,267.9,0.0,E,,*23
$HCHDG,268.2,0.0,E,,*27
$GPRMC,220006.6,A,4741.20430,N,12224.27313,W,000.01,257.6,210413,016.6,E,D*21
$PGRME,2.4,M,5.2,M,5.7,M*2D
$HCHDG,268.2,0.0,E,,*27
$YXXDR,A,4.8,D,PTCH,A,0.3,D,ROLL*52
$GPRMC,220006.8,A,4741.20430,N,12224.27313,W,000.00,257.6,210413,016.6,E,D*2E
$HCHDG,268.2,0.0,E,,*27
$PGRME,2.4,M,5.2,M,5.7,M*2D
$HCHDG,268.2,0.0,E,,*27
$HCHDG,268.3,0.0,E,,*26
$IIRMC,220000,A,4741.204,N,12224.273,W,00.0,257,210413,16,E,A*1D
$GPRMC,220007.0,A,4741.20430,N,12224.27313,W,000.01,257.6,210413,016.6,E,D*26
$GPRMB,A,0.00,L,M,M,4741.7720,N,12224.5760,W,0.6,357,-0.00,V*27
$PGRME,2.4,M,5.2,M,5.7,M*2D
$IIVHW,,,,,00.0,N,,*19
$HCHDG,268.3,0.0,E,,*26
$IIVLW,06236,N,007.8,N*5D
$IIDPT,007.8,-1.0,*4F
$HCHDG,268.3,0.0,E,,*26
$GPRMC,220007.2,A,4741.20430,N,12224.27313,W,000.01,257.6,210413,016.6,E,D*24
$PGRME,2.4,M,5.2,M,5.7,M*2D
$IIGLL,4741.204,N,12224.273,W,220000,A,A*43
$YXXDR,A,4.8,D,PTCH,A,0.1,D,ROLL*50
$PTAK,FFD1,0.1*54
$IIMTW,+09.0,C*31
$HCHDG,268.3,0.0,E,,*26
$IIRMB,A,0.00,L,,M   ,,,,,000.6,357,,V,A*2D
$HCHDG,268.2,0.0,E,,*27
$GPRMC,220007.4,A,4741.20430,N,12224.27313,W,000.01,257.6,210413,016.6,E,D*22
$PGRME,2.4,M,5.2,M,5.7,M*2D
$HCHDG,268.2,0.0,E,,*27
$HCHDG,268.2,0.0,E,,*27
$GPRMC,220007.6,A,4741.20430,N,12224.27313,W,000.01,257.6,210413,016.6,E,D*20
$PGRME,2.4,M,5.2,M,5.7,M*2D
$HCHDG,268.1,0.0,E,,*24
$YXXDR,A,4.7,D,PTCH,A,0.0,D,ROLL*5E
$GPRMC,220007.8,A,4741.20430,N,12224.27313,W,000.01,257.6,210413,016.6,E,D*2E
$PGRME,2.4,M,5.2,M,5.7,M*2D
$HCHDG,268.0,0.0,E,,*25
$HCHDG,267.9,0.0,E,,*23
$HCHDG,268.0,0.0,E,,*25
$IIRMC,220000,A,4741.204,N,12224.273,W,00.0,257,210413,16,E,A*1D
$GPRMC,220008.0,A,4741.20430,N,12224.27314,W,000.02,257.6,210413,016.6,E,D*2D
$PGRME,2.4,M,5.2,M,5.7,M*2D
$IIVHW,,,,,00.0,N,,*19
$HCHDG,268.0,0.0,E,,*25
$IIVLW,06236,N,007.8,N*5D
$IIDPT,007.8,-1.0,*4F
$HCHDG,267.8,0.0,E,,*22
$GPRMC,220008.2,A,4741.20430,N,12224.27314,W,000.02,257.6,210413,016.6,E,D*2F
$GPRMB,A,0.00,L,M,M,4741.7720,N,12224.5760,W,0.6,357,-0.01,V*26
$PTAK,FFP1,HEEL,@*07
$PGRME,2.4,M,5.2,M,5.7,M*2D
$IIGLL,4741.204,N,12224.273,W,220000,A,A*43
$YXXDR,A,4.7,D,PTCH,A,0.0,D,ROLL*5E
$PTAK,FFD1,0.0*55
$IIMTW,+09.0,C*31
$HCHDG,267.8,0.0,E,,*22
$IIRMB,A,0.00,L,,M   ,,,,,000.6,357,,V,A*2D
$HCHDG,267.7,0.0,E,,*2D
$GPRMC,220008.4,A,4741.20430,N,12224.27314,W,000.00,257.6,210413,016.6,E,D*2B
$PGRME,2.4,M,5.2,M,5.7,M*2D
$HCHDG,267.7,0.0,E,,*2D
$HCHDG,267.7,0.0,E,,*2D
$GPRMC,220008.6,A,4741.20430,N,12224.27314,W,000.01,257.6,210413,016.6,E,D*28
$PGRME,2.4,M,5.2,M,5.7,M*2D
$HCHDG,267.4,0.0,E,,*2E
$YXXDR,A,4.5,D,PTCH,A,-0.1,D,ROLL*70
$GPRMC,220008.8,A,4741.20430,N,12224.27314,W,000.00,257.6,210413,016.6,E,D*27
$PGRME,2.4,M,5.2,M,5.7,M*2D
$HCHDG,267.4,0.0,E,,*2E
$HCHDG,267.4,0.0,E,,*2E
$HCHDG,267.5,0.0,E,,*2F
$IIRMC,220000,A,4741.204,N,12224.273,W,00.0,257,210413,16,E,A*1D
$GPRMC,220009.0,A,4741.20430,N,12224.27314,W,000.01,257.6,210413,016.6,E,D*2F
$PGRME,2.4,M,5.2,M,5.7,M*2D
$IIVHW,,,,,00.0,N,,*19
$HCHDG,267.5,0.0,E,,*2F
$IIVLW,06236,N,007.8,N*5D
$IIDPT,007.6,-1.0,*41
$HCHDG,267.6,0.0,E,,*2C
$GPRMC,220009.2,A,4741.20429,N,12224.27315,W,000.01,257.6,210413,016.6,E,D*24
$PGRME,2.4,M,5.2,M,5.7,M*2D
$IIGLL,4741.204,N,12224.273,W,220000,A,A*43
$YXXDR,A,4.5,D,PTCH,A,0.0,D,ROLL*5C
$IIMTW,+09.0,C*31
$HCHDG,267.7,0.0,E,,*2D
$IIRMB,A,0.00,L,,M   ,,,,,000.6,357,,V,A*2D
$HCHDG,267.7,0.0,E,,*2D
$GPRMC,220009.4,A,4741.20429,N,12224.27315,W,000.01,257.6,210413,016.6,E,D*22
$GPRMB,A,0.00,L,M,M,4741.7720,N,12224.5760,W,0.6,357,-0.00,V*27
$PGRME,2.4,M,5.2,M,5.7,M*2D
$HCHDG,267.8,0.0,E,,*22
$HCHDG,267.9,0.0,E,,*23
$GPRMC,220009.6,A,4741.20429,N,12224.27314,W,000.00,257.6,210413,016.6,E,D*20
$PGRME,2.4,M,5.2,M,5.7,M*2D
$HCHDG,268.0,0.0,E,,*25
$YXXDR,A,4.5,D,PTCH,A,0.2,D,ROLL*5E
$PTAK,FFD1,0.2*57
$GPRMC,220009.8,A,4741.20429,N,12224.27315,W,000.00,257.6,210413,016.6,E,D*2F
$HCHDG,268.1,0.0,E,,*24
$PGRME,2.4,M,5.2,M,5.7,M*2D
$HCHDG,268.2,0.0,E,,*27
$HCHDG,268.2,0.0,E,,*27
$IIRMC,220000,A,4741.204,N,12224.273,W,00.0,257,210413,16,E,A*1D
$GPRMC,220010.0,A,4741.20429,N,12224.27315,W,000.00,257.6,210413,016.6,E,D*2F
$PGRME,2.4,M,5.2,M,5.7,M*2D
$IIVHW,,,,,00.0,N,,*19
$HCHDG,268.4,0.0,E,,*21
$IIVLW,06236,N,007.8,N*5D
$IIDPT,007.8,-1.0,*4F
$HCHDG,268.4,0.0,E,,*21
$GPRMC,220010.2,A,4741.20429,N,12224.27315,W,000.00,257.6,210413,016.6,E,D*2D
$PGRME,2.4,M,5.2,M,5.7,M*2D
$IIGLL,4741.204,N,12224.273,W,220000,A,A*43
$YXXDR,A,4.7,D,PTCH,A,0.4,D,ROLL*5A
$IIMTW,+09.0,C*31
$HCHDG,268.5,0.0,E,,*20
$IIRMB,A,0.00,L,,M   ,,,,,000.6,357,,V,A*2D
$HCHDG,268.4,0.0,E,,*21
$GPRMC,220010.4,A,4741.20429,N,12224.27315,W,000.01,257.6,210413,016.6,E,D*2A
$GPRMB,A,0.00,L,M,M,4741.7720,N,12224.5760,W,0.6,357,-0.00,V*27
$PGRME,2.4,M,5.2,M,5.7,M*2D
$HCHDG,268.5,0.0,E,,*20
$HCHDG,268.7,0.0,E,,*22
$GPRMC,220010.6,A,4741.20429,N,12224.27315,W,000.01,257.6,210413,016.6,E,D*28
$PGRME,2.4,M,5.2,M,5.7,M*2D
$HCHDG,268.7,0.0,E,,*22
$YXXDR,A,4.8,D,PTCH,A,0.0,D,ROLL*51
$PTAK,FFD1,0.0*55
$GPRMC,220010.8,A,4741.20429,N,12224.27315,W,000.01,257.6,210413,016.6,E,D*26
$PGRME,2.4,M,5.2,M,5.7,M*2D
$HCHDG,268.7,0.0,E,,*22
$HCHDG,268.7,0.0,E,,*22
$HCHDG,268.7,0.0,E,,*22
$IIRMC,220000,A,4741.204,N,12224.273,W,00.0,257,210413,16,E,A*1D
$GPRMC,220011.0,A,4741.20429,N,12224.27315,W,000.01,257.6,210413,016.6,E,D*2F
$PGRME,2.4,M,5.2,M,5.8,M*22
$IIVHW,,,,,00.0,N,,*19
$HCHDG,268.6,0.0,E,,*23
$IIVLW,06236,N,007.8,N*5D
$IIDPT,007.8,-1.0,*4F
$HCHDG,268.6,0.0,E,,*23
$GPRMC,220011.2,A,4741.20429,N,12224.27315,W,000.01,257.6,210413,016.6,E,D*2D
$PGRME,2.4,M,5.2,M,5.8,M*22
$IIGLL,4741.204,N,12224.273,W,220000,A,A*43
$YXXDR,A,4.7,D,PTCH,A,0.0,D,ROLL*5E
$IIMTW,+09.0,C*31
$HCHDG,268.4,0.0,E,,*21
$IIRMB,A,0.00,L,,M   ,,,,,000.6,357,,V,A*2D
$HCHDG,268.3,0.0,E,,*26
$GPRMC,220011.4,A,4741.20429,N,12224.27315,W,000.01,257.6,210413,016.6,E,D*2B
$GPRMB,A,0.00,L,M,M,4741.7720,N,12224.5760,W,0.6,357,-0.00,V*27
$PGRME,2.4,M,5.2,M,5.8,M*22
$HCHDG,268.3,0.0,E,,*26
$HCHDG,268.1,0.0,E,,*24
$GPRMC,220011.6,A,4741.20429,N,12224.27315,W,000.01,257.6,210413,016.6,E,D*29
$PGRME,2.4,M,5.2,M,5.8,M*22
$HCHDG,268.1,0.0,E,,*24
$YXXDR,A,4.7,D,PTCH,A,-0.2,D,ROLL*71
$GPRMC,220011.8,A,4741.20429,N,12224.27315,W,000.01,257.6,210413,016.6,E,D*27
$PGRME,2.4,M,5.2,M,5.8,M*22
$HCHDG,268.0,0.0,E,,*25
$HCHDG,267.9,0.0,E,,*23
$HCHDG,267.7,0.0,E,,*2D
$IIRMC,220000,A,4741.204,N,12224.273,W,00.0,257,210413,16,E,A*1D
$GPRMC,220012.0,A,4741.20429,N,12224.27315,W,000.01,257.6,210413,016.6,E,D*2C
$PGRME,2.4,M,5.2,M,5.8,M*22
$IIVHW,,,,,00.0,N,,*19
$HCHDG,267.7,0.0,E,,*2D
$IIVLW,06236,N,007.8,N*5D
$IIDPT,007.8,-1.0,*4F
$HCHDG,267.7,0.0,E,,*2D
$GPRMC,220012.2,A,4741.20429,N,12224.27315,W,000.01,257.6,210413,016.6,E,D*2E
$PGRME,2.4,M,5.2,M,5.8,M*22
$IIGLL,4741.204,N,12224.273,W,220000,A,A*43
$YXXDR,A,4.5,D,PTCH,A,-0.2,D,ROLL*73
$PTAK,FFD1,0.2*57
$IIMTW,+09.0,C*31
$HCHDG,267.7,0.0,E,,*2D
$IIRMB,A,0.00,L,,M   ,,,,,000.6,357,,V,A*2D
$HCHDG,267.7,0.0,E,,*2D
$PTAK,FFP1,HEEL,@*07
$GPRMC,220012.4,A,4741.20429,N,12224.27315,W,000.01,257.6,210413,016.6,E,D*28
$GPRMB,A,0.00,L,M,M,4741.7720,N,12224.5760,W,0.6,357,-0.00,V*27
$PGRME,2.4,M,5.2,M,5.8,M*22
$HCHDG,267.7,0.0,E,,*2D
$HCHDG,267.9,0.0,E,,*23
$GPRMC,220012.6,A,4741.20428,N,12224.27315,W,000.01,257.6,210413,016.6,E,D*2B
$PGRME,2.4,M,5.3,M,5.8,M*23
$HCHDG,267.9,0.0,E,,*23
$YXXDR,A,4.5,D,PTCH,A,0.0,D,ROLL*5C
$GPRMC,220012.8,A,4741.20428,N,12224.27315,W,000.01,257.6,210413,016.6,E,D*25
$PGRME,2.4,M,5.3,M,5.8,M*23
$HCHDG,268.0,0.0,E,,*25
$HCHDG,268.1,0.0,E,,*24
$HCHDG,268.2,0.0,E,,*27
$IIRMC,220000,A,4741.204,N,12224.273,W,00.0,257,210413,16,E,A*1D
$GPRMC,220013.0,A,4741.20428,N,12224.27316,W,000.00,257.6,210413,016.6,E,D*2E
$PGRME,2.4,M,5.3,M,5.8,M*23
$IIVHW,,,,,00.0,N,,*19
$HCHDG,268.3,0.0,E,,*26
$IIVLW,06236,N,007.8,N*5D
$IIDPT,007.8,-1.0,*4F
$HCHDG,268.4,0.0,E,,*21
$GPRMC,220013.2,A,4741.20428,N,12224.27316,W,000.00,257.6,210413,016.6,E,D*2C
$PGRME,2.4,M,5.3,M,5.8,M*23
$IIGLL,4741.204,N,12224.273,W,220000,A,A*43
$YXXDR,A,4.5,D,PTCH,A,0.3,D,ROLL*5F
$IIMTW,+09.0,C*31
$HCHDG,268.4,0.0,E,,*21
$IIRMB,A,0.00,L,,M   ,,,,,000.6,357,,V,A*2D
$HCHDG,268.6,0.0,E,,*23
$GPRMC,220013.4,A,4741.20428,N,12224.27316,W,000.00,257.6,210413,016.6,E,D*2A
$PGRME,2.4,M,5.3,M,5.8,M*23
$HCHDG,268.7,0.0,E,,*22
$HCHDG,268.6,0.0,E,,*23
$GPRMC,220013.6,A,4741.20428,N,12224.27316,W,000.00,257.6,210413,016.6,E,D*28
$GPRMB,A,0.00,L,M,M,4741.7720,N,12224.5760,W,0.6,357,-0.00,V*27
$PGRME,2.4,M,5.3,M,5.8,M*23
$HCHDG,268.7,0.0,E,,*22
$YXXDR,A,4.6,D,PTCH,A,0.7,D,ROLL*58
$PTAK,FFD1,0.7*52
$GPRMC,220013.8,A,4741.20428,N,12224.27316,W,000.00,257.6,210413,016.6,E,D*26
$PGRME,2.4,M,5.3,M,5.8,M*23
$HCHDG,268.8,0.0,E,,*2D
$HCHDG,268.9,0.0,E,,*2C
$HCHDG,268.8,0.0,E,,*2D
$IIRMC,220000,A,4741.204,N,12224.273,W,00.0,257,210413,16,E,A*1D
$GPRMC,220014.0,A,4741.20428,N,12224.27316,W,000.00,257.6,210413,016.6,E,D*29
$PGRME,2.4,M,5.3,M,5.8,M*23
$IIVHW,,,,,00.0,N,,*19
$HCHDG,269.1,0.0,E,,*25
$IIVLW,06236,N,007.8,N*5D
$IIDPT,007.8,-1.0,*4F
$HCHDG,269.1,0.0,E,,*25
$GPRMC,220014.2,A,4741.20428,N,12224.27316,W,000.00,257.6,210413,016.6,E,D*2B
$PGRME,2.4,M,5.3,M,5.8,M*23
$IIGLL,4741.204,N,12224.273,W,220000,A,A*43
$YXXDR,A,4.7,D,PTCH,A,0.0,D,ROLL*5E
$IIMTW,+09.0,C*31
$HCHDG,268.9,0.0,E,,*2C
$IIRMB,A,0.00,L,,M   ,,,,,000.6,357,,V,A*2D
$HCHDG,268.9,0.0,E,,*2C
$GPRMC,220014.4,A,4741.20428,N,12224.27316,W,000.01,257.6,210413,016.6,E,D*2C
$PGRME,2.4,M,5.3,M,5.8,M*23
$HCHDG,268.8,0.0,E,,*2D
$HCHDG,268.8,0.0,E,,*2D
$GPRMC,220014.6,A,4741.20428,N,12224.27316,W,000.00,257.6,210413,016.6,E,D*2F
$PGRME,2.4,M,5.3,M,5.8,M*23
$HCHDG,268.7,0.0,E,,*22
$YXXDR,A,4.7,D,PTCH,A,-0.2,D,ROLL*71
$GPRMC,220014.8,A,4741.20428,N,12224.27316,W,000.00,257.6,210413,016.6,E,D*21
$GPRMB,A,0.00,L,M,M,4741.7720,N,12224.5760,W,0.6,357,-0.00,V*27
$PGRME,2.4,M,5.3,M,5.8,M*23
$HCHDG,268.6,0.0,E,,*23
$HCHDG,268.5,0.0,E,,*20
$HCHDG,268.4,0.0,E,,*21
$IIRMC,220000,A,4741.204,N,12224.273,W,00.0,257,210413,16,E,A*1D
$GPRMC,220015.0,A,4741.20428,N,12224.27316,W,000.00,257.6,210413,016.6,E,D*28
$PGRME,2.4,M,5.3,M,5.8,M*23
$IIVHW,,,,,00.0,N,,*19
$HCHDG,268.4,0.0,E,,*21
$IIVLW,06236,N,007.8,N*5D
$IIDPT,007.8,-1.0,*4F
$HCHDG,268.2,0.0,E,,*27
$GPRMC,220015.2,A,4741.20428,N,12224.27317,W,000.00,257.6,210413,016.6,E,D*2B
$PGRME,2.4,M,5.3,M,5.8,M*23
$IIGLL,4741.204,N,12224.273,W,220000,A,A*43
$YXXDR,A,4.7,D,PTCH,A,-0.2,D,ROLL*71
$PTAK,FFD1,0.2*57
$IIMTW,+09.0,C*31
$HCHDG,268.2,0.0,E,,*27
$IIRMB,A,0.00,L,,M   ,,,,,000.6,357,,V,A*2D
$HCHDG,268.3,0.0,E,,*26
$GPRMC,220015.4,A,4741.20428,N,12224.27317,W,000.01,257.6,210413,016.6,E,D*2C
$PGRME,2.4,M,5.3,M,5.8,M*23
$HCHDG,268.2,0.0,E,,*27
$HCHDG,267.9,0.0,E,,*23
$GPRMC,220015.6,A,4741.20428,N,12224.27317,W,000.01,257.6,210413,016.6,E,D*2E
$PGRME,2.4,M,5.3,M,5.8,M*23
$HCHDG,267.9,0.0,E,,*23
$YXXDR,A,4.5,D,PTCH,A,-0.2,D,ROLL*73
$GPRMC,220015.8,A,4741.20429,N,12224.27317,W,000.01,257.6,210413,016.6,E,D*21
$GPRMB,A,0.00,L,M,M,4741.7720,N,12224.5760,W,0.6,357,-0.00,V*27
$PGRME,2.4,M,5.3,M,5.8,M*23
$HCHDG,267.9,0.0,E,,*23
$HCHDG,267.9,0.0,E,,*23
$HCHDG,267.8,0.0,E,,*22
$IIRMC,220000,A,4741.204,N,12224.273,W,00.0,257,210413,16,E,A*1D
$GPRMC,220016.0,A,4741.20429,N,12224.27317,W,000.01,257.6,210413,016.6,E,D*2A
$PGRME,2.4,M,5.3,M,5.8,M*23
$IIVHW,,,,,00.0,N,,*19
$HCHDG,267.8,0.0,E,,*22
$IIVLW,06236,N,007.8,N*5D
$IIDPT,007.8,-1.0,*4F
$HCHDG,268.0,0.0,E,,*25
$GPRMC,220016.2,A,4741.20429,N,12224.27317,W,000.01,257.6,210413,016.6,E,D*28
$PGRME,2.4,M,5.3,M,5.8,M*23
$IIGLL,4741.204,N,12224.273,W,220000,A,A*43
$YXXDR,A,4.4,D,PTCH,A,0.0,D,ROLL*5D
$PTAK,FFD1,0.0*55
$IIMTW,+09.0,C*31
$HCHDG,268.1,0.0,E,,*24
$IIRMB,A,0.00,L,,M   ,,,,,000.6,357,,V,A*2D
$HCHDG,268.1,0.0,E,,*24
$PTAK,FFP1,HEEL,@*07
$GPRMC,220016.4,A,4741.20429,N,12224.27317,W,000.01,257.6,210413,016.6,E,D*2E
$PGRME,2.4,M,5.3,M,5.9,M*22
$HCHDG,268.2,0.0,E,,*27
$HCHDG,268.4,0.0,E,,*21
$GPRMC,220016.6,A,4741.20429,N,12224.27317,W,000.00,257.6,210413,016.6,E,D*2D
$PGRME,2.4,M,5.3,M,5.9,M*22
$HCHDG,268.5,0.0,E,,*20
$YXXDR,A,4.5,D,PTCH,A,0.4,D,ROLL*58
$GPRMC,220016.8,A,4741.20429,N,12224.27317,W,000.00,257.6,210413,016.6,E,D*23
$HCHDG,268.6,0.0,E,,*23
$PGRME,2.4,M,5.3,M,5.9,M*22
$HCHDG,268.8,0.0,E,,*2D
$HCHDG,268.8,0.0,E,,*2D
$IIRMC,220000,A,4741.204,N,12224.273,W,00.0,257,210413,16,E,A*1D
$GPRMC,220017.0,A,4741.20429,N,12224.27317,W,000.00,257.6,210413,016.6,E,D*2A
$GPRMB,A,0.00,L,M,M,4741.7720,N,12224.5760,W,0.6,357,-0.00,V*27
$PGRME,2.4,M,5.3,M,5.9,M*22
$IIVHW,,,,,00.0,N,,*19
$HCHDG,268.8,0.0,E,,*2D
$IIVLW,06236,N,007.8,N*5D
$IIDPT,007.8,-1.0,*4F
$HCHDG,268.9,0.0,E,,*2C
$GPRMC,220017.2,A,4741.20429,N,12224.27318,W,000.00,257.6,210413,016.6,E,D*27
$PGRME,2.4,M,5.4,M,5.9,M*25
$IIGLL,4741.204,N,12224.273,W,220000,A,A*43
$YXXDR,A,4.6,D,PTCH,A,0.6,D,ROLL*59
$PTAK,FFD1,0.6*53
$IIMTW,+09.0,C*31
$HCHDG,268.9,0.0,E,,*2C
$IIRMB,A,0.00,L,,M   ,,,,,000.6,357,,V,A*2D
$HCHDG,269.0,0.0,E,,*24
$GPRMC,220017.4,A,4741.20429,N,12224.27318,W,000.01,257.6,210413,016.6,E,D*20
$PGRME,2.4,M,5.4,M,5.9,M*25
$HCHDG,269.2,0.0,E,,*26
$HCHDG,269.2,0.0,E,,*26
$GPRMC,220017.6,A,4741.20429,N,12224.27318,W,000.00,257.6,210413,016.6,E,D*23
$PGRME,2.4,M,5.4,M,5.9,M*25
$HCHDG,269.1,0.0,E,,*25
$YXXDR,A,4.8,D,PTCH,A,0.1,D,ROLL*50
$GPRMC,220017.8,A,4741.20429,N,12224.27318,W,000.00,257.6,210413,016.6,E,D*2D
$HCHDG,269.0,0.0,E,,*24
$PGRME,2.4,M,5.4,M,5.9,M*25
$HCHDG,269.0,0.0,E,,*24
$HCHDG,268.9,0.0,E,,*2C
$IIRMC,220000,A,4741.204,N,12224.273,W,00.0,257,210413,16,E,A*1D
$GPRMC,220018.0,A,4741.20429,N,12224.27319,W,000.00,257.6,210413,016.6,E,D*2B
$PGRME,2.4,M,5.4,M,5.9,M*25
$IIVHW,,,,,00.0,N,,*19
$HCHDG,268.7,0.0,E,,*22
$IIVLW,06236,N,007.8,N*5D
$IIDPT,007.6,-1.0,*41
$HCHDG,268.7,0.0,E,,*22
$GPRMC,220018.2,A,4741.20429,N,12224.27319,W,000.01,257.6,210413,016.6,E,D*28
$GPRMB,A,0.00,L,M,M,4741.7720,N,12224.5760,W,0.6,357,-0.00,V*27
$PGRME,2.4,M,5.4,M,5.9,M*25
$IIGLL,4741.204,N,12224.273,W,220000,A,A*43
$YXXDR,A,4.5,D,PTCH,A,-0.1,D,ROLL*70
$PTAK,FFD1,0.1*54
$IIMTW,+09.0,C*31
$HCHDG,268.6,0.0,E,,*23
$IIRMB,A,0.00,L,,M   ,,,,,000.6,357,,V,A*2D
$HCHDG,268.4,0.0,E,,*21
$GPRMC,220018.4,A,4741.20429,N,12224.27319,W,000.01,257.6,210413,016.6,E,D*2E
$PGRME,2.4,M,5.4,M,5.9,M*25
$HCHDG,268.4,0.0,E,,*21
$HCHDG,268.3,0.0,E,,*26
$GPRMC,220018.6,A,4741.20429,N,12224.27319,W,000.01,257.6,210413,016.6,E,D*2C
$PGRME,2.4,M,5.4,M,5.9,M*25
$HCHDG,268.1,0.0,E,,*24
$YXXDR,A,4.7,D,PTCH,A,-0.2,D,ROLL*71
$GPRMC,220018.8,A,4741.20429,N,12224.27319,W,000.01,257.6,210413,016.6,E,D*22
$PGRME,2.4,M,5.4,M,5.9,M*25
$HCHDG,268.1,0.0,E,,*24
$HCHDG,268.0,0.0,E,,*25
$HCHDG,268.0,0.0,E,,*25
$IIRMC,220000,A,4741.204,N,12224.273,W,00.0,257,210413,16,E,A*1D
$GPRMC,220019.0,A,4741.20429,N,12224.27320,W,000.00,257.6,210413,016.6,E,D*20
$PGRME,2.4,M,5.4,M,5.9,M*25
$IIVHW,,,,,00.0,N,,*19
$HCHDG,267.7,0.0,E,,*2D
$IIVLW,06236,N,007.8,N*5D
$IIDPT,007.8,-1.0,*4F
$HCHDG,267.7,0.0,E,,*2D
$GPRMC,220019.2,A,4741.20429,N,12224.27320,W,000.00,257.6,210413,016.6,E,D*22
$PGRME,2.4,M,5.4,M,5.9,M*25
$IIGLL,4741.204,N,12224.273,W,220000,A,A*43
$YXXDR,A,4.5,D,PTCH,A,-0.1,D,ROLL*70
$IIMTW,+09.0,C*31
$HCHDG,267.8,0.0,E,,*22
$IIRMB,A,0.00,L,,M   ,,,,,000.6,357,,V,A*2D
$HCHDG,267.8,0.0,E,,*22
$GPRMC,220019.4,A,4741.20429,N,12224.27320,W,000.00,257.6,210413,016.6,E,D*24
$GPRMB,A,0.00,L,M,M,4741.7720,N,12224.5760,W,0.6,357,-0.00,V*27
$PGRME,2.4,M,5.4,M,5.9,M*25
$HCHDG,267.8,0.0,E,,*22
$HCHDG,267.9,0.0,E,,*23
$GPRMC,220019.6,A,4741.20430,N,12224.27320,W,000.01,257.6,210413,016.6,E,D*2F
$PGRME,2.4,M,5.4,M,5.9,M*25
$HCHDG,267.9,0.0,E,,*23
$YXXDR,A,4.5,D,PTCH,A,0.0,D,ROLL*5C
$PTAK,FFD1,0.0*55
$GPRMC,220019.8,A,4741.20430,N,12224.27320,W,000.01,257.6,210413,016.6,E,D*21
$HCHDG,268.0,0.0,E,,*25
$PGRME,2.4,M,5.4,M,5.9,M*25
$HCHDG,268.0,0.0,E,,*25
$HCHDG,268.2,0.0,E,,*27
$IIRMC,220000,A,4741.204,N,12224.273,W,00.0,257,210413,16,E,A*1D
$GPRMC,220020.0,A,4741.20429,N,12224.27320,W,000.00,257.6,210413,016.6,E,D*2A
$PGRME,2.4,M,5.4,M,5.9,M*25
$IIVHW,,,,,00.0,N,,*19
$HCHDG,268.3,0.0,E,,*26
$IIVLW,06236,N,007.8,N*5D
$IIDPT,007.8,-1.0,*4F
$HCHDG,268.4,0.0,E,,*21
$GPRMC,220020.2,A,4741.20429,N,12224.27321,W,000.00,257.6,210413,016.6,E,D*29
$PGRME,2.4,M,5.4,M,5.9,M*25
$IIGLL,4741.204,N,12224.273,W,220000,A,A*43
$YXXDR,A,4.5,D,PTCH,A,0.3,D,ROLL*5F
$IIMTW,+09.0,C*31
$HCHDG,268.4,0.0,E,,*21
$IIRMB,A,0.00,L,,M   ,,,,,000.6,357,,V,A*2D
$HCHDG,268.6,0.0,E,,*23
$GPRMC,220020.4,A,4741.20429,N,12224.27321,W,000.00,257.6,210413,016.6,E,D*2F
$PTAK,FFP1,HEEL,@*07
$PGRME,2.4,M,5.4,M,5.9,M*25
$HCHDG,268.7,0.0,E,,*22
$HCHDG,268.7,0.0,E,,*22
$GPRMC,220020.6,A,4741.20429,N,12224.27321,W,000.01,257.6,210413,016.6,E,D*2C
$GPRMB,A,0.00,L,M,M,4741.7720,N,12224.5760,W,0.6,357,-0.00,V*27
$PGRME,2.4,M,5.4,M,5.9,M*25
$HCHDG,268.7,0.0,E,,*22
$YXXDR,A,4.6,D,PTCH,A,0.6,D,ROLL*59
$PTAK,FFD1,0.6*53
$GPRMC,220020.8,A,4741.20429,N,12224.27321,W,000.01,257.6,210413,016.6,E,D*22
$HCHDG,268.8,0.0,E,,*2D
$PGRME,2.4,M,5.4,M,5.9,M*25
$HCHDG,268.7,0.0,E,,*22
$HCHDG,269.0,0.0,E,,*24
$GPRMC,220021.0,A,4741.20429,N,12224.27321,W,000.01,257.6,210413,016.6,E,D*2B
$PGRME,2.4,M,5.4,M,5.9,M*25
$HCHDG,268.9,0.0,E,,*2C
$HCHDG,268.9,0.0,E,,*2C
$GPRMC,220021.2,A,4741.20429,N,12224.27321,W,000.01,257.6,210413,016.6,E,D*29
$PGRME,2.4,M,5.4,M,5.9,M*25
$YXXDR,A,4.8,D,PTCH,A,0.0,D,ROLL*51
$HCHDG,268.8,0.0,E,,*2D
$HCHDG,268.7,0.0,E,,*22
$GPRMC,220021.4,A,4741.20429,N,12224.27322,W,000.01,257.6,210413,016.6,E,D*2C
$PGRME,2.4,M,5.4,M,5.9,M*25
$HCHDG,268.6,0.0,E,,*23
$HCHDG,268.5,0.0,E,,*20
$GPRMC,220021.6,A,4741.20429,N,12224.27322,W,000.01,257.6,210413,016.6,E,D*2E
$PGRME,2.4,M,5.4,M,5.9,M*25
$HCHDG,268.4,0.0,E,,*21
$YXXDR,A,4.8,D,PTCH,A,-0.1,D,ROLL*7D
$GPRMC,220021.8,A,4741.20429,N,12224.27322,W,000.01,257.6,210413,016.6,E,D*20
$GPRMB,A,0.00,L,M,M,4741.7720,N,12224.5760,W,0.6,357,-0.00,V*27
$PGRME,2.4,M,5.4,M,5.9,M*25
$HCHDG,268.3,0.0,E,,*26
$HCHDG,268.3,0.0,E,,*26
$HCHDG,268.2,0.0,E,,*27
$IIRMC,220000,A,4741.204,N,12224.273,W,00.0,257,210413,16,E,A*1D
$GPRMC,220022.0,A,4741.20430,N,12224.27322,W,000.01,257.6,210413,016.6,E,D*23
$PGRME,2.4,M,5.4,M,5.9,M*25
$IIVHW,,,,,00.0,N,,*19
$HCHDG,268.0,0.0,E,,*25
$IIVLW,06236,N,007.8,N*5D
$IIDPT,007.8,-1.0,*4F
$HCHDG,268.0,0.0,E,,*25
$GPRMC,220022.2,A,4741.20430,N,12224.27323,W,000.01,257.6,210413,016.6,E,D*20
$PGRME,2.4,M,5.4,M,5.9,M*25
$IIGLL,4741.204,N,12224.273,W,220000,A,A*43
$YXXDR,A,4.5,D,PTCH,A,-0.6,D,ROLL*77
$PTAK,FFD1,0.6*53
$IIMTW,+09.0,C*31
$HCHDG,268.0,0.0,E,,*25
$IIRMB,A,0.00,L,,M   ,,,,,000.6,357,,V,A*2D
$HCHDG,268.0,0.0,E,,*25
$GPRMC,220022.4,A,4741.20430,N,12224.27323,W,000.00,257.6,210413,016.6,E,D*27
$PGRME,2.4,M,5.4,M,5.9,M*25
$HCHDG,268.0,0.0,E,,*25
$HCHDG,268.0,0.0,E,,*25
$GPRMC,220022.6,A,4741.20430,N,12224.27323,W,000.01,257.6,210413,016.6,E,D*24
$PGRME,2.4,M,5.4,M,5.9,M*25
$HCHDG,267.7,0.0,E,,*2D
$YXXDR,A,4.6,D,PTCH,A,-0.1,D,ROLL*73
$GPRMC,220022.8,A,4741.20430,N,12224.27323,W,000.01,257.6,210413,016.6,E,D*2A
$PGRME,2.4,M,5.4,M,5.9,M*25
$HCHDG,267.8,0.0,E,,*22
$HCHDG,267.8,0.0,E,,*22
$HCHDG,268.0,0.0,E,,*25
$IIRMC,220000,A,4741.204,N,12224.273,W,00.0,257,210413,16,E,A*1D
$GPRMC,220023.0,A,4741.20430,N,12224.27323,W,000.01,257.6,210413,016.6,E,D*23
$GPRMB,A,0.00,L,M,M,4741.7720,N,12224.5760,W,0.6,357,-0.00,V*27
$PGRME,2.4,M,5.4,M,5.9,M*25
$IIVHW,,,,,00.0,N,,*19
$HCHDG,268.1,0.0,E,,*24
$IIVLW,06236,N,007.8,N*5D
$IIDPT,007.8,-1.0,*4F
$HCHDG,268.2,0.0,E,,*27
$GPRMC,220023.2,A,4741.20430,N,12224.27324,W,000.01,257.6,210413,016.6,E,D*26
$PGRME,2.4,M,5.4,M,5.9,M*25
$IIGLL,4741.204,N,12224.273,W,220000,A,A*43
$YXXDR,A,4.5,D,PTCH,A,0.2,D,ROLL*5E
$PTAK,FFD1,0.2*57
$IIMTW,+09.0,C*31
$HCHDG,268.1,0.0,E,,*24
$IIRMB,A,0.00,L,,M   ,,,,,000.6,357,,V,A*2D
$HCHDG,268.3,0.0,E,,*26
$GPRMC,220023.4,A,4741.20430,N,12224.27324,W,000.00,257.6,210413,016.6,E,D*21
$PGRME,2.4,M,5.4,M,5.9,M*25
$HCHDG,268.4,0.0,E,,*21
$HCHDG,268.6,0.0,E,,*23
$GPRMC,220023.6,A,4741.20430,N,12224.27324,W,000.00,257.6,210413,016.6,E,D*23
$PGRME,2.4,M,5.4,M,5.9,M*25
$HCHDG,268.7,0.0,E,,*22
$YXXDR,A,4.6,D,PTCH,A,0.8,D,ROLL*57
$GPRMC,220023.8,A,4741.20430,N,12224.27324,W,000.00,257.6,210413,016.6,E,D*2D
$HCHDG,268.7,0.0,E,,*22
$PGRME,2.4,M,5.4,M,5.9,M*25
$HCHDG,268.7,0.0,E,,*22
$HCHDG,268.7,0.0,E,,*22
$IIRMC,220000,A,4741.204,N,12224.273,W,00.0,257,210413,16,E,A*1D
$GPRMC,220024.0,A,4741.20431,N,12224.27324,W,000.01,257.6,210413,016.6,E,D*22
$GPRMB,A,0.00,L,M,M,4741.7720,N,12224.5760,W,0.6,357,-0.00,V*27
$PGRME,2.4,M,5.4,M,5.9,M*25
$IIVHW,,,,,00.0,N,,*19
$HCHDG,268.7,0.0,E,,*22
$IIVLW,06236,N,007.8,N*5D
$IIDPT,007.8,-1.0,*4F
$HCHDG,268.8,0.0,E,,*2D
$GPRMC,220024.2,A,4741.20431,N,12224.27324,W,000.01,257.6,210413,016.6,E,D*20
$PGRME,2.4,M,5.4,M,5.9,M*25
$IIGLL,4741.204,N,12224.273,W,220000,A,A*43
$YXXDR,A,4.8,D,PTCH,A,0.4,D,ROLL*55
$IIMTW,+09.0,C*31
$HCHDG,269.1,0.0,E,,*25
$IIRMB,A,0.00,L,,M   ,,,,,000.6,357,,V,A*2D
$HCHDG,268.9,0.0,E,,*2C
$GPRMC,220024.4,A,4741.20431,N,12224.27325,W,000.01,257.6,210413,016.6,E,D*27
$PTAK,FFP1,HEEL,@*07
$PGRME,2.4,M,5.4,M,5.9,M*25
$HCHDG,268.9,0.0,E,,*2C
$HCHDG,268.8,0.0,E,,*2D
$GPRMC,220024.6,A,4741.20431,N,12224.27325,W,000.01,257.6,210413,016.6,E,D*25
$PGRME,2.4,M,5.4,M,5.9,M*25
$HCHDG,268.7,0.0,E,,*22
$YXXDR,A,4.8,D,PTCH,A,0.1,D,ROLL*50
$PTAK,FFD1,0.1*54
$GPRMC,220024.8,A,4741.20431,N,12224.27325,W,000.00,257.6,210413,016.6,E,D*2A
$PGRME,2.4,M,5.4,M,5.9,M*25
$HCHDG,268.6,0.0,E,,*23
$HCHDG,268.6,0.0,E,,*23
$HCHDG,268.4,0.0,E,,*21
$IIRMC,220000,A,4741.204,N,12224.273,W,00.0,257,210413,16,E,A*1D
$GPRMC,220025.0,A,4741.20431,N,12224.27325,W,000.01,257.6,210413,016.6,E,D*22
$GPRMB,A,0.00,L,M,M,4741.7720,N,12224.5760,W,0.6,357,-0.00,V*27
$PGRME,2.4,M,5.4,M,5.9,M*25
$IIVHW,,,,,00.0,N,,*19
$HCHDG,268.3,0.0,E,,*26
$IIVLW,06236,N,007.8,N*5D
$IIDPT,007.8,-1.0,*4F
$HCHDG,268.1,0.0,E,,*24
$GPRMC,220025.2,A,4741.20431,N,12224.27325,W,000.00,257.6,210413,016.6,E,D*21
$PGRME,2.4,M,5.4,M,5.9,M*25
$IIGLL,4741.204,N,12224.273,W,220000,A,A*43
$YXXDR,A,4.7,D,PTCH,A,-0.2,D,ROLL*71
$IIMTW,+09.0,C*31
$HCHDG,268.0,0.0,E,,*25
$IIRMB,A,0.00,L,,M   ,,,,,000.6,357,,V,A*2D
$HCHDG,268.0,0.0,E,,*25
$GPRMC,220025.4,A,4741.20431,N,12224.27325,W,000.01,257.6,210413,016.6,E,D*26
$PGRME,2.4,M,5.4,M,5.9,M*25
$HCHDG,267.9,0.0,E,,*23
$HCHDG,267.9,0.0,E,,*23
$GPRMC,220025.6,A,4741.20431,N,12224.27325,W,000.01,257.6,210413,016.6,E,D*24
$PGRME,2.4,M,5.4,M,5.9,M*25
$HCHDG,267.9,0.0,E,,*23
$YXXDR,A,4.6,D,PTCH,A,-0.4,D,ROLL*76
$GPRMC,220025.8,A,4741.20431,N,12224.27326,W,000.01,257.6,210413,016.6,E,D*29
$PGRME,2.4,M,5.4,M,5.9,M*25
$HCHDG,267.9,0.0,E,,*23
$HCHDG,267.7,0.0,E,,*2D
$HCHDG,267.7,0.0,E,,*2D
$IIRMC,220000,A,4741.204,N,12224.273,W,00.0,257,210413,16,E,A*1D
$GPRMC,220026.0,A,4741.20431,N,12224.27326,W,000.01,257.6,210413,016.6,E,D*22
$PGRME,2.4,M,5.4,M,5.9,M*25
$IIVHW,,,,,00.0,N,,*19
$HCHDG,267.8,0.0,E,,*22
$IIVLW,06236,N,007.8,N*5D
$IIDPT,007.8,-1.0,*4F
$HCHDG,267.7,0.0,E,,*2D
$GPRMC,220026.2,A,4741.20431,N,12224.27326,W,000.01,257.6,210413,016.6,E,D*20
$GPRMB,A,0.00,L,M,M,4741.7720,N,12224.5760,W,0.6,357,-0.00,V*27
$PGRME,2.4,M,5.4,M,5.9,M*25
$IIGLL,4741.204,N,12224.273,W,220000,A,A*43
$YXXDR,A,4.5,D,PTCH,A,0.2,D,ROLL*5E
$PTAK,FFD1,0.2*57
$IIMTW,+09.0,C*31
$HCHDG,267.8,0.0,E,,*22
$IIRMB,A,0.00,L,,M   ,,,,,000.6,357,,V,A*2D
$HCHDG,267.8,0.0,E,,*22
$GPRMC,220026.4,A,4741.20431,N,12224.27326,W,000.01,257.6,210413,016.6,E,D*26
$PGRME,2.4,M,5.4,M,5.9,M*25
$HCHDG,268.0,0.0,E,,*25
$HCHDG,268.1,0.0,E,,*24
$GPRMC,220026.6,A,4741.20431,N,12224.27326,W,000.00,257.6,210413,016.6,E,D*25
$PGRME,2.4,M,5.4,M,5.9,M*25
$HCHDG,268.2,0.0,E,,*27
$YXXDR,A,4.5,D,PTCH,A,0.3,D,ROLL*5F
$GPRMC,220026.8,A,4741.20431,N,12224.27326,W,000.01,257.6,210413,016.6,E,D*2A
$PGRME,2.4,M,5.4,M,5.9,M*25
$HCHDG,268.2,0.0,E,,*27
$HCHDG,268.4,0.0,E,,*21
$HCHDG,268.5,0.0,E,,*20
$IIRMC,220000,A,4741.204,N,12224.273,W,00.0,257,210413,16,E,A*1D
$GPRMC,220027.0,A,4741.20431,N,12224.27326,W,000.01,257.6,210413,016.6,E,D*23
$PGRME,2.4,M,5.4,M,5.9,M*25
$IIVHW,,,,,00.0,N,,*19
$HCHDG,268.5,0.0,E,,*20
$IIVLW,06236,N,007.8,N*5D
$IIDPT,007.8,-1.0,*4F
$HCHDG,268.7,0.0,E,,*22
$GPRMC,220027.2,A,4741.20431,N,12224.27326,W,000.00,257.6,210413,016.6,E,D*20
$GPRMB,A,0.00,L,M,M,4741.7720,N,12224.5760,W,0.6,357,-0.00,V*27
$PGRME,2.4,M,5.4,M,5.9,M*25
$IIGLL,4741.204,N,12224.273,W,220000,A,A*43
$YXXDR,A,4.8,D,PTCH,A,0.6,D,ROLL*57
$IIMTW,+08.0,C*30
$HCHDG,268.6,0.0,E,,*23
$IIRMB,A,0.00,L,,M   ,,,,,000.6,357,,V,A*2D
$HCHDG,268.9,0.0,E,,*2C
$GPRMC,220027.4,A,4741.20431,N,12224.27326,W,000.01,257.6,210413,016.6,E,D*27
$PGRME,2.4,M,5.4,M,5.9,M*25
$HCHDG,268.9,0.0,E,,*2C
$HCHDG,268.9,0.0,E,,*2C
$GPRMC,220027.6,A,4741.20431,N,12224.27326,W,000.01,257.6,210413,016.6,E,D*25
$PGRME,2.4,M,5.4,M,5.9,M*25
$HCHDG,268.8,0.0,E,,*2D
$YXXDR,A,4.8,D,PTCH,A,0.2,D,ROLL*53
$PTAK,FFD1,0.2*57
$GPRMC,220027.8,A,4741.20431,N,12224.27326,W,000.00,257.6,210413,016.6,E,D*2A
$PGRME,2.4,M,5.4,M,5.9,M*25
$HCHDG,268.8,0.0,E,,*2D
$HCHDG,268.7,0.0,E,,*22
$HCHDG,268.7,0.0,E,,*22
$IIRMC,220000,A,4741.204,N,12224.273,W,00.0,257,210413,16,E,A*1D
$GPRMC,220028.0,A,4741.20431,N,12224.27326,W,000.01,257.6,210413,016.6,E,D*2C
$PGRME,2.4,M,5.4,M,5.9,M*25
$IIVHW,,,,,00.0,N,,*19
$HCHDG,268.6,0.0,E,,*23
$IIVLW,06236,N,007.8,N*5D
$IIDPT,007.8,-1.0,*4F
$HCHDG,268.6,0.0,E,,*23
$GPRMC,220028.2,A,4741.20431,N,12224.27326,W,000.01,257.6,210413,016.6,E,D*2E
$GPRMB,A,0.00,L,M,M,4741.7720,N,12224.5760,W,0.6,357,-0.00,V*27
$PGRME,2.4,M,5.4,M,5.9,M*25
$IIGLL,4741.204,N,12224.273,W,220000,A,A*43
$YXXDR,A,4.8,D,PTCH,A,0.0,D,ROLL*51
$IIMTW,+08.5,C*35
$HCHDG,268.5,0.0,E,,*20
$PTAK,FFP1,HEEL,@*07
$IIRMB,A,0.00,L,,M   ,,,,,000.6,357,,V,A*2D
$HCHDG,268.4,0.0,E,,*21
$GPRMC,220028.4,A,4741.20431,N,12224.27326,W,000.00,257.6,210413,016.6,E,D*29
$PGRME,2.4,M,5.4,M,5.9,M*25
$HCHDG,268.3,0.0,E,,*26
$HCHDG,268.2,0.0,E,,*27
$GPRMC,220028.6,A,4741.20431,N,12224.27326,W,000.00,257.6,210413,016.6,E,D*2B
$PGRME,2.4,M,5.4,M,5.9,M*25
$HCHDG,268.2,0.0,E,,*27
$YXXDR,A,4.7,D,PTCH,A,-0.2,D,ROLL*71
$GPRMC,220028.8,A,4741.20431,N,12224.27327,W,000.00,257.6,210413,016.6,E,D*24
$PGRME,2.4,M,5.4,M,5.9,M*25
$HCHDG,268.1,0.0,E,,*24
$HCHDG,268.2,0.0,E,,*27
$HCHDG,268.1,0.0,E,,*24
$IIRMC,220000,A,4741.204,N,12224.273,W,00.0,257,210413,16,E,A*1D
$GPRMC,220029.0,A,4741.20431,N,12224.27327,W,000.01,257.6,210413,016.6,E,D*2C
$PGRME,2.4,M,5.4,M,5.9,M*25
$IIVHW,,,,,00.0,N,,*19
$HCHDG,268.1,0.0,E,,*24
$IIVLW,06236,N,007.8,N*5D
$IIDPT,007.8,-1.0,*4F
$HCHDG,268.1,0.0,E,,*24
$GPRMC,220029.2,A,4741.20431,N,12224.27327,W,000.01,257.6,210413,016.6,E,D*2E
$PGRME,2.4,M,5.4,M,5.9,M*25
$IIGLL,4741.204,N,12224.273,W,220000,A,A*43
$YXXDR,A,4.5,D,PTCH,A,-0.1,D,ROLL*70
$PTAK,FFD1,0.1*54
$IIMTW,+08.5,C*35
$HCHDG,268.0,0.0,E,,*25
$IIRMB,A,0.00,L,,M   ,,,,,000.6,357,,V,A*2D
$HCHDG,267.8,0.0,E,,*22
$GPRMC,220029.4,A,4741.20431,N,12224.27327,W,000.01,257.6,210413,016.6,E,D*28
$GPRMB,A,0.00,L,M,M,4741.7720,N,12224.5760,W,0.6,357,-0.00,V*27
$PGRME,2.4,M,5.4,M,5.9,M*25
$HCHDG,267.9,0.0,E,,*23
$HCHDG,267.9,0.0,E,,*23
$GPRMC,220029.6,A,4741.20431,N,12224.27327,W,000.00,257.6,210413,016.6,E,D*2B
$PGRME,2.4,M,5.4,M,5.9,M*25
$HCHDG,268.0,0.0,E,,*25
$YXXDR,A,4.5,D,PTCH,A,0.2,D,ROLL*5E
$GPRMC,220029.8,A,4741.20431,N,12224.27327,W,000.01,257.6,210413,016.6,E,D*24
$PGRME,2.4,M,5.4,M,5.9,M*25
$HCHDG,268.0,0.0,E,,*25
$HCHDG,268.1,0.0,E,,*24
$HCHDG,268.1,0.0,E,,*24
$IIRMC,220000,A,4741.204,N,12224.273,W,00.0,257,210413,16,E,A*1D
$GPRMC,220030.0,A,4741.20431,N,12224.27327,W,000.01,257.6,210413,016.6,E,D*24
$PGRME,2.4,M,5.4,M,5.9,M*25
$IIVHW,,,,,00.0,N,,*19
$HCHDG,268.3,0.0,E,,*26
$IIVLW,06236,N,007.8,N*5D
$IIDPT,007.8,-1.0,*4F
$HCHDG,268.3,0.0,E,,*26
$GPRMC,220030.2,A,4741.20431,N,12224.27327,W,000.01,257.6,210413,016.6,E,D*26
$PGRME,2.4,M,5.4,M,5.9,M*25
$IIGLL,4741.204,N,12224.273,W,220000,A,A*43
$YXXDR,A,4.5,D,PTCH,A,0.3,D,ROLL*5F
$PTAK,FFD1,0.3*56
$IIMTW,+08.5,C*35
$HCHDG,268.4,0.0,E,,*21
$IIRMB,A,0.00,L,,M   ,,,,,000.6,357,,V,A*2D
$HCHDG,268.4,0.0,E,,*21
$GPRMC,220030.4,A,4741.20431,N,12224.27327,W,000.00,257.6,210413,016.6,E,D*21
$PGRME,2.4,M,5.4,M,5.9,M*25
$HCHDG,268.4,0.0,E,,*21
$HCHDG,268.5,0.0,E,,*20
$GPRMC,220030.6,A,4741.20431,N,12224.27327,W,000.00,257.6,210413,016.6,E,D*23
$GPRMB,A,0.00,L,M,M,4741.7720,N,12224.5760,W,0.6,357,-0.00,V*27
$PGRME,2.4,M,5.4,M,5.9,M*25
$HCHDG,268.5,0.0,E,,*20
$YXXDR,A,4.6,D,PTCH,A,0.6,D,ROLL*59
$GPRMC,220030.8,A,4741.20431,N,12224.27327,W,000.00,257.6,210413,016.6,E,D*2D
$PGRME,2.4,M,5.4,M,5.9,M*25
$HCHDG,268.5,0.0,E,,*20
$HCHDG,268.5,0.0,E,,*20
$HCHDG,268.7,0.0,E,,*22
$IIRMC,220000,A,4741.204,N,12224.273,W,00.0,257,210413,16,E,A*1D
$GPRMC,220031.0,A,4741.20431,N,12224.27327,W,000.01,257.6,210413,016.6,E,D*25
$PGRME,2.4,M,5.4,M,5.9,M*25
$IIVHW,,,,,00.0,N,,*19
$HCHDG,268.7,0.0,E,,*22
$IIVLW,06236,N,007.8,N*5D
$IIDPT,007.8,-1.0,*4F
$HCHDG,268.6,0.0,E,,*23
$GPRMC,220031.2,A,4741.20431,N,12224.27327,W,000.00,257.6,210413,016.6,E,D*26
$PGRME,2.4,M,5.4,M,5.9,M*25
$IIGLL,4741.204,N,12224.273,W,220000,A,A*43
$YXXDR,A,4.7,D,PTCH,A,0.2,D,ROLL*5C
$IIMTW,+08.5,C*35
$HCHDG,268.5,0.0,E,,*20
$IIRMB,A,0.00,L,,M   ,,,,,000.6,357,,V,A*2D
$HCHDG,268.5,0.0,E,,*20
$GPRMC,220031.4,A,4741.20431,N,12224.27327,W,000.00,257.6,210413,016.6,E,D*20
$PGRME,2.4,M,5.4,M,5.9,M*25
$HCHDG,268.4,0.0,E,,*21
$HCHDG,268.3,0.0,E,,*26
$GPRMC,220031.6,A,4741.20431,N,12224.27327,W,000.00,257.6,210413,016.6,E,D*22
$PGRME,2.4,M,5.4,M,5.9,M*25
$HCHDG,268.2,0.0,E,,*27
$YXXDR,A,4.7,D,PTCH,A,0.0,D,ROLL*5E
$PTAK,FFD1,0.0*55
$GPRMC,220031.8,A,4741.20431,N,12224.27327,W,000.01,257.6,210413,016.6,E,D*2D
$GPRMB,A,0.00,L,M,M,4741.7720,N,12224.5760,W,0.6,357,-0.00,V*27
$PGRME,2.4,M,5.4,M,5.9,M*25
$HCHDG,268.0,0.0,E,,*25
$HCHDG,268.0,0.0,E,,*25
$HCHDG,268.0,0.0,E,,*25
$IIRMC,220000,A,4741.204,N,12224.273,W,00.0,257,210413,16,E,A*1D
$GPRMC,220032.0,A,4741.20431,N,12224.27327,W,000.01,257.6,210413,016.6,E,D*26
$PGRME,2.4,M,5.4,M,5.9,M*25
$IIVHW,,,,,00.0,N,,*19
$HCHDG,268.0,0.0,E,,*25
$IIVLW,06236,N,007.8,N*5D
$IIDPT,007.8,-1.0,*4F
$HCHDG,267.9,0.0,E,,*23
$GPRMC,220032.2,A,4741.20431,N,12224.27327,W,000.00,257.6,210413,016.6,E,D*25
$PGRME,2.4,M,5.4,M,5.9,M*25
$IIGLL,4741.204,N,12224.273,W,220000,A,A*43
$YXXDR,A,4.6,D,PTCH,A,-0.4,D,ROLL*76
$IIMTW,+09.0,C*31
$HCHDG,267.9,0.0,E,,*23
$IIRMB,A,0.00,L,,M   ,,,,,000.6,357,,V,A*2D
$HCHDG,267.7,0.0,E,,*2D
$GPRMC,220032.4,A,4741.20431,N,12224.27326,W,000.00,257.6,210413,016.6,E,D*22
$PGRME,2.4,M,5.4,M,5.9,M*25
$HCHDG,267.8,0.0,E,,*22
$PTAK,FFP1,HEEL,@*07
$HCHDG,267.8,0.0,E,,*22
$GPRMC,220032.6,A,4741.20431,N,12224.27326,W,000.00,257.6,210413,016.6,E,D*20
$PGRME,2.4,M,5.4,M,5.9,M*25
$HCHDG,267.8,0.0,E,,*22
$YXXDR,A,4.3,D,PTCH,A,-1.0,D,ROLL*76
$PTAK,FFD1,1.0*54
$GPRMC,220032.8,A,4741.20431,N,12224.27326,W,000.01,257.6,210413,016.6,E,D*2F
$GPRMB,A,0.00,L,M,M,4741.7720,N,12224.5760,W,0.6,357,-0.00,V*27
$PGRME,2.4,M,5.4,M,5.9,M*25
$HCHDG,267.9,0.0,E,,*23
$HCHDG,267.9,0.0,E,,*23
$HCHDG,267.8,0.0,E,,*22
$IIRMC,220000,A,4741.204,N,12224.273,W,00.0,257,210413,16,E,A*1D
$GPRMC,220033.0,A,4741.20431,N,12224.27326,W,000.01,257.6,210413,016.6,E,D*26
$PGRME,2.4,M,5.4,M,5.9,M*25
$IIVHW,,,,,00.0,N,,*19
$HCHDG,267.8,0.0,E,,*22
$IIVLW,06236,N,007.8,N*5D
$IIDPT,007.8,-1.0,*4F
$HCHDG,267.8,0.0,E,,*22
$GPRMC,220033.2,A,4741.20431,N,12224.27326,W,000.01,257.6,210413,016.6,E,D*24
$PGRME,2.4,M,5.4,M,5.9,M*25
$IIGLL,4741.204,N,12224.273,W,220000,A,A*43
$YXXDR,A,4.3,D,PTCH,A,-0.6,D,ROLL*71
$IIMTW,+09.0,C*31
$HCHDG,268.0,0.0,E,,*25
$IIRMB,A,0.00,L,,M   ,,,,,000.6,357,,V,A*2D
$HCHDG,268.0,0.0,E,,*25
$GPRMC,220033.4,A,4741.20431,N,12224.27326,W,000.00,257.6,210413,016.6,E,D*23
$PGRME,2.4,M,5.4,M,5.9,M*25
$HCHDG,268.1,0.0,E,,*24
$HCHDG,268.1,0.0,E,,*24
$GPRMC,220033.6,A,4741.20431,N,12224.27326,W,000.01,257.6,210413,016.6,E,D*20
$PGRME,2.4,M,5.4,M,5.9,M*25
$HCHDG,268.2,0.0,E,,*27
$YXXDR,A,4.3,D,PTCH,A,-0.5,D,ROLL*72
$GPRMC,220033.8,A,4741.20431,N,12224.27326,W,000.00,257.6,210413,016.6,E,D*2F
$PGRME,2.4,M,5.4,M,5.9,M*25
$HCHDG,268.2,0.0,E,,*27
$HCHDG,268.2,0.0,E,,*27
$HCHDG,268.4,0.0,E,,*21
$IIRMC,220000,A,4741.204,N,12224.273,W,00.0,257,210413,16,E,A*1D
$GPRMC,220034.0,A,4741.20431,N,12224.27326,W,000.01,257.6,210413,016.6,E,D*21
$GPRMB,A,0.00,L,M,M,4741.7720,N,12224.5760,W,0.6,357,-0.00,V*27
$PGRME,2.4,M,5.4,M,5.9,M*25
$IIVHW,,,,,00.0,N,,*19
$HCHDG,268.4,0.0,E,,*21
$IIVLW,06236,N,007.8,N*5D
$IIDPT,007.8,-1.0,*4F
$HCHDG,268.3,0.0,E,,*26
$GPRMC,220034.2,A,4741.20431,N,12224.27326,W,000.00,257.6,210413,016.6,E,D*22
$PGRME,2.4,M,5.4,M,5.9,M*25
$IIGLL,4741.204,N,12224.273,W,220000,A,A*43
$YXXDR,A,4.7,D,PTCH,A,-1.0,D,ROLL*72
$PTAK,FFD1,1.0*54
$IIMTW,+09.0,C*31
$HCHDG,268.3,0.0,E,,*26
$IIRMB,A,0.00,L,,M   ,,,,,000.6,357,,V,A*2D
$HCHDG,268.3,0.0,E,,*26
$GPRMC,220034.4,A,4741.20431,N,12224.27326,W,000.00,257.6,210413,016.6,E,D*24
$PGRME,2.4,M,5.4,M,5.9,M*25
$HCHDG,268.6,0.0,E,,*23
$HCHDG,268.6,0.0,E,,*23
$GPRMC,220034.6,A,4741.20431,N,12224.27326,W,000.01,257.6,210413,016.6,E,D*27
$PGRME,2.4,M,5.3,M,5.9,M*22
$HCHDG,268.5,0.0,E,,*20
$YXXDR,A,4.8,D,PTCH,A,-0.7,D,ROLL*7B
$GPRMC,220034.8,A,4741.20431,N,12224.27326,W,000.00,257.6,210413,016.6,E,D*28
$PGRME,2.4,M,5.3,M,5.9,M*22
$HCHDG,268.5,0.0,E,,*20
$HCHDG,268.4,0.0,E,,*21
$HCHDG,268.1,0.0,E,,*24
$IIRMC,220000,A,4741.204,N,12224.273,W,00.0,257,210413,16,E,A*1D
$GPRMC,220035.0,A,4741.20431,N,12224.27326,W,000.01,257.6,210413,016.6,E,D*20
$GPRMB,A,0.00,L,M,M,4741.7720,N,12224.5760,W,0.6,357,-0.00,V*27
$PGRME,2.4,M,5.3,M,5.9,M*22
$IIVHW,,,,,00.0,N,,*19
$HCHDG,268.1,0.0,E,,*24
$IIVLW,06236,N,007.8,N*5D
$IIDPT,007.6,-1.0,*41
$HCHDG,268.1,0.0,E,,*24
$GPRMC,220035.2,A,4741.20432,N,12224.27325,W,000.00,257.6,210413,016.6,E,D*23
$PGRME,2.4,M,5.3,M,5.8,M*23
$IIGLL,4741.204,N,12224.273,W,220000,A,A*43
$YXXDR,A,4.3,D,PTCH,A,-0.7,D,ROLL*70
$PTAK,FFD1,0.7*52
$IIMTW,+09.0,C*31
$HCHDG,268.0,0.0,E,,*25
$IIRMB,A,0.00,L,,M   ,,,,,000.6,357,,V,A*2D
$HCHDG,268.0,0.0,E,,*25
$GPRMC,220035.4,A,4741.20432,N,12224.27325,W,000.01,257.6,210413,016.6,E,D*24
$PGRME,2.4,M,5.3,M,5.8,M*23
$HCHDG,268.0,0.0,E,,*25
$HCHDG,268.0,0.0,E,,*25
$GPRMC,220035.6,A,4741.20432,N,12224.27325,W,000.01,257.6,210413,016.6,E,D*26
$PGRME,2.4,M,5.3,M,5.8,M*23
$HCHDG,268.0,0.0,E,,*25
$YXXDR,A,4.5,D,PTCH,A,-0.9,D,ROLL*78
$GPRMC,220035.8,A,4741.20432,N,12224.27325,W,000.00,257.6,210413,016.6,E,D*29
$PGRME,2.4,M,5.3,M,5.8,M*23
$HCHDG,268.0,0.0,E,,*25
$HCHDG,268.0,0.0,E,,*25
$HCHDG,268.0,0.0,E,,*25
$IIRMC,220000,A,4741.204,N,12224.273,W,00.0,257,210413,16,E,A*1D
$GPRMC,220036.0,A,4741.20432,N,12224.27325,W,000.00,257.6,210413,016.6,E,D*22
$GPRMB,A,0.00,L,M,M,4741.7720,N,12224.5760,W,0.6,357,-0.00,V*27
$PGRME,2.4,M,5.3,M,5.8,M*23
$IIVHW,,,,,00.0,N,,*19
$HCHDG,268.0,0.0,E,,*25
$IIVLW,06236,N,007.8,N*5D
$IIDPT,007.6,-1.0,*41
$HCHDG,268.0,0.0,E,,*25
$GPRMC,220036.2,A,4741.20432,N,12224.27325,W,000.01,257.6,210413,016.6,E,D*21
$PGRME,2.4,M,5.3,M,5.8,M*23
$IIGLL,4741.204,N,12224.273,W,220000,A,A*43
$YXXDR,A,4.5,D,PTCH,A,-0.9,D,ROLL*78
$IIMTW,+09.0,C*31
$HCHDG,268.1,0.0,E,,*24
$IIRMB,A,0.00,L,,M   ,,,,,000.6,357,,V,A*2D
$HCHDG,268.1,0.0,E,,*24
$GPRMC,220036.4,A,4741.20432,N,12224.27325,W,000.00,257.6,210413,016.6,E,D*26
$PGRME,2.4,M,5.3,M,5.8,M*23
$HCHDG,268.1,0.0,E,,*24
$PTAK,FFP1,HEEL,@*07
$HCHDG,268.3,0.0,E,,*26
$GPRMC,220036.6,A,4741.20432,N,12224.27325,W,000.01,257.6,210413,016.6,E,D*25
$PGRME,2.4,M,5.3,M,5.8,M*23
$HCHDG,268.0,0.0,E,,*25
$YXXDR,A,4.3,D,PTCH,A,-0.7,D,ROLL*70
$PTAK,FFD1,0.7*52
$GPRMC,220036.8,A,4741.20432,N,12224.27325,W,000.00,257.6,210413,016.6,E,D*2A
$PGRME,2.4,M,5.3,M,5.8,M*23
$HCHDG,268.0,0.0,E,,*25
$HCHDG,268.0,0.0,E,,*25
$HCHDG,268.0,0.0,E,,*25
$IIRMC,220000,A,4741.204,N,12224.273,W,00.0,257,210413,16,E,A*1D
$GPRMC,220037.0,A,4741.20432,N,12224.27325,W,000.00,257.6,210413,016.6,E,D*23
$GPRMB,A,0.00,L,M,M,4741.7720,N,12224.5760,W,0.6,357,-0.00,V*27
$PGRME,2.4,M,5.3,M,5.8,M*23
$IIVHW,,,,,00.0,N,,*19
$HCHDG,268.1,0.0,E,,*24
$IIVLW,06236,N,007.8,N*5D
$IIDPT,007.6,-1.0,*41
$HCHDG,268.0,0.0,E,,*25
$GPRMC,220037.2,A,4741.20432,N,12224.27325,W,000.00,257.6,210413,016.6,E,D*21
$PGRME,2.4,M,5.3,M,5.8,M*23
$IIGLL,4741.204,N,12224.273,W,220000,A,A*43
$YXXDR,A,4.5,D,PTCH,A,0.1,D,ROLL*5D
$IIMTW,+09.0,C*31
$HCHDG,267.9,0.0,E,,*23
$IIRMB,A,0.00,L,,M   ,,,,,000.6,357,,V,A*2D
$HCHDG,267.9,0.0,E,,*23
$GPRMC,220037.4,A,4741.20432,N,12224.27325,W,000.01,257.6,210413,016.6,E,D*26
$PGRME,2.4,M,5.3,M,5.8,M*23
$HCHDG,267.9,0.0,E,,*23
$HCHDG,267.9,0.0,E,,*23
$GPRMC,220037.6,A,4741.20432,N,12224.27325,W,000.01,257.6,210413,016.6,E,D*24
$PGRME,2.4,M,5.3,M,5.8,M*23
$HCHDG,267.9,0.0,E,,*23
$YXXDR,A,4.5,D,PTCH,A,0.0,D,ROLL*5C
$PTAK,FFD1,0.0*55
$GPRMC,220037.8,A,4741.20432,N,12224.27324,W,000.01,257.6,210413,016.6,E,D*2B
$PGRME,2.4,M,5.3,M,5.8,M*23
$HCHDG,267.8,0.0,E,,*22
$HCHDG,267.8,0.0,E,,*22
$HCHDG,268.1,0.0,E,,*24
$IIRMC,220000,A,4741.204,N,12224.273,W,00.0,257,210413,16,E,A*1D
$GPRMC,220038.0,A,4741.20432,N,12224.27324,W,000.01,257.6,210413,016.6,E,D*2C
$PGRME,2.4,M,5.3,M,5.8,M*23
$IIVHW,,,,,00.0,N,,*19
$HCHDG,268.1,0.0,E,,*24
$IIVLW,06236,N,007.8,N*5D
$IIDPT,007.8,-1.0,*4F
$HCHDG,268.1,0.0,E,,*24
$GPRMC,220038.2,A,4741.20432,N,12224.27324,W,000.01,257.6,210413,016.6,E,D*2E
$GPRMB,A,0.00,L,M,M,4741.7720,N,12224.5760,W,0.6,357,-0.00,V*27
$PGRME,2.4,M,5.3,M,5.8,M*23
$IIGLL,4741.204,N,12224.273,W,220000,A,A*43
$YXXDR,A,4.5,D,PTCH,A,-0.2,D,ROLL*73
$IIMTW,+09.0,C*31
$HCHDG,268.1,0.0,E,,*24
$IIRMB,A,0.00,L,,M   ,,,,,000.6,357,,V,A*2D
$HCHDG,268.1,0.0,E,,*24
$GPRMC,220038.4,A,4741.20432,N,12224.27324,W,000.01,257.6,210413,016.6,E,D*28
$PGRME,2.4,M,5.3,M,5.8,M*23
$HCHDG,268.0,0.0,E,,*25
$HCHDG,268.0,0.0,E,,*25
$GPRMC,220038.6,A,4741.20432,N,12224.27324,W,000.01,257.6,210413,016.6,E,D*2A
$PGRME,2.4,M,5.3,M,5.8,M*23
$HCHDG,267.9,0.0,E,,*23
$YXXDR,A,4.5,D,PTCH,A,-0.6,D,ROLL*77
$PTAK,FFD1,0.6*53
$GPRMC,220038.8,A,4741.20432,N,12224.27324,W,000.01,257.6,210413,016.6,E,D*24
$PGRME,2.4,M,5.3,M,5.8,M*23
$HCHDG,267.8,0.0,E,,*22
$HCHDG,267.8,0.0,E,,*22
$HCHDG,267.8,0.0,E,,*22
$IIRMC,220000,A,4741.204,N,12224.273,W,00.0,257,210413,16,E,A*1D
$GPRMC,220039.0,A,4741.20432,N,12224.27324,W,000.01,257.6,210413,016.6,E,D*2D
$PGRME,2.4,M,5.3,M,5.8,M*23
$IIVHW,,,,,00.0,N,,*19
$HCHDG,267.8,0.0,E,,*22
$IIVLW,06236,N,007.8,N*5D
$IIDPT,007.8,-1.0,*4F
$HCHDG,267.9,0.0,E,,*23
$GPRMC,220039.2,A,4741.20432,N,12224.27324,W,000.01,257.6,210413,016.6,E,D*2F
$PGRME,2.4,M,5.3,M,5.8,M*23
$IIGLL,4741.204,N,12224.273,W,220000,A,A*43
$YXXDR,A,4.3,D,PTCH,A,-0.1,D,ROLL*76
$IIMTW,+09.0,C*31
$HCHDG,268.0,0.0,E,,*25
$IIRMB,A,0.00,L,,M   ,,,,,000.6,357,,V,A*2D
$HCHDG,268.1,0.0,E,,*24
$GPRMC,220039.4,A,4741.20432,N,12224.27324,W,000.01,257.6,210413,016.6,E,D*29
$GPRMB,A,0.00,L,M,M,4741.7720,N,12224.5760,W,0.6,357,-0.00,V*27
$PGRME,2.4,M,5.3,M,5.8,M*23
$HCHDG,268.1,0.0,E,,*24
$HCHDG,268.1,0.0,E,,*24
$GPRMC,220039.6,A,4741.20432,N,12224.27324,W,000.00,257.6,210413,016.6,E,D*2A
$PGRME,2.4,M,5.3,M,5.8,M*23
$HCHDG,268.1,0.0,E,,*24
$YXXDR,A,4.5,D,PTCH,A,0.1,D,ROLL*5D
$GPRMC,220039.8,A,4741.20432,N,12224.27324,W,000.00,257.6,210413,016.6,E,D*24
$PGRME,2.4,M,5.3,M,5.8,M*23
$HCHDG,268.1,0.0,E,,*24
$HCHDG,268.1,0.0,E,,*24
$HCHDG,268.1,0.0,E,,*24
$IIRMC,220000,A,4741.204,N,12224.273,W,00.0,257,210413,16,E,A*1D
$GPRMC,220040.0,A,4741.20432,N,12224.27324,W,000.00,257.6,210413,016.6,E,D*22
$PGRME,2.4,M,5.3,M,5.8,M*23
$IIVHW,,,,,00.0,N,,*19
$HCHDG,268.1,0.0,E,,*24
$IIVLW,06236,N,007.8,N*5D
$IIDPT,007.8,-1.0,*4F
$HCHDG,268.1,0.0,E,,*24
$GPRMC,220040.2,A,4741.20432,N,12224.27324,W,000.00,257.6,210413,016.6,E,D*20
$PGRME,2.4,M,5.3,M,5.8,M*23
$IIGLL,4741.204,N,12224.273,W,220000,A,A*43
$YXXDR,A,4.7,D,PTCH,A,0.2,D,ROLL*5C
$PTAK,FFD1,0.2*57
$IIMTW,+09.0,C*31
$HCHDG,268.1,0.0,E,,*24
$IIRMB,A,0.00,L,,M   ,,,,,000.6,357,,V,A*2D
$HCHDG,268.1,0.0,E,,*24
$GPRMC,220040.4,A,4741.20432,N,12224.27324,W,000.01,257.6,210413,016.6,E,D*27
$PGRME,2.4,M,5.3,M,5.8,M*23
$HCHDG,268.2,0.0,E,,*27
$HCHDG,268.2,0.0,E,,*27
$PTAK,FFP1,HEEL,@*07
$GPRMC,220040.6,A,4741.20432,N,12224.27325,W,000.01,257.6,210413,016.6,E,D*24
$GPRMB,A,0.00,L,M,M,4741.7720,N,12224.5760,W,0.6,357,-0.00,V*27
$PGRME,2.4,M,5.3,M,5.8,M*23
$HCHDG,268.2,0.0,E,,*27
$YXXDR,A,4.4,D,PTCH,A,0.3,D,ROLL*5E
$GPRMC,220040.8,A,4741.20432,N,12224.27325,W,000.00,257.6,210413,016.6,E,D*2B
$PGRME,2.4,M,5.3,M,5.8,M*23
$HCHDG,268.2,0.0,E,,*27
$HCHDG,268.2,0.0,E,,*27
$HCHDG,268.2,0.0,E,,*27
$IIRMC,220000,A,4741.204,N,12224.273,W,00.0,257,210413,16,E,A*1D
$GPRMC,220041.0,A,4741.20432,N,12224.27325,W,000.00,257.6,210413,016.6,E,D*22
$PGRME,2.4,M,5.3,M,5.8,M*23
$IIVHW,,,,,00.0,N,,*19
$HCHDG,268.2,0.0,E,,*27
$IIVLW,06236,N,007.8,N*5D
$IIDPT,007.6,-1.0,*41
$HCHDG,268.0,0.0,E,,*25
$GPRMC,220041.2,A,4741.20432,N,12224.27325,W,000.01,257.6,210413,016.6,E,D*21
$PGRME,2.4,M,5.3,M,5.8,M*23
$IIGLL,4741.204,N,12224.273,W,220000,A,A*43
$YXXDR,A,4.5,D,PTCH,A,0.0,D,ROLL*5C
$PTAK,FFD1,0.0*55
$IIMTW,+09.0,C*31
$HCHDG,268.0,0.0,E,,*25
$IIRMB,A,0.00,L,,M   ,,,,,000.6,357,,V,A*2D
$HCHDG,267.9,0.0,E,,*23
$GPRMC,220041.4,A,4741.20432,N,12224.27325,W,000.00,257.6,210413,016.6,E,D*26
$PGRME,2.4,M,5.3,M,5.8,M*23
$HCHDG,267.9,0.0,E,,*23
$HCHDG,267.8,0.0,E,,*22
$GPRMC,220041.6,A,4741.20432,N,12224.27325,W,000.00,257.6,210413,016.6,E,D*24
$PGRME,2.4,M,5.3,M,5.8,M*23
$HCHDG,267.7,0.0,E,,*2D
$YXXDR,A,4.5,D,PTCH,A,-0.2,D,ROLL*73
$GPRMC,220041.8,A,4741.20432,N,12224.27326,W,000.00,257.6,210413,016.6,E,D*29
$GPRMB,A,0.00,L,M,M,4741.7720,N,12224.5760,W,0.6,357,-0.00,V*27
$PGRME,2.4,M,5.3,M,5.8,M*23
$HCHDG,267.8,0.0,E,,*22
$HCHDG,267.7,0.0,E,,*2D
$HCHDG,267.6,0.0,E,,*2C
$IIRMC,220000,A,4741.204,N,12224.273,W,00.0,257,210413,16,E,A*1D
$GPRMC,220042.0,A,4741.20432,N,12224.27326,W,000.01,257.6,210413,016.6,E,D*23
$PGRME,2.4,M,5.3,M,5.8,M*23
$IIVHW,,,,,00.0,N,,*19
$HCHDG,267.6,0.0,E,,*2C
$IIVLW,06236,N,007.8,N*5D
$IIDPT,007.8,-1.0,*4F
$HCHDG,267.3,0.0,E,,*29
$GPRMC,220042.2,A,4741.20432,N,12224.27326,W,000.01,257.6,210413,016.6,E,D*21
$PGRME,2.4,M,5.3,M,5.8,M*23
$IIGLL,4741.204,N,12224.273,W,220000,A,A*43
$YXXDR,A,4.3,D,PTCH,A,-0.1,D,ROLL*76
$PTAK,FFD1,0.1*54
$IIMTW,+09.0,C*31
$HCHDG,267.3,0.0,E,,*29
$IIRMB,A,0.00,L,,M   ,,,,,000.6,357,,V,A*2D
$HCHDG,267.3,0.0,E,,*29
$GPRMC,220042.4,A,4741.20432,N,12224.27326,W,000.00,257.6,210413,016.6,E,D*26
$PGRME,2.4,M,5.3,M,5.8,M*23
$HCHDG,267.4,0.0,E,,*2E
$HCHDG,267.4,0.0,E,,*2E
$GPRMC,220042.6,A,4741.20432,N,12224.27326,W,000.00,257.6,210413,016.6,E,D*24
$PGRME,2.4,M,5.3,M,5.8,M*23
$HCHDG,267.4,0.0,E,,*2E
$YXXDR,A,4.4,D,PTCH,A,0.3,D,ROLL*5E
$GPRMC,220042.8,A,4741.20432,N,12224.27326,W,000.00,257.6,210413,016.6,E,D*2A
$PGRME,2.4,M,5.3,M,5.8,M*23
$HCHDG,267.7,0.0,E,,*2D
$HCHDG,267.8,0.0,E,,*22
$HCHDG,267.8,0.0,E,,*22
$IIRMC,220000,A,4741.204,N,12224.273,W,00.0,257,210413,16,E,A*1D
$GPRMC,220043.0,A,4741.20432,N,12224.27326,W,000.00,257.6,210413,016.6,E,D*23
$GPRMB,A,0.00,L,M,M,4741.7720,N,12224.5760,W,0.6,357,-0.00,V*27
$PGRME,2.4,M,5.3,M,5.8,M*23
$IIVHW,,,,,00.0,N,,*19
$HCHDG,267.8,0.0,E,,*22
$IIVLW,06236,N,007.8,N*5D
$IIDPT,007.6,-1.0,*41
$HCHDG,268.0,0.0,E,,*25
$GPRMC,220043.2,A,4741.20432,N,12224.27326,W,000.00,257.6,210413,016.6,E,D*21
$PGRME,2.4,M,5.3,M,5.8,M*23
$IIGLL,4741.204,N,12224.273,W,220000,A,A*43
$YXXDR,A,4.5,D,PTCH,A,0.4,D,ROLL*58
$PTAK,FFD1,0.4*51
$IIMTW,+09.0,C*31
$HCHDG,268.0,0.0,E,,*25
$IIRMB,A,0.00,L,,M   ,,,,,000.6,357,,V,A*2D
$HCHDG,268.1,0.0,E,,*24
$GPRMC,220043.4,A,4741.20432,N,12224.27326,W,000.01,257.6,210413,016.6,E,D*26
$PGRME,2.4,M,5.3,M,5.8,M*23
$HCHDG,268.1,0.0,E,,*24
$HCHDG,268.1,0.0,E,,*24
$GPRMC,220043.6,A,4741.20432,N,12224.27326,W,000.00,257.6,210413,016.6,E,D*25
$PGRME,2.4,M,5.3,M,5.8,M*23
$HCHDG,268.1,0.0,E,,*24
$YXXDR,A,4.5,D,PTCH,A,0.1,D,ROLL*5D
$GPRMC,220043.8,A,4741.20432,N,12224.27326,W,000.01,257.6,210413,016.6,E,D*2A
$PGRME,2.4,M,5.3,M,5.8,M*23
$HCHDG,268.2,0.0,E,,*27
$HCHDG,268.1,0.0,E,,*24
$HCHDG,268.1,0.0,E,,*24
$IIRMC,220000,A,4741.204,N,12224.273,W,00.0,257,210413,16,E,A*1D
$GPRMC,220044.0,A,4741.20432,N,12224.27326,W,000.00,257.6,210413,016.6,E,D*24
$PGRME,2.4,M,5.3,M,5.8,M*23
$PGRMT,GPS 18x-5Hz software ver. 3.20,,,,,,,,*30
$IIVHW,,,,,00.0,N,,*19
$HCHDG,268.1,0.0,E,,*24
$IIVLW,06236,N,007.8,N*5D
$IIDPT,007.8,-1.0,*4F
$HCHDG,268.1,0.0,E,,*24
$GPRMC,220044.2,A,4741.20432,N,12224.27326,W,000.01,257.6,210413,016.6,E,D*27
$GPRMB,A,0.00,L,M,M,4741.7720,N,12224.5760,W,0.6,357,-0.00,V*27
$PGRME,2.4,M,5.3,M,5.8,M*23
$IIGLL,4741.204,N,12224.273,W,220000,A,A*43
$YXXDR,A,4.5,D,PTCH,A,-0.1,D,ROLL*70
$PTAK,FFD1,0.1*54
$IIMTW,+09.0,C*31
$HCHDG,268.1,0.0,E,,*24
$IIRMB,A,0.00,L,,M   ,,,,,000.6,357,,V,A*2D
$HCHDG,268.0,0.0,E,,*25
$GPRMC,220044.4,A,4741.20432,N,12224.27326,W,000.01,257.6,210413,016.6,E,D*21
$PGRME,2.4,M,5.3,M,5.8,M*23
$HCHDG,267.9,0.0,E,,*23
$PTAK,FFP1,HEEL,@*07
$HCHDG,267.8,0.0,E,,*22
$GPRMC,220044.6,A,4741.20432,N,12224.27326,W,000.01,257.6,210413,016.6,E,D*23
$PGRME,2.4,M,5.3,M,5.8,M*23
$HCHDG,267.8,0.0,E,,*22
$YXXDR,A,4.5,D,PTCH,A,0.1,D,ROLL*5D
$GPRMC,220044.8,A,4741.20432,N,12224.27326,W,000.00,257.6,210413,016.6,E,D*2C
$PGRME,2.4,M,5.3,M,5.8,M*23
$HCHDG,267.8,0.0,E,,*22
$HCHDG,267.7,0.0,E,,*2D
$HCHDG,267.7,0.0,E,,*2D
$IIRMC,220000,A,4741.204,N,12224.273,W,00.0,257,210413,16,E,A*1D
$GPRMC,220045.0,A,4741.20432,N,12224.27326,W,000.01,257.6,210413,016.6,E,D*24
$PGRME,2.4,M,5.3,M,5.8,M*23
$IIVHW,,,,,00.0,N,,*19
$HCHDG,267.6,0.0,E,,*2C
$IIVLW,06236,N,007.8,N*5D
$IIDPT,007.6,-1.0,*41
$HCHDG,267.6,0.0,E,,*2C
$GPRMC,220045.2,A,4741.20432,N,12224.27326,W,000.01,257.6,210413,016.6,E,D*26
$GPRMB,A,0.00,L,M,M,4741.7720,N,12224.5760,W,0.6,357,-0.00,V*27
$PGRME,2.4,M,5.3,M,5.8,M*23
$IIGLL,4741.204,N,12224.273,W,220000,A,A*43
$YXXDR,A,4.5,D,PTCH,A,-0.1,D,ROLL*70
$IIMTW,+09.0,C*31
$HCHDG,267.5,0.0,E,,*2F
$IIRMB,A,0.00,L,,M   ,,,,,000.6,357,,V,A*2D
$HCHDG,267.5,0.0,E,,*2F
$GPRMC,220045.4,A,4741.20432,N,12224.27326,W,000.00,257.6,210413,016.6,E,D*21
$PGRME,2.4,M,5.3,M,5.8,M*23
$HCHDG,267.6,0.0,E,,*2C
$HCHDG,267.6,0.0,E,,*2C
$GPRMC,220045.6,A,4741.20432,N,12224.27326,W,000.00,257.6,210413,016.6,E,D*23
$PGRME,2.4,M,5.3,M,5.8,M*23
$HCHDG,267.6,0.0,E,,*2C
$YXXDR,A,4.3,D,PTCH,A,0.1,D,ROLL*5B
$PTAK,FFD1,0.1*54
$GPRMC,220045.8,A,4741.20432,N,12224.27326,W,000.00,257.6,210413,016.6,E,D*2D
$HCHDG,267.6,0.0,E,,*2C
$PGRME,2.4,M,5.3,M,5.8,M*23
$HCHDG,267.7,0.0,E,,*2D
$HCHDG,267.7,0.0,E,,*2D
$IIRMC,220000,A,4741.204,N,12224.273,W,00.0,257,210413,16,E,A*1D
$GPRMC,220046.0,A,4741.20432,N,12224.27326,W,000.00,257.6,210413,016.6,E,D*26
$PGRME,2.4,M,5.3,M,5.8,M*23
$IIVHW,,,,,00.0,N,,*19
$HCHDG,267.8,0.0,E,,*22
$IIVLW,06236,N,007.8,N*5D
$IIDPT,007.8,-1.0,*4F
$HCHDG,267.9,0.0,E,,*23
$GPRMC,220046.2,A,4741.20432,N,12224.27326,W,000.01,257.6,210413,016.6,E,D*25
$PGRME,2.4,M,5.3,M,5.8,M*23
$IIGLL,4741.204,N,12224.273,W,220000,A,A*43
$YXXDR,A,4.3,D,PTCH,A,0.4,D,ROLL*5E
$IIMTW,+09.0,C*31
$HCHDG,267.9,0.0,E,,*23
$IIRMB,A,0.00,L,,M   ,,,,,000.6,357,,V,A*2D
$HCHDG,268.0,0.0,E,,*25
$GPRMC,220046.4,A,4741.20432,N,12224.27325,W,000.00,257.6,210413,016.6,E,D*21
$GPRMB,A,0.00,L,M,M,4741.7720,N,12224.5760,W,0.6,357,-0.00,V*27
$PGRME,2.4,M,5.3,M,5.8,M*23
$HCHDG,268.0,0.0,E,,*25
$HCHDG,268.1,0.0,E,,*24
$GPRMC,220046.6,A,4741.20432,N,12224.27325,W,000.00,257.6,210413,016.6,E,D*23
$PGRME,2.4,M,5.3,M,5.8,M*23
$HCHDG,268.1,0.0,E,,*24
$YXXDR,A,4.6,D,PTCH,A,0.4,D,ROLL*5B
$GPRMC,220046.8,A,4741.20432,N,12224.27325,W,000.00,257.6,210413,016.6,E,D*2D
$PGRME,2.4,M,5.3,M,5.8,M*23
$HCHDG,268.1,0.0,E,,*24
$HCHDG,268.2,0.0,E,,*27
$HCHDG,268.2,0.0,E,,*27
$IIRMC,220000,A,4741.204,N,12224.273,W,00.0,257,210413,16,E,A*1D
$GPRMC,220047.0,A,4741.20432,N,12224.27326,W,000.01,257.6,210413,016.6,E,D*26
$PGRME,2.4,M,5.3,M,5.8,M*23
$IIVHW,,,,,00.0,N,,*19
$HCHDG,268.3,0.0,E,,*26
$IIVLW,06236,N,007.8,N*5D
$IIDPT,007.8,-1.0,*4F
$HCHDG,268.3,0.0,E,,*26
$GPRMC,220047.2,A,4741.20432,N,12224.27325,W,000.00,257.6,210413,016.6,E,D*26
$PGRME,2.4,M,5.3,M,5.8,M*23
$IIGLL,4741.204,N,12224.273,W,220000,A,A*43
$YXXDR,A,4.6,D,PTCH,A,0.1,D,ROLL*5E
$PTAK,FFD1,0.1*54
$IIMTW,+09.0,C*31
$HCHDG,268.2,0.0,E,,*27
$IIRMB,A,0.00,L,,M   ,,,,,000.6,357,,V,A*2D
$HCHDG,268.2,0.0,E,,*27
$GPRMC,220047.4,A,4741.20432,N,12224.27325,W,000.00,257.6,210413,016.6,E,D*20
$PGRME,2.4,M,5.3,M,5.8,M*23
$HCHDG,268.2,0.0,E,,*27
$HCHDG,268.1,0.0,E,,*24
$GPRMC,220047.6,A,4741.20432,N,12224.27325,W,000.00,257.6,210413,016.6,E,D*22
$GPRMB,A,0.00,L,M,M,4741.7720,N,12224.5760,W,0.6,357,-0.00,V*27
$PGRME,2.4,M,5.3,M,5.8,M*23
$HCHDG,268.1,0.0,E,,*24
$YXXDR,A,4.6,D,PTCH,A,0.1,D,ROLL*5E
$GPRMC,220047.8,A,4741.20432,N,12224.27325,W,000.00,257.6,210413,016.6,E,D*2C
$PGRME,2.4,M,5.3,M,5.8,M*23
$HCHDG,268.0,0.0,E,,*25
$HCHDG,268.0,0.0,E,,*25
$HCHDG,267.8,0.0,E,,*22
$IIRMC,220000,A,4741.204,N,12224.273,W,00.0,257,210413,16,E,A*1D
$GPRMC,220048.0,A,4741.20432,N,12224.27325,W,000.00,257.6,210413,016.6,E,D*2B
$PGRME,2.4,M,5.3,M,5.8,M*23
$IIVHW,,,,,00.0,N,,*19
$HCHDG,267.8,0.0,E,,*22
$IIVLW,06236,N,007.8,N*5D
$IIDPT,007.8,-1.0,*4F
$HCHDG,267.8,0.0,E,,*22
$GPRMC,220048.2,A,4741.20432,N,12224.27325,W,000.01,257.6,210413,016.6,E,D*28
$PGRME,2.4,M,5.3,M,5.8,M*23
$IIGLL,4741.204,N,12224.273,W,220000,A,A*43
$YXXDR,A,4.5,D,PTCH,A,0.0,D,ROLL*5C
$PTAK,FFD1,0.0*55
$IIMTW,+09.0,C*31
$HCHDG,267.7,0.0,E,,*2D
$IIRMB,A,0.00,L,,M   ,,,,,000.6,357,,V,A*2D
$HCHDG,267.7,0.0,E,,*2D
$GPRMC,220048.4,A,4741.20432,N,12224.27325,W,000.01,257.6,210413,016.6,E,D*2E
$PGRME,2.4,M,5.3,M,5.8,M*23
$HCHDG,267.7,0.0,E,,*2D
$HCHDG,267.7,0.0,E,,*2D
$GPRMC,220048.6,A,4741.20432,N,12224.27325,W,000.00,257.6,210413,016.6,E,D*2D
$PTAK,FFP1,HEEL,@*07
$PGRME,2.4,M,5.3,M,5.8,M*23
$HCHDG,267.7,0.0,E,,*2D
$YXXDR,A,4.3,D,PTCH,A,0.0,D,ROLL*5A
$GPRMC,220048.8,A,4741.20432,N,12224.27325,W,000.01,257.6,210413,016.6,E,D*22
$GPRMB,A,0.00,L,M,M,4741.7720,N,12224.5760,W,0.6,357,-0.00,V*27
$PGRME,2.4,M,5.3,M,5.8,M*23
$HCHDG,267.7,0.0,E,,*2D
$HCHDG,267.4,0.0,E,,*2E
$HCHDG,267.4,0.0,E,,*2E
$IIRMC,220000,A,4741.204,N,12224.273,W,00.0,257,210413,16,E,A*1D
$GPRMC,220049.0,A,4741.20432,N,12224.27325,W,000.01,257.6,210413,016.6,E,D*2B
$PGRME,2.4,M,5.3,M,5.8,M*23
$IIVHW,,,,,00.0,N,,*19
$HCHDG,267.4,0.0,E,,*2E
$IIVLW,06236,N,007.8,N*5D
$IIDPT,007.8,-1.0,*4F
$HCHDG,267.5,0.0,E,,*2F
$GPRMC,220049.2,A,4741.20432,N,12224.27325,W,000.00,257.6,210413,016.6,E,D*28
$PGRME,2.4,M,5.3,M,5.8,M*23
$IIGLL,4741.204,N,12224.273,W,220000,A,A*43
$YXXDR,A,4.3,D,PTCH,A,0.1,D,ROLL*5B
$IIMTW,+09.0,C*31
$HCHDG,267.5,0.0,E,,*2F
$IIRMB,A,0.00,L,,M   ,,,,,000.6,357,,V,A*2D
$HCHDG,267.5,0.0,E,,*2F
$GPRMC,220049.4,A,4741.20432,N,12224.27325,W,000.00,257.6,210413,016.6,E,D*2E
$PGRME,2.4,M,5.3,M,5.8,M*23
$HCHDG,267.7,0.0,E,,*2D
$HCHDG,267.7,0.0,E,,*2D
$GPRMC,220049.6,A,4741.20432,N,12224.27325,W,000.00,257.6,210413,016.6,E,D*2C
$PGRME,2.4,M,5.3,M,5.8,M*23
$HCHDG,267.8,0.0,E,,*22
$YXXDR,A,4.5,D,PTCH,A,0.4,D,ROLL*58
$PTAK,FFD1,0.4*51
$GPRMC,220049.8,A,4741.20432,N,12224.27325,W,000.00,257.6,210413,016.6,E,D*22
$GPRMB,A,0.00,L,M,M,4741.7720,N,12224.5760,W,0.6,357,-0.00,V*27
$PGRME,2.4,M,5.3,M,5.8,M*23
$HCHDG,267.9,0.0,E,,*23
$HCHDG,268.0,0.0,E,,*25
$HCHDG,268.2,0.0,E,,*27
$IIRMC,220000,A,4741.204,N,12224.273,W,00.0,257,210413,16,E,A*1D
$GPRMC,220050.0,A,4741.20432,N,12224.27325,W,000.00,257.6,210413,016.6,E,D*22
$PGRME,2.4,M,5.3,M,5.8,M*23
$IIVHW,,,,,00.0,N,,*19
$HCHDG,268.3,0.0,E,,*26
$IIVLW,06236,N,007.8,N*5D
$IIDPT,007.8,-1.0,*4F
$HCHDG,268.3,0.0,E,,*26
$GPRMC,220050.2,A,4741.20432,N,12224.27325,W,000.01,257.6,210413,016.6,E,D*21
$PGRME,2.4,M,5.3,M,5.8,M*23
$IIGLL,4741.204,N,12224.273,W,220000,A,A*43
$YXXDR,A,4.6,D,PTCH,A,0.4,D,ROLL*5B
$IIMTW,+09.0,C*31
$HCHDG,268.3,0.0,E,,*26
$IIRMB,A,0.00,L,,M   ,,,,,000.6,357,,V,A*2D
$HCHDG,268.4,0.0,E,,*21
$GPRMC,220050.4,A,4741.20432,N,12224.27325,W,000.00,257.6,210413,016.6,E,D*26
$PGRME,2.4,M,5.3,M,5.8,M*23
$HCHDG,268.4,0.0,E,,*21
$HCHDG,268.3,0.0,E,,*26
$GPRMC,220050.6,A,4741.20432,N,12224.27325,W,000.01,257.6,210413,016.6,E,D*25
$PGRME,2.4,M,5.3,M,5.8,M*23
$HCHDG,268.4,0.0,E,,*21
$YXXDR,A,4.6,D,PTCH,A,0.1,D,ROLL*5E
$PTAK,FFD1,0.1*54
$GPRMC,220050.8,A,4741.20432,N,12224.27325,W,000.01,257.6,210413,016.6,E,D*2B
$GPRMB,A,0.00,L,M,M,4741.7720,N,12224.5760,W,0.6,357,-0.00,V*27
$PGRME,2.4,M,5.3,M,5.8,M*23
$HCHDG,268.4,0.0,E,,*21
$HCHDG,268.3,0.0,E,,*26
$HCHDG,268.3,0.0,E,,*26
$IIRMC,220000,A,4741.204,N,12224.273,W,00.0,257,210413,16,E,A*1D
$GPRMC,220051.0,A,4741.20432,N,12224.27325,W,000.01,257.6,210413,016.6,E,D*22
$PGRME,2.4,M,5.3,M,5.8,M*23
$IIVHW,,,,,00.0,N,,*19
$HCHDG,268.2,0.0,E,,*27
$IIVLW,06236,N,007.8,N*5D
$IIDPT,007.8,-1.0,*4F
$HCHDG,268.2,0.0,E,,*27
$GPRMC,220051.2,A,4741.20432,N,12224.27325,W,000.01,257.6,210413,016.6,E,D*20
$PGRME,2.4,M,5.3,M,5.8,M*23
$IIGLL,4741.204,N,12224.273,W,220000,A,A*43
