$GPRMB,A,-32.07,L,,Ttp,4726.8700,N,12137.4300,W,35.8,133,-2.33,V*58
$PGRME,2.4,M,2.4,M,3.4,M*29
$HCHDG,289.2,0.0,E,,*28
$HCHDG,289.2,0.0,E,,*28
$GPRMC,190000.6,A,4743.00997,N,12224.81745,W,002.48,312.8,200413,016.6,E,D*24
$PGRME,2.4,M,2.4,M,3.4,M*29
$HCHDG,289.0,0.0,E,,*2A
$YXXDR,A,5.6,D,PTCH,A,5.0,D,ROLL*5B
$HCHDG,289.1,0.0,E,,*2B
$GPRMC,190000.8,A,4743.01004,N,12224.81761,W,002.48,308.7,200413,016.6,E,D*2A
$PGRME,2.4,M,2.4,M,3.4,M*29
$HCHDG,288.9,0.0,E,,*22
$HCHDG,289.0,0.0,E,,*2A
$GPRMC,190001.0,A,4743.01012,N,12224.81776,W,002.49,312.5,200413,016.6,E,D*2A
$PGRME,2.4,M,2.4,M,3.4,M*29
$HCHDG,289.0,0.0,E,,*2A
$IIRMC,190000,A,4743.009,N,12224.817,W,02.4,312,200413,16,E,A*17
$IIVHW,,,,,02.4,N,,*1F
$HCHDG,289.0,0.0,E,,*2A
$IIVLW,06218,N,008.2,N*54
$GPRMC,190001.2,A,4743.01016,N,12224.81788,W,002.48,309.2,200413,016.6,E,D*21
$PGRME,2.4,M,2.4,M,3.4,M*29
$YXXDR,A,5.5,D,PTCH,A,5.0,D,ROLL*58
$PTAK,FFD1,5.0*50
$IIGLL,4743.009,N,12224.817,W,190000,A,A*4E
$HCHDG,289.0,0.0,E,,*2A
$IIMTW,+09.0,C*31
$HCHDG,289.0,0.0,E,,*2A
$IIRMB,A,,,,Ttp ,,,,,035.8,133,,V,A*6A
$GPRMC,190001.4,A,4743.01024,N,12224.81810,W,002.48,310.8,200413,016.6,E,D*2A
$PGRME,2.4,M,2.4,M,3.4,M*29
$HCHDG,289.0,0.0,E,,*2A
$PTAK,FFP1,HEEL,@*07
$HCHDG,288.9,0.0,E,,*22
$GPRMC,190001.6,A,4743.01031,N,12224.81820,W,002.47,310.3,200413,016.6,E,D*2B
$GPRMB,A,-32.07,L,,Ttp,4726.8700,N,12137.4300,W,35.8,133,-2.33,V*58
$PGRME,2.4,M,2.4,M,3.4,M*29
$HCHDG,289.0,0.0,E,,*2A
$YXXDR,A,5.4,D,PTCH,A,4.7,D,ROLL*5F
$HCHDG,289.0,0.0,E,,*2A
$GPRMC,190001.8,A,4743.01035,N,12224.81826,W,002.46,311.0,200413,016.6,E,D*24
$PGRME,2.4,M,2.4,M,3.4,M*29
$HCHDG,289.0,0.0,E,,*2A
$HCHDG,289.0,0.0,E,,*2A
$GPRMC,190002.0,A,4743.01041,N,12224.81833,W,002.47,312.0,200413,016.6,E,D*2A
$PGRME,2.4,M,2.4,M,3.4,M*29
$HCHDG,289.0,0.0,E,,*2A
$IIRMC,190000,A,4743.010,N,12224.817,W,02.4,312,200413,16,E,A*1F
$IIVHW,,,,,02.4,N,,*1F
$HCHDG,288.9,0.0,E,,*22
$IIVLW,06218,N,008.2,N*54
$GPRMC,190002.2,A,4743.01050,N,12224.81843,W,002.48,313.0,200413,016.6,E,D*21
$PGRME,2.4,M,2.4,M,3.4,M*29
$YXXDR,A,5.5,D,PTCH,A,4.7,D,ROLL*5E
$PTAK,FFD1,4.7*56
$IIGLL,4743.010,N,12224.817,W,190000,A,A*46
$HCHDG,288.9,0.0,E,,*22
$IIMTW,+09.0,C*31
$HCHDG,288.9,0.0,E,,*22
$IIRMB,A,,,,Ttp ,,,,,035.8,133,,V,A*6A
$GPRMC,190002.4,A,4743.01057,N,12224.81857,W,002.48,311.3,200413,016.6,E,D*24
$PGRME,2.4,M,2.4,M,3.4,M*29
$HCHDG,289.0,0.0,E,,*2A
$HCHDG,288.8,0.0,E,,*23
$GPRMC,190002.6,A,4743.01058,N,12224.81874,W,002.50,312.9,200413,016.6,E,D*28
$PGRME,2.4,M,2.4,M,3.4,M*29
$HCHDG,288.8,0.0,E,,*23
$YXXDR,A,5.5,D,PTCH,A,5.0,D,ROLL*58
$HCHDG,288.7,0.0,E,,*2C
$GPRMC,190002.8,A,4743.01060,N,12224.81887,W,002.50,311.1,200413,016.6,E,D*2A
$GPRMB,A,-32.07,L,,Ttp,4726.8700,N,12137.4300,W,35.8,133,-2.37,V*5C
$PGRME,2.4,M,2.4,M,3.4,M*29
$HCHDG,288.7,0.0,E,,*2C
$HCHDG,288.9,0.0,E,,*22
$GPRMC,190003.0,A,4743.01065,N,12224.81902,W,002.50,309.6,200413,016.6,E,D*24
$PGRME,2.4,M,2.4,M,3.4,M*29
$HCHDG,288.8,0.0,E,,*23
$IIRMC,190000,A,4743.010,N,12224.818,W,02.4,312,200413,16,E,A*10
$IIVHW,,,,,02.4,N,,*1F
$HCHDG,288.8,0.0,E,,*23
$IIVLW,06218,N,008.2,N*54
$GPRMC,190003.2,A,4743.01075,N,12224.81912,W,002.51,308.7,200413,016.6,E,D*27
$PGRME,2.4,M,2.4,M,3.4,M*29
$YXXDR,A,5.4,D,PTCH,A,5.1,D,ROLL*58
$IIGLL,4743.010,N,12224.818,W,190000,A,A*49
$HCHDG,288.8,0.0,E,,*23
$IIMTW,+09.0,C*31
$HCHDG,288.9,0.0,E,,*22
$IIRMB,A,,,,Ttp ,,,,,035.8,133,,V,A*6A
$GPRMC,190003.4,A,4743.01085,N,12224.81919,W,002.51,311.4,200413,016.6,E,D*2E
$PGRME,2.4,M,2.4,M,3.4,M*29
$HCHDG,288.8,0.0,E,,*23
$HCHDG,288.7,0.0,E,,*2C
$GPRMC,190003.6,A,4743.01093,N,12224.81926,W,002.49,310.6,200413,016.6,E,D*2D
$PGRME,2.4,M,2.4,M,3.4,M*29
$HCHDG,288.6,0.0,E,,*2D
$YXXDR,A,5.4,D,PTCH,A,4.5,D,ROLL*5D
$PTAK,FFD1,4.5*54
$HCHDG,288.6,0.0,E,,*2D
$GPRMC,190003.8,A,4743.01098,N,12224.81939,W,002.49,310.9,200413,016.6,E,D*29
$GPRMB,A,-32.07,L,,Ttp,4726.8700,N,12137.4300,W,35.8,133,-2.36,V*5D
$PGRME,2.4,M,2.4,M,3.4,M*29
$HCHDG,288.6,0.0,E,,*2D
$HCHDG,288.3,0.0,E,,*28
$GPRMC,190004.0,A,4743.01106,N,12224.81952,W,002.50,311.5,200413,016.6,E,D*28
$PGRME,2.4,M,2.4,M,3.4,M*29
$HCHDG,288.4,0.0,E,,*2F
$IIRMC,190000,A,4743.010,N,12224.819,W,02.5,309,200413,16,E,A*1A
$IIVHW,,,,,02.4,N,,*1F
$HCHDG,288.4,0.0,E,,*2F
$IIVLW,06218,N,008.2,N*54
$GPRMC,190004.2,A,4743.01114,N,12224.81969,W,002.51,313.3,200413,016.6,E,D*24
$PGRME,2.4,M,2.4,M,3.4,M*29
$YXXDR,A,5.4,D,PTCH,A,4.4,D,ROLL*5C
$IIGLL,4743.010,N,12224.819,W,190000,A,A*48
$HCHDG,288.2,0.0,E,,*29
$IIMTW,+09.0,C*31
$HCHDG,288.1,0.0,E,,*2A
$IIRMB,A,,,,Ttp ,,,,,035.8,133,,V,A*6A
$GPRMC,190004.4,A,4743.01124,N,12224.81986,W,002.51,312.5,200413,016.6,E,D*27
$PGRME,2.4,M,2.4,M,3.4,M*29
$HCHDG,288.1,0.0,E,,*2A
$HCHDG,288.2,0.0,E,,*29
$GPRMC,190004.6,A,4743.01131,N,12224.81997,W,002.48,311.3,200413,016.6,E,D*2C
$PGRME,2.4,M,2.4,M,3.4,M*29
$HCHDG,288.2,0.0,E,,*29
$YXXDR,A,5.4,D,PTCH,A,4.9,D,ROLL*51
$PTAK,FFD1,4.9*58
$HCHDG,288.2,0.0,E,,*29
$GPRMC,190004.8,A,4743.01138,N,12224.82007,W,002.47,311.0,200413,016.6,E,D*24
$GPRMB,A,-32.07,L,,Ttp,4726.8700,N,12137.4300,W,35.8,133,-2.34,V*5F
$PGRME,2.4,M,2.4,M,3.4,M*29
$HCHDG,288.3,0.0,E,,*28
$HCHDG,288.3,0.0,E,,*28
$GPRMC,190005.0,A,4743.01149,N,12224.82023,W,002.46,308.8,200413,016.6,E,D*2C
$PGRME,2.4,M,2.4,M,3.4,M*29
$HCHDG,288.4,0.0,E,,*2F
$IIRMC,190000,A,4743.011,N,12224.819,W,02.5,311,200413,16,E,A*12
$IIVHW,,,,,02.4,N,,*1F
$HCHDG,288.5,0.0,E,,*2E
$IIVLW,06218,N,008.2,N*54
$GPRMC,190005.2,A,4743.01157,N,12224.82039,W,002.43,307.9,200413,016.6,E,D*21
$PGRME,2.4,M,2.4,M,3.4,M*29
$YXXDR,A,5.4,D,PTCH,A,4.7,D,ROLL*5F
$IIGLL,4743.011,N,12224.819,W,190000,A,A*49
$HCHDG,288.5,0.0,E,,*2E
$IIMTW,+09.0,C*31
$HCHDG,288.5,0.0,E,,*2E
$IIRMB,A,,,,Ttp ,,,,,035.8,133,,V,A*6A
$GPRMC,190005.4,A,4743.01163,N,12224.82057,W,002.43,309.6,200413,016.6,E,D*29
$PGRME,2.4,M,2.4,M,3.4,M*29
$HCHDG,288.4,0.0,E,,*2F
$PTAK,FFP1,HEEL,@*07
$HCHDG,288.4,0.0,E,,*2F
$GPRMC,190005.6,A,4743.01169,N,12224.82073,W,002.42,309.2,200413,016.6,E,D*22
$PGRME,2.4,M,2.4,M,3.4,M*29
$HCHDG,288.4,0.0,E,,*2F
$YXXDR,A,5.4,D,PTCH,A,4.7,D,ROLL*5F
$PTAK,FFD1,4.7*56
$HCHDG,288.4,0.0,E,,*2F
$GPRMC,190005.8,A,4743.01182,N,12224.82084,W,002.42,310.1,200413,016.6,E,D*2A
$GPRMB,A,-32.07,L,,Ttp,4726.8700,N,12137.4300,W,35.8,133,-2.28,V*52
$PGRME,2.4,M,2.4,M,3.4,M*29
$HCHDG,288.3,0.0,E,,*28
$HCHDG,288.3,0.0,E,,*28
$GPRMC,190006.0,A,4743.01191,N,12224.82103,W,002.41,311.0,200413,016.6,E,D*2E
$PGRME,2.4,M,2.4,M,3.4,M*29
$HCHDG,288.2,0.0,E,,*29
$IIRMC,190000,A,4743.011,N,12224.820,W,02.4,308,200413,16,E,A*11
$IIVHW,,,,,02.4,N,,*1F
$HCHDG,288.2,0.0,E,,*29
$IIVLW,06218,N,008.2,N*54
$GPRMC,190006.2,A,4743.01201,N,12224.82120,W,002.44,312.1,200413,016.6,E,D*20
$PGRME,2.4,M,2.4,M,3.4,M*29
$YXXDR,A,5.4,D,PTCH,A,4.2,D,ROLL*5A
$IIGLL,4743.011,N,12224.820,W,190000,A,A*43
$HCHDG,288.2,0.0,E,,*29
$IIMTW,+09.0,C*31
$HCHDG,288.2,0.0,E,,*29
$IIRMB,A,,,,Ttp ,,,,,035.8,133,,V,A*6A
$GPRMC,190006.4,A,4743.01214,N,12224.82140,W,002.44,310.9,200413,016.6,E,D*2E
$PGRME,2.4,M,2.4,M,3.4,M*29
$HCHDG,288.3,0.0,E,,*28
$HCHDG,288.3,0.0,E,,*28
$GPRMC,190006.6,A,4743.01225,N,12224.82157,W,002.44,310.7,200413,016.6,E,D*26
$PGRME,2.4,M,2.4,M,3.4,M*29
$HCHDG,288.3,0.0,E,,*28
$YXXDR,A,5.4,D,PTCH,A,4.0,D,ROLL*58
$PTAK,FFD1,4.0*51
$HCHDG,288.4,0.0,E,,*2F
$GPRMC,190006.8,A,4743.01235,N,12224.82173,W,002.43,311.6,200413,016.6,E,D*28
$PGRME,2.4,M,2.4,M,3.4,M*29
$HCHDG,288.4,0.0,E,,*2F
$HCHDG,288.4,0.0,E,,*2F
$GPRMC,190007.0,A,4743.01243,N,12224.82186,W,002.45,308.1,200413,016.6,E,D*23
$GPRMB,A,-32.07,L,,Ttp,4726.8700,N,12137.4300,W,35.8,133,-2.28,V*52
$PGRME,2.4,M,2.4,M,3.4,M*29
$HCHDG,288.5,0.0,E,,*2E
$IIRMC,190000,A,4743.011,N,12224.821,W,02.4,311,200413,16,E,A*18
$IIVHW,,,,,02.4,N,,*1F
$HCHDG,288.6,0.0,E,,*2D
$IIVLW,06218,N,008.2,N*54
$GPRMC,190007.2,A,4743.01257,N,12224.82197,W,002.42,309.1,200413,016.6,E,D*22
$PGRME,2.4,M,2.4,M,3.4,M*29
$YXXDR,A,5.4,D,PTCH,A,4.7,D,ROLL*5F
$IIGLL,4743.011,N,12224.821,W,190000,A,A*42
$HCHDG,288.6,0.0,E,,*2D
$IIMTW,+09.0,C*31
$HCHDG,288.5,0.0,E,,*2E
$IIRMB,A,,,,Ttp ,,,,,035.8,133,,V,A*6A
$GPRMC,190007.4,A,4743.01266,N,12224.82211,W,002.40,307.4,200413,016.6,E,D*22
$PGRME,2.4,M,2.4,M,3.4,M*29
$HCHDG,288.4,0.0,E,,*2F
$HCHDG,288.4,0.0,E,,*2F
$GPRMC,190007.6,A,4743.01274,N,12224.82226,W,002.21,309.0,200413,016.6,E,D*2A
$PGRME,2.4,M,2.4,M,3.4,M*29
$HCHDG,288.3,0.0,E,,*28
$YXXDR,A,5.6,D,PTCH,A,4.5,D,ROLL*5F
$PTAK,FFD1,4.5*54
$HCHDG,288.3,0.0,E,,*28
$GPRMC,190007.8,A,4743.01281,N,12224.82246,W,002.25,308.2,200413,016.6,E,D*2F
$PGRME,2.4,M,2.4,M,3.4,M*29
$HCHDG,288.2,0.0,E,,*29
$HCHDG,288.1,0.0,E,,*2A
$GPRMC,190008.0,A,4743.01290,N,12224.82260,W,002.31,310.0,200413,016.6,E,D*22
$PGRME,2.4,M,2.4,M,3.4,M*29
$HCHDG,288.1,0.0,E,,*2A
$IIRMC,190000,A,4743.012,N,12224.821,W,02.4,308,200413,16,E,A*13
$IIVHW,,,,,02.4,N,,*1F
$HCHDG,288.1,0.0,E,,*2A
$IIVLW,06218,N,008.2,N*54
$GPRMC,190008.2,A,4743.01298,N,12224.82274,W,002.32,309.9,200413,016.6,E,D*2F
$GPRMB,A,-32.07,L,,Ttp,4726.8700,N,12137.4300,W,35.8,133,-2.18,V*51
$PGRME,2.4,M,2.4,M,3.4,M*29
$YXXDR,A,5.4,D,PTCH,A,4.2,D,ROLL*5A
$IIGLL,4743.012,N,12224.821,W,190000,A,A*41
$HCHDG,288.1,0.0,E,,*2A
$IIMTW,+09.0,C*31
$HCHDG,288.1,0.0,E,,*2A
$IIRMB,A,,,,Ttp ,,,,,035.8,133,,V,A*6A
$GPRMC,190008.4,A,4743.01306,N,12224.82290,W,002.33,310.6,200413,016.6,E,D*23
$PGRME,2.4,M,2.4,M,3.4,M*29
$HCHDG,288.2,0.0,E,,*29
$HCHDG,288.2,0.0,E,,*29
$GPRMC,190008.6,A,4743.01314,N,12224.82306,W,002.38,309.8,200413,016.6,E,D*21
$PGRME,2.4,M,2.4,M,3.4,M*29
$HCHDG,288.3,0.0,E,,*28
$YXXDR,A,5.4,D,PTCH,A,4.3,D,ROLL*5B
$HCHDG,288.4,0.0,E,,*2F
$GPRMC,190008.8,A,4743.01323,N,12224.82321,W,002.39,309.5,200413,016.6,E,D*22
$PGRME,2.4,M,2.4,M,3.4,M*29
$HCHDG,288.4,0.0,E,,*2F
$HCHDG,288.5,0.0,E,,*2E
$GPRMC,190009.0,A,4743.01331,N,12224.82336,W,002.42,311.2,200413,016.6,E,D*2C
$PGRME,2.4,M,2.4,M,3.4,M*29
$HCHDG,288.6,0.0,E,,*2D
$IIRMC,190000,A,4743.012,N,12224.822,W,02.3,310,200413,16,E,A*1E
$IIVHW,,,,,02.3,N,,*18
$HCHDG,288.6,0.0,E,,*2D
$IIVLW,06218,N,008.2,N*54
$GPRMC,190009.2,A,4743.01340,N,12224.82351,W,002.44,311.5,200413,016.6,E,D*28
$GPRMB,A,-32.07,L,,Ttp,4726.8700,N,12137.4300,W,35.8,133,-2.32,V*59
$PGRME,2.4,M,2.4,M,3.4,M*29
$YXXDR,A,5.4,D,PTCH,A,4.4,D,ROLL*5C
$PTAK,FFD1,4.4*55
$IIGLL,4743.012,N,12224.822,W,190000,A,A*42
$HCHDG,288.7,0.0,E,,*2C
$IIMTW,+09.0,C*31
$HCHDG,288.7,0.0,E,,*2C
$IIRMB,A,,,,Ttp ,,,,,035.8,133,,V,A*6A
$GPRMC,190009.4,A,4743.01347,N,12224.82364,W,002.46,309.7,200413,016.6,E,D*26
$PTAK,FFP1,HEEL,@*07
$PGRME,2.4,M,2.4,M,3.4,M*29
$HCHDG,288.7,0.0,E,,*2C
$HCHDG,288.6,0.0,E,,*2D
$GPRMC,190009.6,A,4743.01358,N,12224.82384,W,002.46,314.4,200413,016.6,E,D*2B
$PGRME,2.4,M,2.4,M,3.4,M*29
$HCHDG,288.6,0.0,E,,*2D
$YXXDR,A,5.4,D,PTCH,A,4.2,D,ROLL*5A
$HCHDG,288.6,0.0,E,,*2D
$GPRMC,190009.8,A,4743.01366,N,12224.82399,W,002.44,308.9,200413,016.6,E,D*26
$PGRME,2.4,M,2.4,M,3.4,M*29
$HCHDG,288.5,0.0,E,,*2E
$HCHDG,288.5,0.0,E,,*2E
$GPRMC,190010.0,A,4743.01379,N,12224.82409,W,002.42,311.3,200413,016.6,E,D*22
$PGRME,2.4,M,2.4,M,3.4,M*29
$HCHDG,288.4,0.0,E,,*2F
$IIRMC,190000,A,4743.013,N,12224.823,W,02.4,311,200413,16,E,A*18
$IIVHW,,,,,02.3,N,,*18
$HCHDG,288.4,0.0,E,,*2F
$IIVLW,06218,N,008.2,N*54
$GPRMC,190010.2,A,4743.01389,N,12224.82419,W,002.41,312.6,200413,016.6,E,D*2B
$GPRMB,A,-32.07,L,,Ttp,4726.8700,N,12137.4300,W,35.8,133,-2.30,V*5B
$PGRME,2.4,M,2.4,M,3.4,M*29
$YXXDR,A,5.4,D,PTCH,A,4.3,D,ROLL*5B
$PTAK,FFD1,4.3*52
$IIGLL,4743.013,N,12224.823,W,190000,A,A*42
$HCHDG,288.5,0.0,E,,*2E
$IIMTW,+09.0,C*31
$HCHDG,288.4,0.0,E,,*2F
$IIRMB,A,,,,Ttp ,,,,,035.8,133,,V,A*6A
$GPRMC,190010.4,A,4743.01402,N,12224.82435,W,002.41,310.7,200413,016.6,E,D*24
$PGRME,2.4,M,2.4,M,3.4,M*29
$HCHDG,288.5,0.0,E,,*2E
$HCHDG,288.5,0.0,E,,*2E
$GPRMC,190010.6,A,4743.01411,N,12224.82449,W,002.38,310.2,200413,016.6,E,D*24
$PGRME,2.4,M,2.4,M,3.4,M*29
$HCHDG,288.5,0.0,E,,*2E
$YXXDR,A,5.4,D,PTCH,A,4.5,D,ROLL*5D
$HCHDG,288.7,0.0,E,,*2C
$GPRMC,190010.8,A,4743.01420,N,12224.82460,W,002.38,308.7,200413,016.6,E,D*2F
$PGRME,2.4,M,2.4,M,3.4,M*29
$HCHDG,288.8,0.0,E,,*23
$HCHDG,288.7,0.0,E,,*2C
$GPRMC,190011.0,A,4743.01427,N,12224.82474,W,002.37,311.4,200413,016.6,E,D*20
$PGRME,2.4,M,2.4,M,3.4,M*29
$HCHDG,288.8,0.0,E,,*23
$IIRMC,190000,A,4743.013,N,12224.824,W,02.4,311,200413,16,E,A*1F
$IIVHW,,,,,02.3,N,,*18
$HCHDG,288.8,0.0,E,,*23
$IIVLW,06218,N,008.2,N*54
$GPRMC,190011.2,A,4743.01434,N,12224.82485,W,002.36,312.3,200413,016.6,E,D*2B
$PGRME,2.4,M,2.4,M,3.4,M*29
$YXXDR,A,5.6,D,PTCH,A,4.3,D,ROLL*59
$IIGLL,4743.013,N,12224.824,W,190000,A,A*45
$HCHDG,288.9,0.0,E,,*22
$IIMTW,+09.0,C*31
$HCHDG,288.9,0.0,E,,*22
$IIRMB,A,,,,Ttp ,,,,,035.8,133,,V,A*6A
$GPRMC,190011.4,A,4743.01444,N,12224.82504,W,002.38,312.1,200413,016.6,E,D*2E
$GPRMB,A,-32.07,L,,Ttp,4726.8700,N,12137.4300,W,35.8,133,-2.27,V*5D
$PGRME,2.4,M,2.4,M,3.4,M*29
$HCHDG,288.9,0.0,E,,*22
$HCHDG,288.9,0.0,E,,*22
$GPRMC,190011.6,A,4743.01456,N,12224.82525,W,002.40,311.2,200413,016.6,E,D*23
$PGRME,2.4,M,2.4,M,3.4,M*29
$HCHDG,289.0,0.0,E,,*2A
$YXXDR,A,5.5,D,PTCH,A,4.2,D,ROLL*5B
$PTAK,FFD1,4.2*53
$HCHDG,288.9,0.0,E,,*22
$GPRMC,190011.8,A,4743.01464,N,12224.82549,W,002.40,311.1,200413,016.6,E,D*25
$PGRME,2.4,M,2.4,M,3.4,M*29
$HCHDG,288.8,0.0,E,,*23
$HCHDG,288.8,0.0,E,,*23
$GPRMC,190012.0,A,4743.01476,N,12224.82577,W,002.40,312.7,200413,016.6,E,D*25
$PGRME,2.4,M,2.4,M,3.4,M*29
$HCHDG,288.8,0.0,E,,*23
$IIRMC,190000,A,4743.014,N,12224.824,W,02.3,311,200413,16,E,A*1F
$IIVHW,,,,,02.3,N,,*18
$HCHDG,288.8,0.0,E,,*23
$IIVLW,06218,N,008.2,N*54
$GPRMC,190012.2,A,4743.01490,N,12224.82591,W,002.39,308.0,200413,016.6,E,D*25
$PGRME,2.4,M,2.4,M,3.4,M*29
$YXXDR,A,5.4,D,PTCH,A,4.2,D,ROLL*5A
$IIGLL,4743.014,N,12224.824,W,190000,A,A*42
$HCHDG,288.8,0.0,E,,*23
$IIMTW,+09.0,C*31
$HCHDG,288.8,0.0,E,,*23
$IIRMB,A,,,,Ttp ,,,,,035.8,133,,V,A*6A
$GPRMC,190012.4,A,4743.01506,N,12224.82592,W,002.37,309.8,200413,016.6,E,D*29
$PGRME,2.4,M,2.4,M,3.4,M*29
$HCHDG,288.8,0.0,E,,*23
$HCHDG,288.8,0.0,E,,*23
$GPRMC,190012.6,A,4743.01519,N,12224.82604,W,002.37,309.1,200413,016.6,E,D*20
$GPRMB,A,-32.07,L,,Ttp,4726.8700,N,12137.4300,W,35.8,133,-2.22,V*58
$PGRME,2.4,M,2.4,M,3.4,M*29
$HCHDG,288.9,0.0,E,,*22
$YXXDR,A,5.4,D,PTCH,A,4.6,D,ROLL*5E
$PTAK,FFD1,4.6*57
$HCHDG,288.9,0.0,E,,*22
$GPRMC,190012.8,A,4743.01524,N,12224.82604,W,002.35,308.3,200413,016.6,E,D*21
$PGRME,2.4,M,2.4,M,3.4,M*29
$HCHDG,289.0,0.0,E,,*2A
$HCHDG,289.0,0.0,E,,*2A
$GPRMC,190013.0,A,4743.01526,N,12224.82604,W,002.36,311.5,200413,016.6,E,D*27
$PGRME,2.4,M,2.4,M,3.4,M*29
$HCHDG,289.0,0.0,E,,*2A
$IIRMC,190000,A,4743.014,N,12224.825,W,02.4,312,200413,16,E,A*1A
$IIVHW,,,,,02.3,N,,*18
$HCHDG,288.9,0.0,E,,*22
$IIVLW,06218,N,008.2,N*54
$GPRMC,190013.2,A,4743.01524,N,12224.82608,W,002.36,312.7,200413,016.6,E,D*2A
$PGRME,2.4,M,2.4,M,3.4,M*29
$YXXDR,A,5.4,D,PTCH,A,4.2,D,ROLL*5A
$IIGLL,4743.014,N,12224.825,W,190000,A,A*43
$HCHDG,289.0,0.0,E,,*2A
$IIMTW,+09.0,C*31
$HCHDG,289.0,0.0,E,,*2A
$IIRMB,A,,,,Ttp ,,,,,035.8,133,,V,A*6A
$GPRMC,190013.4,A,4743.01522,N,12224.82627,W,002.38,314.1,200413,016.6,E,D*29
$PGRME,2.4,M,2.4,M,3.4,M*29
$HCHDG,288.9,0.0,E,,*22
$PTAK,FFP1,HEEL,@*07
$HCHDG,288.9,0.0,E,,*22
$GPRMC,190013.6,A,4743.01528,N,12224.82635,W,002.38,313.2,200413,016.6,E,D*26
$PGRME,2.4,M,2.4,M,3.4,M*29
$HCHDG,288.9,0.0,E,,*22
$YXXDR,A,5.4,D,PTCH,A,3.9,D,ROLL*56
$HCHDG,288.9,0.0,E,,*22
$GPRMC,190013.8,A,4743.01531,N,12224.82634,W,002.38,312.8,200413,016.6,E,D*2A
$GPRMB,A,-32.07,L,,Ttp,4726.8700,N,12137.4300,W,35.8,133,-2.28,V*52
$PGRME,2.4,M,2.4,M,3.4,M*29
$HCHDG,288.9,0.0,E,,*22
$HCHDG,289.0,0.0,E,,*2A
$GPRMC,190014.0,A,4743.01531,N,12224.82627,W,002.39,314.8,200413,016.6,E,D*20
$PGRME,2.4,M,2.4,M,3.4,M*29
$HCHDG,289.0,0.0,E,,*2A
$IIRMC,190000,A,4743.014,N,12224.825,W,02.4,312,200413,16,E,A*1A
$IIVHW,,,,,02.3,N,,*18
$HCHDG,288.9,0.0,E,,*22
$IIVLW,06218,N,008.2,N*54
$GPRMC,190014.2,A,4743.01533,N,12224.82635,W,002.39,312.9,200413,016.6,E,D*24
$PGRME,2.4,M,2.4,M,3.4,M*29
$YXXDR,A,5.4,D,PTCH,A,4.6,D,ROLL*5E
$PTAK,FFD1,4.6*57
$IIGLL,4743.014,N,12224.825,W,190000,A,A*43
$HCHDG,288.9,0.0,E,,*22
$IIMTW,+09.0,C*31
$HCHDG,289.0,0.0,E,,*2A
$IIRMB,A,,,,Ttp ,,,,,035.8,133,,V,A*6A
$GPRMC,190014.4,A,4743.01545,N,12224.82646,W,002.39,311.8,200413,016.6,E,D*25
$PGRME,2.4,M,2.4,M,3.4,M*29
$HCHDG,288.9,0.0,E,,*22
$HCHDG,289.0,0.0,E,,*2A
$GPRMC,190014.6,A,4743.01551,N,12224.82662,W,002.40,312.0,200413,016.6,E,D*21
$PGRME,2.4,M,2.4,M,3.4,M*29
$HCHDG,288.9,0.0,E,,*22
$YXXDR,A,5.7,D,PTCH,A,5.0,D,ROLL*5A
$HCHDG,288.9,0.0,E,,*22
$GPRMC,190014.8,A,4743.01556,N,12224.82668,W,002.38,309.5,200413,016.6,E,D*22
$PGRME,2.4,M,2.4,M,3.4,M*29
$HCHDG,289.0,0.0,E,,*2A
$HCHDG,289.3,0.0,E,,*29
$GPRMC,190015.0,A,4743.01562,N,12224.82677,W,002.37,309.9,200413,016.6,E,D*21
$GPRMB,A,-32.07,L,,Ttp,4726.8700,N,12137.4300,W,35.8,133,-2.23,V*59
$PGRME,2.4,M,2.4,M,3.4,M*29
$HCHDG,289.2,0.0,E,,*28
$IIRMC,190000,A,4743.015,N,12224.826,W,02.3,314,200413,16,E,A*19
$IIVHW,,,,,02.3,N,,*18
$HCHDG,289.2,0.0,E,,*28
$IIVLW,06218,N,008.2,N*54
$GPRMC,190015.2,A,4743.01572,N,12224.82689,W,002.36,312.7,200413,016.6,E,D*26
$PGRME,2.4,M,2.4,M,3.4,M*29
$YXXDR,A,5.6,D,PTCH,A,5.0,D,ROLL*5B
$PTAK,FFD1,5.0*50
$IIGLL,4743.015,N,12224.826,W,190000,A,A*41
$HCHDG,289.1,0.0,E,,*2B
$IIMTW,+09.0,C*31
$HCHDG,289.1,0.0,E,,*2B
$IIRMB,A,,,,Ttp ,,,,,035.8,133,,V,A*6A
$GPRMC,190015.4,A,4743.01582,N,12224.82698,W,002.35,310.3,200413,016.6,E,D*2A
$PGRME,2.4,M,2.4,M,3.4,M*29
$HCHDG,289.1,0.0,E,,*2B
$HCHDG,289.1,0.0,E,,*2B
$GPRMC,190015.6,A,4743.01593,N,12224.82719,W,002.34,312.3,200413,016.6,E,D*23
$PGRME,2.4,M,2.4,M,3.4,M*29
$HCHDG,289.2,0.0,E,,*28
$YXXDR,A,5.4,D,PTCH,A,4.5,D,ROLL*5D
$HCHDG,289.1,0.0,E,,*2B
$GPRMC,190015.8,A,4743.01604,N,12224.82729,W,002.35,312.7,200413,016.6,E,D*26
$PGRME,2.4,M,2.4,M,3.4,M*29
$HCHDG,289.1,0.0,E,,*2B
$HCHDG,289.2,0.0,E,,*28
$GPRMC,190016.0,A,4743.01619,N,12224.82742,W,002.35,313.1,200413,016.6,E,D*2B
$PGRME,2.4,M,2.4,M,3.4,M*29
$HCHDG,289.2,0.0,E,,*28
$IIRMC,190000,A,4743.015,N,12224.826,W,02.3,314,200413,16,E,A*19
$IIVHW,,,,,02.3,N,,*18
$HCHDG,288.9,0.0,E,,*22
$IIVLW,06218,N,008.2,N*54
$GPRMC,190016.2,A,4743.01627,N,12224.82757,W,002.36,312.9,200413,016.6,E,D*2A
$GPRMB,A,-32.07,L,,Ttp,4726.8700,N,12137.4300,W,35.8,133,-2.26,V*5C
$PGRME,2.4,M,2.4,M,3.4,M*29
$YXXDR,A,5.4,D,PTCH,A,4.1,D,ROLL*59
$PTAK,FFD1,4.1*50
$IIGLL,4743.015,N,12224.826,W,190000,A,A*41
$HCHDG,288.9,0.0,E,,*22
$IIMTW,+09.0,C*31
$HCHDG,288.8,0.0,E,,*23
$IIRMB,A,,,,Ttp ,,,,,035.8,133,,V,A*6A
$GPRMC,190016.4,A,4743.01638,N,12224.82770,W,002.36,311.3,200413,016.6,E,D*2E
$PGRME,2.4,M,2.4,M,3.4,M*29
$HCHDG,288.8,0.0,E,,*23
$HCHDG,288.9,0.0,E,,*22
$GPRMC,190016.6,A,4743.01645,N,12224.82786,W,002.39,312.3,200413,016.6,E,D*23
$PGRME,2.4,M,2.4,M,3.4,M*29
$HCHDG,289.0,0.0,E,,*2A
$YXXDR,A,5.4,D,PTCH,A,4.6,D,ROLL*5E
$HCHDG,289.0,0.0,E,,*2A
$GPRMC,190016.8,A,4743.01644,N,12224.82803,W,002.40,309.7,200413,016.6,E,D*2E
$PGRME,2.4,M,2.4,M,3.4,M*29
$HCHDG,289.0,0.0,E,,*2A
$HCHDG,289.1,0.0,E,,*2B
$GPRMC,190017.0,A,4743.01646,N,12224.82814,W,002.40,310.4,200413,016.6,E,D*28
$PGRME,2.4,M,2.4,M,3.4,M*29
$HCHDG,289.2,0.0,E,,*28
$IIRMC,190000,A,4743.016,N,12224.827,W,02.3,313,200413,16,E,A*1C
$IIVHW,,,,,02.3,N,,*18
$HCHDG,289.1,0.0,E,,*2B
$IIVLW,06218,N,008.2,N*54
$GPRMC,190017.2,A,4743.01657,N,12224.82823,W,002.37,310.4,200413,016.6,E,D*2E
$GPRMB,A,-32.07,L,,Ttp,4726.8700,N,12137.4300,W,35.8,133,-2.24,V*5E
$PGRME,2.4,M,2.4,M,3.4,M*29
$YXXDR,A,5.5,D,PTCH,A,5.0,D,ROLL*58
$IIGLL,4743.016,N,12224.827,W,190000,A,A*43
$HCHDG,289.1,0.0,E,,*2B
$IIMTW,+09.0,C*31
$HCHDG,289.0,0.0,E,,*2A
$IIRMB,A,,,,Ttp ,,,,,035.8,133,,V,A*6A
$GPRMC,190017.4,A,4743.01667,N,12224.82840,W,002.36,310.7,200413,016.6,E,D*2C
$PTAK,FFP1,HEEL,@*07
$PGRME,2.4,M,2.4,M,3.4,M*29
$HCHDG,289.0,0.0,E,,*2A
$HCHDG,289.2,0.0,E,,*28
$GPRMC,190017.6,A,4743.01674,N,12224.82872,W,002.35,312.5,200413,016.6,E,D*2E
$PGRME,2.4,M,2.4,M,3.4,M*29
$HCHDG,289.1,0.0,E,,*2B
$YXXDR,A,5.3,D,PTCH,A,4.5,D,ROLL*5A
$PTAK,FFD1,4.5*54
$HCHDG,289.0,0.0,E,,*2A
$GPRMC,190017.8,A,4743.01679,N,12224.82904,W,002.33,313.0,200413,016.6,E,D*2F
$PGRME,2.4,M,2.4,M,3.4,M*29
$HCHDG,288.9,0.0,E,,*22
$HCHDG,288.8,0.0,E,,*23
$GPRMC,190018.0,A,4743.01685,N,12224.82916,W,002.31,309.7,200413,016.6,E,D*26
$PGRME,2.4,M,2.4,M,3.4,M*29
$HCHDG,288.8,0.0,E,,*23
$IIRMC,190000,A,4743.016,N,12224.828,W,02.4,310,200413,16,E,A*17
$IIVHW,,,,,02.3,N,,*18
$HCHDG,288.8,0.0,E,,*23
$IIVLW,06218,N,008.2,N*54
$GPRMC,190018.2,A,4743.01698,N,12224.82925,W,002.31,311.5,200413,016.6,E,D*23
$GPRMB,A,-32.08,L,,Ttp,4726.8700,N,12137.4300,W,35.8,133,-2.19,V*5F
$PGRME,2.4,M,2.4,M,3.4,M*29
$YXXDR,A,5.4,D,PTCH,A,4.5,D,ROLL*5D
$IIGLL,4743.016,N,12224.828,W,190000,A,A*4C
$HCHDG,288.9,0.0,E,,*22
$IIMTW,+09.0,C*31
$HCHDG,288.6,0.0,E,,*2D
$IIRMB,A,,,,Ttp ,,,,,035.8,133,,V,A*6A
$GPRMC,190018.4,A,4743.01701,N,12224.82936,W,002.31,312.2,200413,016.6,E,D*22
$PGRME,2.4,M,2.4,M,3.4,M*29
$HCHDG,288.6,0.0,E,,*2D
$HCHDG,288.7,0.0,E,,*2C
$GPRMC,190018.6,A,4743.01711,N,12224.82950,W,002.32,312.3,200413,016.6,E,D*23
$PGRME,2.4,M,2.4,M,3.4,M*29
$HCHDG,288.7,0.0,E,,*2C
$YXXDR,A,5.4,D,PTCH,A,4.6,D,ROLL*5E
$PTAK,FFD1,4.6*57
$HCHDG,288.8,0.0,E,,*23
$GPRMC,190018.8,A,4743.01728,N,12224.82965,W,002.36,314.0,200413,016.6,E,D*20
$PGRME,2.4,M,2.4,M,3.4,M*29
$HCHDG,288.8,0.0,E,,*23
$HCHDG,288.8,0.0,E,,*23
$GPRMC,190019.0,A,4743.01745,N,12224.82980,W,002.39,313.8,200413,016.6,E,D*29
$PGRME,2.4,M,2.4,M,3.4,M*29
$HCHDG,288.7,0.0,E,,*2C
$IIRMC,190000,A,4743.016,N,12224.829,W,02.3,309,200413,16,E,A*19
$IIVHW,,,,,02.3,N,,*18
$HCHDG,288.7,0.0,E,,*2C
$IIVLW,06218,N,008.2,N*54
$GPRMC,190019.2,A,4743.01762,N,12224.82991,W,002.40,312.1,200413,016.6,E,D*28
$PGRME,2.4,M,2.4,M,3.4,M*29
$YXXDR,A,5.5,D,PTCH,A,4.7,D,ROLL*5E
$IIGLL,4743.016,N,12224.829,W,190000,A,A*4D
$HCHDG,288.6,0.0,E,,*2D
$IIMTW,+09.0,C*31
$HCHDG,288.7,0.0,E,,*2C
$IIRMB,A,,,,Ttp ,,,,,035.8,133,,V,A*6A
$GPRMC,190019.4,A,4743.01775,N,12224.83002,W,002.39,312.5,200413,016.6,E,D*20
$GPRMB,A,-32.08,L,,Ttp,4726.8700,N,12137.4300,W,35.8,133,-2.28,V*5D
$PGRME,2.4,M,2.4,M,3.4,M*29
$HCHDG,288.7,0.0,E,,*2C
$HCHDG,288.7,0.0,E,,*2C
$GPRMC,190019.6,A,4743.01785,N,12224.83018,W,002.40,312.5,200413,016.6,E,D*28
$PGRME,2.4,M,2.4,M,3.4,M*29
$HCHDG,288.6,0.0,E,,*2D
$YXXDR,A,5.6,D,PTCH,A,5.0,D,ROLL*5B
$PTAK,FFD1,5.0*50
$HCHDG,288.7,0.0,E,,*2C
$GPRMC,190019.8,A,4743.01794,N,12224.83033,W,002.39,312.7,200413,016.6,E,D*23
$PGRME,2.4,M,2.4,M,3.4,M*29
$HCHDG,288.6,0.0,E,,*2D
$HCHDG,288.6,0.0,E,,*2D
$GPRMC,190020.0,A,4743.01805,N,12224.83048,W,002.37,312.4,200413,016.6,E,D*27
$PGRME,2.4,M,2.4,M,3.4,M*29
$HCHDG,288.5,0.0,E,,*2E
$IIRMC,190000,A,4743.017,N,12224.829,W,02.3,313,200413,16,E,A*13
$IIVHW,,,,,02.3,N,,*18
$HCHDG,288.7,0.0,E,,*2C
$IIVLW,06218,N,008.2,N*54
$GPRMC,190020.2,A,4743.01818,N,12224.83059,W,002.37,308.1,200413,016.6,E,D*27
$PGRME,2.4,M,2.4,M,3.4,M*29
$YXXDR,A,5.6,D,PTCH,A,5.0,D,ROLL*5B
$IIGLL,4743.017,N,12224.829,W,190000,A,A*4C
$HCHDG,288.7,0.0,E,,*2C
$IIMTW,+09.0,C*31
$HCHDG,288.6,0.0,E,,*2D
$IIRMB,A,,,,Ttp ,,,,,035.8,133,,V,A*6A
$GPRMC,190020.4,A,4743.01830,N,12224.83073,W,002.34,309.7,200413,016.6,E,D*27
$GPRMB,A,-32.08,L,,Ttp,4726.8700,N,12137.4300,W,35.8,133,-2.20,V*55
$PGRME,2.4,M,2.4,M,3.4,M*29
$HCHDG,288.6,0.0,E,,*2D
$HCHDG,288.6,0.0,E,,*2D
$GPRMC,190020.6,A,4743.01835,N,12224.83075,W,002.34,311.2,200413,016.6,E,D*2A
$PGRME,2.4,M,2.4,M,3.4,M*29
$HCHDG,288.5,0.0,E,,*2E
$YXXDR,A,5.4,D,PTCH,A,4.7,D,ROLL*5F
$HCHDG,288.6,0.0,E,,*2D
$GPRMC,190020.8,A,4743.01844,N,12224.83088,W,002.35,311.1,200413,016.6,E,D*22
$PGRME,2.4,M,2.4,M,3.4,M*29
$HCHDG,288.6,0.0,E,,*2D
$HCHDG,288.6,0.0,E,,*2D
$GPRMC,190021.0,A,4743.01850,N,12224.83105,W,002.36,311.5,200413,016.6,E,D*2D
$PGRME,2.4,M,2.4,M,3.4,M*29
$HCHDG,288.6,0.0,E,,*2D
$IIRMC,190000,A,4743.018,N,12224.830,W,02.3,312,200413,16,E,A*15
$IIVHW,,,,,02.2,N,,*19
$HCHDG,288.6,0.0,E,,*2D
$IIVLW,06218,N,008.2,N*54
$GPRMC,190021.2,A,4743.01858,N,12224.83124,W,002.37,310.5,200413,016.6,E,D*24
$PGRME,2.4,M,2.4,M,3.4,M*29
$YXXDR,A,5.4,D,PTCH,A,4.2,D,ROLL*5A
$PTAK,FFD1,4.2*53
$IIGLL,4743.018,N,12224.830,W,190000,A,A*4B
$HCHDG,288.3,0.0,E,,*28
$IIMTW,+09.0,C*31
$HCHDG,288.3,0.0,E,,*28
$IIRMB,A,,,,Ttp ,,,,,035.8,133,,V,A*6A
$GPRMC,190021.4,A,4743.01868,N,12224.83143,W,002.38,312.4,200413,016.6,E,D*2C
$PGRME,2.4,M,2.4,M,3.4,M*29
$HCHDG,288.3,0.0,E,,*28
$HCHDG,288.4,0.0,E,,*2F
$PTAK,FFP1,HEEL,@*07
$GPRMC,190021.6,A,4743.01872,N,12224.83156,W,002.39,313.0,200413,016.6,E,D*25
$GPRMB,A,-32.08,L,,Ttp,4726.8700,N,12137.4300,W,35.8,133,-2.29,V*5C
$PGRME,2.4,M,2.4,M,3.4,M*29
$HCHDG,288.4,0.0,E,,*2F
$YXXDR,A,5.4,D,PTCH,A,4.3,D,ROLL*5B
$HCHDG,288.3,0.0,E,,*28
$GPRMC,190021.8,A,4743.01877,N,12224.83171,W,002.39,312.4,200413,016.6,E,D*2E
$PGRME,2.4,M,2.4,M,3.4,M*29
$HCHDG,288.3,0.0,E,,*28
$HCHDG,288.2,0.0,E,,*29
$GPRMC,190022.0,A,4743.01886,N,12224.83187,W,002.40,312.5,200413,016.6,E,D*2D
$PGRME,2.4,M,2.4,M,3.4,M*29
$HCHDG,288.2,0.0,E,,*29
$IIRMC,190000,A,4743.018,N,12224.831,W,02.3,311,200413,16,E,A*17
$IIVHW,,,,,02.2,N,,*19
$HCHDG,288.1,0.0,E,,*2A
$IIVLW,06218,N,008.2,N*54
$GPRMC,190022.2,A,4743.01894,N,12224.83202,W,002.41,310.4,200413,016.6,E,D*20
$PGRME,2.4,M,2.4,M,3.4,M*29
$YXXDR,A,5.6,D,PTCH,A,5.0,D,ROLL*5B
$PTAK,FFD1,5.0*50
$IIGLL,4743.018,N,12224.831,W,190000,A,A*4A
$HCHDG,288.0,0.0,E,,*2B
$IIMTW,+09.0,C*31
$HCHDG,288.3,0.0,E,,*28
$IIRMB,A,,,,Ttp ,,,,,035.8,133,,V,A*6A
$GPRMC,190022.4,A,4743.01904,N,12224.83215,W,002.37,309.3,200413,016.6,E,D*26
$PGRME,2.4,M,2.4,M,3.4,M*29
$HCHDG,288.2,0.0,E,,*29
$HCHDG,288.2,0.0,E,,*29
$GPRMC,190022.6,A,4743.01910,N,12224.83235,W,002.34,310.4,200413,016.6,E,D*2F
$PGRME,2.4,M,2.4,M,3.4,M*29
$HCHDG,288.1,0.0,E,,*2A
$YXXDR,A,5.4,D,PTCH,A,5.1,D,ROLL*58
$HCHDG,288.2,0.0,E,,*29
$GPRMC,190022.8,A,4743.01920,N,12224.83250,W,002.36,309.8,200413,016.6,E,D*27
$GPRMB,A,-32.08,L,,Ttp,4726.8700,N,12137.4300,W,35.8,133,-2.22,V*57
$PGRME,2.4,M,2.4,M,3.4,M*29
$HCHDG,288.2,0.0,E,,*29
$HCHDG,288.1,0.0,E,,*2A
$GPRMC,190023.0,A,4743.01925,N,12224.83266,W,002.33,310.3,200413,016.6,E,D*28
$PGRME,2.4,M,2.4,M,3.4,M*29
$HCHDG,288.1,0.0,E,,*2A
$IIRMC,190000,A,4743.018,N,12224.831,W,02.4,312,200413,16,E,A*13
$IIVHW,,,,,02.2,N,,*19
$HCHDG,288.1,0.0,E,,*2A
$IIVLW,06218,N,008.2,N*54
$GPRMC,190023.2,A,4743.01936,N,12224.83279,W,002.34,311.8,200413,016.6,E,D*2B
$PGRME,2.4,M,2.4,M,3.4,M*29
$YXXDR,A,5.6,D,PTCH,A,4.4,D,ROLL*5E
$IIGLL,4743.018,N,12224.831,W,190000,A,A*4A
$HCHDG,288.2,0.0,E,,*29
$IIMTW,+09.0,C*31
$HCHDG,288.3,0.0,E,,*28
$GPRMC,190023.4,A,4743.01943,N,12224.83291,W,002.36,309.9,200413,016.6,E,D*23
$IIRMB,A,,,,Ttp ,,,,,035.8,133,,V,A*6A
$PGRME,2.4,M,2.4,M,3.4,M*29
$HCHDG,287.9,0.0,E,,*2D
$HCHDG,288.0,0.0,E,,*2B
$GPRMC,190023.6,A,4743.01946,N,12224.83305,W,002.37,312.5,200413,016.6,E,D*2F
$PGRME,2.4,M,2.4,M,3.4,M*29
$HCHDG,288.0,0.0,E,,*2B
$YXXDR,A,5.4,D,PTCH,A,4.4,D,ROLL*5C
$PTAK,FFD1,4.4*55
$HCHDG,288.1,0.0,E,,*2A
$GPRMC,190023.8,A,4743.01955,N,12224.83317,W,002.37,310.9,200413,016.6,E,D*2E
$PGRME,2.4,M,2.4,M,3.4,M*29
$HCHDG,288.1,0.0,E,,*2A
$HCHDG,288.0,0.0,E,,*2B
$GPRMC,190024.0,A,4743.01964,N,12224.83332,W,002.41,313.1,200413,016.6,E,D*2E
$GPRMB,A,-32.08,L,,Ttp,4726.8700,N,12137.4300,W,35.8,133,-2.31,V*55
$PGRME,2.4,M,2.4,M,3.4,M*29
$HCHDG,288.0,0.0,E,,*2B
$IIRMC,190000,A,4743.019,N,12224.832,W,02.3,310,200413,16,E,A*14
$IIVHW,,,,,02.2,N,,*19
$HCHDG,287.9,0.0,E,,*2D
$IIVLW,06218,N,008.2,N*54
$GPRMC,190024.2,A,4743.01972,N,12224.83347,W,002.38,311.9,200413,016.6,E,D*2D
$PGRME,2.4,M,2.4,M,3.4,M*29
$YXXDR,A,5.5,D,PTCH,A,4.3,D,ROLL*5A
$IIGLL,4743.019,N,12224.832,W,190000,A,A*48
$HCHDG,288.0,0.0,E,,*2B
$IIMTW,+09.0,C*31
$HCHDG,288.0,0.0,E,,*2B
$IIRMB,A,,,,Ttp ,,,,,035.8,133,,V,A*6A
$GPRMC,190024.4,A,4743.01978,N,12224.83359,W,002.39,311.8,200413,016.6,E,D*2E
$PGRME,2.4,M,2.4,M,3.4,M*29
$HCHDG,287.9,0.0,E,,*2D
$HCHDG,287.8,0.0,E,,*2C
$GPRMC,190024.6,A,4743.01989,N,12224.83358,W,002.39,311.4,200413,016.6,E,D*2F
$PGRME,2.4,M,2.4,M,3.4,M*29
$HCHDG,287.7,0.0,E,,*23
$YXXDR,A,5.6,D,PTCH,A,4.5,D,ROLL*5F
$PTAK,FFD1,4.5*54
$HCHDG,287.7,0.0,E,,*23
$GPRMC,190024.8,A,4743.01995,N,12224.83373,W,002.40,311.3,200413,016.6,E,D*2C
$PGRME,2.4,M,2.4,M,3.4,M*29
$HCHDG,287.7,0.0,E,,*23
$HCHDG,287.7,0.0,E,,*23
$GPRMC,190025.0,A,4743.02003,N,12224.83387,W,002.36,306.9,200413,016.6,E,D*26
$PGRME,2.4,M,2.4,M,3.4,M*29
$HCHDG,287.6,0.0,E,,*22
$IIRMC,190000,A,4743.019,N,12224.833,W,02.3,311,200413,16,E,A*14
$IIVHW,,,,,02.2,N,,*19
$HCHDG,287.7,0.0,E,,*23
$IIVLW,06218,N,008.2,N*54
$GPRMC,190025.2,A,4743.02010,N,12224.83402,W,002.37,310.5,200413,016.6,E,D*26
$GPRMB,A,-32.08,L,,Ttp,4726.8700,N,12137.4300,W,35.8,133,-2.24,V*51
$PGRME,2.4,M,2.4,M,3.4,M*29
$YXXDR,A,5.6,D,PTCH,A,5.0,D,ROLL*5B
$IIGLL,4743.019,N,12224.833,W,190000,A,A*49
$HCHDG,287.7,0.0,E,,*23
$IIMTW,+09.0,C*31
$HCHDG,287.7,0.0,E,,*23
$IIRMB,A,,,,Ttp ,,,,,035.8,133,,V,A*6A
$GPRMC,190025.4,A,4743.02018,N,12224.83398,W,002.36,310.2,200413,016.6,E,D*2A
$PGRME,2.4,M,2.4,M,3.4,M*29
$HCHDG,287.7,0.0,E,,*23
$PTAK,FFP1,HEEL,@*07
$HCHDG,287.7,0.0,E,,*23
$GPRMC,190025.6,A,4743.02028,N,12224.83404,W,002.36,311.1,200413,016.6,E,D*2B
$PGRME,2.4,M,2.4,M,3.4,M*29
$HCHDG,287.7,0.0,E,,*23
$YXXDR,A,5.6,D,PTCH,A,4.5,D,ROLL*5F
$HCHDG,287.6,0.0,E,,*22
$GPRMC,190025.8,A,4743.02029,N,12224.83414,W,002.35,310.3,200413,016.6,E,D*25
$PGRME,2.4,M,2.4,M,3.4,M*29
$HCHDG,287.6,0.0,E,,*22
$HCHDG,287.5,0.0,E,,*21
$GPRMC,190026.0,A,4743.02034,N,12224.83426,W,002.37,310.5,200413,016.6,E,D*27
$PGRME,2.4,M,2.4,M,3.4,M*29
$HCHDG,287.5,0.0,E,,*21
$IIRMC,190000,A,4743.020,N,12224.834,W,02.3,310,200413,16,E,A*18
$IIVHW,,,,,02.2,N,,*19
$HCHDG,287.5,0.0,E,,*21
$IIVLW,06218,N,008.2,N*54
$GPRMC,190026.2,A,4743.02045,N,12224.83438,W,002.36,312.7,200413,016.6,E,D*2D
$PGRME,2.4,M,2.4,M,3.4,M*29
$YXXDR,A,5.6,D,PTCH,A,4.3,D,ROLL*59
$PTAK,FFD1,4.3*52
$IIGLL,4743.020,N,12224.834,W,190000,A,A*44
$HCHDG,287.5,0.0,E,,*21
$IIMTW,+09.0,C*31
$HCHDG,287.5,0.0,E,,*21
$IIRMB,A,,,,Ttp ,,,,,035.8,133,,V,A*6A
$GPRMC,190026.4,A,4743.02058,N,12224.83467,W,002.38,312.2,200413,016.6,E,D*26
$GPRMB,A,-32.08,L,,Ttp,4726.8700,N,12137.4300,W,35.8,133,-2.27,V*52
$PGRME,2.4,M,2.4,M,3.4,M*29
$HCHDG,287.5,0.0,E,,*21
$HCHDG,287.4,0.0,E,,*20
$GPRMC,190026.6,A,4743.02062,N,12224.83483,W,002.38,311.8,200413,016.6,E,D*2E
$PGRME,2.4,M,2.4,M,3.4,M*29
$HCHDG,287.4,0.0,E,,*20
$YXXDR,A,5.6,D,PTCH,A,4.5,D,ROLL*5F
$HCHDG,287.3,0.0,E,,*27
$GPRMC,190026.8,A,4743.02070,N,12224.83502,W,002.41,310.7,200413,016.6,E,D*2B
$PGRME,2.4,M,2.4,M,3.4,M*29
$HCHDG,287.4,0.0,E,,*20
$HCHDG,287.2,0.0,E,,*26
$GPRMC,190027.0,A,4743.02090,N,12224.83525,W,002.42,309.5,200413,016.6,E,D*20
$PGRME,2.4,M,2.4,M,3.4,M*29
$HCHDG,287.4,0.0,E,,*20
$IIRMC,190000,A,4743.020,N,12224.834,W,02.3,312,200413,16,E,A*1A
$IIVHW,,,,,02.3,N,,*18
$HCHDG,287.3,0.0,E,,*27
$IIVLW,06218,N,008.2,N*54
$GPRMC,190027.2,A,4743.02106,N,12224.83544,W,002.41,311.4,200413,016.6,E,D*20
$PGRME,2.4,M,2.4,M,3.4,M*29
$YXXDR,A,5.6,D,PTCH,A,5.1,D,ROLL*5A
$IIGLL,4743.020,N,12224.834,W,190000,A,A*44
$HCHDG,287.4,0.0,E,,*20
$IIMTW,+09.0,C*31
$HCHDG,287.3,0.0,E,,*27
$IIRMB,A,,,,Ttp ,,,,,035.8,133,,V,A*6A
$GPRMC,190027.4,A,4743.02122,N,12224.83557,W,002.38,309.9,200413,016.6,E,D*28
$PGRME,2.4,M,2.4,M,3.4,M*29
$HCHDG,287.3,0.0,E,,*27
$HCHDG,287.2,0.0,E,,*26
$GPRMC,190027.6,A,4743.02138,N,12224.83576,W,002.38,310.1,200413,016.6,E,D*22
$GPRMB,A,-32.08,L,,Ttp,4726.8700,N,12137.4300,W,35.8,133,-2.24,V*51
$PGRME,2.4,M,2.4,M,3.4,M*29
$HCHDG,287.2,0.0,E,,*26
$YXXDR,A,5.6,D,PTCH,A,5.3,D,ROLL*58
$PTAK,FFD1,5.3*53
$HCHDG,287.4,0.0,E,,*20
$GPRMC,190027.8,A,4743.02149,N,12224.83589,W,002.40,310.0,200413,016.6,E,D*24
$PGRME,2.4,M,2.4,M,3.4,M*29
$HCHDG,287.3,0.0,E,,*27
$HCHDG,287.3,0.0,E,,*27
$GPRMC,190028.0,A,4743.02151,N,12224.83611,W,002.39,311.0,200413,016.6,E,D*27
$PGRME,2.4,M,2.4,M,3.4,M*29
$HCHDG,287.2,0.0,E,,*26
$IIRMC,190000,A,4743.021,N,12224.835,W,02.3,309,200413,16,E,A*10
$IIVHW,,,,,02.3,N,,*18
$HCHDG,287.1,0.0,E,,*25
$IIVLW,06218,N,008.2,N*54
$GPRMC,190028.2,A,4743.02163,N,12224.83630,W,002.37,308.3,200413,016.6,E,D*22
$PGRME,2.4,M,2.4,M,3.4,M*29
$YXXDR,A,5.3,D,PTCH,A,5.0,D,ROLL*5E
$IIGLL,4743.021,N,12224.835,W,190000,A,A*44
$HCHDG,287.1,0.0,E,,*25
$IIMTW,+09.0,C*31
$HCHDG,287.1,0.0,E,,*25
$IIRMB,A,,,,Ttp ,,,,,035.8,133,,V,A*6A
$GPRMC,190028.4,A,4743.02174,N,12224.83642,W,002.36,309.0,200413,016.6,E,D*24
$PGRME,2.4,M,2.4,M,3.4,M*29
$HCHDG,287.1,0.0,E,,*25
$HCHDG,287.0,0.0,E,,*24
$GPRMC,190028.6,A,4743.02183,N,12224.83644,W,002.34,308.2,200413,016.6,E,D*29
$PGRME,2.4,M,2.4,M,3.4,M*29
$HCHDG,287.0,0.0,E,,*24
$YXXDR,A,5.4,D,PTCH,A,4.7,D,ROLL*5F
$HCHDG,287.1,0.0,E,,*25
$GPRMC,190028.8,A,4743.02189,N,12224.83667,W,002.32,309.1,200413,016.6,E,D*28
$GPRMB,A,-32.08,L,,Ttp,4726.8700,N,12137.4300,W,35.8,133,-2.17,V*51
$PGRME,2.4,M,2.4,M,3.4,M*29
$HCHDG,287.1,0.0,E,,*25
$HCHDG,286.9,0.0,E,,*2C
$GPRMC,190029.0,A,4743.02200,N,12224.83680,W,002.33,310.5,200413,016.6,E,D*27
$PGRME,2.4,M,2.4,M,3.4,M*29
$HCHDG,286.9,0.0,E,,*2C
$IIRMC,190000,A,4743.021,N,12224.836,W,02.3,309,200413,16,E,A*13
$IIVHW,,,,,02.2,N,,*19
$HCHDG,287.0,0.0,E,,*24
$IIVLW,06218,N,008.2,N*54
$GPRMC,190029.2,A,4743.02213,N,12224.83690,W,002.34,310.1,200413,016.6,E,D*25
$PGRME,2.4,M,2.4,M,3.4,M*29
$YXXDR,A,5.5,D,PTCH,A,4.7,D,ROLL*5E
$PTAK,FFD1,4.7*56
$IIGLL,4743.021,N,12224.836,W,190000,A,A*47
$HCHDG,287.0,0.0,E,,*24
$IIMTW,+09.0,C*31
$HCHDG,286.9,0.0,E,,*2C
$IIRMB,A,,,,Ttp ,,,,,035.8,133,,V,A*6A
$GPRMC,190029.4,A,4743.02224,N,12224.83705,W,002.34,312.3,200413,016.6,E,D*2A
$PGRME,2.4,M,2.4,M,3.4,M*29
$HCHDG,287.0,0.0,E,,*24
$HCHDG,286.9,0.0,E,,*2C
$GPRMC,190029.6,A,4743.02233,N,12224.83719,W,002.36,312.1,200413,016.6,E,D*23
$PTAK,FFP1,HEEL,@*07
$PGRME,2.4,M,2.4,M,3.4,M*29
$HCHDG,287.1,0.0,E,,*25
$YXXDR,A,5.5,D,PTCH,A,4.9,D,ROLL*50
$HCHDG,287.0,0.0,E,,*24
$GPRMC,190029.8,A,4743.02247,N,12224.83723,W,002.39,309.5,200413,016.6,E,D*26
$PGRME,2.4,M,2.4,M,3.4,M*29
$HCHDG,286.9,0.0,E,,*2C
$HCHDG,286.8,0.0,E,,*2D
$GPRMC,190030.0,A,4743.02261,N,12224.83736,W,002.39,311.0,200413,016.6,E,D*2A
$GPRMB,A,-32.08,L,,Ttp,4726.8700,N,12137.4300,W,35.8,133,-2.26,V*53
$PGRME,2.4,M,2.4,M,3.4,M*29
$HCHDG,286.7,0.0,E,,*22
$IIRMC,190000,A,4743.022,N,12224.837,W,02.3,312,200413,16,E,A*1B
$IIVHW,,,,,02.2,N,,*19
$HCHDG,286.6,0.0,E,,*23
$IIVLW,06218,N,008.2,N*54
$GPRMC,190030.2,A,4743.02277,N,12224.83750,W,002.40,308.4,200413,016.6,E,D*2D
$PGRME,2.4,M,2.4,M,3.4,M*29
$YXXDR,A,5.5,D,PTCH,A,4.7,D,ROLL*5E
$PTAK,FFD1,4.7*56
$IIGLL,4743.022,N,12224.837,W,190000,A,A*45
$HCHDG,286.5,0.0,E,,*20
$IIMTW,+09.0,C*31
$HCHDG,286.5,0.0,E,,*20
$IIRMB,A,,,,Ttp ,,,,,035.8,133,,V,A*6A
$GPRMC,190030.4,A,4743.02285,N,12224.83766,W,002.38,310.2,200413,016.6,E,D*23
$PGRME,2.4,M,2.4,M,3.4,M*29
$HCHDG,286.5,0.0,E,,*20
$HCHDG,286.5,0.0,E,,*20
$GPRMC,190030.6,A,4743.02293,N,12224.83781,W,002.37,306.3,200413,016.6,E,D*26
$PGRME,2.4,M,2.4,M,3.4,M*29
$HCHDG,286.5,0.0,E,,*20
$YXXDR,A,5.4,D,PTCH,A,4.6,D,ROLL*5E
$HCHDG,286.5,0.0,E,,*20
$GPRMC,190030.8,A,4743.02308,N,12224.83798,W,002.36,311.0,200413,016.6,E,D*27
$PGRME,2.4,M,2.4,M,3.4,M*29
$HCHDG,286.5,0.0,E,,*20
$HCHDG,286.6,0.0,E,,*23
$GPRMC,190031.0,A,4743.02321,N,12224.83810,W,002.35,309.5,200413,016.6,E,D*25
$PGRME,2.4,M,2.4,M,3.4,M*29
$HCHDG,286.6,0.0,E,,*23
$IIRMC,190000,A,4743.022,N,12224.837,W,02.3,310,200413,16,E,A*19
$IIVHW,,,,,02.2,N,,*19
$HCHDG,286.6,0.0,E,,*23
$IIVLW,06218,N,008.2,N*54
$GPRMC,190031.2,A,4743.02335,N,12224.83825,W,002.34,307.9,200413,016.6,E,D*27
$GPRMB,A,-32.08,L,,Ttp,4726.8700,N,12137.4300,W,35.9,133,-2.17,V*50
$PGRME,2.4,M,2.4,M,3.4,M*29
$YXXDR,A,5.5,D,PTCH,A,4.7,D,ROLL*5E
$PTAK,FFD1,4.7*56
$IIGLL,4743.022,N,12224.837,W,190000,A,A*45
$HCHDG,286.7,0.0,E,,*22
$IIMTW,+09.0,C*31
$HCHDG,286.6,0.0,E,,*23
$IIRMB,A,,,,Ttp ,,,,,035.8,133,,V,A*6A
$GPRMC,190031.4,A,4743.02343,N,12224.83841,W,002.35,309.4,200413,016.6,E,D*20
$PGRME,2.4,M,2.4,M,3.4,M*29
$HCHDG,286.6,0.0,E,,*23
$HCHDG,286.5,0.0,E,,*20
$GPRMC,190031.6,A,4743.02349,N,12224.83861,W,002.34,308.7,200413,016.6,E,D*29
$PGRME,2.4,M,2.4,M,3.4,M*29
$HCHDG,286.5,0.0,E,,*20
$YXXDR,A,5.6,D,PTCH,A,4.0,D,ROLL*5A
$HCHDG,286.4,0.0,E,,*21
$GPRMC,190031.8,A,4743.02359,N,12224.83872,W,002.33,310.1,200413,016.6,E,D*2C
$PGRME,2.4,M,2.4,M,3.4,M*29
$HCHDG,286.5,0.0,E,,*20
$HCHDG,286.3,0.0,E,,*26
$GPRMC,190032.0,A,4743.02368,N,12224.83883,W,002.33,309.9,200413,016.6,E,D*2B
$PGRME,2.4,M,2.4,M,3.4,M*29
$HCHDG,286.4,0.0,E,,*21
$IIRMC,190000,A,4743.023,N,12224.838,W,02.3,309,200413,16,E,A*1F
$IIVHW,,,,,02.3,N,,*18
$HCHDG,286.2,0.0,E,,*27
$IIVLW,06218,N,008.2,N*54
$GPRMC,190032.2,A,4743.02376,N,12224.83897,W,002.34,310.5,200413,016.6,E,D*20
$PGRME,2.4,M,2.4,M,3.4,M*29
$YXXDR,A,5.4,D,PTCH,A,3.9,D,ROLL*56
$IIGLL,4743.023,N,12224.838,W,190000,A,A*4B
$HCHDG,286.2,0.0,E,,*27
$IIMTW,+09.0,C*31
$HCHDG,286.2,0.0,E,,*27
$IIRMB,A,,,,Ttp ,,,,,035.9,133,,V,A*6B
$GPRMC,190032.4,A,4743.02379,N,12224.83920,W,002.35,308.4,200413,016.6,E,D*2D
$GPRMB,A,-32.08,L,,Ttp,4726.8700,N,12137.4300,W,35.9,133,-2.19,V*5E
$PGRME,2.4,M,2.4,M,3.4,M*29
$HCHDG,286.1,0.0,E,,*24
$HCHDG,286.1,0.0,E,,*24
$GPRMC,190032.6,A,4743.02381,N,12224.83946,W,002.35,310.9,200413,016.6,E,D*2C
$PGRME,2.4,M,2.4,M,3.4,M*29
$HCHDG,286.1,0.0,E,,*24
$YXXDR,A,5.6,D,PTCH,A,4.0,D,ROLL*5A
$PTAK,FFD1,4.0*51
$HCHDG,286.2,0.0,E,,*27
$GPRMC,190032.8,A,4743.02384,N,12224.83959,W,002.36,306.4,200413,016.6,E,D*20
$PGRME,2.4,M,2.4,M,3.4,M*29
$HCHDG,286.3,0.0,E,,*26
$HCHDG,286.3,0.0,E,,*26
$GPRMC,190033.0,A,4743.02396,N,12224.83977,W,002.35,305.9,200413,016.6,E,D*2B
$PGRME,2.4,M,2.4,M,3.4,M*29
$HCHDG,286.4,0.0,E,,*21
$IIRMC,190000,A,4743.023,N,12224.839,W,02.3,308,200413,16,E,A*1F
$IIVHW,,,,,02.3,N,,*18
$HCHDG,286.4,0.0,E,,*21
$IIVLW,06218,N,008.2,N*54
$GPRMC,190033.2,A,4743.02407,N,12224.83994,W,002.36,307.5,200413,016.6,E,D*26
$PGRME,2.4,M,2.4,M,3.4,M*29
$YXXDR,A,5.6,D,PTCH,A,4.5,D,ROLL*5F
$IIGLL,4743.023,N,12224.839,W,190000,A,A*4A
$HCHDG,286.4,0.0,E,,*21
$IIMTW,+09.0,C*31
$HCHDG,286.4,0.0,E,,*21
$IIRMB,A,,,,Ttp ,,,,,035.9,133,,V,A*6B
$GPRMC,190033.4,A,4743.02414,N,12224.84005,W,002.36,307.1,200413,016.6,E,D*20
$GPRMB,A,-32.08,L,,Ttp,4726.8700,N,12137.4300,W,35.9,133,-2.18,V*5F
$PGRME,2.4,M,2.4,M,3.4,M*29
$HCHDG,286.3,0.0,E,,*26
$PTAK,FFP1,HEEL,@*07
$HCHDG,286.3,0.0,E,,*26
$GPRMC,190033.6,A,4743.02424,N,12224.84017,W,002.34,311.6,200413,016.6,E,D*20
$PGRME,2.4,M,2.4,M,3.4,M*29
$HCHDG,286.3,0.0,E,,*26
$YXXDR,A,5.6,D,PTCH,A,4.3,D,ROLL*59
$PTAK,FFD1,4.3*52
$HCHDG,286.3,0.0,E,,*26
$GPRMC,190033.8,A,4743.02436,N,12224.84035,W,002.55,309.4,200413,016.6,E,D*21
$PGRME,2.4,M,2.4,M,3.4,M*29
$HCHDG,286.2,0.0,E,,*27
$HCHDG,286.1,0.0,E,,*24
$GPRMC,190034.0,A,4743.02447,N,12224.84048,W,002.34,312.2,200413,016.6,E,D*29
$PGRME,2.4,M,2.4,M,3.4,M*29
$HCHDG,286.1,0.0,E,,*24
$IIRMC,190000,A,4743.024,N,12224.840,W,02.3,307,200413,16,E,A*19
$IIVHW,,,,,02.3,N,,*18
$HCHDG,286.0,0.0,E,,*25
$IIVLW,06218,N,008.2,N*54
$GPRMC,190034.2,A,4743.02457,N,12224.84067,W,002.35,312.3,200413,016.6,E,D*27
$PGRME,2.4,M,2.4,M,3.4,M*29
$YXXDR,A,5.6,D,PTCH,A,4.0,D,ROLL*5A
$IIGLL,4743.024,N,12224.840,W,190000,A,A*43
$HCHDG,286.0,0.0,E,,*25
$IIMTW,+09.0,C*31
$HCHDG,286.0,0.0,E,,*25
$IIRMB,A,,,,Ttp ,,,,,035.9,133,,V,A*6B
$GPRMC,190034.4,A,4743.02466,N,12224.84085,W,002.37,308.8,200413,016.6,E,D*2D
$PGRME,2.4,M,2.4,M,3.4,M*29
$HCHDG,286.0,0.0,E,,*25
$HCHDG,286.0,0.0,E,,*25
$GPRMC,190034.6,A,4743.02475,N,12224.84103,W,002.37,310.2,200413,016.6,E,D*21
$GPRMB,A,-32.08,L,,Ttp,4726.8700,N,12137.4300,W,35.9,133,-2.23,V*57
$PGRME,2.4,M,2.4,M,3.4,M*29
$HCHDG,286.1,0.0,E,,*24
$YXXDR,A,5.6,D,PTCH,A,4.4,D,ROLL*5E
$PTAK,FFD1,4.4*55
$HCHDG,286.1,0.0,E,,*24
$GPRMC,190034.8,A,4743.02477,N,12224.84110,W,002.35,310.3,200413,016.6,E,D*2C
$PGRME,2.4,M,2.4,M,3.4,M*29
$HCHDG,286.1,0.0,E,,*24
$HCHDG,286.1,0.0,E,,*24
$GPRMC,190035.0,A,4743.02483,N,12224.84114,W,002.35,310.3,200413,016.6,E,D*2A
$PGRME,2.4,M,2.4,M,3.4,M*29
$HCHDG,286.1,0.0,E,,*24
$IIRMC,190000,A,4743.024,N,12224.840,W,02.3,308,200413,16,E,A*16
$IIVHW,,,,,02.2,N,,*19
$HCHDG,286.0,0.0,E,,*25
$IIVLW,06218,N,008.2,N*54
$GPRMC,190035.2,A,4743.02486,N,12224.84121,W,002.39,309.6,200413,016.6,E,D*2A
$PGRME,2.4,M,2.4,M,3.4,M*29
$YXXDR,A,5.5,D,PTCH,A,5.0,D,ROLL*58
$IIGLL,4743.024,N,12224.840,W,190000,A,A*43
$HCHDG,286.0,0.0,E,,*25
$IIMTW,+09.0,C*31
$HCHDG,286.0,0.0,E,,*25
$IIRMB,A,,,,Ttp ,,,,,035.9,133,,V,A*6B
$GPRMC,190035.4,A,4743.02492,N,12224.84131,W,002.39,309.2,200413,016.6,E,D*2C
$PGRME,2.4,M,2.4,M,3.4,M*29
$HCHDG,286.1,0.0,E,,*24
$HCHDG,286.0,0.0,E,,*25
$GPRMC,190035.6,A,4743.02498,N,12224.84142,W,002.39,309.8,200413,016.6,E,D*2A
$PGRME,2.4,M,2.4,M,3.4,M*29
$HCHDG,286.1,0.0,E,,*24
$YXXDR,A,5.6,D,PTCH,A,4.0,D,ROLL*5A
$HCHDG,286.0,0.0,E,,*25
$GPRMC,190035.8,A,4743.02503,N,12224.84155,W,002.38,309.0,200413,016.6,E,D*28
$GPRMB,A,-32.08,L,,Ttp,4726.8700,N,12137.4300,W,35.9,133,-2.23,V*57
$PGRME,2.4,M,2.4,M,3.4,M*29
$HCHDG,286.1,0.0,E,,*24
$HCHDG,286.2,0.0,E,,*27
$GPRMC,190036.0,A,4743.02510,N,12224.84168,W,002.38,309.4,200413,016.6,E,D*2B
$PGRME,2.4,M,2.4,M,3.4,M*29
$HCHDG,286.2,0.0,E,,*27
$IIRMC,190000,A,4743.024,N,12224.841,W,02.3,309,200413,16,E,A*16
$IIVHW,,,,,02.2,N,,*19
$HCHDG,285.9,0.0,E,,*2F
$IIVLW,06218,N,008.2,N*54
$GPRMC,190036.2,A,4743.02514,N,12224.84183,W,002.35,308.6,200413,016.6,E,D*26
$PGRME,2.4,M,2.4,M,3.4,M*29
$YXXDR,A,5.4,D,PTCH,A,4.1,D,ROLL*59
$PTAK,FFD1,4.1*50
$IIGLL,4743.024,N,12224.841,W,190000,A,A*42
$HCHDG,285.9,0.0,E,,*2F
$IIMTW,+09.0,C*31
$HCHDG,285.9,0.0,E,,*2F
$IIRMB,A,,,,Ttp ,,,,,035.9,133,,V,A*6B
$GPRMC,190036.4,A,4743.02519,N,12224.84199,W,002.32,309.9,200413,016.6,E,D*2F
$PGRME,2.4,M,2.4,M,3.4,M*29
$HCHDG,285.9,0.0,E,,*2F
$HCHDG,285.9,0.0,E,,*2F
$GPRMC,190036.6,A,4743.02524,N,12224.84211,W,002.34,310.7,200413,016.6,E,D*20
$PGRME,2.4,M,2.4,M,3.4,M*29
$HCHDG,285.9,0.0,E,,*2F
$YXXDR,A,5.4,D,PTCH,A,4.0,D,ROLL*58
$HCHDG,285.8,0.0,E,,*2E
$GPRMC,190036.8,A,4743.02530,N,12224.84231,W,002.33,309.3,200413,016.6,E,D*22
$PGRME,2.4,M,2.4,M,3.4,M*29
$HCHDG,286.0,0.0,E,,*25
$HCHDG,286.1,0.0,E,,*24
$GPRMC,190037.0,A,4743.02541,N,12224.84244,W,002.29,311.0,200413,016.6,E,D*2E
$GPRMB,A,-32.08,L,,Ttp,4726.8700,N,12137.4300,W,35.9,133,-2.17,V*50
$PGRME,2.4,M,2.4,M,3.4,M*29
$HCHDG,286.1,0.0,E,,*24
$IIRMC,190000,A,4743.025,N,12224.841,W,02.3,309,200413,16,E,A*17
$IIVHW,,,,,02.2,N,,*19
$HCHDG,286.0,0.0,E,,*25
$IIVLW,06218,N,008.2,N*54
$GPRMC,190037.2,A,4743.02550,N,12224.84257,W,002.30,309.1,200413,016.6,E,D*2E
$PGRME,2.4,M,2.4,M,3.4,M*29
$YXXDR,A,5.6,D,PTCH,A,4.5,D,ROLL*5F
$PTAK,FFD1,4.5*54
$IIGLL,4743.025,N,12224.841,W,190000,A,A*43
$HCHDG,286.0,0.0,E,,*25
$IIMTW,+09.0,C*31
$HCHDG,286.0,0.0,E,,*25
$IIRMB,A,,,,Ttp ,,,,,035.9,133,,V,A*6B
$GPRMC,190037.4,A,4743.02561,N,12224.84273,W,002.29,311.9,200413,016.6,E,D*25
$PGRME,2.4,M,2.4,M,3.4,M*29
$HCHDG,286.2,0.0,E,,*27
$HCHDG,285.9,0.0,E,,*2F
$GPRMC,190037.6,A,4743.02567,N,12224.84288,W,002.28,307.8,200413,016.6,E,D*22
$PGRME,2.4,M,2.4,M,3.4,M*29
$HCHDG,285.9,0.0,E,,*2F
$PTAK,FFP1,HEEL,@*07
$YXXDR,A,5.6,D,PTCH,A,4.4,D,ROLL*5E
$HCHDG,286.0,0.0,E,,*25
$GPRMC,190037.8,A,4743.02573,N,12224.84303,W,002.29,309.6,200413,016.6,E,D*2A
$PGRME,2.4,M,2.4,M,3.4,M*29
$HCHDG,285.9,0.0,E,,*2F
$HCHDG,285.9,0.0,E,,*2F
$GPRMC,190038.0,A,4743.02582,N,12224.84317,W,002.30,309.8,200413,016.6,E,D*20
$PGRME,2.4,M,2.4,M,3.4,M*29
$HCHDG,285.9,0.0,E,,*2F
$IIRMC,190000,A,4743.025,N,12224.842,W,02.2,311,200413,16,E,A*1C
$IIVHW,,,,,02.3,N,,*18
$HCHDG,285.9,0.0,E,,*2F
$IIVLW,06218,N,008.2,N*54
$GPRMC,190038.2,A,4743.02592,N,12224.84331,W,002.28,314.8,200413,016.6,E,D*22
$GPRMB,A,-32.08,L,,Ttp,4726.8700,N,12137.4300,W,35.9,133,-2.20,V*54
$PGRME,2.4,M,2.4,M,3.4,M*29
$YXXDR,A,5.5,D,PTCH,A,4.3,D,ROLL*5A
$PTAK,FFD1,4.3*52
$IIGLL,4743.025,N,12224.842,W,190000,A,A*40
$HCHDG,285.9,0.0,E,,*2F
$IIMTW,+09.0,C*31
$HCHDG,285.9,0.0,E,,*2F
$IIRMB,A,,,,Ttp ,,,,,035.9,133,,V,A*6B
$GPRMC,190038.4,A,4743.02598,N,12224.84348,W,002.27,308.5,200413,016.6,E,D*2F
$PGRME,2.4,M,2.4,M,3.4,M*29
$HCHDG,286.0,0.0,E,,*25
$HCHDG,286.0,0.0,E,,*25
$GPRMC,190038.6,A,4743.02613,N,12224.84355,W,002.28,312.3,200413,016.6,E,D*23
$PGRME,2.4,M,2.4,M,3.4,M*29
$HCHDG,286.0,0.0,E,,*25
$YXXDR,A,5.5,D,PTCH,A,4.3,D,ROLL*5A
$HCHDG,286.0,0.0,E,,*25
$GPRMC,190038.8,A,4743.02618,N,12224.84367,W,002.30,310.7,200413,016.6,E,D*28
$PGRME,2.4,M,2.4,M,3.4,M*29
$HCHDG,286.1,0.0,E,,*24
$HCHDG,286.1,0.0,E,,*24
$GPRMC,190039.0,A,4743.02625,N,12224.84383,W,002.31,306.9,200413,016.6,E,D*2D
$PGRME,2.4,M,2.4,M,3.4,M*29
$HCHDG,286.1,0.0,E,,*24
$IIRMC,190000,A,4743.025,N,12224.843,W,02.2,308,200413,16,E,A*15
$IIVHW,,,,,02.3,N,,*18
$HCHDG,286.1,0.0,E,,*24
$IIVLW,06218,N,008.2,N*54
$GPRMC,190039.2,A,4743.02632,N,12224.84400,W,002.32,311.7,200413,016.6,E,D*2E
$PGRME,2.4,M,2.4,M,3.4,M*29
$YXXDR,A,5.5,D,PTCH,A,4.7,D,ROLL*5E
$IIGLL,4743.025,N,12224.843,W,190000,A,A*41
$HCHDG,286.1,0.0,E,,*24
$IIMTW,+09.0,C*31
$HCHDG,286.2,0.0,E,,*27
$IIRMB,A,,,,Ttp ,,,,,035.9,133,,V,A*6B
$GPRMC,190039.4,A,4743.02641,N,12224.84416,W,002.35,309.1,200413,016.6,E,D*23
$GPRMB,A,-32.09,L,,Ttp,4726.8700,N,12137.4300,W,35.9,133,-2.20,V*55
$PGRME,2.4,M,2.4,M,3.4,M*29
$HCHDG,286.2,0.0,E,,*27
$HCHDG,286.2,0.0,E,,*27
$GPRMC,190039.6,A,4743.02644,N,12224.84429,W,002.35,307.9,200413,016.6,E,D*2E
$PGRME,2.4,M,2.4,M,3.4,M*29
$HCHDG,286.2,0.0,E,,*27
$YXXDR,A,5.4,D,PTCH,A,4.5,D,ROLL*5D
$PTAK,FFD1,4.5*54
$HCHDG,286.3,0.0,E,,*26
$GPRMC,190039.8,A,4743.02649,N,12224.84441,W,002.36,312.9,200413,016.6,E,D*24
$PGRME,2.4,M,2.4,M,3.4,M*29
$HCHDG,286.3,0.0,E,,*26
$HCHDG,286.1,0.0,E,,*24
$GPRMC,190040.0,A,4743.02657,N,12224.84455,W,002.37,309.9,200413,016.6,E,D*23
$PGRME,2.4,M,2.4,M,3.4,M*29
$HCHDG,286.1,0.0,E,,*24
$IIRMC,190000,A,4743.026,N,12224.844,W,02.3,309,200413,16,E,A*11
$IIVHW,,,,,02.3,N,,*18
$HCHDG,286.0,0.0,E,,*25
$IIVLW,06218,N,008.2,N*54
$GPRMC,190040.2,A,4743.02664,N,12224.84471,W,002.34,312.2,200413,016.6,E,D*25
$PGRME,2.4,M,2.4,M,3.4,M*29
$YXXDR,A,5.5,D,PTCH,A,4.3,D,ROLL*5A
$IIGLL,4743.026,N,12224.844,W,190000,A,A*45
$HCHDG,286.0,0.0,E,,*25
$IIMTW,+09.0,C*31
$HCHDG,285.9,0.0,E,,*2F
$IIRMB,A,,,,Ttp ,,,,,035.9,133,,V,A*6B
$GPRMC,190040.4,A,4743.02673,N,12224.84479,W,002.31,312.7,200413,016.6,E,D*2D
$PGRME,2.4,M,2.4,M,3.4,M*29
$HCHDG,285.9,0.0,E,,*2F
$HCHDG,285.8,0.0,E,,*2E
$GPRMC,190040.6,A,4743.02683,N,12224.84497,W,002.33,309.1,200413,016.6,E,D*2E
$GPRMB,A,-32.09,L,,Ttp,4726.8700,N,12137.4300,W,35.9,133,-2.18,V*5E
$PGRME,2.4,M,2.4,M,3.4,M*29
$HCHDG,285.7,0.0,E,,*21
$YXXDR,A,5.4,D,PTCH,A,4.3,D,ROLL*5B
$PTAK,FFD1,4.3*52
$HCHDG,285.7,0.0,E,,*21
$GPRMC,190040.8,A,4743.02692,N,12224.84519,W,002.33,303.6,200413,016.6,E,D*2A
$PGRME,2.4,M,2.4,M,3.4,M*29
$HCHDG,285.6,0.0,E,,*20
$HCHDG,285.7,0.0,E,,*21
$GPRMC,190041.0,A,4743.02696,N,12224.84539,W,002.35,309.2,200413,016.6,E,D*2D
$PGRME,2.4,M,2.4,M,3.4,M*29
$HCHDG,285.7,0.0,E,,*21
$IIRMC,190000,A,4743.026,N,12224.844,W,02.3,312,200413,16,E,A*1B
$IIVHW,,,,,02.3,N,,*18
$HCHDG,285.5,0.0,E,,*23
$IIVLW,06218,N,008.2,N*54
$GPRMC,190041.2,A,4743.02703,N,12224.84556,W,002.34,307.0,200413,016.6,E,D*26
$PGRME,2.4,M,2.4,M,3.4,M*29
$YXXDR,A,5.4,D,PTCH,A,4.9,D,ROLL*51
$IIGLL,4743.026,N,12224.844,W,190000,A,A*45
$HCHDG,285.5,0.0,E,,*23
$IIMTW,+09.0,C*31
$HCHDG,285.4,0.0,E,,*22
$IIRMB,A,,,,Ttp ,,,,,035.9,133,,V,A*6B
$GPRMC,190041.4,A,4743.02710,N,12224.84571,W,002.34,308.1,200413,016.6,E,D*29
$PGRME,2.4,M,2.4,M,3.4,M*29
$HCHDG,285.4,0.0,E,,*22
$HCHDG,285.4,0.0,E,,*22
$GPRMC,190041.6,A,4743.02719,N,12224.84585,W,002.30,307.3,200413,016.6,E,D*20
$PGRME,2.4,M,2.4,M,3.4,M*29
$HCHDG,285.4,0.0,E,,*22
$PTAK,FFP1,HEEL,@*07
$YXXDR,A,5.4,D,PTCH,A,5.1,D,ROLL*58
$HCHDG,285.3,0.0,E,,*25
$GPRMC,190041.8,A,4743.02729,N,12224.84602,W,002.29,308.2,200413,016.6,E,D*27
$GPRMB,A,-32.09,L,,Ttp,4726.8700,N,12137.4300,W,35.9,133,-2.13,V*55
$PGRME,2.4,M,2.4,M,3.4,M*29
$HCHDG,285.5,0.0,E,,*23
$HCHDG,285.4,0.0,E,,*22
$GPRMC,190042.0,A,4743.02738,N,12224.84621,W,002.27,309.4,200413,016.6,E,D*24
$PGRME,2.4,M,2.4,M,3.5,M*28
$HCHDG,285.3,0.0,E,,*25
$IIRMC,190000,A,4743.027,N,12224.845,W,02.3,308,200413,16,E,A*10
$IIVHW,,,,,02.3,N,,*18
$HCHDG,285.2,0.0,E,,*24
$IIVLW,06218,N,008.3,N*55
$GPRMC,190042.2,A,4743.02747,N,12224.84643,W,002.30,307.3,200413,016.6,E,D*25
$PGRME,2.4,M,2.4,M,3.5,M*28
$YXXDR,A,5.5,D,PTCH,A,5.0,D,ROLL*58
$PTAK,FFD1,5.0*50
$IIGLL,4743.027,N,12224.845,W,190000,A,A*45
$HCHDG,285.1,0.0,E,,*27
$IIMTW,+09.0,C*31
$HCHDG,285.2,0.0,E,,*24
$IIRMB,A,,,,Ttp ,,,,,035.9,133,,V,A*6B
$GPRMC,190042.4,A,4743.02756,N,12224.84667,W,002.30,311.0,200413,016.6,E,D*21
$PGRME,2.4,M,2.4,M,3.5,M*28
$HCHDG,285.1,0.0,E,,*27
$HCHDG,285.1,0.0,E,,*27
$GPRMC,190042.6,A,4743.02767,N,12224.84689,W,002.33,309.9,200413,016.6,E,D*22
$PGRME,2.4,M,2.4,M,3.5,M*28
$HCHDG,285.0,0.0,E,,*26
$YXXDR,A,5.4,D,PTCH,A,4.4,D,ROLL*5C
$HCHDG,285.1,0.0,E,,*27
$GPRMC,190042.8,A,4743.02780,N,12224.84705,W,002.33,309.0,200413,016.6,E,D*29
$PGRME,2.4,M,2.4,M,3.5,M*28
$HCHDG,285.1,0.0,E,,*27
$HCHDG,285.1,0.0,E,,*27
$GPRMC,190043.0,A,4743.02790,N,12224.84717,W,002.36,306.2,200413,016.6,E,D*2A
$GPRMB,A,-32.09,L,,Ttp,4726.8700,N,12137.4300,W,35.9,133,-2.16,V*50
$PGRME,2.4,M,2.4,M,3.5,M*28
$HCHDG,284.9,0.0,E,,*2E
$IIRMC,190000,A,4743.027,N,12224.846,W,02.3,311,200413,16,E,A*1B
$IIVHW,,,,,02.3,N,,*18
$HCHDG,284.9,0.0,E,,*2E
$IIVLW,06218,N,008.3,N*55
$GPRMC,190043.2,A,4743.02798,N,12224.84733,W,002.36,308.9,200413,016.6,E,D*23
$PGRME,2.4,M,2.4,M,3.5,M*28
$YXXDR,A,5.4,D,PTCH,A,4.9,D,ROLL*51
$PTAK,FFD1,4.9*58
$IIGLL,4743.027,N,12224.846,W,190000,A,A*46
$HCHDG,284.9,0.0,E,,*2E
$IIMTW,+09.0,C*31
$HCHDG,284.9,0.0,E,,*2E
$IIRMB,A,,,,Ttp ,,,,,035.9,133,,V,A*6B
$GPRMC,190043.4,A,4743.02806,N,12224.84748,W,002.37,306.0,200413,016.6,E,D*27
$PGRME,2.4,M,2.4,M,3.5,M*28
$HCHDG,285.0,0.0,E,,*26
$HCHDG,284.9,0.0,E,,*2E
$GPRMC,190043.6,A,4743.02817,N,12224.84767,W,002.36,306.1,200413,016.6,E,D*28
$PGRME,2.4,M,2.4,M,3.5,M*28
$HCHDG,284.9,0.0,E,,*2E
$YXXDR,A,5.5,D,PTCH,A,5.0,D,ROLL*58
$HCHDG,284.8,0.0,E,,*2F
$GPRMC,190043.8,A,4743.02824,N,12224.84787,W,002.36,307.6,200413,016.6,E,D*2E
$PGRME,2.4,M,2.4,M,3.5,M*28
$HCHDG,284.8,0.0,E,,*2F
$HCHDG,285.0,0.0,E,,*26
$GPRMC,190044.0,A,4743.02832,N,12224.84807,W,002.33,306.4,200413,016.6,E,D*27
$PGRME,2.4,M,2.4,M,3.5,M*28
$PGRMT,GPS 18x-5Hz software ver. 3.20,,,,,,,,*30
$HCHDG,285.1,0.0,E,,*27
$IIRMC,190000,A,4743.028,N,12224.847,W,02.3,306,200413,16,E,A*13
$IIVHW,,,,,02.3,N,,*18
$HCHDG,285.0,0.0,E,,*26
$IIVLW,06218,N,008.3,N*55
$GPRMC,190044.2,A,4743.02843,N,12224.84824,W,002.32,307.7,200413,016.6,E,D*21
$GPRMB,A,-32.09,L,,Ttp,4726.8700,N,12137.4300,W,35.9,133,-2.15,V*53
$PGRME,2.4,M,2.4,M,3.5,M*28
$YXXDR,A,5.4,D,PTCH,A,4.5,D,ROLL*5D
$PTAK,FFD1,4.5*54
$IIGLL,4743.028,N,12224.847,W,190000,A,A*48
$HCHDG,284.9,0.0,E,,*2E
$IIMTW,+09.0,C*31
$HCHDG,284.8,0.0,E,,*2F
$IIRMB,A,,,,Ttp ,,,,,035.9,133,,V,A*6B
$GPRMC,190044.4,A,4743.02853,N,12224.84838,W,002.32,308.3,200413,016.6,E,D*20
$PGRME,2.4,M,2.4,M,3.5,M*28
$HCHDG,284.7,0.0,E,,*20
$HCHDG,284.6,0.0,E,,*21
$GPRMC,190044.6,A,4743.02864,N,12224.84849,W,002.31,307.5,200413,016.6,E,D*2A
$PGRME,2.5,M,2.4,M,3.5,M*29
$HCHDG,284.5,0.0,E,,*22
$YXXDR,A,5.4,D,PTCH,A,4.0,D,ROLL*58
$HCHDG,284.4,0.0,E,,*23
$GPRMC,190044.8,A,4743.02874,N,12224.84865,W,002.30,310.3,200413,016.6,E,D*2A
$PGRME,2.5,M,2.4,M,3.5,M*29
$HCHDG,284.4,0.0,E,,*23
$HCHDG,284.4,0.0,E,,*23
$GPRMC,190045.0,A,4743.02882,N,12224.84888,W,002.31,308.2,200413,016.6,E,D*20
$PGRME,2.5,M,2.4,M,3.5,M*29
$HCHDG,284.4,0.0,E,,*23
$IIRMC,190000,A,4743.028,N,12224.848,W,02.3,308,200413,16,E,A*12
$IIVHW,,,,,02.3,N,,*18
$HCHDG,284.2,0.0,E,,*25
$IIVLW,06218,N,008.3,N*55
$GPRMC,190045.2,A,4743.02895,N,12224.84909,W,002.32,309.2,200413,016.6,E,D*2E
$GPRMB,A,-32.09,L,,Ttp,4726.8700,N,12137.4300,W,35.9,133,-2.17,V*51
$PGRME,2.5,M,2.4,M,3.5,M*29
$YXXDR,A,5.4,D,PTCH,A,4.5,D,ROLL*5D
$IIGLL,4743.028,N,12224.848,W,190000,A,A*47
$HCHDG,284.1,0.0,E,,*26
$IIMTW,+09.0,C*31
$HCHDG,284.1,0.0,E,,*26
$IIRMB,A,,,,Ttp ,,,,,035.9,133,,V,A*6B
$GPRMC,190045.4,A,4743.02905,N,12224.84930,W,002.32,306.7,200413,016.6,E,D*20
$PGRME,2.5,M,2.4,M,3.5,M*29
$HCHDG,284.1,0.0,E,,*26
$HCHDG,284.1,0.0,E,,*26
$GPRMC,190045.6,A,4743.02918,N,12224.84940,W,002.34,308.0,200413,016.6,E,D*26
$PGRME,2.5,M,2.4,M,3.5,M*29
$HCHDG,284.1,0.0,E,,*26
$YXXDR,A,5.4,D,PTCH,A,4.6,D,ROLL*5E
$PTAK,FFD1,4.6*57
$PTAK,FFP1,HEEL,@*07
$HCHDG,284.2,0.0,E,,*25
$GPRMC,190045.8,A,4743.02929,N,12224.84953,W,002.35,305.3,200413,016.6,E,D*27
$PGRME,2.5,M,2.4,M,3.5,M*29
$HCHDG,284.2,0.0,E,,*25
$HCHDG,284.2,0.0,E,,*25
$GPRMC,190046.0,A,4743.02943,N,12224.84968,W,002.36,306.9,200413,016.6,E,D*22
$PGRME,2.5,M,2.4,M,3.5,M*29
$HCHDG,284.2,0.0,E,,*25
$IIRMC,190000,A,4743.029,N,12224.849,W,02.3,306,200413,16,E,A*1C
$IIVHW,,,,,02.3,N,,*18
$HCHDG,284.2,0.0,E,,*25
$IIVLW,06218,N,008.3,N*55
$GPRMC,190046.2,A,4743.02951,N,12224.84988,W,002.36,305.8,200413,016.6,E,D*2F
$PGRME,2.5,M,2.4,M,3.5,M*29
$YXXDR,A,5.5,D,PTCH,A,4.7,D,ROLL*5E
$IIGLL,4743.029,N,12224.849,W,190000,A,A*47
$HCHDG,284.1,0.0,E,,*26
$IIMTW,+09.0,C*31
$HCHDG,284.1,0.0,E,,*26
$IIRMB,A,,,,Ttp ,,,,,035.9,133,,V,A*6B
$GPRMC,190046.4,A,4743.02953,N,12224.85008,W,002.34,306.9,200413,016.6,E,D*2B
$GPRMB,A,-32.09,L,,Ttp,4726.8700,N,12137.4300,W,35.9,133,-2.16,V*50
$PGRME,2.4,M,2.4,M,3.5,M*28
$HCHDG,284.1,0.0,E,,*26
$HCHDG,284.0,0.0,E,,*27
$GPRMC,190046.6,A,4743.02966,N,12224.85024,W,002.32,306.7,200413,016.6,E,D*29
$PGRME,2.4,M,2.4,M,3.4,M*29
$HCHDG,283.9,0.0,E,,*29
$YXXDR,A,5.4,D,PTCH,A,4.3,D,ROLL*5B
$PTAK,FFD1,4.3*52
$HCHDG,283.7,0.0,E,,*27
$GPRMC,190046.8,A,4743.02974,N,12224.85042,W,002.32,306.3,200413,016.6,E,D*20
$PGRME,2.4,M,2.4,M,3.4,M*29
$HCHDG,283.6,0.0,E,,*26
$HCHDG,283.5,0.0,E,,*25
$GPRMC,190047.0,A,4743.02985,N,12224.85064,W,002.32,307.7,200413,016.6,E,D*26
$PGRME,2.4,M,2.4,M,3.4,M*29
$HCHDG,283.5,0.0,E,,*25
$IIRMC,190000,A,4743.029,N,12224.850,W,02.3,306,200413,16,E,A*14
$IIVHW,,,,,02.3,N,,*18
$HCHDG,283.5,0.0,E,,*25
$IIVLW,06218,N,008.3,N*55
$GPRMC,190047.2,A,4743.02997,N,12224.85074,W,002.32,305.4,200413,016.6,E,D*27
$PGRME,2.4,M,2.4,M,3.4,M*29
$YXXDR,A,5.4,D,PTCH,A,4.1,D,ROLL*59
$IIGLL,4743.029,N,12224.850,W,190000,A,A*4F
$HCHDG,283.4,0.0,E,,*24
$IIMTW,+09.0,C*31
$HCHDG,283.4,0.0,E,,*24
$IIRMB,A,,,,Ttp ,,,,,035.9,133,,V,A*6B
$GPRMC,190047.4,A,4743.03002,N,12224.85091,W,002.31,304.7,200413,016.6,E,D*2F
$GPRMB,A,-32.09,L,,Ttp,4726.8700,N,12137.4300,W,35.9,133,-2.09,V*5E
$PGRME,2.4,M,2.4,M,3.4,M*29
$HCHDG,283.4,0.0,E,,*24
$HCHDG,283.5,0.0,E,,*25
$GPRMC,190047.6,A,4743.03005,N,12224.85107,W,002.30,304.9,200413,016.6,E,D*2B
$PGRME,2.4,M,2.4,M,3.4,M*29
$HCHDG,283.5,0.0,E,,*25
$YXXDR,A,5.6,D,PTCH,A,4.3,D,ROLL*59
$PTAK,FFD1,4.3*52
$HCHDG,283.5,0.0,E,,*25
$GPRMC,190047.8,A,4743.03006,N,12224.85119,W,002.28,302.3,200413,016.6,E,D*2C
$PGRME,2.4,M,2.4,M,3.4,M*29
$HCHDG,283.4,0.0,E,,*24
$HCHDG,283.4,0.0,E,,*24
$GPRMC,190048.0,A,4743.03010,N,12224.85128,W,002.29,305.6,200413,016.6,E,D*2D
$PGRME,2.4,M,2.4,M,3.4,M*29
$HCHDG,283.4,0.0,E,,*24
$IIRMC,190000,A,4743.030,N,12224.850,W,02.3,304,200413,16,E,A*1E
$IIVHW,,,,,02.3,N,,*18
$HCHDG,283.4,0.0,E,,*24
$IIVLW,06218,N,008.3,N*55
$GPRMC,190048.2,A,4743.03015,N,12224.85137,W,002.30,307.8,200413,016.6,E,D*20
$PGRME,2.4,M,2.4,M,3.4,M*29
$YXXDR,A,5.4,D,PTCH,A,4.2,D,ROLL*5A
$IIGLL,4743.030,N,12224.850,W,190000,A,A*47
$HCHDG,283.3,0.0,E,,*23
$IIMTW,+09.0,C*31
$HCHDG,283.2,0.0,E,,*22
$IIRMB,A,,,,Ttp ,,,,,035.9,133,,V,A*6B
$GPRMC,190048.4,A,4743.03018,N,12224.85142,W,002.31,310.0,200413,016.6,E,D*26
$PGRME,2.4,M,2.4,M,3.4,M*29
$HCHDG,283.2,0.0,E,,*22
$HCHDG,283.2,0.0,E,,*22
$GPRMC,190048.6,A,4743.03027,N,12224.85156,W,002.31,310.8,200413,016.6,E,D*25
$GPRMB,A,-32.09,L,,Ttp,4726.8700,N,12137.4300,W,35.9,133,-2.19,V*5F
$PGRME,2.4,M,2.4,M,3.4,M*29
$HCHDG,283.2,0.0,E,,*22
$YXXDR,A,5.4,D,PTCH,A,4.0,D,ROLL*58
$PTAK,FFD1,4.0*51
$HCHDG,283.1,0.0,E,,*21
$GPRMC,190048.8,A,4743.03034,N,12224.85175,W,002.32,306.9,200413,016.6,E,D*2D
$PGRME,2.4,M,2.4,M,3.4,M*29
$HCHDG,283.1,0.0,E,,*21
$HCHDG,282.9,0.0,E,,*28
$GPRMC,190049.0,A,4743.03038,N,12224.85187,W,002.31,304.6,200413,016.6,E,D*2B
$PGRME,2.4,M,2.4,M,3.4,M*29
$HCHDG,282.9,0.0,E,,*28
$IIRMC,190000,A,4743.030,N,12224.851,W,02.3,310,200413,16,E,A*1A
$IIVHW,,,,,02.3,N,,*18
$HCHDG,282.7,0.0,E,,*26
$IIVLW,06218,N,008.3,N*55
$GPRMC,190049.2,A,4743.03044,N,12224.85203,W,002.28,303.6,200413,016.6,E,D*22
$PGRME,2.4,M,2.4,M,3.4,M*29
$YXXDR,A,5.4,D,PTCH,A,4.6,D,ROLL*5E
$IIGLL,4743.030,N,12224.851,W,190000,A,A*46
$HCHDG,282.8,0.0,E,,*29
$IIMTW,+09.0,C*31
$HCHDG,282.8,0.0,E,,*29
$IIRMB,A,,,,Ttp ,,,,,035.9,133,,V,A*6B
$GPRMC,190049.4,A,4743.03048,N,12224.85214,W,002.30,306.9,200413,016.6,E,D*2D
$PGRME,2.4,M,2.4,M,3.4,M*29
$HCHDG,282.8,0.0,E,,*29
$HCHDG,282.8,0.0,E,,*29
$GPRMC,190049.6,A,4743.03051,N,12224.85225,W,002.28,302.2,200413,016.6,E,D*23
$GPRMB,A,-32.09,L,,Ttp,4726.8700,N,12137.4300,W,35.9,133,-2.02,V*55
$PGRME,2.4,M,2.4,M,3.4,M*29
$HCHDG,282.8,0.0,E,,*29
$PTAK,FFP1,HEEL,@*07
$YXXDR,A,5.5,D,PTCH,A,4.9,D,ROLL*50
$PTAK,FFD1,4.9*58
$HCHDG,282.9,0.0,E,,*28
$GPRMC,190049.8,A,4743.03053,N,12224.85235,W,002.30,303.5,200413,016.6,E,D*21
$PGRME,2.4,M,2.4,M,3.5,M*28
$HCHDG,282.8,0.0,E,,*29
$HCHDG,282.8,0.0,E,,*29
$GPRMC,190050.0,A,4743.03060,N,12224.85251,W,002.30,307.0,200413,016.6,E,D*22
$PGRME,2.4,M,2.4,M,3.5,M*28
$HCHDG,282.8,0.0,E,,*29
$IIRMC,190000,A,4743.030,N,12224.852,W,02.3,306,200413,16,E,A*1E
$IIVHW,,,,,02.3,N,,*18
$HCHDG,282.7,0.0,E,,*26
$IIVLW,06218,N,008.3,N*55
$GPRMC,190050.2,A,4743.03068,N,12224.85267,W,002.30,306.5,200413,016.6,E,D*29
$PGRME,2.4,M,2.4,M,3.4,M*29
$YXXDR,A,5.6,D,PTCH,A,3.6,D,ROLL*5B
$IIGLL,4743.030,N,12224.852,W,190000,A,A*45
$HCHDG,282.8,0.0,E,,*29
$IIMTW,+09.0,C*31
$HCHDG,282.7,0.0,E,,*26
$IIRMB,A,,,,Ttp ,,,,,035.9,133,,V,A*6B
$GPRMC,190050.4,A,4743.03075,N,12224.85280,W,002.31,309.1,200413,016.6,E,D*20
$PGRME,2.4,M,2.4,M,3.5,M*28
$HCHDG,282.7,0.0,E,,*26
$HCHDG,282.7,0.0,E,,*26
$GPRMC,190050.6,A,4743.03084,N,12224.85293,W,002.31,305.7,200413,016.6,E,D*24
$GPRMB,A,-32.09,L,,Ttp,4726.8700,N,12137.4300,W,35.9,133,-2.11,V*57
$PGRME,2.4,M,2.5,M,3.5,M*29
$HCHDG,282.6,0.0,E,,*27
$YXXDR,A,5.4,D,PTCH,A,3.4,D,ROLL*5B
$HCHDG,282.6,0.0,E,,*27
$GPRMC,190050.8,A,4743.03094,N,12224.85301,W,002.32,307.1,200413,016.6,E,D*26
$PGRME,2.4,M,2.5,M,3.5,M*29
$HCHDG,282.6,0.0,E,,*27
$HCHDG,282.6,0.0,E,,*27
$GPRMC,190051.0,A,4743.03098,N,12224.85311,W,002.31,306.4,200413,016.6,E,D*25
$PGRME,2.4,M,2.4,M,3.5,M*28
$HCHDG,282.6,0.0,E,,*27
$IIRMC,190000,A,4743.030,N,12224.852,W,02.3,309,200413,16,E,A*11
$IIVHW,,,,,02.3,N,,*18
$HCHDG,282.6,0.0,E,,*27
$IIVLW,06218,N,008.3,N*55
$GPRMC,190051.2,A,4743.03103,N,12224.85323,W,002.30,302.8,200413,016.6,E,D*2C
$PGRME,2.4,M,2.4,M,3.5,M*28
$YXXDR,A,5.6,D,PTCH,A,4.5,D,ROLL*5F
$PTAK,FFD1,4.5*54
$IIGLL,4743.030,N,12224.852,W,190000,A,A*45
$HCHDG,282.6,0.0,E,,*27
$IIMTW,+09.0,C*31
$HCHDG,282.6,0.0,E,,*27
$IIRMB,A,,,,Ttp ,,,,,035.9,133,,V,A*6B
$GPRMC,190051.4,A,4743.03113,N,12224.85338,W,002.30,304.4,200413,016.6,E,D*2B
$PGRME,2.4,M,2.4,M,3.5,M*28
$HCHDG,282.6,0.0,E,,*27
$HCHDG,282.5,0.0,E,,*24
$GPRMC,190051.6,A,4743.03122,N,12224.85344,W,002.30,305.8,200413,016.6,E,D*2D
$PGRME,2.4,M,2.4,M,3.5,M*28
$HCHDG,282.5,0.0,E,,*24
$YXXDR,A,5.4,D,PTCH,A,4.4,D,ROLL*5C
$HCHDG,282.4,0.0,E,,*25
$GPRMC,190051.8,A,4743.03132,N,12224.85352,W,002.29,303.1,200413,016.6,E,D*22
