$GPRMB,A,-31.69,L,,Ttp,4726.8700,N,12137.4300,W,34.7,131,-0.04,V*59
$PTAK,FFP1,HEEL,@*07
$PGRME,3.3,M,12.7,M,13.1,M*29
$GPRMC,040124.6,A,4741.19950,N,12224.25631,W,000.07,000.0,200413,016.6,E,A*26
$GPRMB,A,-31.69,L,,Ttp,4726.8700,N,12137.4300,W,34.7,131,-0.06,V*5B
$PTAK,FFP1,HEEL,@*07
$PGRME,3.3,M,12.2,M,12.7,M*2B
$GPRMC,040124.8,A,4741.19953,N,12224.25627,W,000.02,000.0,200413,016.6,E,A*29
$PGRME,3.2,M,11.8,M,12.2,M*26
$GPRMC,040125.0,A,4741.19954,N,12224.25630,W,000.02,000.0,200413,016.6,E,A*21
$PGRME,3.2,M,11.4,M,11.8,M*23
$GPRMC,040125.2,A,4741.19949,N,12224.25629,W,000.06,000.0,200413,016.6,E,A*23
$PGRME,3.1,M,11.0,M,11.4,M*28
$GPRMC,040125.4,A,4741.19938,N,12224.25630,W,000.03,000.0,200413,016.6,E,A*2E
$PGRME,3.1,M,10.6,M,11.1,M*2A
$GPRMC,040125.6,A,4741.19914,N,12224.25623,W,000.05,000.0,200413,016.6,E,A*26
$PGRME,3.0,M,10.1,M,10.6,M*2A
$GPRMC,040125.8,A,4741.19894,N,12224.25616,W,000.09,000.0,200413,016.6,E,A*2B
$PGRME,3.0,M,9.7,M,10.1,M*13
$GPRMC,040126.0,A,4741.19881,N,12224.25608,W,000.06,000.0,200413,016.6,E,A*24
$GPRMB,A,-31.69,L,,Ttp,4726.8700,N,12137.4300,W,34.7,131,-0.05,V*58
$PGRME,3.0,M,9.2,M,9.7,M*28
$GPRMC,040126.2,A,4741.19870,N,12224.25609,W,000.12,000.0,200413,016.6,E,A*2C
$PGRME,3.0,M,8.9,M,9.4,M*21
$GPRMC,040126.4,A,4741.19863,N,12224.25611,W,000.15,000.0,200413,016.6,E,A*26
$PGRME,3.0,M,8.5,M,9.0,M*29
$GPRMC,040126.6,A,4741.19827,N,12224.25625,W,000.19,000.0,200413,016.6,E,A*2F
$PGRME,3.0,M,8.0,M,8.6,M*2B
$GPRMC,040126.8,A,4741.19818,N,12224.25636,W,000.13,000.0,200413,016.6,E,A*25
$PGRME,3.0,M,7.6,M,8.2,M*26
$GPRMC,040127.0,A,4741.19790,N,12224.25645,W,000.11,000.0,200413,016.6,E,A*25
$PGRME,3.0,M,7.2,M,7.9,M*26
$GPRMC,040127.2,A,4741.19786,N,12224.25647,W,000.11,000.0,200413,016.6,E,A*22
$GPRMB,A,-31.69,L,,Ttp,4726.8700,N,12137.4300,W,34.7,131,-0.09,V*54
$PGRME,3.0,M,7.1,M,7.7,M*2B
$GPRMC,040127.4,A,4741.19780,N,12224.25647,W,000.05,000.0,200413,016.6,E,A*27
$PGRME,3.0,M,7.0,M,7.6,M*2B
$GPRMC,040127.6,A,4741.19775,N,12224.25648,W,000.06,000.0,200413,016.6,E,A*23
$PGRME,3.0,M,6.8,M,7.5,M*21
$GPRMC,040127.8,A,4741.19769,N,12224.25651,W,000.06,000.0,200413,016.6,E,A*28
$PGRME,3.0,M,6.7,M,7.3,M*28
$GPRMC,040128.0,A,4741.19771,N,12224.25650,W,000.02,000.0,200413,016.6,E,A*23
$PGRME,3.0,M,6.5,M,7.2,M*2B
$GPRMC,040128.2,A,4741.19767,N,12224.25647,W,000.07,000.0,200413,016.6,E,A*25
$GPRMB,A,-31.69,L,,Ttp,4726.8700,N,12137.4300,W,34.7,131,-0.06,V*5B
$PGRME,3.0,M,6.3,M,7.0,M*2F
$GPRMC,040128.4,A,4741.19758,N,12224.25644,W,000.05,000.0,200413,016.6,E,A*2E
$PGRME,3.0,M,6.2,M,6.9,M*26
$GPRMC,040128.6,A,4741.19753,N,12224.25640,W,000.02,000.0,200413,016.6,E,A*24
$PGRME,3.0,M,6.0,M,6.7,M*2A
$GPRMC,040128.8,A,4741.19748,N,12224.25638,W,000.08,000.0,200413,016.6,E,A*25
$PGRME,3.0,M,5.9,M,6.6,M*21
$GPRMC,040129.0,A,4741.19747,N,12224.25643,W,000.01,000.0,200413,016.6,E,A*26
$PTAK,FFP1,HEEL,@*07
$PGRME,3.0,M,5.7,M,6.5,M*2C
$GPRMC,040129.2,A,4741.19745,N,12224.25649,W,000.05,000.0,200413,016.6,E,A*28
$PGRME,3.0,M,5.5,M,6.3,M*28
$GPRMC,040129.4,A,4741.19741,N,12224.25652,W,000.03,000.0,200413,016.6,E,A*26
$GPRMB,A,-31.69,L,,Ttp,4726.8700,N,12137.4300,W,34.7,131,-0.03,V*5E
$PGRME,3.0,M,5.3,M,6.2,M*2F
$GPRMC,040129.6,A,4741.19742,N,12224.25659,W,000.04,000.0,200413,016.6,E,A*2B
$PGRME,3.0,M,5.2,M,6.0,M*2C
$GPRMC,040129.8,A,4741.19743,N,12224.25661,W,000.05,000.0,200413,016.6,E,A*2E
$PGRME,3.0,M,5.0,M,5.9,M*24
$GPRMC,040130.0,A,4741.19750,N,12224.25665,W,000.09,000.0,200413,016.6,E,A*24
$PGRME,3.0,M,4.9,M,5.8,M*2D
$GPRMC,040130.2,A,4741.19753,N,12224.25663,W,000.09,000.0,200413,016.6,E,A*23
$PGRME,3.0,M,4.7,M,5.6,M*2D
$GPRMC,040130.4,A,4741.19761,N,12224.25660,W,000.06,000.0,200413,016.6,E,A*28
$PGRME,3.0,M,4.5,M,5.5,M*2C
$GPRMC,040130.6,A,4741.19763,N,12224.25657,W,000.06,000.0,200413,016.6,E,A*2C
$GPRMB,A,-31.69,L,,Ttp,4726.8700,N,12137.4300,W,34.7,131,-0.05,V*58
$PGRME,3.0,M,4.5,M,5.4,M*2D
$GPRMC,040130.8,A,4741.19765,N,12224.25660,W,000.02,000.0,200413,016.6,E,A*24
$PGRME,3.0,M,4.4,M,5.4,M*2C
$GPRMC,040131.0,A,4741.19769,N,12224.25659,W,000.03,000.0,200413,016.6,E,A*2A
$PGRME,3.0,M,4.4,M,5.3,M*2B
$GPRMC,040131.2,A,4741.19772,N,12224.25657,W,000.03,000.0,200413,016.6,E,A*2C
$PGRME,3.0,M,4.3,M,5.3,M*2C
$GPRMC,040131.4,A,4741.19778,N,12224.25656,W,000.06,000.0,200413,016.6,E,A*24
$PGRME,3.0,M,4.3,M,5.2,M*2D
$GPRMC,040131.6,A,4741.19786,N,12224.25654,W,000.04,000.0,200413,016.6,E,A*27
$PGRME,3.0,M,4.2,M,5.2,M*2C
$GPRMC,040131.8,A,4741.19794,N,12224.25648,W,000.02,000.0,200413,016.6,E,A*21
$GPRMB,A,-31.69,L,,Ttp,4726.8700,N,12137.4300,W,34.7,131,-0.02,V*5F
$PGRME,3.0,M,4.2,M,5.2,M*2C
$GPRMC,040132.0,A,4741.19810,N,12224.25648,W,000.03,000.0,200413,016.6,E,A*28
$PGRME,3.0,M,4.1,M,5.1,M*2C
$GPRMC,040132.2,A,4741.19807,N,12224.25646,W,000.02,000.0,200413,016.6,E,A*23
$PGRME,3.0,M,4.0,M,5.0,M*2C
$GPRMC,040132.4,A,4741.19805,N,12224.25640,W,000.01,000.0,200413,016.6,E,A*22
$PGRME,3.0,M,4.0,M,5.0,M*2C
$GPRMC,040132.6,A,4741.19803,N,12224.25635,W,000.04,000.0,200413,016.6,E,A*21
$PGRME,3.0,M,3.9,M,5.0,M*22
$GPRMC,040132.8,A,4741.19801,N,12224.25630,W,000.03,000.0,200413,016.6,E,A*2F
$GPRMB,A,-31.69,L,,Ttp,4726.8700,N,12137.4300,W,34.7,131,-0.03,V*5E
$PGRME,3.0,M,3.8,M,4.9,M*2B
$GPRMC,040133.0,A,4741.19802,N,12224.25627,W,000.05,000.0,200413,016.6,E,A*25
$PTAK,FFP1,HEEL,@*07
$PGRME,3.0,M,3.8,M,4.8,M*2A
$GPRMC,040133.2,A,4741.19799,N,12224.25620,W,000.06,000.0,200413,016.6,E,A*2E
$PGRME,3.0,M,3.7,M,4.8,M*25
$GPRMC,040133.4,A,4741.19802,N,12224.25612,W,000.08,000.0,200413,016.6,E,A*2A
$PGRME,3.0,M,3.6,M,4.7,M*2B
$GPRMC,040133.6,A,4741.19803,N,12224.25608,W,000.05,000.0,200413,016.6,E,A*2F
$PGRME,3.0,M,3.5,M,4.7,M*28
$GPRMC,040133.8,A,4741.19799,N,12224.25611,W,000.05,000.0,200413,016.6,E,A*25
$GPRMB,A,-31.69,L,,Ttp,4726.8700,N,12137.4300,W,34.7,131,-0.04,V*59
$PGRME,3.0,M,3.5,M,4.6,M*29
$GPRMC,040134.0,A,4741.19795,N,12224.25606,W,000.04,000.0,200413,016.6,E,A*21
$PGRME,3.0,M,3.4,M,4.6,M*28
$GPRMC,040134.2,A,4741.19793,N,12224.25602,W,000.03,000.0,200413,016.6,E,A*26
$PGRME,3.0,M,3.3,M,4.5,M*2C
$GPRMC,040134.4,A,4741.19787,N,12224.25602,W,000.04,000.0,200413,016.6,E,A*22
$PGRME,3.0,M,3.3,M,4.5,M*2C
$GPRMC,040134.6,A,4741.19784,N,12224.25599,W,000.03,000.0,200413,016.6,E,A*25
$PGRME,3.0,M,3.2,M,4.4,M*2C
$GPRMC,040134.8,A,4741.19783,N,12224.25598,W,000.04,000.0,200413,016.6,E,A*2A
$GPRMB,A,-31.69,L,,Ttp,4726.8700,N,12137.4300,W,34.7,131,-0.03,V*5E
$PGRME,3.0,M,3.1,M,4.4,M*2F
$GPRMC,040135.0,A,4741.19774,N,12224.25593,W,000.00,000.0,200413,016.6,E,A*24
$PGRME,3.0,M,3.1,M,4.3,M*28
$GPRMC,040135.2,A,4741.19770,N,12224.25582,W,000.03,000.0,200413,016.6,E,A*21
$PGRME,3.0,M,3.0,M,4.3,M*29
$GPRMC,040135.4,A,4741.19766,N,12224.25574,W,000.05,000.0,200413,016.6,E,A*2F
$PGRME,3.0,M,3.0,M,4.3,M*29
$GPRMC,040135.6,A,4741.19765,N,12224.25566,W,000.04,000.0,200413,016.6,E,A*2C
$PGRME,3.0,M,3.0,M,4.3,M*29
$GPRMC,040135.8,A,4741.19763,N,12224.25560,W,000.05,000.0,200413,016.6,E,A*23
$GPRMB,A,-31.69,L,,Ttp,4726.8700,N,12137.4300,W,34.7,131,-0.04,V*59
$PGRME,3.0,M,3.0,M,4.3,M*29
$GPRMC,040136.0,A,4741.19763,N,12224.25556,W,000.05,000.0,200413,016.6,E,A*2D
$PGRME,3.0,M,3.0,M,4.3,M*29
$GPRMC,040136.2,A,4741.19763,N,12224.25556,W,000.04,000.0,200413,016.6,E,A*2E
$PGRME,3.0,M,3.0,M,4.3,M*29
$GPRMC,040136.4,A,4741.19762,N,12224.25549,W,000.06,000.0,200413,016.6,E,A*25
$PGRME,3.0,M,3.0,M,4.3,M*29
$GPRMC,040136.6,A,4741.19763,N,12224.25545,W,000.06,000.0,200413,016.6,E,A*2A
$PGRME,3.0,M,3.0,M,4.3,M*29
$GPRMC,040136.8,A,4741.19760,N,12224.25540,W,000.02,000.0,200413,016.6,E,A*26
$GPRMB,A,-31.69,L,,Ttp,4726.8700,N,12137.4300,W,34.7,131,-0.02,V*5F
$PGRME,3.0,M,3.0,M,4.3,M*29
$GPRMC,040137.0,A,4741.19755,N,12224.25537,W,000.06,000.0,200413,016.6,E,A*2D
$PTAK,FFP1,HEEL,@*07
$PGRME,3.0,M,3.0,M,4.3,M*29
$GPRMC,040137.2,A,4741.19754,N,12224.25540,W,000.04,000.0,200413,016.6,E,A*2C
$PGRME,3.0,M,3.0,M,4.3,M*29
$GPRMC,040137.4,A,4741.19754,N,12224.25541,W,000.06,000.0,200413,016.6,E,A*29
$PGRME,3.0,M,3.0,M,4.3,M*29
$GPRMC,040137.6,A,4741.19757,N,12224.25544,W,000.02,000.0,200413,016.6,E,A*29
$PGRME,3.0,M,3.0,M,4.3,M*29
$GPRMC,040137.8,A,4741.19753,N,12224.25549,W,000.05,000.0,200413,016.6,E,A*29
$GPRMB,A,-31.69,L,,Ttp,4726.8700,N,12137.4300,W,34.7,131,-0.04,V*59
$PGRME,3.0,M,3.0,M,4.3,M*29
$GPRMC,040138.0,A,4741.19762,N,12224.25551,W,000.01,000.0,200413,016.6,E,A*21
$PGRME,3.0,M,3.0,M,4.3,M*29
$GPRMC,040138.2,A,4741.19757,N,12224.25558,W,000.02,000.0,200413,016.6,E,A*2F
$PGRME,3.0,M,3.0,M,4.3,M*29
$GPRMC,040138.4,A,4741.19759,N,12224.25558,W,000.02,000.0,200413,016.6,E,A*27
$PGRME,3.0,M,3.0,M,4.3,M*29
$GPRMC,040138.6,A,4741.19761,N,12224.25558,W,000.04,000.0,200413,016.6,E,A*28
$PGRME,3.0,M,3.0,M,4.3,M*29
$GPRMC,040138.8,A,4741.19765,N,12224.25559,W,000.03,000.0,200413,016.6,E,A*24
$PGRME,3.0,M,3.0,M,4.3,M*29
$GPRMC,040139.0,A,4741.19766,N,12224.25564,W,000.06,000.0,200413,016.6,E,A*25
$GPRMB,A,-31.69,L,,Ttp,4726.8700,N,12137.4300,W,34.7,131,-0.05,V*58
$PGRME,3.0,M,3.0,M,4.3,M*29
$GPRMC,040139.2,A,4741.19770,N,12224.25569,W,000.03,000.0,200413,016.6,E,A*28
$PGRME,3.0,M,3.0,M,4.3,M*29
$GPRMC,040139.4,A,4741.19774,N,12224.25571,W,000.05,000.0,200413,016.6,E,A*25
$PGRME,3.0,M,3.0,M,4.3,M*29
$GPRMC,040139.6,A,4741.19777,N,12224.25578,W,000.04,000.0,200413,016.6,E,A*2C
$PGRME,3.0,M,3.0,M,4.3,M*29
$GPRMC,040139.8,A,4741.19782,N,12224.25584,W,000.04,000.0,200413,016.6,E,A*2B
$PGRME,3.0,M,3.0,M,4.3,M*29
$GPRMC,040140.0,A,4741.19781,N,12224.25590,W,000.01,000.0,200413,016.6,E,A*2E
$PGRME,3.0,M,3.0,M,4.3,M*29
$GPRMC,040140.2,A,4741.19782,N,12224.25600,W,000.06,000.0,200413,016.6,E,A*22
$GPRMB,A,-31.69,L,,Ttp,4726.8700,N,12137.4300,W,34.7,131,-0.05,V*58
$PGRME,3.0,M,3.0,M,4.3,M*29
$GPRMC,040140.4,A,4741.19780,N,12224.25603,W,000.01,000.0,200413,016.6,E,A*22
$PGRME,3.0,M,3.0,M,4.3,M*29
$GPRMC,040140.6,A,4741.19779,N,12224.25607,W,000.02,000.0,200413,016.6,E,A*21
$PGRME,3.0,M,3.0,M,4.3,M*29
$GPRMC,040140.8,A,4741.19781,N,12224.25606,W,000.04,000.0,200413,016.6,E,A*2F
$PGRME,3.0,M,3.0,M,4.3,M*29
$GPRMC,040141.0,A,4741.19782,N,12224.25605,W,000.02,000.0,200413,016.6,E,A*20
$PGRME,3.0,M,3.0,M,4.3,M*29
$GPRMC,040141.2,A,4741.19779,N,12224.25602,W,000.04,000.0,200413,016.6,E,A*27
$GPRMB,A,-31.69,L,,Ttp,4726.8700,N,12137.4300,W,34.7,131,-0.03,V*5E
$PTAK,FFP1,HEEL,@*07
$PGRME,3.0,M,3.0,M,4.3,M*29
$GPRMC,040141.4,A,4741.19778,N,12224.25606,W,000.03,000.0,200413,016.6,E,A*23
$PGRME,3.0,M,3.0,M,4.3,M*29
$GPRMC,040141.6,A,4741.19774,N,12224.25607,W,000.02,000.0,200413,016.6,E,A*2D
$PGRME,3.0,M,3.0,M,4.3,M*29
$GPRMC,040141.8,A,4741.19772,N,12224.25609,W,000.06,000.0,200413,016.6,E,A*2F
$PGRME,3.0,M,3.0,M,4.3,M*29
$GPRMC,040142.0,A,4741.19774,N,12224.25612,W,000.02,000.0,200413,016.6,E,A*2C
$PGRME,3.0,M,3.0,M,4.3,M*29
$GPRMC,040142.2,A,4741.19778,N,12224.25619,W,000.04,000.0,200413,016.6,E,A*2F
$PGRME,3.0,M,3.0,M,4.3,M*29
$GPRMC,040142.4,A,4741.19780,N,12224.25620,W,000.02,000.0,200413,016.6,E,A*22
$PGRME,3.0,M,3.0,M,4.3,M*29
$GPRMC,040142.6,A,4741.19780,N,12224.25621,W,000.04,000.0,200413,016.6,E,A*27
$PGRME,3.0,M,3.0,M,4.3,M*29
$GPRMC,040142.8,A,4741.19783,N,12224.25620,W,000.05,000.0,200413,016.6,E,A*2A
$GPRMB,A,-31.69,L,,Ttp,4726.8700,N,12137.4300,W,34.7,131,-0.04,V*59
$PGRME,3.0,M,3.0,M,4.3,M*29
$GPRMC,040143.0,A,4741.19789,N,12224.25621,W,000.06,000.0,200413,016.6,E,A*2B
$PGRME,3.0,M,3.0,M,4.3,M*29
$GPRMC,040143.2,A,4741.19790,N,12224.25621,W,000.04,000.0,200413,016.6,E,A*23
$PGRME,3.0,M,3.0,M,4.3,M*29
$GPRMC,040143.4,A,4741.19786,N,12224.25620,W,000.03,000.0,200413,016.6,E,A*24
$PGRME,3.0,M,3.0,M,4.3,M*29
$GPRMC,040143.6,A,4741.19783,N,12224.25620,W,000.05,000.0,200413,016.6,E,A*25
$PGRME,3.0,M,3.0,M,4.3,M*29
$GPRMC,040143.8,A,4741.19781,N,12224.25624,W,000.04,000.0,200413,016.6,E,A*2C
$PGRME,3.0,M,3.0,M,4.3,M*29
$GPRMC,040144.0,A,4741.19779,N,12224.25626,W,000.02,000.0,200413,016.6,E,A*20
$GPRMB,A,-31.69,L,,Ttp,4726.8700,N,12137.4300,W,34.7,131,-0.02,V*5F
$PGRME,3.0,M,3.0,M,4.3,M*29
$PGRMT,GPS 18x-5Hz software ver. 3.20,,,,,,,,*30
$GPRMC,040144.2,A,4741.19774,N,12224.25626,W,000.06,000.0,200413,016.6,E,A*2B
$PGRME,3.0,M,3.0,M,4.3,M*29
$GPRMC,040144.4,A,4741.19778,N,12224.25627,W,000.02,000.0,200413,016.6,E,A*24
$PGRME,3.0,M,3.0,M,4.3,M*29
$GPRMC,040144.6,A,4741.19776,N,12224.25623,W,000.04,000.0,200413,016.6,E,A*2A
$PGRME,3.0,M,3.0,M,4.3,M*29
$GPRMC,040144.8,A,4741.19779,N,12224.25621,W,000.02,000.0,200413,016.6,E,A*2F
$PGRME,3.0,M,3.0,M,4.3,M*29
$GPRMC,040145.0,A,4741.19783,N,12224.25622,W,000.02,000.0,200413,016.6,E,A*20
$GPRMB,A,-31.69,L,,Ttp,4726.8700,N,12137.4300,W,34.7,131,-0.02,V*5F
$PGRME,3.0,M,3.0,M,4.3,M*29
$GPRMC,040145.2,A,4741.19784,N,12224.25620,W,000.03,000.0,200413,016.6,E,A*26
$PGRME,3.0,M,3.0,M,4.3,M*29
$GPRMC,040145.4,A,4741.19784,N,12224.25624,W,000.03,000.0,200413,016.6,E,A*24
$PGRME,3.0,M,3.0,M,4.3,M*29
$GPRMC,040145.6,A,4741.19788,N,12224.25626,W,000.03,000.0,200413,016.6,E,A*28
$PGRME,3.0,M,3.0,M,4.3,M*29
$GPRMC,040145.8,A,4741.19786,N,12224.25624,W,000.02,000.0,200413,016.6,E,A*2B
$PTAK,FFP1,HEEL,@*07
$PGRME,3.0,M,3.0,M,4.3,M*29
$GPRMC,040146.0,A,4741.19787,N,12224.25626,W,000.03,000.0,200413,016.6,E,A*22
$GPRMB,A,-31.69,L,,Ttp,4726.8700,N,12137.4300,W,34.7,131,-0.03,V*5E
$PGRME,3.0,M,3.0,M,4.3,M*29
$GPRMC,040146.2,A,4741.19789,N,12224.25628,W,000.02,000.0,200413,016.6,E,A*21
$PGRME,3.0,M,3.0,M,4.3,M*29
$GPRMC,040146.4,A,4741.19791,N,12224.25628,W,000.03,000.0,200413,016.6,E,A*2F
$PGRME,3.0,M,3.0,M,4.3,M*29
$GPRMC,040146.6,A,4741.19794,N,12224.25630,W,000.01,000.0,200413,016.6,E,A*23
$PGRME,3.0,M,3.0,M,4.3,M*29
$GPRMC,040146.8,A,4741.19800,N,12224.25633,W,000.03,000.0,200413,016.6,E,A*2E
$PGRME,3.0,M,3.0,M,4.3,M*29
$GPRMC,040147.0,A,4741.19804,N,12224.25638,W,000.03,000.0,200413,016.6,E,A*28
$GPRMB,A,-31.69,L,,Ttp,4726.8700,N,12137.4300,W,34.7,131,-0.03,V*5E
$PGRME,3.0,M,3.0,M,4.3,M*29
$GPRMC,040147.2,A,4741.19809,N,12224.25642,W,000.05,000.0,200413,016.6,E,A*2C
$PGRME,3.0,M,3.0,M,4.3,M*29
$GPRMC,040147.4,A,4741.19812,N,12224.25645,W,000.02,000.0,200413,016.6,E,A*20
$PGRME,3.0,M,3.0,M,4.3,M*29
$GPRMC,040147.6,A,4741.19810,N,12224.25646,W,000.02,000.0,200413,016.6,E,A*23
$PGRME,3.0,M,3.0,M,4.3,M*29
$GPRMC,040147.8,A,4741.19812,N,12224.25649,W,000.04,000.0,200413,016.6,E,A*26
$PGRME,3.0,M,3.0,M,4.3,M*29
$GPRMC,040148.0,A,4741.19809,N,12224.25648,W,000.03,000.0,200413,016.6,E,A*2D
$PGRME,3.0,M,3.0,M,4.3,M*29
$GPRMC,040148.2,A,4741.19808,N,12224.25644,W,000.05,000.0,200413,016.6,E,A*24
$GPRMB,A,-31.69,L,,Ttp,4726.8700,N,12137.4300,W,34.7,131,-0.04,V*59
$PGRME,3.0,M,3.0,M,4.3,M*29
$GPRMC,040148.4,A,4741.19809,N,12224.25640,W,000.01,000.0,200413,016.6,E,A*23
$PGRME,3.0,M,3.0,M,4.3,M*29
$GPRMC,040148.6,A,4741.19813,N,12224.25638,W,000.07,000.0,200413,016.6,E,A*23
$PGRME,3.0,M,3.0,M,4.3,M*29
$GPRMC,040148.8,A,4741.19819,N,12224.25632,W,000.03,000.0,200413,016.6,E,A*29
$PGRME,3.0,M,3.0,M,4.3,M*29
$GPRMC,040149.0,A,4741.19824,N,12224.25630,W,000.02,000.0,200413,016.6,E,A*2D
$PGRME,3.0,M,3.0,M,4.3,M*29
$GPRMC,040149.2,A,4741.19826,N,12224.25629,W,000.04,000.0,200413,016.6,E,A*23
$GPRMB,A,-31.69,L,,Ttp,4726.8700,N,12137.4300,W,34.7,131,-0.03,V*5E
$PGRME,3.0,M,3.0,M,4.3,M*29
$GPRMC,040149.4,A,4741.19823,N,12224.25630,W,000.02,000.0,200413,016.6,E,A*2E
$PGRME,3.0,M,3.0,M,4.3,M*29
$GPRMC,040149.6,A,4741.19828,N,12224.25633,W,000.02,000.0,200413,016.6,E,A*24
$PGRME,3.0,M,3.0,M,4.3,M*29
$GPRMC,040149.8,A,4741.19829,N,12224.25632,W,000.02,000.0,200413,016.6,E,A*2A
$PTAK,FFP1,HEEL,@*07
$PGRME,3.0,M,3.0,M,4.3,M*29
$GPRMC,040150.0,A,4741.19831,N,12224.25630,W,000.04,000.0,200413,016.6,E,A*27
$PGRME,3.0,M,3.0,M,4.3,M*29
$GPRMC,040150.2,A,4741.19835,N,12224.25630,W,000.01,000.0,200413,016.6,E,A*24
$GPRMB,A,-31.69,L,,Ttp,4726.8700,N,12137.4300,W,34.7,131,-0.01,V*5C
$PGRME,3.0,M,3.0,M,4.3,M*29
$GPRMC,040150.4,A,4741.19840,N,12224.25631,W,000.02,000.0,200413,016.6,E,A*22
$PGRME,3.0,M,3.0,M,4.3,M*29
$GPRMC,040150.6,A,4741.19844,N,12224.25631,W,000.05,000.0,200413,016.6,E,A*23
$PGRME,3.0,M,3.0,M,4.3,M*29
$GPRMC,040150.8,A,4741.19848,N,12224.25630,W,000.04,000.0,200413,016.6,E,A*21
$PGRME,3.0,M,3.0,M,4.3,M*29
$GPRMC,040151.0,A,4741.19855,N,12224.25629,W,000.05,000.0,200413,016.6,E,A*2D
$PGRME,3.0,M,3.0,M,4.3,M*29
$GPRMC,040151.2,A,4741.19860,N,12224.25635,W,000.04,000.0,200413,016.6,E,A*25
$GPRMB,A,-31.69,L,,Ttp,4726.8700,N,12137.4300,W,34.7,131,-0.03,V*5E
$PGRME,3.0,M,3.0,M,4.3,M*29
$GPRMC,040151.4,A,4741.19864,N,12224.25639,W,000.04,000.0,200413,016.6,E,A*2B
$PGRME,3.0,M,3.0,M,4.3,M*29
$GPRMC,040151.6,A,4741.19868,N,12224.25642,W,000.05,000.0,200413,016.6,E,A*28
$PGRME,3.0,M,3.0,M,4.3,M*29
$GPRMC,040151.8,A,4741.19875,N,12224.25643,W,000.04,000.0,200413,016.6,E,A*2A
$PGRME,3.0,M,3.0,M,4.3,M*29
$GPRMC,040152.0,A,4741.19878,N,12224.25645,W,000.03,000.0,200413,016.6,E,A*2D
$PGRME,3.0,M,3.0,M,4.3,M*29
$GPRMC,040152.2,A,4741.19884,N,12224.25653,W,000.03,000.0,200413,016.6,E,A*2B
$PGRME,3.0,M,3.0,M,4.3,M*29
$GPRMC,040152.4,A,4741.19887,N,12224.25655,W,000.03,000.0,200413,016.6,E,A*28
$GPRMB,A,-31.69,L,,Ttp,4726.8700,N,12137.4300,W,34.7,131,-0.03,V*5E
$PGRME,3.0,M,3.0,M,4.3,M*29
$GPRMC,040152.6,A,4741.19887,N,12224.25656,W,000.03,000.0,200413,016.6,E,A*29
$PGRME,3.0,M,3.0,M,4.3,M*29
$GPRMC,040152.8,A,4741.19891,N,12224.25658,W,000.03,000.0,200413,016.6,E,A*2E
$PGRME,3.0,M,3.0,M,4.3,M*29
$GPRMC,040153.0,A,4741.19893,N,12224.25662,W,000.03,000.0,200413,016.6,E,A*2C
$PGRME,3.0,M,3.0,M,4.3,M*29
$GPRMC,040153.2,A,4741.19894,N,12224.25665,W,000.04,000.0,200413,016.6,E,A*29
$PGRME,3.0,M,3.0,M,4.3,M*29
$GPRMC,040153.4,A,4741.19896,N,12224.25670,W,000.04,000.0,200413,016.6,E,A*29
$PGRME,3.0,M,3.0,M,4.3,M*29
$GPRMC,040153.6,A,4741.19895,N,12224.25675,W,000.05,000.0,200413,016.6,E,A*2C
$GPRMB,A,-31.69,L,,Ttp,4726.8700,N,12137.4300,W,34.7,131,-0.04,V*59
$PGRME,3.0,M,3.0,M,4.3,M*29
$GPRMC,040153.8,A,4741.19896,N,12224.25685,W,000.04,000.0,200413,016.6,E,A*2F
$PTAK,FFP1,HEEL,@*07
$PGRME,3.0,M,3.0,M,4.3,M*29
$GPRMC,040154.0,A,4741.19896,N,12224.25686,W,000.02,000.0,200413,016.6,E,A*25
$PGRME,3.0,M,3.0,M,4.3,M*29
$GPRMC,040154.2,A,4741.19896,N,12224.25687,W,000.00,000.0,200413,016.6,E,A*24
$PGRME,3.0,M,3.0,M,4.3,M*29
$GPRMC,040154.4,A,4741.19896,N,12224.25687,W,000.09,000.0,200413,016.6,E,A*2B
$PGRME,3.0,M,3.0,M,4.3,M*29
$GPRMC,040154.6,A,4741.19896,N,12224.25686,W,000.01,000.0,200413,016.6,E,A*20
$PGRME,3.0,M,3.0,M,4.3,M*29
$GPRMC,040154.8,A,4741.19897,N,12224.25686,W,000.10,000.0,200413,016.6,E,A*2F
$GPRMB,A,-31.69,L,,Ttp,4726.8700,N,12137.4300,W,34.7,131,-0.08,V*55
$PGRME,3.0,M,3.0,M,4.3,M*29
$GPRMC,040155.0,A,4741.19897,N,12224.25685,W,000.03,000.0,200413,016.6,E,A*27
$PGRME,3.0,M,3.0,M,4.3,M*29
$GPRMC,040155.2,A,4741.19897,N,12224.25685,W,000.07,000.0,200413,016.6,E,A*21
$PGRME,3.0,M,3.0,M,4.3,M*29
$GPRMC,040155.4,A,4741.19897,N,12224.25685,W,000.02,000.0,200413,016.6,E,A*22
$PGRME,3.0,M,3.0,M,4.3,M*29
$GPRMC,040155.6,A,4741.19897,N,12224.25685,W,000.04,000.0,200413,016.6,E,A*26
$PGRME,3.0,M,3.0,M,4.3,M*29
$GPRMC,040155.8,A,4741.19897,N,12224.25685,W,000.04,000.0,200413,016.6,E,A*28
$GPRMB,A,-31.69,L,,Ttp,4726.8700,N,12137.4300,W,34.7,131,-0.03,V*5E
$PGRME,3.0,M,3.0,M,4.3,M*29
$GPRMC,040156.0,A,4741.19897,N,12224.25685,W,000.06,000.0,200413,016.6,E,A*21
$PGRME,3.0,M,3.0,M,4.3,M*29
$GPRMC,040156.2,A,4741.19898,N,12224.25685,W,000.03,000.0,200413,016.6,E,A*29
$PGRME,3.0,M,3.0,M,4.3,M*29
$GPRMC,040156.4,A,4741.19898,N,12224.25684,W,000.03,000.0,200413,016.6,E,A*2E
$PGRME,3.0,M,3.0,M,4.3,M*29
$GPRMC,040156.6,A,4741.19898,N,12224.25684,W,000.02,000.0,200413,016.6,E,A*2D
$PGRME,3.0,M,3.0,M,4.3,M*29
$GPRMC,040156.8,A,4741.19898,N,12224.25684,W,000.05,000.0,200413,016.6,E,A*24
$PGRME,3.0,M,3.0,M,4.3,M*29
$GPRMC,040157.0,A,4741.19898,N,12224.25684,W,000.03,000.0,200413,016.6,E,A*2B
$GPRMB,A,-31.69,L,,Ttp,4726.8700,N,12137.4300,W,34.7,131,-0.03,V*5E
$PGRME,3.0,M,3.0,M,4.3,M*29
$GPRMC,040157.2,A,4741.19898,N,12224.25684,W,000.01,000.0,200413,016.6,E,A*2B
$PGRME,3.0,M,3.0,M,4.3,M*29
$GPRMC,040157.4,A,4741.19898,N,12224.25683,W,000.05,000.0,200413,016.6,E,A*2E
$PGRME,3.0,M,3.0,M,4.3,M*29
$GPRMC,040157.6,A,4741.19898,N,12224.25683,W,000.01,000.0,200413,016.6,E,A*28
$PGRME,3.0,M,3.0,M,4.3,M*29
$GPRMC,040157.8,A,4741.19898,N,12224.25683,W,000.02,000.0,200413,016.6,E,A*25
$PGRME,3.0,M,3.0,M,4.3,M*29
$GPRMC,040158.0,A,4741.19898,N,12224.25683,W,000.03,000.0,200413,016.6,E,A*23
$PTAK,FFP1,HEEL,@*07
$PGRME,3.0,M,3.0,M,4.3,M*29
$GPRMC,040158.2,A,4741.19898,N,12224.25683,W,000.02,000.0,200413,016.6,E,A*20
$GPRMB,A,-31.69,L,,Ttp,4726.8700,N,12137.4300,W,34.7,131,-0.02,V*5F
$PGRME,3.0,M,3.0,M,4.3,M*29
$GPRMC,040158.4,A,4741.19898,N,12224.25683,W,000.05,000.0,200413,016.6,E,A*21
$PGRME,3.0,M,3.0,M,4.3,M*29
$GPRMC,040158.6,A,4741.19898,N,12224.25683,W,000.05,000.0,200413,016.6,E,A*23
$PGRME,3.0,M,3.0,M,4.3,M*29
$GPRMC,040158.8,A,4741.19898,N,12224.25683,W,000.08,000.0,200413,016.6,E,A*20
$PGRME,3.0,M,3.0,M,4.3,M*29
$GPRMC,040159.0,A,4741.19898,N,12224.25683,W,000.04,000.0,200413,016.6,E,A*25
$PGRME,3.0,M,3.0,M,4.3,M*29
$GPRMC,040159.2,A,4741.19898,N,12224.25683,W,000.05,000.0,200413,016.6,E,A*26
$GPRMB,A,-31.69,L,,Ttp,4726.8700,N,12137.4300,W,34.7,131,-0.04,V*59
$PGRME,3.0,M,3.0,M,4.3,M*29
$GPRMC,040159.4,A,4741.19897,N,12224.25682,W,000.14,000.0,200413,016.6,E,A*2E
$PGRME,3.0,M,3.0,M,4.3,M*29
$GPRMC,040159.6,A,4741.19897,N,12224.25682,W,000.07,000.0,200413,016.6,E,A*2E
$PGRME,3.0,M,3.0,M,4.3,M*29
$GPRMC,040159.8,A,4741.19896,N,12224.25681,W,000.06,000.0,200413,016.6,E,A*23
$PGRME,3.0,M,3.0,M,4.3,M*29
$GPRMC,040200.0,A,4741.19896,N,12224.25681,W,000.04,000.0,200413,016.6,E,A*26
$PGRME,3.0,M,3.0,M,4.3,M*29
$GPRMC,040200.2,A,4741.19896,N,12224.25681,W,000.05,000.0,200413,016.6,E,A*25
$PGRME,3.0,M,3.0,M,4.3,M*29
$GPRMC,040200.4,A,4741.19896,N,12224.25680,W,000.05,000.0,200413,016.6,E,A*22
$GPRMB,A,-31.69,L,,Ttp,4726.8700,N,12137.4300,W,34.7,131,-0.04,V*59
$PGRME,3.0,M,3.0,M,4.3,M*29
$GPRMC,040200.6,A,4741.19896,N,12224.25680,W,000.03,000.0,200413,016.6,E,A*26
$PGRME,3.0,M,3.0,M,4.3,M*29
$GPRMC,040200.8,A,4741.19896,N,12224.25680,W,000.02,000.0,200413,016.6,E,A*29
$PGRME,3.0,M,3.0,M,4.3,M*29
$GPRMC,040201.0,A,4741.19896,N,12224.25680,W,000.09,000.0,200413,016.6,E,A*2B
$PGRME,3.0,M,3.0,M,4.3,M*29
$GPRMC,040201.2,A,4741.19896,N,12224.25679,W,000.07,000.0,200413,016.6,E,A*21
$PGRME,3.0,M,3.0,M,4.3,M*29
$GPRMC,040201.4,A,4741.19897,N,12224.25679,W,000.04,000.0,200413,016.6,E,A*25
$PGRME,3.0,M,3.0,M,4.3,M*29
$GPRMC,040201.6,A,4741.19897,N,12224.25679,W,000.03,000.0,200413,016.6,E,A*20
$GPRMB,A,-31.69,L,,Ttp,4726.8700,N,12137.4300,W,34.7,131,-0.03,V*5E
$PGRME,3.0,M,3.0,M,4.3,M*29
$GPRMC,040201.8,A,4741.19897,N,12224.25678,W,000.01,000.0,200413,016.6,E,A*2D
$PGRME,3.0,M,3.0,M,4.3,M*29
$GPRMC,040202.0,A,4741.19897,N,12224.25679,W,000.14,000.0,200413,016.6,E,A*23
$PGRME,3.0,M,3.0,M,4.3,M*29
$GPRMC,040202.2,A,4741.19896,N,12224.25678,W,000.08,000.0,200413,016.6,E,A*2C
$PTAK,FFP1,HEEL,@*07
$PGRME,3.0,M,3.0,M,4.3,M*29
$GPRMC,040202.4,A,4741.19896,N,12224.25678,W,000.15,000.0,200413,016.6,E,A*26
$PGRME,3.0,M,3.0,M,4.3,M*29
$GPRMC,040202.6,A,4741.19895,N,12224.25678,W,000.15,000.0,200413,016.6,E,A*27
$GPRMB,A,-31.69,L,,Ttp,4726.8700,N,12137.4300,W,34.7,131,-0.13,V*5F
$PGRME,3.0,M,3.0,M,4.3,M*29
$GPRMC,040202.8,A,4741.19895,N,12224.25678,W,000.03,000.0,200413,016.6,E,A*2E
$PGRME,3.0,M,3.0,M,4.3,M*29
$GPRMC,040203.0,A,4741.19895,N,12224.25678,W,000.02,000.0,200413,016.6,E,A*26
$PGRME,3.0,M,3.0,M,4.3,M*29
$GPRMC,040203.2,A,4741.19895,N,12224.25678,W,000.02,000.0,200413,016.6,E,A*24
$PGRME,3.0,M,3.0,M,4.3,M*29
$GPRMC,040203.4,A,4741.19895,N,12224.25678,W,000.02,000.0,200413,016.6,E,A*22
$PGRME,3.0,M,3.0,M,4.3,M*29
$GPRMC,040203.6,A,4741.19895,N,12224.25678,W,000.01,000.0,200413,016.6,E,A*23
$PGRME,3.0,M,3.0,M,4.3,M*29
$GPRMC,040203.8,A,4741.19895,N,12224.25678,W,000.02,000.0,200413,016.6,E,A*2E
$GPRMB,A,-31.69,L,,Ttp,4726.8700,N,12137.4300,W,34.7,131,-0.02,V*5F
$PGRME,3.0,M,3.0,M,4.3,M*29
$GPRMC,040204.0,A,4741.19895,N,12224.25678,W,000.02,000.0,200413,016.6,E,A*21
$PGRME,3.0,M,3.0,M,4.3,M*29
$GPRMC,040204.2,A,4741.19895,N,12224.25678,W,000.02,000.0,200413,016.6,E,A*23
$PGRME,3.0,M,3.0,M,4.3,M*29
$GPRMC,040204.4,A,4741.19895,N,12224.25678,W,000.00,000.0,200413,016.6,E,A*27
$PGRME,3.0,M,3.0,M,4.3,M*29
$GPRMC,040204.6,A,4741.19895,N,12224.25678,W,000.00,000.0,200413,016.6,E,A*25
$PGRME,3.0,M,3.0,M,4.3,M*29
$GPRMC,040204.8,A,4741.19895,N,12224.25678,W,000.01,000.0,200413,016.6,E,A*2A
$PGRME,3.0,M,3.0,M,4.3,M*29
$GPRMC,040205.0,A,4741.19895,N,12224.25678,W,000.01,000.0,200413,016.6,E,A*23
$GPRMB,A,-31.69,L,,Ttp,4726.8700,N,12137.4300,W,34.7,131,-0.01,V*5C
$PGRME,3.0,M,3.0,M,4.3,M*29
$GPRMC,040205.2,A,4741.19895,N,12224.25678,W,000.00,000.0,200413,016.6,E,A*20
$PGRME,3.0,M,3.0,M,4.3,M*29
$GPRMC,040205.4,A,4741.19895,N,12224.25678,W,000.01,000.0,200413,016.6,E,A*27
$PGRME,3.0,M,3.0,M,4.3,M*29
$GPRMC,040205.6,A,4741.19895,N,12224.25678,W,000.00,000.0,200413,016.6,E,A*24
$PGRME,3.0,M,3.0,M,4.3,M*29
$GPRMC,040205.8,A,4741.19895,N,12224.25678,W,000.01,000.0,200413,016.6,E,A*2B
$PGRME,3.0,M,3.0,M,4.3,M*29
$GPRMC,040206.0,A,4741.19895,N,12224.25678,W,000.01,000.0,200413,016.6,E,A*20
$GPRMB,A,-31.69,L,,Ttp,4726.8700,N,12137.4300,W,34.7,131,-0.01,V*5C
$PGRME,3.0,M,3.0,M,4.3,M*29
$GPRMC,040206.2,A,4741.19895,N,12224.25678,W,000.01,000.0,200413,016.6,E,A*22
$PTAK,FFP1,HEEL,@*07
$PGRME,3.0,M,3.0,M,4.3,M*29
$GPRMC,040206.4,A,4741.19895,N,12224.25678,W,000.01,000.0,200413,016.6,E,A*24
$PGRME,3.0,M,3.0,M,4.3,M*29
$GPRMC,040206.6,A,4741.19895,N,12224.25678,W,000.00,000.0,200413,016.6,E,A*27
$PGRME,3.0,M,3.0,M,4.3,M*29
$GPRMC,040206.8,A,4741.19895,N,12224.25678,W,000.00,000.0,200413,016.6,E,A*29
$PGRME,3.0,M,3.0,M,4.3,M*29
$GPRMC,040207.0,A,4741.19895,N,12224.25678,W,000.00,000.0,200413,016.6,E,A*20
$PGRME,3.0,M,3.0,M,4.3,M*29
$GPRMC,040207.2,A,4741.19895,N,12224.25678,W,000.00,000.0,200413,016.6,E,A*22
$GPRMB,A,-31.69,L,,Ttp,4726.8700,N,12137.4300,W,34.7,131,-0.00,V*5D
$PGRME,3.0,M,3.0,M,4.3,M*29
$GPRMC,040207.4,A,4741.19895,N,12224.25678,W,000.00,000.0,200413,016.6,E,A*24
$PGRME,3.0,M,3.0,M,4.3,M*29
$GPRMC,040207.6,A,4741.19895,N,12224.25678,W,000.00,000.0,200413,016.6,E,A*26
$PGRME,3.0,M,3.0,M,4.3,M*29
$GPRMC,040207.8,A,4741.19895,N,12224.25678,W,000.01,000.0,200413,016.6,E,A*29
$PGRME,3.0,M,3.0,M,4.3,M*29
$GPRMC,040208.0,A,4741.19895,N,12224.25678,W,000.01,000.0,200413,016.6,E,A*2E
$PGRME,3.0,M,3.0,M,4.3,M*29
$GPRMC,040208.2,A,4741.19895,N,12224.25678,W,000.01,000.0,200413,016.6,E,A*2C
$GPRMB,A,-31.69,L,,Ttp,4726.8700,N,12137.4300,W,34.7,131,-0.01,V*5C
$PGRME,3.0,M,3.0,M,4.3,M*29
$GPRMC,040208.4,A,4741.19895,N,12224.25677,W,000.01,000.0,200413,016.6,E,A*25
$PGRME,3.0,M,3.0,M,4.3,M*29
$GPRMC,040208.6,A,4741.19895,N,12224.25677,W,000.01,000.0,200413,016.6,E,A*27
$PGRME,3.0,M,3.0,M,4.3,M*29
$GPRMC,040208.8,A,4741.19895,N,12224.25677,W,000.01,000.0,200413,016.6,E,A*29
$PGRME,3.0,M,3.0,M,4.3,M*29
$GPRMC,040209.0,A,4741.19895,N,12224.25677,W,000.00,000.0,200413,016.6,E,A*21
$PGRME,3.0,M,3.0,M,4.3,M*29
$GPRMC,040209.2,A,4741.19895,N,12224.25677,W,000.00,000.0,200413,016.6,E,A*23
$PGRME,3.0,M,3.0,M,4.3,M*29
$GPRMC,040209.4,A,4741.19896,N,12224.25678,W,000.01,000.0,200413,016.6,E,A*28
$GPRMB,A,-31.69,L,,Ttp,4726.8700,N,12137.4300,W,34.7,131,-0.01,V*5C
$PGRME,3.0,M,3.0,M,4.3,M*29
$GPRMC,040209.6,A,4741.19895,N,12224.25678,W,000.01,000.0,200413,016.6,E,A*29
$PGRME,3.0,M,3.0,M,4.3,M*29
$GPRMC,040209.8,A,4741.19895,N,12224.25678,W,000.01,000.0,200413,016.6,E,A*27
$PGRME,3.0,M,3.0,M,4.3,M*29
$GPRMC,040210.0,A,4741.19895,N,12224.25678,W,000.01,000.0,200413,016.6,E,A*27
$PGRME,3.0,M,3.0,M,4.3,M*29
$GPRMC,040210.2,A,4741.19895,N,12224.25678,W,000.01,000.0,200413,016.6,E,A*25
$PGRME,3.0,M,3.0,M,4.3,M*29
$GPRMC,040210.4,A,4741.19896,N,12224.25678,W,000.01,000.0,200413,016.6,E,A*20
$PTAK,FFP1,HEEL,@*07
$PGRME,3.0,M,3.0,M,4.3,M*29
$GPRMC,040210.6,A,4741.19896,N,12224.25678,W,000.02,000.0,200413,016.6,E,A*21
$GPRMB,A,-31.69,L,,Ttp,4726.8700,N,12137.4300,W,34.7,131,-0.02,V*5F
$PGRME,3.0,M,3.0,M,4.3,M*29
$GPRMC,040210.8,A,4741.19896,N,12224.25678,W,000.01,000.0,200413,016.6,E,A*2C
$PGRME,3.0,M,3.0,M,4.3,M*29
$GPRMC,040211.0,A,4741.19896,N,12224.25678,W,000.01,000.0,200413,016.6,E,A*25
$PGRME,3.0,M,3.0,M,4.3,M*29
$GPRMC,040211.2,A,4741.19896,N,12224.25678,W,000.02,000.0,200413,016.6,E,A*24
$PGRME,3.0,M,3.0,M,4.3,M*29
$GPRMC,040211.4,A,4741.19896,N,12224.25678,W,000.01,000.0,200413,016.6,E,A*21
$PGRME,3.0,M,3.0,M,4.3,M*29
$GPRMC,040211.6,A,4741.19896,N,12224.25678,W,000.02,000.0,200413,016.6,E,A*20
$GPRMB,A,-31.69,L,,Ttp,4726.8700,N,12137.4300,W,34.7,131,-0.02,V*5F
$PGRME,3.0,M,3.0,M,4.3,M*29
$GPRMC,040211.8,A,4741.19896,N,12224.25678,W,000.01,000.0,200413,016.6,E,A*2D
$PGRME,3.0,M,3.0,M,4.3,M*29
$GPRMC,040212.0,A,4741.19896,N,12224.25678,W,000.01,000.0,200413,016.6,E,A*26
$PGRME,3.0,M,3.0,M,4.3,M*29
$GPRMC,040212.2,A,4741.19896,N,12224.25678,W,000.01,000.0,200413,016.6,E,A*24
$PGRME,3.0,M,3.0,M,4.3,M*29
$GPRMC,040212.4,A,4741.19896,N,12224.25678,W,000.01,000.0,200413,016.6,E,A*22
$PGRME,3.0,M,3.0,M,4.3,M*29
$GPRMC,040212.6,A,4741.19896,N,12224.25677,W,000.02,000.0,200413,016.6,E,A*2C
$GPRMB,A,-31.69,L,,Ttp,4726.8700,N,12137.4300,W,34.7,131,-0.02,V*5F
$PGRME,3.0,M,3.0,M,4.3,M*29
$GPRMC,040212.8,A,4741.19896,N,12224.25677,W,000.02,000.0,200413,016.6,E,A*22
$PGRME,3.0,M,3.0,M,4.3,M*29
$GPRMC,040213.0,A,4741.19896,N,12224.25677,W,000.01,000.0,200413,016.6,E,A*28
$PGRME,3.0,M,3.0,M,4.3,M*29
$GPRMC,040213.2,A,4741.19896,N,12224.25677,W,000.01,000.0,200413,016.6,E,A*2A
$PGRME,3.0,M,3.0,M,4.3,M*29
$GPRMC,040213.4,A,4741.19896,N,12224.25677,W,000.01,000.0,200413,016.6,E,A*2C
$PGRME,3.0,M,3.0,M,4.3,M*29
$GPRMC,040213.6,A,4741.19896,N,12224.25677,W,000.01,000.0,200413,016.6,E,A*2E
$PGRME,3.0,M,3.0,M,4.3,M*29
$GPRMC,040213.8,A,4741.19896,N,12224.25677,W,000.01,000.0,200413,016.6,E,A*20
$GPRMB,A,-31.69,L,,Ttp,4726.8700,N,12137.4300,W,34.7,131,-0.01,V*5C
$PGRME,3.0,M,3.0,M,4.3,M*29
$GPRMC,040214.0,A,4741.19896,N,12224.25677,W,000.01,000.0,200413,016.6,E,A*2F
$PGRME,3.0,M,3.0,M,4.3,M*29
$GPRMC,040214.2,A,4741.19896,N,12224.25677,W,000.00,000.0,200413,016.6,E,A*2C
$PGRME,3.0,M,3.0,M,4.3,M*29
$GPRMC,040214.4,A,4741.19896,N,12224.25677,W,000.01,000.0,200413,016.6,E,A*2B
$PTAK,FFP1,HEEL,@*07
$PGRME,3.0,M,3.0,M,4.3,M*29
$GPRMC,040214.6,A,4741.19896,N,12224.25677,W,000.02,000.0,200413,016.6,E,A*2A
$PGRME,3.0,M,3.0,M,4.3,M*29
$GPRMC,040214.8,A,4741.19896,N,12224.25677,W,000.00,000.0,200413,016.6,E,A*26
$PGRME,3.0,M,3.0,M,4.3,M*29
$GPRMC,040215.0,A,4741.19896,N,12224.25677,W,000.01,000.0,200413,016.6,E,A*2E
$GPRMB,A,-31.69,L,,Ttp,4726.8700,N,12137.4300,W,34.7,131,-0.01,V*5C
$PGRME,3.0,M,3.0,M,4.3,M*29
$GPRMC,040215.2,A,4741.19896,N,12224.25677,W,000.00,000.0,200413,016.6,E,A*2D
$PGRME,3.0,M,3.0,M,4.3,M*29
$GPRMC,040215.4,A,4741.19896,N,12224.25677,W,000.01,000.0,200413,016.6,E,A*2A
$PGRME,3.0,M,3.0,M,4.3,M*29
$GPRMC,040215.6,A,4741.19896,N,12224.25677,W,000.00,000.0,200413,016.6,E,A*29
$PGRME,3.0,M,3.0,M,4.3,M*29
$GPRMC,040215.8,A,4741.19896,N,12224.25677,W,000.01,000.0,200413,016.6,E,A*26
$PGRME,3.0,M,3.0,M,4.3,M*29
$GPRMC,040216.0,A,4741.19896,N,12224.25677,W,000.00,000.0,200413,016.6,E,A*2C
$PGRME,3.0,M,3.0,M,4.3,M*29
$GPRMC,040216.2,A,4741.19896,N,12224.25677,W,000.00,000.0,200413,016.6,E,A*2E
$GPRMB,A,-31.69,L,,Ttp,4726.8700,N,12137.4300,W,34.7,131,-0.00,V*5D
$PGRME,3.0,M,3.0,M,4.3,M*29
$GPRMC,040216.4,A,4741.19895,N,12224.25677,W,000.01,000.0,200413,016.6,E,A*2A
$PGRME,3.0,M,3.0,M,4.3,M*29
$GPRMC,040216.6,A,4741.19895,N,12224.25677,W,000.01,000.0,200413,016.6,E,A*28
$PGRME,3.0,M,3.0,M,4.3,M*29
$GPRMC,040216.8,A,4741.19895,N,12224.25677,W,000.01,000.0,200413,016.6,E,A*26
$PGRME,3.0,M,3.0,M,4.3,M*29
$GPRMC,040217.0,A,4741.19895,N,12224.25678,W,000.01,000.0,200413,016.6,E,A*20
$PGRME,3.0,M,3.0,M,4.3,M*29
$GPRMC,040217.2,A,4741.19895,N,12224.25678,W,000.01,000.0,200413,016.6,E,A*22
$PGRME,3.0,M,3.0,M,4.3,M*29
$GPRMC,040217.4,A,4741.19895,N,12224.25678,W,000.01,000.0,200413,016.6,E,A*24
$GPRMB,A,-31.69,L,,Ttp,4726.8700,N,12137.4300,W,34.7,131,-0.01,V*5C
$PGRME,3.0,M,3.0,M,4.3,M*29
$GPRMC,040217.6,A,4741.19895,N,12224.25678,W,000.01,000.0,200413,016.6,E,A*26
$PGRME,3.0,M,3.0,M,4.3,M*29
$GPRMC,040217.8,A,4741.19895,N,12224.25678,W,000.01,000.0,200413,016.6,E,A*28
$PGRME,3.0,M,3.0,M,4.3,M*29
$GPRMC,040218.0,A,4741.19895,N,12224.25678,W,000.01,000.0,200413,016.6,E,A*2F
$PGRME,3.0,M,3.0,M,4.3,M*29
$GPRMC,040218.2,A,4741.19895,N,12224.25678,W,000.01,000.0,200413,016.6,E,A*2D
$PGRME,3.0,M,3.0,M,4.3,M*29
$GPRMC,040218.4,A,4741.19894,N,12224.25678,W,000.01,000.0,200413,016.6,E,A*2A
$GPRMB,A,-31.69,L,,Ttp,4726.8700,N,12137.4300,W,34.7,131,-0.01,V*5C
$PTAK,FFP1,HEEL,@*07
$PGRME,3.0,M,3.0,M,4.3,M*29
$GPRMC,040218.6,A,4741.19894,N,12224.25678,W,000.00,000.0,200413,016.6,E,A*29
$PGRME,3.0,M,3.0,M,4.3,M*29
$GPRMC,040218.8,A,4741.19894,N,12224.25678,W,000.00,000.0,200413,016.6,E,A*27
$PGRME,3.0,M,3.0,M,4.3,M*29
$GPRMC,040219.0,A,4741.19894,N,12224.25678,W,000.01,000.0,200413,016.6,E,A*2F
$PGRME,3.0,M,3.0,M,4.3,M*29
$GPRMC,040219.2,A,4741.19894,N,12224.25678,W,000.01,000.0,200413,016.6,E,A*2D
$PGRME,3.0,M,3.0,M,4.3,M*29
$GPRMC,040219.4,A,4741.19894,N,12224.25678,W,000.01,000.0,200413,016.6,E,A*2B
$GPRMB,A,-31.69,L,,Ttp,4726.8700,N,12137.4300,W,34.7,131,-0.01,V*5C
$PGRME,3.0,M,3.0,M,4.3,M*29
$GPRMC,040219.6,A,4741.19894,N,12224.25678,W,000.00,000.0,200413,016.6,E,A*28
$PGRME,3.0,M,3.0,M,4.3,M*29
$GPRMC,040219.8,A,4741.19894,N,12224.25678,W,000.01,000.0,200413,016.6,E,A*27
$PGRME,3.0,M,3.0,M,4.3,M*29
$GPRMC,040220.0,A,4741.19894,N,12224.25678,W,000.00,000.0,200413,016.6,E,A*24
$PGRME,3.0,M,3.0,M,4.3,M*29
$GPRMC,040220.2,A,4741.19894,N,12224.25678,W,000.00,000.0,200413,016.6,E,A*26
$PGRME,3.0,M,3.0,M,4.3,M*29
$GPRMC,040220.4,A,4741.19894,N,12224.25678,W,000.00,000.0,200413,016.6,E,A*20
$GPRMB,A,-31.69,L,,Ttp,4726.8700,N,12137.4300,W,34.7,131,-0.00,V*5D
$PGRME,3.0,M,3.0,M,4.3,M*29
$GPRMC,040220.6,A,4741.19894,N,12224.25678,W,000.00,000.0,200413,016.6,E,A*22
$PGRME,3.0,M,3.0,M,4.3,M*29
$GPRMC,040220.8,A,4741.19894,N,12224.25678,W,000.00,000.0,200413,016.6,E,A*2C
$PGRME,3.0,M,3.0,M,4.3,M*29
$GPRMC,040221.0,A,4741.19893,N,12224.25678,W,000.00,000.0,200413,016.6,E,A*22
$PGRME,3.0,M,3.0,M,4.3,M*29
$GPRMC,040221.2,A,4741.19893,N,12224.25677,W,000.01,000.0,200413,016.6,E,A*2E
$PGRME,3.0,M,3.0,M,4.3,M*29
$GPRMC,040221.4,A,4741.19893,N,12224.25677,W,000.00,000.0,200413,016.6,E,A*29
$PGRME,3.0,M,3.0,M,4.3,M*29
$GPRMC,040221.6,A,4741.19893,N,12224.25677,W,000.00,000.0,200413,016.6,E,A*2B
$GPRMB,A,-31.69,L,,Ttp,4726.8700,N,12137.4300,W,34.7,131,-0.00,V*5D
$PGRME,3.0,M,3.0,M,4.3,M*29
$GPRMC,040221.8,A,4741.19893,N,12224.25677,W,000.01,000.0,200413,016.6,E,A*24
$PGRME,3.0,M,3.0,M,4.3,M*29
$GPRMC,040222.0,A,4741.19893,N,12224.25677,W,000.00,000.0,200413,016.6,E,A*2E
$PGRME,3.0,M,3.0,M,4.3,M*29
$GPRMC,040222.2,A,4741.19893,N,12224.25677,W,000.01,000.0,200413,016.6,E,A*2D
$PGRME,3.0,M,3.0,M,4.3,M*29
$GPRMC,040222.4,A,4741.19893,N,12224.25677,W,000.01,000.0,200413,016.6,E,A*2B
$PTAK,FFP1,HEEL,@*07
$PGRME,3.0,M,3.0,M,4.3,M*29
$GPRMC,040222.6,A,4741.19893,N,12224.25677,W,000.01,000.0,200413,016.6,E,A*29
$GPRMB,A,-31.69,L,,Ttp,4726.8700,N,12137.4300,W,34.7,131,-0.01,V*5C
$PGRME,3.0,M,3.0,M,4.3,M*29
$GPRMC,040222.8,A,4741.19893,N,12224.25677,W,000.01,000.0,200413,016.6,E,A*27
$PGRME,3.0,M,3.0,M,4.3,M*29
$GPRMC,040223.0,A,4741.19893,N,12224.25677,W,000.00,000.0,200413,016.6,E,A*2F
$PGRME,3.0,M,3.0,M,4.3,M*29
$GPRMC,040223.2,A,4741.19893,N,12224.25677,W,000.01,000.0,200413,016.6,E,A*2C
$PGRME,3.0,M,3.0,M,4.3,M*29
$GPRMC,040223.4,A,4741.19893,N,12224.25677,W,000.01,000.0,200413,016.6,E,A*2A
$PGRME,3.0,M,3.0,M,4.3,M*29
$GPRMC,040223.6,A,4741.19893,N,12224.25676,W,000.01,000.0,200413,016.6,E,A*29
$GPRMB,A,-31.69,L,,Ttp,4726.8700,N,12137.4300,W,34.7,131,-0.01,V*5C
$PGRME,3.0,M,3.0,M,4.3,M*29
$GPRMC,040223.8,A,4741.19893,N,12224.25676,W,000.01,000.0,200413,016.6,E,A*27
$PGRME,3.0,M,3.0,M,4.3,M*29
$GPRMC,040224.0,A,4741.19893,N,12224.25676,W,000.01,000.0,200413,016.6,E,A*28
$PGRME,3.0,M,3.0,M,4.3,M*29
$GPRMC,040224.2,A,4741.19893,N,12224.25676,W,000.00,000.0,200413,016.6,E,A*2B
$PGRME,3.0,M,3.0,M,4.3,M*29
$GPRMC,040224.4,A,4741.19893,N,12224.25676,W,000.01,000.0,200413,016.6,E,A*2C
$PGRME,3.0,M,3.0,M,4.3,M*29
$GPRMC,040224.6,A,4741.19893,N,12224.25676,W,000.01,000.0,200413,016.6,E,A*2E
$PGRME,3.0,M,3.0,M,4.3,M*29
$GPRMC,040224.8,A,4741.19893,N,12224.25676,W,000.01,000.0,200413,016.6,E,A*20
$GPRMB,A,-31.69,L,,Ttp,4726.8700,N,12137.4300,W,34.7,131,-0.01,V*5C
$PGRME,3.0,M,3.0,M,4.3,M*29
$GPRMC,040225.0,A,4741.19893,N,12224.25676,W,000.00,000.0,200413,016.6,E,A*28
$PGRME,3.0,M,3.0,M,4.3,M*29
$GPRMC,040225.2,A,4741.19893,N,12224.25676,W,000.00,000.0,200413,016.6,E,A*2A
$PGRME,3.0,M,3.0,M,4.3,M*29
$GPRMC,040225.4,A,4741.19893,N,12224.25676,W,000.01,000.0,200413,016.6,E,A*2D
$PGRME,3.0,M,3.0,M,4.3,M*29
$GPRMC,040225.6,A,4741.19893,N,12224.25676,W,000.00,000.0,200413,016.6,E,A*2E
$PGRME,3.0,M,3.0,M,4.3,M*29
$GPRMC,040225.8,A,4741.19893,N,12224.25676,W,000.01,000.0,200413,016.6,E,A*21
$PGRME,3.0,M,3.0,M,4.3,M*29
$GPRMC,040226.0,A,4741.19893,N,12224.25676,W,000.01,000.0,200413,016.6,E,A*2A
$GPRMB,A,-31.69,L,,Ttp,4726.8700,N,12137.4300,W,34.7,131,-0.01,V*5C
$PGRME,3.0,M,3.0,M,4.3,M*29
$GPRMC,040226.2,A,4741.19893,N,12224.25676,W,000.01,000.0,200413,016.6,E,A*28
$PGRME,3.0,M,3.0,M,4.3,M*29
$GPRMC,040226.4,A,4741.19893,N,12224.25676,W,000.01,000.0,200413,016.6,E,A*2E
$PTAK,FFP1,HEEL,@*07
$PGRME,3.0,M,3.0,M,4.3,M*29
$GPRMC,040226.6,A,4741.19893,N,12224.25676,W,000.01,000.0,200413,016.6,E,A*2C
$PGRME,3.0,M,3.0,M,4.3,M*29
$GPRMC,040226.8,A,4741.19893,N,12224.25676,W,000.00,000.0,200413,016.6,E,A*23
$PGRME,3.0,M,3.0,M,4.3,M*29
$GPRMC,040227.0,A,4741.19893,N,12224.25676,W,000.00,000.0,200413,016.6,E,A*2A
$GPRMB,A,-31.69,L,,Ttp,4726.8700,N,12137.4300,W,34.7,131,-0.00,V*5D
$PGRME,3.0,M,3.0,M,4.3,M*29
$GPRMC,040227.2,A,4741.19893,N,12224.25676,W,000.01,000.0,200413,016.6,E,A*29
$PGRME,3.0,M,3.0,M,4.3,M*29
$GPRMC,040227.4,A,4741.19893,N,12224.25676,W,000.00,000.0,200413,016.6,E,A*2E
$PGRME,3.0,M,3.0,M,4.3,M*29
$GPRMC,040227.6,A,4741.19893,N,12224.25676,W,000.00,000.0,200413,016.6,E,A*2C
$PGRME,3.0,M,3.0,M,4.3,M*29
$GPRMC,040227.8,A,4741.19893,N,12224.25676,W,000.00,000.0,200413,016.6,E,A*22
$PGRME,3.0,M,3.0,M,4.3,M*29
$GPRMC,040228.0,A,4741.19893,N,12224.25676,W,000.00,000.0,200413,016.6,E,A*25
$GPRMB,A,-31.69,L,,Ttp,4726.8700,N,12137.4300,W,34.7,131,-0.00,V*5D
$PGRME,3.0,M,3.0,M,4.3,M*29
$GPRMC,040228.2,A,4741.19892,N,12224.25676,W,000.01,000.0,200413,016.6,E,A*27
$PGRME,3.0,M,3.0,M,4.3,M*29
$GPRMC,040228.4,A,4741.19892,N,12224.25676,W,000.01,000.0,200413,016.6,E,A*21
$PGRME,3.0,M,3.0,M,4.3,M*29
$GPRMC,040228.6,A,4741.19892,N,12224.25676,W,000.00,000.0,200413,016.6,E,A*22
$PGRME,3.0,M,3.0,M,4.3,M*29
$GPRMC,040228.8,A,4741.19893,N,12224.25676,W,000.00,000.0,200413,016.6,E,A*2D
$PGRME,3.0,M,3.0,M,4.3,M*29
$GPRMC,040229.0,A,4741.19893,N,12224.25676,W,000.00,000.0,200413,016.6,E,A*24
$GPRMB,A,-31.69,L,,Ttp,4726.8700,N,12137.4300,W,34.7,131,-0.00,V*5D
$PGRME,3.0,M,3.0,M,4.3,M*29
$GPRMC,040229.2,A,4741.19893,N,12224.25676,W,000.01,000.0,200413,016.6,E,A*27
$PGRME,3.0,M,3.0,M,4.3,M*29
$GPRMC,040229.4,A,4741.19893,N,12224.25676,W,000.00,000.0,200413,016.6,E,A*20
$PGRME,3.0,M,3.0,M,4.3,M*29
$GPRMC,040229.6,A,4741.19893,N,12224.25676,W,000.00,000.0,200413,016.6,E,A*22
$PGRME,3.0,M,3.0,M,4.3,M*29
$GPRMC,040229.8,A,4741.19894,N,12224.25676,W,000.00,000.0,200413,016.6,E,A*2B
$PGRME,3.0,M,3.0,M,4.3,M*29
$GPRMC,040230.0,A,4741.19894,N,12224.25676,W,000.01,000.0,200413,016.6,E,A*2A
$GPRMB,A,-31.69,L,,Ttp,4726.8700,N,12137.4300,W,34.7,131,-0.01,V*5C
$PGRME,3.0,M,3.0,M,4.3,M*29
$GPRMC,040230.2,A,4741.19894,N,12224.25676,W,000.00,000.0,200413,016.6,E,A*29
$PGRME,3.0,M,3.0,M,4.3,M*29
$GPRMC,040230.4,A,4741.19894,N,12224.25676,W,000.02,000.0,200413,016.6,E,A*2D
$PTAK,FFP1,HEEL,@*07
$PGRME,3.0,M,3.0,M,4.3,M*29
$GPRMC,040230.6,A,4741.19894,N,12224.25676,W,000.01,000.0,200413,016.6,E,A*2C
$PGRME,3.0,M,3.0,M,4.3,M*29
$GPRMC,040230.8,A,4741.19894,N,12224.25676,W,000.02,000.0,200413,016.6,E,A*21
$PGRME,3.0,M,3.0,M,4.3,M*29
$GPRMC,040231.0,A,4741.19894,N,12224.25676,W,000.01,000.0,200413,016.6,E,A*2B
$GPRMB,A,-31.69,L,,Ttp,4726.8700,N,12137.4300,W,34.7,131,-0.01,V*5C
$PGRME,3.0,M,3.0,M,4.3,M*29
$GPRMC,040231.2,A,4741.19894,N,12224.25676,W,000.01,000.0,200413,016.6,E,A*29
$PGRME,3.0,M,3.0,M,4.3,M*29
$GPRMC,040231.4,A,4741.19894,N,12224.25676,W,000.00,000.0,200413,016.6,E,A*2E
$PGRME,3.0,M,3.0,M,4.3,M*29
$GPRMC,040231.6,A,4741.19894,N,12224.25676,W,000.01,000.0,200413,016.6,E,A*2D
$PGRME,3.0,M,3.0,M,4.3,M*29
$GPRMC,040231.8,A,4741.19895,N,12224.25676,W,000.00,000.0,200413,016.6,E,A*23
$PGRME,3.0,M,3.0,M,4.3,M*29
$GPRMC,040232.0,A,4741.19895,N,12224.25676,W,000.00,000.0,200413,016.6,E,A*28
$GPRMB,A,-31.69,L,,Ttp,4726.8700,N,12137.4300,W,34.7,131,-0.00,V*5D
$PGRME,3.0,M,3.0,M,4.3,M*29
$GPRMC,040232.2,A,4741.19895,N,12224.25676,W,000.02,000.0,200413,016.6,E,A*28
$PGRME,3.0,M,3.0,M,4.3,M*29
$GPRMC,040232.4,A,4741.19895,N,12224.25676,W,000.01,000.0,200413,016.6,E,A*2D
$PGRME,3.0,M,3.0,M,4.3,M*29
$GPRMC,040232.6,A,4741.19895,N,12224.25676,W,000.01,000.0,200413,016.6,E,A*2F
$PGRME,3.0,M,3.0,M,4.3,M*29
$GPRMC,040232.8,A,4741.19896,N,12224.25677,W,000.00,000.0,200413,016.6,E,A*22
$PGRME,3.0,M,3.0,M,4.3,M*29
$GPRMC,040233.0,A,4741.19896,N,12224.25677,W,000.01,000.0,200413,016.6,E,A*2A
$PGRME,3.0,M,3.0,M,4.3,M*29
$GPRMC,040233.2,A,4741.19896,N,12224.25677,W,000.01,000.0,200413,016.6,E,A*28
$GPRMB,A,-31.69,L,,Ttp,4726.8700,N,12137.4300,W,34.7,131,-0.01,V*5C
$PGRME,3.0,M,3.0,M,4.3,M*29
$GPRMC,040233.4,A,4741.19896,N,12224.25677,W,000.01,000.0,200413,016.6,E,A*2E
$PGRME,3.0,M,3.0,M,4.3,M*29
$GPRMC,040233.6,A,4741.19896,N,12224.25677,W,000.01,000.0,200413,016.6,E,A*2C
$PGRME,3.0,M,3.0,M,4.3,M*29
$GPRMC,040233.8,A,4741.19896,N,12224.25677,W,000.01,000.0,200413,016.6,E,A*22
$PGRME,3.0,M,3.0,M,4.3,M*29
$GPRMC,040234.0,A,4741.19896,N,12224.25677,W,000.02,000.0,200413,016.6,E,A*2E
$PGRME,3.0,M,3.0,M,4.3,M*29
$GPRMC,040234.2,A,4741.19897,N,12224.25677,W,000.01,000.0,200413,016.6,E,A*2E
$PGRME,3.0,M,3.0,M,4.3,M*29
$GPRMC,040234.4,A,4741.19897,N,12224.25677,W,000.01,000.0,200413,016.6,E,A*28
$GPRMB,A,-31.69,L,,Ttp,4726.8700,N,12137.4300,W,34.7,131,-0.01,V*5C
$PTAK,FFP1,HEEL,@*07
$PGRME,3.0,M,3.0,M,4.3,M*29
$GPRMC,040234.6,A,4741.19897,N,12224.25677,W,000.01,000.0,200413,016.6,E,A*2A
$PGRME,3.0,M,3.0,M,4.3,M*29
$GPRMC,040234.8,A,4741.19897,N,12224.25677,W,000.00,000.0,200413,016.6,E,A*25
$PGRME,3.0,M,3.0,M,4.3,M*29
$GPRMC,040235.0,A,4741.19897,N,12224.25677,W,000.00,000.0,200413,016.6,E,A*2C
$PGRME,3.0,M,3.0,M,4.3,M*29
$GPRMC,040235.2,A,4741.19897,N,12224.25677,W,000.01,000.0,200413,016.6,E,A*2F
$PGRME,3.0,M,3.0,M,4.3,M*29
$GPRMC,040235.4,A,4741.19897,N,12224.25677,W,000.01,000.0,200413,016.6,E,A*29
$PGRME,3.0,M,3.0,M,4.3,M*29
$GPRMC,040235.6,A,4741.19897,N,12224.25677,W,000.01,000.0,200413,016.6,E,A*2B
$GPRMB,A,-31.69,L,,Ttp,4726.8700,N,12137.4300,W,34.7,131,-0.01,V*5C
$PGRME,3.0,M,3.0,M,4.3,M*29
$GPRMC,040235.8,A,4741.19897,N,12224.25677,W,000.01,000.0,200413,016.6,E,A*25
$PGRME,3.0,M,3.0,M,4.3,M*29
$GPRMC,040236.0,A,4741.19898,N,12224.25677,W,000.01,000.0,200413,016.6,E,A*21
$PGRME,3.0,M,3.0,M,4.3,M*29
$GPRMC,040236.2,A,4741.19898,N,12224.25677,W,000.00,000.0,200413,016.6,E,A*22
$PGRME,3.0,M,3.0,M,4.3,M*29
$GPRMC,040236.4,A,4741.19898,N,12224.25677,W,000.00,000.0,200413,016.6,E,A*24
$PGRME,3.0,M,3.0,M,4.3,M*29
$GPRMC,040236.6,A,4741.19898,N,12224.25677,W,000.01,000.0,200413,016.6,E,A*27
$GPRMB,A,-31.69,L,,Ttp,4726.8700,N,12137.4300,W,34.7,131,-0.01,V*5C
$PGRME,3.0,M,3.0,M,4.3,M*29
$GPRMC,040236.8,A,4741.19898,N,12224.25677,W,000.01,000.0,200413,016.6,E,A*29
$PGRME,3.0,M,3.0,M,4.3,M*29
$GPRMC,040237.0,A,4741.19898,N,12224.25677,W,000.01,000.0,200413,016.6,E,A*20
$PGRME,3.0,M,3.0,M,4.3,M*29
$GPRMC,040237.2,A,4741.19898,N,12224.25677,W,000.01,000.0,200413,016.6,E,A*22
$PGRME,3.0,M,3.0,M,4.3,M*29
$GPRMC,040237.4,A,4741.19898,N,12224.25677,W,000.01,000.0,200413,016.6,E,A*24
$PGRME,3.0,M,3.0,M,4.3,M*29
$GPRMC,040237.6,A,4741.19898,N,12224.25678,W,000.01,000.0,200413,016.6,E,A*29
$GPRMB,A,-31.69,L,,Ttp,4726.8700,N,12137.4300,W,34.7,131,-0.01,V*5C
$PGRME,3.0,M,3.0,M,4.3,M*29
$GPRMC,040237.8,A,4741.19898,N,12224.25678,W,000.00,000.0,200413,016.6,E,A*26
$PGRME,3.0,M,3.0,M,4.3,M*29
$GPRMC,040238.0,A,4741.19898,N,12224.25678,W,000.01,000.0,200413,016.6,E,A*20
$PGRME,3.0,M,3.0,M,4.3,M*29
$GPRMC,040238.2,A,4741.19898,N,12224.25678,W,000.01,000.0,200413,016.6,E,A*22
$PGRME,3.0,M,3.0,M,4.3,M*29
$GPRMC,040238.4,A,4741.19898,N,12224.25678,W,000.00,000.0,200413,016.6,E,A*25
$PGRME,3.0,M,3.0,M,4.3,M*29
$GPRMC,040238.6,A,4741.19899,N,12224.25678,W,000.01,000.0,200413,016.6,E,A*27
$PTAK,FFP1,HEEL,@*07
$PGRME,3.0,M,3.0,M,4.3,M*29
$GPRMC,040238.8,A,4741.19899,N,12224.25677,W,000.01,000.0,200413,016.6,E,A*26
$GPRMB,A,-31.69,L,,Ttp,4726.8700,N,12137.4300,W,34.7,131,-0.01,V*5C
$PGRME,3.0,M,3.0,M,4.3,M*29
$GPRMC,040239.0,A,4741.19899,N,12224.25677,W,000.00,000.0,200413,016.6,E,A*2E
$PGRME,3.0,M,3.0,M,4.3,M*29
$GPRMC,040239.2,A,4741.19899,N,12224.25677,W,000.01,000.0,200413,016.6,E,A*2D
$PGRME,3.0,M,3.0,M,4.3,M*29
$GPRMC,040239.4,A,4741.19899,N,12224.25677,W,000.01,000.0,200413,016.6,E,A*2B
$PGRME,3.0,M,3.0,M,4.3,M*29
$GPRMC,040239.6,A,4741.19899,N,12224.25677,W,000.01,000.0,200413,016.6,E,A*29
$PGRME,3.0,M,3.0,M,4.3,M*29
$GPRMC,040239.8,A,4741.19899,N,12224.25677,W,000.01,000.0,200413,016.6,E,A*27
$PGRME,3.0,M,3.0,M,4.3,M*29
$GPRMC,040240.0,A,4741.19899,N,12224.25677,W,000.00,000.0,200413,016.6,E,A*20
$GPRMB,A,-31.69,L,,Ttp,4726.8700,N,12137.4300,W,34.7,131,-0.00,V*5D
$PGRME,3.0,M,3.0,M,4.3,M*29
$GPRMC,040240.2,A,4741.19899,N,12224.25678,W,000.00,000.0,200413,016.6,E,A*2D
$PGRME,3.0,M,3.0,M,4.3,M*29
$GPRMC,040240.4,A,4741.19899,N,12224.25678,W,000.01,000.0,200413,016.6,E,A*2A
$PGRME,3.0,M,3.0,M,4.3,M*29
$GPRMC,040240.6,A,4741.19900,N,12224.25678,W,000.00,000.0,200413,016.6,E,A*28
$PGRME,3.0,M,3.0,M,4.3,M*29
$GPRMC,040240.8,A,4741.19900,N,12224.25678,W,000.01,000.0,200413,016.6,E,A*27
$PGRME,3.0,M,3.0,M,4.3,M*29
$GPRMC,040241.0,A,4741.19900,N,12224.25678,W,000.00,000.0,200413,016.6,E,A*2F
$GPRMB,A,-31.69,L,,Ttp,4726.8700,N,12137.4300,W,34.7,131,-0.00,V*5D
$PGRME,3.0,M,3.0,M,4.3,M*29
$GPRMC,040241.2,A,4741.19900,N,12224.25678,W,000.01,000.0,200413,016.6,E,A*2C
$PGRME,3.0,M,3.0,M,4.3,M*29
$GPRMC,040241.4,A,4741.19900,N,12224.25678,W,000.00,000.0,200413,016.6,E,A*2B
$PGRME,3.0,M,3.0,M,4.3,M*29
$GPRMC,040241.6,A,4741.19900,N,12224.25677,W,000.00,000.0,200413,016.6,E,A*26
$PGRME,3.0,M,3.0,M,4.3,M*29
$GPRMC,040241.8,A,4741.19900,N,12224.25677,W,000.01,000.0,200413,016.6,E,A*29
$PGRME,3.0,M,3.0,M,4.3,M*29
$GPRMC,040242.0,A,4741.19900,N,12224.25677,W,000.00,000.0,200413,016.6,E,A*23
$PGRME,3.0,M,3.0,M,4.3,M*29
$GPRMC,040242.2,A,4741.19900,N,12224.25677,W,000.02,000.0,200413,016.6,E,A*23
$GPRMB,A,-31.69,L,,Ttp,4726.8700,N,12137.4300,W,34.7,131,-0.02,V*5F
$PGRME,3.0,M,3.0,M,4.3,M*29
$GPRMC,040242.4,A,4741.19900,N,12224.25677,W,000.01,000.0,200413,016.6,E,A*26
$PGRME,3.0,M,3.0,M,4.3,M*29
$GPRMC,040242.6,A,4741.19900,N,12224.25677,W,000.01,000.0,200413,016.6,E,A*24
$PTAK,FFP1,HEEL,@*07
$PGRME,3.0,M,3.0,M,4.3,M*29
$GPRMC,040242.8,A,4741.19900,N,12224.25677,W,000.00,000.0,200413,016.6,E,A*2B
$PGRME,3.0,M,3.0,M,4.3,M*29
$GPRMC,040243.0,A,4741.19900,N,12224.25677,W,000.01,000.0,200413,016.6,E,A*23
$PGRME,3.0,M,3.0,M,4.3,M*29
$GPRMC,040243.2,A,4741.19901,N,12224.25677,W,000.00,000.0,200413,016.6,E,A*21
$GPRMB,A,-31.69,L,,Ttp,4726.8700,N,12137.4300,W,34.7,131,-0.00,V*5D
$PGRME,3.0,M,3.0,M,4.3,M*29
$GPRMC,040243.4,A,4741.19901,N,12224.25677,W,000.01,000.0,200413,016.6,E,A*26
$PGRME,3.0,M,3.0,M,4.3,M*29
$GPRMC,040243.6,A,4741.19901,N,12224.25677,W,000.01,000.0,200413,016.6,E,A*24
$PGRME,3.0,M,3.0,M,4.3,M*29
$GPRMC,040243.8,A,4741.19901,N,12224.25677,W,000.00,000.0,200413,016.6,E,A*2B
$PGRME,3.0,M,3.0,M,4.3,M*29
$GPRMC,040244.0,A,4741.19901,N,12224.25677,W,000.01,000.0,200413,016.6,E,A*25
$PGRME,3.0,M,3.0,M,4.3,M*29
$PGRMT,GPS 18x-5Hz software ver. 3.20,,,,,,,,*30
$GPRMC,040244.2,A,4741.19901,N,12224.25677,W,000.01,000.0,200413,016.6,E,A*27
$GPRMB,A,-31.69,L,,Ttp,4726.8700,N,12137.4300,W,34.7,131,-0.01,V*5C
$PGRME,3.0,M,3.0,M,4.3,M*29
$GPRMC,040244.4,A,4741.19901,N,12224.25677,W,000.01,000.0,200413,016.6,E,A*21
$PGRME,3.0,M,3.0,M,4.3,M*29
$GPRMC,040244.6,A,4741.19901,N,12224.25677,W,000.01,000.0,200413,016.6,E,A*23
$PGRME,3.0,M,3.0,M,4.3,M*29
$GPRMC,040244.8,A,4741.19901,N,12224.25676,W,000.00,000.0,200413,016.6,E,A*2D
$PGRME,3.0,M,3.0,M,4.3,M*29
$GPRMC,040245.0,A,4741.19901,N,12224.25677,W,000.01,000.0,200413,016.6,E,A*24
$PGRME,3.0,M,3.0,M,4.3,M*29
$GPRMC,040245.2,A,4741.19901,N,12224.25677,W,000.01,000.0,200413,016.6,E,A*26
$PGRME,3.0,M,3.0,M,4.3,M*29
$GPRMC,040245.4,A,4741.19901,N,12224.25677,W,000.01,000.0,200413,016.6,E,A*20
$GPRMB,A,-31.69,L,,Ttp,4726.8700,N,12137.4300,W,34.7,131,-0.01,V*5C
$PGRME,3.0,M,3.0,M,4.3,M*29
$GPRMC,040245.6,A,4741.19901,N,12224.25677,W,000.00,000.0,200413,016.6,E,A*23
$PGRME,3.0,M,3.0,M,4.3,M*29
$GPRMC,040245.8,A,4741.19901,N,12224.25676,W,000.00,000.0,200413,016.6,E,A*2C
$PGRME,3.0,M,3.0,M,4.3,M*29
$GPRMC,040246.0,A,4741.19901,N,12224.25676,W,000.01,000.0,200413,016.6,E,A*26
$PGRME,3.0,M,3.0,M,4.3,M*29
$GPRMC,040246.2,A,4741.19901,N,12224.25676,W,000.01,000.0,200413,016.6,E,A*24
$PGRME,3.0,M,3.0,M,4.3,M*29
$GPRMC,040246.4,A,4741.19901,N,12224.25676,W,000.00,000.0,200413,016.6,E,A*23
$PGRME,3.0,M,3.0,M,4.3,M*29
$GPRMC,040246.6,A,4741.19901,N,12224.25676,W,000.01,000.0,200413,016.6,E,A*20
$GPRMB,A,-31.69,L,,Ttp,4726.8700,N,12137.4300,W,34.7,131,-0.01,V*5C
$PTAK,FFP1,HEEL,@*07
$PGRME,3.0,M,3.0,M,4.3,M*29
$GPRMC,040246.8,A,4741.19901,N,12224.25677,W,000.00,000.0,200413,016.6,E,A*2E
$PGRME,3.0,M,3.0,M,4.3,M*29
$GPRMC,040247.0,A,4741.19901,N,12224.25677,W,000.01,000.0,200413,016.6,E,A*26
$PGRME,3.0,M,3.0,M,4.3,M*29
$GPRMC,040247.2,A,4741.19901,N,12224.25676,W,000.00,000.0,200413,016.6,E,A*24
$PGRME,3.0,M,3.0,M,4.3,M*29
$GPRMC,040247.4,A,4741.19901,N,12224.25676,W,000.01,000.0,200413,016.6,E,A*23
$PGRME,3.0,M,3.0,M,4.3,M*29
$GPRMC,040247.6,A,4741.19901,N,12224.25676,W,000.00,000.0,200413,016.6,E,A*20
$PGRME,3.0,M,3.0,M,4.3,M*29
$GPRMC,040247.8,A,4741.19901,N,12224.25676,W,000.01,000.0,200413,016.6,E,A*2F
$GPRMB,A,-31.69,L,,Ttp,4726.8700,N,12137.4300,W,34.7,131,-0.01,V*5C
$PGRME,3.0,M,3.0,M,4.3,M*29
$GPRMC,040248.0,A,4741.19901,N,12224.25676,W,000.00,000.0,200413,016.6,E,A*29
$PGRME,3.0,M,3.0,M,4.3,M*29
$GPRMC,040248.2,A,4741.19901,N,12224.25676,W,000.01,000.0,200413,016.6,E,A*2A
$PGRME,3.0,M,3.0,M,4.3,M*29
$GPRMC,040248.4,A,4741.19901,N,12224.25676,W,000.01,000.0,200413,016.6,E,A*2C
$PGRME,3.0,M,3.0,M,4.3,M*29
$GPRMC,040248.6,A,4741.19901,N,12224.25676,W,000.01,000.0,200413,016.6,E,A*2E
$PGRME,3.0,M,3.0,M,4.3,M*29
$GPRMC,040248.8,A,4741.19901,N,12224.25676,W,000.01,000.0,200413,016.6,E,A*20
$PGRME,3.0,M,3.0,M,4.3,M*29
$GPRMC,040249.0,A,4741.19901,N,12224.25676,W,000.00,000.0,200413,016.6,E,A*28
$GPRMB,A,-31.69,L,,Ttp,4726.8700,N,12137.4300,W,34.7,131,-0.00,V*5D
$PGRME,3.0,M,3.0,M,4.3,M*29
$GPRMC,040249.2,A,4741.19901,N,12224.25676,W,000.01,000.0,200413,016.6,E,A*2B
$PGRME,3.0,M,3.0,M,4.3,M*29
$GPRMC,040249.4,A,4741.19901,N,12224.25676,W,000.01,000.0,200413,016.6,E,A*2D
$PGRME,3.0,M,3.0,M,4.3,M*29
$GPRMC,040249.6,A,4741.19901,N,12224.25676,W,000.01,000.0,200413,016.6,E,A*2F
$PGRME,3.0,M,3.0,M,4.3,M*29
$GPRMC,040249.8,A,4741.19901,N,12224.25676,W,000.01,000.0,200413,016.6,E,A*21
$PGRME,3.0,M,3.0,M,4.3,M*29
$GPRMC,040250.0,A,4741.19901,N,12224.25676,W,000.00,000.0,200413,016.6,E,A*20
$GPRMB,A,-31.69,L,,Ttp,4726.8700,N,12137.4300,W,34.7,131,-0.00,V*5D
$PGRME,3.0,M,3.0,M,4.3,M*29
$GPRMC,040250.2,A,4741.19901,N,12224.25676,W,000.01,000.0,200413,016.6,E,A*23
$PGRME,3.0,M,3.0,M,4.3,M*29
$GPRMC,040250.4,A,4741.19901,N,12224.25677,W,000.01,000.0,200413,016.6,E,A*24
$PGRME,3.0,M,3.0,M,4.3,M*29
$GPRMC,040250.6,A,4741.19901,N,12224.25677,W,000.00,000.0,200413,016.6,E,A*27
$PTAK,FFP1,HEEL,@*07
$PGRME,3.0,M,3.0,M,4.3,M*29
$GPRMC,040250.8,A,4741.19901,N,12224.25677,W,000.01,000.0,200413,016.6,E,A*28
$PGRME,3.0,M,3.0,M,4.3,M*29
$GPRMC,040251.0,A,4741.19901,N,12224.25676,W,000.00,000.0,200413,016.6,E,A*21
$PGRME,3.0,M,3.0,M,4.3,M*29
$GPRMC,040251.2,A,4741.19901,N,12224.25676,W,000.01,000.0,200413,016.6,E,A*22
$GPRMB,A,-31.69,L,,Ttp,4726.8700,N,12137.4300,W,34.7,131,-0.01,V*5C
$PGRME,3.0,M,3.0,M,4.3,M*29
$GPRMC,040251.4,A,4741.19901,N,12224.25676,W,000.01,000.0,200413,016.6,E,A*24
$PGRME,3.0,M,3.0,M,4.3,M*29
$GPRMC,040251.6,A,4741.19901,N,12224.25676,W,000.00,000.0,200413,016.6,E,A*27
$PGRME,3.0,M,3.0,M,4.3,M*29
$GPRMC,040251.8,A,4741.19901,N,12224.25676,W,000.01,000.0,200413,016.6,E,A*28
$PGRME,3.0,M,3.0,M,4.3,M*29
$GPRMC,040252.0,A,4741.19901,N,12224.25677,W,000.00,000.0,200413,016.6,E,A*23
$PGRME,3.0,M,3.0,M,4.3,M*29
$GPRMC,040252.2,A,4741.19901,N,12224.25677,W,000.01,000.0,200413,016.6,E,A*20
$PGRME,3.0,M,3.0,M,4.3,M*29
$GPRMC,040252.4,A,4741.19901,N,12224.25677,W,000.00,000.0,200413,016.6,E,A*27
$PGRME,3.0,M,3.0,M,4.3,M*29
$GPRMC,040252.6,A,4741.19901,N,12224.25677,W,000.01,000.0,200413,016.6,E,A*24
$GPRMB,A,-31.69,L,,Ttp,4726.8700,N,12137.4300,W,34.7,131,-0.01,V*5C
$PGRME,3.0,M,3.0,M,4.3,M*29
$GPRMC,040252.8,A,4741.19901,N,12224.25677,W,000.01,000.0,200413,016.6,E,A*2A
$PGRME,3.0,M,3.0,M,4.3,M*29
$GPRMC,040253.0,A,4741.19901,N,12224.25677,W,000.01,000.0,200413,016.6,E,A*23
$PGRME,3.0,M,3.0,M,4.3,M*29
$GPRMC,040253.2,A,4741.19901,N,12224.25677,W,000.01,000.0,200413,016.6,E,A*21
$PGRME,3.0,M,3.0,M,4.3,M*29
$GPRMC,040253.4,A,4741.19901,N,12224.25677,W,000.00,000.0,200413,016.6,E,A*26
$PGRME,3.0,M,3.0,M,4.3,M*29
$GPRMC,040253.6,A,4741.19901,N,12224.25677,W,000.00,000.0,200413,016.6,E,A*24
$PGRME,3.0,M,3.0,M,4.3,M*29
$GPRMC,040253.8,A,4741.19901,N,12224.25677,W,000.01,000.0,200413,016.6,E,A*2B
$GPRMB,A,-31.69,L,,Ttp,4726.8700,N,12137.4300,W,34.7,131,-0.01,V*5C
$PGRME,3.0,M,3.0,M,4.3,M*29
$GPRMC,040254.0,A,4741.19901,N,12224.25677,W,000.01,000.0,200413,016.6,E,A*24
$PGRME,3.0,M,3.0,M,4.3,M*29
$GPRMC,040254.2,A,4741.19901,N,12224.25677,W,000.00,000.0,200413,016.6,E,A*27
$PGRME,3.0,M,3.0,M,4.3,M*29
$GPRMC,040254.4,A,4741.19901,N,12224.25677,W,000.00,000.0,200413,016.6,E,A*21
$PGRME,3.0,M,3.0,M,4.3,M*29
$GPRMC,040254.6,A,4741.19902,N,12224.25677,W,000.01,000.0,200413,016.6,E,A*21
$PGRME,3.0,M,3.0,M,4.3,M*29
$GPRMC,040254.8,A,4741.19902,N,12224.25677,W,000.01,000.0,200413,016.6,E,A*2F
$PTAK,FFP1,HEEL,@*07
$PGRME,3.0,M,3.0,M,4.3,M*29
$GPRMC,040255.0,A,4741.19901,N,12224.25677,W,000.01,000.0,200413,016.6,E,A*25
$GPRMB,A,-31.69,L,,Ttp,4726.8700,N,12137.4300,W,34.7,131,-0.01,V*5C
$PGRME,3.0,M,3.0,M,4.3,M*29
$GPRMC,040255.2,A,4741.19901,N,12224.25677,W,000.01,000.0,200413,016.6,E,A*27
$PGRME,3.0,M,3.0,M,4.3,M*29
$GPRMC,040255.4,A,4741.19901,N,12224.25677,W,000.01,000.0,200413,016.6,E,A*21
$PGRME,3.0,M,3.0,M,4.3,M*29
$GPRMC,040255.6,A,4741.19901,N,12224.25677,W,000.00,000.0,200413,016.6,E,A*22
$PGRME,3.0,M,3.0,M,4.3,M*29
$GPRMC,040255.8,A,4741.19901,N,12224.25677,W,000.00,000.0,200413,016.6,E,A*2C
$PGRME,3.0,M,3.0,M,4.3,M*29
$GPRMC,040256.0,A,4741.19901,N,12224.25677,W,000.01,000.0,200413,016.6,E,A*26
$GPRMB,A,-31.69,L,,Ttp,4726.8700,N,12137.4300,W,34.7,131,-0.01,V*5C
$PGRME,3.0,M,3.0,M,4.3,M*29
$GPRMC,040256.2,A,4741.19901,N,12224.25677,W,000.00,000.0,200413,016.6,E,A*25
$PGRME,3.0,M,3.0,M,4.3,M*29
$GPRMC,040256.4,A,4741.19901,N,12224.25677,W,000.01,000.0,200413,016.6,E,A*22
$PGRME,3.0,M,3.0,M,4.3,M*29
$GPRMC,040256.6,A,4741.19901,N,12224.25677,W,000.01,000.0,200413,016.6,E,A*20
$PGRME,3.0,M,3.0,M,4.3,M*29
$GPRMC,040256.8,A,4741.19901,N,12224.25677,W,000.01,000.0,200413,016.6,E,A*2E
$PGRME,3.0,M,3.0,M,4.3,M*29
$GPRMC,040257.0,A,4741.19901,N,12224.25677,W,000.00,000.0,200413,016.6,E,A*26
$GPRMB,A,-31.69,L,,Ttp,4726.8700,N,12137.4300,W,34.7,131,-0.00,V*5D
$PGRME,3.0,M,3.0,M,4.3,M*29
$GPRMC,040257.2,A,4741.19901,N,12224.25677,W,000.00,000.0,200413,016.6,E,A*24
$PGRME,3.0,M,3.0,M,4.3,M*29
$GPRMC,040257.4,A,4741.19901,N,12224.25677,W,000.00,000.0,200413,016.6,E,A*22
$PGRME,3.0,M,3.0,M,4.3,M*29
$GPRMC,040257.6,A,4741.19901,N,12224.25677,W,000.01,000.0,200413,016.6,E,A*21
$PGRME,3.0,M,3.0,M,4.3,M*29
$GPRMC,040257.8,A,4741.19901,N,12224.25677,W,000.01,000.0,200413,016.6,E,A*2F
$PGRME,3.0,M,3.0,M,4.3,M*29
$GPRMC,040258.0,A,4741.19901,N,12224.25677,W,000.01,000.0,200413,016.6,E,A*28
$PGRME,3.0,M,3.0,M,4.3,M*29
$GPRMC,040258.2,A,4741.19901,N,12224.25677,W,000.00,000.0,200413,016.6,E,A*2B
$GPRMB,A,-31.69,L,,Ttp,4726.8700,N,12137.4300,W,34.7,131,-0.00,V*5D
$PGRME,3.0,M,3.0,M,4.3,M*29
$GPRMC,040258.4,A,4741.19901,N,12224.25677,W,000.01,000.0,200413,016.6,E,A*2C
$PGRME,3.0,M,3.0,M,4.3,M*29
$GPRMC,040258.6,A,4741.19901,N,12224.25677,W,000.01,000.0,200413,016.6,E,A*2E
$PGRME,3.0,M,3.0,M,4.3,M*29
$GPRMC,040258.8,A,4741.19901,N,12224.25678,W,000.01,000.0,200413,016.6,E,A*2F
$PTAK,FFP1,HEEL,@*07
$PGRME,3.0,M,3.0,M,4.3,M*29
$GPRMC,040259.0,A,4741.19901,N,12224.25678,W,000.01,000.0,200413,016.6,E,A*26
$PGRME,3.0,M,3.0,M,4.3,M*29
$GPRMC,040259.2,A,4741.19901,N,12224.25678,W,000.01,000.0,200413,016.6,E,A*24
$GPRMB,A,-31.69,L,,Ttp,4726.8700,N,12137.4300,W,34.7,131,-0.01,V*5C
$PGRME,3.0,M,3.0,M,4.3,M*29
$GPRMC,040259.4,A,4741.19901,N,12224.25677,W,000.00,000.0,200413,016.6,E,A*2C
$PGRME,3.0,M,3.0,M,4.3,M*29
$GPRMC,040259.6,A,4741.19901,N,12224.25677,W,000.00,000.0,200413,016.6,E,A*2E
$PGRME,3.0,M,3.0,M,4.3,M*29
$GPRMC,040259.8,A,4741.19901,N,12224.25677,W,000.00,000.0,200413,016.6,E,A*20
$PGRME,3.0,M,3.0,M,4.3,M*29
$GPRMC,040300.0,A,4741.19901,N,12224.25677,W,000.01,000.0,200413,016.6,E,A*24
$PGRME,3.0,M,3.0,M,4.3,M*29
$GPRMC,040300.2,A,4741.19901,N,12224.25677,W,000.00,000.0,200413,016.6,E,A*27
$PGRME,3.0,M,3.0,M,4.3,M*29
$GPRMC,040300.4,A,4741.19901,N,12224.25677,W,000.01,000.0,200413,016.6,E,A*20
$GPRMB,A,-31.69,L,,Ttp,4726.8700,N,12137.4300,W,34.7,131,-0.01,V*5C
$PGRME,3.0,M,3.0,M,4.3,M*29
$GPRMC,040300.6,A,4741.19901,N,12224.25677,W,000.01,000.0,200413,016.6,E,A*22
$PGRME,3.0,M,3.0,M,4.3,M*29
$GPRMC,040300.8,A,4741.19901,N,12224.25677,W,000.01,000.0,200413,016.6,E,A*2C
$PGRME,3.0,M,3.0,M,4.3,M*29
$GPRMC,040301.0,A,4741.19901,N,12224.25677,W,000.01,000.0,200413,016.6,E,A*25
$PGRME,3.0,M,3.0,M,4.3,M*29
$GPRMC,040301.2,A,4741.19901,N,12224.25677,W,000.01,000.0,200413,016.6,E,A*27
$PGRME,3.0,M,3.0,M,4.3,M*29
$GPRMC,040301.4,A,4741.19901,N,12224.25677,W,000.01,000.0,200413,016.6,E,A*21
$PGRME,3.0,M,3.0,M,4.3,M*29
$GPRMC,040301.6,A,4741.19901,N,12224.25677,W,000.00,000.0,200413,016.6,E,A*22
$GPRMB,A,-31.69,L,,Ttp,4726.8700,N,12137.4300,W,34.7,131,-0.00,V*5D
$PGRME,3.0,M,3.0,M,4.3,M*29
$GPRMC,040301.8,A,4741.19901,N,12224.25677,W,000.01,000.0,200413,016.6,E,A*2D
$PGRME,3.0,M,3.0,M,4.3,M*29
$GPRMC,040302.0,A,4741.19901,N,12224.25677,W,000.01,000.0,200413,016.6,E,A*26
$PGRME,3.0,M,3.0,M,4.3,M*29
$GPRMC,040302.2,A,4741.19901,N,12224.25678,W,000.00,000.0,200413,016.6,E,A*2A
$PGRME,3.0,M,3.0,M,4.3,M*29
$GPRMC,040302.4,A,4741.19901,N,12224.25678,W,000.01,000.0,200413,016.6,E,A*2D
$PGRME,3.0,M,3.0,M,4.3,M*29
$GPRMC,040302.6,A,4741.19901,N,12224.25677,W,000.00,000.0,200413,016.6,E,A*21
$GPRMB,A,-31.69,L,,Ttp,4726.8700,N,12137.4300,W,34.7,131,-0.00,V*5D
$PGRME,3.0,M,3.0,M,4.3,M*29
