$PGRME,2.4,M,2.4,M,3.4,M*29
$HCHDG,44.6,0.0,E,,*1F
$IIVLW,06233,N,004.8,N*5B
$HCHDG,44.5,0.0,E,,*1C
$IIGLL,4743.058,N,12225.105,W,195900,A,A*4D
$IIMTW,+09.0,C*31
$HCHDG,44.4,0.0,E,,*1D
$GPRMC,200000.4,A,4743.05872,N,12225.10584,W,000.57,294.7,210413,016.6,E,D*28
$GPRMB,A,-0.36,L,,M,4741.7720,N,12224.5760,W,1.3,181,-0.07,V*48
$PGRME,2.4,M,2.4,M,3.4,M*29
$IIRMB,A,,,,M   ,,,,,001.3,181,,V,A*72
$HCHDG,44.4,0.0,E,,*1D
$HCHDG,44.4,0.0,E,,*1D
$GPRMC,200000.6,A,4743.05873,N,12225.10591,W,000.59,294.7,210413,016.6,E,D*21
$PGRME,2.4,M,2.4,M,3.4,M*29
$YXXDR,A,5.1,D,PTCH,A,-1.7,D,ROLL*72
$PTAK,FFD1,1.7*53
$HCHDG,44.4,0.0,E,,*1D
$HCHDG,44.4,0.0,E,,*1D
$GPRMC,200000.8,A,4743.05867,N,12225.10605,W,000.58,294.7,210413,016.6,E,D*25
$PGRME,2.4,M,2.4,M,3.4,M*29
$HCHDG,44.2,0.0,E,,*1B
$HCHDG,44.1,0.0,E,,*18
$GPRMC,200001.0,A,4743.05867,N,12225.10612,W,000.56,294.7,210413,016.6,E,D*24
$PGRME,2.4,M,2.4,M,3.4,M*29
$HCHDG,44.2,0.0,E,,*1B
$IIRMC,200000,A,4743.058,N,12225.105,W,00.5,294,210413,16,E,A*1F
$YXXDR,A,5.1,D,PTCH,A,-2.3,D,ROLL*75
$IIVHW,,,,,00.0,N,,*19
$GPRMC,200001.2,A,4743.05875,N,12225.10614,W,000.53,294.7,210413,016.6,E,D*26
$PGRME,2.4,M,2.4,M,3.4,M*29
$HCHDG,44.0,0.0,E,,*19
$IIVLW,06233,N,004.8,N*5B
$HCHDG,44.0,0.0,E,,*19
$PTAK,FFP1,HEEL,@*07
$IIGLL,4743.058,N,12225.105,W,200000,A,A*4B
$IIMTW,+09.0,C*31
$HCHDG,44.0,0.0,E,,*19
$GPRMC,200001.4,A,4743.05886,N,12225.10610,W,000.34,294.7,210413,016.6,E,D*29
$GPRMB,A,-0.36,L,,M,4741.7720,N,12224.5760,W,1.3,181,-0.04,V*4B
$PGRME,2.4,M,2.4,M,3.4,M*29
$IIRMB,A,,,,M   ,,,,,001.3,181,,V,A*72
$HCHDG,44.0,0.0,E,,*19
$HCHDG,44.1,0.0,E,,*18
$GPRMC,200001.6,A,4743.05899,N,12225.10608,W,000.33,294.7,210413,016.6,E,D*2B
$PGRME,2.4,M,2.4,M,3.4,M*29
$YXXDR,A,5.4,D,PTCH,A,-1.5,D,ROLL*75
$HCHDG,44.1,0.0,E,,*18
$HCHDG,44.3,0.0,E,,*1A
$GPRMC,200001.8,A,4743.05901,N,12225.10604,W,000.33,294.7,210413,016.6,E,D*29
$PGRME,2.4,M,2.4,M,3.4,M*29
$HCHDG,44.3,0.0,E,,*1A
$HCHDG,44.4,0.0,E,,*1D
$GPRMC,200002.0,A,4743.05901,N,12225.10602,W,000.33,294.7,210413,016.6,E,D*24
$PGRME,2.4,M,2.4,M,3.4,M*29
$HCHDG,44.2,0.0,E,,*1B
$IIRMC,200000,A,4743.058,N,12225.106,W,00.5,294,210413,16,E,A*1C
$YXXDR,A,5.1,D,PTCH,A,-1.1,D,ROLL*74
$PTAK,FFD1,1.1*55
$IIVHW,,,,,00.0,N,,*19
$GPRMC,200002.2,A,4743.05902,N,12225.10603,W,000.34,294.7,210413,016.6,E,D*23
$PGRME,2.4,M,2.4,M,3.4,M*29
$HCHDG,44.4,0.0,E,,*1D
$IIVLW,06233,N,004.8,N*5B
$HCHDG,44.4,0.0,E,,*1D
$IIGLL,4743.058,N,12225.106,W,200000,A,A*48
$IIMTW,+09.0,C*31
$HCHDG,44.3,0.0,E,,*1A
$GPRMC,200002.4,A,4743.05904,N,12225.10604,W,000.36,294.7,210413,016.6,E,D*26
$GPRMB,A,-0.36,L,,M,4741.7720,N,12224.5760,W,1.3,181,-0.04,V*4B
$PGRME,2.4,M,2.4,M,3.4,M*29
$IIRMB,A,,,,M   ,,,,,001.3,181,,V,A*72
$HCHDG,44.2,0.0,E,,*1B
$HCHDG,44.1,0.0,E,,*18
$GPRMC,200002.6,A,4743.05906,N,12225.10609,W,000.37,294.7,210413,016.6,E,D*2A
$PGRME,2.4,M,2.4,M,3.4,M*29
$YXXDR,A,5.1,D,PTCH,A,-1.8,D,ROLL*7D
$HCHDG,43.8,0.0,E,,*16
$HCHDG,43.7,0.0,E,,*19
$GPRMC,200002.8,A,4743.05909,N,12225.10612,W,000.38,294.7,210413,016.6,E,D*2E
$PGRME,2.4,M,2.4,M,3.4,M*29
$HCHDG,43.5,0.0,E,,*1B
$HCHDG,43.5,0.0,E,,*1B
$GPRMC,200003.0,A,4743.05914,N,12225.10613,W,000.39,294.7,210413,016.6,E,D*2B
$PGRME,2.4,M,2.4,M,3.4,M*29
$HCHDG,43.2,0.0,E,,*1C
$IIRMC,200000,A,4743.059,N,12225.106,W,00.3,294,210413,16,E,A*1B
$YXXDR,A,5.4,D,PTCH,A,-1.7,D,ROLL*77
$IIVHW,,,,,00.0,N,,*19
$GPRMC,200003.2,A,4743.05917,N,12225.10614,W,000.40,294.7,210413,016.6,E,D*23
$PGRME,2.4,M,2.4,M,3.4,M*29
$HCHDG,43.1,0.0,E,,*1F
$IIVLW,06233,N,004.8,N*5B
$HCHDG,43.1,0.0,E,,*1F
$IIGLL,4743.059,N,12225.106,W,200000,A,A*49
$IIMTW,+09.0,C*31
$GPRMC,200003.4,A,4743.05921,N,12225.10612,W,000.41,294.7,210413,016.6,E,D*27
$HCHDG,43.0,0.0,E,,*1E
$PGRME,2.4,M,2.4,M,3.4,M*29
$IIRMB,A,,,,M   ,,,,,001.3,181,,V,A*72
$HCHDG,43.2,0.0,E,,*1C
$GPRMC,200003.6,A,4743.05926,N,12225.10616,W,000.46,294.7,210413,016.6,E,D*21
$GPRMB,A,-0.36,L,,M,4741.7720,N,12224.5760,W,1.3,181,-0.06,V*49
$HCHDG,43.1,0.0,E,,*1F
$PGRME,2.4,M,2.4,M,3.4,M*29
$YXXDR,A,5.4,D,PTCH,A,-1.6,D,ROLL*76
$PTAK,FFD1,1.6*52
$HCHDG,43.2,0.0,E,,*1C
$HCHDG,43.4,0.0,E,,*1A
$GPRMC,200003.8,A,4743.05929,N,12225.10616,W,000.49,294.7,210413,016.6,E,D*2F
$PGRME,2.4,M,2.4,M,3.4,M*29
$HCHDG,43.6,0.0,E,,*18
$GPRMC,200004.0,A,4743.05934,N,12225.10615,W,000.53,294.7,210413,016.6,E,D*24
$PGRME,2.4,M,2.4,M,3.4,M*29
$HCHDG,43.6,0.0,E,,*18
$HCHDG,43.7,0.0,E,,*19
$IIRMC,200000,A,4743.059,N,12225.106,W,00.3,294,210413,16,E,A*1B
$YXXDR,A,5.1,D,PTCH,A,-1.4,D,ROLL*71
$IIVHW,,,,,00.0,N,,*19
$GPRMC,200004.2,A,4743.05937,N,12225.10615,W,000.57,294.7,210413,016.6,E,D*21
$PGRME,2.4,M,2.4,M,3.4,M*29
$HCHDG,43.5,0.0,E,,*1B
$IIVLW,06233,N,004.8,N*5B
$HCHDG,43.6,0.0,E,,*18
$IIGLL,4743.059,N,12225.106,W,200000,A,A*49
$IIMTW,+09.0,C*31
$HCHDG,43.5,0.0,E,,*1B
$GPRMC,200004.4,A,4743.05938,N,12225.10609,W,000.60,294.7,210413,016.6,E,D*21
$PGRME,2.4,M,2.4,M,3.4,M*29
$IIRMB,A,,,,M   ,,,,,001.3,181,,V,A*72
$HCHDG,43.6,0.0,E,,*18
$GPRMC,200004.6,A,4743.05941,N,12225.10606,W,000.62,294.7,210413,016.6,E,D*20
$PGRME,2.4,M,2.4,M,3.4,M*29
$HCHDG,43.6,0.0,E,,*18
$YXXDR,A,5.0,D,PTCH,A,-1.9,D,ROLL*7D
$HCHDG,43.5,0.0,E,,*1B
$HCHDG,43.5,0.0,E,,*1B
$GPRMC,200004.8,A,4743.05943,N,12225.10607,W,000.63,294.7,210413,016.6,E,D*2C
$GPRMB,A,-0.36,L,,M,4741.7720,N,12224.5760,W,1.3,181,-0.08,V*47
$PGRME,2.4,M,2.4,M,3.4,M*29
$HCHDG,43.6,0.0,E,,*18
$HCHDG,43.6,0.0,E,,*18
$GPRMC,200005.0,A,4743.05943,N,12225.10614,W,000.62,294.7,210413,016.6,E,D*26
$PGRME,2.4,M,2.4,M,3.4,M*29
$HCHDG,43.7,0.0,E,,*19
$IIRMC,200000,A,4743.059,N,12225.106,W,00.5,294,210413,16,E,A*1D
$YXXDR,A,5.0,D,PTCH,A,-2.3,D,ROLL*74
$PTAK,FFD1,2.3*54
$IIVHW,,,,,00.0,N,,*19
$GPRMC,200005.2,A,4743.05944,N,12225.10615,W,000.59,294.7,210413,016.6,E,D*2A
$PGRME,2.4,M,2.4,M,3.4,M*29
$HCHDG,43.6,0.0,E,,*18
$IIVLW,06233,N,004.8,N*5B
$HCHDG,43.6,0.0,E,,*18
$PTAK,FFP1,HEEL,@*07
$IIGLL,4743.059,N,12225.106,W,200000,A,A*49
$IIMTW,+09.0,C*31
$HCHDG,43.7,0.0,E,,*19
$GPRMC,200005.4,A,4743.05948,N,12225.10611,W,000.56,294.7,210413,016.6,E,D*2B
$PGRME,2.4,M,2.4,M,3.4,M*29
$IIRMB,A,,,,M   ,,,,,001.3,181,,V,A*72
$HCHDG,43.5,0.0,E,,*1B
$HCHDG,43.6,0.0,E,,*18
$GPRMC,200005.6,A,4743.05950,N,12225.10606,W,000.57,294.7,210413,016.6,E,D*27
$PGRME,2.4,M,2.4,M,3.4,M*29
$YXXDR,A,5.1,D,PTCH,A,-2.0,D,ROLL*76
$HCHDG,43.4,0.0,E,,*1A
$HCHDG,43.4,0.0,E,,*1A
$GPRMC,200005.8,A,4743.05948,N,12225.10604,W,000.56,294.7,210413,016.6,E,D*23
$GPRMB,A,-0.36,L,,M,4741.7720,N,12224.5760,W,1.3,181,-0.07,V*48
$PGRME,2.4,M,2.4,M,3.4,M*29
$HCHDG,43.4,0.0,E,,*1A
$HCHDG,43.4,0.0,E,,*1A
$GPRMC,200006.0,A,4743.05948,N,12225.10602,W,000.54,294.7,210413,016.6,E,D*2C
$PGRME,2.4,M,2.4,M,3.4,M*29
$HCHDG,43.3,0.0,E,,*1D
$IIRMC,200000,A,4743.059,N,12225.106,W,00.6,294,210413,16,E,A*1E
$YXXDR,A,5.0,D,PTCH,A,-1.9,D,ROLL*7D
$IIVHW,,,,,00.0,N,,*19
$GPRMC,200006.2,A,4743.05950,N,12225.10600,W,000.54,294.7,210413,016.6,E,D*25
$PGRME,2.4,M,2.4,M,3.4,M*29
$HCHDG,43.2,0.0,E,,*1C
$IIVLW,06233,N,004.8,N*5B
$HCHDG,43.0,0.0,E,,*1E
$IIGLL,4743.059,N,12225.106,W,200000,A,A*49
$IIMTW,+09.0,C*31
$HCHDG,42.9,0.0,E,,*16
$GPRMC,200006.4,A,4743.05957,N,12225.10598,W,000.53,294.7,210413,016.6,E,D*21
$PGRME,2.4,M,2.4,M,3.4,M*29
$IIRMB,A,,,,M   ,,,,,001.3,181,,V,A*72
$HCHDG,43.0,0.0,E,,*1E
$HCHDG,43.2,0.0,E,,*1C
$GPRMC,200006.6,A,4743.05964,N,12225.10601,W,000.50,294.7,210413,016.6,E,D*23
$PGRME,2.4,M,2.4,M,3.4,M*29
$YXXDR,A,5.0,D,PTCH,A,-1.3,D,ROLL*77
$PTAK,FFD1,1.3*57
$HCHDG,43.1,0.0,E,,*1F
$HCHDG,43.1,0.0,E,,*1F
$GPRMC,200006.8,A,4743.05964,N,12225.10598,W,000.48,294.7,210413,016.6,E,D*27
$GPRMB,A,-0.36,L,,M,4741.7720,N,12224.5760,W,1.3,181,-0.06,V*49
$PGRME,2.4,M,2.4,M,3.4,M*29
$HCHDG,43.1,0.0,E,,*1F
$HCHDG,42.8,0.0,E,,*17
$GPRMC,200007.0,A,4743.05966,N,12225.10594,W,000.47,294.7,210413,016.6,E,D*2F
$PGRME,2.4,M,2.4,M,3.4,M*29
$HCHDG,43.0,0.0,E,,*1E
$IIRMC,200000,A,4743.059,N,12225.106,W,00.5,294,210413,16,E,A*1D
$YXXDR,A,5.4,D,PTCH,A,-1.1,D,ROLL*71
$IIVHW,,,,,00.0,N,,*19
$GPRMC,200007.2,A,4743.05969,N,12225.10587,W,000.46,294.7,210413,016.6,E,D*21
$PGRME,2.4,M,2.4,M,3.4,M*29
$HCHDG,42.9,0.0,E,,*16
$IIVLW,06233,N,004.8,N*5B
$HCHDG,42.9,0.0,E,,*16
$IIGLL,4743.059,N,12225.106,W,200000,A,A*49
$IIMTW,+09.0,C*31
$HCHDG,43.1,0.0,E,,*1F
$GPRMC,200007.4,A,4743.05973,N,12225.10582,W,000.43,294.7,210413,016.6,E,D*2C
$PGRME,2.4,M,2.4,M,3.4,M*29
$IIRMB,A,,,,M   ,,,,,001.3,181,,V,A*72
$HCHDG,43.1,0.0,E,,*1F
$HCHDG,43.0,0.0,E,,*1E
$GPRMC,200007.6,A,4743.05973,N,12225.10570,W,000.46,294.7,210413,016.6,E,D*26
$PGRME,2.4,M,2.4,M,3.4,M*29
$YXXDR,A,5.2,D,PTCH,A,-1.2,D,ROLL*74
$HCHDG,43.0,0.0,E,,*1E
$HCHDG,43.0,0.0,E,,*1E
$GPRMC,200007.8,A,4743.05970,N,12225.10564,W,000.47,294.7,210413,016.6,E,D*2F
$PGRME,2.4,M,2.4,M,3.4,M*29
$HCHDG,43.0,0.0,E,,*1E
$HCHDG,42.9,0.0,E,,*16
$GPRMC,200008.0,A,4743.05970,N,12225.10555,W,000.45,294.7,210413,016.6,E,D*28
$GPRMB,A,-0.36,L,,M,4741.7720,N,12224.5760,W,1.3,181,-0.05,V*4A
$PGRME,2.4,M,2.4,M,3.4,M*29
$HCHDG,42.9,0.0,E,,*16
$IIRMC,200000,A,4743.059,N,12225.105,W,00.4,294,210413,16,E,A*1F
$YXXDR,A,5.1,D,PTCH,A,-1.4,D,ROLL*71
$PTAK,FFD1,1.4*50
$IIVHW,,,,,00.0,N,,*19
$GPRMC,200008.2,A,4743.05972,N,12225.10551,W,000.44,294.7,210413,016.6,E,D*2D
$PGRME,2.4,M,2.4,M,3.4,M*29
$HCHDG,42.9,0.0,E,,*16
$IIVLW,06233,N,004.8,N*5B
$HCHDG,43.1,0.0,E,,*1F
$IIGLL,4743.059,N,12225.105,W,200000,A,A*4A
$IIMTW,+09.0,C*31
$HCHDG,43.0,0.0,E,,*1E
$GPRMC,200008.4,A,4743.05976,N,12225.10550,W,000.44,294.7,210413,016.6,E,D*2E
$PGRME,2.4,M,2.4,M,3.4,M*29
$IIRMB,A,,,,M   ,,,,,001.3,181,,V,A*72
$HCHDG,43.0,0.0,E,,*1E
$HCHDG,43.0,0.0,E,,*1E
$GPRMC,200008.6,A,4743.05981,N,12225.10547,W,000.43,294.7,210413,016.6,E,D*25
$PGRME,2.4,M,2.4,M,3.4,M*29
$YXXDR,A,5.3,D,PTCH,A,-1.3,D,ROLL*74
$HCHDG,43.4,0.0,E,,*1A
$HCHDG,43.4,0.0,E,,*1A
$GPRMC,200008.8,A,4743.05984,N,12225.10547,W,000.44,294.7,210413,016.6,E,D*29
$PGRME,2.4,M,2.4,M,3.4,M*29
$HCHDG,43.5,0.0,E,,*1B
$HCHDG,43.7,0.0,E,,*19
$GPRMC,200009.0,A,4743.05986,N,12225.10543,W,000.45,294.7,210413,016.6,E,D*27
$GPRMB,A,-0.36,L,,M,4741.7720,N,12224.5760,W,1.3,181,-0.05,V*4A
$PGRME,2.4,M,2.4,M,3.4,M*29
$HCHDG,43.8,0.0,E,,*16
$IIRMC,200000,A,4743.059,N,12225.105,W,00.4,294,210413,16,E,A*1F
$YXXDR,A,4.9,D,PTCH,A,-1.2,D,ROLL*7E
$PTAK,FFD1,1.2*56
$IIVHW,,,,,00.0,N,,*19
$GPRMC,200009.2,A,4743.05988,N,12225.10543,W,000.45,294.7,210413,016.6,E,D*2B
$PGRME,2.4,M,2.4,M,3.4,M*29
$HCHDG,43.8,0.0,E,,*16
$PTAK,FFP1,HEEL,@*07
$IIVLW,06233,N,004.8,N*5B
$HCHDG,44.0,0.0,E,,*19
$IIGLL,4743.059,N,12225.105,W,200000,A,A*4A
$IIMTW,+09.0,C*31
$HCHDG,43.8,0.0,E,,*16
$GPRMC,200009.4,A,4743.05991,N,12225.10542,W,000.51,294.7,210413,016.6,E,D*21
$PGRME,2.4,M,2.4,M,3.4,M*29
$IIRMB,A,,,,M   ,,,,,001.3,181,,V,A*72
$HCHDG,43.6,0.0,E,,*18
$HCHDG,43.7,0.0,E,,*19
$GPRMC,200009.6,A,4743.05994,N,12225.10542,W,000.50,294.7,210413,016.6,E,D*27
$PGRME,2.4,M,2.4,M,3.4,M*29
$YXXDR,A,5.0,D,PTCH,A,-1.9,D,ROLL*7D
$HCHDG,43.6,0.0,E,,*18
$HCHDG,43.6,0.0,E,,*18
$GPRMC,200009.8,A,4743.05996,N,12225.10541,W,000.48,294.7,210413,016.6,E,D*21
$PGRME,2.4,M,2.4,M,3.4,M*29
$HCHDG,43.3,0.0,E,,*1D
$HCHDG,43.0,0.0,E,,*1E
$GPRMC,200010.0,A,4743.05999,N,12225.10540,W,000.35,294.7,210413,016.6,E,D*25
$PGRME,2.4,M,2.4,M,3.4,M*29
$HCHDG,43.0,0.0,E,,*1E
$IIRMC,200000,A,4743.059,N,12225.105,W,00.4,294,210413,16,E,A*1F
$YXXDR,A,5.2,D,PTCH,A,-1.9,D,ROLL*7F
$IIVHW,,,,,00.0,N,,*19
$GPRMC,200010.2,A,4743.06001,N,12225.10539,W,000.41,294.7,210413,016.6,E,D*21
$GPRMB,A,-0.36,L,,M,4741.7720,N,12224.5760,W,1.3,181,-0.05,V*4A
$PGRME,2.4,M,2.4,M,3.4,M*29
$HCHDG,42.7,0.0,E,,*18
$IIVLW,06233,N,004.8,N*5B
$HCHDG,42.6,0.0,E,,*19
$IIGLL,4743.059,N,12225.105,W,200000,A,A*4A
$IIMTW,+09.0,C*31
$GPRMC,200010.4,A,4743.06003,N,12225.10539,W,000.35,294.7,210413,016.6,E,D*26
$HCHDG,42.7,0.0,E,,*18
$PGRME,2.4,M,2.4,M,3.4,M*29
$IIRMB,A,,,,M   ,,,,,001.3,181,,V,A*72
$HCHDG,42.5,0.0,E,,*1A
$HCHDG,42.5,0.0,E,,*1A
$GPRMC,200010.6,A,4743.06005,N,12225.10540,W,000.25,294.7,210413,016.6,E,D*2D
$PGRME,2.4,M,2.4,M,3.4,M*29
$YXXDR,A,5.4,D,PTCH,A,-1.1,D,ROLL*71
$PTAK,FFD1,1.1*55
$HCHDG,42.6,0.0,E,,*19
$HCHDG,42.5,0.0,E,,*1A
$GPRMC,200010.8,A,4743.06007,N,12225.10540,W,000.31,294.7,210413,016.6,E,D*24
$PGRME,2.4,M,2.4,M,3.4,M*29
$HCHDG,42.5,0.0,E,,*1A
$HCHDG,42.7,0.0,E,,*18
$GPRMC,200011.0,A,4743.06008,N,12225.10541,W,000.29,294.7,210413,016.6,E,D*2A
$PGRME,2.4,M,2.4,M,3.4,M*29
$HCHDG,42.5,0.0,E,,*1A
$IIRMC,200000,A,4743.060,N,12225.105,W,00.4,294,210413,16,E,A*15
$YXXDR,A,5.4,D,PTCH,A,-0.9,D,ROLL*78
$IIVHW,,,,,00.0,N,,*19
$GPRMC,200011.2,A,4743.06010,N,12225.10541,W,000.32,294.7,210413,016.6,E,D*2B
$GPRMB,A,-0.36,L,,M,4741.7720,N,12224.5760,W,1.3,181,-0.04,V*4B
$PGRME,2.4,M,2.4,M,3.4,M*29
$HCHDG,42.6,0.0,E,,*19
$IIVLW,06233,N,004.8,N*5B
$HCHDG,42.5,0.0,E,,*1A
$IIGLL,4743.060,N,12225.105,W,200000,A,A*40
$IIMTW,+09.0,C*31
$GPRMC,200011.4,A,4743.06012,N,12225.10541,W,000.27,294.7,210413,016.6,E,D*2B
$HCHDG,42.6,0.0,E,,*19
$PGRME,2.4,M,2.4,M,3.4,M*29
$IIRMB,A,,,,M   ,,,,,001.3,181,,V,A*72
$HCHDG,42.9,0.0,E,,*16
$HCHDG,42.9,0.0,E,,*16
$GPRMC,200011.6,A,4743.06013,N,12225.10541,W,000.30,294.7,210413,016.6,E,D*2E
$PGRME,2.4,M,2.4,M,3.4,M*29
$YXXDR,A,5.1,D,PTCH,A,-1.1,D,ROLL*74
$HCHDG,42.9,0.0,E,,*16
$HCHDG,42.7,0.0,E,,*18
$GPRMC,200011.8,A,4743.06015,N,12225.10541,W,000.28,294.7,210413,016.6,E,D*2F
$PGRME,2.4,M,2.4,M,3.4,M*29
$HCHDG,42.8,0.0,E,,*17
$HCHDG,42.9,0.0,E,,*16
$GPRMC,200012.0,A,4743.06016,N,12225.10540,W,000.34,294.7,210413,016.6,E,D*2B
$PGRME,2.4,M,2.4,M,3.4,M*29
$HCHDG,43.0,0.0,E,,*1E
$IIRMC,200000,A,4743.060,N,12225.105,W,00.3,294,210413,16,E,A*12
$YXXDR,A,5.1,D,PTCH,A,-1.7,D,ROLL*72
$PTAK,FFD1,1.7*53
$IIVHW,,,,,00.0,N,,*19
$GPRMC,200012.2,A,4743.06018,N,12225.10541,W,000.36,294.7,210413,016.6,E,D*24
$GPRMB,A,-0.36,L,,M,4741.7720,N,12224.5760,W,1.3,181,-0.04,V*4B
$PGRME,2.4,M,2.4,M,3.4,M*29
$HCHDG,43.1,0.0,E,,*1F
$IIVLW,06233,N,004.8,N*5B
$HCHDG,43.0,0.0,E,,*1E
$IIGLL,4743.060,N,12225.105,W,200000,A,A*40
$IIMTW,+09.0,C*31
$HCHDG,42.9,0.0,E,,*16
$GPRMC,200012.4,A,4743.06020,N,12225.10541,W,000.34,294.7,210413,016.6,E,D*2B
$PGRME,2.4,M,2.4,M,3.4,M*29
$IIRMB,A,,,,M   ,,,,,001.3,181,,V,A*72
$HCHDG,43.1,0.0,E,,*1F
$HCHDG,43.0,0.0,E,,*1E
$GPRMC,200012.6,A,4743.06022,N,12225.10541,W,000.35,294.7,210413,016.6,E,D*2A
$PGRME,2.4,M,2.4,M,3.4,M*29
$YXXDR,A,5.1,D,PTCH,A,-2.6,D,ROLL*70
$HCHDG,42.9,0.0,E,,*16
$HCHDG,42.9,0.0,E,,*16
$GPRMC,200012.8,A,4743.06023,N,12225.10541,W,000.37,294.7,210413,016.6,E,D*27
$PGRME,2.4,M,2.4,M,3.4,M*29
$HCHDG,43.0,0.0,E,,*1E
$HCHDG,42.9,0.0,E,,*16
$GPRMC,200013.0,A,4743.06026,N,12225.10540,W,000.40,294.7,210413,016.6,E,D*2A
$PGRME,2.4,M,2.4,M,3.4,M*29
$HCHDG,42.8,0.0,E,,*17
$IIRMC,200000,A,4743.060,N,12225.105,W,00.3,294,210413,16,E,A*12
$YXXDR,A,5.1,D,PTCH,A,-2.6,D,ROLL*70
$IIVHW,,,,,00.0,N,,*19
$GPRMC,200013.2,A,4743.06028,N,12225.10540,W,000.42,294.7,210413,016.6,E,D*24
$PGRME,2.4,M,2.4,M,3.4,M*29
$HCHDG,42.9,0.0,E,,*16
$IIVLW,06233,N,004.8,N*5B
$HCHDG,42.7,0.0,E,,*18
$IIGLL,4743.060,N,12225.105,W,200000,A,A*40
$IIMTW,+09.0,C*31
$HCHDG,42.9,0.0,E,,*16
$PTAK,FFP1,HEEL,@*07
$GPRMC,200013.4,A,4743.06030,N,12225.10539,W,000.41,294.7,210413,016.6,E,D*26
$GPRMB,A,-0.36,L,,M,4741.7720,N,12224.5760,W,1.3,181,-0.05,V*4A
$PGRME,2.4,M,2.4,M,3.4,M*29
$IIRMB,A,,,,M   ,,,,,001.3,181,,V,A*72
$HCHDG,43.0,0.0,E,,*1E
$HCHDG,43.2,0.0,E,,*1C
$GPRMC,200013.6,A,4743.06032,N,12225.10539,W,000.42,294.7,210413,016.6,E,D*25
$PGRME,2.4,M,2.4,M,3.4,M*29
$YXXDR,A,5.1,D,PTCH,A,-2.1,D,ROLL*77
$PTAK,FFD1,2.1*56
$HCHDG,43.3,0.0,E,,*1D
$HCHDG,43.4,0.0,E,,*1A
$GPRMC,200013.8,A,4743.06034,N,12225.10538,W,000.43,294.7,210413,016.6,E,D*2D
$PGRME,2.4,M,2.4,M,3.4,M*29
$HCHDG,43.4,0.0,E,,*1A
$HCHDG,43.5,0.0,E,,*1B
$GPRMC,200014.0,A,4743.06037,N,12225.10538,W,000.43,294.7,210413,016.6,E,D*21
$PGRME,2.4,M,2.4,M,3.4,M*29
$HCHDG,43.5,0.0,E,,*1B
$IIRMC,200000,A,4743.060,N,12225.105,W,00.4,294,210413,16,E,A*15
$YXXDR,A,5.0,D,PTCH,A,-1.6,D,ROLL*72
$IIVHW,,,,,00.0,N,,*19
$GPRMC,200014.2,A,4743.06039,N,12225.10537,W,000.46,294.7,210413,016.6,E,D*27
$PGRME,2.4,M,2.4,M,3.4,M*29
$HCHDG,43.4,0.0,E,,*1A
$IIVLW,06233,N,004.8,N*5B
$HCHDG,43.3,0.0,E,,*1D
$IIGLL,4743.060,N,12225.105,W,200000,A,A*40
$IIMTW,+09.0,C*31
$HCHDG,43.2,0.0,E,,*1C
$GPRMC,200014.4,A,4743.06041,N,12225.10535,W,000.39,294.7,210413,016.6,E,D*24
$GPRMB,A,-0.36,L,,M,4741.7720,N,12224.5760,W,1.3,181,-0.05,V*4A
$PGRME,2.4,M,2.4,M,3.4,M*29
$IIRMB,A,,,,M   ,,,,,001.3,181,,V,A*72
$HCHDG,43.3,0.0,E,,*1D
$HCHDG,43.1,0.0,E,,*1F
$GPRMC,200014.6,A,4743.06043,N,12225.10534,W,000.42,294.7,210413,016.6,E,D*29
$PGRME,2.4,M,2.4,M,3.4,M*29
$YXXDR,A,5.1,D,PTCH,A,-1.4,D,ROLL*71
$HCHDG,42.9,0.0,E,,*16
$HCHDG,42.9,0.0,E,,*16
$GPRMC,200014.8,A,4743.06045,N,12225.10532,W,000.41,294.7,210413,016.6,E,D*24
$PGRME,2.4,M,2.4,M,3.4,M*29
$HCHDG,42.7,0.0,E,,*18
$HCHDG,42.6,0.0,E,,*19
$GPRMC,200015.0,A,4743.06047,N,12225.10530,W,000.47,294.7,210413,016.6,E,D*2B
$PGRME,2.4,M,2.4,M,3.4,M*29
$HCHDG,42.3,0.0,E,,*1C
$IIRMC,200000,A,4743.060,N,12225.105,W,00.4,294,210413,16,E,A*15
$YXXDR,A,5.2,D,PTCH,A,-1.1,D,ROLL*77
$PTAK,FFD1,1.1*55
$IIVHW,,,,,00.0,N,,*19
$GPRMC,200015.2,A,4743.06049,N,12225.10528,W,000.47,294.7,210413,016.6,E,D*2E
$PGRME,2.4,M,2.4,M,3.4,M*29
$HCHDG,42.3,0.0,E,,*1C
$IIVLW,06233,N,004.8,N*5B
$HCHDG,42.4,0.0,E,,*1B
$IIGLL,4743.060,N,12225.105,W,200000,A,A*40
$IIMTW,+09.0,C*31
$HCHDG,42.5,0.0,E,,*1A
$GPRMC,200015.4,A,4743.06052,N,12225.10526,W,000.55,294.7,210413,016.6,E,D*2F
$GPRMB,A,-0.36,L,,M,4741.7720,N,12224.5760,W,1.3,181,-0.07,V*48
$PGRME,2.4,M,2.4,M,3.4,M*29
$IIRMB,A,,,,M   ,,,,,001.3,181,,V,A*72
$HCHDG,42.4,0.0,E,,*1B
$HCHDG,42.5,0.0,E,,*1A
$GPRMC,200015.6,A,4743.06054,N,12225.10524,W,000.47,294.7,210413,016.6,E,D*2A
$PGRME,2.4,M,2.4,M,3.4,M*29
$YXXDR,A,5.4,D,PTCH,A,-1.0,D,ROLL*70
$HCHDG,42.5,0.0,E,,*1A
$HCHDG,42.4,0.0,E,,*1B
$GPRMC,200015.8,A,4743.06056,N,12225.10521,W,000.52,294.7,210413,016.6,E,D*27
$PGRME,2.4,M,2.4,M,3.4,M*29
$HCHDG,42.7,0.0,E,,*18
$HCHDG,42.8,0.0,E,,*17
$GPRMC,200016.0,A,4743.06059,N,12225.10519,W,000.55,294.7,210413,016.6,E,D*2F
$PGRME,2.4,M,2.4,M,3.4,M*29
$HCHDG,42.9,0.0,E,,*16
$IIRMC,200000,A,4743.060,N,12225.105,W,00.4,294,210413,16,E,A*15
$YXXDR,A,5.2,D,PTCH,A,-1.1,D,ROLL*77
$IIVHW,,,,,00.0,N,,*19
$GPRMC,200016.2,A,4743.06062,N,12225.10517,W,000.57,294.7,210413,016.6,E,D*29
$PGRME,2.4,M,2.4,M,3.4,M*29
$HCHDG,43.0,0.0,E,,*1E
$IIVLW,06233,N,004.8,N*5B
$HCHDG,43.2,0.0,E,,*1C
$IIGLL,4743.060,N,12225.105,W,200000,A,A*40
$IIMTW,+09.0,C*31
$GPRMC,200016.4,A,4743.06064,N,12225.10515,W,000.51,294.7,210413,016.6,E,D*2D
$HCHDG,43.3,0.0,E,,*1D
$PGRME,2.4,M,2.4,M,3.4,M*29
$IIRMB,A,,,,M   ,,,,,001.3,181,,V,A*72
$HCHDG,43.5,0.0,E,,*1B
$HCHDG,43.3,0.0,E,,*1D
$GPRMC,200016.6,A,4743.06067,N,12225.10513,W,000.51,294.7,210413,016.6,E,D*2A
$GPRMB,A,-0.36,L,,M,4741.7720,N,12224.5760,W,1.3,181,-0.06,V*49
$PGRME,2.4,M,2.4,M,3.4,M*29
$YXXDR,A,4.8,D,PTCH,A,-1.8,D,ROLL*75
$PTAK,FFD1,1.8*5C
$HCHDG,43.4,0.0,E,,*1A
$GPRMC,200016.8,A,4743.06070,N,12225.10513,W,000.55,294.7,210413,016.6,E,D*26
$HCHDG,43.5,0.0,E,,*1B
$PGRME,2.4,M,2.4,M,3.4,M*29
$HCHDG,43.5,0.0,E,,*1B
$GPRMC,200017.0,A,4743.06073,N,12225.10512,W,000.53,294.7,210413,016.6,E,D*2B
$PGRME,2.4,M,2.4,M,3.4,M*29
$HCHDG,43.4,0.0,E,,*1A
$HCHDG,43.4,0.0,E,,*1A
$IIRMC,200000,A,4743.060,N,12225.105,W,00.5,294,210413,16,E,A*14
$YXXDR,A,4.8,D,PTCH,A,-2.5,D,ROLL*7B
$GPRMC,200017.2,A,4743.06076,N,12225.10511,W,000.53,294.7,210413,016.6,E,D*2F
$PGRME,2.4,M,2.4,M,3.5,M*28
$IIVHW,,,192,M,00.0,N,,*6E
$HCHDG,43.3,0.0,E,,*1D
$IIVLW,06233,N,004.8,N*5B
$HCHDG,43.2,0.0,E,,*1C
$IIGLL,4743.060,N,12225.105,W,200000,A,A*40
$GPRMC,200017.4,A,4743.06078,N,12225.10510,W,000.49,294.7,210413,016.6,E,D*2D
$HCHDG,43.1,0.0,E,,*1F
$PTAK,FFP1,HEEL,@*07
$IIHDG,192,,,16,E*1F
$PGRME,2.4,M,2.4,M,3.5,M*28
$IIMTW,+09.0,C*31
$HCHDG,43.0,0.0,E,,*1E
$IIRMB,A,,,,M   ,,,,,001.3,181,,V,A*72
$GPRMC,200017.6,A,4743.06081,N,12225.10509,W,000.50,294.7,210413,016.6,E,D*29
$PGRME,2.4,M,2.4,M,3.5,M*28
$HCHDG,43.0,0.0,E,,*1E
$YXXDR,A,5.0,D,PTCH,A,-2.7,D,ROLL*70
$HCHDG,42.9,0.0,E,,*16
$GPRMC,200017.8,A,4743.06084,N,12225.10507,W,000.49,294.7,210413,016.6,E,D*24
$GPRMB,A,-0.36,L,,M,4741.7720,N,12224.5760,W,1.3,181,-0.06,V*49
$HCHDG,43.0,0.0,E,,*1E
$PGRME,2.4,M,2.4,M,3.5,M*28
$HCHDG,42.8,0.0,E,,*17
$GPRMC,200018.0,A,4743.06086,N,12225.10505,W,000.48,294.7,210413,016.6,E,D*22
$HCHDG,42.9,0.0,E,,*16
$PGRME,2.4,M,2.4,M,3.5,M*28
$HCHDG,42.7,0.0,E,,*18
$YXXDR,A,5.2,D,PTCH,A,-1.9,D,ROLL*7F
$PTAK,FFD1,1.9*5D
$GPRMC,200018.2,A,4743.06088,N,12225.10504,W,000.50,294.7,210413,016.6,E,D*26
$PGRME,2.4,M,2.4,M,3.5,M*28
$HCHDG,42.8,0.0,E,,*17
$HCHDG,43.0,0.0,E,,*1E
$GPRMC,200018.4,A,4743.06091,N,12225.10502,W,000.51,294.7,210413,016.6,E,D*2F
$HCHDG,42.9,0.0,E,,*16
$PGRME,2.4,M,2.4,M,3.5,M*28
$HCHDG,43.0,0.0,E,,*1E
$HCHDG,42.9,0.0,E,,*16
$GPRMC,200018.6,A,4743.06093,N,12225.10499,W,000.39,294.7,210413,016.6,E,D*22
$PGRME,2.4,M,2.4,M,3.5,M*28
$YXXDR,A,5.1,D,PTCH,A,-1.3,D,ROLL*76
$HCHDG,43.0,0.0,E,,*1E
$HCHDG,43.0,0.0,E,,*1E
$GPRMC,200018.8,A,4743.06095,N,12225.10497,W,000.41,294.7,210413,016.6,E,D*2B
$GPRMB,A,-0.36,L,,M,4741.7720,N,12224.5760,W,1.3,181,-0.05,V*4A
$PGRME,2.4,M,2.4,M,3.5,M*28
$HCHDG,43.1,0.0,E,,*1F
$HCHDG,43.0,0.0,E,,*1E
$GPRMC,200019.0,A,4743.06097,N,12225.10496,W,000.46,294.7,210413,016.6,E,D*26
$PGRME,2.4,M,2.4,M,3.5,M*28
$HCHDG,43.1,0.0,E,,*1F
$IIRMC,200000,A,4743.060,N,12225.105,W,00.4,294,210413,16,E,A*15
$YXXDR,A,5.2,D,PTCH,A,-0.5,D,ROLL*72
$PTAK,FFD1,0.5*50
$IIVHW,,,192,M,00.0,N,,*6E
$GPRMC,200019.2,A,4743.06099,N,12225.10494,W,000.50,294.7,210413,016.6,E,D*2F
$PGRME,2.4,M,2.4,M,3.5,M*28
$HCHDG,43.1,0.0,E,,*1F
$IIVLW,06233,N,004.8,N*5B
$HCHDG,43.2,0.0,E,,*1C
$IIGLL,4743.060,N,12225.105,W,200000,A,A*40
$IIHDG,192,,,16,E*1F
$HCHDG,43.3,0.0,E,,*1D
$GPRMC,200019.4,A,4743.06102,N,12225.10492,W,000.52,294.7,210413,016.6,E,D*2E
$PGRME,2.4,M,2.4,M,3.5,M*28
$IIMTW,+09.0,C*31
$HCHDG,43.5,0.0,E,,*1B
$IIRMB,A,,,,M   ,,,,,001.3,181,,V,A*72
$HCHDG,43.7,0.0,E,,*19
$GPRMC,200019.6,A,4743.06105,N,12225.10491,W,000.52,294.7,210413,016.6,E,D*28
$PGRME,2.4,M,2.4,M,3.5,M*28
$YXXDR,A,5.1,D,PTCH,A,-0.7,D,ROLL*73
$HCHDG,43.7,0.0,E,,*19
$HCHDG,43.8,0.0,E,,*16
$GPRMC,200019.8,A,4743.06107,N,12225.10489,W,000.51,294.7,210413,016.6,E,D*2E
$GPRMB,A,-0.36,L,,M,4741.7720,N,12224.5760,W,1.3,181,-0.06,V*49
$PGRME,2.4,M,2.4,M,3.5,M*28
$HCHDG,43.8,0.0,E,,*16
$HCHDG,43.9,0.0,E,,*17
$GPRMC,200020.0,A,4743.06110,N,12225.10488,W,000.49,294.7,210413,016.6,E,D*22
$PGRME,2.4,M,2.4,M,3.5,M*28
$HCHDG,43.7,0.0,E,,*19
$IIRMC,200000,A,4743.061,N,12225.104,W,00.5,294,210413,16,E,A*14
$YXXDR,A,5.0,D,PTCH,A,-1.3,D,ROLL*77
$PTAK,FFD1,1.3*57
$GPRMC,200020.2,A,4743.06112,N,12225.10486,W,000.43,294.7,210413,016.6,E,D*26
$IIVHW,,,192,M,00.0,N,,*6E
$PGRME,2.4,M,2.4,M,3.5,M*28
$HCHDG,43.7,0.0,E,,*19
$IIVLW,06233,N,004.8,N*5B
$HCHDG,43.6,0.0,E,,*18
$IIGLL,4743.061,N,12225.104,W,200000,A,A*40
$HCHDG,43.5,0.0,E,,*1B
$IIHDG,192,,,16,E*1F
$GPRMC,200020.4,A,4743.06115,N,12225.10485,W,000.46,294.7,210413,016.6,E,D*21
$GPRMB,A,-0.36,L,,M,4741.7720,N,12224.5760,W,1.3,181,-0.06,V*49
$PGRME,2.4,M,2.4,M,3.5,M*28
$IIMTW,+09.0,C*31
$HCHDG,43.4,0.0,E,,*1A
$IIRMB,A,,,,M   ,,,,,001.3,181,,V,A*72
$HCHDG,43.3,0.0,E,,*1D
$GPRMC,200020.6,A,4743.06117,N,12225.10484,W,000.51,294.7,210413,016.6,E,D*26
$PGRME,2.4,M,2.4,M,3.5,M*28
$YXXDR,A,5.1,D,PTCH,A,-2.3,D,ROLL*75
$HCHDG,43.4,0.0,E,,*1A
$HCHDG,43.3,0.0,E,,*1D
$GPRMC,200020.8,A,4743.06120,N,12225.10482,W,000.50,294.7,210413,016.6,E,D*2B
$PGRME,2.4,M,2.4,M,3.5,M*28
$HCHDG,43.4,0.0,E,,*1A
$HCHDG,43.3,0.0,E,,*1D
$GPRMC,200021.0,A,4743.06122,N,12225.10481,W,000.48,294.7,210413,016.6,E,D*2A
$PGRME,2.4,M,2.4,M,3.5,M*28
$HCHDG,43.2,0.0,E,,*1C
$IIRMC,200000,A,4743.061,N,12225.104,W,00.4,294,210413,16,E,A*15
$YXXDR,A,4.9,D,PTCH,A,-3.1,D,ROLL*7F
$PTAK,FFD1,3.1*57
$GPRMC,200021.2,A,4743.06125,N,12225.10479,W,000.50,294.7,210413,016.6,E,D*21
$IIVHW,,,192,M,00.0,N,,*6E
$PGRME,2.4,M,2.4,M,3.5,M*28
$HCHDG,43.3,0.0,E,,*1D
$IIVLW,06233,N,004.8,N*5B
$HCHDG,43.2,0.0,E,,*1C
$IIGLL,4743.061,N,12225.104,W,200000,A,A*40
$IIHDG,192,,,16,E*1F
$HCHDG,43.0,0.0,E,,*1E
$PTAK,FFP1,HEEL,@*07
$GPRMC,200021.4,A,4743.06127,N,12225.10478,W,000.50,294.7,210413,016.6,E,D*24
$PGRME,2.4,M,2.4,M,3.5,M*28
$IIMTW,+09.0,C*31
$HCHDG,43.1,0.0,E,,*1F
$IIRMB,A,,,,M   ,,,,,001.3,181,,V,A*72
$HCHDG,43.1,0.0,E,,*1F
$GPRMC,200021.6,A,4743.06130,N,12225.10476,W,000.50,294.7,210413,016.6,E,D*2E
$PGRME,2.4,M,2.4,M,3.5,M*28
$YXXDR,A,5.2,D,PTCH,A,-2.6,D,ROLL*73
$HCHDG,43.2,0.0,E,,*1C
$HCHDG,43.2,0.0,E,,*1C
$GPRMC,200021.8,A,4743.06132,N,12225.10474,W,000.47,294.7,210413,016.6,E,D*26
$PGRME,2.4,M,2.4,M,3.5,M*28
$HCHDG,43.4,0.0,E,,*1A
$HCHDG,43.4,0.0,E,,*1A
$GPRMC,200022.0,A,4743.06135,N,12225.10472,W,000.41,294.7,210413,016.6,E,D*2A
$GPRMB,A,-0.36,L,,M,4741.7720,N,12224.5760,W,1.3,181,-0.05,V*4A
$PGRME,2.4,M,2.4,M,3.5,M*28
$HCHDG,43.5,0.0,E,,*1B
$IIRMC,200000,A,4743.061,N,12225.104,W,00.5,294,210413,16,E,A*14
$YXXDR,A,5.1,D,PTCH,A,-2.1,D,ROLL*77
$GPRMC,200022.2,A,4743.06137,N,12225.10471,W,000.43,294.7,210413,016.6,E,D*2B
$IIVHW,,,192,M,00.0,N,,*6E
$PGRME,2.4,M,2.4,M,3.5,M*28
$HCHDG,43.5,0.0,E,,*1B
$IIVLW,06233,N,004.8,N*5B
$HCHDG,43.5,0.0,E,,*1B
$IIGLL,4743.061,N,12225.104,W,200000,A,A*40
$IIHDG,192,,,16,E*1F
$HCHDG,43.3,0.0,E,,*1D
$GPRMC,200022.4,A,4743.06139,N,12225.10469,W,000.45,294.7,210413,016.6,E,D*2C
$PGRME,2.4,M,2.4,M,3.5,M*28
$IIMTW,+09.0,C*31
$HCHDG,43.4,0.0,E,,*1A
$IIRMB,A,,,,M   ,,,,,001.3,181,,V,A*72
$HCHDG,43.5,0.0,E,,*1B
$GPRMC,200022.6,A,4743.06141,N,12225.10468,W,000.46,294.7,210413,016.6,E,D*23
$PGRME,2.5,M,2.4,M,3.5,M*29
$YXXDR,A,5.1,D,PTCH,A,-1.8,D,ROLL*7D
$PTAK,FFD1,1.8*5C
$HCHDG,43.5,0.0,E,,*1B
$HCHDG,43.4,0.0,E,,*1A
$GPRMC,200022.8,A,4743.06144,N,12225.10467,W,000.49,294.7,210413,016.6,E,D*28
$PGRME,2.5,M,2.4,M,3.5,M*29
$HCHDG,43.6,0.0,E,,*18
$HCHDG,43.4,0.0,E,,*1A
$GPRMC,200023.0,A,4743.06146,N,12225.10465,W,000.50,294.7,210413,016.6,E,D*29
$GPRMB,A,-0.36,L,,M,4741.7720,N,12224.5760,W,1.3,181,-0.06,V*49
$PGRME,2.5,M,2.4,M,3.5,M*29
$HCHDG,43.5,0.0,E,,*1B
$IIRMC,200000,A,4743.061,N,12225.104,W,00.4,294,210413,16,E,A*15
$YXXDR,A,5.1,D,PTCH,A,-1.3,D,ROLL*76
$GPRMC,200023.2,A,4743.06149,N,12225.10464,W,000.52,294.7,210413,016.6,E,D*27
$IIVHW,,,192,M,00.0,N,,*6E
$PGRME,2.5,M,2.4,M,3.5,M*29
$HCHDG,43.4,0.0,E,,*1A
$IIVLW,06233,N,004.8,N*5B
$HCHDG,43.4,0.0,E,,*1A
$IIGLL,4743.061,N,12225.104,W,200000,A,A*40
$HCHDG,43.5,0.0,E,,*1B
$IIHDG,192,,,16,E*1F
$GPRMC,200023.4,A,4743.06151,N,12225.10462,W,000.57,294.7,210413,016.6,E,D*2B
$PGRME,2.5,M,2.4,M,3.5,M*29
$IIMTW,+09.0,C*31
$HCHDG,43.3,0.0,E,,*1D
$IIRMB,A,,,,M   ,,,,,001.3,181,,V,A*72
$GPRMC,200023.6,A,4743.06154,N,12225.10460,W,000.48,294.7,210413,016.6,E,D*20
$HCHDG,43.3,0.0,E,,*1D
$PGRME,2.5,M,2.4,M,3.5,M*29
$YXXDR,A,5.0,D,PTCH,A,-1.3,D,ROLL*77
$PTAK,FFD1,1.3*57
$HCHDG,43.3,0.0,E,,*1D
$HCHDG,43.1,0.0,E,,*1F
$GPRMC,200023.8,A,4743.06157,N,12225.10459,W,000.39,294.7,210413,016.6,E,D*21
$PGRME,2.5,M,2.4,M,3.5,M*29
$HCHDG,43.0,0.0,E,,*1E
$HCHDG,43.2,0.0,E,,*1C
$GPRMC,200024.0,A,4743.06159,N,12225.10457,W,000.40,294.7,210413,016.6,E,D*20
$GPRMB,A,-0.36,L,,M,4741.7720,N,12224.5760,W,1.3,181,-0.05,V*4A
$PGRME,2.5,M,2.4,M,3.5,M*29
$HCHDG,43.1,0.0,E,,*1F
$IIRMC,200000,A,4743.061,N,12225.104,W,00.4,294,210413,16,E,A*15
$YXXDR,A,5.1,D,PTCH,A,-1.7,D,ROLL*72
$IIVHW,,,,,00.0,N,,*19
$GPRMC,200024.2,A,4743.06161,N,12225.10455,W,000.46,294.7,210413,016.6,E,D*2D
$PGRME,2.5,M,2.4,M,3.5,M*29
$HCHDG,43.1,0.0,E,,*1F
$IIVLW,06233,N,004.8,N*5B
$HCHDG,42.8,0.0,E,,*17
$IIGLL,4743.061,N,12225.104,W,200000,A,A*40
$IIMTW,+09.0,C*31
$HCHDG,42.8,0.0,E,,*17
$GPRMC,200024.4,A,4743.06163,N,12225.10454,W,000.52,294.7,210413,016.6,E,D*2D
$PGRME,2.5,M,2.4,M,3.5,M*29
$IIRMB,A,,,,M   ,,,,,001.3,181,,V,A*72
$HCHDG,42.9,0.0,E,,*16
$HCHDG,42.9,0.0,E,,*16
$GPRMC,200024.6,A,4743.06166,N,12225.10452,W,000.56,294.7,210413,016.6,E,D*28
$PGRME,2.5,M,2.4,M,3.5,M*29
$YXXDR,A,5.1,D,PTCH,A,-2.2,D,ROLL*74
$HCHDG,42.8,0.0,E,,*17
$GPRMC,200024.8,A,4743.06168,N,12225.10450,W,000.50,294.7,210413,016.6,E,D*2C
$HCHDG,42.8,0.0,E,,*17
$PGRME,2.5,M,2.4,M,3.5,M*29
$HCHDG,42.9,0.0,E,,*16
$HCHDG,43.1,0.0,E,,*1F
$GPRMC,200025.0,A,4743.06171,N,12225.10449,W,000.65,294.7,210413,016.6,E,D*23
$GPRMB,A,-0.36,L,,M,4741.7720,N,12224.5760,W,1.3,181,-0.08,V*47
$PGRME,2.5,M,2.4,M,3.5,M*29
$HCHDG,43.1,0.0,E,,*1F
$IIRMC,200000,A,4743.061,N,12225.104,W,00.5,294,210413,16,E,A*14
$YXXDR,A,5.3,D,PTCH,A,-2.3,D,ROLL*77
$PTAK,FFD1,2.3*54
$IIVHW,,,,,00.0,N,,*19
$GPRMC,200025.2,A,4743.06174,N,12225.10444,W,000.65,294.7,210413,016.6,E,D*29
$PGRME,2.5,M,2.4,M,3.5,M*29
$HCHDG,43.2,0.0,E,,*1C
$IIVLW,06233,N,004.8,N*5B
$HCHDG,43.3,0.0,E,,*1D
$IIGLL,4743.061,N,12225.104,W,200000,A,A*40
$IIMTW,+09.0,C*31
$HCHDG,43.3,0.0,E,,*1D
$GPRMC,200025.4,A,4743.06176,N,12225.10438,W,000.61,294.7,210413,016.6,E,D*22
$PGRME,2.5,M,2.4,M,3.5,M*29
$IIRMB,A,,,,M   ,,,,,001.3,181,,V,A*72
$HCHDG,43.4,0.0,E,,*1A
$PTAK,FFP1,HEEL,@*07
$GPRMC,200025.6,A,4743.06181,N,12225.10436,W,000.63,294.7,210413,016.6,E,D*24
$HCHDG,43.3,0.0,E,,*1D
$PGRME,2.5,M,2.4,M,3.5,M*29
$YXXDR,A,5.2,D,PTCH,A,-2.6,D,ROLL*73
$HCHDG,43.5,0.0,E,,*1B
$GPRMC,200025.8,A,4743.06185,N,12225.10433,W,000.46,294.7,210413,016.6,E,D*2C
$HCHDG,43.4,0.0,E,,*1A
$PGRME,2.5,M,2.4,M,3.5,M*29
$HCHDG,43.3,0.0,E,,*1D
$HCHDG,43.2,0.0,E,,*1C
$GPRMC,200026.0,A,4743.06189,N,12225.10428,W,000.44,294.7,210413,016.6,E,D*23
$PGRME,2.5,M,2.4,M,3.5,M*29
$HCHDG,43.2,0.0,E,,*1C
$IIRMC,200000,A,4743.061,N,12225.104,W,00.6,294,210413,16,E,A*17
$YXXDR,A,5.2,D,PTCH,A,-2.8,D,ROLL*7D
$IIVHW,,,,,00.0,N,,*19
$GPRMC,200026.2,A,4743.06192,N,12225.10421,W,000.43,294.7,210413,016.6,E,D*25
$GPRMB,A,-0.36,L,,M,4741.7720,N,12224.5760,W,1.3,181,-0.05,V*4A
$PGRME,2.5,M,2.4,M,3.5,M*29
$HCHDG,43.3,0.0,E,,*1D
$IIVLW,06233,N,004.8,N*5B
$HCHDG,43.1,0.0,E,,*1F
$IIGLL,4743.061,N,12225.104,W,200000,A,A*40
$IIMTW,+09.0,C*31
$HCHDG,43.3,0.0,E,,*1D
$GPRMC,200026.4,A,4743.06195,N,12225.10420,W,000.43,294.7,210413,016.6,E,D*25
$PGRME,2.5,M,2.4,M,3.5,M*29
$IIRMB,A,,,,M   ,,,,,001.3,181,,V,A*72
$HCHDG,43.3,0.0,E,,*1D
$HCHDG,43.3,0.0,E,,*1D
$GPRMC,200026.6,A,4743.06202,N,12225.10423,W,000.44,294.7,210413,016.6,E,D*2E
$PGRME,2.5,M,2.4,M,3.5,M*29
$YXXDR,A,5.0,D,PTCH,A,-2.3,D,ROLL*74
$PTAK,FFD1,2.3*54
$HCHDG,43.3,0.0,E,,*1D
$HCHDG,43.2,0.0,E,,*1C
$GPRMC,200026.8,A,4743.06205,N,12225.10422,W,000.42,294.7,210413,016.6,E,D*20
$PGRME,2.5,M,2.4,M,3.5,M*29
$HCHDG,43.1,0.0,E,,*1F
$HCHDG,43.0,0.0,E,,*1E
$GPRMC,200027.0,A,4743.06210,N,12225.10417,W,000.40,294.7,210413,016.6,E,D*29
$PGRME,2.5,M,2.4,M,3.5,M*29
$HCHDG,43.0,0.0,E,,*1E
$IIRMC,200000,A,4743.062,N,12225.104,W,00.4,294,210413,16,E,A*16
$YXXDR,A,5.0,D,PTCH,A,-2.0,D,ROLL*77
$IIVHW,,,,,00.0,N,,*19
$GPRMC,200027.2,A,4743.06216,N,12225.10406,W,000.40,294.7,210413,016.6,E,D*2D
$PGRME,2.5,M,2.4,M,3.5,M*29
$HCHDG,42.9,0.0,E,,*16
$IIVLW,06233,N,004.8,N*5B
$HCHDG,42.9,0.0,E,,*16
$IIGLL,4743.062,N,12225.104,W,200000,A,A*43
$IIMTW,+09.0,C*31
$HCHDG,42.7,0.0,E,,*18
$GPRMC,200027.4,A,4743.06223,N,12225.10397,W,000.41,294.7,210413,016.6,E,D*23
$GPRMB,A,-0.36,L,,M,4741.7720,N,12224.5760,W,1.3,181,-0.05,V*4A
$PGRME,2.5,M,2.4,M,3.5,M*29
$IIRMB,A,,,,M   ,,,,,001.3,181,,V,A*72
$HCHDG,42.7,0.0,E,,*18
$HCHDG,42.7,0.0,E,,*18
$GPRMC,200027.6,A,4743.06230,N,12225.10394,W,000.41,294.7,210413,016.6,E,D*20
$PGRME,2.5,M,2.4,M,3.5,M*29
$YXXDR,A,5.2,D,PTCH,A,-1.1,D,ROLL*77
$PTAK,FFD1,1.1*55
$HCHDG,42.7,0.0,E,,*18
$HCHDG,42.7,0.0,E,,*18
$GPRMC,200027.8,A,4743.06241,N,12225.10390,W,000.44,294.7,210413,016.6,E,D*29
$PGRME,2.5,M,2.4,M,3.5,M*29
$HCHDG,42.7,0.0,E,,*18
$HCHDG,42.8,0.0,E,,*17
$GPRMC,200028.0,A,4743.06247,N,12225.10378,W,000.48,294.7,210413,016.6,E,D*22
$PGRME,2.5,M,2.4,M,3.5,M*29
$HCHDG,42.9,0.0,E,,*16
$IIRMC,200000,A,4743.062,N,12225.103,W,00.4,294,210413,16,E,A*11
$YXXDR,A,5.2,D,PTCH,A,-1.1,D,ROLL*77
$IIVHW,,,,,00.0,N,,*19
$GPRMC,200028.2,A,4743.06253,N,12225.10365,W,000.52,294.7,210413,016.6,E,D*22
$PGRME,2.5,M,2.4,M,3.5,M*29
$HCHDG,43.1,0.0,E,,*1F
$IIVLW,06233,N,004.8,N*5B
$HCHDG,43.2,0.0,E,,*1C
$IIGLL,4743.062,N,12225.103,W,200000,A,A*44
$IIMTW,+09.0,C*31
$HCHDG,43.2,0.0,E,,*1C
$GPRMC,200028.4,A,4743.06258,N,12225.10358,W,000.53,294.7,210413,016.6,E,D*20
$PGRME,2.5,M,2.4,M,3.5,M*29
$IIRMB,A,,,,M   ,,,,,001.3,181,,V,A*72
$HCHDG,43.3,0.0,E,,*1D
$HCHDG,43.2,0.0,E,,*1C
$GPRMC,200028.6,A,4743.06266,N,12225.10344,W,000.56,294.7,210413,016.6,E,D*27
$GPRMB,A,-0.36,L,,M,4741.7720,N,12224.5760,W,1.3,181,-0.07,V*48
$PGRME,2.5,M,2.4,M,3.5,M*29
$YXXDR,A,5.1,D,PTCH,A,-1.7,D,ROLL*72
$PTAK,FFD1,1.7*53
$HCHDG,43.3,0.0,E,,*1D
$HCHDG,43.3,0.0,E,,*1D
$GPRMC,200028.8,A,4743.06272,N,12225.10335,W,000.58,294.7,210413,016.6,E,D*24
$PGRME,2.5,M,2.4,M,3.5,M*29
$HCHDG,43.3,0.0,E,,*1D
$HCHDG,43.2,0.0,E,,*1C
$GPRMC,200029.0,A,4743.06278,N,12225.10333,W,000.60,294.7,210413,016.6,E,D*2A
$PGRME,2.5,M,2.4,M,3.5,M*29
$HCHDG,43.2,0.0,E,,*1C
$IIRMC,200000,A,4743.062,N,12225.103,W,00.5,294,210413,16,E,A*10
$YXXDR,A,5.1,D,PTCH,A,-2.9,D,ROLL*7F
$IIVHW,,,,,00.0,N,,*19
$GPRMC,200029.2,A,4743.06285,N,12225.10329,W,000.61,294.7,210413,016.6,E,D*20
$PGRME,2.5,M,2.4,M,3.5,M*29
$HCHDG,43.0,0.0,E,,*1E
$IIVLW,06233,N,004.8,N*5B
$HCHDG,43.0,0.0,E,,*1E
$IIGLL,4743.062,N,12225.103,W,200000,A,A*44
$IIMTW,+09.0,C*31
$HCHDG,43.2,0.0,E,,*1C
$GPRMC,200029.4,A,4743.06293,N,12225.10326,W,000.59,294.7,210413,016.6,E,D*25
$PGRME,2.5,M,2.4,M,3.5,M*29
$IIRMB,A,,,,M   ,,,,,001.3,181,,V,A*72
$HCHDG,43.1,0.0,E,,*1F
$PTAK,FFP1,HEEL,@*07
$HCHDG,43.0,0.0,E,,*1E
$GPRMC,200029.6,A,4743.06300,N,12225.10328,W,000.57,294.7,210413,016.6,E,D*2C
$PGRME,2.5,M,2.4,M,3.5,M*29
$YXXDR,A,5.2,D,PTCH,A,-3.3,D,ROLL*77
$HCHDG,43.0,0.0,E,,*1E
$HCHDG,42.9,0.0,E,,*16
$GPRMC,200029.8,A,4743.06306,N,12225.10326,W,000.54,294.7,210413,016.6,E,D*29
$GPRMB,A,-0.36,L,,M,4741.7720,N,12224.5760,W,1.3,181,-0.06,V*49
$PGRME,2.5,M,2.4,M,3.5,M*29
$HCHDG,42.8,0.0,E,,*17
$HCHDG,42.6,0.0,E,,*19
$GPRMC,200030.0,A,4743.06311,N,12225.10315,W,000.52,294.7,210413,016.6,E,D*29
$PGRME,2.5,M,2.4,M,3.5,M*29
$HCHDG,42.7,0.0,E,,*18
$IIRMC,200000,A,4743.063,N,12225.103,W,00.5,294,210413,16,E,A*11
$YXXDR,A,5.1,D,PTCH,A,-2.8,D,ROLL*7E
$PTAK,FFD1,2.8*5F
$IIVHW,,,,,00.0,N,,*19
$GPRMC,200030.2,A,4743.06318,N,12225.10307,W,000.50,294.7,210413,016.6,E,D*23
$PGRME,2.5,M,2.4,M,3.5,M*29
$HCHDG,42.7,0.0,E,,*18
$IIVLW,06233,N,004.8,N*5B
$HCHDG,42.7,0.0,E,,*18
$IIGLL,4743.063,N,12225.103,W,200000,A,A*45
$IIMTW,+09.0,C*31
$HCHDG,42.6,0.0,E,,*19
$GPRMC,200030.4,A,4743.06331,N,12225.10293,W,000.49,294.7,210413,016.6,E,D*2A
$PGRME,2.5,M,2.4,M,3.5,M*29
$IIRMB,A,,,,M   ,,,,,001.3,181,,V,A*72
$HCHDG,42.8,0.0,E,,*17
$HCHDG,42.7,0.0,E,,*18
$GPRMC,200030.6,A,4743.06343,N,12225.10279,W,000.45,294.7,210413,016.6,E,D*25
$PGRME,2.5,M,2.4,M,3.5,M*29
$YXXDR,A,5.4,D,PTCH,A,-1.8,D,ROLL*78
$HCHDG,42.6,0.0,E,,*19
$HCHDG,42.6,0.0,E,,*19
$GPRMC,200030.8,A,4743.06343,N,12225.10271,W,000.43,294.7,210413,016.6,E,D*25
$PGRME,2.5,M,2.4,M,3.5,M*29
$HCHDG,42.9,0.0,E,,*16
$HCHDG,42.9,0.0,E,,*16
$GPRMC,200031.0,A,4743.06345,N,12225.10269,W,000.40,294.7,210413,016.6,E,D*20
$GPRMB,A,-0.35,L,,M,4741.7720,N,12224.5760,W,1.3,181,-0.05,V*49
$PGRME,2.5,M,2.4,M,3.5,M*29
$HCHDG,42.9,0.0,E,,*16
$IIRMC,200000,A,4743.063,N,12225.102,W,00.4,294,210413,16,E,A*11
$YXXDR,A,5.2,D,PTCH,A,-1.0,D,ROLL*76
$PTAK,FFD1,1.0*54
$IIVHW,,,,,00.0,N,,*19
$GPRMC,200031.2,A,4743.06347,N,12225.10270,W,000.40,294.7,210413,016.6,E,D*28
$PGRME,2.5,M,2.4,M,3.5,M*29
$HCHDG,43.1,0.0,E,,*1F
$IIVLW,06233,N,004.8,N*5B
$HCHDG,43.1,0.0,E,,*1F
$IIGLL,4743.063,N,12225.102,W,200000,A,A*44
$IIMTW,+09.0,C*31
$HCHDG,43.0,0.0,E,,*1E
$GPRMC,200031.4,A,4743.06351,N,12225.10270,W,000.42,294.7,210413,016.6,E,D*2B
$PGRME,2.5,M,2.4,M,3.5,M*29
$IIRMB,A,,,,M   ,,,,,001.3,181,,V,A*72
$HCHDG,43.0,0.0,E,,*1E
$GPRMC,200031.6,A,4743.06345,N,12225.10272,W,000.45,294.7,210413,016.6,E,D*29
$PGRME,2.5,M,2.4,M,3.5,M*29
$HCHDG,43.0,0.0,E,,*1E
$YXXDR,A,5.2,D,PTCH,A,-1.0,D,ROLL*76
$HCHDG,42.9,0.0,E,,*16
$HCHDG,42.9,0.0,E,,*16
$GPRMC,200031.8,A,4743.06341,N,12225.10267,W,000.47,294.7,210413,016.6,E,D*25
$PGRME,2.5,M,2.4,M,3.5,M*29
$HCHDG,42.7,0.0,E,,*18
$HCHDG,42.6,0.0,E,,*19
$GPRMC,200032.0,A,4743.06340,N,12225.10265,W,000.50,294.7,210413,016.6,E,D*2B
$PGRME,2.4,M,2.4,M,3.5,M*28
$HCHDG,42.4,0.0,E,,*1B
$IIRMC,200000,A,4743.063,N,12225.102,W,00.4,294,210413,16,E,A*11
$YXXDR,A,5.2,D,PTCH,A,-1.8,D,ROLL*7E
$IIVHW,,,,,00.0,N,,*19
$GPRMC,200032.2,A,4743.06341,N,12225.10259,W,000.54,294.7,210413,016.6,E,D*23
$GPRMB,A,-0.35,L,,M,4741.7720,N,12224.5760,W,1.3,181,-0.06,V*4A
$PGRME,2.5,M,2.4,M,3.5,M*29
$HCHDG,42.4,0.0,E,,*1B
$IIVLW,06233,N,004.8,N*5B
$HCHDG,42.3,0.0,E,,*1C
$IIGLL,4743.063,N,12225.102,W,200000,A,A*44
$IIMTW,+09.0,C*31
$HCHDG,42.4,0.0,E,,*1B
$GPRMC,200032.4,A,4743.06339,N,12225.10255,W,000.58,294.7,210413,016.6,E,D*2A
$PGRME,2.4,M,2.4,M,3.5,M*28
$IIRMB,A,,,,M   ,,,,,001.3,181,,V,A*72
$HCHDG,42.2,0.0,E,,*1D
$GPRMC,200032.6,A,4743.06338,N,12225.10246,W,000.58,294.7,210413,016.6,E,D*2B
$HCHDG,42.3,0.0,E,,*1C
$PGRME,2.4,M,2.4,M,3.5,M*28
$YXXDR,A,5.4,D,PTCH,A,-2.2,D,ROLL*71
$PTAK,FFD1,2.2*55
$HCHDG,42.4,0.0,E,,*1B
$GPRMC,200032.8,A,4743.06340,N,12225.10240,W,000.57,294.7,210413,016.6,E,D*23
$PGRME,2.4,M,2.4,M,3.5,M*28
$HCHDG,42.4,0.0,E,,*1B
$HCHDG,42.6,0.0,E,,*19
$GPRMC,200033.0,A,4743.06344,N,12225.10238,W,000.56,294.7,210413,016.6,E,D*20
$HCHDG,42.6,0.0,E,,*19
$PGRME,2.4,M,2.4,M,3.5,M*28
$HCHDG,42.7,0.0,E,,*18
$IIRMC,200000,A,4743.063,N,12225.102,W,00.5,294,210413,16,E,A*10
$YXXDR,A,5.4,D,PTCH,A,-2.7,D,ROLL*74
$IIVHW,,,,,00.0,N,,*19
$GPRMC,200033.2,A,4743.06350,N,12225.10240,W,000.56,294.7,210413,016.6,E,D*28
$GPRMB,A,-0.35,L,,M,4741.7720,N,12224.5760,W,1.3,181,-0.07,V*4B
$PGRME,2.4,M,2.4,M,3.5,M*28
$HCHDG,42.7,0.0,E,,*18
$IIVLW,06233,N,004.8,N*5B
$HCHDG,42.8,0.0,E,,*17
$IIGLL,4743.063,N,12225.102,W,200000,A,A*44
$IIMTW,+09.0,C*31
$HCHDG,42.9,0.0,E,,*16
$GPRMC,200033.4,A,4743.06356,N,12225.10241,W,000.60,294.7,210413,016.6,E,D*2C
$PGRME,2.4,M,2.4,M,3.5,M*28
$IIRMB,A,,,,M   ,,,,,001.3,181,,V,A*72
$HCHDG,42.9,0.0,E,,*16
$PTAK,FFP1,HEEL,@*07
$HCHDG,43.0,0.0,E,,*1E
$GPRMC,200033.6,A,4743.06356,N,12225.10242,W,000.62,294.7,210413,016.6,E,D*2F
$PGRME,2.4,M,2.4,M,3.5,M*28
$YXXDR,A,5.1,D,PTCH,A,-2.9,D,ROLL*7F
$HCHDG,42.9,0.0,E,,*16
$GPRMC,200033.8,A,4743.06356,N,12225.10242,W,000.64,294.7,210413,016.6,E,D*27
$HCHDG,42.8,0.0,E,,*17
$PGRME,2.4,M,2.4,M,3.5,M*28
$HCHDG,42.9,0.0,E,,*16
$HCHDG,42.7,0.0,E,,*18
$GPRMC,200034.0,A,4743.06360,N,12225.10247,W,000.62,294.7,210413,016.6,E,D*2E
$PGRME,2.4,M,2.5,M,3.5,M*29
$HCHDG,42.8,0.0,E,,*17
$IIRMC,200000,A,4743.063,N,12225.102,W,00.6,294,210413,16,E,A*13
$YXXDR,A,5.0,D,PTCH,A,-2.6,D,ROLL*71
$PTAK,FFD1,2.6*51
$IIVHW,,,,,00.0,N,,*19
$GPRMC,200034.2,A,4743.06361,N,12225.10245,W,000.59,294.7,210413,016.6,E,D*27
$PGRME,2.4,M,2.5,M,3.5,M*29
$HCHDG,42.5,0.0,E,,*1A
$IIVLW,06233,N,004.8,N*5B
$HCHDG,42.6,0.0,E,,*19
$IIGLL,4743.063,N,12225.102,W,200000,A,A*44
$IIMTW,+09.0,C*31
$HCHDG,42.5,0.0,E,,*1A
$GPRMC,200034.4,A,4743.06361,N,12225.10234,W,000.57,294.7,210413,016.6,E,D*29
$GPRMB,A,-0.35,L,,M,4741.7720,N,12224.5760,W,1.3,181,-0.07,V*4B
$PGRME,2.4,M,2.5,M,3.5,M*29
$IIRMB,A,,,,M   ,,,,,001.3,181,,V,A*72
$HCHDG,42.4,0.0,E,,*1B
$HCHDG,42.4,0.0,E,,*1B
$GPRMC,200034.6,A,4743.06365,N,12225.10227,W,000.56,294.7,210413,016.6,E,D*2C
$PGRME,2.4,M,2.5,M,3.5,M*29
$YXXDR,A,5.1,D,PTCH,A,-1.8,D,ROLL*7D
$HCHDG,42.3,0.0,E,,*1C
$HCHDG,42.3,0.0,E,,*1C
$GPRMC,200034.8,A,4743.06367,N,12225.10225,W,000.57,294.7,210413,016.6,E,D*23
$PGRME,2.4,M,2.5,M,3.5,M*29
$HCHDG,42.3,0.0,E,,*1C
$HCHDG,42.3,0.0,E,,*1C
$GPRMC,200035.0,A,4743.06375,N,12225.10223,W,000.60,294.7,210413,016.6,E,D*2B
$PGRME,2.4,M,2.5,M,3.5,M*29
$HCHDG,42.3,0.0,E,,*1C
$IIRMC,200000,A,4743.063,N,12225.102,W,00.5,294,210413,16,E,A*10
$YXXDR,A,5.5,D,PTCH,A,-1.0,D,ROLL*71
$IIVHW,,,,,00.0,N,,*19
$GPRMC,200035.2,A,4743.06382,N,12225.10222,W,000.61,294.7,210413,016.6,E,D*21
$PGRME,2.4,M,2.5,M,3.5,M*29
$HCHDG,42.1,0.0,E,,*1E
$IIVLW,06233,N,004.8,N*5B
$HCHDG,42.1,0.0,E,,*1E
$IIGLL,4743.063,N,12225.102,W,200000,A,A*44
$IIMTW,+09.0,C*31
$HCHDG,42.2,0.0,E,,*1D
$GPRMC,200035.4,A,4743.06389,N,12225.10220,W,000.62,294.7,210413,016.6,E,D*2D
$PGRME,2.4,M,2.5,M,3.5,M*29
$IIRMB,A,,,,M   ,,,,,001.3,181,,V,A*72
$HCHDG,42.5,0.0,E,,*1A
$HCHDG,42.4,0.0,E,,*1B
$GPRMC,200035.6,A,4743.06394,N,12225.10218,W,000.63,294.7,210413,016.6,E,D*29
$GPRMB,A,-0.35,L,,M,4741.7720,N,12224.5760,W,1.3,181,-0.07,V*4B
$PGRME,2.4,M,2.4,M,3.5,M*28
$YXXDR,A,5.4,D,PTCH,A,-1.0,D,ROLL*70
$PTAK,FFD1,1.0*54
$HCHDG,42.6,0.0,E,,*19
$HCHDG,42.6,0.0,E,,*19
$GPRMC,200035.8,A,4743.06400,N,12225.10216,W,000.62,294.7,210413,016.6,E,D*22
$PGRME,2.4,M,2.4,M,3.5,M*28
$HCHDG,42.5,0.0,E,,*1A
$HCHDG,42.4,0.0,E,,*1B
$GPRMC,200036.0,A,4743.06404,N,12225.10214,W,000.60,294.7,210413,016.6,E,D*2D
$PGRME,2.4,M,2.4,M,3.5,M*28
$HCHDG,42.4,0.0,E,,*1B
$IIRMC,200000,A,4743.063,N,12225.102,W,00.6,294,210413,16,E,A*13
$YXXDR,A,5.2,D,PTCH,A,-1.7,D,ROLL*71
$IIVHW,,,,,00.0,N,,*19
$GPRMC,200036.2,A,4743.06409,N,12225.10213,W,000.59,294.7,210413,016.6,E,D*2F
$PGRME,2.4,M,2.4,M,3.5,M*28
$HCHDG,42.6,0.0,E,,*19
$IIVLW,06233,N,004.8,N*5B
$HCHDG,42.7,0.0,E,,*18
$IIGLL,4743.063,N,12225.102,W,200000,A,A*44
$IIMTW,+09.0,C*31
$HCHDG,42.4,0.0,E,,*1B
$GPRMC,200036.4,A,4743.06413,N,12225.10207,W,000.60,294.7,210413,016.6,E,D*2D
$PGRME,2.4,M,2.5,M,3.5,M*29
$IIRMB,A,,,,M   ,,,,,001.3,181,,V,A*72
$HCHDG,42.4,0.0,E,,*1B
$GPRMC,200036.6,A,4743.06421,N,12225.10202,W,000.63,294.7,210413,016.6,E,D*28
$HCHDG,42.5,0.0,E,,*1A
$PGRME,2.5,M,2.5,M,3.5,M*28
$YXXDR,A,5.1,D,PTCH,A,-2.4,D,ROLL*72
$HCHDG,42.5,0.0,E,,*1A
$HCHDG,42.3,0.0,E,,*1C
$GPRMC,200036.8,A,4743.06424,N,12225.10201,W,000.67,294.7,210413,016.6,E,D*24
$GPRMB,A,-0.35,L,,M,4741.7720,N,12224.5760,W,1.3,181,-0.08,V*44
$PGRME,2.5,M,2.5,M,3.5,M*28
$HCHDG,42.4,0.0,E,,*1B
$GPRMC,200037.0,A,4743.06433,N,12225.10198,W,000.72,020.6,210413,016.6,E,D*20
$HCHDG,42.3,0.0,E,,*1C
$PGRME,2.5,M,2.5,M,3.5,M*28
$HCHDG,42.3,0.0,E,,*1C
$IIRMC,200000,A,4743.064,N,12225.102,W,00.6,294,210413,16,E,A*14
$YXXDR,A,5.3,D,PTCH,A,-2.4,D,ROLL*70
$PTAK,FFD1,2.4*53
$IIVHW,,,,,00.0,N,,*19
$GPRMC,200037.2,A,4743.06435,N,12225.10188,W,000.75,020.2,210413,016.6,E,D*26
$PGRME,2.5,M,2.5,M,3.5,M*28
$HCHDG,42.5,0.0,E,,*1A
$IIVLW,06233,N,004.8,N*5B
$HCHDG,42.5,0.0,E,,*1A
$IIGLL,4743.064,N,12225.102,W,200000,A,A*43
$IIMTW,+09.0,C*31
$HCHDG,42.5,0.0,E,,*1A
$GPRMC,200037.4,A,4743.06439,N,12225.10187,W,000.78,019.9,210413,016.6,E,D*2F
$PGRME,2.5,M,2.4,M,3.5,M*29
$IIRMB,A,,,,M   ,,,,,001.3,181,,V,A*72
$HCHDG,42.8,0.0,E,,*17
$GPRMC,200037.6,A,4743.06443,N,12225.10187,W,000.78,019.5,210413,016.6,E,D*2C
$PTAK,FFP1,HEEL,@*07
$HCHDG,42.8,0.0,E,,*17
$PGRME,2.5,M,2.4,M,3.5,M*29
$YXXDR,A,5.3,D,PTCH,A,-2.6,D,ROLL*72
$HCHDG,42.8,0.0,E,,*17
$GPRMC,200037.8,A,4743.06446,N,12225.10188,W,000.78,019.2,210413,016.6,E,D*2F
$HCHDG,42.8,0.0,E,,*17
$PGRME,2.5,M,2.4,M,3.5,M*29
$HCHDG,42.8,0.0,E,,*17
$HCHDG,42.8,0.0,E,,*17
$GPRMC,200038.0,A,4743.06448,N,12225.10190,W,000.77,018.8,210413,016.6,E,D*2B
$GPRMB,A,-0.35,L,,M,4741.7720,N,12224.5760,W,1.3,181,-0.77,V*4C
$PGRME,2.5,M,2.4,M,3.5,M*29
$HCHDG,42.8,0.0,E,,*17
$IIRMC,200000,A,4743.064,N,12225.101,W,00.7,019,210413,16,E,A*11
$YXXDR,A,5.2,D,PTCH,A,-2.6,D,ROLL*73
$PTAK,FFD1,2.6*51
$IIVHW,,,,,00.0,N,,*19
$GPRMC,200038.2,A,4743.06448,N,12225.10193,W,000.76,018.5,210413,016.6,E,D*26
$PGRME,2.5,M,2.4,M,3.5,M*29
$HCHDG,42.7,0.0,E,,*18
$IIVLW,06233,N,004.8,N*5B
$HCHDG,42.6,0.0,E,,*19
$IIGLL,4743.064,N,12225.101,W,200000,A,A*40
$IIMTW,+09.0,C*31
$GPRMC,200038.4,A,4743.06451,N,12225.10192,W,000.74,018.3,210413,016.6,E,D*2D
$HCHDG,42.6,0.0,E,,*19
$PGRME,2.5,M,2.4,M,3.5,M*29
$IIRMB,A,,,,M   ,,,,,001.3,181,,V,A*72
$HCHDG,42.6,0.0,E,,*19
$GPRMC,200038.6,A,4743.06455,N,12225.10190,W,000.73,019.2,210413,016.6,E,D*2E
$HCHDG,42.4,0.0,E,,*1B
$PGRME,2.5,M,2.4,M,3.5,M*29
$YXXDR,A,5.2,D,PTCH,A,-2.2,D,ROLL*77
$HCHDG,42.3,0.0,E,,*1C
$GPRMC,200038.8,A,4743.06455,N,12225.10189,W,000.74,020.0,210413,016.6,E,D*27
$HCHDG,42.4,0.0,E,,*1B
$PGRME,2.5,M,2.4,M,3.5,M*29
$HCHDG,42.3,0.0,E,,*1C
$GPRMC,200039.0,A,4743.06450,N,12225.10191,W,000.74,020.9,210413,016.6,E,D*2B
$HCHDG,42.2,0.0,E,,*1D
$PGRME,2.5,M,2.4,M,3.5,M*29
$HCHDG,42.2,0.0,E,,*1D
$IIRMC,200000,A,4743.064,N,12225.101,W,00.7,019,210413,16,E,A*11
$YXXDR,A,5.5,D,PTCH,A,-1.2,D,ROLL*73
$IIVHW,,,,,00.0,N,,*19
$GPRMC,200039.2,A,4743.06450,N,12225.10195,W,000.72,021.3,210413,016.6,E,D*20
$GPRMB,A,-0.35,L,,M,4741.7720,N,12224.5760,W,1.3,181,-0.72,V*49
$PGRME,2.5,M,2.4,M,3.5,M*29
$HCHDG,42.3,0.0,E,,*1C
$IIVLW,06233,N,004.8,N*5B
$HCHDG,42.3,0.0,E,,*1C
$IIGLL,4743.064,N,12225.101,W,200000,A,A*40
$IIMTW,+09.0,C*31
$GPRMC,200039.4,A,4743.06450,N,12225.10199,W,000.70,021.5,210413,016.6,E,D*2E
$HCHDG,42.6,0.0,E,,*19
$PGRME,2.5,M,2.4,M,3.5,M*29
$IIRMB,A,,,,M   ,,,,,001.3,181,,V,A*72
$HCHDG,42.5,0.0,E,,*1A
$GPRMC,200039.6,A,4743.06454,N,12225.10200,W,000.68,021.7,210413,016.6,E,D*20
$HCHDG,42.5,0.0,E,,*1A
$PGRME,2.5,M,2.4,M,3.5,M*29
$YXXDR,A,5.4,D,PTCH,A,-0.9,D,ROLL*78
$PTAK,FFD1,0.9*5C
$HCHDG,42.9,0.0,E,,*16
$GPRMC,200039.8,A,4743.06456,N,12225.10199,W,000.67,021.9,210413,016.6,E,D*2E
$HCHDG,43.0,0.0,E,,*1E
$PGRME,2.5,M,2.4,M,3.5,M*29
$HCHDG,42.7,0.0,E,,*18
$GPRMC,200040.0,A,4743.06461,N,12225.10204,W,000.67,022.0,210413,016.6,E,D*21
$HCHDG,42.9,0.0,E,,*16
$PGRME,2.5,M,2.4,M,3.5,M*29
$HCHDG,42.9,0.0,E,,*16
$IIRMC,200000,A,4743.064,N,12225.102,W,00.6,021,210413,16,E,A*18
$YXXDR,A,5.2,D,PTCH,A,-1.2,D,ROLL*74
$IIVHW,,,,,00.0,N,,*19
$GPRMC,200040.2,A,4743.06469,N,12225.10206,W,000.68,022.1,210413,016.6,E,D*27
$PGRME,2.5,M,2.4,M,3.5,M*29
$HCHDG,42.9,0.0,E,,*16
$IIVLW,06233,N,004.8,N*5B
$HCHDG,42.8,0.0,E,,*17
$IIGLL,4743.064,N,12225.102,W,200000,A,A*43
$IIMTW,+09.0,C*31
$HCHDG,42.6,0.0,E,,*19
$GPRMC,200040.4,A,4743.06472,N,12225.10214,W,000.70,022.0,210413,016.6,E,D*20
$GPRMB,A,-0.35,L,,M,4741.7720,N,12224.5760,W,1.3,181,-0.70,V*4B
$PGRME,2.5,M,2.4,M,3.5,M*29
$IIRMB,A,,,,M   ,,,,,001.3,181,,V,A*72
$HCHDG,42.6,0.0,E,,*19
$GPRMC,200040.6,A,4743.06478,N,12225.10218,W,000.71,021.9,210413,016.6,E,D*2F
$HCHDG,42.5,0.0,E,,*1A
$PGRME,2.5,M,2.4,M,3.5,M*29
$YXXDR,A,5.1,D,PTCH,A,-2.3,D,ROLL*75
$PTAK,FFD1,2.3*54
$HCHDG,42.5,0.0,E,,*1A
$GPRMC,200040.8,A,4743.06483,N,12225.10219,W,000.73,021.8,210413,016.6,E,D*27
$HCHDG,42.4,0.0,E,,*1B
$PGRME,2.5,M,2.4,M,3.5,M*29
$HCHDG,42.4,0.0,E,,*1B
$HCHDG,42.3,0.0,E,,*1C
$GPRMC,200041.0,A,4743.06490,N,12225.10217,W,000.75,021.8,210413,016.6,E,D*24
$PGRME,2.5,M,2.4,M,3.5,M*29
$HCHDG,42.4,0.0,E,,*1B
$IIRMC,200000,A,4743.064,N,12225.102,W,00.7,021,210413,16,E,A*19
$YXXDR,A,5.4,D,PTCH,A,-2.4,D,ROLL*77
$IIVHW,,,,,00.0,N,,*19
$GPRMC,200041.2,A,4743.06489,N,12225.10222,W,000.76,021.7,210413,016.6,E,D*24
$PGRME,2.5,M,2.4,M,3.5,M*29
$HCHDG,42.5,0.0,E,,*1A
$IIVLW,06233,N,004.8,N*5B
$HCHDG,42.5,0.0,E,,*1A
$IIGLL,4743.064,N,12225.102,W,200000,A,A*43
$IIMTW,+09.0,C*31
$HCHDG,42.4,0.0,E,,*1B
$GPRMC,200041.4,A,4743.06497,N,12225.10222,W,000.76,021.4,210413,016.6,E,D*2E
$PGRME,2.5,M,2.4,M,3.5,M*29
$IIRMB,A,,,,M   ,,,,,001.3,181,,V,A*72
$HCHDG,42.4,0.0,E,,*1B
$GPRMC,200041.6,A,4743.06501,N,12225.10219,W,000.77,021.5,210413,016.6,E,D*2A
$GPRMB,A,-0.35,L,,M,4741.7720,N,12224.5760,W,1.3,181,-0.77,V*4C
$PTAK,FFP1,HEEL,@*07
$HCHDG,42.5,0.0,E,,*1A
$PGRME,2.5,M,2.4,M,3.5,M*29
$YXXDR,A,5.3,D,PTCH,A,-2.7,D,ROLL*73
$PTAK,FFD1,2.7*50
$HCHDG,42.4,0.0,E,,*1B
$GPRMC,200041.8,A,4743.06505,N,12225.10217,W,000.58,021.5,210413,016.6,E,D*23
$HCHDG,42.6,0.0,E,,*19
$PGRME,2.5,M,2.4,M,3.5,M*29
$HCHDG,42.5,0.0,E,,*1A
$HCHDG,42.5,0.0,E,,*1A
$GPRMC,200042.0,A,4743.06508,N,12225.10224,W,000.56,021.1,210413,016.6,E,D*2F
$PGRME,2.5,M,2.4,M,3.5,M*29
$HCHDG,42.8,0.0,E,,*17
$IIRMC,200000,A,4743.065,N,12225.102,W,00.7,021,210413,16,E,A*18
$YXXDR,A,5.1,D,PTCH,A,-2.0,D,ROLL*76
$IIVHW,,,,,00.0,N,,*19
$GPRMC,200042.2,A,4743.06510,N,12225.10228,W,000.56,021.0,210413,016.6,E,D*29
$PGRME,2.5,M,2.4,M,3.5,M*29
$HCHDG,42.8,0.0,E,,*17
$IIVLW,06233,N,004.8,N*5B
$HCHDG,43.0,0.0,E,,*1E
$IIGLL,4743.065,N,12225.102,W,200000,A,A*42
$IIMTW,+09.0,C*31
$HCHDG,43.0,0.0,E,,*1E
$GPRMC,200042.4,A,4743.06508,N,12225.10230,W,000.55,021.1,210413,016.6,E,D*2D
$PGRME,2.5,M,2.4,M,3.5,M*29
$IIRMB,A,,,,M   ,,,,,001.3,181,,V,A*72
$HCHDG,42.9,0.0,E,,*16
$GPRMC,200042.6,A,4743.06507,N,12225.10232,W,000.55,021.1,210413,016.6,E,D*22
$HCHDG,42.9,0.0,E,,*16
$PGRME,2.5,M,2.4,M,3.5,M*29
$YXXDR,A,5.2,D,PTCH,A,-1.1,D,ROLL*77
$HCHDG,43.0,0.0,E,,*1E
$HCHDG,42.8,0.0,E,,*17
$GPRMC,200042.8,A,4743.06510,N,12225.10226,W,000.55,021.2,210413,016.6,E,D*2C
$GPRMB,A,-0.35,L,,M,4741.7720,N,12224.5760,W,1.3,181,-0.55,V*4C
$PGRME,2.5,M,2.4,M,3.5,M*29
$HCHDG,42.8,0.0,E,,*17
$GPRMC,200043.0,A,4743.06512,N,12225.10222,W,000.54,021.3,210413,016.6,E,D*23
$HCHDG,42.7,0.0,E,,*18
$PGRME,2.5,M,2.4,M,3.5,M*29
$HCHDG,42.7,0.0,E,,*18
$IIRMC,200000,A,4743.065,N,12225.102,W,00.5,021,210413,16,E,A*1A
$YXXDR,A,5.2,D,PTCH,A,-1.0,D,ROLL*76
$PTAK,FFD1,1.0*54
$IIVHW,,,,,00.0,N,,*19
$GPRMC,200043.2,A,4743.06512,N,12225.10217,W,000.55,021.5,210413,016.6,E,D*20
$PGRME,2.5,M,2.4,M,3.5,M*29
$HCHDG,42.6,0.0,E,,*19
$IIVLW,06233,N,004.8,N*5B
$HCHDG,42.6,0.0,E,,*19
$IIGLL,4743.065,N,12225.102,W,200000,A,A*42
$IIMTW,+09.0,C*31
$HCHDG,42.5,0.0,E,,*1A
$GPRMC,200043.4,A,4743.06512,N,12225.10214,W,000.55,021.7,210413,016.6,E,D*27
$PGRME,2.5,M,2.4,M,3.5,M*29
$IIRMB,A,,,,M   ,,,,,001.3,181,,V,A*72
$HCHDG,42.3,0.0,E,,*1C
$GPRMC,200043.6,A,4743.06512,N,12225.10210,W,000.55,022.0,210413,016.6,E,D*25
$HCHDG,42.3,0.0,E,,*1C
$PGRME,2.5,M,2.4,M,3.5,M*29
$YXXDR,A,5.4,D,PTCH,A,-1.1,D,ROLL*71
$HCHDG,42.2,0.0,E,,*1D
$GPRMC,200043.8,A,4743.06513,N,12225.10209,W,000.56,022.0,210413,016.6,E,D*21
$HCHDG,42.3,0.0,E,,*1C
$PGRME,2.5,M,2.4,M,3.5,M*29
$HCHDG,42.2,0.0,E,,*1D
$HCHDG,42.2,0.0,E,,*1D
$GPRMC,200044.0,A,4743.06513,N,12225.10206,W,000.58,022.0,210413,016.6,E,D*2F
$GPRMB,A,-0.35,L,,M,4741.7720,N,12224.5760,W,1.3,181,-0.58,V*41
$PGRME,2.5,M,2.4,M,3.5,M*29
$PGRMT,GPS 18x-5Hz software ver. 3.20,,,,,,,,*30
$HCHDG,42.4,0.0,E,,*1B
$IIRMC,200000,A,4743.065,N,12225.102,W,00.5,022,210413,16,E,A*19
$YXXDR,A,5.4,D,PTCH,A,-1.8,D,ROLL*78
$PTAK,FFD1,1.8*5C
$IIVHW,,,,,00.0,N,,*19
$GPRMC,200044.2,A,4743.06516,N,12225.10202,W,000.61,023.1,210413,016.6,E,D*26
$PGRME,2.5,M,2.4,M,3.5,M*29
$HCHDG,42.4,0.0,E,,*1B
$IIVLW,06233,N,004.8,N*5B
$HCHDG,42.4,0.0,E,,*1B
$IIGLL,4743.065,N,12225.102,W,200000,A,A*42
$IIMTW,+09.0,C*31
$HCHDG,42.5,0.0,E,,*1A
$GPRMC,200044.4,A,4743.06520,N,12225.10197,W,000.64,023.3,210413,016.6,E,D*2D
$PGRME,2.5,M,2.4,M,3.5,M*29
$IIRMB,A,,,,M   ,,,,,001.3,181,,V,A*72
$HCHDG,42.5,0.0,E,,*1A
$GPRMC,200044.6,A,4743.06524,N,12225.10194,W,000.67,023.4,210413,016.6,E,D*2C
$HCHDG,42.7,0.0,E,,*18
$PGRME,2.5,M,2.4,M,3.5,M*29
$YXXDR,A,5.4,D,PTCH,A,-2.3,D,ROLL*70
$HCHDG,42.8,0.0,E,,*17
$GPRMC,200044.8,A,4743.06523,N,12225.10200,W,000.68,023.5,210413,016.6,E,D*25
$HCHDG,42.7,0.0,E,,*18
$PGRME,2.5,M,2.4,M,3.5,M*29
$HCHDG,42.8,0.0,E,,*17
$GPRMC,200045.0,A,4743.06525,N,12225.10200,W,000.69,023.5,210413,016.6,E,D*2B
$HCHDG,42.6,0.0,E,,*19
$PGRME,2.5,M,2.4,M,3.5,M*29
$HCHDG,42.8,0.0,E,,*17
$IIRMC,200000,A,4743.065,N,12225.101,W,00.6,023,210413,16,E,A*18
$YXXDR,A,5.2,D,PTCH,A,-3.8,D,ROLL*7C
$IIVHW,,,,,00.0,N,,*19
$GPRMC,200045.2,A,4743.06528,N,12225.10194,W,000.66,023.3,210413,016.6,E,D*23
$GPRMB,A,-0.35,L,,M,4741.7720,N,12224.5760,W,1.3,181,-0.66,V*4C
$PGRME,2.5,M,2.4,M,3.5,M*29
$HCHDG,42.8,0.0,E,,*17
$IIVLW,06233,N,004.8,N*5B
$HCHDG,42.9,0.0,E,,*16
$IIGLL,4743.065,N,12225.101,W,200000,A,A*41
$IIMTW,+09.0,C*31
$GPRMC,200045.4,A,4743.06532,N,12225.10190,W,000.62,023.2,210413,016.6,E,D*2F
$PTAK,FFP1,HEEL,@*07
$HCHDG,42.8,0.0,E,,*17
$PGRME,2.5,M,2.4,M,3.5,M*29
$IIRMB,A,,,,M   ,,,,,001.3,181,,V,A*72
$HCHDG,42.8,0.0,E,,*17
$GPRMC,200045.6,A,4743.06544,N,12225.10188,W,000.58,023.2,210413,016.6,E,D*2C
$HCHDG,42.8,0.0,E,,*17
$PGRME,2.5,M,2.4,M,3.5,M*29
$YXXDR,A,5.2,D,PTCH,A,-3.6,D,ROLL*72
$PTAK,FFD1,3.6*50
$HCHDG,42.8,0.0,E,,*17
$GPRMC,200045.8,A,4743.06547,N,12225.10187,W,000.56,022.7,210413,016.6,E,D*24
$HCHDG,42.7,0.0,E,,*18
$PGRME,2.5,M,2.4,M,3.5,M*29
$HCHDG,42.9,0.0,E,,*16
$GPRMC,200046.0,A,4743.06559,N,12225.10187,W,000.56,022.4,210413,016.6,E,D*23
$HCHDG,42.7,0.0,E,,*18
$PGRME,2.5,M,2.4,M,3.5,M*29
$HCHDG,42.8,0.0,E,,*17
$IIRMC,200000,A,4743.065,N,12225.101,W,00.5,023,210413,16,E,A*1B
$YXXDR,A,5.2,D,PTCH,A,-3.2,D,ROLL*76
$IIVHW,,,,,00.0,N,,*19
$GPRMC,200046.2,A,4743.06565,N,12225.10166,W,000.58,022.2,210413,016.6,E,D*29
$PGRME,2.5,M,2.4,M,3.5,M*29
$HCHDG,42.8,0.0,E,,*17
$IIVLW,06233,N,004.8,N*5B
$HCHDG,42.8,0.0,E,,*17
$IIGLL,4743.065,N,12225.101,W,200000,A,A*41
$IIMTW,+09.0,C*31
$GPRMC,200046.4,A,4743.06568,N,12225.10160,W,000.59,022.0,210413,016.6,E,D*27
$GPRMB,A,-0.35,L,,M,4741.7720,N,12224.5760,W,1.3,181,-0.59,V*40
$HCHDG,42.9,0.0,E,,*16
$PGRME,2.5,M,2.4,M,3.5,M*29
$IIRMB,A,,,,M   ,,,,,001.3,181,,V,A*72
$HCHDG,42.9,0.0,E,,*16
$GPRMC,200046.6,A,4743.06573,N,12225.10158,W,000.60,021.9,210413,016.6,E,D*24
$HCHDG,42.7,0.0,E,,*18
$PGRME,2.5,M,2.4,M,3.5,M*29
$YXXDR,A,5.4,D,PTCH,A,-2.5,D,ROLL*76
$HCHDG,42.6,0.0,E,,*19
$HCHDG,42.7,0.0,E,,*18
$GPRMC,200046.8,A,4743.06577,N,12225.10156,W,000.60,022.3,210413,016.6,E,D*29
$PGRME,2.5,M,2.4,M,3.5,M*29
$HCHDG,42.6,0.0,E,,*19
$GPRMC,200047.0,A,4743.06579,N,12225.10155,W,000.62,022.5,210413,016.6,E,D*29
$HCHDG,42.6,0.0,E,,*19
$PGRME,2.5,M,2.4,M,3.5,M*29
$HCHDG,42.7,0.0,E,,*18
$IIRMC,200000,A,4743.065,N,12225.101,W,00.6,021,210413,16,E,A*1A
$YXXDR,A,5.5,D,PTCH,A,-2.3,D,ROLL*71
$PTAK,FFD1,2.3*54
$IIVHW,,,,,00.0,N,,*19
$GPRMC,200047.2,A,4743.06581,N,12225.10155,W,000.61,022.6,210413,016.6,E,D*2C
$PGRME,2.5,M,2.4,M,3.5,M*29
$HCHDG,42.5,0.0,E,,*1A
$IIVLW,06233,N,004.8,N*5B
$HCHDG,42.7,0.0,E,,*18
$IIGLL,4743.065,N,12225.101,W,200000,A,A*41
$IIMTW,+09.0,C*31
$HCHDG,42.7,0.0,E,,*18
$GPRMC,200047.4,A,4743.06583,N,12225.10160,W,000.60,022.6,210413,016.6,E,D*2F
$GPRMB,A,-0.35,L,,M,4741.7720,N,12224.5760,W,1.3,181,-0.60,V*4A
$PGRME,2.5,M,2.4,M,3.5,M*29
$IIRMB,A,,,,M   ,,,,,001.3,181,,V,A*72
$HCHDG,42.7,0.0,E,,*18
$GPRMC,200047.6,A,4743.06585,N,12225.10163,W,000.61,022.6,210413,016.6,E,D*29
$PGRME,2.5,M,2.4,M,3.5,M*29
$HCHDG,42.8,0.0,E,,*17
$YXXDR,A,5.2,D,PTCH,A,-2.6,D,ROLL*73
$HCHDG,42.9,0.0,E,,*16
$GPRMC,200047.8,A,4743.06588,N,12225.10165,W,000.60,022.5,210413,016.6,E,D*2E
$HCHDG,42.9,0.0,E,,*16
$PGRME,2.5,M,2.4,M,3.5,M*29
$HCHDG,43.0,0.0,E,,*1E
$GPRMC,200048.0,A,4743.06591,N,12225.10167,W,000.58,022.3,210413,016.6,E,D*2E
$HCHDG,43.0,0.0,E,,*1E
$PGRME,2.5,M,2.4,M,3.5,M*29
$HCHDG,42.9,0.0,E,,*16
$IIRMC,200000,A,4743.065,N,12225.101,W,00.6,022,210413,16,E,A*19
$YXXDR,A,5.1,D,PTCH,A,-2.9,D,ROLL*7F
$IIVHW,,,,,00.0,N,,*19
$GPRMC,200048.2,A,4743.06593,N,12225.10167,W,000.55,022.4,210413,016.6,E,D*24
$PGRME,2.5,M,2.4,M,3.5,M*29
$HCHDG,43.0,0.0,E,,*1E
$IIVLW,06233,N,004.8,N*5B
$HCHDG,42.9,0.0,E,,*16
$IIGLL,4743.065,N,12225.101,W,200000,A,A*41
$IIMTW,+09.0,C*31
$HCHDG,42.9,0.0,E,,*16
$GPRMC,200048.4,A,4743.06601,N,12225.10167,W,000.52,022.4,210413,016.6,E,D*2D
$GPRMB,A,-0.35,L,,M,4741.7720,N,12224.5760,W,1.3,181,-0.52,V*4B
$PGRME,2.5,M,2.4,M,3.5,M*29
$IIRMB,A,,,,M   ,,,,,001.3,181,,V,A*72
$HCHDG,42.8,0.0,E,,*17
$GPRMC,200048.6,A,4743.06599,N,12225.10175,W,000.48,022.2,210413,016.6,E,D*23
$HCHDG,42.9,0.0,E,,*16
$PGRME,2.5,M,2.4,M,3.5,M*29
$YXXDR,A,5.2,D,PTCH,A,-3.3,D,ROLL*77
$PTAK,FFD1,3.3*55
$HCHDG,42.9,0.0,E,,*16
$GPRMC,200048.8,A,4743.06599,N,12225.10187,W,000.49,022.0,210413,016.6,E,D*23
$HCHDG,42.9,0.0,E,,*16
$PGRME,2.5,M,2.4,M,3.5,M*29
$HCHDG,43.0,0.0,E,,*1E
$GPRMC,200049.0,A,4743.06598,N,12225.10194,W,000.51,021.8,210413,016.6,E,D*2B
$HCHDG,43.0,0.0,E,,*1E
$PGRME,2.5,M,2.4,M,3.5,M*29
$HCHDG,42.9,0.0,E,,*16
$IIRMC,200000,A,4743.065,N,12225.101,W,00.4,022,210413,16,E,A*1B
$YXXDR,A,5.5,D,PTCH,A,-2.6,D,ROLL*74
$IIVHW,,,,,00.0,N,,*19
$GPRMC,200049.2,A,4743.06597,N,12225.10202,W,000.54,021.3,210413,016.6,E,D*24
$PGRME,2.5,M,2.4,M,3.5,M*29
$HCHDG,43.1,0.0,E,,*1F
$IIVLW,06233,N,004.8,N*5B
$HCHDG,43.1,0.0,E,,*1F
$IIGLL,4743.065,N,12225.101,W,200000,A,A*41
$IIMTW,+09.0,C*31
$GPRMC,200049.4,A,4743.06593,N,12225.10209,W,000.57,021.1,210413,016.6,E,D*2C
$HCHDG,43.2,0.0,E,,*1C
$PGRME,2.5,M,2.4,M,3.5,M*29
$IIRMB,A,,,,M   ,,,,,001.3,181,,V,A*72
$HCHDG,43.2,0.0,E,,*1C
$GPRMC,200049.6,A,4743.06590,N,12225.10221,W,000.59,020.7,210413,016.6,E,D*2E
$GPRMB,A,-0.35,L,,M,4741.7720,N,12224.5760,W,1.3,181,-0.59,V*40
$HCHDG,43.1,0.0,E,,*1F
$PTAK,FFP1,HEEL,@*07
$PGRME,2.5,M,2.4,M,3.5,M*29
$YXXDR,A,5.3,D,PTCH,A,-2.3,D,ROLL*77
$PTAK,FFD1,2.3*54
$HCHDG,43.5,0.0,E,,*1B
$GPRMC,200049.8,A,4743.06591,N,12225.10218,W,000.58,020.2,210413,016.6,E,D*2F
$HCHDG,43.5,0.0,E,,*1B
$PGRME,2.5,M,2.4,M,3.5,M*29
$HCHDG,43.4,0.0,E,,*1A
$HCHDG,43.4,0.0,E,,*1A
$GPRMC,200050.0,A,4743.06591,N,12225.10219,W,000.58,019.7,210413,016.6,E,D*21
$PGRME,2.5,M,2.4,M,3.5,M*29
$HCHDG,43.5,0.0,E,,*1B
$IIRMC,200000,A,4743.065,N,12225.102,W,00.5,020,210413,16,E,A*1B
$YXXDR,A,5.1,D,PTCH,A,-2.2,D,ROLL*74
$IIVHW,,,,,00.0,N,,*19
$GPRMC,200050.2,A,4743.06591,N,12225.10221,W,000.57,019.7,210413,016.6,E,D*27
$PGRME,2.5,M,2.4,M,3.5,M*29
$HCHDG,43.3,0.0,E,,*1D
$IIVLW,06233,N,004.8,N*5B
$HCHDG,43.4,0.0,E,,*1A
$IIGLL,4743.065,N,12225.102,W,200000,A,A*42
$IIMTW,+09.0,C*31
$HCHDG,43.2,0.0,E,,*1C
$GPRMC,200050.4,A,4743.06588,N,12225.10224,W,000.55,019.7,210413,016.6,E,D*2E
$PGRME,2.6,M,2.4,M,3.5,M*2A
$IIRMB,A,,,,M   ,,,,,001.3,181,,V,A*72
$HCHDG,43.2,0.0,E,,*1C
$GPRMC,200050.6,A,4743.06589,N,12225.10226,W,000.54,019.7,210413,016.6,E,D*2E
$HCHDG,43.2,0.0,E,,*1C
$PGRME,2.6,M,2.4,M,3.5,M*2A
$YXXDR,A,5.5,D,PTCH,A,-1.5,D,ROLL*74
$HCHDG,43.0,0.0,E,,*1E
$GPRMC,200050.8,A,4743.06582,N,12225.10229,W,000.51,019.7,210413,016.6,E,D*21
$GPRMB,A,-0.35,L,,M,4741.7720,N,12224.5760,W,1.3,181,-0.51,V*48
$HCHDG,43.0,0.0,E,,*1E
$PGRME,2.6,M,2.4,M,3.5,M*2A
$HCHDG,42.8,0.0,E,,*17
$GPRMC,200051.0,A,4743.06573,N,12225.10242,W,000.24,019.7,210413,016.6,E,D*29
$HCHDG,42.8,0.0,E,,*17
$PGRME,2.6,M,2.4,M,3.5,M*2A
$HCHDG,42.7,0.0,E,,*18
$IIRMC,200000,A,4743.065,N,12225.102,W,00.5,019,210413,16,E,A*11
$YXXDR,A,5.8,D,PTCH,A,-1.8,D,ROLL*74
$PTAK,FFD1,1.8*5C
$IIVHW,,,,,00.0,N,,*19
$GPRMC,200051.2,A,4743.06573,N,12225.10247,W,000.25,019.7,210413,016.6,E,D*2F
$PGRME,2.6,M,2.4,M,3.5,M*2A
$HCHDG,42.6,0.0,E,,*19
$IIVLW,06233,N,004.8,N*5B
$HCHDG,42.5,0.0,E,,*1A
$IIGLL,4743.065,N,12225.102,W,200000,A,A*42
$IIMTW,+09.0,C*31
$HCHDG,42.5,0.0,E,,*1A
$GPRMC,200051.4,A,4743.06573,N,12225.10244,W,000.29,019.7,210413,016.6,E,D*26
$PGRME,2.6,M,2.4,M,3.5,M*2A
$IIRMB,A,,,,M   ,,,,,001.3,181,,V,A*72
$HCHDG,42.7,0.0,E,,*18
$GPRMC,200051.6,A,4743.06575,N,12225.10237,W,000.32,019.7,210413,016.6,E,D*2C
$HCHDG,42.6,0.0,E,,*19
$PGRME,2.6,M,2.4,M,3.5,M*2A
$YXXDR,A,5.5,D,PTCH,A,-1.9,D,ROLL*78
$HCHDG,42.6,0.0,E,,*19
$GPRMC,200051.8,A,4743.06578,N,12225.10232,W,000.33,019.7,210413,016.6,E,D*2B
$GPRMB,A,-0.35,L,,M,4741.7720,N,12224.5760,W,1.3,181,-0.33,V*4C
$HCHDG,42.6,0.0,E,,*19
$PGRME,2.6,M,2.4,M,3.5,M*2A
$HCHDG,42.7,0.0,E,,*18
$GPRMC,200052.0,A,4743.06577,N,12225.10236,W,000.34,019.7,210413,016.6,E,D*2C
$HCHDG,42.6,0.0,E,,*19
$PGRME,2.6,M,2.4,M,3.5,M*2A
$HCHDG,42.6,0.0,E,,*19
$IIRMC,200000,A,4743.065,N,12225.102,W,00.3,019,210413,16,E,A*17
$YXXDR,A,5.2,D,PTCH,A,-2.2,D,ROLL*77
$IIVHW,,,,,00.0,N,,*19
