$GPRMC,020000.8,A,4741.86552,N,12225.14415,W,002.86,306.1,170513,016.6,E,D*29
$PGRME,2.4,M,2.4,M,3.4,M*29
$IIMTW,+10.5,C*3C
$HCHDG,139.2,0.0,E,,*20
$IIRMB,A,,,,N   ,,,,,000.9,156,,V,A*70
$HCHDG,138.9,0.0,E,,*2A
$GPRMC,020001.0,A,4741.86562,N,12225.14440,W,002.87,303.7,170513,016.6,E,D*21
$GPRMB,A,-0.36,L,,N,4741.0622,N,12224.6030,W,0.9,156,-2.44,V*4A
$PGRME,2.4,M,2.4,M,3.4,M*29
$IIRMC,015900,A,4741.865,N,12225.142,W,02.8,293,160513,16,E,A*1A
$IIVHW,,,,,00.0,N,,*19
$HCHDG,138.7,0.0,E,,*24
$YXXDR*4F
$IIVLW,06236,N,000.0,N*52
$HCHDG,138.7,0.0,E,,*24
$GPRMC,020001.2,A,4741.86568,N,12225.14458,W,002.86,305.5,170513,016.6,E,D*25
$PGRME,2.4,M,2.4,M,3.4,M*29
$HCHDG,138.6,0.0,E,,*25
$HCHDG,138.7,0.0,E,,*24
$GPRMC,020001.4,A,4741.86578,N,12225.14479,W,003.08,302.1,170513,016.6,E,D*25
$PGRME,2.4,M,2.4,M,3.4,M*29
$HCHDG,138.9,0.0,E,,*2A
$HCHDG,139.0,0.0,E,,*22
$GPRMC,020001.6,A,4741.86590,N,12225.14500,W,002.90,303.5,170513,016.6,E,D*2B
$PGRME,2.4,M,2.4,M,3.4,M*29
$YXXDR*4F
$IIDPT,081.9,-1.0,*40
$HCHDG,139.3,0.0,E,,*21
$IIGLL,4741.865,N,12225.143,W,020000,A,A*4D
$HCHDG,139.5,0.0,E,,*27
$GPRMC,020001.8,A,4741.86598,N,12225.14517,W,002.92,300.6,170513,016.6,E,D*29
$PGRME,2.4,M,2.4,M,3.4,M*29
$IIMTW,+10.5,C*3C
$HCHDG,139.6,0.0,E,,*24
$IIRMB,A,,,,N   ,,,,,000.9,156,,V,A*70
$HCHDG,139.5,0.0,E,,*27
$GPRMC,020002.0,A,4741.86605,N,12225.14532,W,002.87,303.1,170513,016.6,E,D*22
$GPRMB,A,-0.37,L,,N,4741.0622,N,12224.6030,W,0.9,156,-2.42,V*4D
$PGRME,2.4,M,2.4,M,3.4,M*29
$IIRMC,020000,A,4741.865,N,12225.143,W,02.8,303,160513,16,E,A*1C
$IIVHW,,,,,00.0,N,,*19
$HCHDG,139.4,0.0,E,,*26
$YXXDR*4F
$IIVLW,06236,N,000.0,N*52
$HCHDG,139.2,0.0,E,,*20
$GPRMC,020002.2,A,4741.86610,N,12225.14545,W,002.87,301.7,170513,016.6,E,D*20
$PGRME,2.4,M,2.4,M,3.4,M*29
$HCHDG,139.0,0.0,E,,*22
$HCHDG,138.7,0.0,E,,*24
$GPRMC,020002.4,A,4741.86617,N,12225.14563,W,002.84,304.2,170513,016.6,E,D*26
$PGRME,2.4,M,2.4,M,3.4,M*29
$HCHDG,138.4,0.0,E,,*27
$HCHDG,138.2,0.0,E,,*21
$GPRMC,020002.6,A,4741.86629,N,12225.14585,W,002.85,301.3,170513,016.6,E,D*24
$PGRME,2.4,M,2.4,M,3.4,M*29
$YXXDR*4F
$IIDPT,081.9,-1.0,*40
$HCHDG,138.0,0.0,E,,*23
$IIGLL,4741.865,N,12225.144,W,020000,A,A*4A
$HCHDG,137.9,0.0,E,,*25
$GPRMC,020002.8,A,4741.86640,N,12225.14599,W,002.83,299.1,170513,016.6,E,D*2C
$PGRME,2.4,M,2.4,M,3.4,M*29
$IIMTW,+10.5,C*3C
$HCHDG,137.9,0.0,E,,*25
$IIRMB,A,,,,N   ,,,,,000.9,156,,V,A*70
$HCHDG,138.0,0.0,E,,*23
$GPRMC,020003.0,A,4741.86660,N,12225.14608,W,002.83,301.8,170513,016.6,E,D*25
$GPRMB,A,-0.37,L,,N,4741.0622,N,12224.6030,W,0.9,156,-2.35,V*4D
$PTAK,FFP1,HEEL,@*07
$PGRME,2.4,M,2.4,M,3.4,M*29
$IIRMC,020000,A,4741.865,N,12225.144,W,03.0,302,160513,16,E,A*13
$IIVHW,,,,,00.0,N,,*19
$HCHDG,138.3,0.0,E,,*20
$YXXDR*4F
$IIVLW,06236,N,000.0,N*52
$HCHDG,138.5,0.0,E,,*26
$GPRMC,020003.2,A,4741.86674,N,12225.14618,W,002.83,304.1,170513,016.6,E,D*2F
$PGRME,2.4,M,2.4,M,3.4,M*29
$HCHDG,138.8,0.0,E,,*2B
$HCHDG,139.0,0.0,E,,*22
$GPRMC,020003.4,A,4741.86690,N,12225.14643,W,002.85,307.4,170513,016.6,E,D*2D
$PGRME,2.4,M,2.4,M,3.4,M*29
$HCHDG,139.0,0.0,E,,*22
$HCHDG,139.0,0.0,E,,*22
$GPRMC,020003.6,A,4741.86699,N,12225.14673,W,002.83,306.1,170513,016.6,E,D*27
$PGRME,2.4,M,2.4,M,3.4,M*29
$YXXDR*4F
$IIDPT,081.9,-1.0,*40
$HCHDG,138.8,0.0,E,,*2B
$IIGLL,4741.866,N,12225.145,W,020000,A,A*48
$HCHDG,138.6,0.0,E,,*25
$GPRMC,020003.8,A,4741.86706,N,12225.14700,W,002.84,304.5,170513,016.6,E,D*2A
$PGRME,2.4,M,2.4,M,3.4,M*29
$IIMTW,+10.5,C*3C
$HCHDG,138.2,0.0,E,,*21
$IIRMB,A,,,,N   ,,,,,000.9,156,,V,A*70
$HCHDG,137.8,0.0,E,,*24
$GPRMC,020004.0,A,4741.86713,N,12225.14724,W,002.88,301.9,170513,016.6,E,D*22
$GPRMB,A,-0.37,L,,N,4741.0622,N,12224.6030,W,0.9,156,-2.40,V*4F
$PGRME,2.4,M,2.4,M,3.4,M*29
$IIRMC,020000,A,4741.866,N,12225.145,W,02.8,304,160513,16,E,A*1E
$IIVHW,,,,,00.0,N,,*19
$HCHDG,137.4,0.0,E,,*28
$YXXDR*4F
$IIVLW,06236,N,000.0,N*52
$HCHDG,136.9,0.0,E,,*24
$GPRMC,020004.2,A,4741.86721,N,12225.14750,W,002.92,301.7,170513,016.6,E,D*27
$PGRME,2.4,M,2.4,M,3.4,M*29
$HCHDG,136.6,0.0,E,,*2B
$HCHDG,136.4,0.0,E,,*29
$GPRMC,020004.4,A,4741.86725,N,12225.14775,W,003.10,301.4,170513,016.6,E,D*2A
$PGRME,2.4,M,2.4,M,3.4,M*29
$HCHDG,136.1,0.0,E,,*2C
$HCHDG,136.0,0.0,E,,*2D
$GPRMC,020004.6,A,4741.86729,N,12225.14794,W,003.03,300.5,170513,016.6,E,D*29
$PGRME,2.4,M,2.4,M,3.4,M*29
$YXXDR*4F
$IIDPT,081.9,-1.0,*40
$HCHDG,136.0,0.0,E,,*2D
$IIGLL,4741.866,N,12225.146,W,020000,A,A*4B
$HCHDG,136.0,0.0,E,,*2D
$GPRMC,020004.8,A,4741.86729,N,12225.14803,W,002.79,303.0,170513,016.6,E,D*2C
$PGRME,2.4,M,2.4,M,3.4,M*29
$IIMTW,+10.0,C*39
$HCHDG,136.2,0.0,E,,*2F
$IIRMB,A,,,,N   ,,,,,000.9,156,,V,A*70
$HCHDG,136.4,0.0,E,,*29
$GPRMC,020005.0,A,4741.86741,N,12225.14810,W,002.73,306.8,170513,016.6,E,D*2E
$PGRME,2.4,M,2.4,M,3.4,M*29
$IIRMC,020000,A,4741.866,N,12225.146,W,02.8,307,160513,16,E,A*1E
$IIVHW,,,,,00.0,N,,*19
$HCHDG,136.5,0.0,E,,*28
$YXXDR*4F
$IIVLW,06236,N,000.0,N*52
$HCHDG,136.9,0.0,E,,*24
$GPRMC,020005.2,A,4741.86750,N,12225.14821,W,002.75,308.3,170513,016.6,E,D*2D
$GPRMB,A,-0.37,L,,N,4741.0622,N,12224.6030,W,0.9,155,-2.45,V*49
$PGRME,2.4,M,2.4,M,3.4,M*29
$HCHDG,137.2,0.0,E,,*2E
$HCHDG,137.3,0.0,E,,*2F
$GPRMC,020005.4,A,4741.86761,N,12225.14832,W,002.72,309.0,170513,016.6,E,D*2E
$PGRME,2.4,M,2.4,M,3.4,M*29
$HCHDG,137.5,0.0,E,,*29
$HCHDG,137.4,0.0,E,,*28
$GPRMC,020005.6,A,4741.86774,N,12225.14852,W,002.75,308.4,170513,016.6,E,D*2C
$PGRME,2.4,M,2.4,M,3.4,M*29
$YXXDR*4F
$IIDPT,081.9,-1.0,*40
$HCHDG,137.5,0.0,E,,*29
$IIGLL,4741.867,N,12225.147,W,020000,A,A*4B
$HCHDG,137.4,0.0,E,,*28
$GPRMC,020005.8,A,4741.86787,N,12225.14875,W,002.81,306.8,170513,016.6,E,D*22
$PGRME,2.4,M,2.4,M,3.4,M*29
$IIMTW,+10.0,C*39
$HCHDG,137.3,0.0,E,,*2F
$IIRMB,A,,,,N   ,,,,,000.9,155,,V,A*73
$HCHDG,136.9,0.0,E,,*24
$GPRMC,020006.0,A,4741.86803,N,12225.14900,W,002.78,307.7,170513,016.6,E,D*21
$PGRME,2.4,M,2.4,M,3.4,M*29
$IIRMC,020000,A,4741.867,N,12225.147,W,03.0,300,160513,16,E,A*10
$IIVHW,,,,,00.0,N,,*19
$HCHDG,136.6,0.0,E,,*2B
$YXXDR*4F
$IIVLW,06236,N,000.0,N*52
$HCHDG,136.3,0.0,E,,*2E
$GPRMC,020006.2,A,4741.86815,N,12225.14930,W,002.80,304.5,170513,016.6,E,D*21
$GPRMB,A,-0.37,L,,N,4741.0622,N,12224.6030,W,0.9,155,-2.40,V*4C
$PGRME,2.4,M,2.4,M,3.4,M*29
$HCHDG,135.9,0.0,E,,*27
$HCHDG,135.5,0.0,E,,*2B
$GPRMC,020006.4,A,4741.86824,N,12225.14950,W,002.84,303.2,170513,016.6,E,D*27
$PGRME,2.4,M,2.4,M,3.4,M*29
$HCHDG,135.3,0.0,E,,*2D
$HCHDG,134.9,0.0,E,,*26
$GPRMC,020006.6,A,4741.86833,N,12225.14961,W,002.86,302.3,170513,016.6,E,D*23
$PGRME,2.4,M,2.4,M,3.4,M*29
$YXXDR*4F
$IIDPT,081.9,-1.0,*40
$HCHDG,134.8,0.0,E,,*27
$IIGLL,4741.867,N,12225.148,W,020000,A,A*44
$HCHDG,134.5,0.0,E,,*2A
$GPRMC,020006.8,A,4741.86845,N,12225.14968,W,002.86,304.7,170513,016.6,E,D*27
$PGRME,2.4,M,2.4,M,3.4,M*29
$IIMTW,+10.0,C*39
$HCHDG,134.4,0.0,E,,*2B
$IIRMB,A,,,,N   ,,,,,000.9,155,,V,A*73
$HCHDG,134.3,0.0,E,,*2C
$GPRMC,020007.0,A,4741.86853,N,12225.14978,W,002.69,305.9,170513,016.6,E,D*26
$PTAK,FFP1,HEEL,@*07
$PGRME,2.4,M,2.4,M,3.4,M*29
$IIRMC,020000,A,4741.867,N,12225.148,W,02.7,308,160513,16,E,A*11
$IIVHW,,,,,00.0,N,,*19
$HCHDG,134.3,0.0,E,,*2C
$YXXDR*4F
$IIVLW,06236,N,000.0,N*52
$HCHDG,134.4,0.0,E,,*2B
$GPRMC,020007.2,A,4741.86860,N,12225.15002,W,002.75,306.5,170513,016.6,E,D*23
$GPRMB,A,-0.37,L,,N,4741.0622,N,12224.6030,W,0.9,155,-2.41,V*4D
$PGRME,2.4,M,2.4,M,3.4,M*29
$HCHDG,134.4,0.0,E,,*2B
$HCHDG,134.6,0.0,E,,*29
$GPRMC,020007.4,A,4741.86872,N,12225.15009,W,002.76,310.9,170513,016.6,E,D*25
$PGRME,2.4,M,2.4,M,3.4,M*29
$HCHDG,134.7,0.0,E,,*28
$HCHDG,134.8,0.0,E,,*27
$GPRMC,020007.6,A,4741.86885,N,12225.15022,W,002.70,311.1,170513,016.6,E,D*29
$PGRME,2.4,M,2.4,M,3.4,M*29
$YXXDR*4F
$IIDPT,081.8,-1.0,*41
$HCHDG,134.7,0.0,E,,*28
$IIGLL,4741.867,N,12225.148,W,020000,A,A*44
$HCHDG,134.6,0.0,E,,*29
$GPRMC,020007.8,A,4741.86896,N,12225.15032,W,002.73,306.3,170513,016.6,E,D*23
$PGRME,2.4,M,2.4,M,3.4,M*29
$IIMTW,+10.0,C*39
$HCHDG,134.5,0.0,E,,*2A
$IIRMB,A,,,,N   ,,,,,000.9,155,,V,A*73
$HCHDG,134.2,0.0,E,,*2D
$GPRMC,020008.0,A,4741.86904,N,12225.15049,W,002.73,309.3,170513,016.6,E,D*2D
$PGRME,2.4,M,2.4,M,3.4,M*29
$IIRMC,020000,A,4741.867,N,12225.148,W,02.7,308,160513,16,E,A*11
$IIVHW,,,,,00.0,N,,*19
$HCHDG,133.9,0.0,E,,*21
$YXXDR*4F
$IIVLW,06236,N,000.0,N*52
$HCHDG,133.6,0.0,E,,*2E
$GPRMC,020008.2,A,4741.86918,N,12225.15065,W,002.72,302.9,170513,016.6,E,D*2C
$PGRME,2.4,M,2.4,M,3.4,M*29
$HCHDG,133.1,0.0,E,,*29
$HCHDG,132.9,0.0,E,,*20
$GPRMC,020008.4,A,4741.86930,N,12225.15083,W,002.71,303.6,170513,016.6,E,D*25
$GPRMB,A,-0.37,L,,N,4741.0622,N,12224.6030,W,0.9,155,-2.30,V*4B
$PGRME,2.4,M,2.4,M,3.4,M*29
$HCHDG,132.6,0.0,E,,*2F
$HCHDG,132.4,0.0,E,,*2D
$GPRMC,020008.6,A,4741.86936,N,12225.15094,W,002.71,304.9,170513,016.6,E,D*2F
$PGRME,2.4,M,2.4,M,3.4,M*29
$YXXDR*4F
$IIDPT,081.8,-1.0,*41
$HCHDG,132.2,0.0,E,,*2B
$IIGLL,4741.868,N,12225.150,W,020000,A,A*42
$HCHDG,132.1,0.0,E,,*28
$GPRMC,020008.8,A,4741.86940,N,12225.15101,W,002.71,305.9,170513,016.6,E,D*2C
$PGRME,2.4,M,2.4,M,3.4,M*29
$IIMTW,+10.0,C*39
$HCHDG,132.2,0.0,E,,*2B
$IIRMB,A,,,,N   ,,,,,000.9,155,,V,A*73
$HCHDG,132.2,0.0,E,,*2B
$GPRMC,020009.0,A,4741.86948,N,12225.15103,W,002.69,308.5,170513,016.6,E,D*27
$PGRME,2.4,M,2.4,M,3.4,M*29
$IIRMC,020000,A,4741.868,N,12225.150,W,02.7,306,160513,16,E,A*19
$IIVHW,,,,,00.0,N,,*19
$HCHDG,132.2,0.0,E,,*2B
$YXXDR*4F
$IIVLW,06236,N,000.0,N*52
$HCHDG,132.1,0.0,E,,*28
$GPRMC,020009.2,A,4741.86958,N,12225.15110,W,002.66,308.5,170513,016.6,E,D*29
$PGRME,2.4,M,2.4,M,3.4,M*29
$HCHDG,131.9,0.0,E,,*23
$HCHDG,131.7,0.0,E,,*2D
$GPRMC,020009.4,A,4741.86971,N,12225.15123,W,002.64,307.9,170513,016.6,E,D*25
$PGRME,2.4,M,2.4,M,3.4,M*29
$HCHDG,131.4,0.0,E,,*2E
$HCHDG,130.9,0.0,E,,*22
$GPRMC,020009.6,A,4741.86983,N,12225.15142,W,002.61,308.1,170513,016.6,E,D*2F
$GPRMB,A,-0.37,L,,N,4741.0622,N,12224.6030,W,0.9,155,-2.32,V*49
$PGRME,2.4,M,2.4,M,3.4,M*29
$YXXDR*4F
$IIDPT,081.8,-1.0,*41
$HCHDG,130.5,0.0,E,,*2E
$IIGLL,4741.869,N,12225.151,W,020000,A,A*42
$HCHDG,130.1,0.0,E,,*2A
$GPRMC,020009.8,A,4741.86991,N,12225.15160,W,002.61,304.1,170513,016.6,E,D*2E
$PGRME,2.4,M,2.4,M,3.4,M*29
$IIMTW,+10.0,C*39
$HCHDG,129.7,0.0,E,,*24
$IIRMB,A,,,,N   ,,,,,000.9,155,,V,A*73
$HCHDG,129.4,0.0,E,,*27
$GPRMC,020010.0,A,4741.86999,N,12225.15185,W,002.64,299.7,170513,016.6,E,D*2B
$PGRME,2.4,M,2.4,M,3.4,M*29
$IIRMC,020000,A,4741.869,N,12225.151,W,02.7,305,160513,16,E,A*1A
$IIVHW,,,,,00.0,N,,*19
$HCHDG,129.2,0.0,E,,*21
$YXXDR*4F
$IIVLW,06236,N,000.0,N*52
$HCHDG,129.0,0.0,E,,*23
$GPRMC,020010.2,A,4741.87005,N,12225.15210,W,003.06,299.4,170513,016.6,E,D*2D
$PGRME,2.4,M,2.4,M,3.4,M*29
$HCHDG,128.9,0.0,E,,*2B
$HCHDG,128.8,0.0,E,,*2A
$GPRMC,020010.4,A,4741.87009,N,12225.15224,W,002.65,304.7,170513,016.6,E,D*22
$PGRME,2.4,M,2.4,M,3.4,M*29
$HCHDG,128.8,0.0,E,,*2A
$HCHDG,128.8,0.0,E,,*2A
$GPRMC,020010.6,A,4741.87024,N,12225.15235,W,002.84,309.7,170513,016.6,E,D*2D
$PGRME,2.4,M,2.4,M,3.4,M*29
$YXXDR,A,-58.7,D,PTCH,A,35.8,D,ROLL*74
$PTAK,FFD1,35.8*6B
$IIDPT,081.8,-1.0,*41
$HCHDG,128.8,0.0,E,,*2A
$IIGLL,4741.869,N,12225.151,W,020000,A,A*42
$HCHDG,128.8,0.0,E,,*2A
$GPRMC,020010.8,A,4741.87029,N,12225.15251,W,002.51,307.5,170513,016.6,E,D*28
$GPRMB,A,-0.37,L,,N,4741.0622,N,12224.6030,W,0.9,155,-2.22,V*48
$PGRME,2.4,M,2.4,M,3.4,M*29
$IIMTW,+10.0,C*39
$HCHDG,133.2,0.0,E,,*2A
$IIRMB,A,,,,N   ,,,,,000.9,155,,V,A*73
$HCHDG,133.0,0.0,E,,*28
$PTAK,FFP1,HEEL,@*07
$GPRMC,020011.0,A,4741.87032,N,12225.15272,W,002.54,308.6,170513,016.6,E,D*23
$PGRME,2.4,M,2.4,M,3.4,M*29
$IIRMC,020000,A,4741.869,N,12225.151,W,02.6,304,160513,16,E,A*1A
$IIVHW,,,,,00.0,N,,*19
$HCHDG,132.5,0.0,E,,*2C
$IIVLW,06236,N,000.0,N*52
$YXXDR,A,-10.5,D,PTCH,A,-49.9,D,ROLL*5D
$GPRMC,020011.2,A,4741.87036,N,12225.15307,W,002.34,310.1,170513,016.6,E,D*2E
$PGRME,2.4,M,2.4,M,3.4,M*29
$HCHDG,132.2,0.0,E,,*2B
$HCHDG,131.9,0.0,E,,*23
$HCHDG,131.6,0.0,E,,*2C
$GPRMC,020011.4,A,4741.87042,N,12225.15352,W,002.79,301.5,170513,016.6,E,D*26
$PGRME,2.4,M,2.4,M,3.4,M*29
$HCHDG,131.4,0.0,E,,*2E
$HCHDG,131.0,0.0,E,,*2A
$GPRMC,020011.6,A,4741.87051,N,12225.15386,W,002.55,297.9,170513,016.6,E,D*23
$PGRME,2.4,M,2.4,M,3.4,M*29
$YXXDR,A,-10.5,D,PTCH,A,-49.9,D,ROLL*5D
$IIDPT,081.8,-1.0,*41
$HCHDG,130.7,0.0,E,,*2C
$IIGLL,4741.870,N,12225.152,W,020000,A,A*49
$HCHDG,130.5,0.0,E,,*2E
$GPRMC,020011.8,A,4741.87058,N,12225.15417,W,002.89,301.5,170513,016.6,E,D*28
$GPRMB,A,-0.37,L,,N,4741.0622,N,12224.6030,W,0.9,155,-2.40,V*4C
$PGRME,2.4,M,2.4,M,3.4,M*29
$IIMTW,+10.0,C*39
$HCHDG,130.3,0.0,E,,*28
$IIRMB,A,,,,N   ,,,,,000.9,155,,V,A*73
$HCHDG,130.0,0.0,E,,*2B
$GPRMC,020012.0,A,4741.87066,N,12225.15446,W,002.89,303.8,170513,016.6,E,D*25
$PGRME,2.4,M,2.4,M,3.4,M*29
$IIRMC,020000,A,4741.870,N,12225.152,W,02.5,307,160513,16,E,A*11
$IIVHW,,,,,00.0,N,,*19
$HCHDG,129.6,0.0,E,,*25
$IIVLW,06236,N,000.0,N*52
$YXXDR,A,-10.5,D,PTCH,A,-49.9,D,ROLL*5D
$PTAK,FFD1,49.9*61
$GPRMC,020012.2,A,4741.87072,N,12225.15466,W,002.84,305.3,170513,016.6,E,D*20
$PGRME,2.4,M,2.4,M,3.4,M*29
$HCHDG,129.5,0.0,E,,*26
$HCHDG,129.3,0.0,E,,*20
$HCHDG,128.9,0.0,E,,*2B
$GPRMC,020012.4,A,4741.87079,N,12225.15483,W,002.66,306.9,170513,016.6,E,D*23
$PGRME,2.4,M,2.4,M,3.4,M*29
$HCHDG,128.6,0.0,E,,*24
$HCHDG,128.3,0.0,E,,*21
$GPRMC,020012.6,A,4741.87089,N,12225.15487,W,002.66,305.9,170513,016.6,E,D*29
$PGRME,2.4,M,2.4,M,3.4,M*29
$YXXDR,A,-10.4,D,PTCH,A,-53.9,D,ROLL*57
$IIDPT,081.8,-1.0,*41
$HCHDG,128.1,0.0,E,,*23
$IIGLL,4741.870,N,12225.154,W,020000,A,A*4F
$HCHDG,127.8,0.0,E,,*25
$GPRMC,020012.8,A,4741.87102,N,12225.15506,W,002.65,311.4,170513,016.6,E,D*26
$GPRMB,A,-0.37,L,,N,4741.0622,N,12224.6030,W,0.9,155,-2.42,V*4E
$PGRME,2.4,M,2.4,M,3.4,M*29
$IIMTW,+10.0,C*39
$HCHDG,127.6,0.0,E,,*2B
$IIRMB,A,,,,N   ,,,,,000.9,155,,V,A*73
$HCHDG,127.6,0.0,E,,*2B
$GPRMC,020013.0,A,4741.87116,N,12225.15520,W,002.71,312.5,170513,016.6,E,D*29
$PGRME,2.4,M,2.4,M,3.4,M*29
$IIRMC,020000,A,4741.870,N,12225.154,W,02.8,301,160513,16,E,A*1C
$IIVHW,,,,,00.0,N,,*19
$HCHDG,127.5,0.0,E,,*28
$IIVLW,06236,N,000.0,N*52
$YXXDR,A,-10.4,D,PTCH,A,-53.9,D,ROLL*57
$PTAK,FFD1,53.9*6A
$GPRMC,020013.2,A,4741.87127,N,12225.15530,W,002.70,309.9,170513,016.6,E,D*2F
$PGRME,2.4,M,2.4,M,3.4,M*29
$HCHDG,127.5,0.0,E,,*28
$HCHDG,127.6,0.0,E,,*2B
$HCHDG,127.6,0.0,E,,*2B
$GPRMC,020013.4,A,4741.87135,N,12225.15542,W,002.67,310.3,170513,016.6,E,D*2B
$PGRME,2.4,M,2.4,M,3.4,M*29
$HCHDG,127.9,0.0,E,,*24
$HCHDG,128.1,0.0,E,,*23
$GPRMC,020013.6,A,4741.87140,N,12225.15547,W,002.65,310.5,170513,016.6,E,D*2A
$PGRME,2.4,M,2.4,M,3.4,M*29
$YXXDR,A,-10.4,D,PTCH,A,-53.9,D,ROLL*57
$IIDPT,081.8,-1.0,*41
$HCHDG,128.2,0.0,E,,*20
$IIGLL,4741.871,N,12225.155,W,020000,A,A*4F
$HCHDG,128.4,0.0,E,,*26
$GPRMC,020013.8,A,4741.87155,N,12225.15544,W,002.66,309.6,170513,016.6,E,D*2B
$PGRME,2.4,M,2.4,M,3.4,M*29
$IIMTW,+10.0,C*39
$HCHDG,128.6,0.0,E,,*24
$IIRMB,A,,,,N   ,,,,,000.9,155,,V,A*73
$HCHDG,128.7,0.0,E,,*25
$GPRMC,020014.0,A,4741.87171,N,12225.15552,W,002.62,307.5,170513,016.6,E,D*2C
$GPRMB,A,-0.37,L,,N,4741.0622,N,12224.6030,W,0.9,155,-2.32,V*49
$PGRME,2.4,M,2.4,M,3.4,M*29
$IIRMC,020000,A,4741.871,N,12225.155,W,02.6,311,160513,16,E,A*13
$IIVHW,,,,,00.0,N,,*19
$HCHDG,128.8,0.0,E,,*2A
$IIVLW,06236,N,000.0,N*52
$YXXDR,A,-10.4,D,PTCH,A,-53.9,D,ROLL*57
$PTAK,FFD1,53.9*6A
$GPRMC,020014.2,A,4741.87181,N,12225.15565,W,002.61,306.3,170513,016.6,E,D*21
$PGRME,2.4,M,2.4,M,3.4,M*29
$HCHDG,128.9,0.0,E,,*2B
$HCHDG,128.8,0.0,E,,*2A
$HCHDG,128.8,0.0,E,,*2A
$GPRMC,020014.4,A,4741.87188,N,12225.15587,W,002.65,304.1,170513,016.6,E,D*26
$PGRME,2.4,M,2.4,M,3.4,M*29
$HCHDG,128.7,0.0,E,,*25
$HCHDG,128.5,0.0,E,,*27
$GPRMC,020014.6,A,4741.87206,N,12225.15613,W,002.68,308.1,170513,016.6,E,D*2E
$PGRME,2.4,M,2.4,M,3.4,M*29
$YXXDR*4F
$IIDPT,082.1,-1.0,*4B
$HCHDG,128.1,0.0,E,,*23
$IIGLL,4741.871,N,12225.155,W,020000,A,A*4F
$HCHDG,127.9,0.0,E,,*24
$GPRMC,020014.8,A,4741.87230,N,12225.15631,W,002.67,312.4,170513,016.6,E,D*24
$PGRME,2.4,M,2.4,M,3.4,M*29
$IIMTW,+10.0,C*39
$HCHDG,127.5,0.0,E,,*28
$IIRMB,A,,,,N   ,,,,,000.9,155,,V,A*73
$HCHDG,127.1,0.0,E,,*2C
$GPRMC,020015.0,A,4741.87247,N,12225.15645,W,002.66,315.3,170513,016.6,E,D*2F
$PGRME,2.4,M,2.4,M,3.4,M*29
$IIRMC,020000,A,4741.871,N,12225.155,W,02.6,309,160513,16,E,A*1A
$IIVHW,,,,,00.0,N,,*19
$PTAK,FFP1,HEEL,@*07
$HCHDG,126.9,0.0,E,,*25
$YXXDR*4F
$IIVLW,06236,N,000.0,N*52
$HCHDG,126.6,0.0,E,,*2A
$GPRMC,020015.2,A,4741.87256,N,12225.15668,W,002.82,311.0,170513,016.6,E,D*2F
$GPRMB,A,-0.37,L,,N,4741.0622,N,12224.6030,W,0.9,155,-2.57,V*4A
$PGRME,2.4,M,2.4,M,3.4,M*29
$HCHDG,126.5,0.0,E,,*29
$HCHDG,126.5,0.0,E,,*29
$GPRMC,020015.4,A,4741.87258,N,12225.15685,W,002.63,309.0,170513,016.6,E,D*22
$PGRME,2.4,M,2.4,M,3.4,M*29
$HCHDG,126.8,0.0,E,,*24
$HCHDG,127.2,0.0,E,,*2F
$GPRMC,020015.6,A,4741.87254,N,12225.15706,W,002.64,309.2,170513,016.6,E,D*23
$PGRME,2.4,M,2.4,M,3.4,M*29
$YXXDR*4F
$IIDPT,082.1,-1.0,*4B
$HCHDG,127.6,0.0,E,,*2B
$IIGLL,4741.872,N,12225.156,W,020000,A,A*4F
$HCHDG,128.2,0.0,E,,*20
$GPRMC,020015.8,A,4741.87256,N,12225.15733,W,002.66,306.2,170513,016.6,E,D*24
$PGRME,2.4,M,2.4,M,3.4,M*29
$IIMTW,+10.0,C*39
$HCHDG,128.7,0.0,E,,*25
$IIRMB,A,,,,N   ,,,,,000.9,155,,V,A*73
$HCHDG,129.4,0.0,E,,*27
$GPRMC,020016.0,A,4741.87263,N,12225.15758,W,002.50,309.8,170513,016.6,E,D*24
$PGRME,2.4,M,2.4,M,3.4,M*29
$IIRMC,020000,A,4741.872,N,12225.156,W,02.6,312,160513,16,E,A*10
$HCHDG,129.9,0.0,E,,*2A
$IIVHW,,,,,00.0,N,,*19
$YXXDR*4F
$IIVLW,06236,N,000.0,N*52
$HCHDG,130.3,0.0,E,,*28
$GPRMC,020016.2,A,4741.87271,N,12225.15771,W,002.74,303.5,170513,016.6,E,D*2F
$GPRMB,A,-0.37,L,,N,4741.0622,N,12224.6030,W,0.9,155,-2.33,V*48
$PGRME,2.4,M,2.4,M,3.4,M*29
$HCHDG,130.4,0.0,E,,*2F
$HCHDG,130.4,0.0,E,,*2F
$GPRMC,020016.4,A,4741.87283,N,12225.15795,W,002.46,299.9,170513,016.6,E,D*21
$PGRME,2.4,M,2.4,M,3.4,M*29
$HCHDG,130.2,0.0,E,,*29
$HCHDG,130.0,0.0,E,,*2B
$GPRMC,020016.6,A,4741.87281,N,12225.15820,W,002.45,298.9,170513,016.6,E,D*22
$PGRME,2.4,M,2.4,M,3.4,M*29
$YXXDR*4F
$IIDPT,082.1,-1.0,*4B
$HCHDG,129.5,0.0,E,,*26
$IIGLL,4741.872,N,12225.157,W,020000,A,A*4E
$HCHDG,129.2,0.0,E,,*21
$GPRMC,020016.8,A,4741.87284,N,12225.15841,W,002.47,295.6,170513,016.6,E,D*2E
$PGRME,2.4,M,2.4,M,3.4,M*29
$IIMTW,+10.5,C*3C
$HCHDG,128.8,0.0,E,,*2A
$IIRMB,A,,,,N   ,,,,,000.9,155,,V,A*73
$HCHDG,128.4,0.0,E,,*26
$GPRMC,020017.0,A,4741.87288,N,12225.15860,W,002.52,299.1,170513,016.6,E,D*27
$PGRME,2.4,M,2.4,M,3.4,M*29
$IIRMC,020000,A,4741.872,N,12225.157,W,02.6,306,160513,16,E,A*14
$IIVHW,,,,,00.0,N,,*19
$HCHDG,128.1,0.0,E,,*23
$YXXDR*4F
$IIVLW,06236,N,000.0,N*52
$HCHDG,127.8,0.0,E,,*25
$GPRMC,020017.2,A,4741.87303,N,12225.15889,W,002.80,300.2,170513,016.6,E,D*2D
$PGRME,2.4,M,2.4,M,3.4,M*29
$HCHDG,127.7,0.0,E,,*2A
$HCHDG,127.5,0.0,E,,*28
$GPRMC,020017.4,A,4741.87313,N,12225.15910,W,002.79,302.1,170513,016.6,E,D*2C
$GPRMB,A,-0.37,L,,N,4741.0622,N,12224.6030,W,0.9,155,-2.34,V*4F
$PGRME,2.4,M,2.4,M,3.4,M*29
$HCHDG,127.4,0.0,E,,*29
$HCHDG,127.3,0.0,E,,*2E
$GPRMC,020017.6,A,4741.87321,N,12225.15926,W,002.79,300.5,170513,016.6,E,D*2C
$PGRME,2.4,M,2.4,M,3.4,M*29
$YXXDR*4F
$IIDPT,082.1,-1.0,*4B
$HCHDG,127.3,0.0,E,,*2E
$IIGLL,4741.872,N,12225.158,W,020000,A,A*41
$HCHDG,127.2,0.0,E,,*2F
$GPRMC,020017.8,A,4741.87330,N,12225.15931,W,002.76,302.7,170513,016.6,E,D*2B
$PGRME,2.4,M,2.4,M,3.4,M*29
$IIMTW,+10.5,C*3C
$HCHDG,127.2,0.0,E,,*2F
$IIRMB,A,,,,N   ,,,,,000.9,155,,V,A*73
$HCHDG,127.2,0.0,E,,*2F
$GPRMC,020018.0,A,4741.87339,N,12225.15941,W,002.59,302.5,170513,016.6,E,D*2D
$PGRME,2.4,M,2.4,M,3.4,M*29
$IIRMC,020000,A,4741.872,N,12225.158,W,02.4,295,160513,16,E,A*12
$IIVHW,,,,,00.0,N,,*19
$HCHDG,127.4,0.0,E,,*29
$YXXDR*4F
$IIVLW,06236,N,000.0,N*52
$HCHDG,127.4,0.0,E,,*29
$GPRMC,020018.2,A,4741.87350,N,12225.15957,W,002.58,299.3,170513,016.6,E,D*23
$PGRME,2.4,M,2.4,M,3.4,M*29
$HCHDG,127.5,0.0,E,,*28
$HCHDG,127.6,0.0,E,,*2B
$GPRMC,020018.4,A,4741.87354,N,12225.15973,W,002.74,298.6,170513,016.6,E,D*2D
$GPRMB,A,-0.38,L,,N,4741.0622,N,12224.6030,W,0.9,155,-2.20,V*45
$PGRME,2.4,M,2.4,M,3.4,M*29
$HCHDG,127.8,0.0,E,,*25
$HCHDG,127.7,0.0,E,,*2A
$GPRMC,020018.6,A,4741.87361,N,12225.15992,W,002.75,298.4,170513,016.6,E,D*25
$PGRME,2.4,M,2.4,M,3.4,M*29
$YXXDR*4F
$IIDPT,082.1,-1.0,*4B
$HCHDG,127.5,0.0,E,,*28
$IIGLL,4741.873,N,12225.159,W,020000,A,A*41
$HCHDG,127.2,0.0,E,,*2F
$GPRMC,020018.8,A,4741.87370,N,12225.16017,W,002.71,298.9,170513,016.6,E,D*25
$PGRME,2.4,M,2.4,M,3.4,M*29
$IIMTW,+10.5,C*3C
$HCHDG,126.6,0.0,E,,*2A
$IIRMB,A,,,,N   ,,,,,000.9,155,,V,A*73
$HCHDG,126.3,0.0,E,,*2F
$GPRMC,020019.0,A,4741.87379,N,12225.16045,W,002.66,301.0,170513,016.6,E,D*2C
$PGRME,2.4,M,2.4,M,3.4,M*29
$IIRMC,020000,A,4741.873,N,12225.159,W,02.5,302,160513,16,E,A*1C
$IIVHW,,,,,00.0,N,,*19
$PTAK,FFP1,HEEL,@*07
$HCHDG,125.8,0.0,E,,*27
$YXXDR*4F
$IIVLW,06236,N,000.0,N*52
$HCHDG,125.4,0.0,E,,*2B
$GPRMC,020019.2,A,4741.87393,N,12225.16064,W,002.61,305.7,170513,016.6,E,D*2D
$PGRME,2.4,M,2.4,M,3.4,M*29
$HCHDG,125.0,0.0,E,,*2F
$HCHDG,124.5,0.0,E,,*2B
$GPRMC,020019.4,A,4741.87401,N,12225.16083,W,002.57,306.3,170513,016.6,E,D*2C
$GPRMB,A,-0.38,L,,N,4741.0622,N,12224.6030,W,0.9,155,-2.25,V*40
$PGRME,2.4,M,2.4,M,3.4,M*29
$HCHDG,124.1,0.0,E,,*2F
$HCHDG,124.0,0.0,E,,*2E
$GPRMC,020019.6,A,4741.87409,N,12225.16099,W,002.53,308.1,170513,016.6,E,D*25
$PGRME,2.4,M,2.4,M,3.4,M*29
$YXXDR*4F
$IIDPT,082.1,-1.0,*4B
$HCHDG,123.8,0.0,E,,*21
$IIGLL,4741.873,N,12225.160,W,020000,A,A*4B
$HCHDG,123.8,0.0,E,,*21
$GPRMC,020019.8,A,4741.87415,N,12225.16109,W,002.51,305.1,170513,016.6,E,D*21
$PGRME,2.4,M,2.4,M,3.4,M*29
$IIMTW,+10.0,C*39
$HCHDG,123.8,0.0,E,,*21
$IIRMB,A,,,,N   ,,,,,000.9,155,,V,A*73
$HCHDG,123.9,0.0,E,,*20
$GPRMC,020020.0,A,4741.87427,N,12225.16121,W,002.49,304.5,170513,016.6,E,D*24
$PGRME,2.4,M,2.4,M,3.4,M*29
$IIRMC,020000,A,4741.873,N,12225.160,W,02.6,301,160513,16,E,A*16
$IIVHW,,,,,00.0,N,,*19
$HCHDG,124.1,0.0,E,,*2F
$YXXDR*4F
$IIVLW,06236,N,000.0,N*52
$HCHDG,124.2,0.0,E,,*2C
$GPRMC,020020.2,A,4741.87431,N,12225.16137,W,002.50,306.2,170513,016.6,E,D*2B
$PGRME,2.4,M,2.4,M,3.4,M*29
$HCHDG,124.4,0.0,E,,*2A
$HCHDG,124.5,0.0,E,,*2B
$GPRMC,020020.4,A,4741.87439,N,12225.16154,W,002.74,305.3,170513,016.6,E,D*24
$GPRMB,A,-0.38,L,,N,4741.0622,N,12224.6030,W,0.9,155,-2.38,V*4C
$PGRME,2.4,M,2.4,M,3.4,M*29
$HCHDG,124.4,0.0,E,,*2A
$HCHDG,124.3,0.0,E,,*2D
$GPRMC,020020.6,A,4741.87445,N,12225.16172,W,002.67,303.7,170513,016.6,E,D*29
$PGRME,2.4,M,2.4,M,3.4,M*29
$YXXDR*4F
$IIDPT,082.1,-1.0,*4B
$HCHDG,124.1,0.0,E,,*2F
$IIGLL,4741.874,N,12225.161,W,020000,A,A*4D
$HCHDG,123.9,0.0,E,,*20
$GPRMC,020020.8,A,4741.87452,N,12225.16189,W,002.51,306.1,170513,016.6,E,D*23
$PGRME,2.4,M,2.4,M,3.4,M*29
$IIMTW,+10.0,C*39
$HCHDG,123.5,0.0,E,,*2C
$IIRMB,A,,,,N   ,,,,,000.9,155,,V,A*73
$HCHDG,123.0,0.0,E,,*29
$GPRMC,020021.0,A,4741.87457,N,12225.16203,W,002.52,306.8,170513,016.6,E,D*24
$PGRME,2.4,M,2.4,M,3.4,M*29
$IIRMC,020000,A,4741.874,N,12225.161,W,02.4,304,160513,16,E,A*17
$IIVHW,,,,,00.0,N,,*19
$HCHDG,122.7,0.0,E,,*2F
$YXXDR*4F
$IIVLW,06236,N,000.0,N*52
$HCHDG,122.2,0.0,E,,*2A
$GPRMC,020021.2,A,4741.87461,N,12225.16213,W,002.49,305.1,170513,016.6,E,D*22
$PGRME,2.4,M,2.4,M,3.4,M*29
$HCHDG,121.8,0.0,E,,*23
$HCHDG,121.4,0.0,E,,*2F
$GPRMC,020021.4,A,4741.87467,N,12225.16229,W,002.69,304.7,170513,016.6,E,D*2E
$PGRME,2.4,M,2.4,M,3.4,M*29
$HCHDG,121.0,0.0,E,,*2B
$HCHDG,120.8,0.0,E,,*22
$GPRMC,020021.6,A,4741.87480,N,12225.16248,W,002.63,307.1,170513,016.6,E,D*2D
$GPRMB,A,-0.38,L,,N,4741.0622,N,12224.6030,W,0.9,155,-2.32,V*46
$PGRME,2.4,M,2.4,M,3.4,M*29
$YXXDR*4F
$IIDPT,082.1,-1.0,*4B
$HCHDG,120.6,0.0,E,,*2C
$IIGLL,4741.874,N,12225.162,W,020000,A,A*4E
$HCHDG,120.4,0.0,E,,*2E
$GPRMC,020021.8,A,4741.87490,N,12225.16274,W,002.59,309.8,170513,016.6,E,D*23
$PGRME,2.4,M,2.4,M,3.4,M*29
$IIMTW,+10.0,C*39
$HCHDG,120.4,0.0,E,,*2E
$IIRMB,A,,,,N   ,,,,,000.9,155,,V,A*73
$HCHDG,120.3,0.0,E,,*29
$GPRMC,020022.0,A,4741.87504,N,12225.16300,W,002.35,311.2,170513,016.6,E,D*2F
$PGRME,2.4,M,2.4,M,3.4,M*29
$IIRMC,020000,A,4741.874,N,12225.162,W,02.5,306,160513,16,E,A*17
$IIVHW,,,,,00.0,N,,*19
$HCHDG,120.3,0.0,E,,*29
$YXXDR*4F
$IIVLW,06236,N,000.0,N*52
$HCHDG,120.3,0.0,E,,*29
$GPRMC,020022.2,A,4741.87520,N,12225.16328,W,002.42,313.1,170513,016.6,E,D*20
$PGRME,2.4,M,2.4,M,3.4,M*29
$HCHDG,120.2,0.0,E,,*28
$HCHDG,120.2,0.0,E,,*28
$GPRMC,020022.4,A,4741.87536,N,12225.16350,W,002.38,312.5,170513,016.6,E,D*26
$PGRME,2.4,M,2.4,M,3.4,M*29
$HCHDG,120.3,0.0,E,,*29
$HCHDG,120.2,0.0,E,,*28
$GPRMC,020022.6,A,4741.87549,N,12225.16366,W,002.33,313.0,170513,016.6,E,D*26
$PGRME,2.4,M,2.4,M,3.4,M*29
$YXXDR*4F
$IIDPT,082.1,-1.0,*4B
$HCHDG,120.2,0.0,E,,*28
$IIGLL,4741.875,N,12225.163,W,020000,A,A*4E
$HCHDG,120.0,0.0,E,,*2A
$GPRMC,020022.8,A,4741.87557,N,12225.16392,W,002.12,314.4,170513,016.6,E,D*2C
$GPRMB,A,-0.38,L,,N,4741.0622,N,12224.6030,W,0.9,155,-1.98,V*45
$PGRME,2.4,M,2.4,M,3.4,M*29
$IIMTW,+10.0,C*39
$HCHDG,119.9,0.0,E,,*29
$IIRMB,A,,,,N   ,,,,,000.9,155,,V,A*73
$HCHDG,119.7,0.0,E,,*27
$GPRMC,020023.0,A,4741.87557,N,12225.16419,W,002.10,314.1,170513,016.6,E,D*26
$PGRME,2.4,M,2.4,M,3.4,M*29
$IIRMC,020000,A,4741.875,N,12225.163,W,02.3,311,160513,16,E,A*17
$IIVHW,,,,,00.0,N,,*19
$PTAK,FFP1,HEEL,@*07
$HCHDG,119.5,0.0,E,,*25
$YXXDR*4F
$IIVLW,06236,N,000.0,N*52
$HCHDG,119.5,0.0,E,,*25
$GPRMC,020023.2,A,4741.87561,N,12225.16444,W,002.12,322.0,170513,016.6,E,D*2F
$PGRME,2.4,M,2.4,M,3.4,M*29
$HCHDG,119.4,0.0,E,,*24
$HCHDG,119.2,0.0,E,,*22
$GPRMC,020023.4,A,4741.87572,N,12225.16463,W,002.40,317.6,170513,016.6,E,D*29
$PGRME,2.4,M,2.4,M,3.4,M*29
$HCHDG,119.1,0.0,E,,*21
$HCHDG,119.1,0.0,E,,*21
$GPRMC,020023.6,A,4741.87586,N,12225.16480,W,002.41,319.6,170513,016.6,E,D*22
$PGRME,2.4,M,2.4,M,3.4,M*29
$YXXDR*4F
$IIDPT,082.1,-1.0,*4B
$HCHDG,119.1,0.0,E,,*21
$IIGLL,4741.875,N,12225.164,W,020000,A,A*49
$HCHDG,119.0,0.0,E,,*20
$GPRMC,020023.8,A,4741.87601,N,12225.16489,W,002.41,319.1,170513,016.6,E,D*2E
$PGRME,2.4,M,2.4,M,3.4,M*29
$IIMTW,+10.0,C*39
$HCHDG,118.9,0.0,E,,*28
$IIRMB,A,,,,N   ,,,,,000.9,155,,V,A*73
$HCHDG,118.8,0.0,E,,*29
$GPRMC,020024.0,A,4741.87606,N,12225.16510,W,002.35,314.6,170513,016.6,E,D*2E
$GPRMB,A,-0.38,L,,N,4741.0622,N,12224.6030,W,0.9,155,-2.20,V*45
$PGRME,2.4,M,2.4,M,3.4,M*29
$IIRMC,020000,A,4741.875,N,12225.164,W,02.1,314,160513,16,E,A*17
$IIVHW,,,,,00.0,N,,*19
$HCHDG,118.7,0.0,E,,*26
$YXXDR*4F
$IIVLW,06236,N,000.0,N*52
$HCHDG,118.6,0.0,E,,*27
$GPRMC,020024.2,A,4741.87606,N,12225.16525,W,002.36,319.1,170513,016.6,E,D*23
$PGRME,2.4,M,2.4,M,3.4,M*29
$HCHDG,118.4,0.0,E,,*25
$HCHDG,118.2,0.0,E,,*23
$GPRMC,020024.4,A,4741.87614,N,12225.16536,W,002.35,317.7,170513,016.6,E,D*2F
$PGRME,2.4,M,2.4,M,3.4,M*29
$HCHDG,118.2,0.0,E,,*23
$HCHDG,118.2,0.0,E,,*23
$GPRMC,020024.6,A,4741.87622,N,12225.16544,W,002.32,320.2,170513,016.6,E,D*2B
$PGRME,2.4,M,2.4,M,3.4,M*29
$YXXDR*4F
$IIDPT,082.1,-1.0,*4B
$HCHDG,118.2,0.0,E,,*23
$IIGLL,4741.876,N,12225.165,W,020000,A,A*4B
$HCHDG,118.3,0.0,E,,*22
$GPRMC,020024.8,A,4741.87633,N,12225.16554,W,002.35,319.4,170513,016.6,E,D*2F
$PGRME,2.4,M,2.4,M,3.4,M*29
$IIMTW,+10.0,C*39
$HCHDG,118.4,0.0,E,,*25
$IIRMB,A,,,,N   ,,,,,000.9,155,,V,A*73
$HCHDG,118.6,0.0,E,,*27
$GPRMC,020025.0,A,4741.87639,N,12225.16556,W,002.35,317.9,170513,016.6,E,D*2D
$PGRME,2.4,M,2.4,M,3.4,M*29
$IIRMC,020000,A,4741.876,N,12225.165,W,02.3,314,160513,16,E,A*17
$IIVHW,,,,,00.0,N,,*19
$HCHDG,118.8,0.0,E,,*29
$YXXDR*4F
$IIVLW,06236,N,000.0,N*52
$HCHDG,118.9,0.0,E,,*28
$GPRMC,020025.2,A,4741.87649,N,12225.16557,W,002.33,316.6,170513,016.6,E,D*21
$GPRMB,A,-0.38,L,,N,4741.0622,N,12224.6030,W,0.9,155,-2.21,V*44
$PGRME,2.4,M,2.4,M,3.4,M*29
$HCHDG,119.0,0.0,E,,*20
$HCHDG,119.2,0.0,E,,*22
$GPRMC,020025.4,A,4741.87663,N,12225.16561,W,002.31,314.9,170513,016.6,E,D*25
$PGRME,2.4,M,2.4,M,3.4,M*29
$HCHDG,119.2,0.0,E,,*22
$HCHDG,119.4,0.0,E,,*24
$GPRMC,020025.6,A,4741.87680,N,12225.16573,W,002.31,312.0,170513,016.6,E,D*26
$PGRME,2.4,M,2.4,M,3.4,M*29
$YXXDR*4F
$HCHDG,119.4,0.0,E,,*24
$IIGLL,4741.876,N,12225.165,W,020000,A,A*4B
$IIMTW,+10.0,C*39
$HCHDG,119.4,0.0,E,,*24
$GPRMC,020025.8,A,4741.87694,N,12225.16589,W,002.32,308.0,170513,016.6,E,D*20
$PGRME,2.4,M,2.4,M,3.4,M*29
$IIRMB,A,,,,N   ,,,,,000.9,155,,V,A*73
$HCHDG,119.4,0.0,E,,*24
$HCHDG,119.4,0.0,E,,*24
$IIRMC,020000,A,4741.876,N,12225.165,W,02.3,317,160513,16,E,A*14
$GPRMC,020026.0,A,4741.87704,N,12225.16605,W,002.49,308.1,170513,016.6,E,D*29
$PGRME,2.4,M,2.4,M,3.4,M*29
$IIVHW,,,,,00.0,N,,*19
$HCHDG,119.3,0.0,E,,*23
$IIVLW,06236,N,000.0,N*52
$YXXDR*4F
$HCHDG,119.2,0.0,E,,*22
$GPRMC,020026.2,A,4741.87716,N,12225.16621,W,002.51,311.7,170513,016.6,E,D*29
$PGRME,2.4,M,2.4,M,3.4,M*29
$HCHDG,118.9,0.0,E,,*28
$HCHDG,118.9,0.0,E,,*28
$GPRMC,020026.4,A,4741.87729,N,12225.16624,W,002.26,318.0,170513,016.6,E,D*28
$GPRMB,A,-0.38,L,,N,4741.0622,N,12224.6030,W,0.9,155,-2.16,V*40
$PGRME,2.4,M,2.4,M,3.4,M*29
$HCHDG,118.7,0.0,E,,*26
$HCHDG,118.5,0.0,E,,*24
$GPRMC,020026.6,A,4741.87747,N,12225.16641,W,002.56,318.7,170513,016.6,E,D*21
$PGRME,2.4,M,2.4,M,3.4,M*29
$YXXDR,A,-1.7,D,PTCH,A,59.5,D,ROLL*4F
$PTAK,FFD1,59.5*6C
$HCHDG,118.3,0.0,E,,*22
$IIGLL,4741.877,N,12225.166,W,020000,A,A*49
$IIMTW,+10.0,C*39
$HCHDG,118.2,0.0,E,,*23
$GPRMC,020026.8,A,4741.87755,N,12225.16663,W,002.28,321.9,170513,016.6,E,D*21
$PGRME,2.4,M,2.4,M,3.4,M*29
$IIRMB,A,,,,N   ,,,,,000.9,155,,V,A*73
$HCHDG,118.2,0.0,E,,*23
$HCHDG,118.2,0.0,E,,*23
$IIRMC,020000,A,4741.877,N,12225.166,W,02.4,308,160513,16,E,A*1F
$GPRMC,020027.0,A,4741.87762,N,12225.16672,W,002.29,325.7,170513,016.6,E,D*27
$PGRME,2.4,M,2.4,M,3.4,M*29
$IIVHW,,,,,00.0,N,,*19
$HCHDG,118.3,0.0,E,,*22
$IIVLW,06236,N,000.0,N*52
$YXXDR,A,-1.7,D,PTCH,A,59.5,D,ROLL*4F
$PTAK,FFP1,HEEL,@*07
$GPRMC,020027.2,A,4741.87771,N,12225.16684,W,002.35,322.0,170513,016.6,E,D*23
$PGRME,2.4,M,2.4,M,3.4,M*29
$HCHDG,118.4,0.0,E,,*25
$HCHDG,118.5,0.0,E,,*24
$HCHDG,118.6,0.0,E,,*27
$GPRMC,020027.4,A,4741.87780,N,12225.16697,W,002.29,320.9,170513,016.6,E,D*2F
$PGRME,2.4,M,2.4,M,3.4,M*29
$HCHDG,118.7,0.0,E,,*26
$HCHDG,118.9,0.0,E,,*28
$GPRMC,020027.6,A,4741.87790,N,12225.16696,W,002.24,321.6,170513,016.6,E,D*2E
$GPRMB,A,-0.38,L,,N,4741.0622,N,12224.6030,W,0.9,155,-2.18,V*4E
$PGRME,2.4,M,2.4,M,3.4,M*29
$YXXDR,A,-1.7,D,PTCH,A,59.5,D,ROLL*4F
$PTAK,FFD1,59.5*6C
$HCHDG,119.0,0.0,E,,*20
$IIGLL,4741.877,N,12225.166,W,020000,A,A*49
$IIMTW,+10.0,C*39
$HCHDG,119.1,0.0,E,,*21
$GPRMC,020027.8,A,4741.87793,N,12225.16715,W,002.02,314.0,170513,016.6,E,D*2D
$PGRME,2.4,M,2.4,M,3.4,M*29
$IIRMB,A,,,,N   ,,,,,000.9,155,,V,A*73
$HCHDG,119.1,0.0,E,,*21
$IIRMC,020000,A,4741.877,N,12225.166,W,02.2,325,160513,16,E,A*16
$HCHDG,119.2,0.0,E,,*22
$GPRMC,020028.0,A,4741.87793,N,12225.16726,W,002.10,313.1,170513,016.6,E,D*2F
$PGRME,2.4,M,2.4,M,3.4,M*29
$IIVHW,,,,,00.0,N,,*19
$HCHDG,119.4,0.0,E,,*24
$IIVLW,06236,N,000.0,N*52
$YXXDR,A,-1.7,D,PTCH,A,59.5,D,ROLL*4F
$GPRMC,020028.2,A,4741.87794,N,12225.16738,W,002.45,304.6,170513,016.6,E,D*24
$PGRME,2.4,M,2.4,M,3.4,M*29
$HCHDG,119.5,0.0,E,,*25
$HCHDG,119.6,0.0,E,,*26
$HCHDG,119.7,0.0,E,,*27
$GPRMC,020028.4,A,4741.87801,N,12225.16752,W,002.46,306.7,170513,016.6,E,D*2D
$PGRME,2.4,M,2.4,M,3.4,M*29
$HCHDG,119.7,0.0,E,,*27
$HCHDG,119.7,0.0,E,,*27
$GPRMC,020028.6,A,4741.87802,N,12225.16770,W,002.45,306.7,170513,016.6,E,D*2F
$GPRMB,A,-0.38,L,,N,4741.0622,N,12224.6030,W,0.9,155,-2.16,V*40
$PGRME,2.4,M,2.4,M,3.4,M*29
$YXXDR*4F
$HCHDG,119.8,0.0,E,,*28
$IIGLL,4741.877,N,12225.167,W,020000,A,A*48
$IIMTW,+10.0,C*39
$HCHDG,119.7,0.0,E,,*27
$GPRMC,020028.8,A,4741.87806,N,12225.16798,W,002.51,308.6,170513,016.6,E,D*29
$PGRME,2.4,M,2.4,M,3.4,M*29
$IIRMB,A,,,,N   ,,,,,000.9,155,,V,A*73
$HCHDG,119.6,0.0,E,,*26
$HCHDG,119.5,0.0,E,,*25
$IIRMC,020000,A,4741.877,N,12225.167,W,02.1,313,160513,16,E,A*11
$GPRMC,020029.0,A,4741.87817,N,12225.16832,W,002.50,312.2,170513,016.6,E,D*21
$PGRME,2.4,M,2.4,M,3.4,M*29
$IIVHW,,,,,00.0,N,,*19
$HCHDG,119.4,0.0,E,,*24
$IIVLW,06236,N,000.0,N*52
$YXXDR*4F
$HCHDG,119.1,0.0,E,,*21
$GPRMC,020029.2,A,4741.87831,N,12225.16861,W,002.42,314.5,170513,016.6,E,D*23
$PGRME,2.4,M,2.4,M,3.4,M*29
$HCHDG,118.9,0.0,E,,*28
$HCHDG,118.8,0.0,E,,*29
$GPRMC,020029.4,A,4741.87842,N,12225.16878,W,002.46,318.6,170513,016.6,E,D*22
$PGRME,2.4,M,2.4,M,3.4,M*29
$HCHDG,118.6,0.0,E,,*27
$HCHDG,118.5,0.0,E,,*24
$GPRMC,020029.6,A,4741.87859,N,12225.16888,W,002.43,322.7,170513,016.6,E,D*28
$PGRME,2.4,M,2.4,M,3.4,M*29
$YXXDR*4F
$HCHDG,118.4,0.0,E,,*25
$IIGLL,4741.878,N,12225.168,W,020000,A,A*48
$IIMTW,+10.0,C*39
$HCHDG,118.2,0.0,E,,*23
$GPRMC,020029.8,A,4741.87872,N,12225.16896,W,002.40,321.4,170513,016.6,E,D*23
$GPRMB,A,-0.38,L,,N,4741.0622,N,12224.6030,W,0.9,155,-2.33,V*47
$PGRME,2.4,M,2.4,M,3.4,M*29
$IIRMB,A,,,,N   ,,,,,000.9,155,,V,A*73
$HCHDG,118.2,0.0,E,,*23
$IIRMC,020000,A,4741.878,N,12225.168,W,02.5,312,160513,16,E,A*14
$HCHDG,118.3,0.0,E,,*22
$GPRMC,020030.0,A,4741.87884,N,12225.16906,W,002.35,325.4,170513,016.6,E,D*24
$PGRME,2.4,M,2.4,M,3.4,M*29
$IIVHW,,,,,00.0,N,,*19
$HCHDG,118.3,0.0,E,,*22
$IIVLW,06236,N,000.0,N*52
$YXXDR*4F
$HCHDG,118.3,0.0,E,,*22
$GPRMC,020030.2,A,4741.87898,N,12225.16915,W,002.18,322.6,170513,016.6,E,D*23
$PGRME,2.4,M,2.4,M,3.4,M*29
$HCHDG,118.4,0.0,E,,*25
$HCHDG,118.6,0.0,E,,*27
$GPRMC,020030.4,A,4741.87905,N,12225.16932,W,002.20,325.0,170513,016.6,E,D*2F
$PGRME,2.4,M,2.4,M,3.4,M*29
$HCHDG,118.8,0.0,E,,*29
$HCHDG,119.1,0.0,E,,*21
$GPRMC,020030.6,A,4741.87913,N,12225.16951,W,002.20,321.1,170513,016.6,E,D*2A
$PGRME,2.4,M,2.4,M,3.4,M*29
$YXXDR*4F
$HCHDG,119.3,0.0,E,,*23
$IIGLL,4741.878,N,12225.169,W,020000,A,A*49
$IIMTW,+10.0,C*39
$HCHDG,119.7,0.0,E,,*27
$GPRMC,020030.8,A,4741.87918,N,12225.16967,W,002.26,315.8,170513,016.6,E,D*22
$PGRME,2.4,M,2.4,M,3.4,M*29
$IIRMB,A,,,,N   ,,,,,000.9,155,,V,A*73
$HCHDG,120.0,0.0,E,,*2A
$IIRMC,020000,A,4741.878,N,12225.169,W,02.3,325,160513,16,E,A*17
$HCHDG,120.1,0.0,E,,*2B
$GPRMC,020031.0,A,4741.87924,N,12225.16982,W,002.29,315.0,170513,016.6,E,D*28
$GPRMB,A,-0.38,L,,N,4741.0622,N,12224.6030,W,0.9,155,-2.15,V*43
$PGRME,2.4,M,2.4,M,3.4,M*29
$IIVHW,,,,,00.0,N,,*19
$PTAK,FFP1,HEEL,@*07
$HCHDG,120.2,0.0,E,,*28
$IIVLW,06236,N,000.0,N*52
$YXXDR*4F
$HCHDG,120.3,0.0,E,,*29
$GPRMC,020031.2,A,4741.87928,N,12225.17002,W,002.35,308.0,170513,016.6,E,D*27
$PGRME,2.4,M,2.4,M,3.4,M*29
$HCHDG,120.3,0.0,E,,*29
$HCHDG,120.1,0.0,E,,*2B
$GPRMC,020031.4,A,4741.87934,N,12225.17019,W,002.62,312.0,170513,016.6,E,D*2F
$PGRME,2.4,M,2.4,M,3.4,M*29
$HCHDG,120.0,0.0,E,,*2A
$HCHDG,119.8,0.0,E,,*28
$GPRMC,020031.6,A,4741.87939,N,12225.17037,W,002.46,312.3,170513,016.6,E,D*29
$PGRME,2.4,M,2.4,M,3.4,M*29
$YXXDR*4F
$HCHDG,119.8,0.0,E,,*28
$IIGLL,4741.879,N,12225.169,W,020000,A,A*48
$IIMTW,+10.0,C*39
$HCHDG,119.6,0.0,E,,*26
$GPRMC,020031.8,A,4741.87941,N,12225.17043,W,002.48,325.9,170513,016.6,E,D*2B
$PGRME,2.4,M,2.4,M,3.4,M*29
$IIRMB,A,,,,N   ,,,,,000.9,155,,V,A*73
$HCHDG,119.6,0.0,E,,*26
$IIRMC,020000,A,4741.879,N,12225.169,W,02.2,315,160513,16,E,A*14
$HCHDG,119.6,0.0,E,,*26
$GPRMC,020032.0,A,4741.87950,N,12225.17053,W,002.52,330.7,170513,016.6,E,D*20
$GPRMB,A,-0.38,L,,N,4741.0622,N,12224.6030,W,0.9,155,-2.51,V*43
$PGRME,2.4,M,2.4,M,3.4,M*29
$IIVHW,,,,,00.0,N,,*19
$HCHDG,119.6,0.0,E,,*26
$IIVLW,06236,N,000.0,N*52
$YXXDR*4F
$HCHDG,119.7,0.0,E,,*27
$GPRMC,020032.2,A,4741.87959,N,12225.17050,W,002.50,334.2,170513,016.6,E,D*2B
$PGRME,2.4,M,2.4,M,3.4,M*29
$HCHDG,119.8,0.0,E,,*28
$HCHDG,119.9,0.0,E,,*29
$GPRMC,020032.4,A,4741.87965,N,12225.17061,W,002.43,330.4,170513,016.6,E,D*20
$PGRME,2.4,M,2.4,M,3.4,M*29
$HCHDG,119.9,0.0,E,,*29
$HCHDG,120.0,0.0,E,,*2A
$GPRMC,020032.6,A,4741.87970,N,12225.17071,W,002.39,330.2,170513,016.6,E,D*2C
$PGRME,2.4,M,2.4,M,3.4,M*29
$YXXDR*4F
$HCHDG,120.4,0.0,E,,*2E
$IIGLL,4741.879,N,12225.170,W,020000,A,A*40
$IIMTW,+10.0,C*39
$HCHDG,121.0,0.0,E,,*2B
$GPRMC,020032.8,A,4741.87969,N,12225.17082,W,002.23,328.6,170513,016.6,E,D*20
$GPRMB,A,-0.38,L,,N,4741.0622,N,12224.6030,W,0.9,155,-2.22,V*47
$PGRME,2.4,M,2.4,M,3.4,M*29
$IIRMB,A,,,,N   ,,,,,000.9,155,,V,A*73
$HCHDG,121.6,0.0,E,,*2D
$IIRMC,020000,A,4741.879,N,12225.170,W,02.5,330,160513,16,E,A*1C
$HCHDG,122.1,0.0,E,,*29
$GPRMC,020033.0,A,4741.87982,N,12225.17081,W,002.24,317.5,170513,016.6,E,D*27
$PGRME,2.4,M,2.4,M,3.4,M*29
$IIVHW,,,,,00.0,N,,*19
$HCHDG,122.9,0.0,E,,*21
$IIVLW,06236,N,000.0,N*52
$YXXDR*4F
$HCHDG,123.5,0.0,E,,*2C
$GPRMC,020033.2,A,4741.87991,N,12225.17091,W,002.21,313.1,170513,016.6,E,D*23
$PGRME,2.4,M,2.4,M,3.4,M*29
$HCHDG,124.2,0.0,E,,*2C
$HCHDG,124.7,0.0,E,,*29
$GPRMC,020033.4,A,4741.87992,N,12225.17111,W,002.26,307.3,170513,016.6,E,D*2F
$PGRME,2.4,M,2.4,M,3.4,M*29
$HCHDG,125.2,0.0,E,,*2D
$HCHDG,125.4,0.0,E,,*2B
$GPRMC,020033.6,A,4741.87987,N,12225.17136,W,002.27,297.0,170513,016.6,E,D*26
$PGRME,2.4,M,2.4,M,3.4,M*29
$YXXDR*4F
$IIDPT,081.4,-1.0,*4D
$HCHDG,125.6,0.0,E,,*29
$IIGLL,4741.879,N,12225.170,W,020000,A,A*40
$HCHDG,125.6,0.0,E,,*29
$GPRMC,020033.8,A,4741.87990,N,12225.17140,W,002.31,298.9,170513,016.6,E,D*2E
$PGRME,2.4,M,2.4,M,3.4,M*29
$IIMTW,+10.0,C*39
$HCHDG,125.5,0.0,E,,*2A
$IIRMB,A,,,,N   ,,,,,000.9,155,,V,A*73
$HCHDG,125.5,0.0,E,,*2A
$GPRMC,020034.0,A,4741.87993,N,12225.17141,W,002.34,296.6,170513,016.6,E,D*27
$PGRME,2.4,M,2.4,M,3.4,M*29
$IIRMC,020000,A,4741.879,N,12225.170,W,02.2,313,160513,16,E,A*1A
$IIVHW,,,,,00.0,N,,*19
$HCHDG,125.5,0.0,E,,*2A
$YXXDR*4F
$IIVLW,06236,N,000.0,N*52
$HCHDG,125.5,0.0,E,,*2A
$GPRMC,020034.2,A,4741.87996,N,12225.17154,W,002.54,300.4,170513,016.6,E,D*2E
$GPRMB,A,-0.38,L,,N,4741.0622,N,12224.6030,W,0.9,155,-2.09,V*4E
$PGRME,2.4,M,2.4,M,3.4,M*29
$HCHDG,125.6,0.0,E,,*29
$HCHDG,125.6,0.0,E,,*29
$GPRMC,020034.4,A,4741.88004,N,12225.17169,W,002.57,305.5,170513,016.6,E,D*2C
$PGRME,2.4,M,2.4,M,3.4,M*29
$HCHDG,125.8,0.0,E,,*27
$HCHDG,126.2,0.0,E,,*2E
$GPRMC,020034.6,A,4741.88011,N,12225.17183,W,002.57,309.4,170513,016.6,E,D*23
$PGRME,2.4,M,2.4,M,3.4,M*29
$YXXDR*4F
$IIDPT,081.4,-1.0,*4D
$HCHDG,126.5,0.0,E,,*29
$IIGLL,4741.879,N,12225.171,W,020000,A,A*41
$HCHDG,126.9,0.0,E,,*25
$GPRMC,020034.8,A,4741.88016,N,12225.17198,W,002.60,310.8,170513,016.6,E,D*20
$PGRME,2.4,M,2.4,M,3.4,M*29
$IIMTW,+10.0,C*39
$HCHDG,127.5,0.0,E,,*28
$IIRMB,A,,,,N   ,,,,,000.9,155,,V,A*73
$HCHDG,127.9,0.0,E,,*24
$GPRMC,020035.0,A,4741.88023,N,12225.17228,W,002.39,311.2,170513,016.6,E,D*20
$PGRME,2.4,M,2.4,M,3.4,M*29
$IIRMC,020000,A,4741.879,N,12225.171,W,02.5,300,160513,16,E,A*1E
$IIVHW,,,,,00.0,N,,*19
$HCHDG,128.3,0.0,E,,*21
$YXXDR*4F
$IIVLW,06236,N,000.0,N*52
$HCHDG,128.9,0.0,E,,*2B
$GPRMC,020035.2,A,4741.88033,N,12225.17258,W,002.39,306.6,170513,016.6,E,D*26
$PGRME,2.4,M,2.4,M,3.4,M*29
$HCHDG,129.5,0.0,E,,*26
$HCHDG,130.1,0.0,E,,*2A
$PTAK,FFP1,HEEL,@*07
$GPRMC,020035.4,A,4741.88041,N,12225.17295,W,002.41,298.1,170513,016.6,E,D*2A
$GPRMB,A,-0.38,L,,N,4741.0622,N,12224.6030,W,0.9,155,-1.93,V*4E
$PGRME,2.4,M,2.4,M,3.4,M*29
$HCHDG,130.7,0.0,E,,*2C
$HCHDG,131.1,0.0,E,,*2B
$GPRMC,020035.6,A,4741.88050,N,12225.17316,W,002.43,300.6,170513,016.6,E,D*27
$PGRME,2.4,M,2.4,M,3.4,M*29
$YXXDR*4F
$HCHDG,131.6,0.0,E,,*2C
$HCHDG,131.8,0.0,E,,*22
$GPRMC,020035.8,A,4741.88060,N,12225.17336,W,002.65,294.7,170513,016.6,E,D*21
$PGRME,2.4,M,2.4,M,3.4,M*29
$HCHDG,132.0,0.0,E,,*29
$HCHDG,132.0,0.0,E,,*29
$GPRMC,020036.0,A,4741.88070,N,12225.17351,W,002.69,288.0,170513,016.6,E,D*2C
$PGRME,2.4,M,2.4,M,3.4,M*29
$HCHDG,131.9,0.0,E,,*23
$YXXDR*4F
$HCHDG,131.7,0.0,E,,*2D
$GPRMC,020036.2,A,4741.88084,N,12225.17367,W,002.74,291.4,170513,016.6,E,D*20
$PGRME,2.4,M,2.4,M,3.4,M*29
$HCHDG,131.6,0.0,E,,*2C
$HCHDG,131.2,0.0,E,,*28
$GPRMC,020036.4,A,4741.88101,N,12225.17378,W,002.71,292.7,170513,016.6,E,D*21
$PGRME,2.4,M,2.4,M,3.4,M*29
$HCHDG,131.0,0.0,E,,*2A
$GPRMC,020036.6,A,4741.88117,N,12225.17405,W,002.69,298.7,170513,016.6,E,D*2A
$GPRMB,A,-0.38,L,,N,4741.0622,N,12224.6030,W,0.9,155,-2.17,V*41
$HCHDG,130.9,0.0,E,,*22
$PGRME,2.4,M,2.4,M,3.4,M*29
$YXXDR*4F
$IIDPT,081.4,-1.0,*4D
$HCHDG,130.8,0.0,E,,*23
$IIGLL,4741.880,N,12225.172,W,020000,A,A*44
$GPRMC,020036.8,A,4741.88129,N,12225.17428,W,002.63,302.1,170513,016.6,E,D*28
$HCHDG,130.8,0.0,E,,*23
$PGRME,2.4,M,2.4,M,3.4,M*29
$IIMTW,+10.5,C*3C
$HCHDG,130.8,0.0,E,,*23
$IIRMB,A,,,,N   ,,,,,000.9,155,,V,A*73
$HCHDG,130.8,0.0,E,,*23
$GPRMC,020037.0,A,4741.88142,N,12225.17446,W,002.63,306.6,170513,016.6,E,D*27
$PGRME,2.4,M,2.4,M,3.4,M*29
$IIRMC,020000,A,4741.880,N,12225.172,W,02.3,306,160513,16,E,A*1B
$IIVHW,,,,,00.0,N,,*19
$HCHDG,131.3,0.0,E,,*29
$IIVLW,06236,N,000.0,N*52
$YXXDR,A,-14.8,D,PTCH,A,71.6,D,ROLL*7D
$PTAK,FFD1,71.6*65
$IIDPT,081.4,-1.0,*4D
$GPRMC,020037.2,A,4741.88154,N,12225.17461,W,002.59,304.2,170513,016.6,E,D*28
$PGRME,2.4,M,2.4,M,3.4,M*29
$HCHDG,131.6,0.0,E,,*2C
$HCHDG,132.1,0.0,E,,*28
$HCHDG,132.6,0.0,E,,*2F
$GPRMC,020037.4,A,4741.88160,N,12225.17470,W,002.53,301.3,170513,016.6,E,D*27
$PGRME,2.4,M,2.4,M,3.4,M*29
$HCHDG,133.0,0.0,E,,*28
$HCHDG,133.4,0.0,E,,*2C
$GPRMC,020037.6,A,4741.88175,N,12225.17489,W,002.50,301.4,170513,016.6,E,D*23
$GPRMB,A,-0.39,L,,N,4741.0622,N,12224.6030,W,0.9,155,-2.09,V*4F
$PGRME,2.4,M,2.4,M,3.4,M*29
$YXXDR,A,-14.8,D,PTCH,A,71.6,D,ROLL*7D
$HCHDG,133.6,0.0,E,,*2E
$IIGLL,4741.881,N,12225.174,W,020000,A,A*43
$IIMTW,+10.5,C*3C
$HCHDG,133.8,0.0,E,,*20
$GPRMC,020037.8,A,4741.88188,N,12225.17505,W,002.52,299.2,170513,016.6,E,D*2E
$PGRME,2.4,M,2.4,M,3.4,M*29
$IIRMB,A,,,,N   ,,,,,000.9,155,,V,A*73
$HCHDG,133.8,0.0,E,,*20
$IIRMC,020000,A,4741.881,N,12225.174,W,02.5,304,160513,16,E,A*18
$HCHDG,133.6,0.0,E,,*2E
$GPRMC,020038.0,A,4741.88195,N,12225.17525,W,002.51,296.4,170513,016.6,E,D*2D
$PGRME,2.4,M,2.4,M,3.4,M*29
$IIVHW,,,,,00.0,N,,*19
$HCHDG,133.2,0.0,E,,*2A
$IIVLW,06236,N,000.0,N*52
$IIDPT,081.4,-1.0,*4D
$YXXDR,A,-14.8,D,PTCH,A,71.6,D,ROLL*7D
$PTAK,FFD1,71.6*65
$GPRMC,020038.2,A,4741.88203,N,12225.17542,W,002.50,295.7,170513,016.6,E,D*23
$PGRME,2.4,M,2.4,M,3.4,M*29
$HCHDG,132.9,0.0,E,,*20
$HCHDG,132.6,0.0,E,,*2F
$HCHDG,132.2,0.0,E,,*2B
$GPRMC,020038.4,A,4741.88205,N,12225.17559,W,002.52,297.5,170513,016.6,E,D*2B
$PGRME,2.4,M,2.4,M,3.4,M*29
$HCHDG,132.0,0.0,E,,*29
$HCHDG,131.9,0.0,E,,*23
$GPRMC,020038.6,A,4741.88212,N,12225.17573,W,002.53,298.7,170513,016.6,E,D*2B
$GPRMB,A,-0.39,L,,N,4741.0622,N,12224.6030,W,0.9,155,-2.04,V*42
$PGRME,2.4,M,2.4,M,3.4,M*29
$YXXDR,A,-14.8,D,PTCH,A,71.6,D,ROLL*7D
$PTAK,FFD1,71.6*65
$HCHDG,131.8,0.0,E,,*22
$IIGLL,4741.882,N,12225.175,W,020000,A,A*41
$IIMTW,+10.5,C*3C
$HCHDG,131.9,0.0,E,,*23
$GPRMC,020038.8,A,4741.88218,N,12225.17597,W,002.55,300.1,170513,016.6,E,D*25
$PGRME,2.4,M,2.4,M,3.4,M*29
$IIRMB,A,,,,N   ,,,,,000.9,155,,V,A*73
$HCHDG,132.0,0.0,E,,*29
$IIRMC,020000,A,4741.882,N,12225.175,W,02.5,295,160513,16,E,A*13
$GPRMC,020039.0,A,4741.88219,N,12225.17627,W,002.59,301.2,170513,016.6,E,D*2B
$PGRME,2.4,M,2.4,M,3.4,M*29
$HCHDG,132.2,0.0,E,,*2B
$PTAK,FFP1,HEEL,@*07
$IIVHW,,,,,00.0,N,,*19
$HCHDG,132.5,0.0,E,,*2C
$IIVLW,06236,N,000.0,N*52
$YXXDR*4F
$IIDPT,081.4,-1.0,*4D
$HCHDG,132.7,0.0,E,,*2E
$GPRMC,020039.2,A,4741.88218,N,12225.17657,W,002.60,300.3,170513,016.6,E,D*25
$PGRME,2.4,M,2.4,M,3.4,M*29
$HCHDG,133.0,0.0,E,,*28
$HCHDG,133.3,0.0,E,,*2B
$GPRMC,020039.4,A,4741.88220,N,12225.17690,W,002.62,295.5,170513,016.6,E,D*2A
$PGRME,2.4,M,2.4,M,3.4,M*29
$HCHDG,133.4,0.0,E,,*2C
$HCHDG,133.5,0.0,E,,*2D
$GPRMC,020039.6,A,4741.88222,N,12225.17722,W,002.63,295.1,170513,016.6,E,D*27
$PGRME,2.4,M,2.4,M,3.4,M*29
$YXXDR*4F
$HCHDG,133.3,0.0,E,,*2B
$IIGLL,4741.882,N,12225.175,W,020000,A,A*41
$IIMTW,+10.0,C*39
$HCHDG,133.3,0.0,E,,*2B
$GPRMC,020039.8,A,4741.88222,N,12225.17738,W,002.61,298.6,170513,016.6,E,D*2A
$PGRME,2.4,M,2.4,M,3.4,M*29
$IIRMB,A,,,,N   ,,,,,000.9,155,,V,A*73
$HCHDG,132.9,0.0,E,,*20
$IIRMC,020000,A,4741.882,N,12225.175,W,02.5,295,160513,16,E,A*13
$HCHDG,132.5,0.0,E,,*2C
$GPRMC,020040.0,A,4741.88231,N,12225.17753,W,002.61,303.7,170513,016.6,E,D*21
$GPRMB,A,-0.39,L,,N,4741.0622,N,12224.6030,W,0.9,155,-2.24,V*40
$PGRME,2.4,M,2.4,M,3.4,M*29
$IIVHW,,,,,00.0,N,,*19
$HCHDG,132.2,0.0,E,,*2B
$IIVLW,06236,N,000.0,N*52
$YXXDR*4F
$IIDPT,081.4,-1.0,*4D
$HCHDG,131.8,0.0,E,,*22
$GPRMC,020040.2,A,4741.88241,N,12225.17775,W,002.61,306.6,170513,016.6,E,D*24
$PGRME,2.4,M,2.4,M,3.4,M*29
$HCHDG,131.7,0.0,E,,*2D
$HCHDG,131.5,0.0,E,,*2F
$GPRMC,020040.4,A,4741.88256,N,12225.17797,W,002.60,302.6,170513,016.6,E,D*2D
$PGRME,2.4,M,2.4,M,3.4,M*29
$HCHDG,131.4,0.0,E,,*2E
$HCHDG,131.4,0.0,E,,*2E
$GPRMC,020040.6,A,4741.88264,N,12225.17817,W,002.58,302.5,170513,016.6,E,D*21
$PGRME,2.4,M,2.4,M,3.4,M*29
$YXXDR*4F
$HCHDG,131.6,0.0,E,,*2C
$IIGLL,4741.882,N,12225.176,W,020000,A,A*42
$IIMTW,+10.5,C*3C
$HCHDG,131.8,0.0,E,,*22
$GPRMC,020040.8,A,4741.88265,N,12225.17839,W,002.60,299.8,170513,016.6,E,D*27
$PGRME,2.4,M,2.4,M,3.4,M*29
$IIRMB,A,,,,N   ,,,,,000.9,155,,V,A*73
$HCHDG,132.1,0.0,E,,*28
$IIRMC,020000,A,4741.882,N,12225.176,W,02.6,295,160513,16,E,A*13
$HCHDG,132.3,0.0,E,,*2A
$GPRMC,020041.0,A,4741.88270,N,12225.17864,W,002.63,299.2,170513,016.6,E,D*2B
$GPRMB,A,-0.39,L,,N,4741.0622,N,12224.6030,W,0.9,155,-2.14,V*43
$PGRME,2.4,M,2.4,M,3.4,M*29
$IIVHW,,,,,00.0,N,,*19
$HCHDG,132.4,0.0,E,,*2D
$IIVLW,06236,N,000.0,N*52
$YXXDR*4F
$IIDPT,081.4,-1.0,*4D
$HCHDG,132.5,0.0,E,,*2C
$GPRMC,020041.2,A,4741.88280,N,12225.17891,W,002.64,294.3,170513,016.6,E,D*27
$PGRME,2.4,M,2.4,M,3.4,M*29
$HCHDG,132.6,0.0,E,,*2F
$HCHDG,132.5,0.0,E,,*2C
$GPRMC,020041.4,A,4741.88295,N,12225.17903,W,002.68,293.5,170513,016.6,E,D*22
$PGRME,2.4,M,2.4,M,3.4,M*29
$HCHDG,132.4,0.0,E,,*2D
$HCHDG,132.1,0.0,E,,*28
$GPRMC,020041.6,A,4741.88308,N,12225.17914,W,002.72,294.3,170513,016.6,E,D*29
$PGRME,2.4,M,2.4,M,3.4,M*29
$YXXDR*4F
$HCHDG,131.8,0.0,E,,*22
$IIGLL,4741.882,N,12225.177,W,020000,A,A*43
$IIMTW,+10.5,C*3C
$HCHDG,131.6,0.0,E,,*2C
$GPRMC,020041.8,A,4741.88324,N,12225.17922,W,002.71,296.8,170513,016.6,E,D*26
$PGRME,2.4,M,2.4,M,3.4,M*29
$IIRMB,A,,,,N   ,,,,,000.9,155,,V,A*73
$HCHDG,131.2,0.0,E,,*28
$IIRMC,020000,A,4741.882,N,12225.177,W,02.6,302,160513,16,E,A*1D
$HCHDG,131.0,0.0,E,,*2A
$GPRMC,020042.0,A,4741.88339,N,12225.17932,W,002.53,307.5,170513,016.6,E,D*24
$PGRME,2.4,M,2.4,M,3.4,M*29
$IIVHW,,,,,00.0,N,,*19
$HCHDG,130.9,0.0,E,,*22
$IIVLW,06236,N,000.0,N*52
$YXXDR*4F
$HCHDG,130.8,0.0,E,,*23
$GPRMC,020042.2,A,4741.88348,N,12225.17944,W,002.48,304.4,170513,016.6,E,D*29
$GPRMB,A,-0.39,L,,N,4741.0622,N,12224.6030,W,0.9,155,-2.14,V*43
$PGRME,2.4,M,2.4,M,3.4,M*29
$HCHDG,130.8,0.0,E,,*23
$HCHDG,131.0,0.0,E,,*2A
$GPRMC,020042.4,A,4741.88352,N,12225.17965,W,002.45,309.5,170513,016.6,E,D*26
$PGRME,2.4,M,2.4,M,3.4,M*29
$HCHDG,131.3,0.0,E,,*29
$HCHDG,131.7,0.0,E,,*2D
$GPRMC,020042.6,A,4741.88368,N,12225.17999,W,002.45,304.9,170513,016.6,E,D*2F
$PGRME,2.4,M,2.4,M,3.4,M*29
$YXXDR*4F
$HCHDG,132.0,0.0,E,,*29
$IIGLL,4741.882,N,12225.179,W,020000,A,A*4D
$IIMTW,+10.5,C*3C
$HCHDG,132.6,0.0,E,,*2F
$GPRMC,020042.8,A,4741.88376,N,12225.18021,W,002.45,299.8,170513,016.6,E,D*2F
$PGRME,2.4,M,2.4,M,3.4,M*29
$IIRMB,A,,,,N   ,,,,,000.9,155,,V,A*73
$HCHDG,132.9,0.0,E,,*20
$IIRMC,020000,A,4741.882,N,12225.179,W,02.6,293,160513,16,E,A*1A
$GPRMC,020043.0,A,4741.88379,N,12225.18044,W,002.79,296.4,170513,016.6,E,D*26
$PGRME,2.4,M,2.4,M,3.4,M*29
$HCHDG,133.3,0.0,E,,*2B
$IIVHW,,,,,00.0,N,,*19
$HCHDG,133.3,0.0,E,,*2B
$IIVLW,06236,N,000.0,N*52
$YXXDR*4F
$HCHDG,133.3,0.0,E,,*2B
$GPRMC,020043.2,A,4741.88383,N,12225.18055,W,002.61,297.4,170513,016.6,E,D*29
$PGRME,2.4,M,2.4,M,3.4,M*29
$HCHDG,133.0,0.0,E,,*28
$HCHDG,132.5,0.0,E,,*2C
$GPRMC,020043.4,A,4741.88390,N,12225.18069,W,002.62,299.7,170513,016.6,E,D*2C
$GPRMB,A,-0.39,L,,N,4741.0622,N,12224.6030,W,0.9,155,-2.15,V*42
$PTAK,FFP1,HEEL,@*07
$PGRME,2.4,M,2.4,M,3.4,M*29
$HCHDG,132.1,0.0,E,,*28
$HCHDG,131.6,0.0,E,,*2C
$GPRMC,020043.6,A,4741.88392,N,12225.18090,W,002.65,293.3,170513,016.6,E,D*23
$PGRME,2.4,M,2.4,M,3.4,M*29
$YXXDR*4F
$HCHDG,131.2,0.0,E,,*28
$IIGLL,4741.883,N,12225.179,W,020000,A,A*4C
$IIMTW,+10.5,C*3C
$HCHDG,130.8,0.0,E,,*23
$GPRMC,020043.8,A,4741.88398,N,12225.18100,W,002.59,298.5,170513,016.6,E,D*2D
$PGRME,2.4,M,2.4,M,3.4,M*29
$IIRMB,A,,,,N   ,,,,,000.9,155,,V,A*73
$HCHDG,130.6,0.0,E,,*2D
$IIRMC,020000,A,4741.883,N,12225.179,W,02.4,309,160513,16,E,A*1B
$GPRMC,020044.0,A,4741.88407,N,12225.18113,W,002.60,299.2,170513,016.6,E,D*2D
$PGRME,2.4,M,2.4,M,3.4,M*29
$HCHDG,130.5,0.0,E,,*2E
$PGRMT,GPS 18x-5Hz software ver. 3.20,,,,,,,,*30
$IIVHW,,,,,00.0,N,,*19
$HCHDG,130.5,0.0,E,,*2E
$IIVLW,06236,N,000.0,N*52
$YXXDR*4F
$HCHDG,130.9,0.0,E,,*22
$GPRMC,020044.2,A,4741.88412,N,12225.18137,W,002.60,301.3,170513,016.6,E,D*2C
$PGRME,2.4,M,2.4,M,3.4,M*29
$HCHDG,131.2,0.0,E,,*28
$HCHDG,131.7,0.0,E,,*2D
$GPRMC,020044.4,A,4741.88417,N,12225.18154,W,002.55,302.8,170513,016.6,E,D*24
$GPRMB,A,-0.39,L,,N,4741.0622,N,12224.6030,W,0.9,155,-2.17,V*40
$PGRME,2.4,M,2.4,M,3.4,M*29
$HCHDG,132.2,0.0,E,,*2B
$HCHDG,132.9,0.0,E,,*20
$GPRMC,020044.6,A,4741.88425,N,12225.18164,W,002.36,303.5,170513,016.6,E,D*2D
$PGRME,2.4,M,2.4,M,3.4,M*29
$YXXDR*4F
$HCHDG,133.6,0.0,E,,*2E
$IIGLL,4741.883,N,12225.180,W,020000,A,A*4A
$IIMTW,+10.5,C*3C
$HCHDG,134.1,0.0,E,,*2E
$GPRMC,020044.8,A,4741.88438,N,12225.18165,W,002.52,301.1,170513,016.6,E,D*2A
$PGRME,2.4,M,2.4,M,3.4,M*29
$IIRMB,A,,,,N   ,,,,,000.9,155,,V,A*73
$HCHDG,134.5,0.0,E,,*2A
$IIRMC,020000,A,4741.883,N,12225.180,W,02.6,299,160513,16,E,A*17
$GPRMC,020045.0,A,4741.88447,N,12225.18173,W,002.48,295.8,170513,016.6,E,D*22
$HCHDG,134.8,0.0,E,,*27
$PGRME,2.4,M,2.4,M,3.4,M*29
$IIVHW,,,,,00.0,N,,*19
$HCHDG,134.8,0.0,E,,*27
$IIVLW,06236,N,000.0,N*52
$YXXDR*4F
$HCHDG,134.6,0.0,E,,*29
$GPRMC,020045.2,A,4741.88453,N,12225.18190,W,002.49,292.4,170513,016.6,E,D*22
$PGRME,2.4,M,2.4,M,3.4,M*29
$HCHDG,134.4,0.0,E,,*2B
$HCHDG,133.9,0.0,E,,*21
$GPRMC,020045.4,A,4741.88460,N,12225.18214,W,002.51,290.4,170513,016.6,E,D*20
$PGRME,2.4,M,2.4,M,3.4,M*29
$HCHDG,133.5,0.0,E,,*2D
$HCHDG,133.0,0.0,E,,*28
$GPRMC,020045.6,A,4741.88467,N,12225.18238,W,002.58,294.3,170513,016.6,E,D*21
$GPRMB,A,-0.39,L,,N,4741.0622,N,12224.6030,W,0.9,155,-1.97,V*4B
$PGRME,2.4,M,2.4,M,3.4,M*29
$YXXDR*4F
$HCHDG,132.6,0.0,E,,*2F
$IIGLL,4741.883,N,12225.180,W,020000,A,A*4A
$IIMTW,+10.5,C*3C
$HCHDG,132.3,0.0,E,,*2A
$GPRMC,020045.8,A,4741.88474,N,12225.18254,W,002.55,296.9,170513,016.6,E,D*22
$PGRME,2.4,M,2.4,M,3.4,M*29
$IIRMB,A,,,,N   ,,,,,000.9,155,,V,A*73
$HCHDG,132.0,0.0,E,,*29
$IIRMC,020000,A,4741.883,N,12225.180,W,02.6,299,160513,16,E,A*17
$GPRMC,020046.0,A,4741.88486,N,12225.18272,W,002.57,297.7,170513,016.6,E,D*2D
$HCHDG,131.9,0.0,E,,*23
$PGRME,2.4,M,2.4,M,3.4,M*29
$IIVHW,,,,,00.0,N,,*19
$HCHDG,132.2,0.0,E,,*2B
$IIVLW,06236,N,000.0,N*52
$YXXDR*4F
$HCHDG,132.4,0.0,E,,*2D
$GPRMC,020046.2,A,4741.88499,N,12225.18286,W,002.28,305.3,170513,016.6,E,D*2C
$PGRME,2.4,M,2.4,M,3.4,M*29
$HCHDG,132.8,0.0,E,,*21
$HCHDG,133.3,0.0,E,,*2B
$GPRMC,020046.4,A,4741.88509,N,12225.18308,W,002.50,305.4,170513,016.6,E,D*2D
$PGRME,2.4,M,2.4,M,3.4,M*29
$HCHDG,133.8,0.0,E,,*20
$HCHDG,134.4,0.0,E,,*2B
$GPRMC,020046.6,A,4741.88522,N,12225.18326,W,002.34,302.8,170513,016.6,E,D*23
$PGRME,2.4,M,2.4,M,3.4,M*29
$YXXDR*4F
$HCHDG,135.0,0.0,E,,*2E
$HCHDG,135.5,0.0,E,,*2B
$GPRMC,020046.8,A,4741.88531,N,12225.18346,W,002.35,303.0,170513,016.6,E,D*21
$GPRMB,A,-0.39,L,,N,4741.0622,N,12224.6030,W,0.9,155,-2.00,V*46
$PGRME,2.4,M,2.4,M,3.4,M*29
$HCHDG,135.7,0.0,E,,*29
$HCHDG,135.9,0.0,E,,*27
$GPRMC,020047.0,A,4741.88537,N,12225.18357,W,002.35,300.4,170513,016.6,E,D*29
$PGRME,2.4,M,2.4,M,3.4,M*29
$HCHDG,135.8,0.0,E,,*26
$YXXDR*4F
$HCHDG,135.8,0.0,E,,*26
$GPRMC,020047.2,A,4741.88544,N,12225.18380,W,002.37,294.1,170513,016.6,E,D*2E
$PGRME,2.4,M,2.4,M,3.4,M*29
$HCHDG,135.6,0.0,E,,*28
$HCHDG,135.3,0.0,E,,*2D
$GPRMC,020047.4,A,4741.88544,N,12225.18406,W,002.61,290.8,170513,016.6,E,D*2F
$PTAK,FFP1,HEEL,@*07
$PGRME,2.4,M,2.4,M,3.4,M*29
$HCHDG,135.0,0.0,E,,*2E
$HCHDG,134.6,0.0,E,,*29
$GPRMC,020047.6,A,4741.88545,N,12225.18428,W,002.63,292.0,170513,016.6,E,D*28
$PGRME,2.4,M,2.4,M,3.4,M*29
$YXXDR*4F
$HCHDG,134.3,0.0,E,,*2C
$IIGLL,4741.884,N,12225.182,W,020000,A,A*4F
$IIMTW,+10.5,C*3C
$HCHDG,134.0,0.0,E,,*2F
$GPRMC,020047.8,A,4741.88551,N,12225.18445,W,002.60,294.3,170513,016.6,E,D*2E
$GPRMB,A,-0.39,L,,N,4741.0622,N,12224.6030,W,0.9,155,-1.98,V*44
$PGRME,2.4,M,2.4,M,3.4,M*29
$IIRMB,A,,,,N   ,,,,,000.9,155,,V,A*73
$HCHDG,133.8,0.0,E,,*20
$IIRMC,020000,A,4741.884,N,12225.182,W,02.5,294,160513,16,E,A*1C
$HCHDG,133.7,0.0,E,,*2F
$GPRMC,020048.0,A,4741.88550,N,12225.18468,W,002.62,295.5,170513,016.6,E,D*22
$PGRME,2.4,M,2.4,M,3.4,M*29
$IIVHW,,,,,00.0,N,,*19
$HCHDG,133.7,0.0,E,,*2F
$IIVLW,06236,N,000.0,N*52
$YXXDR*4F
$IIGLL,4741.885,N,12225.183,W,020000,A,A*4F
$HCHDG,133.6,0.0,E,,*2E
$GPRMC,020048.2,A,4741.88548,N,12225.18486,W,002.35,301.1,170513,016.6,E,D*23
$PGRME,2.4,M,2.4,M,3.4,M*29
$IIMTW,+10.5,C*3C
$HCHDG,133.8,0.0,E,,*20
$HCHDG,134.0,0.0,E,,*2F
$GPRMC,020048.4,A,4741.88551,N,12225.18501,W,002.37,301.6,170513,016.6,E,D*26
$PGRME,2.4,M,2.4,M,3.4,M*29
$HCHDG,134.2,0.0,E,,*2D
$HCHDG,134.6,0.0,E,,*29
$GPRMC,020048.6,A,4741.88558,N,12225.18514,W,002.38,303.2,170513,016.6,E,D*20
$PGRME,2.4,M,2.4,M,3.4,M*29
$YXXDR*4F
$HCHDG,135.0,0.0,E,,*2E
$IIRMB,A,,,,N   ,,,,,000.9,155,,V,A*73
$HCHDG,135.2,0.0,E,,*2C
$GPRMC,020048.8,A,4741.88561,N,12225.18528,W,002.42,302.0,170513,016.6,E,D*25
$PGRME,2.4,M,2.4,M,3.4,M*29
$IIRMC,020000,A,4741.885,N,12225.184,W,02.6,292,160513,16,E,A*1E
$HCHDG,135.6,0.0,E,,*28
$IIVHW,,,,,00.0,N,,*19
$IIVLW,06236,N,000.0,N*52
$HCHDG,135.7,0.0,E,,*29
$GPRMC,020049.0,A,4741.88572,N,12225.18543,W,002.44,295.5,170513,016.6,E,D*2F
$GPRMB,A,-0.39,L,,N,4741.0622,N,12224.6030,W,0.9,155,-1.90,V*4C
$PGRME,2.4,M,2.4,M,3.4,M*29
$IIGLL,4741.885,N,12225.184,W,020000,A,A*48
$HCHDG,135.7,0.0,E,,*29
$IIMTW,+10.5,C*3C
$YXXDR*4F
$HCHDG,135.8,0.0,E,,*26
$GPRMC,020049.2,A,4741.88580,N,12225.18558,W,002.67,294.8,170513,016.6,E,D*27
$PGRME,2.4,M,2.4,M,3.4,M*29
$HCHDG,135.5,0.0,E,,*2B
$HCHDG,135.1,0.0,E,,*2F
$GPRMC,020049.4,A,4741.88582,N,12225.18580,W,002.64,292.8,170513,016.6,E,D*23
$PGRME,2.4,M,2.4,M,3.4,M*29
$HCHDG,134.8,0.0,E,,*27
$HCHDG,134.3,0.0,E,,*2C
$GPRMC,020049.6,A,4741.88582,N,12225.18590,W,002.72,294.9,170513,016.6,E,D*20
$PGRME,2.4,M,2.4,M,3.4,M*29
$YXXDR*4F
$HCHDG,133.9,0.0,E,,*21
$IIRMB,A,,,,N   ,,,,,000.9,155,,V,A*73
$HCHDG,133.4,0.0,E,,*2C
$GPRMC,020049.8,A,4741.88580,N,12225.18610,W,002.54,297.8,170513,016.6,E,D*21
$PGRME,2.4,M,2.4,M,3.4,M*29
$IIRMC,020000,A,4741.885,N,12225.185,W,02.3,303,160513,16,E,A*13
$HCHDG,133.0,0.0,E,,*28
$IIVHW,,,,,00.0,N,,*19
$IIVLW,06236,N,000.0,N*52
$HCHDG,132.7,0.0,E,,*2E
$GPRMC,020050.0,A,4741.88577,N,12225.18643,W,002.57,302.0,170513,016.6,E,D*29
$GPRMB,A,-0.39,L,,N,4741.0622,N,12224.6030,W,0.9,155,-2.17,V*40
$PGRME,2.4,M,2.4,M,3.4,M*29
$IIGLL,4741.885,N,12225.185,W,020000,A,A*49
$HCHDG,132.7,0.0,E,,*2E
$IIMTW,+10.5,C*3C
$YXXDR*4F
$HCHDG,132.6,0.0,E,,*2F
$GPRMC,020050.2,A,4741.88582,N,12225.18680,W,002.57,304.2,170513,016.6,E,D*2A
$PGRME,2.4,M,2.4,M,3.4,M*29
$HCHDG,132.7,0.0,E,,*2E
$HCHDG,132.8,0.0,E,,*21
$GPRMC,020050.4,A,4741.88588,N,12225.18709,W,002.34,310.2,170513,016.6,E,D*26
$PGRME,2.4,M,2.4,M,3.4,M*29
$HCHDG,133.1,0.0,E,,*29
$HCHDG,133.5,0.0,E,,*2D
$GPRMC,020050.6,A,4741.88597,N,12225.18731,W,002.69,300.3,170513,016.6,E,D*29
$PGRME,2.4,M,2.4,M,3.4,M*29
$YXXDR*4F
$HCHDG,133.8,0.0,E,,*20
$IIRMB,A,,,,N   ,,,,,000.9,155,,V,A*73
$HCHDG,134.1,0.0,E,,*2E
$GPRMC,020050.8,A,4741.88602,N,12225.18749,W,002.42,302.2,170513,016.6,E,D*2D
$PGRME,2.4,M,2.4,M,3.4,M*29
$IIRMC,020000,A,4741.885,N,12225.185,W,02.3,303,160513,16,E,A*13
$HCHDG,134.3,0.0,E,,*2C
$IIVHW,,,,,00.0,N,,*19
$IIVLW,06236,N,000.0,N*52
$HCHDG,134.5,0.0,E,,*2A
$GPRMC,020051.0,A,4741.88607,N,12225.18778,W,002.45,299.0,170513,016.6,E,D*25
$GPRMB,A,-0.39,L,,N,4741.0622,N,12224.6030,W,0.9,154,-2.00,V*47
$PGRME,2.4,M,2.4,M,3.4,M*29
$IIGLL,4741.885,N,12225.185,W,020000,A,A*49
$HCHDG,134.8,0.0,E,,*27
$IIMTW,+10.5,C*3C
$YXXDR*4F
$HCHDG,134.9,0.0,E,,*26
$GPRMC,020051.2,A,4741.88607,N,12225.18807,W,002.45,293.3,170513,016.6,E,D*29
$PGRME,2.4,M,2.4,M,3.4,M*29
$HCHDG,134.9,0.0,E,,*26
$HCHDG,135.0,0.0,E,,*2E
$GPRMC,020051.4,A,4741.88614,N,12225.18819,W,002.52,294.2,170513,016.6,E,D*22
$PTAK,FFP1,HEEL,@*07
$PGRME,2.4,M,2.4,M,3.4,M*29
$HCHDG,134.9,0.0,E,,*26
$HCHDG,134.9,0.0,E,,*26
$GPRMC,020051.6,A,4741.88627,N,12225.18838,W,002.57,294.3,170513,016.6,E,D*27
$PGRME,2.4,M,2.4,M,3.4,M*29
$YXXDR*4F
$HCHDG,134.8,0.0,E,,*27
$IIRMB,A,,,,N   ,,,,,000.9,154,,V,A*72
$HCHDG,134.6,0.0,E,,*29
$GPRMC,020051.8,A,4741.88635,N,12225.18857,W,002.77,293.6,170513,016.6,E,D*23
$PGRME,2.4,M,2.4,M,3.4,M*29
$IIRMC,020000,A,4741.885,N,12225.187,W,02.6,300,160513,16,E,A*17
$HCHDG,134.4,0.0,E,,*2B
$IIVHW,,,,,00.0,N,,*19
$IIVLW,06236,N,000.0,N*52
$HCHDG,134.2,0.0,E,,*2D
$GPRMC,020052.0,A,4741.88641,N,12225.18880,W,002.75,292.1,170513,016.6,E,D*25
$GPRMB,A,-0.39,L,,N,4741.0622,N,12224.6030,W,0.9,154,-2.03,V*44
$PGRME,2.4,M,2.4,M,3.4,M*29
$IIGLL,4741.885,N,12225.187,W,020000,A,A*4B
$HCHDG,133.8,0.0,E,,*20
$IIMTW,+10.5,C*3C
$YXXDR*4F
$HCHDG,133.5,0.0,E,,*2D
$GPRMC,020052.2,A,4741.88650,N,12225.18896,W,002.52,299.4,170513,016.6,E,D*2B
$PGRME,2.4,M,2.4,M,3.4,M*29
$HCHDG,133.5,0.0,E,,*2D
$HCHDG,133.5,0.0,E,,*2D
$GPRMC,020052.4,A,4741.88660,N,12225.18906,W,002.50,301.4,170513,016.6,E,D*24
$PGRME,2.4,M,2.4,M,3.4,M*29
$HCHDG,133.5,0.0,E,,*2D
$HCHDG,133.0,0.0,E,,*28
$GPRMC,020052.6,A,4741.88668,N,12225.18918,W,002.55,306.9,170513,016.6,E,D*2E
$PGRME,2.4,M,2.4,M,3.4,M*29
$YXXDR,A,-23.8,D,PTCH,A,61.7,D,ROLL*79
$PTAK,FFD1,61.7*65
$IIRMB,A,,,,N   ,,,,,000.9,154,,V,A*72
$HCHDG,132.7,0.0,E,,*2E
$HCHDG,132.6,0.0,E,,*2F
$GPRMC,020052.8,A,4741.88679,N,12225.18937,W,002.53,308.3,170513,016.6,E,D*2F
$PGRME,2.4,M,2.4,M,3.4,M*29
$IIRMC,020000,A,4741.886,N,12225.188,W,02.5,294,160513,16,E,A*14
$HCHDG,132.7,0.0,E,,*2E
$IIVHW,,,,,00.0,N,,*19
$IIVLW,06236,N,000.0,N*52
$HCHDG,132.9,0.0,E,,*20
$GPRMC,020053.0,A,4741.88690,N,12225.18951,W,002.46,308.5,170513,016.6,E,D*23
$PGRME,2.4,M,2.4,M,3.4,M*29
$IIGLL,4741.886,N,12225.188,W,020000,A,A*47
$HCHDG,133.3,0.0,E,,*2B
$IIMTW,+10.0,C*39
$YXXDR,A,-23.8,D,PTCH,A,61.7,D,ROLL*79
$GPRMC,020053.2,A,4741.88698,N,12225.18961,W,002.41,305.5,170513,016.6,E,D*20
$GPRMB,A,-0.40,L,,N,4741.0622,N,12224.6030,W,0.9,154,-2.11,V*49
$PGRME,2.4,M,2.4,M,3.4,M*29
$HCHDG,133.7,0.0,E,,*2F
$HCHDG,134.1,0.0,E,,*2E
$HCHDG,134.6,0.0,E,,*29
$GPRMC,020053.4,A,4741.88707,N,12225.18962,W,002.42,296.3,170513,016.6,E,D*2C
$PGRME,2.4,M,2.4,M,3.4,M*29
$HCHDG,135.0,0.0,E,,*2E
$HCHDG,135.4,0.0,E,,*2A
$GPRMC,020053.6,A,4741.88714,N,12225.18968,W,002.43,294.1,170513,016.6,E,D*27
$PGRME,2.4,M,2.4,M,3.4,M*29
$YXXDR,A,-23.8,D,PTCH,A,61.7,D,ROLL*79
$PTAK,FFD1,61.7*65
$IIRMB,A,,,,N   ,,,,,000.9,154,,V,A*72
$HCHDG,135.6,0.0,E,,*28
$HCHDG,135.8,0.0,E,,*26
$GPRMC,020053.8,A,4741.88721,N,12225.18979,W,002.45,294.7,170513,016.6,E,D*2F
$PGRME,2.4,M,2.4,M,3.4,M*29
$IIRMC,020000,A,4741.886,N,12225.189,W,02.5,306,160513,16,E,A*1F
$HCHDG,135.6,0.0,E,,*28
$IIVHW,,,,,00.0,N,,*19
$IIVLW,06236,N,000.0,N*52
$HCHDG,135.6,0.0,E,,*28
$GPRMC,020054.0,A,4741.88732,N,12225.18994,W,002.67,285.3,170513,016.6,E,D*25
$PGRME,2.4,M,2.4,M,3.4,M*29
$IIGLL,4741.886,N,12225.189,W,020000,A,A*46
$HCHDG,135.5,0.0,E,,*2B
$IIMTW,+10.0,C*39
$YXXDR,A,-23.8,D,PTCH,A,61.7,D,ROLL*79
$GPRMC,020054.2,A,4741.88743,N,12225.19010,W,002.71,289.7,170513,016.6,E,D*2A
$GPRMB,A,-0.40,L,,N,4741.0622,N,12224.6030,W,0.9,154,-1.93,V*40
