$PGRME,2.4,M,2.4,M,3.4,M*29
$HCHDG,266.4,0.0,E,,*2F
$HCHDG,266.4,0.0,E,,*2F
$GPRMC,030000.4,A,4740.81478,N,12224.44112,W,000.00,287.3,190513,016.6,E,D*25
$PGRME,2.4,M,2.4,M,3.4,M*29
$HCHDG,266.4,0.0,E,,*2F
$HCHDG,266.4,0.0,E,,*2F
$GPRMC,030000.6,A,4740.81478,N,12224.44112,W,000.01,287.3,190513,016.6,E,D*26
$PGRME,2.4,M,2.4,M,3.4,M*29
$YXXDR,A,5.6,D,PTCH,A,3.6,D,ROLL*5B
$HCHDG,266.4,0.0,E,,*2F
$HCHDG,266.4,0.0,E,,*2F
$GPRMC,030000.8,A,4740.81478,N,12224.44112,W,000.00,287.3,190513,016.6,E,D*29
$PGRME,2.4,M,2.4,M,3.4,M*29
$HCHDG,266.4,0.0,E,,*2F
$HCHDG,266.4,0.0,E,,*2F
$GPRMC,030001.0,A,4740.81478,N,12224.44111,W,000.00,287.3,190513,016.6,E,D*23
$GPRMB,A,0.11,L,,N,4741.0622,N,12224.6030,W,0.3,336,0.00,V*43
$PGRME,2.4,M,2.4,M,3.4,M*29
$HCHDG,266.4,0.0,E,,*2F
$YXXDR,A,5.6,D,PTCH,A,3.6,D,ROLL*5B
$PTAK,FFD1,3.6*50
$HCHDG,266.4,0.0,E,,*2F
$GPRMC,030001.2,A,4740.81478,N,12224.44111,W,000.00,287.3,190513,016.6,E,D*21
$PGRME,2.4,M,2.4,M,3.4,M*29
$HCHDG,266.4,0.0,E,,*2F
$HCHDG,266.4,0.0,E,,*2F
$GPRMC,030001.4,A,4740.81478,N,12224.44111,W,000.00,287.3,190513,016.6,E,D*27
$PGRME,2.4,M,2.4,M,3.4,M*29
$HCHDG,266.4,0.0,E,,*2F
$HCHDG,266.4,0.0,E,,*2F
$GPRMC,030001.6,A,4740.81478,N,12224.44111,W,000.00,287.3,190513,016.6,E,D*25
$PGRME,2.4,M,2.4,M,3.4,M*29
$YXXDR,A,5.5,D,PTCH,A,3.7,D,ROLL*59
$HCHDG,266.4,0.0,E,,*2F
$HCHDG,266.4,0.0,E,,*2F
$GPRMC,030001.8,A,4740.81478,N,12224.44111,W,000.00,287.3,190513,016.6,E,D*2B
$PGRME,2.4,M,2.4,M,3.4,M*29
$HCHDG,266.4,0.0,E,,*2F
$HCHDG,266.4,0.0,E,,*2F
$GPRMC,030002.0,A,4740.81478,N,12224.44111,W,000.00,287.3,190513,016.6,E,D*20
$GPRMB,A,0.11,L,,N,4741.0622,N,12224.6030,W,0.3,336,0.00,V*43
$PGRME,2.4,M,2.4,M,3.4,M*29
$HCHDG,266.4,0.0,E,,*2F
$PTAK,FFP1,HEEL,@*07
$YXXDR,A,5.5,D,PTCH,A,3.7,D,ROLL*59
$PTAK,FFD1,3.7*51
$HCHDG,266.4,0.0,E,,*2F
$GPRMC,030002.2,A,4740.81478,N,12224.44111,W,000.00,287.3,190513,016.6,E,D*22
$PGRME,2.4,M,2.4,M,3.4,M*29
$HCHDG,266.4,0.0,E,,*2F
$HCHDG,266.4,0.0,E,,*2F
$GPRMC,030002.4,A,4740.81478,N,12224.44111,W,000.00,287.3,190513,016.6,E,D*24
$PGRME,2.4,M,2.4,M,3.4,M*29
$HCHDG,266.4,0.0,E,,*2F
$HCHDG,266.4,0.0,E,,*2F
$GPRMC,030002.6,A,4740.81478,N,12224.44111,W,000.00,287.3,190513,016.6,E,D*26
$PGRME,2.4,M,2.4,M,3.4,M*29
$YXXDR,A,5.5,D,PTCH,A,3.7,D,ROLL*59
$HCHDG,266.4,0.0,E,,*2F
$HCHDG,266.4,0.0,E,,*2F
$GPRMC,030002.8,A,4740.81478,N,12224.44110,W,000.00,287.3,190513,016.6,E,D*29
$PGRME,2.4,M,2.4,M,3.4,M*29
$HCHDG,266.4,0.0,E,,*2F
$HCHDG,266.4,0.0,E,,*2F
$GPRMC,030003.0,A,4740.81479,N,12224.44110,W,000.00,287.3,190513,016.6,E,D*21
$GPRMB,A,0.11,L,,N,4741.0622,N,12224.6030,W,0.3,336,0.00,V*43
$PGRME,2.4,M,2.4,M,3.4,M*29
$HCHDG,266.4,0.0,E,,*2F
$YXXDR,A,5.5,D,PTCH,A,3.7,D,ROLL*59
$HCHDG,266.4,0.0,E,,*2F
$GPRMC,030003.2,A,4740.81478,N,12224.44110,W,000.00,287.3,190513,016.6,E,D*22
$PGRME,2.4,M,2.4,M,3.4,M*29
$HCHDG,266.4,0.0,E,,*2F
$HCHDG,266.4,0.0,E,,*2F
$GPRMC,030003.4,A,4740.81478,N,12224.44110,W,000.00,287.3,190513,016.6,E,D*24
$PGRME,2.4,M,2.4,M,3.4,M*29
$HCHDG,266.4,0.0,E,,*2F
$HCHDG,266.4,0.0,E,,*2F
$GPRMC,030003.6,A,4740.81479,N,12224.44110,W,000.00,287.3,190513,016.6,E,D*27
$PGRME,2.4,M,2.4,M,3.4,M*29
$YXXDR,A,5.5,D,PTCH,A,3.7,D,ROLL*59
$PTAK,FFD1,3.7*51
$HCHDG,266.4,0.0,E,,*2F
$HCHDG,266.4,0.0,E,,*2F
$GPRMC,030003.8,A,4740.81479,N,12224.44110,W,000.00,287.3,190513,016.6,E,D*29
$PGRME,2.4,M,2.4,M,3.4,M*29
$HCHDG,266.4,0.0,E,,*2F
$HCHDG,266.5,0.0,E,,*2E
$GPRMC,030004.0,A,4740.81479,N,12224.44110,W,000.00,287.3,190513,016.6,E,D*26
$GPRMB,A,0.11,L,,N,4741.0622,N,12224.6030,W,0.3,336,0.00,V*43
$PGRME,2.4,M,2.4,M,3.4,M*29
$HCHDG,266.5,0.0,E,,*2E
$YXXDR,A,5.5,D,PTCH,A,3.7,D,ROLL*59
$HCHDG,266.5,0.0,E,,*2E
$GPRMC,030004.2,A,4740.81479,N,12224.44110,W,000.00,287.3,190513,016.6,E,D*24
$PGRME,2.4,M,2.4,M,3.4,M*29
$HCHDG,266.5,0.0,E,,*2E
$HCHDG,266.5,0.0,E,,*2E
$GPRMC,030004.4,A,4740.81479,N,12224.44110,W,000.00,287.3,190513,016.6,E,D*22
$PGRME,2.4,M,2.4,M,3.4,M*29
$HCHDG,266.5,0.0,E,,*2E
$HCHDG,266.5,0.0,E,,*2E
$GPRMC,030004.6,A,4740.81479,N,12224.44110,W,000.00,287.3,190513,016.6,E,D*20
$PGRME,2.4,M,2.4,M,3.4,M*29
$YXXDR,A,5.5,D,PTCH,A,3.7,D,ROLL*59
$HCHDG,266.5,0.0,E,,*2E
$HCHDG,266.5,0.0,E,,*2E
$GPRMC,030004.8,A,4740.81479,N,12224.44110,W,000.00,287.3,190513,016.6,E,D*2E
$PGRME,2.4,M,2.4,M,3.4,M*29
$HCHDG,266.5,0.0,E,,*2E
$HCHDG,266.5,0.0,E,,*2E
$GPRMC,030005.0,A,4740.81479,N,12224.44109,W,000.00,287.3,190513,016.6,E,D*2F
$PGRME,2.4,M,2.4,M,3.4,M*29
$HCHDG,266.5,0.0,E,,*2E
$YXXDR,A,5.5,D,PTCH,A,3.7,D,ROLL*59
$PTAK,FFD1,3.7*51
$HCHDG,266.5,0.0,E,,*2E
$GPRMC,030005.2,A,4740.81479,N,12224.44109,W,000.00,287.3,190513,016.6,E,D*2D
$GPRMB,A,0.11,L,,N,4741.0622,N,12224.6030,W,0.3,336,0.00,V*43
$PGRME,2.4,M,2.4,M,3.4,M*29
$HCHDG,266.5,0.0,E,,*2E
$HCHDG,266.5,0.0,E,,*2E
$GPRMC,030005.4,A,4740.81479,N,12224.44109,W,000.00,287.3,190513,016.6,E,D*2B
$PGRME,2.4,M,2.4,M,3.4,M*29
$HCHDG,266.5,0.0,E,,*2E
$HCHDG,266.5,0.0,E,,*2E
$GPRMC,030005.6,A,4740.81479,N,12224.44109,W,000.00,287.3,190513,016.6,E,D*29
$PGRME,2.4,M,2.4,M,3.4,M*29
$YXXDR,A,5.6,D,PTCH,A,3.6,D,ROLL*5B
$HCHDG,266.5,0.0,E,,*2E
$HCHDG,266.5,0.0,E,,*2E
$GPRMC,030005.8,A,4740.81479,N,12224.44109,W,000.00,287.3,190513,016.6,E,D*27
$PGRME,2.4,M,2.4,M,3.4,M*29
$HCHDG,266.5,0.0,E,,*2E
$HCHDG,266.5,0.0,E,,*2E
$GPRMC,030006.0,A,4740.81479,N,12224.44109,W,000.00,287.3,190513,016.6,E,D*2C
$PGRME,2.4,M,2.4,M,3.4,M*29
$HCHDG,266.5,0.0,E,,*2E
$YXXDR,A,5.5,D,PTCH,A,3.7,D,ROLL*59
$PTAK,FFD1,3.7*51
$HCHDG,266.5,0.0,E,,*2E
$GPRMC,030006.2,A,4740.81479,N,12224.44108,W,000.00,287.3,190513,016.6,E,D*2F
$PTAK,FFP1,HEEL,@*07
$PGRME,2.4,M,2.4,M,3.4,M*29
$HCHDG,266.4,0.0,E,,*2F
$HCHDG,266.4,0.0,E,,*2F
$GPRMC,030006.4,A,4740.81479,N,12224.44109,W,000.00,287.3,190513,016.6,E,D*28
$GPRMB,A,0.11,L,,N,4741.0622,N,12224.6030,W,0.3,336,0.00,V*43
$PGRME,2.4,M,2.4,M,3.4,M*29
$HCHDG,266.4,0.0,E,,*2F
$HCHDG,266.4,0.0,E,,*2F
$GPRMC,030006.6,A,4740.81479,N,12224.44109,W,000.00,287.3,190513,016.6,E,D*2A
$PGRME,2.4,M,2.4,M,3.4,M*29
$YXXDR,A,5.4,D,PTCH,A,3.8,D,ROLL*57
$HCHDG,266.4,0.0,E,,*2F
$HCHDG,266.4,0.0,E,,*2F
$GPRMC,030006.8,A,4740.81479,N,12224.44109,W,000.00,287.3,190513,016.6,E,D*24
$PGRME,2.4,M,2.4,M,3.4,M*29
$HCHDG,266.5,0.0,E,,*2E
$HCHDG,266.5,0.0,E,,*2E
$GPRMC,030007.0,A,4740.81479,N,12224.44109,W,000.00,287.3,190513,016.6,E,D*2D
$PGRME,2.4,M,2.4,M,3.4,M*29
$HCHDG,266.5,0.0,E,,*2E
$YXXDR,A,5.5,D,PTCH,A,3.7,D,ROLL*59
$PTAK,FFD1,3.7*51
$HCHDG,266.5,0.0,E,,*2E
$GPRMC,030007.2,A,4740.81479,N,12224.44108,W,000.00,287.3,190513,016.6,E,D*2E
$PGRME,2.4,M,2.4,M,3.4,M*29
$HCHDG,266.5,0.0,E,,*2E
$HCHDG,266.5,0.0,E,,*2E
$GPRMC,030007.4,A,4740.81479,N,12224.44109,W,000.00,287.3,190513,016.6,E,D*29
$PGRME,2.4,M,2.4,M,3.4,M*29
$HCHDG,266.5,0.0,E,,*2E
$HCHDG,266.5,0.0,E,,*2E
$GPRMC,030007.6,A,4740.81479,N,12224.44109,W,000.00,287.3,190513,016.6,E,D*2B
$GPRMB,A,0.11,L,,N,4741.0622,N,12224.6030,W,0.3,336,0.00,V*43
$PGRME,2.4,M,2.4,M,3.4,M*29
$YXXDR,A,5.5,D,PTCH,A,3.7,D,ROLL*59
$HCHDG,266.5,0.0,E,,*2E
$HCHDG,266.5,0.0,E,,*2E
$GPRMC,030007.8,A,4740.81479,N,12224.44109,W,000.00,287.3,190513,016.6,E,D*25
$PGRME,2.4,M,2.4,M,3.4,M*29
$HCHDG,266.5,0.0,E,,*2E
$HCHDG,266.5,0.0,E,,*2E
$GPRMC,030008.0,A,4740.81479,N,12224.44109,W,000.00,287.3,190513,016.6,E,D*22
$PGRME,2.4,M,2.4,M,3.4,M*29
$HCHDG,266.5,0.0,E,,*2E
$YXXDR,A,5.5,D,PTCH,A,3.7,D,ROLL*59
$HCHDG,266.5,0.0,E,,*2E
$GPRMC,030008.2,A,4740.81479,N,12224.44109,W,000.00,287.3,190513,016.6,E,D*20
$PGRME,2.4,M,2.4,M,3.4,M*29
$HCHDG,266.5,0.0,E,,*2E
$HCHDG,266.5,0.0,E,,*2E
$GPRMC,030008.4,A,4740.81479,N,12224.44109,W,000.00,287.3,190513,016.6,E,D*26
$PGRME,2.4,M,2.4,M,3.4,M*29
$HCHDG,266.5,0.0,E,,*2E
$HCHDG,266.5,0.0,E,,*2E
$GPRMC,030008.6,A,4740.81479,N,12224.44109,W,000.00,287.3,190513,016.6,E,D*24
$GPRMB,A,0.11,L,,N,4741.0622,N,12224.6030,W,0.3,336,0.00,V*43
$PGRME,2.4,M,2.4,M,3.4,M*29
$YXXDR,A,5.5,D,PTCH,A,3.7,D,ROLL*59
$PTAK,FFD1,3.7*51
$HCHDG,266.5,0.0,E,,*2E
$HCHDG,266.5,0.0,E,,*2E
$GPRMC,030008.8,A,4740.81479,N,12224.44109,W,000.00,287.3,190513,016.6,E,D*2A
$PGRME,2.4,M,2.4,M,3.4,M*29
$HCHDG,266.5,0.0,E,,*2E
$HCHDG,266.5,0.0,E,,*2E
$GPRMC,030009.0,A,4740.81479,N,12224.44109,W,000.00,287.3,190513,016.6,E,D*23
$PGRME,2.4,M,2.4,M,3.4,M*29
$HCHDG,266.5,0.0,E,,*2E
$YXXDR,A,5.5,D,PTCH,A,3.7,D,ROLL*59
$HCHDG,266.4,0.0,E,,*2F
$GPRMC,030009.2,A,4740.81479,N,12224.44109,W,000.00,287.3,190513,016.6,E,D*21
$PGRME,2.4,M,2.4,M,3.4,M*29
$HCHDG,266.4,0.0,E,,*2F
$HCHDG,266.4,0.0,E,,*2F
$GPRMC,030009.4,A,4740.81479,N,12224.44109,W,000.00,287.3,190513,016.6,E,D*27
$PGRME,2.4,M,2.4,M,3.4,M*29
$HCHDG,266.4,0.0,E,,*2F
$HCHDG,266.5,0.0,E,,*2E
$GPRMC,030009.6,A,4740.81479,N,12224.44109,W,000.00,287.3,190513,016.6,E,D*25
$PGRME,2.4,M,2.4,M,3.4,M*29
$YXXDR,A,5.6,D,PTCH,A,3.6,D,ROLL*5B
$HCHDG,266.5,0.0,E,,*2E
$HCHDG,266.5,0.0,E,,*2E
$GPRMC,030009.8,A,4740.81479,N,12224.44109,W,000.00,287.3,190513,016.6,E,D*2B
$GPRMB,A,0.11,L,,N,4741.0622,N,12224.6030,W,0.3,336,0.00,V*43
$PGRME,2.4,M,2.4,M,3.4,M*29
$HCHDG,266.5,0.0,E,,*2E
$HCHDG,266.5,0.0,E,,*2E
$GPRMC,030010.0,A,4740.81479,N,12224.44109,W,000.00,287.3,190513,016.6,E,D*2B
$PGRME,2.4,M,2.4,M,3.4,M*29
$HCHDG,266.5,0.0,E,,*2E
$YXXDR,A,5.6,D,PTCH,A,3.6,D,ROLL*5B
$PTAK,FFD1,3.6*50
$HCHDG,266.4,0.0,E,,*2F
$GPRMC,030010.2,A,4740.81479,N,12224.44109,W,000.00,287.3,190513,016.6,E,D*29
$PTAK,FFP1,HEEL,@*07
$PGRME,2.4,M,2.4,M,3.4,M*29
$HCHDG,266.4,0.0,E,,*2F
$HCHDG,266.4,0.0,E,,*2F
$GPRMC,030010.4,A,4740.81479,N,12224.44109,W,000.00,287.3,190513,016.6,E,D*2F
$PGRME,2.4,M,2.4,M,3.4,M*29
$HCHDG,266.4,0.0,E,,*2F
$HCHDG,266.4,0.0,E,,*2F
$GPRMC,030010.6,A,4740.81479,N,12224.44108,W,000.00,287.3,190513,016.6,E,D*2C
$PGRME,2.4,M,2.4,M,3.4,M*29
$YXXDR,A,5.5,D,PTCH,A,3.7,D,ROLL*59
$HCHDG,266.4,0.0,E,,*2F
$HCHDG,266.4,0.0,E,,*2F
$GPRMC,030010.8,A,4740.81479,N,12224.44108,W,000.00,287.3,190513,016.6,E,D*22
$GPRMB,A,0.11,L,,N,4741.0622,N,12224.6030,W,0.3,336,0.00,V*43
$PGRME,2.4,M,2.4,M,3.4,M*29
$HCHDG,266.4,0.0,E,,*2F
$HCHDG,266.4,0.0,E,,*2F
$GPRMC,030011.0,A,4740.81479,N,12224.44108,W,000.00,287.3,190513,016.6,E,D*2B
$PGRME,2.4,M,2.4,M,3.4,M*29
$HCHDG,266.4,0.0,E,,*2F
$YXXDR,A,5.5,D,PTCH,A,3.7,D,ROLL*59
$PTAK,FFD1,3.7*51
$HCHDG,266.4,0.0,E,,*2F
$GPRMC,030011.2,A,4740.81479,N,12224.44108,W,000.00,287.3,190513,016.6,E,D*29
$PGRME,2.4,M,2.4,M,3.4,M*29
$HCHDG,266.4,0.0,E,,*2F
$HCHDG,266.4,0.0,E,,*2F
$GPRMC,030011.4,A,4740.81479,N,12224.44108,W,000.00,287.3,190513,016.6,E,D*2F
$PGRME,2.4,M,2.4,M,3.4,M*29
$HCHDG,266.4,0.0,E,,*2F
$HCHDG,266.3,0.0,E,,*28
$GPRMC,030011.6,A,4740.81479,N,12224.44108,W,000.01,287.3,190513,016.6,E,D*2C
$PGRME,2.4,M,2.4,M,3.4,M*29
$YXXDR,A,5.6,D,PTCH,A,3.6,D,ROLL*5B
$HCHDG,266.3,0.0,E,,*28
$HCHDG,266.3,0.0,E,,*28
$GPRMC,030011.8,A,4740.81479,N,12224.44108,W,000.00,287.3,190513,016.6,E,D*23
$PGRME,2.4,M,2.4,M,3.4,M*29
$HCHDG,266.3,0.0,E,,*28
$HCHDG,266.4,0.0,E,,*2F
$GPRMC,030012.0,A,4740.81479,N,12224.44108,W,000.01,287.3,190513,016.6,E,D*29
$GPRMB,A,0.11,L,,N,4741.0622,N,12224.6030,W,0.3,336,0.01,V*42
$PGRME,2.4,M,2.4,M,3.4,M*29
$HCHDG,266.4,0.0,E,,*2F
$YXXDR,A,5.5,D,PTCH,A,3.7,D,ROLL*59
$PTAK,FFD1,3.7*51
$HCHDG,266.3,0.0,E,,*28
$GPRMC,030012.2,A,4740.81479,N,12224.44108,W,000.00,287.3,190513,016.6,E,D*2A
$PGRME,2.4,M,2.4,M,3.4,M*29
$HCHDG,266.3,0.0,E,,*28
$HCHDG,266.3,0.0,E,,*28
$GPRMC,030012.4,A,4740.81479,N,12224.44108,W,000.00,287.3,190513,016.6,E,D*2C
$PGRME,2.4,M,2.4,M,3.4,M*29
$HCHDG,266.3,0.0,E,,*28
$HCHDG,266.4,0.0,E,,*2F
$GPRMC,030012.6,A,4740.81479,N,12224.44108,W,000.00,287.3,190513,016.6,E,D*2E
$PGRME,2.4,M,2.4,M,3.4,M*29
$YXXDR,A,5.5,D,PTCH,A,3.7,D,ROLL*59
$HCHDG,266.5,0.0,E,,*2E
$HCHDG,266.5,0.0,E,,*2E
$GPRMC,030012.8,A,4740.81478,N,12224.44108,W,000.00,287.3,190513,016.6,E,D*21
$PGRME,2.4,M,2.4,M,3.4,M*29
$HCHDG,266.5,0.0,E,,*2E
$HCHDG,266.5,0.0,E,,*2E
$GPRMC,030013.0,A,4740.81478,N,12224.44108,W,000.00,287.3,190513,016.6,E,D*28
$GPRMB,A,0.11,L,,N,4741.0622,N,12224.6030,W,0.3,336,0.00,V*43
$PGRME,2.4,M,2.4,M,3.4,M*29
$HCHDG,266.5,0.0,E,,*2E
$YXXDR,A,5.6,D,PTCH,A,3.6,D,ROLL*5B
$PTAK,FFD1,3.6*50
$HCHDG,266.5,0.0,E,,*2E
$GPRMC,030013.2,A,4740.81478,N,12224.44108,W,000.00,287.3,190513,016.6,E,D*2A
$PGRME,2.4,M,2.4,M,3.4,M*29
$HCHDG,266.5,0.0,E,,*2E
$HCHDG,266.5,0.0,E,,*2E
$GPRMC,030013.4,A,4740.81478,N,12224.44107,W,000.00,287.3,190513,016.6,E,D*23
$PGRME,2.4,M,2.4,M,3.4,M*29
$HCHDG,266.5,0.0,E,,*2E
$HCHDG,266.5,0.0,E,,*2E
$GPRMC,030013.6,A,4740.81478,N,12224.44107,W,000.00,287.3,190513,016.6,E,D*21
$PGRME,2.4,M,2.4,M,3.4,M*29
$YXXDR,A,5.4,D,PTCH,A,3.6,D,ROLL*59
$HCHDG,266.5,0.0,E,,*2E
$HCHDG,266.5,0.0,E,,*2E
$GPRMC,030013.8,A,4740.81478,N,12224.44107,W,000.00,287.3,190513,016.6,E,D*2F
$PGRME,2.4,M,2.4,M,3.4,M*29
$HCHDG,266.5,0.0,E,,*2E
$HCHDG,266.5,0.0,E,,*2E
$GPRMC,030014.0,A,4740.81478,N,12224.44107,W,000.00,287.3,190513,016.6,E,D*20
$GPRMB,A,0.11,L,,N,4741.0622,N,12224.6030,W,0.3,336,0.00,V*43
$PGRME,2.4,M,2.4,M,3.4,M*29
$HCHDG,266.5,0.0,E,,*2E
$YXXDR,A,5.4,D,PTCH,A,3.6,D,ROLL*59
$PTAK,FFP1,HEEL,@*07
$HCHDG,266.5,0.0,E,,*2E
$GPRMC,030014.2,A,4740.81478,N,12224.44107,W,000.00,287.3,190513,016.6,E,D*22
$PGRME,2.4,M,2.4,M,3.4,M*29
$HCHDG,266.5,0.0,E,,*2E
$HCHDG,266.5,0.0,E,,*2E
$GPRMC,030014.4,A,4740.81478,N,12224.44107,W,000.00,287.3,190513,016.6,E,D*24
$PGRME,2.4,M,2.4,M,3.4,M*29
$HCHDG,266.5,0.0,E,,*2E
$HCHDG,266.5,0.0,E,,*2E
$GPRMC,030014.6,A,4740.81478,N,12224.44106,W,000.00,287.3,190513,016.6,E,D*27
$PGRME,2.4,M,2.4,M,3.4,M*29
$YXXDR,A,5.6,D,PTCH,A,3.6,D,ROLL*5B
$PTAK,FFD1,3.6*50
$HCHDG,266.5,0.0,E,,*2E
$HCHDG,266.5,0.0,E,,*2E
$GPRMC,030014.8,A,4740.81478,N,12224.44106,W,000.00,287.3,190513,016.6,E,D*29
$PGRME,2.4,M,2.4,M,3.4,M*29
$HCHDG,266.5,0.0,E,,*2E
$HCHDG,266.5,0.0,E,,*2E
$GPRMC,030015.0,A,4740.81478,N,12224.44106,W,000.00,287.3,190513,016.6,E,D*20
$GPRMB,A,0.11,L,,N,4741.0622,N,12224.6030,W,0.3,336,0.00,V*43
$PGRME,2.4,M,2.4,M,3.4,M*29
$HCHDG,266.5,0.0,E,,*2E
$YXXDR,A,5.5,D,PTCH,A,3.7,D,ROLL*59
$HCHDG,266.5,0.0,E,,*2E
$GPRMC,030015.2,A,4740.81478,N,12224.44106,W,000.00,287.3,190513,016.6,E,D*22
$PGRME,2.4,M,2.4,M,3.4,M*29
$HCHDG,266.5,0.0,E,,*2E
$HCHDG,266.5,0.0,E,,*2E
$GPRMC,030015.4,A,4740.81478,N,12224.44106,W,000.00,287.3,190513,016.6,E,D*24
$PGRME,2.4,M,2.4,M,3.4,M*29
$HCHDG,266.5,0.0,E,,*2E
$HCHDG,266.5,0.0,E,,*2E
$GPRMC,030015.6,A,4740.81478,N,12224.44106,W,000.01,287.3,190513,016.6,E,D*27
$PGRME,2.4,M,2.4,M,3.4,M*29
$YXXDR,A,5.5,D,PTCH,A,3.7,D,ROLL*59
$PTAK,FFD1,3.7*51
$HCHDG,266.5,0.0,E,,*2E
$HCHDG,266.5,0.0,E,,*2E
$GPRMC,030015.8,A,4740.81478,N,12224.44106,W,000.00,287.3,190513,016.6,E,D*28
$PGRME,2.4,M,2.4,M,3.4,M*29
$HCHDG,266.4,0.0,E,,*2F
$HCHDG,266.4,0.0,E,,*2F
$GPRMC,030016.0,A,4740.81478,N,12224.44105,W,000.00,287.3,190513,016.6,E,D*20
$PGRME,2.4,M,2.4,M,3.4,M*29
$HCHDG,266.4,0.0,E,,*2F
$YXXDR,A,5.5,D,PTCH,A,3.6,D,ROLL*58
$HCHDG,266.5,0.0,E,,*2E
$GPRMC,030016.2,A,4740.81478,N,12224.44105,W,000.00,287.3,190513,016.6,E,D*22
$GPRMB,A,0.11,L,,N,4741.0622,N,12224.6030,W,0.3,336,0.00,V*43
$PGRME,2.4,M,2.4,M,3.4,M*29
$HCHDG,266.5,0.0,E,,*2E
$HCHDG,266.4,0.0,E,,*2F
$GPRMC,030016.4,A,4740.81478,N,12224.44105,W,000.00,287.3,190513,016.6,E,D*24
$PGRME,2.4,M,2.4,M,3.4,M*29
$HCHDG,266.4,0.0,E,,*2F
$HCHDG,266.4,0.0,E,,*2F
$GPRMC,030016.6,A,4740.81478,N,12224.44105,W,000.00,287.3,190513,016.6,E,D*26
$PGRME,2.4,M,2.4,M,3.4,M*29
$YXXDR,A,5.4,D,PTCH,A,3.6,D,ROLL*59
$PTAK,FFD1,3.6*50
$HCHDG,266.4,0.0,E,,*2F
$HCHDG,266.4,0.0,E,,*2F
$GPRMC,030016.8,A,4740.81478,N,12224.44105,W,000.00,287.3,190513,016.6,E,D*28
$PGRME,2.4,M,2.4,M,3.4,M*29
$HCHDG,266.4,0.0,E,,*2F
$HCHDG,266.4,0.0,E,,*2F
$GPRMC,030017.0,A,4740.81478,N,12224.44105,W,000.00,287.3,190513,016.6,E,D*21
$PGRME,2.4,M,2.4,M,3.4,M*29
$HCHDG,266.4,0.0,E,,*2F
$YXXDR,A,5.5,D,PTCH,A,3.8,D,ROLL*56
$HCHDG,266.4,0.0,E,,*2F
$GPRMC,030017.2,A,4740.81478,N,12224.44104,W,000.00,287.3,190513,016.6,E,D*22
$GPRMB,A,0.11,L,,N,4741.0622,N,12224.6030,W,0.3,336,0.00,V*43
$PGRME,2.4,M,2.4,M,3.4,M*29
$HCHDG,266.4,0.0,E,,*2F
$HCHDG,266.4,0.0,E,,*2F
$GPRMC,030017.4,A,4740.81478,N,12224.44104,W,000.00,287.3,190513,016.6,E,D*24
$PGRME,2.4,M,2.4,M,3.4,M*29
$HCHDG,266.4,0.0,E,,*2F
$HCHDG,266.4,0.0,E,,*2F
$GPRMC,030017.6,A,4740.81478,N,12224.44104,W,000.00,287.3,190513,016.6,E,D*26
$PGRME,2.4,M,2.4,M,3.4,M*29
$YXXDR,A,5.5,D,PTCH,A,3.7,D,ROLL*59
$PTAK,FFD1,3.7*51
$HCHDG,266.4,0.0,E,,*2F
$HCHDG,266.4,0.0,E,,*2F
$GPRMC,030017.8,A,4740.81478,N,12224.44104,W,000.00,287.3,190513,016.6,E,D*28
$PGRME,2.4,M,2.4,M,3.4,M*29
$HCHDG,266.4,0.0,E,,*2F
$HCHDG,266.4,0.0,E,,*2F
$GPRMC,030018.0,A,4740.81478,N,12224.44104,W,000.00,287.3,190513,016.6,E,D*2F
$PGRME,2.4,M,2.4,M,3.4,M*29
$HCHDG,266.4,0.0,E,,*2F
$YXXDR,A,5.4,D,PTCH,A,3.6,D,ROLL*59
$HCHDG,266.4,0.0,E,,*2F
$GPRMC,030018.2,A,4740.81478,N,12224.44103,W,000.00,287.3,190513,016.6,E,D*2A
$PTAK,FFP1,HEEL,@*07
$PGRME,2.4,M,2.4,M,3.4,M*29
$HCHDG,266.4,0.0,E,,*2F
$HCHDG,266.4,0.0,E,,*2F
$GPRMC,030018.4,A,4740.81478,N,12224.44103,W,000.00,287.3,190513,016.6,E,D*2C
$GPRMB,A,0.11,L,,N,4741.0622,N,12224.6030,W,0.3,336,0.00,V*43
$PGRME,2.4,M,2.4,M,3.4,M*29
$HCHDG,266.4,0.0,E,,*2F
$HCHDG,266.4,0.0,E,,*2F
$GPRMC,030018.6,A,4740.81477,N,12224.44103,W,000.00,287.3,190513,016.6,E,D*21
$PGRME,2.4,M,2.4,M,3.4,M*29
$YXXDR,A,5.5,D,PTCH,A,3.7,D,ROLL*59
$PTAK,FFD1,3.7*51
$HCHDG,266.4,0.0,E,,*2F
$HCHDG,266.4,0.0,E,,*2F
$GPRMC,030018.8,A,4740.81477,N,12224.44103,W,000.00,287.3,190513,016.6,E,D*2F
$PGRME,2.4,M,2.4,M,3.4,M*29
$HCHDG,266.4,0.0,E,,*2F
$HCHDG,266.4,0.0,E,,*2F
$GPRMC,030019.0,A,4740.81477,N,12224.44102,W,000.00,287.3,190513,016.6,E,D*27
$PGRME,2.4,M,2.4,M,3.4,M*29
$HCHDG,266.4,0.0,E,,*2F
$YXXDR,A,5.5,D,PTCH,A,3.7,D,ROLL*59
$HCHDG,266.4,0.0,E,,*2F
$GPRMC,030019.2,A,4740.81477,N,12224.44102,W,000.00,287.3,190513,016.6,E,D*25
$PGRME,2.4,M,2.4,M,3.4,M*29
$HCHDG,266.4,0.0,E,,*2F
$HCHDG,266.4,0.0,E,,*2F
$GPRMC,030019.4,A,4740.81477,N,12224.44102,W,000.00,287.3,190513,016.6,E,D*23
$PGRME,2.4,M,2.4,M,3.4,M*29
$HCHDG,266.4,0.0,E,,*2F
$HCHDG,266.4,0.0,E,,*2F
$GPRMC,030019.6,A,4740.81477,N,12224.44102,W,000.00,287.3,190513,016.6,E,D*21
$GPRMB,A,0.11,L,,N,4741.0622,N,12224.6030,W,0.3,336,0.00,V*43
$PGRME,2.4,M,2.4,M,3.4,M*29
$YXXDR,A,5.5,D,PTCH,A,3.7,D,ROLL*59
$PTAK,FFD1,3.7*51
$HCHDG,266.4,0.0,E,,*2F
$HCHDG,266.4,0.0,E,,*2F
$GPRMC,030019.8,A,4740.81477,N,12224.44102,W,000.00,287.3,190513,016.6,E,D*2F
$PGRME,2.4,M,2.4,M,3.4,M*29
$HCHDG,266.4,0.0,E,,*2F
$HCHDG,266.4,0.0,E,,*2F
$GPRMC,030020.0,A,4740.81477,N,12224.44102,W,000.00,287.3,190513,016.6,E,D*2D
$PGRME,2.4,M,2.4,M,3.4,M*29
$HCHDG,266.4,0.0,E,,*2F
$YXXDR,A,5.5,D,PTCH,A,3.8,D,ROLL*56
$HCHDG,266.4,0.0,E,,*2F
$GPRMC,030020.2,A,4740.81477,N,12224.44101,W,000.00,287.3,190513,016.6,E,D*2C
$PGRME,2.4,M,2.4,M,3.4,M*29
$HCHDG,266.4,0.0,E,,*2F
$HCHDG,266.4,0.0,E,,*2F
$GPRMC,030020.4,A,4740.81477,N,12224.44101,W,000.00,287.3,190513,016.6,E,D*2A
$PGRME,2.4,M,2.4,M,3.4,M*29
$HCHDG,266.4,0.0,E,,*2F
$HCHDG,266.4,0.0,E,,*2F
$GPRMC,030020.6,A,4740.81477,N,12224.44101,W,000.00,287.3,190513,016.6,E,D*28
$GPRMB,A,0.11,L,,N,4741.0622,N,12224.6030,W,0.3,336,0.00,V*43
$PGRME,2.4,M,2.4,M,3.4,M*29
$YXXDR,A,5.5,D,PTCH,A,3.7,D,ROLL*59
$HCHDG,266.3,0.0,E,,*28
$HCHDG,266.3,0.0,E,,*28
$GPRMC,030020.8,A,4740.81477,N,12224.44101,W,000.00,287.3,190513,016.6,E,D*26
$PGRME,2.4,M,2.4,M,3.4,M*29
$HCHDG,266.4,0.0,E,,*2F
$HCHDG,266.4,0.0,E,,*2F
$GPRMC,030021.0,A,4740.81477,N,12224.44101,W,000.00,287.3,190513,016.6,E,D*2F
$PGRME,2.4,M,2.4,M,3.4,M*29
$HCHDG,266.4,0.0,E,,*2F
$YXXDR,A,5.5,D,PTCH,A,3.7,D,ROLL*59
$PTAK,FFD1,3.7*51
$HCHDG,266.4,0.0,E,,*2F
$GPRMC,030021.2,A,4740.81477,N,12224.44101,W,000.00,287.3,190513,016.6,E,D*2D
$PGRME,2.4,M,2.4,M,3.4,M*29
$HCHDG,266.4,0.0,E,,*2F
$HCHDG,266.4,0.0,E,,*2F
$GPRMC,030021.4,A,4740.81477,N,12224.44101,W,000.00,287.3,190513,016.6,E,D*2B
$PGRME,2.4,M,2.4,M,3.4,M*29
$HCHDG,266.4,0.0,E,,*2F
$HCHDG,266.4,0.0,E,,*2F
$GPRMC,030021.6,A,4740.81477,N,12224.44101,W,000.00,287.3,190513,016.6,E,D*29
$GPRMB,A,0.11,L,,N,4741.0622,N,12224.6030,W,0.3,336,0.00,V*43
$PGRME,2.4,M,2.4,M,3.4,M*29
$YXXDR,A,5.5,D,PTCH,A,3.8,D,ROLL*56
$HCHDG,266.3,0.0,E,,*28
$HCHDG,266.3,0.0,E,,*28
$GPRMC,030021.8,A,4740.81477,N,12224.44101,W,000.00,287.3,190513,016.6,E,D*27
$PGRME,2.4,M,2.4,M,3.4,M*29
$HCHDG,266.3,0.0,E,,*28
$HCHDG,266.3,0.0,E,,*28
$GPRMC,030022.0,A,4740.81477,N,12224.44101,W,000.00,287.3,190513,016.6,E,D*2C
$PGRME,2.4,M,2.4,M,3.4,M*29
$HCHDG,266.3,0.0,E,,*28
$YXXDR,A,5.5,D,PTCH,A,3.7,D,ROLL*59
$HCHDG,266.3,0.0,E,,*28
$GPRMC,030022.2,A,4740.81477,N,12224.44101,W,000.00,287.3,190513,016.6,E,D*2E
$PTAK,FFP1,HEEL,@*07
$PGRME,2.4,M,2.4,M,3.4,M*29
$HCHDG,266.2,0.0,E,,*29
$HCHDG,266.2,0.0,E,,*29
$GPRMC,030022.4,A,4740.81477,N,12224.44101,W,000.00,287.3,190513,016.6,E,D*28
$PGRME,2.4,M,2.4,M,3.4,M*29
$HCHDG,266.2,0.0,E,,*29
$HCHDG,266.2,0.0,E,,*29
$GPRMC,030022.6,A,4740.81477,N,12224.44101,W,000.00,287.3,190513,016.6,E,D*2A
$GPRMB,A,0.11,L,,N,4741.0622,N,12224.6030,W,0.3,336,0.00,V*43
$PGRME,2.4,M,2.4,M,3.4,M*29
$YXXDR,A,5.5,D,PTCH,A,3.7,D,ROLL*59
$PTAK,FFD1,3.7*51
$HCHDG,266.4,0.0,E,,*2F
$HCHDG,266.3,0.0,E,,*28
$GPRMC,030022.8,A,4740.81476,N,12224.44101,W,000.00,287.3,190513,016.6,E,D*25
$PGRME,2.4,M,2.4,M,3.4,M*29
$HCHDG,266.3,0.0,E,,*28
$HCHDG,266.3,0.0,E,,*28
$GPRMC,030023.0,A,4740.81476,N,12224.44101,W,000.00,287.3,190513,016.6,E,D*2C
$PGRME,2.4,M,2.4,M,3.4,M*29
$HCHDG,266.3,0.0,E,,*28
$YXXDR,A,5.5,D,PTCH,A,3.7,D,ROLL*59
$HCHDG,266.3,0.0,E,,*28
$GPRMC,030023.2,A,4740.81476,N,12224.44101,W,000.00,287.3,190513,016.6,E,D*2E
$PGRME,2.4,M,2.4,M,3.4,M*29
$HCHDG,266.3,0.0,E,,*28
$HCHDG,266.3,0.0,E,,*28
$GPRMC,030023.4,A,4740.81476,N,12224.44100,W,000.01,287.3,190513,016.6,E,D*28
$PGRME,2.4,M,2.4,M,3.4,M*29
$HCHDG,266.3,0.0,E,,*28
$HCHDG,266.3,0.0,E,,*28
$GPRMC,030023.6,A,4740.81476,N,12224.44100,W,000.00,287.3,190513,016.6,E,D*2B
$GPRMB,A,0.11,L,,N,4741.0622,N,12224.6030,W,0.3,336,0.00,V*43
$PGRME,2.4,M,2.4,M,3.4,M*29
$YXXDR,A,5.5,D,PTCH,A,3.7,D,ROLL*59
$PTAK,FFD1,3.7*51
$HCHDG,266.3,0.0,E,,*28
$HCHDG,266.3,0.0,E,,*28
$GPRMC,030023.8,A,4740.81476,N,12224.44100,W,000.00,287.3,190513,016.6,E,D*25
$PGRME,2.4,M,2.4,M,3.4,M*29
$HCHDG,266.3,0.0,E,,*28
$HCHDG,266.3,0.0,E,,*28
$GPRMC,030024.0,A,4740.81476,N,12224.44100,W,000.01,287.3,190513,016.6,E,D*2B
$PGRME,2.4,M,2.4,M,3.4,M*29
$HCHDG,266.3,0.0,E,,*28
$YXXDR,A,5.5,D,PTCH,A,3.7,D,ROLL*59
$HCHDG,266.2,0.0,E,,*29
$GPRMC,030024.2,A,4740.81476,N,12224.44100,W,000.00,287.3,190513,016.6,E,D*28
$PGRME,2.4,M,2.4,M,3.4,M*29
$HCHDG,266.3,0.0,E,,*28
$HCHDG,266.3,0.0,E,,*28
$GPRMC,030024.4,A,4740.81476,N,12224.44100,W,000.00,287.3,190513,016.6,E,D*2E
$PGRME,2.4,M,2.4,M,3.4,M*29
$HCHDG,266.3,0.0,E,,*28
$HCHDG,266.3,0.0,E,,*28
$GPRMC,030024.6,A,4740.81476,N,12224.44100,W,000.00,287.3,190513,016.6,E,D*2C
$PGRME,2.4,M,2.4,M,3.4,M*29
$YXXDR,A,5.6,D,PTCH,A,3.6,D,ROLL*5B
$HCHDG,266.3,0.0,E,,*28
$HCHDG,266.3,0.0,E,,*28
$GPRMC,030024.8,A,4740.81476,N,12224.44100,W,000.00,287.3,190513,016.6,E,D*22
$GPRMB,A,0.11,L,,N,4741.0622,N,12224.6030,W,0.3,336,0.00,V*43
$PGRME,2.4,M,2.4,M,3.4,M*29
$HCHDG,266.3,0.0,E,,*28
$HCHDG,266.3,0.0,E,,*28
$GPRMC,030025.0,A,4740.81476,N,12224.44101,W,000.00,287.3,190513,016.6,E,D*2A
$PGRME,2.4,M,2.4,M,3.4,M*29
$HCHDG,266.3,0.0,E,,*28
$YXXDR,A,5.5,D,PTCH,A,3.7,D,ROLL*59
$PTAK,FFD1,3.7*51
$HCHDG,266.3,0.0,E,,*28
$GPRMC,030025.2,A,4740.81476,N,12224.44100,W,000.00,287.3,190513,016.6,E,D*29
$PGRME,2.4,M,2.4,M,3.4,M*29
$HCHDG,266.3,0.0,E,,*28
$HCHDG,266.3,0.0,E,,*28
$GPRMC,030025.4,A,4740.81476,N,12224.44101,W,000.00,287.3,190513,016.6,E,D*2E
$PGRME,2.4,M,2.4,M,3.4,M*29
$HCHDG,266.3,0.0,E,,*28
$HCHDG,266.3,0.0,E,,*28
$GPRMC,030025.6,A,4740.81476,N,12224.44101,W,000.00,287.3,190513,016.6,E,D*2C
$PGRME,2.4,M,2.4,M,3.4,M*29
$YXXDR,A,5.5,D,PTCH,A,3.7,D,ROLL*59
$HCHDG,266.4,0.0,E,,*2F
$HCHDG,266.4,0.0,E,,*2F
$GPRMC,030025.8,A,4740.81476,N,12224.44101,W,000.00,287.3,190513,016.6,E,D*22
$GPRMB,A,0.11,L,,N,4741.0622,N,12224.6030,W,0.3,336,0.00,V*43
$PGRME,2.4,M,2.4,M,3.4,M*29
$HCHDG,266.4,0.0,E,,*2F
$HCHDG,266.4,0.0,E,,*2F
$GPRMC,030026.0,A,4740.81476,N,12224.44100,W,000.01,287.3,190513,016.6,E,D*29
$PGRME,2.4,M,2.4,M,3.4,M*29
$HCHDG,266.4,0.0,E,,*2F
$YXXDR,A,5.6,D,PTCH,A,3.6,D,ROLL*5B
$HCHDG,266.4,0.0,E,,*2F
$GPRMC,030026.2,A,4740.81476,N,12224.44100,W,000.00,287.3,190513,016.6,E,D*2A
$PTAK,FFP1,HEEL,@*07
$PGRME,2.4,M,2.4,M,3.4,M*29
$HCHDG,266.5,0.0,E,,*2E
$HCHDG,266.5,0.0,E,,*2E
$GPRMC,030026.4,A,4740.81476,N,12224.44100,W,000.00,287.3,190513,016.6,E,D*2C
$PGRME,2.4,M,2.4,M,3.4,M*29
$HCHDG,266.5,0.0,E,,*2E
$HCHDG,266.5,0.0,E,,*2E
$GPRMC,030026.6,A,4740.81476,N,12224.44101,W,000.00,287.3,190513,016.6,E,D*2F
$PGRME,2.4,M,2.4,M,3.4,M*29
$YXXDR,A,5.5,D,PTCH,A,3.7,D,ROLL*59
$PTAK,FFD1,3.7*51
$HCHDG,266.5,0.0,E,,*2E
$HCHDG,266.5,0.0,E,,*2E
$GPRMC,030026.8,A,4740.81476,N,12224.44101,W,000.00,287.3,190513,016.6,E,D*21
$PGRME,2.4,M,2.4,M,3.4,M*29
$HCHDG,266.5,0.0,E,,*2E
$HCHDG,266.5,0.0,E,,*2E
$GPRMC,030027.0,A,4740.81476,N,12224.44101,W,000.00,287.3,190513,016.6,E,D*28
$GPRMB,A,0.11,L,,N,4741.0622,N,12224.6030,W,0.3,336,0.00,V*43
$PGRME,2.4,M,2.4,M,3.4,M*29
$HCHDG,266.5,0.0,E,,*2E
$YXXDR,A,5.5,D,PTCH,A,3.7,D,ROLL*59
$HCHDG,266.5,0.0,E,,*2E
$GPRMC,030027.2,A,4740.81476,N,12224.44101,W,000.00,287.3,190513,016.6,E,D*2A
$PGRME,2.4,M,2.4,M,3.4,M*29
$HCHDG,266.5,0.0,E,,*2E
$HCHDG,266.5,0.0,E,,*2E
$GPRMC,030027.4,A,4740.81476,N,12224.44101,W,000.00,287.3,190513,016.6,E,D*2C
$PGRME,2.4,M,2.4,M,3.4,M*29
$HCHDG,266.5,0.0,E,,*2E
$HCHDG,266.5,0.0,E,,*2E
$GPRMC,030027.6,A,4740.81476,N,12224.44101,W,000.00,287.3,190513,016.6,E,D*2E
$PGRME,2.4,M,2.4,M,3.4,M*29
$YXXDR,A,5.5,D,PTCH,A,3.7,D,ROLL*59
$HCHDG,266.5,0.0,E,,*2E
$HCHDG,266.5,0.0,E,,*2E
$GPRMC,030027.8,A,4740.81476,N,12224.44101,W,000.00,287.3,190513,016.6,E,D*20
$PGRME,2.4,M,2.4,M,3.4,M*29
$HCHDG,266.4,0.0,E,,*2F
$HCHDG,266.5,0.0,E,,*2E
$GPRMC,030028.0,A,4740.81476,N,12224.44101,W,000.00,287.3,190513,016.6,E,D*27
$PGRME,2.4,M,2.4,M,3.4,M*29
$HCHDG,266.5,0.0,E,,*2E
$YXXDR,A,5.5,D,PTCH,A,3.7,D,ROLL*59
$PTAK,FFD1,3.7*51
$HCHDG,266.4,0.0,E,,*2F
$GPRMC,030028.2,A,4740.81476,N,12224.44101,W,000.00,287.3,190513,016.6,E,D*25
$GPRMB,A,0.11,L,,N,4741.0622,N,12224.6030,W,0.3,336,0.00,V*43
$PGRME,2.4,M,2.4,M,3.4,M*29
$HCHDG,266.4,0.0,E,,*2F
$HCHDG,266.3,0.0,E,,*28
$GPRMC,030028.4,A,4740.81476,N,12224.44101,W,000.00,287.3,190513,016.6,E,D*23
$PGRME,2.4,M,2.4,M,3.4,M*29
$HCHDG,266.3,0.0,E,,*28
$HCHDG,266.3,0.0,E,,*28
$GPRMC,030028.6,A,4740.81476,N,12224.44101,W,000.00,287.3,190513,016.6,E,D*21
$PGRME,2.4,M,2.4,M,3.4,M*29
$YXXDR,A,5.5,D,PTCH,A,3.7,D,ROLL*59
$HCHDG,266.3,0.0,E,,*28
$HCHDG,266.3,0.0,E,,*28
$GPRMC,030028.8,A,4740.81476,N,12224.44101,W,000.00,287.3,190513,016.6,E,D*2F
$PGRME,2.4,M,2.4,M,3.4,M*29
$HCHDG,266.3,0.0,E,,*28
$HCHDG,266.3,0.0,E,,*28
$GPRMC,030029.0,A,4740.81476,N,12224.44101,W,000.00,287.3,190513,016.6,E,D*26
$PGRME,2.4,M,2.4,M,3.4,M*29
$HCHDG,266.3,0.0,E,,*28
$YXXDR,A,5.5,D,PTCH,A,3.7,D,ROLL*59
$PTAK,FFD1,3.7*51
$HCHDG,266.3,0.0,E,,*28
$GPRMC,030029.2,A,4740.81476,N,12224.44101,W,000.00,287.3,190513,016.6,E,D*24
$PGRME,2.4,M,2.4,M,3.4,M*29
$HCHDG,266.3,0.0,E,,*28
$HCHDG,266.3,0.0,E,,*28
$GPRMC,030029.4,A,4740.81476,N,12224.44101,W,000.00,287.3,190513,016.6,E,D*22
$GPRMB,A,0.11,L,,N,4741.0622,N,12224.6030,W,0.3,336,0.00,V*43
$PGRME,2.4,M,2.4,M,3.4,M*29
$HCHDG,266.3,0.0,E,,*28
$HCHDG,266.3,0.0,E,,*28
$GPRMC,030029.6,A,4740.81476,N,12224.44101,W,000.01,287.3,190513,016.6,E,D*21
$PGRME,2.4,M,2.4,M,3.4,M*29
$YXXDR,A,5.5,D,PTCH,A,3.7,D,ROLL*59
$HCHDG,266.3,0.0,E,,*28
$HCHDG,266.3,0.0,E,,*28
$GPRMC,030029.8,A,4740.81476,N,12224.44101,W,000.00,287.3,190513,016.6,E,D*2E
$PGRME,2.4,M,2.4,M,3.4,M*29
$HCHDG,266.3,0.0,E,,*28
$HCHDG,266.3,0.0,E,,*28
$GPRMC,030030.0,A,4740.81476,N,12224.44102,W,000.01,287.3,190513,016.6,E,D*2C
$PGRME,2.4,M,2.4,M,3.4,M*29
$HCHDG,266.3,0.0,E,,*28
$YXXDR,A,5.5,D,PTCH,A,3.7,D,ROLL*59
$PTAK,FFD1,3.7*51
$HCHDG,266.3,0.0,E,,*28
$GPRMC,030030.2,A,4740.81476,N,12224.44102,W,000.01,287.3,190513,016.6,E,D*2E
$PTAK,FFP1,HEEL,@*07
$PGRME,2.4,M,2.4,M,3.4,M*29
$HCHDG,266.3,0.0,E,,*28
$HCHDG,266.4,0.0,E,,*2F
$GPRMC,030030.4,A,4740.81476,N,12224.44102,W,000.00,287.3,190513,016.6,E,D*29
$GPRMB,A,0.11,L,,N,4741.0622,N,12224.6030,W,0.3,336,0.00,V*43
$PGRME,2.4,M,2.4,M,3.4,M*29
$HCHDG,266.4,0.0,E,,*2F
$HCHDG,266.4,0.0,E,,*2F
$GPRMC,030030.6,A,4740.81476,N,12224.44102,W,000.00,287.3,190513,016.6,E,D*2B
$PGRME,2.4,M,2.4,M,3.4,M*29
$YXXDR,A,5.4,D,PTCH,A,3.6,D,ROLL*59
$HCHDG,266.4,0.0,E,,*2F
$HCHDG,266.4,0.0,E,,*2F
$GPRMC,030030.8,A,4740.81476,N,12224.44102,W,000.00,287.3,190513,016.6,E,D*25
$PGRME,2.4,M,2.4,M,3.4,M*29
$HCHDG,266.4,0.0,E,,*2F
$HCHDG,266.4,0.0,E,,*2F
$GPRMC,030031.0,A,4740.81476,N,12224.44102,W,000.00,287.3,190513,016.6,E,D*2C
$PGRME,2.4,M,2.4,M,3.4,M*29
$HCHDG,266.4,0.0,E,,*2F
$YXXDR,A,5.5,D,PTCH,A,3.7,D,ROLL*59
$HCHDG,266.4,0.0,E,,*2F
$GPRMC,030031.2,A,4740.81476,N,12224.44102,W,000.00,287.3,190513,016.6,E,D*2E
$PGRME,2.4,M,2.4,M,3.4,M*29
$HCHDG,266.4,0.0,E,,*2F
$HCHDG,266.4,0.0,E,,*2F
$GPRMC,030031.4,A,4740.81476,N,12224.44102,W,000.00,287.3,190513,016.6,E,D*28
$PGRME,2.4,M,2.4,M,3.4,M*29
$HCHDG,266.4,0.0,E,,*2F
$HCHDG,266.4,0.0,E,,*2F
$GPRMC,030031.6,A,4740.81476,N,12224.44102,W,000.00,287.3,190513,016.6,E,D*2A
$GPRMB,A,0.11,L,,N,4741.0622,N,12224.6030,W,0.3,336,0.00,V*43
$PGRME,2.4,M,2.4,M,3.4,M*29
$YXXDR,A,5.6,D,PTCH,A,3.6,D,ROLL*5B
$PTAK,FFD1,3.6*50
$HCHDG,266.4,0.0,E,,*2F
$HCHDG,266.4,0.0,E,,*2F
$GPRMC,030031.8,A,4740.81476,N,12224.44102,W,000.00,287.3,190513,016.6,E,D*24
$PGRME,2.4,M,2.4,M,3.4,M*29
$HCHDG,266.4,0.0,E,,*2F
$HCHDG,266.4,0.0,E,,*2F
$GPRMC,030032.0,A,4740.81476,N,12224.44102,W,000.00,287.3,190513,016.6,E,D*2F
$PGRME,2.4,M,2.4,M,3.4,M*29
$HCHDG,266.4,0.0,E,,*2F
$YXXDR,A,5.5,D,PTCH,A,3.7,D,ROLL*59
$HCHDG,266.4,0.0,E,,*2F
$GPRMC,030032.2,A,4740.81476,N,12224.44102,W,000.01,287.3,190513,016.6,E,D*2C
$PGRME,2.4,M,2.4,M,3.4,M*29
$HCHDG,266.4,0.0,E,,*2F
$HCHDG,266.4,0.0,E,,*2F
$GPRMC,030032.4,A,4740.81476,N,12224.44102,W,000.00,287.3,190513,016.6,E,D*2B
$PGRME,2.4,M,2.4,M,3.4,M*29
$HCHDG,266.4,0.0,E,,*2F
$HCHDG,266.4,0.0,E,,*2F
$GPRMC,030032.6,A,4740.81476,N,12224.44102,W,000.00,287.3,190513,016.6,E,D*29
$GPRMB,A,0.11,L,,N,4741.0622,N,12224.6030,W,0.3,336,0.00,V*43
$PGRME,2.4,M,2.4,M,3.4,M*29
$YXXDR,A,5.6,D,PTCH,A,3.6,D,ROLL*5B
$PTAK,FFD1,3.6*50
$HCHDG,266.4,0.0,E,,*2F
$HCHDG,266.4,0.0,E,,*2F
$GPRMC,030032.8,A,4740.81476,N,12224.44103,W,000.00,287.3,190513,016.6,E,D*26
$PGRME,2.4,M,2.4,M,3.4,M*29
$HCHDG,266.4,0.0,E,,*2F
$HCHDG,266.3,0.0,E,,*28
$GPRMC,030033.0,A,4740.81476,N,12224.44103,W,000.00,287.3,190513,016.6,E,D*2F
$PGRME,2.4,M,2.4,M,3.4,M*29
$HCHDG,266.3,0.0,E,,*28
$YXXDR,A,5.5,D,PTCH,A,3.7,D,ROLL*59
$HCHDG,266.3,0.0,E,,*28
$GPRMC,030033.2,A,4740.81476,N,12224.44103,W,000.00,287.3,190513,016.6,E,D*2D
$PGRME,2.4,M,2.4,M,3.4,M*29
$HCHDG,266.3,0.0,E,,*28
$HCHDG,266.3,0.0,E,,*28
$GPRMC,030033.4,A,4740.81476,N,12224.44103,W,000.00,287.3,190513,016.6,E,D*2B
$PGRME,2.4,M,2.4,M,3.4,M*29
$HCHDG,266.3,0.0,E,,*28
$HCHDG,266.3,0.0,E,,*28
$GPRMC,030033.6,A,4740.81476,N,12224.44103,W,000.00,287.3,190513,016.6,E,D*29
$GPRMB,A,0.11,L,,N,4741.0622,N,12224.6030,W,0.3,336,0.00,V*43
$PGRME,2.4,M,2.4,M,3.4,M*29
$YXXDR,A,5.4,D,PTCH,A,3.6,D,ROLL*59
$HCHDG,266.4,0.0,E,,*2F
$HCHDG,266.4,0.0,E,,*2F
$GPRMC,030033.8,A,4740.81476,N,12224.44103,W,000.01,287.3,190513,016.6,E,D*26
$PGRME,2.4,M,2.4,M,3.4,M*29
$HCHDG,266.4,0.0,E,,*2F
$HCHDG,266.4,0.0,E,,*2F
$GPRMC,030034.0,A,4740.81476,N,12224.44103,W,000.00,287.3,190513,016.6,E,D*28
$PGRME,2.4,M,2.4,M,3.4,M*29
$HCHDG,266.4,0.0,E,,*2F
$YXXDR,A,5.6,D,PTCH,A,3.6,D,ROLL*5B
$PTAK,FFD1,3.6*50
$HCHDG,266.4,0.0,E,,*2F
$GPRMC,030034.2,A,4740.81476,N,12224.44103,W,000.00,287.3,190513,016.6,E,D*2A
$PTAK,FFP1,HEEL,@*07
$PGRME,2.4,M,2.4,M,3.4,M*29
$HCHDG,266.4,0.0,E,,*2F
$HCHDG,266.4,0.0,E,,*2F
$GPRMC,030034.4,A,4740.81476,N,12224.44103,W,000.00,287.3,190513,016.6,E,D*2C
$PGRME,2.4,M,2.4,M,3.4,M*29
$HCHDG,266.4,0.0,E,,*2F
$HCHDG,266.4,0.0,E,,*2F
$GPRMC,030034.6,A,4740.81476,N,12224.44103,W,000.00,287.3,190513,016.6,E,D*2E
$GPRMB,A,0.11,L,,N,4741.0622,N,12224.6030,W,0.3,336,0.00,V*43
$PGRME,2.4,M,2.4,M,3.4,M*29
$YXXDR,A,5.5,D,PTCH,A,3.7,D,ROLL*59
$HCHDG,266.4,0.0,E,,*2F
$HCHDG,266.4,0.0,E,,*2F
$GPRMC,030034.8,A,4740.81476,N,12224.44103,W,000.00,287.3,190513,016.6,E,D*20
$PGRME,2.4,M,2.4,M,3.4,M*29
$HCHDG,266.4,0.0,E,,*2F
$HCHDG,266.4,0.0,E,,*2F
$GPRMC,030035.0,A,4740.81476,N,12224.44103,W,000.00,287.3,190513,016.6,E,D*29
$PGRME,2.4,M,2.4,M,3.4,M*29
$HCHDG,266.4,0.0,E,,*2F
$YXXDR,A,5.6,D,PTCH,A,3.6,D,ROLL*5B
$PTAK,FFD1,3.6*50
$HCHDG,266.4,0.0,E,,*2F
$GPRMC,030035.2,A,4740.81476,N,12224.44103,W,000.01,287.3,190513,016.6,E,D*2A
$PGRME,2.4,M,2.4,M,3.4,M*29
$HCHDG,266.4,0.0,E,,*2F
$HCHDG,266.4,0.0,E,,*2F
$GPRMC,030035.4,A,4740.81476,N,12224.44103,W,000.00,287.3,190513,016.6,E,D*2D
$PGRME,2.4,M,2.4,M,3.4,M*29
$HCHDG,266.4,0.0,E,,*2F
$HCHDG,266.4,0.0,E,,*2F
$GPRMC,030035.6,A,4740.81476,N,12224.44103,W,000.00,287.3,190513,016.6,E,D*2F
$GPRMB,A,0.11,L,,N,4741.0622,N,12224.6030,W,0.3,336,0.00,V*43
$PGRME,2.4,M,2.4,M,3.4,M*29
$YXXDR,A,5.6,D,PTCH,A,3.6,D,ROLL*5B
$HCHDG,266.4,0.0,E,,*2F
$HCHDG,266.4,0.0,E,,*2F
$GPRMC,030035.8,A,4740.81476,N,12224.44103,W,000.01,287.3,190513,016.6,E,D*20
$PGRME,2.4,M,2.4,M,3.4,M*29
$HCHDG,266.4,0.0,E,,*2F
$HCHDG,266.4,0.0,E,,*2F
$GPRMC,030036.0,A,4740.81476,N,12224.44103,W,000.00,287.3,190513,016.6,E,D*2A
$PGRME,2.4,M,2.4,M,3.4,M*29
$HCHDG,266.4,0.0,E,,*2F
$YXXDR,A,5.5,D,PTCH,A,3.7,D,ROLL*59
$HCHDG,266.4,0.0,E,,*2F
$GPRMC,030036.2,A,4740.81476,N,12224.44103,W,000.01,287.3,190513,016.6,E,D*29
$PGRME,2.4,M,2.4,M,3.4,M*29
$HCHDG,266.4,0.0,E,,*2F
$HCHDG,266.4,0.0,E,,*2F
$GPRMC,030036.4,A,4740.81476,N,12224.44103,W,000.00,287.3,190513,016.6,E,D*2E
$PGRME,2.4,M,2.4,M,3.4,M*29
$HCHDG,266.4,0.0,E,,*2F
$HCHDG,266.5,0.0,E,,*2E
$GPRMC,030036.6,A,4740.81476,N,12224.44103,W,000.01,287.3,190513,016.6,E,D*2D
$PGRME,2.4,M,2.4,M,3.4,M*29
$YXXDR,A,5.5,D,PTCH,A,3.7,D,ROLL*59
$PTAK,FFD1,3.7*51
$HCHDG,266.5,0.0,E,,*2E
$HCHDG,266.5,0.0,E,,*2E
$GPRMC,030036.8,A,4740.81476,N,12224.44103,W,000.00,287.3,190513,016.6,E,D*22
$GPRMB,A,0.11,L,,N,4741.0622,N,12224.6030,W,0.3,336,0.00,V*43
$PGRME,2.4,M,2.4,M,3.4,M*29
$HCHDG,266.6,0.0,E,,*2D
$HCHDG,266.6,0.0,E,,*2D
$GPRMC,030037.0,A,4740.81476,N,12224.44103,W,000.00,287.3,190513,016.6,E,D*2B
$PGRME,2.4,M,2.4,M,3.4,M*29
$HCHDG,266.5,0.0,E,,*2E
$YXXDR,A,5.6,D,PTCH,A,3.6,D,ROLL*5B
$HCHDG,266.5,0.0,E,,*2E
$GPRMC,030037.2,A,4740.81476,N,12224.44103,W,000.00,287.3,190513,016.6,E,D*29
$PGRME,2.4,M,2.4,M,3.4,M*29
$HCHDG,266.5,0.0,E,,*2E
$HCHDG,266.4,0.0,E,,*2F
$GPRMC,030037.4,A,4740.81476,N,12224.44103,W,000.00,287.3,190513,016.6,E,D*2F
$PGRME,2.4,M,2.4,M,3.4,M*29
$HCHDG,266.4,0.0,E,,*2F
$HCHDG,266.4,0.0,E,,*2F
$GPRMC,030037.6,A,4740.81476,N,12224.44103,W,000.00,287.3,190513,016.6,E,D*2D
$PGRME,2.4,M,2.4,M,3.4,M*29
$YXXDR,A,5.5,D,PTCH,A,3.7,D,ROLL*59
$HCHDG,266.4,0.0,E,,*2F
$HCHDG,266.4,0.0,E,,*2F
$GPRMC,030037.8,A,4740.81476,N,12224.44103,W,000.01,287.3,190513,016.6,E,D*22
$GPRMB,A,0.11,L,,N,4741.0622,N,12224.6030,W,0.3,336,0.01,V*42
$PGRME,2.4,M,2.4,M,3.4,M*29
$HCHDG,266.5,0.0,E,,*2E
$HCHDG,266.5,0.0,E,,*2E
$GPRMC,030038.0,A,4740.81476,N,12224.44103,W,000.00,287.3,190513,016.6,E,D*24
$PGRME,2.4,M,2.4,M,3.4,M*29
$HCHDG,266.5,0.0,E,,*2E
$YXXDR,A,5.5,D,PTCH,A,3.7,D,ROLL*59
$PTAK,FFD1,3.7*51
$HCHDG,266.5,0.0,E,,*2E
$GPRMC,030038.2,A,4740.81476,N,12224.44103,W,000.01,287.3,190513,016.6,E,D*27
$PTAK,FFP1,HEEL,@*07
$PGRME,2.4,M,2.4,M,3.4,M*29
$HCHDG,266.5,0.0,E,,*2E
$HCHDG,266.5,0.0,E,,*2E
$GPRMC,030038.4,A,4740.81476,N,12224.44103,W,000.00,287.3,190513,016.6,E,D*20
$PGRME,2.4,M,2.4,M,3.4,M*29
$HCHDG,266.5,0.0,E,,*2E
$HCHDG,266.5,0.0,E,,*2E
$GPRMC,030038.6,A,4740.81476,N,12224.44103,W,000.00,287.3,190513,016.6,E,D*22
$PGRME,2.4,M,2.4,M,3.4,M*29
$YXXDR,A,5.6,D,PTCH,A,3.6,D,ROLL*5B
$HCHDG,266.5,0.0,E,,*2E
$HCHDG,266.5,0.0,E,,*2E
$GPRMC,030038.8,A,4740.81476,N,12224.44103,W,000.00,287.3,190513,016.6,E,D*2C
$PGRME,2.4,M,2.4,M,3.4,M*29
$HCHDG,266.5,0.0,E,,*2E
$HCHDG,266.5,0.0,E,,*2E
$GPRMC,030039.0,A,4740.81476,N,12224.44103,W,000.00,287.3,190513,016.6,E,D*25
$GPRMB,A,0.11,L,,N,4741.0622,N,12224.6030,W,0.3,336,0.00,V*43
$PGRME,2.4,M,2.4,M,3.4,M*29
$HCHDG,266.5,0.0,E,,*2E
$YXXDR,A,5.5,D,PTCH,A,3.7,D,ROLL*59
$PTAK,FFD1,3.7*51
$HCHDG,266.5,0.0,E,,*2E
$GPRMC,030039.2,A,4740.81476,N,12224.44103,W,000.00,287.3,190513,016.6,E,D*27
$PGRME,2.4,M,2.4,M,3.4,M*29
$HCHDG,266.6,0.0,E,,*2D
$HCHDG,266.6,0.0,E,,*2D
$GPRMC,030039.4,A,4740.81476,N,12224.44103,W,000.01,287.3,190513,016.6,E,D*20
$PGRME,2.4,M,2.4,M,3.4,M*29
$HCHDG,266.6,0.0,E,,*2D
$HCHDG,266.6,0.0,E,,*2D
$GPRMC,030039.6,A,4740.81476,N,12224.44103,W,000.00,287.3,190513,016.6,E,D*23
$PGRME,2.4,M,2.4,M,3.4,M*29
$YXXDR,A,5.6,D,PTCH,A,3.6,D,ROLL*5B
$HCHDG,266.5,0.0,E,,*2E
$HCHDG,266.5,0.0,E,,*2E
$GPRMC,030039.8,A,4740.81476,N,12224.44103,W,000.00,287.3,190513,016.6,E,D*2D
$PGRME,2.4,M,2.4,M,3.4,M*29
$HCHDG,266.5,0.0,E,,*2E
$HCHDG,266.5,0.0,E,,*2E
$GPRMC,030040.0,A,4740.81476,N,12224.44103,W,000.01,287.3,190513,016.6,E,D*2A
$PGRME,2.4,M,2.4,M,3.4,M*29
$HCHDG,266.5,0.0,E,,*2E
$YXXDR,A,5.5,D,PTCH,A,3.7,D,ROLL*59
$PTAK,FFD1,3.7*51
$HCHDG,266.5,0.0,E,,*2E
$GPRMC,030040.2,A,4740.81476,N,12224.44102,W,000.00,287.3,190513,016.6,E,D*28
$GPRMB,A,0.11,L,,N,4741.0622,N,12224.6030,W,0.3,336,0.00,V*43
$PGRME,2.4,M,2.4,M,3.4,M*29
$HCHDG,266.5,0.0,E,,*2E
$HCHDG,266.5,0.0,E,,*2E
$GPRMC,030040.4,A,4740.81476,N,12224.44102,W,000.01,287.3,190513,016.6,E,D*2F
$PGRME,2.4,M,2.4,M,3.4,M*29
$HCHDG,266.5,0.0,E,,*2E
$HCHDG,266.5,0.0,E,,*2E
$GPRMC,030040.6,A,4740.81476,N,12224.44102,W,000.00,287.3,190513,016.6,E,D*2C
$PGRME,2.4,M,2.4,M,3.4,M*29
$YXXDR,A,5.5,D,PTCH,A,3.7,D,ROLL*59
$HCHDG,266.5,0.0,E,,*2E
$HCHDG,266.5,0.0,E,,*2E
$GPRMC,030040.8,A,4740.81476,N,12224.44102,W,000.00,287.3,190513,016.6,E,D*22
$PGRME,2.4,M,2.4,M,3.4,M*29
$HCHDG,266.5,0.0,E,,*2E
$HCHDG,266.5,0.0,E,,*2E
$GPRMC,030041.0,A,4740.81476,N,12224.44103,W,000.00,287.3,190513,016.6,E,D*2A
$PGRME,2.4,M,2.4,M,3.4,M*29
$HCHDG,266.5,0.0,E,,*2E
$YXXDR,A,5.5,D,PTCH,A,3.7,D,ROLL*59
$HCHDG,266.5,0.0,E,,*2E
$GPRMC,030041.2,A,4740.81476,N,12224.44102,W,000.01,287.3,190513,016.6,E,D*28
$PGRME,2.4,M,2.4,M,3.4,M*29
$HCHDG,266.4,0.0,E,,*2F
$HCHDG,266.4,0.0,E,,*2F
$GPRMC,030041.4,A,4740.81476,N,12224.44102,W,000.00,287.3,190513,016.6,E,D*2F
$GPRMB,A,0.11,L,,N,4741.0622,N,12224.6030,W,0.3,336,0.00,V*43
$PGRME,2.4,M,2.4,M,3.4,M*29
$HCHDG,266.4,0.0,E,,*2F
$HCHDG,266.4,0.0,E,,*2F
$GPRMC,030041.6,A,4740.81476,N,12224.44103,W,000.00,287.3,190513,016.6,E,D*2C
$PGRME,2.4,M,2.4,M,3.4,M*29
$YXXDR,A,5.5,D,PTCH,A,3.7,D,ROLL*59
$PTAK,FFD1,3.7*51
$HCHDG,266.4,0.0,E,,*2F
$HCHDG,266.4,0.0,E,,*2F
$GPRMC,030041.8,A,4740.81476,N,12224.44103,W,000.00,287.3,190513,016.6,E,D*22
$PGRME,2.4,M,2.4,M,3.4,M*29
$HCHDG,266.4,0.0,E,,*2F
$HCHDG,266.4,0.0,E,,*2F
$GPRMC,030042.0,A,4740.81476,N,12224.44103,W,000.00,287.3,190513,016.6,E,D*29
$PGRME,2.4,M,2.4,M,3.4,M*29
$HCHDG,266.4,0.0,E,,*2F
$PTAK,FFP1,HEEL,@*07
$YXXDR,A,5.5,D,PTCH,A,3.7,D,ROLL*59
$HCHDG,266.4,0.0,E,,*2F
$GPRMC,030042.2,A,4740.81476,N,12224.44102,W,000.00,287.3,190513,016.6,E,D*2A
$PGRME,2.4,M,2.4,M,3.4,M*29
$HCHDG,266.4,0.0,E,,*2F
$HCHDG,266.4,0.0,E,,*2F
$GPRMC,030042.4,A,4740.81476,N,12224.44103,W,000.00,287.3,190513,016.6,E,D*2D
$GPRMB,A,0.11,L,,N,4741.0622,N,12224.6030,W,0.3,336,0.00,V*43
$PGRME,2.4,M,2.4,M,3.4,M*29
$HCHDG,266.4,0.0,E,,*2F
$HCHDG,266.4,0.0,E,,*2F
$GPRMC,030042.6,A,4740.81475,N,12224.44103,W,000.00,287.3,190513,016.6,E,D*2C
$PGRME,2.4,M,2.4,M,3.4,M*29
$YXXDR,A,5.5,D,PTCH,A,3.7,D,ROLL*59
$HCHDG,266.4,0.0,E,,*2F
$HCHDG,266.4,0.0,E,,*2F
$GPRMC,030042.8,A,4740.81476,N,12224.44103,W,000.00,287.3,190513,016.6,E,D*21
$PGRME,2.4,M,2.4,M,3.4,M*29
$HCHDG,266.4,0.0,E,,*2F
$HCHDG,266.4,0.0,E,,*2F
$GPRMC,030043.0,A,4740.81476,N,12224.44103,W,000.00,287.3,190513,016.6,E,D*28
$PGRME,2.4,M,2.4,M,3.4,M*29
$HCHDG,266.4,0.0,E,,*2F
$YXXDR,A,5.5,D,PTCH,A,3.7,D,ROLL*59
$PTAK,FFD1,3.7*51
$HCHDG,266.5,0.0,E,,*2E
$GPRMC,030043.2,A,4740.81476,N,12224.44103,W,000.00,287.3,190513,016.6,E,D*2A
$PGRME,2.4,M,2.4,M,3.4,M*29
$HCHDG,266.5,0.0,E,,*2E
$HCHDG,266.5,0.0,E,,*2E
$GPRMC,030043.4,A,4740.81476,N,12224.44103,W,000.00,287.3,190513,016.6,E,D*2C
$PGRME,2.4,M,2.4,M,3.4,M*29
$HCHDG,266.5,0.0,E,,*2E
$HCHDG,266.5,0.0,E,,*2E
$GPRMC,030043.6,A,4740.81475,N,12224.44103,W,000.00,287.3,190513,016.6,E,D*2D
$GPRMB,A,0.11,L,,N,4741.0622,N,12224.6030,W,0.3,336,0.00,V*43
$PGRME,2.4,M,2.4,M,3.4,M*29
$YXXDR,A,5.4,D,PTCH,A,3.6,D,ROLL*59
$HCHDG,266.5,0.0,E,,*2E
$HCHDG,266.5,0.0,E,,*2E
$GPRMC,030043.8,A,4740.81475,N,12224.44103,W,000.00,287.3,190513,016.6,E,D*23
$PGRME,2.4,M,2.4,M,3.4,M*29
$HCHDG,266.5,0.0,E,,*2E
$HCHDG,266.5,0.0,E,,*2E
$GPRMC,030044.0,A,4740.81475,N,12224.44103,W,000.00,287.3,190513,016.6,E,D*2C
$PGRME,2.4,M,2.4,M,3.4,M*29
$PGRMT,GPS 18x-5Hz software ver. 3.20,,,,,,,,*30
$HCHDG,266.5,0.0,E,,*2E
$YXXDR,A,5.6,D,PTCH,A,3.6,D,ROLL*5B
$PTAK,FFD1,3.6*50
$HCHDG,266.5,0.0,E,,*2E
$GPRMC,030044.2,A,4740.81475,N,12224.44103,W,000.00,287.3,190513,016.6,E,D*2E
$PGRME,2.4,M,2.4,M,3.4,M*29
$HCHDG,266.5,0.0,E,,*2E
$HCHDG,266.5,0.0,E,,*2E
$GPRMC,030044.4,A,4740.81475,N,12224.44103,W,000.00,287.3,190513,016.6,E,D*28
$PGRME,2.4,M,2.4,M,3.4,M*29
$HCHDG,266.5,0.0,E,,*2E
$HCHDG,266.5,0.0,E,,*2E
$GPRMC,030044.6,A,4740.81475,N,12224.44103,W,000.00,287.3,190513,016.6,E,D*2A
$GPRMB,A,0.11,L,,N,4741.0622,N,12224.6030,W,0.3,336,0.00,V*43
$PGRME,2.4,M,2.4,M,3.4,M*29
$YXXDR,A,5.4,D,PTCH,A,3.6,D,ROLL*59
$HCHDG,266.5,0.0,E,,*2E
$HCHDG,266.5,0.0,E,,*2E
$GPRMC,030044.8,A,4740.81475,N,12224.44103,W,000.00,287.3,190513,016.6,E,D*24
$PGRME,2.4,M,2.4,M,3.4,M*29
$HCHDG,266.5,0.0,E,,*2E
$HCHDG,266.5,0.0,E,,*2E
$GPRMC,030045.0,A,4740.81475,N,12224.44103,W,000.00,287.3,190513,016.6,E,D*2D
$PGRME,2.4,M,2.4,M,3.4,M*29
$HCHDG,266.5,0.0,E,,*2E
$YXXDR,A,5.5,D,PTCH,A,3.7,D,ROLL*59
$HCHDG,266.5,0.0,E,,*2E
$GPRMC,030045.2,A,4740.81475,N,12224.44103,W,000.00,287.3,190513,016.6,E,D*2F
$PGRME,2.4,M,2.4,M,3.4,M*29
$HCHDG,266.5,0.0,E,,*2E
$HCHDG,266.5,0.0,E,,*2E
$GPRMC,030045.4,A,4740.81475,N,12224.44103,W,000.00,287.3,190513,016.6,E,D*29
$PGRME,2.4,M,2.4,M,3.4,M*29
$HCHDG,266.5,0.0,E,,*2E
$HCHDG,266.5,0.0,E,,*2E
$GPRMC,030045.6,A,4740.81475,N,12224.44102,W,000.00,287.3,190513,016.6,E,D*2A
$GPRMB,A,0.11,L,,N,4741.0622,N,12224.6030,W,0.3,336,0.00,V*43
$PGRME,2.4,M,2.4,M,3.4,M*29
$YXXDR,A,5.6,D,PTCH,A,3.6,D,ROLL*5B
$PTAK,FFD1,3.6*50
$HCHDG,266.5,0.0,E,,*2E
$HCHDG,266.5,0.0,E,,*2E
$GPRMC,030045.8,A,4740.81475,N,12224.44103,W,000.00,287.3,190513,016.6,E,D*25
$PGRME,2.4,M,2.4,M,3.4,M*29
$HCHDG,266.5,0.0,E,,*2E
$HCHDG,266.5,0.0,E,,*2E
$GPRMC,030046.0,A,4740.81475,N,12224.44103,W,000.01,287.3,190513,016.6,E,D*2F
$PGRME,2.4,M,2.4,M,3.4,M*29
$HCHDG,266.5,0.0,E,,*2E
$YXXDR,A,5.5,D,PTCH,A,3.7,D,ROLL*59
$PTAK,FFP1,HEEL,@*07
$HCHDG,266.5,0.0,E,,*2E
$GPRMC,030046.2,A,4740.81475,N,12224.44103,W,000.00,287.3,190513,016.6,E,D*2C
$PGRME,2.4,M,2.4,M,3.4,M*29
$HCHDG,266.5,0.0,E,,*2E
$HCHDG,266.5,0.0,E,,*2E
$GPRMC,030046.4,A,4740.81475,N,12224.44103,W,000.00,287.3,190513,016.6,E,D*2A
$PGRME,2.4,M,2.4,M,3.4,M*29
$HCHDG,266.5,0.0,E,,*2E
$HCHDG,266.5,0.0,E,,*2E
$GPRMC,030046.6,A,4740.81475,N,12224.44103,W,000.00,287.3,190513,016.6,E,D*28
$GPRMB,A,0.11,L,,N,4741.0622,N,12224.6030,W,0.3,336,0.00,V*43
$PGRME,2.4,M,2.4,M,3.4,M*29
$YXXDR,A,5.4,D,PTCH,A,3.8,D,ROLL*57
$HCHDG,266.5,0.0,E,,*2E
$HCHDG,266.5,0.0,E,,*2E
$GPRMC,030046.8,A,4740.81475,N,12224.44103,W,000.01,287.3,190513,016.6,E,D*27
$PGRME,2.4,M,2.4,M,3.4,M*29
$HCHDG,266.5,0.0,E,,*2E
$HCHDG,266.4,0.0,E,,*2F
$GPRMC,030047.0,A,4740.81475,N,12224.44103,W,000.00,287.3,190513,016.6,E,D*2F
$PGRME,2.4,M,2.4,M,3.4,M*29
$HCHDG,266.4,0.0,E,,*2F
$YXXDR,A,5.6,D,PTCH,A,3.6,D,ROLL*5B
$PTAK,FFD1,3.6*50
$HCHDG,266.5,0.0,E,,*2E
$GPRMC,030047.2,A,4740.81475,N,12224.44103,W,000.00,287.3,190513,016.6,E,D*2D
$PGRME,2.4,M,2.4,M,3.4,M*29
$HCHDG,266.5,0.0,E,,*2E
$HCHDG,266.5,0.0,E,,*2E
$GPRMC,030047.4,A,4740.81475,N,12224.44103,W,000.00,287.3,190513,016.6,E,D*2B
$PGRME,2.4,M,2.4,M,3.4,M*29
$HCHDG,266.5,0.0,E,,*2E
$HCHDG,266.5,0.0,E,,*2E
$GPRMC,030047.6,A,4740.81475,N,12224.44103,W,000.00,287.3,190513,016.6,E,D*29
$PGRME,2.4,M,2.4,M,3.4,M*29
$YXXDR,A,5.5,D,PTCH,A,3.7,D,ROLL*59
$HCHDG,266.5,0.0,E,,*2E
$HCHDG,266.5,0.0,E,,*2E
$GPRMC,030047.8,A,4740.81475,N,12224.44103,W,000.00,287.3,190513,016.6,E,D*27
$GPRMB,A,0.11,L,,N,4741.0622,N,12224.6030,W,0.3,336,0.00,V*43
$PGRME,2.4,M,2.4,M,3.4,M*29
$HCHDG,266.5,0.0,E,,*2E
$HCHDG,266.5,0.0,E,,*2E
$GPRMC,030048.0,A,4740.81475,N,12224.44103,W,000.00,287.3,190513,016.6,E,D*20
$PGRME,2.4,M,2.4,M,3.4,M*29
$HCHDG,266.5,0.0,E,,*2E
$YXXDR,A,5.5,D,PTCH,A,3.8,D,ROLL*56
$HCHDG,266.5,0.0,E,,*2E
$GPRMC,030048.2,A,4740.81475,N,12224.44103,W,000.00,287.3,190513,016.6,E,D*22
$PGRME,2.4,M,2.4,M,3.4,M*29
$HCHDG,266.5,0.0,E,,*2E
$HCHDG,266.5,0.0,E,,*2E
$GPRMC,030048.4,A,4740.81475,N,12224.44103,W,000.00,287.3,190513,016.6,E,D*24
$PGRME,2.4,M,2.4,M,3.4,M*29
$HCHDG,266.5,0.0,E,,*2E
$HCHDG,266.5,0.0,E,,*2E
$GPRMC,030048.6,A,4740.81475,N,12224.44103,W,000.00,287.3,190513,016.6,E,D*26
$PGRME,2.4,M,2.4,M,3.4,M*29
$YXXDR,A,5.5,D,PTCH,A,3.7,D,ROLL*59
$PTAK,FFD1,3.7*51
$HCHDG,266.5,0.0,E,,*2E
$HCHDG,266.5,0.0,E,,*2E
$GPRMC,030048.8,A,4740.81475,N,12224.44103,W,000.00,287.3,190513,016.6,E,D*28
$GPRMB,A,0.11,L,,N,4741.0622,N,12224.6030,W,0.3,336,0.00,V*43
$PGRME,2.4,M,2.4,M,3.4,M*29
$HCHDG,266.5,0.0,E,,*2E
$HCHDG,266.5,0.0,E,,*2E
$GPRMC,030049.0,A,4740.81475,N,12224.44103,W,000.01,287.3,190513,016.6,E,D*20
$PGRME,2.4,M,2.4,M,3.4,M*29
$HCHDG,266.5,0.0,E,,*2E
$YXXDR,A,5.4,D,PTCH,A,3.6,D,ROLL*59
$HCHDG,266.5,0.0,E,,*2E
$GPRMC,030049.2,A,4740.81475,N,12224.44103,W,000.00,287.3,190513,016.6,E,D*23
$PGRME,2.4,M,2.4,M,3.4,M*29
$HCHDG,266.5,0.0,E,,*2E
$HCHDG,266.5,0.0,E,,*2E
$GPRMC,030049.4,A,4740.81475,N,12224.44103,W,000.00,287.3,190513,016.6,E,D*25
$PGRME,2.4,M,2.4,M,3.4,M*29
$HCHDG,266.5,0.0,E,,*2E
$HCHDG,266.5,0.0,E,,*2E
$GPRMC,030049.6,A,4740.81475,N,12224.44103,W,000.01,287.3,190513,016.6,E,D*26
$PGRME,2.4,M,2.4,M,3.4,M*29
$YXXDR,A,5.6,D,PTCH,A,3.6,D,ROLL*5B
$PTAK,FFD1,3.6*50
$HCHDG,266.5,0.0,E,,*2E
$HCHDG,266.4,0.0,E,,*2F
$GPRMC,030049.8,A,4740.81475,N,12224.44102,W,000.01,287.3,190513,016.6,E,D*29
$PGRME,2.4,M,2.4,M,3.4,M*29
$HCHDG,266.4,0.0,E,,*2F
$HCHDG,266.4,0.0,E,,*2F
$GPRMC,030050.0,A,4740.81475,N,12224.44102,W,000.00,287.3,190513,016.6,E,D*28
$GPRMB,A,0.11,L,,N,4741.0622,N,12224.6030,W,0.3,336,0.00,V*43
$PGRME,2.4,M,2.4,M,3.4,M*29
$HCHDG,266.4,0.0,E,,*2F
$PTAK,FFP1,HEEL,@*07
$YXXDR,A,5.5,D,PTCH,A,3.7,D,ROLL*59
$HCHDG,266.4,0.0,E,,*2F
$GPRMC,030050.2,A,4740.81475,N,12224.44102,W,000.00,287.3,190513,016.6,E,D*2A
$PGRME,2.4,M,2.4,M,3.4,M*29
$HCHDG,266.4,0.0,E,,*2F
$HCHDG,266.4,0.0,E,,*2F
$GPRMC,030050.4,A,4740.81474,N,12224.44102,W,000.01,287.3,190513,016.6,E,D*2C
$PGRME,2.4,M,2.4,M,3.4,M*29
$HCHDG,266.4,0.0,E,,*2F
$HCHDG,266.4,0.0,E,,*2F
$GPRMC,030050.6,A,4740.81474,N,12224.44102,W,000.00,287.3,190513,016.6,E,D*2F
$PGRME,2.4,M,2.4,M,3.4,M*29
$YXXDR,A,5.5,D,PTCH,A,3.7,D,ROLL*59
$PTAK,FFD1,3.7*51
$HCHDG,266.4,0.0,E,,*2F
$HCHDG,266.4,0.0,E,,*2F
$GPRMC,030050.8,A,4740.81474,N,12224.44102,W,000.00,287.3,190513,016.6,E,D*21
$PGRME,2.4,M,2.4,M,3.4,M*29
$HCHDG,266.4,0.0,E,,*2F
$HCHDG,266.4,0.0,E,,*2F
$GPRMC,030051.0,A,4740.81474,N,12224.44102,W,000.00,287.3,190513,016.6,E,D*28
$PGRME,2.4,M,2.4,M,3.4,M*29
$HCHDG,266.4,0.0,E,,*2F
$YXXDR,A,5.5,D,PTCH,A,3.7,D,ROLL*59
$HCHDG,266.4,0.0,E,,*2F
$GPRMC,030051.2,A,4740.81475,N,12224.44102,W,000.00,287.3,190513,016.6,E,D*2B
$GPRMB,A,0.11,L,,N,4741.0622,N,12224.6030,W,0.3,336,0.00,V*43
$PGRME,2.4,M,2.4,M,3.4,M*29
$HCHDG,266.4,0.0,E,,*2F
$HCHDG,266.4,0.0,E,,*2F
$GPRMC,030051.4,A,4740.81475,N,12224.44102,W,000.00,287.3,190513,016.6,E,D*2D
$PGRME,2.4,M,2.4,M,3.4,M*29
$HCHDG,266.4,0.0,E,,*2F
$HCHDG,266.4,0.0,E,,*2F
$GPRMC,030051.6,A,4740.81475,N,12224.44101,W,000.01,287.3,190513,016.6,E,D*2D
$PGRME,2.4,M,2.4,M,3.4,M*29
$YXXDR,A,5.4,D,PTCH,A,3.6,D,ROLL*59
$HCHDG,266.4,0.0,E,,*2F
$HCHDG,266.4,0.0,E,,*2F
$GPRMC,030051.8,A,4740.81474,N,12224.44101,W,000.00,287.3,190513,016.6,E,D*23
$PGRME,2.4,M,2.4,M,3.4,M*29
$HCHDG,266.4,0.0,E,,*2F
$HCHDG,266.4,0.0,E,,*2F
$GPRMC,030052.0,A,4740.81474,N,12224.44100,W,000.00,287.3,190513,016.6,E,D*29
$PGRME,2.4,M,2.4,M,3.4,M*29
$HCHDG,266.4,0.0,E,,*2F
$YXXDR,A,5.5,D,PTCH,A,3.7,D,ROLL*59
$PTAK,FFD1,3.7*51
$HCHDG,266.4,0.0,E,,*2F
$GPRMC,030052.2,A,4740.81474,N,12224.44100,W,000.01,287.3,190513,016.6,E,D*2A
$PGRME,2.4,M,2.4,M,3.4,M*29
$HCHDG,266.4,0.0,E,,*2F
$HCHDG,266.4,0.0,E,,*2F
$GPRMC,030052.4,A,4740.81474,N,12224.44100,W,000.00,287.3,190513,016.6,E,D*2D
$GPRMB,A,0.11,L,,N,4741.0622,N,12224.6030,W,0.3,336,0.00,V*43
$PGRME,2.4,M,2.4,M,3.4,M*29
$HCHDG,266.4,0.0,E,,*2F
$HCHDG,266.4,0.0,E,,*2F
$GPRMC,030052.6,A,4740.81474,N,12224.44100,W,000.00,287.3,190513,016.6,E,D*2F
$PGRME,2.4,M,2.4,M,3.4,M*29
$YXXDR,A,5.5,D,PTCH,A,3.7,D,ROLL*59
$HCHDG,266.4,0.0,E,,*2F
$HCHDG,266.4,0.0,E,,*2F
$GPRMC,030052.8,A,4740.81474,N,12224.44100,W,000.00,287.3,190513,016.6,E,D*21
$PGRME,2.4,M,2.4,M,3.4,M*29
$HCHDG,266.4,0.0,E,,*2F
$HCHDG,266.4,0.0,E,,*2F
$GPRMC,030053.0,A,4740.81474,N,12224.44100,W,000.00,287.3,190513,016.6,E,D*28
$PGRME,2.4,M,2.4,M,3.4,M*29
$HCHDG,266.4,0.0,E,,*2F
$YXXDR,A,5.5,D,PTCH,A,3.7,D,ROLL*59
$PTAK,FFD1,3.7*51
$HCHDG,266.4,0.0,E,,*2F
$GPRMC,030053.2,A,4740.81475,N,12224.44100,W,000.00,287.3,190513,016.6,E,D*2B
$PGRME,2.4,M,2.4,M,3.4,M*29
$HCHDG,266.4,0.0,E,,*2F
$HCHDG,266.3,0.0,E,,*28
$GPRMC,030053.4,A,4740.81475,N,12224.44100,W,000.00,287.3,190513,016.6,E,D*2D
$PGRME,2.4,M,2.4,M,3.4,M*29
$HCHDG,266.3,0.0,E,,*28
$HCHDG,266.3,0.0,E,,*28
$GPRMC,030053.6,A,4740.81475,N,12224.44101,W,000.00,287.3,190513,016.6,E,D*2E
$GPRMB,A,0.11,L,,N,4741.0622,N,12224.6030,W,0.3,336,0.00,V*43
$PGRME,2.4,M,2.4,M,3.4,M*29
$YXXDR,A,5.5,D,PTCH,A,3.7,D,ROLL*59
$HCHDG,266.3,0.0,E,,*28
$HCHDG,266.3,0.0,E,,*28
$GPRMC,030053.8,A,4740.81475,N,12224.44101,W,000.00,287.3,190513,016.6,E,D*20
$PGRME,2.4,M,2.4,M,3.4,M*29
$HCHDG,266.4,0.0,E,,*2F
$HCHDG,266.4,0.0,E,,*2F
$GPRMC,030054.0,A,4740.81475,N,12224.44101,W,000.01,287.3,190513,016.6,E,D*2E
$PGRME,2.4,M,2.4,M,3.4,M*29
$HCHDG,266.4,0.0,E,,*2F
$YXXDR,A,5.5,D,PTCH,A,3.7,D,ROLL*59
$HCHDG,266.4,0.0,E,,*2F
$GPRMC,030054.2,A,4740.81475,N,12224.44101,W,000.00,287.3,190513,016.6,E,D*2D
$PTAK,FFP1,HEEL,@*07
$PGRME,2.4,M,2.4,M,3.4,M*29
$HCHDG,266.4,0.0,E,,*2F
$HCHDG,266.4,0.0,E,,*2F
$GPRMC,030054.4,A,4740.81475,N,12224.44101,W,000.00,287.3,190513,016.6,E,D*2B
$PGRME,2.4,M,2.4,M,3.4,M*29
$HCHDG,266.4,0.0,E,,*2F
$HCHDG,266.4,0.0,E,,*2F
$GPRMC,030054.6,A,4740.81475,N,12224.44101,W,000.00,287.3,190513,016.6,E,D*29
$PGRME,2.4,M,2.4,M,3.4,M*29
$YXXDR,A,5.5,D,PTCH,A,3.7,D,ROLL*59
$PTAK,FFD1,3.7*51
$HCHDG,266.4,0.0,E,,*2F
$HCHDG,266.4,0.0,E,,*2F
$GPRMC,030054.8,A,4740.81475,N,12224.44101,W,000.00,287.3,190513,016.6,E,D*27
$GPRMB,A,0.11,L,,N,4741.0622,N,12224.6030,W,0.3,336,0.00,V*43
$PGRME,2.4,M,2.4,M,3.4,M*29
$HCHDG,266.4,0.0,E,,*2F
$HCHDG,266.4,0.0,E,,*2F
$GPRMC,030055.0,A,4740.81475,N,12224.44101,W,000.00,287.3,190513,016.6,E,D*2E
$PGRME,2.4,M,2.4,M,3.4,M*29
$HCHDG,266.4,0.0,E,,*2F
$YXXDR,A,5.4,D,PTCH,A,3.6,D,ROLL*59
$HCHDG,266.4,0.0,E,,*2F
$GPRMC,030055.2,A,4740.81475,N,12224.44101,W,000.00,287.3,190513,016.6,E,D*2C
$PGRME,2.4,M,2.4,M,3.4,M*29
$HCHDG,266.4,0.0,E,,*2F
$HCHDG,266.4,0.0,E,,*2F
$GPRMC,030055.4,A,4740.81475,N,12224.44102,W,000.01,287.3,190513,016.6,E,D*28
$PGRME,2.4,M,2.4,M,3.4,M*29
$HCHDG,266.4,0.0,E,,*2F
$HCHDG,266.4,0.0,E,,*2F
$GPRMC,030055.6,A,4740.81475,N,12224.44102,W,000.00,287.3,190513,016.6,E,D*2B
$PGRME,2.4,M,2.4,M,3.4,M*29
$YXXDR,A,5.5,D,PTCH,A,3.7,D,ROLL*59
$PTAK,FFD1,3.7*51
$HCHDG,266.4,0.0,E,,*2F
$HCHDG,266.4,0.0,E,,*2F
$GPRMC,030055.8,A,4740.81475,N,12224.44102,W,000.00,287.3,190513,016.6,E,D*25
$PGRME,2.4,M,2.4,M,3.4,M*29
$HCHDG,266.4,0.0,E,,*2F
$HCHDG,266.4,0.0,E,,*2F
$GPRMC,030056.0,A,4740.81475,N,12224.44102,W,000.00,287.3,190513,016.6,E,D*2E
$GPRMB,A,0.11,L,,N,4741.0622,N,12224.6030,W,0.3,336,0.00,V*43
$PGRME,2.4,M,2.4,M,3.4,M*29
$HCHDG,266.4,0.0,E,,*2F
$YXXDR,A,5.5,D,PTCH,A,3.7,D,ROLL*59
$HCHDG,266.4,0.0,E,,*2F
$GPRMC,030056.2,A,4740.81475,N,12224.44103,W,000.00,287.3,190513,016.6,E,D*2D
$PGRME,2.4,M,2.4,M,3.4,M*29
$HCHDG,266.3,0.0,E,,*28
$HCHDG,266.3,0.0,E,,*28
$GPRMC,030056.4,A,4740.81475,N,12224.44103,W,000.00,287.3,190513,016.6,E,D*2B
$PGRME,2.4,M,2.4,M,3.4,M*29
$HCHDG,266.3,0.0,E,,*28
$HCHDG,266.3,0.0,E,,*28
$GPRMC,030056.6,A,4740.81475,N,12224.44103,W,000.00,287.3,190513,016.6,E,D*29
$PGRME,2.4,M,2.4,M,3.4,M*29
$YXXDR,A,5.4,D,PTCH,A,3.6,D,ROLL*59
$HCHDG,266.3,0.0,E,,*28
$HCHDG,266.3,0.0,E,,*28
$GPRMC,030056.8,A,4740.81474,N,12224.44103,W,000.00,287.3,190513,016.6,E,D*26
$PGRME,2.4,M,2.4,M,3.4,M*29
$HCHDG,266.3,0.0,E,,*28
$HCHDG,266.3,0.0,E,,*28
$GPRMC,030057.0,A,4740.81474,N,12224.44103,W,000.00,287.3,190513,016.6,E,D*2F
$PGRME,2.4,M,2.4,M,3.4,M*29
$HCHDG,266.3,0.0,E,,*28
$YXXDR,A,5.5,D,PTCH,A,3.7,D,ROLL*59
$PTAK,FFD1,3.7*51
$HCHDG,266.3,0.0,E,,*28
$GPRMC,030057.2,A,4740.81474,N,12224.44103,W,000.00,287.3,190513,016.6,E,D*2D
$GPRMB,A,0.11,L,,N,4741.0622,N,12224.6030,W,0.3,336,0.00,V*43
$PGRME,2.4,M,2.4,M,3.4,M*29
$HCHDG,266.3,0.0,E,,*28
$HCHDG,266.3,0.0,E,,*28
$GPRMC,030057.4,A,4740.81474,N,12224.44103,W,000.00,287.3,190513,016.6,E,D*2B
$PGRME,2.4,M,2.4,M,3.4,M*29
$HCHDG,266.3,0.0,E,,*28
$HCHDG,266.3,0.0,E,,*28
$GPRMC,030057.6,A,4740.81474,N,12224.44103,W,000.00,287.3,190513,016.6,E,D*29
$PGRME,2.4,M,2.4,M,3.4,M*29
$YXXDR,A,5.6,D,PTCH,A,3.6,D,ROLL*5B
$HCHDG,266.3,0.0,E,,*28
$HCHDG,266.3,0.0,E,,*28
$GPRMC,030057.8,A,4740.81474,N,12224.44103,W,000.00,287.3,190513,016.6,E,D*27
$PGRME,2.4,M,2.4,M,3.4,M*29
$HCHDG,266.3,0.0,E,,*28
$HCHDG,266.3,0.0,E,,*28
$GPRMC,030058.0,A,4740.81474,N,12224.44103,W,000.00,287.3,190513,016.6,E,D*20
$PGRME,2.4,M,2.4,M,3.4,M*29
$HCHDG,266.3,0.0,E,,*28
$YXXDR,A,5.4,D,PTCH,A,3.6,D,ROLL*59
$PTAK,FFD1,3.6*50
$HCHDG,266.3,0.0,E,,*28
$GPRMC,030058.2,A,4740.81474,N,12224.44103,W,000.00,287.3,190513,016.6,E,D*22
$PTAK,FFP1,HEEL,@*07
$PGRME,2.4,M,2.4,M,3.4,M*29
$HCHDG,266.3,0.0,E,,*28
$HCHDG,266.3,0.0,E,,*28
$GPRMC,030058.4,A,4740.81474,N,12224.44104,W,000.00,287.3,190513,016.6,E,D*23
$GPRMB,A,0.11,L,,N,4741.0622,N,12224.6030,W,0.3,336,0.00,V*43
$PGRME,2.4,M,2.4,M,3.4,M*29
$HCHDG,266.3,0.0,E,,*28
$HCHDG,266.3,0.0,E,,*28
$GPRMC,030058.6,A,4740.81474,N,12224.44104,W,000.00,287.3,190513,016.6,E,D*21
$PGRME,2.4,M,2.4,M,3.4,M*29
$YXXDR,A,5.4,D,PTCH,A,3.6,D,ROLL*59
$HCHDG,266.3,0.0,E,,*28
$HCHDG,266.3,0.0,E,,*28
$GPRMC,030058.8,A,4740.81474,N,12224.44104,W,000.00,287.3,190513,016.6,E,D*2F
$PGRME,2.4,M,2.4,M,3.4,M*29
$HCHDG,266.4,0.0,E,,*2F
$HCHDG,266.4,0.0,E,,*2F
$GPRMC,030059.0,A,4740.81474,N,12224.44104,W,000.00,287.3,190513,016.6,E,D*26
$PGRME,2.4,M,2.4,M,3.4,M*29
$HCHDG,266.5,0.0,E,,*2E
$YXXDR,A,5.5,D,PTCH,A,3.7,D,ROLL*59
$HCHDG,266.5,0.0,E,,*2E
$GPRMC,030059.2,A,4740.81474,N,12224.44104,W,000.00,287.3,190513,016.6,E,D*24
$PGRME,2.4,M,2.4,M,3.4,M*29
$HCHDG,266.5,0.0,E,,*2E
$HCHDG,266.5,0.0,E,,*2E
$GPRMC,030059.4,A,4740.81474,N,12224.44104,W,000.00,287.3,190513,016.6,E,D*22
$PGRME,2.4,M,2.4,M,3.4,M*29
$HCHDG,266.5,0.0,E,,*2E
$HCHDG,266.5,0.0,E,,*2E
$GPRMC,030059.6,A,4740.81474,N,12224.44104,W,000.01,287.3,190513,016.6,E,D*21
$GPRMB,A,0.11,L,,N,4741.0622,N,12224.6030,W,0.3,336,0.01,V*42
$PGRME,2.4,M,2.4,M,3.4,M*29
$YXXDR,A,5.5,D,PTCH,A,3.7,D,ROLL*59
$PTAK,FFD1,3.7*51
$HCHDG,266.5,0.0,E,,*2E
$HCHDG,266.5,0.0,E,,*2E
$GPRMC,030059.8,A,4740.81473,N,12224.44104,W,000.00,287.3,190513,016.6,E,D*29
$PGRME,2.4,M,2.4,M,3.4,M*29
$HCHDG,266.5,0.0,E,,*2E
$HCHDG,266.5,0.0,E,,*2E
$GPRMC,030100.0,A,4740.81473,N,12224.44104,W,000.01,287.3,190513,016.6,E,D*2D
$PGRME,2.4,M,2.4,M,3.4,M*29
$HCHDG,266.5,0.0,E,,*2E
$YXXDR,A,5.5,D,PTCH,A,3.7,D,ROLL*59
$HCHDG,266.5,0.0,E,,*2E
$GPRMC,030100.2,A,4740.81473,N,12224.44104,W,000.00,287.3,190513,016.6,E,D*2E
$PGRME,2.4,M,2.4,M,3.4,M*29
$HCHDG,266.5,0.0,E,,*2E
$HCHDG,266.5,0.0,E,,*2E
$GPRMC,030100.4,A,4740.81473,N,12224.44104,W,000.00,287.3,190513,016.6,E,D*28
$PGRME,2.4,M,2.4,M,3.4,M*29
$HCHDG,266.5,0.0,E,,*2E
$HCHDG,266.5,0.0,E,,*2E
$GPRMC,030100.6,A,4740.81473,N,12224.44104,W,000.00,287.3,190513,016.6,E,D*2A
$PGRME,2.4,M,2.4,M,3.4,M*29
$YXXDR,A,5.6,D,PTCH,A,3.6,D,ROLL*5B
$HCHDG,266.5,0.0,E,,*2E
$HCHDG,266.5,0.0,E,,*2E
$GPRMC,030100.8,A,4740.81473,N,12224.44104,W,000.00,287.3,190513,016.6,E,D*24
$GPRMB,A,0.11,L,,N,4741.0622,N,12224.6030,W,0.3,336,0.00,V*43
$PGRME,2.4,M,2.4,M,3.4,M*29
$HCHDG,266.5,0.0,E,,*2E
$HCHDG,266.5,0.0,E,,*2E
$GPRMC,030101.0,A,4740.81473,N,12224.44104,W,000.00,287.3,190513,016.6,E,D*2D
$PGRME,2.4,M,2.4,M,3.4,M*29
$HCHDG,266.5,0.0,E,,*2E
$YXXDR,A,5.5,D,PTCH,A,3.7,D,ROLL*59
$PTAK,FFD1,3.7*51
$HCHDG,266.5,0.0,E,,*2E
$GPRMC,030101.2,A,4740.81473,N,12224.44104,W,000.00,287.3,190513,016.6,E,D*2F
$PGRME,2.4,M,2.4,M,3.4,M*29
$HCHDG,266.5,0.0,E,,*2E
$HCHDG,266.5,0.0,E,,*2E
$GPRMC,030101.4,A,4740.81473,N,12224.44105,W,000.00,287.3,190513,016.6,E,D*28
$PGRME,2.4,M,2.4,M,3.4,M*29
$HCHDG,266.6,0.0,E,,*2D
$HCHDG,266.6,0.0,E,,*2D
$GPRMC,030101.6,A,4740.81473,N,12224.44104,W,000.00,287.3,190513,016.6,E,D*2B
$PGRME,2.4,M,2.4,M,3.4,M*29
$YXXDR,A,5.5,D,PTCH,A,3.7,D,ROLL*59
$HCHDG,266.6,0.0,E,,*2D
$HCHDG,266.6,0.0,E,,*2D
$GPRMC,030101.8,A,4740.81473,N,12224.44104,W,000.01,287.3,190513,016.6,E,D*24
$PGRME,2.4,M,2.4,M,3.4,M*29
$HCHDG,266.6,0.0,E,,*2D
$HCHDG,266.6,0.0,E,,*2D
$GPRMC,030102.0,A,4740.81472,N,12224.44104,W,000.00,287.3,190513,016.6,E,D*2F
$GPRMB,A,0.11,L,,N,4741.0622,N,12224.6030,W,0.3,336,0.00,V*43
$PGRME,2.4,M,2.4,M,3.4,M*29
$HCHDG,266.6,0.0,E,,*2D
$YXXDR,A,5.4,D,PTCH,A,3.8,D,ROLL*57
$PTAK,FFD1,3.8*5E
$HCHDG,266.6,0.0,E,,*2D
$PTAK,FFP1,HEEL,@*07
$GPRMC,030102.2,A,4740.81472,N,12224.44104,W,000.01,287.3,190513,016.6,E,D*2C
$PGRME,2.4,M,2.4,M,3.4,M*29
$HCHDG,266.6,0.0,E,,*2D
$HCHDG,266.6,0.0,E,,*2D
$GPRMC,030102.4,A,4740.81472,N,12224.44104,W,000.00,287.3,190513,016.6,E,D*2B
$PGRME,2.4,M,2.4,M,3.4,M*29
$HCHDG,266.6,0.0,E,,*2D
$HCHDG,266.6,0.0,E,,*2D
$GPRMC,030102.6,A,4740.81472,N,12224.44105,W,000.01,287.3,190513,016.6,E,D*29
$PGRME,2.4,M,2.4,M,3.4,M*29
$YXXDR,A,5.5,D,PTCH,A,3.7,D,ROLL*59
$HCHDG,266.6,0.0,E,,*2D
$HCHDG,266.6,0.0,E,,*2D
$GPRMC,030102.8,A,4740.81472,N,12224.44105,W,000.00,287.3,190513,016.6,E,D*26
$PGRME,2.4,M,2.4,M,3.4,M*29
$HCHDG,266.6,0.0,E,,*2D
$HCHDG,266.6,0.0,E,,*2D
$GPRMC,030103.0,A,4740.81472,N,12224.44105,W,000.01,287.3,190513,016.6,E,D*2E
$PGRME,2.4,M,2.4,M,3.4,M*29
$HCHDG,266.5,0.0,E,,*2E
$YXXDR,A,5.5,D,PTCH,A,3.7,D,ROLL*59
$HCHDG,266.5,0.0,E,,*2E
$GPRMC,030103.2,A,4740.81472,N,12224.44105,W,000.00,287.3,190513,016.6,E,D*2D
$GPRMB,A,0.11,L,,N,4741.0622,N,12224.6030,W,0.3,336,0.00,V*43
$PGRME,2.4,M,2.4,M,3.4,M*29
$HCHDG,266.6,0.0,E,,*2D
$HCHDG,266.6,0.0,E,,*2D
$GPRMC,030103.4,A,4740.81472,N,12224.44105,W,000.00,287.3,190513,016.6,E,D*2B
$PGRME,2.4,M,2.4,M,3.4,M*29
$HCHDG,266.6,0.0,E,,*2D
$HCHDG,266.6,0.0,E,,*2D
$GPRMC,030103.6,A,4740.81472,N,12224.44105,W,000.00,287.3,190513,016.6,E,D*29
$PGRME,2.4,M,2.4,M,3.4,M*29
$YXXDR,A,5.5,D,PTCH,A,3.7,D,ROLL*59
$PTAK,FFD1,3.7*51
$HCHDG,266.6,0.0,E,,*2D
$HCHDG,266.6,0.0,E,,*2D
$GPRMC,030103.8,A,4740.81472,N,12224.44105,W,000.00,287.3,190513,016.6,E,D*27
$PGRME,2.4,M,2.4,M,3.4,M*29
$HCHDG,266.6,0.0,E,,*2D
$HCHDG,266.6,0.0,E,,*2D
