$GPRMB,A,0.12,L,,N,4741.0622,N,12224.6030,W,0.3,335,0.07,V*44
$PGRME,3.3,M,6.2,M,7.0,M*2D
$HCHDG,274.4,0.0,E,,*2C
$PTAK,FFP1,HEEL,@*07
$HCHDG,274.4,0.0,E,,*2C
$GPRMC,154206.2,A,4740.81243,N,12224.42635,W,000.13,000.0,180513,016.6,E,A*26
$GPRMB,A,0.12,L,,N,4741.0622,N,12224.6030,W,0.3,335,0.12,V*40
$PGRME,3.2,M,5.9,M,6.7,M*22
$HCHDG,274.4,0.0,E,,*2C
$YXXDR,A,4.7,D,PTCH,A,3.8,D,ROLL*55
$PTAK,FFD1,3.8*5E
$GPRMC,154206.4,A,4740.81241,N,12224.42641,W,000.09,000.0,180513,016.6,E,A*2A
$PGRME,3.2,M,5.7,M,6.5,M*2E
$HCHDG,274.4,0.0,E,,*2C
$HCHDG,274.3,0.0,E,,*2B
$HCHDG,274.4,0.0,E,,*2C
$GPRMC,154206.6,A,4740.81237,N,12224.42656,W,000.11,000.0,180513,016.6,E,A*26
$PGRME,3.1,M,5.4,M,6.2,M*29
$HCHDG,274.3,0.0,E,,*2B
$HCHDG,274.2,0.0,E,,*2A
$GPRMC,154206.8,A,4740.81239,N,12224.42664,W,000.09,000.0,180513,016.6,E,A*2E
$PGRME,3.0,M,5.2,M,6.0,M*2C
$YXXDR,A,4.9,D,PTCH,A,3.8,D,ROLL*5B
$HCHDG,274.2,0.0,E,,*2A
$HCHDG,274.2,0.0,E,,*2A
$GPRMC,154207.0,A,4740.81241,N,12224.42660,W,000.06,000.0,180513,016.6,E,A*23
$PGRME,3.0,M,5.0,M,5.8,M*25
$HCHDG,274.2,0.0,E,,*2A
$HCHDG,274.4,0.0,E,,*2C
$GPRMC,154207.2,A,4740.81258,N,12224.42671,W,000.07,000.0,180513,016.6,E,A*28
$PGRME,3.0,M,4.8,M,5.7,M*23
$HCHDG,274.4,0.0,E,,*2C
$YXXDR,A,5.0,D,PTCH,A,3.4,D,ROLL*5F
$GPRMC,154207.4,A,4740.81261,N,12224.42683,W,000.04,000.0,180513,016.6,E,A*2A
$PGRME,3.0,M,4.6,M,5.5,M*2F
$HCHDG,274.4,0.0,E,,*2C
$HCHDG,274.3,0.0,E,,*2B
$HCHDG,274.3,0.0,E,,*2B
$GPRMC,154207.6,A,4740.81265,N,12224.42697,W,000.03,000.0,180513,016.6,E,A*2E
$GPRMB,A,0.12,L,,N,4741.0622,N,12224.6030,W,0.3,335,0.03,V*40
$PGRME,3.0,M,4.4,M,5.4,M*2C
$HCHDG,274.3,0.0,E,,*2B
$HCHDG,274.3,0.0,E,,*2B
$GPRMC,154207.8,A,4740.81267,N,12224.42710,W,000.07,000.0,180513,016.6,E,A*28
$PGRME,3.0,M,4.3,M,5.2,M*2D
$YXXDR,A,4.8,D,PTCH,A,2.5,D,ROLL*56
$PTAK,FFD1,2.5*52
$HCHDG,274.2,0.0,E,,*2A
$HCHDG,274.1,0.0,E,,*29
$GPRMC,154208.0,A,4740.81264,N,12224.42712,W,000.02,000.0,180513,016.6,E,A*2B
$PGRME,3.0,M,4.1,M,5.1,M*2C
$HCHDG,274.1,0.0,E,,*29
$HCHDG,274.0,0.0,E,,*28
$GPRMC,154208.2,A,4740.81252,N,12224.42714,W,000.07,000.0,180513,016.6,E,A*2F
$PGRME,3.0,M,3.9,M,5.0,M*22
$HCHDG,274.0,0.0,E,,*28
$YXXDR,A,4.6,D,PTCH,A,2.3,D,ROLL*5E
$GPRMC,154208.4,A,4740.81255,N,12224.42728,W,000.05,000.0,180513,016.6,E,A*23
$PGRME,3.0,M,3.8,M,4.9,M*2B
$HCHDG,273.8,0.0,E,,*27
$HCHDG,273.7,0.0,E,,*28
$HCHDG,273.9,0.0,E,,*26
$GPRMC,154208.6,A,4740.81253,N,12224.42733,W,000.03,000.0,180513,016.6,E,A*2B
$GPRMB,A,0.12,L,,N,4741.0622,N,12224.6030,W,0.3,335,0.03,V*40
$PGRME,3.0,M,3.7,M,4.8,M*25
$HCHDG,273.8,0.0,E,,*27
$HCHDG,273.8,0.0,E,,*27
$GPRMC,154208.8,A,4740.81239,N,12224.42723,W,000.02,000.0,180513,016.6,E,A*29
$PGRME,3.0,M,3.5,M,4.6,M*29
$YXXDR,A,4.7,D,PTCH,A,2.2,D,ROLL*5E
$PTAK,FFD1,2.2*55
$HCHDG,273.7,0.0,E,,*28
$HCHDG,273.7,0.0,E,,*28
$GPRMC,154209.0,A,4740.81215,N,12224.42702,W,000.05,000.0,180513,016.6,E,A*2A
$PGRME,3.0,M,3.4,M,4.5,M*2B
$HCHDG,273.6,0.0,E,,*29
$HCHDG,273.6,0.0,E,,*29
$GPRMC,154209.2,A,4740.81224,N,12224.42688,W,000.04,000.0,180513,016.6,E,A*28
$PGRME,3.0,M,3.3,M,4.5,M*2C
$HCHDG,273.6,0.0,E,,*29
$YXXDR,A,4.8,D,PTCH,A,2.3,D,ROLL*50
$GPRMC,154209.4,A,4740.81225,N,12224.42682,W,000.07,000.0,180513,016.6,E,A*26
$PGRME,3.0,M,3.1,M,4.4,M*2F
$HCHDG,273.5,0.0,E,,*2A
$HCHDG,273.5,0.0,E,,*2A
$HCHDG,273.2,0.0,E,,*2D
$GPRMC,154209.6,A,4740.81214,N,12224.42678,W,000.10,000.0,180513,016.6,E,A*25
$GPRMB,A,0.12,L,,N,4741.0622,N,12224.6030,W,0.3,335,0.09,V*4A
$PGRME,3.0,M,3.1,M,4.3,M*28
$HCHDG,273.2,0.0,E,,*2D
$HCHDG,273.1,0.0,E,,*2E
$GPRMC,154209.8,A,4740.81209,N,12224.42688,W,000.12,000.0,180513,016.6,E,A*2A
$PGRME,3.0,M,3.0,M,4.3,M*29
$YXXDR,A,4.5,D,PTCH,A,2.9,D,ROLL*57
$PTAK,FFD1,2.9*5E
$HCHDG,273.1,0.0,E,,*2E
$HCHDG,273.0,0.0,E,,*2F
$GPRMC,154210.0,A,4740.81208,N,12224.42696,W,000.14,000.0,180513,016.6,E,A*22
$PGRME,3.0,M,3.0,M,4.3,M*29
$HCHDG,273.0,0.0,E,,*2F
$HCHDG,272.9,0.0,E,,*27
$GPRMC,154210.2,A,4740.81213,N,12224.42688,W,000.10,000.0,180513,016.6,E,A*21
$PGRME,3.0,M,3.0,M,4.3,M*29
$HCHDG,273.0,0.0,E,,*2F
$YXXDR,A,4.7,D,PTCH,A,3.1,D,ROLL*5C
$GPRMC,154210.4,A,4740.81227,N,12224.42692,W,000.07,000.0,180513,016.6,E,A*2D
$PGRME,3.0,M,3.0,M,4.3,M*29
$HCHDG,273.0,0.0,E,,*2F
$PTAK,FFP1,HEEL,@*07
$HCHDG,272.9,0.0,E,,*27
$HCHDG,272.9,0.0,E,,*27
$GPRMC,154210.6,A,4740.81233,N,12224.42694,W,000.05,000.0,180513,016.6,E,A*2E
$PGRME,3.0,M,3.0,M,4.3,M*29
$HCHDG,272.8,0.0,E,,*26
$HCHDG,272.8,0.0,E,,*26
$GPRMC,154210.8,A,4740.81243,N,12224.42696,W,000.05,000.0,180513,016.6,E,A*25
$GPRMB,A,0.12,L,,N,4741.0622,N,12224.6030,W,0.3,335,0.05,V*46
$PGRME,3.0,M,3.0,M,4.3,M*29
$YXXDR,A,4.8,D,PTCH,A,3.7,D,ROLL*55
$HCHDG,272.7,0.0,E,,*29
$HCHDG,272.7,0.0,E,,*29
$GPRMC,154211.0,A,4740.81246,N,12224.42702,W,000.03,000.0,180513,016.6,E,A*23
$PGRME,3.0,M,3.0,M,4.3,M*29
$HCHDG,272.7,0.0,E,,*29
$HCHDG,272.6,0.0,E,,*28
$GPRMC,154211.2,A,4740.81250,N,12224.42700,W,000.03,000.0,180513,016.6,E,A*24
$PGRME,3.0,M,3.0,M,4.3,M*29
$HCHDG,272.6,0.0,E,,*28
$YXXDR,A,5.1,D,PTCH,A,3.6,D,ROLL*5C
$PTAK,FFD1,3.6*50
$GPRMC,154211.4,A,4740.81261,N,12224.42698,W,000.04,000.0,180513,016.6,E,A*27
$PGRME,3.0,M,3.0,M,4.3,M*29
$HCHDG,272.6,0.0,E,,*28
$HCHDG,272.5,0.0,E,,*2B
$HCHDG,272.5,0.0,E,,*2B
$GPRMC,154211.6,A,4740.81267,N,12224.42695,W,000.02,000.0,180513,016.6,E,A*28
$PGRME,3.0,M,3.0,M,4.3,M*29
$HCHDG,272.5,0.0,E,,*2B
$HCHDG,272.4,0.0,E,,*2A
$GPRMC,154211.8,A,4740.81267,N,12224.42687,W,000.07,000.0,180513,016.6,E,A*20
$GPRMB,A,0.12,L,,N,4741.0622,N,12224.6030,W,0.3,335,0.06,V*45
$PGRME,3.0,M,3.0,M,4.3,M*29
$YXXDR,A,4.9,D,PTCH,A,3.0,D,ROLL*53
$HCHDG,272.3,0.0,E,,*2D
$HCHDG,272.3,0.0,E,,*2D
$GPRMC,154212.0,A,4740.81254,N,12224.42693,W,000.01,000.0,180513,016.6,E,A*28
$PGRME,3.0,M,3.0,M,4.3,M*29
$HCHDG,272.5,0.0,E,,*2B
$HCHDG,272.4,0.0,E,,*2A
$GPRMC,154212.2,A,4740.81246,N,12224.42681,W,000.06,000.0,180513,016.6,E,A*2D
$PGRME,3.0,M,3.0,M,4.3,M*29
$HCHDG,272.4,0.0,E,,*2A
$YXXDR,A,4.9,D,PTCH,A,2.6,D,ROLL*54
$PTAK,FFD1,2.6*51
$GPRMC,154212.4,A,4740.81252,N,12224.42671,W,000.01,000.0,180513,016.6,E,A*26
$PGRME,3.0,M,3.0,M,4.3,M*29
$HCHDG,272.4,0.0,E,,*2A
$HCHDG,272.1,0.0,E,,*2F
$HCHDG,272.0,0.0,E,,*2E
$GPRMC,154212.6,A,4740.81257,N,12224.42666,W,000.07,000.0,180513,016.6,E,A*21
$PGRME,3.0,M,3.0,M,4.3,M*29
$HCHDG,272.0,0.0,E,,*2E
$HCHDG,272.0,0.0,E,,*2E
$GPRMC,154212.8,A,4740.81257,N,12224.42661,W,000.05,000.0,180513,016.6,E,A*2A
$PGRME,3.0,M,3.0,M,4.3,M*29
$YXXDR,A,4.8,D,PTCH,A,2.3,D,ROLL*50
$HCHDG,271.9,0.0,E,,*24
$HCHDG,271.9,0.0,E,,*24
$GPRMC,154213.0,A,4740.81258,N,12224.42659,W,000.04,000.0,180513,016.6,E,A*26
$GPRMB,A,0.12,L,,N,4741.0622,N,12224.6030,W,0.3,335,0.04,V*47
$PGRME,3.0,M,3.0,M,4.3,M*29
$HCHDG,271.8,0.0,E,,*25
$HCHDG,271.8,0.0,E,,*25
$GPRMC,154213.2,A,4740.81260,N,12224.42656,W,000.08,000.0,180513,016.6,E,A*2C
$PGRME,3.0,M,3.0,M,4.3,M*29
$HCHDG,271.9,0.0,E,,*24
$YXXDR,A,4.5,D,PTCH,A,2.3,D,ROLL*5D
$GPRMC,154213.4,A,4740.81257,N,12224.42652,W,000.08,000.0,180513,016.6,E,A*2A
$PGRME,3.0,M,3.0,M,4.3,M*29
$HCHDG,271.8,0.0,E,,*25
$HCHDG,271.8,0.0,E,,*25
$HCHDG,271.8,0.0,E,,*25
$GPRMC,154213.6,A,4740.81257,N,12224.42648,W,000.09,000.0,180513,016.6,E,A*22
$PGRME,3.0,M,3.0,M,4.3,M*29
$HCHDG,271.7,0.0,E,,*2A
$HCHDG,271.7,0.0,E,,*2A
$GPRMC,154213.8,A,4740.81256,N,12224.42653,W,000.10,000.0,180513,016.6,E,A*2F
$PGRME,3.0,M,3.0,M,4.3,M*29
$YXXDR,A,4.8,D,PTCH,A,2.7,D,ROLL*54
$PTAK,FFD1,2.7*50
$HCHDG,271.7,0.0,E,,*2A
$HCHDG,271.7,0.0,E,,*2A
$GPRMC,154214.0,A,4740.81251,N,12224.42653,W,000.13,000.0,180513,016.6,E,A*24
$PGRME,3.0,M,3.0,M,4.3,M*29
$HCHDG,271.6,0.0,E,,*2B
$HCHDG,271.6,0.0,E,,*2B
$GPRMC,154214.2,A,4740.81239,N,12224.42654,W,000.15,000.0,180513,016.6,E,A*29
$GPRMB,A,0.12,L,,N,4741.0622,N,12224.6030,W,0.3,335,0.14,V*46
$PGRME,3.0,M,3.0,M,4.3,M*29
$HCHDG,271.6,0.0,E,,*2B
$YXXDR,A,4.8,D,PTCH,A,3.6,D,ROLL*54
$GPRMC,154214.4,A,4740.81232,N,12224.42654,W,000.11,000.0,180513,016.6,E,A*20
$PGRME,3.0,M,3.0,M,4.3,M*29
$HCHDG,271.7,0.0,E,,*2A
$HCHDG,272.0,0.0,E,,*2E
$PTAK,FFP1,HEEL,@*07
$HCHDG,272.1,0.0,E,,*2F
$GPRMC,154214.6,A,4740.81221,N,12224.42646,W,000.07,000.0,180513,016.6,E,A*24
$PGRME,3.0,M,3.0,M,4.3,M*29
$HCHDG,272.1,0.0,E,,*2F
$HCHDG,272.1,0.0,E,,*2F
$GPRMC,154214.8,A,4740.81214,N,12224.42647,W,000.11,000.0,180513,016.6,E,A*2A
$GPRMB,A,0.12,L,,N,4741.0622,N,12224.6030,W,0.3,335,0.10,V*42
$PGRME,3.0,M,3.0,M,4.3,M*29
$YXXDR,A,4.8,D,PTCH,A,5.1,D,ROLL*55
$PTAK,FFD1,5.1*51
$HCHDG,272.2,0.0,E,,*2C
$HCHDG,272.2,0.0,E,,*2C
$GPRMC,154215.0,A,4740.81214,N,12224.42649,W,000.08,000.0,180513,016.6,E,A*25
$PGRME,3.0,M,3.0,M,4.3,M*29
$HCHDG,272.3,0.0,E,,*2D
$HCHDG,272.4,0.0,E,,*2A
$GPRMC,154215.2,A,4740.81208,N,12224.42654,W,000.15,000.0,180513,016.6,E,A*2A
$PGRME,3.0,M,3.0,M,4.3,M*29
$HCHDG,272.4,0.0,E,,*2A
$YXXDR,A,5.1,D,PTCH,A,5.9,D,ROLL*55
$GPRMC,154215.4,A,4740.81202,N,12224.42653,W,000.14,000.0,180513,016.6,E,A*20
$PGRME,3.0,M,3.0,M,4.3,M*29
$HCHDG,272.7,0.0,E,,*29
$HCHDG,272.8,0.0,E,,*26
$HCHDG,272.8,0.0,E,,*26
$GPRMC,154215.6,A,4740.81201,N,12224.42647,W,000.12,000.0,180513,016.6,E,A*22
$PGRME,3.0,M,3.0,M,4.3,M*29
$HCHDG,272.7,0.0,E,,*29
$HCHDG,272.9,0.0,E,,*27
$GPRMC,154215.8,A,4740.81197,N,12224.42642,W,000.10,000.0,180513,016.6,E,A*27
$PGRME,3.0,M,3.0,M,4.3,M*29
$YXXDR,A,5.2,D,PTCH,A,5.3,D,ROLL*5C
$HCHDG,272.8,0.0,E,,*26
$HCHDG,273.0,0.0,E,,*2F
$GPRMC,154216.0,A,4740.81190,N,12224.42630,W,000.13,000.0,180513,016.6,E,A*2D
$PGRME,3.0,M,3.0,M,4.3,M*29
$HCHDG,273.0,0.0,E,,*2F
$HCHDG,273.0,0.0,E,,*2F
$GPRMC,154216.2,A,4740.81190,N,12224.42627,W,000.08,000.0,180513,016.6,E,A*23
$PGRME,3.0,M,3.0,M,4.3,M*29
$HCHDG,273.1,0.0,E,,*2E
$YXXDR,A,5.1,D,PTCH,A,5.4,D,ROLL*58
$GPRMC,154216.4,A,4740.81191,N,12224.42628,W,000.13,000.0,180513,016.6,E,A*21
$GPRMB,A,0.12,L,,N,4741.0622,N,12224.6030,W,0.3,335,0.12,V*40
$PGRME,3.0,M,3.0,M,4.3,M*29
$HCHDG,273.1,0.0,E,,*2E
$HCHDG,273.1,0.0,E,,*2E
$HCHDG,273.1,0.0,E,,*2E
$GPRMC,154216.6,A,4740.81186,N,12224.42615,W,000.14,000.0,180513,016.6,E,A*2C
$PGRME,3.0,M,3.0,M,4.3,M*29
$HCHDG,273.2,0.0,E,,*2D
$HCHDG,273.1,0.0,E,,*2E
$GPRMC,154216.8,A,4740.81182,N,12224.42613,W,000.12,000.0,180513,016.6,E,A*26
$PGRME,3.0,M,3.0,M,4.3,M*29
$YXXDR,A,5.0,D,PTCH,A,5.1,D,ROLL*5C
$PTAK,FFD1,5.1*51
$HCHDG,273.2,0.0,E,,*2D
$HCHDG,273.2,0.0,E,,*2D
$GPRMC,154217.0,A,4740.81172,N,12224.42612,W,000.08,000.0,180513,016.6,E,A*2A
$PGRME,3.0,M,3.0,M,4.3,M*29
$HCHDG,273.1,0.0,E,,*2E
$HCHDG,273.1,0.0,E,,*2E
$GPRMC,154217.2,A,4740.81159,N,12224.42606,W,000.10,000.0,180513,016.6,E,A*2D
$PGRME,3.0,M,3.0,M,4.3,M*29
$HCHDG,273.1,0.0,E,,*2E
$YXXDR,A,5.0,D,PTCH,A,4.3,D,ROLL*5F
$GPRMC,154217.4,A,4740.81153,N,12224.42613,W,000.05,000.0,180513,016.6,E,A*21
$GPRMB,A,0.12,L,,N,4741.0622,N,12224.6030,W,0.3,335,0.05,V*46
$PGRME,3.0,M,3.0,M,4.3,M*29
$HCHDG,273.1,0.0,E,,*2E
$HCHDG,273.1,0.0,E,,*2E
$HCHDG,273.0,0.0,E,,*2F
$GPRMC,154217.6,A,4740.81155,N,12224.42615,W,000.05,000.0,180513,016.6,E,A*23
$PGRME,3.0,M,3.0,M,4.3,M*29
$HCHDG,273.0,0.0,E,,*2F
$HCHDG,272.8,0.0,E,,*26
$GPRMC,154217.8,A,4740.81157,N,12224.42611,W,000.02,000.0,180513,016.6,E,A*2C
$PGRME,3.0,M,3.0,M,4.3,M*29
$YXXDR,A,4.9,D,PTCH,A,4.7,D,ROLL*53
$HCHDG,272.8,0.0,E,,*26
$HCHDG,272.8,0.0,E,,*26
$GPRMC,154218.0,A,4740.81167,N,12224.42619,W,000.07,000.0,180513,016.6,E,A*25
$PGRME,3.0,M,3.0,M,4.3,M*29
$HCHDG,272.7,0.0,E,,*29
$HCHDG,272.8,0.0,E,,*26
$GPRMC,154218.2,A,4740.81174,N,12224.42618,W,000.05,000.0,180513,016.6,E,A*26
$PGRME,3.0,M,3.0,M,4.3,M*29
$HCHDG,272.8,0.0,E,,*26
$YXXDR,A,4.7,D,PTCH,A,5.7,D,ROLL*5C
$PTAK,FFD1,5.7*57
$GPRMC,154218.4,A,4740.81169,N,12224.42614,W,000.09,000.0,180513,016.6,E,A*2C
$PGRME,3.0,M,3.0,M,4.3,M*29
$HCHDG,272.9,0.0,E,,*27
$HCHDG,272.9,0.0,E,,*27
$PTAK,FFP1,HEEL,@*07
$HCHDG,272.9,0.0,E,,*27
$GPRMC,154218.6,A,4740.81158,N,12224.42602,W,000.12,000.0,180513,016.6,E,A*21
$GPRMB,A,0.12,L,,N,4741.0622,N,12224.6030,W,0.3,335,0.11,V*43
$PGRME,3.0,M,3.0,M,4.3,M*29
$HCHDG,272.9,0.0,E,,*27
$HCHDG,272.9,0.0,E,,*27
$GPRMC,154218.8,A,4740.81148,N,12224.42584,W,000.12,000.0,180513,016.6,E,A*23
$PGRME,3.0,M,3.0,M,4.3,M*29
$YXXDR,A,4.8,D,PTCH,A,6.2,D,ROLL*55
$HCHDG,272.8,0.0,E,,*26
$HCHDG,272.8,0.0,E,,*26
$GPRMC,154219.0,A,4740.81140,N,12224.42565,W,000.17,000.0,180513,016.6,E,A*28
$PGRME,3.0,M,3.0,M,4.3,M*29
$HCHDG,272.9,0.0,E,,*27
$HCHDG,272.9,0.0,E,,*27
$GPRMC,154219.2,A,4740.81138,N,12224.42557,W,000.21,000.0,180513,016.6,E,A*21
$PGRME,3.0,M,3.0,M,4.3,M*29
$HCHDG,273.1,0.0,E,,*2E
$YXXDR,A,4.7,D,PTCH,A,6.8,D,ROLL*50
$GPRMC,154219.4,A,4740.81139,N,12224.42550,W,000.22,000.0,180513,016.6,E,A*22
$PGRME,3.0,M,3.0,M,4.3,M*29
$HCHDG,273.1,0.0,E,,*2E
$HCHDG,273.2,0.0,E,,*2D
$HCHDG,273.3,0.0,E,,*2C
$GPRMC,154219.6,A,4740.81139,N,12224.42551,W,000.24,000.0,180513,016.6,E,A*27
$GPRMB,A,0.12,L,,N,4741.0622,N,12224.6030,W,0.3,335,0.22,V*43
$PGRME,3.0,M,3.0,M,4.3,M*29
$HCHDG,273.4,0.0,E,,*2B
$HCHDG,273.6,0.0,E,,*29
$GPRMC,154219.8,A,4740.81135,N,12224.42545,W,000.17,000.0,180513,016.6,E,A*20
$PGRME,3.0,M,3.0,M,4.3,M*29
$YXXDR,A,5.0,D,PTCH,A,7.3,D,ROLL*5C
$PTAK,FFD1,7.3*51
$HCHDG,273.7,0.0,E,,*28
$HCHDG,273.9,0.0,E,,*26
$GPRMC,154220.0,A,4740.81137,N,12224.42537,W,000.21,000.0,180513,016.6,E,A*20
$PGRME,3.0,M,3.0,M,4.3,M*29
$HCHDG,274.1,0.0,E,,*29
$HCHDG,274.1,0.0,E,,*29
$GPRMC,154220.2,A,4740.81133,N,12224.42536,W,000.21,000.0,180513,016.6,E,A*27
$PGRME,3.0,M,3.0,M,4.3,M*29
$HCHDG,274.2,0.0,E,,*2A
$YXXDR,A,5.0,D,PTCH,A,7.0,D,ROLL*5F
$GPRMC,154220.4,A,4740.81129,N,12224.42529,W,000.21,000.0,180513,016.6,E,A*24
$PGRME,3.0,M,3.0,M,4.3,M*29
$HCHDG,274.3,0.0,E,,*2B
$HCHDG,274.3,0.0,E,,*2B
$HCHDG,274.4,0.0,E,,*2C
$GPRMC,154220.6,A,4740.81123,N,12224.42528,W,000.21,000.0,180513,016.6,E,A*2D
$PGRME,3.0,M,3.0,M,4.3,M*29
$HCHDG,274.6,0.0,E,,*2E
$HCHDG,274.6,0.0,E,,*2E
$GPRMC,154220.8,A,4740.81120,N,12224.42523,W,000.19,000.0,180513,016.6,E,A*20
$GPRMB,A,0.12,L,,N,4741.0622,N,12224.6030,W,0.3,335,0.17,V*45
$PGRME,3.0,M,3.0,M,4.3,M*29
$YXXDR,A,4.8,D,PTCH,A,6.5,D,ROLL*52
$PTAK,FFD1,6.5*56
$HCHDG,274.7,0.0,E,,*2F
$HCHDG,274.7,0.0,E,,*2F
$GPRMC,154221.0,A,4740.81123,N,12224.42512,W,000.18,000.0,180513,016.6,E,A*29
$PGRME,3.0,M,3.0,M,4.3,M*29
$HCHDG,274.8,0.0,E,,*20
$HCHDG,274.8,0.0,E,,*20
$GPRMC,154221.2,A,4740.81115,N,12224.42504,W,000.16,000.0,180513,016.6,E,A*27
$PGRME,3.0,M,3.0,M,4.3,M*29
$HCHDG,274.8,0.0,E,,*20
$YXXDR,A,5.0,D,PTCH,A,5.4,D,ROLL*59
$GPRMC,154221.4,A,4740.81109,N,12224.42496,W,000.14,000.0,180513,016.6,E,A*24
$PGRME,3.0,M,3.0,M,4.3,M*29
$HCHDG,274.8,0.0,E,,*20
$HCHDG,274.9,0.0,E,,*21
$HCHDG,274.9,0.0,E,,*21
$GPRMC,154221.6,A,4740.81107,N,12224.42494,W,000.11,000.0,180513,016.6,E,A*2F
$PGRME,3.0,M,3.0,M,4.3,M*29
$HCHDG,274.9,0.0,E,,*21
$HCHDG,274.9,0.0,E,,*21
$GPRMC,154221.8,A,4740.81099,N,12224.42491,W,000.09,000.0,180513,016.6,E,A*2B
$PGRME,3.0,M,3.0,M,4.3,M*29
$YXXDR,A,5.0,D,PTCH,A,5.2,D,ROLL*5F
$HCHDG,274.9,0.0,E,,*21
$HCHDG,275.0,0.0,E,,*29
$GPRMC,154222.0,A,4740.81093,N,12224.42478,W,000.01,000.0,180513,016.6,E,A*25
$GPRMB,A,0.12,L,,N,4741.0622,N,12224.6030,W,0.3,334,0.01,V*43
$PGRME,3.0,M,3.0,M,4.3,M*29
$HCHDG,275.1,0.0,E,,*28
$HCHDG,275.1,0.0,E,,*28
$GPRMC,154222.2,A,4740.81091,N,12224.42462,W,000.03,000.0,180513,016.6,E,A*2C
$PGRME,3.0,M,3.0,M,4.3,M*29
$HCHDG,275.1,0.0,E,,*28
$YXXDR,A,5.0,D,PTCH,A,5.4,D,ROLL*59
$PTAK,FFD1,5.4*54
$GPRMC,154222.4,A,4740.81092,N,12224.42456,W,000.05,000.0,180513,016.6,E,A*28
$PGRME,3.0,M,3.0,M,4.3,M*29
$HCHDG,275.3,0.0,E,,*2A
$HCHDG,275.3,0.0,E,,*2A
$PTAK,FFP1,HEEL,@*07
$HCHDG,275.4,0.0,E,,*2D
$GPRMC,154222.6,A,4740.81092,N,12224.42448,W,000.16,000.0,180513,016.6,E,A*27
$PGRME,3.0,M,3.0,M,4.3,M*29
$HCHDG,275.4,0.0,E,,*2D
$HCHDG,275.5,0.0,E,,*2C
$GPRMC,154222.8,A,4740.81089,N,12224.42447,W,000.19,000.0,180513,016.6,E,A*23
$PGRME,3.0,M,3.0,M,4.3,M*29
$YXXDR,A,4.7,D,PTCH,A,6.0,D,ROLL*58
$HCHDG,275.6,0.0,E,,*2F
$HCHDG,275.6,0.0,E,,*2F
$GPRMC,154223.0,A,4740.81096,N,12224.42446,W,000.16,000.0,180513,016.6,E,A*2A
$GPRMB,A,0.12,L,,N,4741.0622,N,12224.6030,W,0.3,334,0.14,V*47
$PGRME,3.0,M,3.0,M,4.3,M*29
$HCHDG,275.7,0.0,E,,*2E
$HCHDG,275.8,0.0,E,,*21
$GPRMC,154223.2,A,4740.81107,N,12224.42447,W,000.10,000.0,180513,016.6,E,A*26
$PGRME,3.0,M,3.0,M,4.3,M*29
$HCHDG,275.8,0.0,E,,*21
$YXXDR,A,4.7,D,PTCH,A,6.2,D,ROLL*5A
$PTAK,FFD1,6.2*51
$GPRMC,154223.4,A,4740.81108,N,12224.42450,W,000.09,000.0,180513,016.6,E,A*21
$PGRME,3.0,M,3.0,M,4.3,M*29
$HCHDG,275.9,0.0,E,,*20
$HCHDG,275.9,0.0,E,,*20
$HCHDG,275.9,0.0,E,,*20
$GPRMC,154223.6,A,4740.81104,N,12224.42458,W,000.10,000.0,180513,016.6,E,A*2F
$PGRME,3.0,M,3.0,M,4.3,M*29
$HCHDG,275.9,0.0,E,,*20
$HCHDG,276.1,0.0,E,,*2B
$GPRMC,154223.8,A,4740.81103,N,12224.42465,W,000.06,000.0,180513,016.6,E,A*2F
$PGRME,3.0,M,3.0,M,4.3,M*29
$YXXDR,A,4.8,D,PTCH,A,6.4,D,ROLL*53
$HCHDG,276.1,0.0,E,,*2B
$HCHDG,276.1,0.0,E,,*2B
$GPRMC,154224.0,A,4740.81099,N,12224.42467,W,000.06,000.0,180513,016.6,E,A*20
$PGRME,3.0,M,3.0,M,4.3,M*29
$HCHDG,276.2,0.0,E,,*28
$HCHDG,276.2,0.0,E,,*28
$GPRMC,154224.2,A,4740.81099,N,12224.42468,W,000.05,000.0,180513,016.6,E,A*2E
$GPRMB,A,0.12,L,,N,4741.0622,N,12224.6030,W,0.3,334,0.05,V*47
$PGRME,3.0,M,3.0,M,4.3,M*29
$HCHDG,276.1,0.0,E,,*2B
$YXXDR,A,5.0,D,PTCH,A,6.9,D,ROLL*57
$PTAK,FFD1,6.9*5A
$GPRMC,154224.4,A,4740.81097,N,12224.42468,W,000.13,000.0,180513,016.6,E,A*21
$PGRME,3.0,M,3.0,M,4.3,M*29
$HCHDG,276.2,0.0,E,,*28
$HCHDG,276.3,0.0,E,,*29
$HCHDG,276.2,0.0,E,,*28
$GPRMC,154224.6,A,4740.81099,N,12224.42478,W,000.16,000.0,180513,016.6,E,A*29
$PGRME,3.0,M,3.0,M,4.3,M*29
$HCHDG,276.2,0.0,E,,*28
$HCHDG,276.3,0.0,E,,*29
$GPRMC,154224.8,A,4740.81096,N,12224.42487,W,000.11,000.0,180513,016.6,E,A*2F
$PGRME,3.0,M,3.0,M,4.3,M*29
$YXXDR,A,4.8,D,PTCH,A,6.3,D,ROLL*54
$HCHDG,276.2,0.0,E,,*28
$HCHDG,276.3,0.0,E,,*29
$GPRMC,154225.0,A,4740.81097,N,12224.42488,W,000.09,000.0,180513,016.6,E,A*21
$PGRME,3.0,M,3.0,M,4.3,M*29
$HCHDG,276.3,0.0,E,,*29
$HCHDG,276.3,0.0,E,,*29
$GPRMC,154225.2,A,4740.81102,N,12224.42482,W,000.08,000.0,180513,016.6,E,A*25
$GPRMB,A,0.12,L,,N,4741.0622,N,12224.6030,W,0.3,334,0.07,V*45
$PGRME,3.0,M,3.0,M,4.3,M*29
$HCHDG,276.4,0.0,E,,*2E
$YXXDR,A,5.0,D,PTCH,A,5.2,D,ROLL*5F
$GPRMC,154225.4,A,4740.81106,N,12224.42477,W,000.06,000.0,180513,016.6,E,A*23
$PGRME,3.0,M,3.0,M,4.3,M*29
$HCHDG,276.4,0.0,E,,*2E
$HCHDG,276.3,0.0,E,,*29
$HCHDG,276.4,0.0,E,,*2E
$GPRMC,154225.6,A,4740.81107,N,12224.42473,W,000.06,000.0,180513,016.6,E,A*24
$PGRME,3.0,M,3.0,M,4.3,M*29
$HCHDG,276.4,0.0,E,,*2E
$HCHDG,276.4,0.0,E,,*2E
$GPRMC,154225.8,A,4740.81105,N,12224.42474,W,000.05,000.0,180513,016.6,E,A*2C
$PGRME,3.0,M,3.0,M,4.3,M*29
$YXXDR,A,4.8,D,PTCH,A,4.7,D,ROLL*52
$PTAK,FFD1,4.7*56
$HCHDG,276.3,0.0,E,,*29
$HCHDG,276.3,0.0,E,,*29
$GPRMC,154226.0,A,4740.81110,N,12224.42481,W,000.09,000.0,180513,016.6,E,A*25
$PGRME,3.0,M,3.0,M,4.3,M*29
$HCHDG,276.2,0.0,E,,*28
$HCHDG,276.2,0.0,E,,*28
$GPRMC,154226.2,A,4740.81115,N,12224.42477,W,000.09,000.0,180513,016.6,E,A*2B
$GPRMB,A,0.12,L,,N,4741.0622,N,12224.6030,W,0.3,334,0.08,V*4A
$PGRME,3.0,M,3.0,M,4.3,M*29
$HCHDG,276.1,0.0,E,,*2B
$YXXDR,A,4.9,D,PTCH,A,4.4,D,ROLL*50
$GPRMC,154226.4,A,4740.81112,N,12224.42481,W,000.13,000.0,180513,016.6,E,A*28
$PGRME,3.0,M,3.0,M,4.3,M*29
$HCHDG,276.2,0.0,E,,*28
$PTAK,FFP1,HEEL,@*07
$HCHDG,276.0,0.0,E,,*2A
$HCHDG,276.0,0.0,E,,*2A
$GPRMC,154226.6,A,4740.81106,N,12224.42480,W,000.14,000.0,180513,016.6,E,A*29
$PGRME,3.0,M,3.0,M,4.3,M*29
$HCHDG,276.0,0.0,E,,*2A
$HCHDG,275.9,0.0,E,,*20
$GPRMC,154226.8,A,4740.81104,N,12224.42487,W,000.16,000.0,180513,016.6,E,A*20
$PGRME,3.0,M,3.0,M,4.3,M*29
$YXXDR,A,4.8,D,PTCH,A,4.8,D,ROLL*5D
$PTAK,FFD1,4.8*59
$HCHDG,275.9,0.0,E,,*20
$HCHDG,275.8,0.0,E,,*21
$GPRMC,154227.0,A,4740.81097,N,12224.42488,W,000.14,000.0,180513,016.6,E,A*2F
$PGRME,3.0,M,3.0,M,4.3,M*29
$HCHDG,275.9,0.0,E,,*20
$HCHDG,276.0,0.0,E,,*2A
$GPRMC,154227.2,A,4740.81091,N,12224.42472,W,000.09,000.0,180513,016.6,E,A*22
$PGRME,3.0,M,3.0,M,4.3,M*29
$HCHDG,275.9,0.0,E,,*20
$YXXDR,A,5.0,D,PTCH,A,5.7,D,ROLL*5A
$GPRMC,154227.4,A,4740.81083,N,12224.42463,W,000.15,000.0,180513,016.6,E,A*2A
$GPRMB,A,0.12,L,,N,4741.0622,N,12224.6030,W,0.3,334,0.14,V*47
$PGRME,3.0,M,3.0,M,4.3,M*29
$HCHDG,275.9,0.0,E,,*20
$HCHDG,275.9,0.0,E,,*20
$HCHDG,275.7,0.0,E,,*2E
$GPRMC,154227.6,A,4740.81078,N,12224.42457,W,000.13,000.0,180513,016.6,E,A*2D
$PGRME,3.0,M,3.0,M,4.3,M*29
$HCHDG,275.8,0.0,E,,*21
$HCHDG,275.8,0.0,E,,*21
$GPRMC,154227.8,A,4740.81075,N,12224.42456,W,000.07,000.0,180513,016.6,E,A*2A
$PGRME,3.0,M,3.0,M,4.3,M*29
$YXXDR,A,5.0,D,PTCH,A,6.5,D,ROLL*5B
$PTAK,FFD1,6.5*56
$HCHDG,275.7,0.0,E,,*2E
$HCHDG,275.7,0.0,E,,*2E
$GPRMC,154228.0,A,4740.81076,N,12224.42464,W,000.11,000.0,180513,016.6,E,A*28
$PGRME,3.0,M,3.0,M,4.3,M*29
$HCHDG,275.7,0.0,E,,*2E
$HCHDG,275.6,0.0,E,,*2F
$GPRMC,154228.2,A,4740.81080,N,12224.42468,W,000.13,000.0,180513,016.6,E,A*2D
$PGRME,3.0,M,3.0,M,4.3,M*29
$HCHDG,275.6,0.0,E,,*2F
$YXXDR,A,5.1,D,PTCH,A,7.2,D,ROLL*5C
$GPRMC,154228.4,A,4740.81081,N,12224.42469,W,000.06,000.0,180513,016.6,E,A*2F
$GPRMB,A,0.12,L,,N,4741.0622,N,12224.6030,W,0.3,334,0.05,V*47
$PGRME,3.0,M,3.0,M,4.3,M*29
$HCHDG,275.5,0.0,E,,*2C
$HCHDG,275.6,0.0,E,,*2F
$HCHDG,275.4,0.0,E,,*2D
$GPRMC,154228.6,A,4740.81081,N,12224.42470,W,000.05,000.0,180513,016.6,E,A*26
$PGRME,3.0,M,3.0,M,4.3,M*29
$HCHDG,275.4,0.0,E,,*2D
$HCHDG,275.4,0.0,E,,*2D
$GPRMC,154228.8,A,4740.81080,N,12224.42474,W,000.05,000.0,180513,016.6,E,A*2D
$PGRME,3.0,M,3.0,M,4.3,M*29
$YXXDR,A,5.0,D,PTCH,A,6.4,D,ROLL*5A
$HCHDG,275.2,0.0,E,,*2B
$HCHDG,275.2,0.0,E,,*2B
$GPRMC,154229.0,A,4740.81081,N,12224.42483,W,000.05,000.0,180513,016.6,E,A*2D
$PGRME,3.0,M,3.0,M,4.3,M*29
$HCHDG,275.2,0.0,E,,*2B
$HCHDG,275.2,0.0,E,,*2B
$GPRMC,154229.2,A,4740.81082,N,12224.42494,W,000.02,000.0,180513,016.6,E,A*2D
$PGRME,3.0,M,3.0,M,4.3,M*29
$HCHDG,275.1,0.0,E,,*28
$YXXDR,A,4.9,D,PTCH,A,5.5,D,ROLL*50
$PTAK,FFD1,5.5*55
$GPRMC,154229.4,A,4740.81078,N,12224.42491,W,000.00,000.0,180513,016.6,E,A*29
$GPRMB,A,0.12,L,,N,4741.0622,N,12224.6030,W,0.3,335,0.00,V*43
$PGRME,3.0,M,3.0,M,4.3,M*29
$HCHDG,274.9,0.0,E,,*21
$HCHDG,275.0,0.0,E,,*29
$HCHDG,274.9,0.0,E,,*21
$GPRMC,154229.6,A,4740.81072,N,12224.42488,W,000.03,000.0,180513,016.6,E,A*2A
$PGRME,3.0,M,3.0,M,4.3,M*29
$HCHDG,275.1,0.0,E,,*28
$HCHDG,275.1,0.0,E,,*28
$GPRMC,154229.8,A,4740.81065,N,12224.42486,W,000.04,000.0,180513,016.6,E,A*2B
$PGRME,3.0,M,3.0,M,4.3,M*29
$YXXDR,A,5.1,D,PTCH,A,4.9,D,ROLL*54
$HCHDG,275.0,0.0,E,,*29
$HCHDG,275.0,0.0,E,,*29
$GPRMC,154230.0,A,4740.81060,N,12224.42484,W,000.08,000.0,180513,016.6,E,A*20
$PGRME,3.0,M,3.0,M,4.3,M*29
$HCHDG,275.0,0.0,E,,*29
$HCHDG,275.0,0.0,E,,*29
$GPRMC,154230.2,A,4740.81055,N,12224.42485,W,000.08,000.0,180513,016.6,E,A*25
$PGRME,3.0,M,3.0,M,4.3,M*29
$HCHDG,275.0,0.0,E,,*29
$YXXDR,A,5.0,D,PTCH,A,4.3,D,ROLL*5F
$GPRMC,154230.4,A,4740.81049,N,12224.42476,W,000.08,000.0,180513,016.6,E,A*22
$PGRME,3.0,M,3.0,M,4.3,M*29
$HCHDG,274.9,0.0,E,,*21
$HCHDG,274.8,0.0,E,,*20
$PTAK,FFP1,HEEL,@*07
$HCHDG,274.8,0.0,E,,*20
$GPRMC,154230.6,A,4740.81046,N,12224.42466,W,000.12,000.0,180513,016.6,E,A*25
$GPRMB,A,0.12,L,,N,4741.0622,N,12224.6030,W,0.3,335,0.11,V*43
$PGRME,3.0,M,3.0,M,4.3,M*29
$HCHDG,274.7,0.0,E,,*2F
$HCHDG,274.7,0.0,E,,*2F
$GPRMC,154230.8,A,4740.81044,N,12224.42455,W,000.12,000.0,180513,016.6,E,A*29
$PGRME,3.0,M,3.0,M,4.3,M*29
$YXXDR,A,5.0,D,PTCH,A,4.7,D,ROLL*5B
$PTAK,FFD1,4.7*56
$HCHDG,274.6,0.0,E,,*2E
$HCHDG,274.5,0.0,E,,*2D
$GPRMC,154231.0,A,4740.81042,N,12224.42445,W,000.13,000.0,180513,016.6,E,A*26
$PGRME,3.0,M,3.0,M,4.3,M*29
$HCHDG,274.6,0.0,E,,*2E
$HCHDG,274.5,0.0,E,,*2D
$GPRMC,154231.2,A,4740.81039,N,12224.42445,W,000.16,000.0,180513,016.6,E,A*2D
$PGRME,3.0,M,3.0,M,4.3,M*29
$HCHDG,274.5,0.0,E,,*2D
$YXXDR,A,5.0,D,PTCH,A,5.9,D,ROLL*54
$GPRMC,154231.4,A,4740.81036,N,12224.42445,W,000.14,000.0,180513,016.6,E,A*26
$PGRME,3.0,M,3.0,M,4.3,M*29
$HCHDG,274.4,0.0,E,,*2C
$HCHDG,274.4,0.0,E,,*2C
$HCHDG,274.3,0.0,E,,*2B
$GPRMC,154231.6,A,4740.81037,N,12224.42435,W,000.12,000.0,180513,016.6,E,A*24
$PGRME,3.0,M,3.0,M,4.3,M*29
$HCHDG,274.3,0.0,E,,*2B
$HCHDG,274.5,0.0,E,,*2D
$GPRMC,154231.8,A,4740.81036,N,12224.42431,W,000.14,000.0,180513,016.6,E,A*29
$GPRMB,A,0.12,L,,N,4741.0622,N,12224.6030,W,0.3,334,0.13,V*40
$PGRME,3.0,M,3.0,M,4.3,M*29
$YXXDR,A,5.1,D,PTCH,A,6.9,D,ROLL*56
$PTAK,FFD1,6.9*5A
$HCHDG,274.4,0.0,E,,*2C
$GPRMC,154232.0,A,4740.81036,N,12224.42425,W,000.11,000.0,180513,016.6,E,A*22
$HCHDG,274.2,0.0,E,,*2A
$PGRME,3.0,M,3.0,M,4.3,M*29
$HCHDG,274.2,0.0,E,,*2A
$HCHDG,274.2,0.0,E,,*2A
$GPRMC,154232.2,A,4740.81038,N,12224.42429,W,000.06,000.0,180513,016.6,E,A*24
$PGRME,3.0,M,3.0,M,4.3,M*29
$HCHDG,274.1,0.0,E,,*29
$YXXDR,A,4.8,D,PTCH,A,7.7,D,ROLL*51
$GPRMC,154232.4,A,4740.81033,N,12224.42434,W,000.06,000.0,180513,016.6,E,A*25
$PGRME,3.0,M,3.0,M,4.3,M*29
$HCHDG,274.1,0.0,E,,*29
$HCHDG,274.0,0.0,E,,*28
$HCHDG,274.0,0.0,E,,*28
$GPRMC,154232.6,A,4740.81035,N,12224.42437,W,000.05,000.0,180513,016.6,E,A*21
$PGRME,3.0,M,3.0,M,4.3,M*29
$HCHDG,274.1,0.0,E,,*29
$HCHDG,274.1,0.0,E,,*29
$GPRMC,154232.8,A,4740.81040,N,12224.42435,W,000.04,000.0,180513,016.6,E,A*2E
$GPRMB,A,0.12,L,,N,4741.0622,N,12224.6030,W,0.3,334,0.04,V*46
$PGRME,3.0,M,3.0,M,4.3,M*29
$YXXDR,A,5.0,D,PTCH,A,7.5,D,ROLL*5A
$PTAK,FFD1,7.5*57
$HCHDG,274.1,0.0,E,,*29
$HCHDG,274.0,0.0,E,,*28
$GPRMC,154233.0,A,4740.81042,N,12224.42438,W,000.05,000.0,180513,016.6,E,A*29
$PGRME,3.0,M,3.0,M,4.3,M*29
$HCHDG,274.0,0.0,E,,*28
$HCHDG,274.0,0.0,E,,*28
$GPRMC,154233.2,A,4740.81043,N,12224.42443,W,000.05,000.0,180513,016.6,E,A*26
$PGRME,3.0,M,3.0,M,4.3,M*29
$HCHDG,274.0,0.0,E,,*28
$YXXDR,A,5.1,D,PTCH,A,6.8,D,ROLL*57
$GPRMC,154233.4,A,4740.81036,N,12224.42453,W,000.06,000.0,180513,016.6,E,A*20
$PGRME,3.0,M,3.0,M,4.3,M*29
$HCHDG,273.9,0.0,E,,*26
$HCHDG,273.9,0.0,E,,*26
$HCHDG,273.9,0.0,E,,*26
$GPRMC,154233.6,A,4740.81029,N,12224.42460,W,000.06,000.0,180513,016.6,E,A*2C
$PGRME,3.0,M,3.0,M,4.3,M*29
$HCHDG,273.9,0.0,E,,*26
$HCHDG,273.9,0.0,E,,*26
$GPRMC,154233.8,A,4740.81029,N,12224.42462,W,000.06,000.0,180513,016.6,E,A*20
$PGRME,3.0,M,3.0,M,4.3,M*29
$YXXDR,A,5.5,D,PTCH,A,5.6,D,ROLL*5E
$HCHDG,274.1,0.0,E,,*29
$HCHDG,274.1,0.0,E,,*29
$GPRMC,154234.0,A,4740.81023,N,12224.42461,W,000.05,000.0,180513,016.6,E,A*25
$GPRMB,A,0.12,L,,N,4741.0622,N,12224.6030,W,0.3,335,0.05,V*46
$PGRME,3.0,M,3.0,M,4.3,M*29
$HCHDG,274.1,0.0,E,,*29
$HCHDG,274.0,0.0,E,,*28
$GPRMC,154234.2,A,4740.81023,N,12224.42466,W,000.05,000.0,180513,016.6,E,A*20
$PGRME,3.0,M,3.0,M,4.3,M*29
$HCHDG,274.0,0.0,E,,*28
$YXXDR,A,5.2,D,PTCH,A,4.9,D,ROLL*57
$PTAK,FFD1,4.9*58
$GPRMC,154234.4,A,4740.81025,N,12224.42480,W,000.04,000.0,180513,016.6,E,A*29
$PGRME,3.0,M,3.0,M,4.3,M*29
$HCHDG,274.0,0.0,E,,*28
$HCHDG,274.1,0.0,E,,*29
$PTAK,FFP1,HEEL,@*07
$HCHDG,274.1,0.0,E,,*29
$GPRMC,154234.6,A,4740.81025,N,12224.42495,W,000.03,000.0,180513,016.6,E,A*28
$PGRME,3.0,M,3.0,M,4.3,M*29
$HCHDG,274.1,0.0,E,,*29
$HCHDG,274.1,0.0,E,,*29
$GPRMC,154234.8,A,4740.81029,N,12224.42500,W,000.04,000.0,180513,016.6,E,A*20
$PGRME,3.0,M,3.0,M,4.3,M*29
$YXXDR,A,5.3,D,PTCH,A,4.4,D,ROLL*5B
$HCHDG,274.1,0.0,E,,*29
$HCHDG,274.2,0.0,E,,*2A
$GPRMC,154235.0,A,4740.81029,N,12224.42496,W,000.05,000.0,180513,016.6,E,A*26
$GPRMB,A,0.12,L,,N,4741.0622,N,12224.6030,W,0.3,335,0.05,V*46
$PGRME,3.0,M,3.0,M,4.3,M*29
$HCHDG,274.2,0.0,E,,*2A
$HCHDG,274.2,0.0,E,,*2A
$GPRMC,154235.2,A,4740.81028,N,12224.42494,W,000.08,000.0,180513,016.6,E,A*2A
$PGRME,3.0,M,3.0,M,4.3,M*29
$HCHDG,274.2,0.0,E,,*2A
$YXXDR,A,5.2,D,PTCH,A,4.3,D,ROLL*5D
$PTAK,FFD1,4.3*52
$GPRMC,154235.4,A,4740.81023,N,12224.42495,W,000.11,000.0,180513,016.6,E,A*2E
$PGRME,3.0,M,3.0,M,4.3,M*29
$HCHDG,274.1,0.0,E,,*29
$HCHDG,274.3,0.0,E,,*2B
$HCHDG,274.2,0.0,E,,*2A
$GPRMC,154235.6,A,4740.81017,N,12224.42501,W,000.13,000.0,180513,016.6,E,A*25
$PGRME,3.0,M,3.0,M,4.3,M*29
$HCHDG,274.2,0.0,E,,*2A
$HCHDG,273.9,0.0,E,,*26
$GPRMC,154235.8,A,4740.81014,N,12224.42507,W,000.13,000.0,180513,016.6,E,A*2E
$PGRME,3.0,M,3.0,M,4.3,M*29
$YXXDR,A,5.3,D,PTCH,A,4.6,D,ROLL*59
$HCHDG,273.8,0.0,E,,*27
$HCHDG,273.7,0.0,E,,*28
$GPRMC,154236.0,A,4740.81016,N,12224.42502,W,000.07,000.0,180513,016.6,E,A*27
$PGRME,3.0,M,3.0,M,4.3,M*29
$HCHDG,273.7,0.0,E,,*28
$HCHDG,273.7,0.0,E,,*28
$GPRMC,154236.2,A,4740.81016,N,12224.42501,W,000.01,000.0,180513,016.6,E,A*20
$GPRMB,A,0.12,L,,N,4741.0622,N,12224.6030,W,0.3,335,0.01,V*42
$PGRME,3.0,M,3.0,M,4.3,M*29
$HCHDG,273.6,0.0,E,,*29
$YXXDR,A,5.2,D,PTCH,A,4.9,D,ROLL*57
$PTAK,FFD1,4.9*58
$GPRMC,154236.4,A,4740.81016,N,12224.42501,W,000.03,000.0,180513,016.6,E,A*24
$PGRME,3.0,M,3.0,M,4.3,M*29
$HCHDG,273.6,0.0,E,,*29
$HCHDG,273.5,0.0,E,,*2A
$HCHDG,273.5,0.0,E,,*2A
$GPRMC,154236.6,A,4740.81016,N,12224.42502,W,000.08,000.0,180513,016.6,E,A*2E
$PGRME,3.0,M,3.0,M,4.3,M*29
$HCHDG,273.4,0.0,E,,*2B
$HCHDG,273.2,0.0,E,,*2D
$GPRMC,154236.8,A,4740.81016,N,12224.42502,W,000.15,000.0,180513,016.6,E,A*2C
$PGRME,3.0,M,3.0,M,4.3,M*29
$YXXDR,A,5.0,D,PTCH,A,4.7,D,ROLL*5B
$HCHDG,273.1,0.0,E,,*2E
$HCHDG,273.1,0.0,E,,*2E
$GPRMC,154237.0,A,4740.81015,N,12224.42501,W,000.10,000.0,180513,016.6,E,A*20
$PGRME,3.0,M,3.0,M,4.3,M*29
$HCHDG,273.1,0.0,E,,*2E
$HCHDG,273.2,0.0,E,,*2D
$GPRMC,154237.2,A,4740.81015,N,12224.42501,W,000.11,000.0,180513,016.6,E,A*23
$GPRMB,A,0.12,L,,N,4741.0622,N,12224.6030,W,0.3,335,0.10,V*42
$PGRME,3.0,M,3.0,M,4.3,M*29
$HCHDG,273.2,0.0,E,,*2D
$YXXDR,A,5.1,D,PTCH,A,4.0,D,ROLL*5D
$PTAK,FFD1,4.0*51
$GPRMC,154237.4,A,4740.81014,N,12224.42501,W,000.13,000.0,180513,016.6,E,A*26
$PGRME,3.0,M,3.0,M,4.3,M*29
$HCHDG,273.1,0.0,E,,*2E
$HCHDG,273.1,0.0,E,,*2E
$HCHDG,273.1,0.0,E,,*2E
$GPRMC,154237.6,A,4740.81014,N,12224.42500,W,000.11,000.0,180513,016.6,E,A*27
$PGRME,3.0,M,3.0,M,4.3,M*29
$HCHDG,273.3,0.0,E,,*2C
$HCHDG,273.3,0.0,E,,*2C
$GPRMC,154237.8,A,4740.81013,N,12224.42499,W,000.03,000.0,180513,016.6,E,A*2C
$PGRME,3.0,M,3.0,M,4.3,M*29
$YXXDR,A,5.2,D,PTCH,A,3.8,D,ROLL*51
$HCHDG,273.3,0.0,E,,*2C
$HCHDG,273.3,0.0,E,,*2C
$GPRMC,154238.0,A,4740.81013,N,12224.42499,W,000.03,000.0,180513,016.6,E,A*2B
$PGRME,3.0,M,3.0,M,4.3,M*29
$HCHDG,273.5,0.0,E,,*2A
$HCHDG,273.5,0.0,E,,*2A
$GPRMC,154238.2,A,4740.81013,N,12224.42500,W,000.02,000.0,180513,016.6,E,A*29
$GPRMB,A,0.12,L,,N,4741.0622,N,12224.6030,W,0.3,335,0.02,V*41
$PGRME,3.0,M,3.0,M,4.3,M*29
$HCHDG,273.5,0.0,E,,*2A
$PTAK,FFP1,HEEL,@*07
$YXXDR,A,5.5,D,PTCH,A,4.0,D,ROLL*59
$PTAK,FFD1,4.0*51
$GPRMC,154238.4,A,4740.81014,N,12224.42500,W,000.04,000.0,180513,016.6,E,A*2E
$PGRME,3.0,M,3.0,M,4.3,M*29
$HCHDG,273.5,0.0,E,,*2A
$HCHDG,273.5,0.0,E,,*2A
$HCHDG,273.5,0.0,E,,*2A
$GPRMC,154238.6,A,4740.81014,N,12224.42500,W,000.07,000.0,180513,016.6,E,A*2F
$PGRME,3.0,M,3.0,M,4.3,M*29
$HCHDG,273.4,0.0,E,,*2B
$HCHDG,273.4,0.0,E,,*2B
$GPRMC,154238.8,A,4740.81014,N,12224.42499,W,000.05,000.0,180513,016.6,E,A*22
$PGRME,3.0,M,3.0,M,4.3,M*29
$YXXDR,A,5.4,D,PTCH,A,4.3,D,ROLL*5B
$HCHDG,273.4,0.0,E,,*2B
$HCHDG,273.4,0.0,E,,*2B
$GPRMC,154239.0,A,4740.81014,N,12224.42499,W,000.07,000.0,180513,016.6,E,A*29
$PGRME,3.0,M,3.0,M,4.3,M*29
$HCHDG,273.3,0.0,E,,*2C
$HCHDG,273.5,0.0,E,,*2A
$GPRMC,154239.2,A,4740.81015,N,12224.42499,W,000.04,000.0,180513,016.6,E,A*29
$PGRME,3.0,M,3.0,M,4.3,M*29
$HCHDG,273.4,0.0,E,,*2B
$YXXDR,A,5.4,D,PTCH,A,4.9,D,ROLL*51
$GPRMC,154239.4,A,4740.81015,N,12224.42499,W,000.05,000.0,180513,016.6,E,A*2E
$GPRMB,A,0.12,L,,N,4741.0622,N,12224.6030,W,0.3,335,0.05,V*46
$PGRME,3.0,M,3.0,M,4.3,M*29
$HCHDG,273.4,0.0,E,,*2B
$HCHDG,273.4,0.0,E,,*2B
$HCHDG,273.3,0.0,E,,*2C
$GPRMC,154239.6,A,4740.81015,N,12224.42500,W,000.03,000.0,180513,016.6,E,A*2B
$PGRME,3.0,M,3.0,M,4.3,M*29
$HCHDG,273.2,0.0,E,,*2D
$HCHDG,273.2,0.0,E,,*2D
$GPRMC,154239.8,A,4740.81015,N,12224.42500,W,000.05,000.0,180513,016.6,E,A*23
$PGRME,3.0,M,3.0,M,4.3,M*29
$YXXDR,A,5.3,D,PTCH,A,5.0,D,ROLL*5E
$PTAK,FFD1,5.0*50
$HCHDG,273.2,0.0,E,,*2D
$HCHDG,273.1,0.0,E,,*2E
$GPRMC,154240.0,A,4740.81016,N,12224.42500,W,000.04,000.0,180513,016.6,E,A*27
$PGRME,3.0,M,3.0,M,4.3,M*29
$HCHDG,273.0,0.0,E,,*2F
$HCHDG,273.0,0.0,E,,*2F
$GPRMC,154240.2,A,4740.81016,N,12224.42501,W,000.01,000.0,180513,016.6,E,A*21
$PGRME,3.0,M,3.0,M,4.3,M*29
$HCHDG,273.1,0.0,E,,*2E
$YXXDR,A,5.1,D,PTCH,A,5.1,D,ROLL*5D
$GPRMC,154240.4,A,4740.81016,N,12224.42501,W,000.02,000.0,180513,016.6,E,A*24
$GPRMB,A,0.12,L,,N,4741.0622,N,12224.6030,W,0.3,335,0.02,V*41
$PGRME,3.0,M,3.0,M,4.3,M*29
$HCHDG,273.0,0.0,E,,*2F
$HCHDG,272.8,0.0,E,,*26
$HCHDG,272.8,0.0,E,,*26
$GPRMC,154240.6,A,4740.81017,N,12224.42501,W,000.04,000.0,180513,016.6,E,A*21
$PGRME,3.0,M,3.0,M,4.3,M*29
$HCHDG,272.7,0.0,E,,*29
$HCHDG,272.7,0.0,E,,*29
$GPRMC,154240.8,A,4740.81017,N,12224.42501,W,000.05,000.0,180513,016.6,E,A*2E
$PGRME,3.0,M,3.0,M,4.3,M*29
$YXXDR,A,5.1,D,PTCH,A,5.2,D,ROLL*5E
$HCHDG,272.6,0.0,E,,*28
$HCHDG,272.6,0.0,E,,*28
$GPRMC,154241.0,A,4740.81017,N,12224.42500,W,000.03,000.0,180513,016.6,E,A*20
$PGRME,3.0,M,3.0,M,4.3,M*29
$HCHDG,272.5,0.0,E,,*2B
$HCHDG,272.5,0.0,E,,*2B
$GPRMC,154241.2,A,4740.81018,N,12224.42500,W,000.02,000.0,180513,016.6,E,A*2C
$PGRME,3.0,M,3.0,M,4.3,M*29
$HCHDG,272.6,0.0,E,,*28
$YXXDR,A,5.1,D,PTCH,A,5.4,D,ROLL*58
$PTAK,FFD1,5.4*54
$GPRMC,154241.4,A,4740.81018,N,12224.42500,W,000.03,000.0,180513,016.6,E,A*2B
$PGRME,3.0,M,3.0,M,4.3,M*29
$HCHDG,272.6,0.0,E,,*28
$HCHDG,272.5,0.0,E,,*2B
$HCHDG,272.5,0.0,E,,*2B
$GPRMC,154241.6,A,4740.81018,N,12224.42500,W,000.05,000.0,180513,016.6,E,A*2F
$GPRMB,A,0.12,L,,N,4741.0622,N,12224.6030,W,0.3,335,0.05,V*46
$PGRME,3.0,M,3.0,M,4.3,M*29
$HCHDG,272.5,0.0,E,,*2B
$HCHDG,272.5,0.0,E,,*2B
$GPRMC,154241.8,A,4740.81018,N,12224.42500,W,000.05,000.0,180513,016.6,E,A*21
$PGRME,3.0,M,3.0,M,4.3,M*29
$YXXDR,A,5.1,D,PTCH,A,5.8,D,ROLL*54
$HCHDG,272.5,0.0,E,,*2B
$HCHDG,272.5,0.0,E,,*2B
$GPRMC,154242.0,A,4740.81018,N,12224.42500,W,000.14,000.0,180513,016.6,E,A*2A
$PGRME,3.0,M,3.0,M,4.3,M*29
$HCHDG,272.5,0.0,E,,*2B
$HCHDG,272.5,0.0,E,,*2B
$GPRMC,154242.2,A,4740.81017,N,12224.42500,W,000.12,000.0,180513,016.6,E,A*21
$PGRME,3.0,M,3.0,M,4.3,M*29
$HCHDG,272.5,0.0,E,,*2B
$YXXDR,A,5.0,D,PTCH,A,6.1,D,ROLL*5F
$GPRMC,154242.4,A,4740.81016,N,12224.42500,W,000.09,000.0,180513,016.6,E,A*2C
$PGRME,3.0,M,3.0,M,4.3,M*29
$HCHDG,272.4,0.0,E,,*2A
$HCHDG,272.4,0.0,E,,*2A
$HCHDG,272.4,0.0,E,,*2A
$GPRMC,154242.6,A,4740.81016,N,12224.42500,W,000.04,000.0,180513,016.6,E,A*23
$PGRME,3.0,M,3.0,M,4.3,M*29
$HCHDG,272.4,0.0,E,,*2A
$PTAK,FFP1,HEEL,@*07
$HCHDG,272.4,0.0,E,,*2A
$GPRMC,154242.8,A,4740.81016,N,12224.42499,W,000.05,000.0,180513,016.6,E,A*2D
$GPRMB,A,0.12,L,,N,4741.0622,N,12224.6030,W,0.3,335,0.05,V*46
$PGRME,3.0,M,3.0,M,4.3,M*29
$YXXDR,A,5.2,D,PTCH,A,6.0,D,ROLL*5C
$PTAK,FFD1,6.0*53
$HCHDG,272.4,0.0,E,,*2A
$HCHDG,272.4,0.0,E,,*2A
$GPRMC,154243.0,A,4740.81016,N,12224.42499,W,000.10,000.0,180513,016.6,E,A*20
$PGRME,3.0,M,3.0,M,4.3,M*29
$HCHDG,272.4,0.0,E,,*2A
$HCHDG,272.5,0.0,E,,*2B
$GPRMC,154243.2,A,4740.81016,N,12224.42498,W,000.11,000.0,180513,016.6,E,A*22
$PGRME,3.0,M,3.0,M,4.3,M*29
$HCHDG,272.3,0.0,E,,*2D
$YXXDR,A,5.1,D,PTCH,A,6.4,D,ROLL*5B
$GPRMC,154243.4,A,4740.81016,N,12224.42497,W,000.08,000.0,180513,016.6,E,A*23
$PGRME,3.0,M,3.0,M,4.3,M*29
$HCHDG,272.3,0.0,E,,*2D
$HCHDG,272.3,0.0,E,,*2D
$HCHDG,272.5,0.0,E,,*2B
$GPRMC,154243.6,A,4740.81016,N,12224.42497,W,000.02,000.0,180513,016.6,E,A*2B
$PGRME,3.0,M,3.0,M,4.3,M*29
$HCHDG,272.5,0.0,E,,*2B
$HCHDG,272.5,0.0,E,,*2B
$GPRMC,154243.8,A,4740.81016,N,12224.42497,W,000.02,000.0,180513,016.6,E,A*25
$PGRME,3.0,M,3.0,M,4.3,M*29
$YXXDR,A,5.2,D,PTCH,A,6.8,D,ROLL*54
$HCHDG,272.3,0.0,E,,*2D
$HCHDG,272.5,0.0,E,,*2B
$GPRMC,154244.0,A,4740.81016,N,12224.42497,W,000.01,000.0,180513,016.6,E,A*29
$GPRMB,A,0.12,L,,N,4741.0622,N,12224.6030,W,0.3,335,0.01,V*42
$PGRME,3.0,M,3.0,M,4.3,M*29
$PGRMT,GPS 18x-5Hz software ver. 3.20,,,,,,,,*30
$HCHDG,272.6,0.0,E,,*28
$HCHDG,272.6,0.0,E,,*28
$GPRMC,154244.2,A,4740.81016,N,12224.42497,W,000.06,000.0,180513,016.6,E,A*2C
$PGRME,3.0,M,3.0,M,4.3,M*29
$HCHDG,272.6,0.0,E,,*28
$YXXDR,A,5.4,D,PTCH,A,7.2,D,ROLL*59
$PTAK,FFD1,7.2*50
$GPRMC,154244.4,A,4740.81016,N,12224.42497,W,000.08,000.0,180513,016.6,E,A*24
$PGRME,3.0,M,3.0,M,4.3,M*29
$HCHDG,272.4,0.0,E,,*2A
$HCHDG,272.3,0.0,E,,*2D
$HCHDG,272.4,0.0,E,,*2A
$GPRMC,154244.6,A,4740.81016,N,12224.42497,W,000.05,000.0,180513,016.6,E,A*2B
$PGRME,3.0,M,3.0,M,4.3,M*29
$HCHDG,272.4,0.0,E,,*2A
$HCHDG,272.4,0.0,E,,*2A
$GPRMC,154244.8,A,4740.81016,N,12224.42497,W,000.04,000.0,180513,016.6,E,A*24
$PGRME,3.0,M,3.0,M,4.3,M*29
$YXXDR,A,5.3,D,PTCH,A,7.6,D,ROLL*5A
$HCHDG,272.4,0.0,E,,*2A
$HCHDG,272.4,0.0,E,,*2A
$GPRMC,154245.0,A,4740.81015,N,12224.42496,W,000.01,000.0,180513,016.6,E,A*2A
$PGRME,3.0,M,3.0,M,4.3,M*29
$HCHDG,272.4,0.0,E,,*2A
$HCHDG,272.3,0.0,E,,*2D
$GPRMC,154245.2,A,4740.81014,N,12224.42497,W,000.03,000.0,180513,016.6,E,A*2A
$GPRMB,A,0.12,L,,N,4741.0622,N,12224.6030,W,0.3,335,0.03,V*40
$PGRME,3.0,M,3.0,M,4.3,M*29
$HCHDG,272.3,0.0,E,,*2D
$YXXDR,A,5.4,D,PTCH,A,8.7,D,ROLL*53
$PTAK,FFD1,8.7*5A
$GPRMC,154245.4,A,4740.81014,N,12224.42497,W,000.05,000.0,180513,016.6,E,A*2A
$PGRME,3.0,M,3.0,M,4.3,M*29
$HCHDG,272.4,0.0,E,,*2A
$HCHDG,272.4,0.0,E,,*2A
$HCHDG,272.4,0.0,E,,*2A
$GPRMC,154245.6,A,4740.81014,N,12224.42497,W,000.05,000.0,180513,016.6,E,A*28
$PGRME,3.0,M,3.0,M,4.3,M*29
$HCHDG,272.5,0.0,E,,*2B
$HCHDG,272.5,0.0,E,,*2B
$GPRMC,154245.8,A,4740.81014,N,12224.42497,W,000.04,000.0,180513,016.6,E,A*27
$PGRME,3.0,M,3.0,M,4.3,M*29
$YXXDR,A,5.2,D,PTCH,A,8.4,D,ROLL*56
$HCHDG,272.3,0.0,E,,*2D
$HCHDG,272.4,0.0,E,,*2A
$GPRMC,154246.0,A,4740.81014,N,12224.42497,W,000.04,000.0,180513,016.6,E,A*2C
$PGRME,3.0,M,3.0,M,4.3,M*29
$HCHDG,272.4,0.0,E,,*2A
$HCHDG,272.4,0.0,E,,*2A
$GPRMC,154246.2,A,4740.81013,N,12224.42498,W,000.01,000.0,180513,016.6,E,A*23
$PGRME,3.0,M,3.0,M,4.3,M*29
$HCHDG,272.4,0.0,E,,*2A
$YXXDR,A,5.2,D,PTCH,A,7.5,D,ROLL*58
$GPRMC,154246.4,A,4740.81014,N,12224.42498,W,000.01,000.0,180513,016.6,E,A*22
$GPRMB,A,0.12,L,,N,4741.0622,N,12224.6030,W,0.3,335,0.01,V*42
$PGRME,3.0,M,3.0,M,4.3,M*29
$HCHDG,272.6,0.0,E,,*28
$HCHDG,272.6,0.0,E,,*28
$HCHDG,272.7,0.0,E,,*29
$GPRMC,154246.6,A,4740.81014,N,12224.42499,W,000.03,000.0,180513,016.6,E,A*23
$PGRME,3.0,M,3.0,M,4.3,M*29
$HCHDG,272.7,0.0,E,,*29
$PTAK,FFP1,HEEL,@*07
$HCHDG,272.8,0.0,E,,*26
$GPRMC,154246.8,A,4740.81014,N,12224.42499,W,000.02,000.0,180513,016.6,E,A*2C
$PGRME,3.0,M,3.0,M,4.3,M*29
$YXXDR,A,5.1,D,PTCH,A,7.2,D,ROLL*5C
$PTAK,FFD1,7.2*50
$HCHDG,272.8,0.0,E,,*26
$HCHDG,272.8,0.0,E,,*26
$GPRMC,154247.0,A,4740.81014,N,12224.42499,W,000.02,000.0,180513,016.6,E,A*25
$PGRME,3.0,M,3.0,M,4.3,M*29
$HCHDG,273.0,0.0,E,,*2F
$HCHDG,273.0,0.0,E,,*2F
$GPRMC,154247.2,A,4740.81014,N,12224.42499,W,000.01,000.0,180513,016.6,E,A*24
$PGRME,3.0,M,3.0,M,4.3,M*29
$HCHDG,273.0,0.0,E,,*2F
$YXXDR,A,5.5,D,PTCH,A,7.0,D,ROLL*5A
$GPRMC,154247.4,A,4740.81014,N,12224.42499,W,000.02,000.0,180513,016.6,E,A*21
$GPRMB,A,0.12,L,,N,4741.0622,N,12224.6030,W,0.3,335,0.02,V*41
$PGRME,3.0,M,3.0,M,4.3,M*29
$HCHDG,273.1,0.0,E,,*2E
$HCHDG,273.3,0.0,E,,*2C
$HCHDG,273.2,0.0,E,,*2D
$GPRMC,154247.6,A,4740.81014,N,12224.42499,W,000.02,000.0,180513,016.6,E,A*23
$PGRME,3.0,M,3.0,M,4.3,M*29
$HCHDG,273.3,0.0,E,,*2C
$HCHDG,273.5,0.0,E,,*2A
$GPRMC,154247.8,A,4740.81014,N,12224.42499,W,000.02,000.0,180513,016.6,E,A*2D
$PGRME,3.0,M,3.0,M,4.3,M*29
$YXXDR,A,5.2,D,PTCH,A,6.9,D,ROLL*55
$PTAK,FFD1,6.9*5A
$HCHDG,273.5,0.0,E,,*2A
$HCHDG,273.8,0.0,E,,*27
$GPRMC,154248.0,A,4740.81014,N,12224.42499,W,000.02,000.0,180513,016.6,E,A*2A
$PGRME,3.0,M,3.0,M,4.3,M*29
$HCHDG,273.8,0.0,E,,*27
$HCHDG,273.9,0.0,E,,*26
$GPRMC,154248.2,A,4740.81014,N,12224.42500,W,000.02,000.0,180513,016.6,E,A*29
$PGRME,3.0,M,3.0,M,4.3,M*29
$HCHDG,273.9,0.0,E,,*26
$YXXDR,A,5.3,D,PTCH,A,6.9,D,ROLL*54
$GPRMC,154248.4,A,4740.81014,N,12224.42500,W,000.02,000.0,180513,016.6,E,A*2F
$GPRMB,A,0.12,L,,N,4741.0622,N,12224.6030,W,0.3,335,0.02,V*41
$PGRME,3.0,M,3.0,M,4.3,M*29
$HCHDG,274.1,0.0,E,,*29
$HCHDG,274.2,0.0,E,,*2A
$HCHDG,274.3,0.0,E,,*2B
$GPRMC,154248.6,A,4740.81014,N,12224.42500,W,000.03,000.0,180513,016.6,E,A*2C
$PGRME,3.0,M,3.0,M,4.3,M*29
$HCHDG,274.4,0.0,E,,*2C
$HCHDG,274.3,0.0,E,,*2B
$GPRMC,154248.8,A,4740.81014,N,12224.42500,W,000.03,000.0,180513,016.6,E,A*22
$PGRME,3.0,M,3.0,M,4.3,M*29
$YXXDR,A,5.2,D,PTCH,A,6.4,D,ROLL*58
$HCHDG,274.2,0.0,E,,*2A
$HCHDG,274.3,0.0,E,,*2B
$GPRMC,154249.0,A,4740.81014,N,12224.42500,W,000.01,000.0,180513,016.6,E,A*29
$PGRME,3.0,M,3.0,M,4.3,M*29
$HCHDG,274.3,0.0,E,,*2B
$HCHDG,274.4,0.0,E,,*2C
$GPRMC,154249.2,A,4740.81013,N,12224.42501,W,000.01,000.0,180513,016.6,E,A*2D
$PGRME,3.0,M,3.0,M,4.3,M*29
$HCHDG,274.7,0.0,E,,*2F
$YXXDR,A,5.3,D,PTCH,A,5.8,D,ROLL*56
$PTAK,FFD1,5.8*58
$GPRMC,154249.4,A,4740.81013,N,12224.42501,W,000.00,000.0,180513,016.6,E,A*2A
$GPRMB,A,0.12,L,,N,4741.0622,N,12224.6030,W,0.3,335,0.00,V*43
$PGRME,3.0,M,3.0,M,4.3,M*29
$HCHDG,274.7,0.0,E,,*2F
$HCHDG,274.6,0.0,E,,*2E
$HCHDG,274.6,0.0,E,,*2E
$GPRMC,154249.6,A,4740.81013,N,12224.42501,W,000.01,000.0,180513,016.6,E,A*29
$PGRME,3.0,M,3.0,M,4.3,M*29
$HCHDG,274.5,0.0,E,,*2D
$HCHDG,274.5,0.0,E,,*2D
$GPRMC,154249.8,A,4740.81013,N,12224.42501,W,000.00,000.0,180513,016.6,E,A*26
$PGRME,3.0,M,3.0,M,4.3,M*29
$YXXDR,A,5.1,D,PTCH,A,5.1,D,ROLL*5D
$HCHDG,274.6,0.0,E,,*2E
$HCHDG,274.4,0.0,E,,*2C
$GPRMC,154250.0,A,4740.81013,N,12224.42501,W,000.01,000.0,180513,016.6,E,A*27
$PGRME,3.0,M,3.0,M,4.3,M*29
$HCHDG,274.5,0.0,E,,*2D
$HCHDG,274.5,0.0,E,,*2D
$GPRMC,154250.2,A,4740.81013,N,12224.42501,W,000.01,000.0,180513,016.6,E,A*25
$PGRME,3.0,M,3.0,M,4.3,M*29
$HCHDG,274.5,0.0,E,,*2D
$YXXDR,A,5.1,D,PTCH,A,5.1,D,ROLL*5D
$GPRMC,154250.4,A,4740.81013,N,12224.42501,W,000.01,000.0,180513,016.6,E,A*23
$PGRME,3.0,M,3.0,M,4.3,M*29
$HCHDG,274.6,0.0,E,,*2E
$HCHDG,274.8,0.0,E,,*20
$HCHDG,274.6,0.0,E,,*2E
$GPRMC,154250.6,A,4740.81013,N,12224.42501,W,000.01,000.0,180513,016.6,E,A*21
$GPRMB,A,0.12,L,,N,4741.0622,N,12224.6030,W,0.3,335,0.01,V*42
$PGRME,3.0,M,3.0,M,4.3,M*29
$HCHDG,274.6,0.0,E,,*2E
$PTAK,FFP1,HEEL,@*07
$HCHDG,274.6,0.0,E,,*2E
$GPRMC,154250.8,A,4740.81013,N,12224.42502,W,000.02,000.0,180513,016.6,E,A*2F
$PGRME,3.0,M,3.0,M,4.3,M*29
$YXXDR,A,5.2,D,PTCH,A,5.2,D,ROLL*5D
$PTAK,FFD1,5.2*52
$HCHDG,274.7,0.0,E,,*2F
$HCHDG,274.6,0.0,E,,*2E
$GPRMC,154251.0,A,4740.81013,N,12224.42502,W,000.02,000.0,180513,016.6,E,A*26
$PGRME,3.0,M,3.0,M,4.3,M*29
$HCHDG,274.6,0.0,E,,*2E
$HCHDG,274.5,0.0,E,,*2D
$GPRMC,154251.2,A,4740.81013,N,12224.42502,W,000.02,000.0,180513,016.6,E,A*24
$PGRME,3.0,M,3.0,M,4.3,M*29
$HCHDG,274.5,0.0,E,,*2D
$YXXDR,A,5.1,D,PTCH,A,5.5,D,ROLL*59
$GPRMC,154251.4,A,4740.81013,N,12224.42502,W,000.01,000.0,180513,016.6,E,A*21
$PGRME,3.0,M,3.0,M,4.3,M*29
$HCHDG,274.5,0.0,E,,*2D
$HCHDG,274.5,0.0,E,,*2D
$HCHDG,274.5,0.0,E,,*2D
$GPRMC,154251.6,A,4740.81013,N,12224.42501,W,000.01,000.0,180513,016.6,E,A*20
$PGRME,3.0,M,3.0,M,4.3,M*29
$HCHDG,274.5,0.0,E,,*2D
$HCHDG,274.5,0.0,E,,*2D
$GPRMC,154251.8,A,4740.81012,N,12224.42501,W,000.01,000.0,180513,016.6,E,A*2F
$GPRMB,A,0.12,L,,N,4741.0622,N,12224.6030,W,0.3,335,0.01,V*42
$PGRME,3.0,M,3.0,M,4.3,M*29
$YXXDR,A,5.2,D,PTCH,A,5.9,D,ROLL*56
$PTAK,FFD1,5.9*59
$HCHDG,274.2,0.0,E,,*2A
$HCHDG,274.2,0.0,E,,*2A
$GPRMC,154252.0,A,4740.81013,N,12224.42501,W,000.01,000.0,180513,016.6,E,A*25
$PGRME,3.0,M,3.0,M,4.3,M*29
$HCHDG,274.2,0.0,E,,*2A
$HCHDG,274.2,0.0,E,,*2A
$GPRMC,154252.2,A,4740.81013,N,12224.42502,W,000.02,000.0,180513,016.6,E,A*27
$PGRME,3.0,M,3.0,M,4.3,M*29
$HCHDG,274.2,0.0,E,,*2A
$YXXDR,A,4.8,D,PTCH,A,5.8,D,ROLL*5C
$GPRMC,154252.4,A,4740.81013,N,12224.42502,W,000.02,000.0,180513,016.6,E,A*21
$PGRME,3.0,M,3.0,M,4.3,M*29
$HCHDG,274.1,0.0,E,,*29
$HCHDG,274.1,0.0,E,,*29
$HCHDG,274.1,0.0,E,,*29
$GPRMC,154252.6,A,4740.81013,N,12224.42502,W,000.02,000.0,180513,016.6,E,A*23
$PGRME,3.0,M,3.0,M,4.3,M*29
$HCHDG,274.1,0.0,E,,*29
$HCHDG,274.0,0.0,E,,*28
$GPRMC,154252.8,A,4740.81013,N,12224.42502,W,000.02,000.0,180513,016.6,E,A*2D
$PGRME,3.0,M,3.0,M,4.3,M*29
$YXXDR,A,5.1,D,PTCH,A,5.4,D,ROLL*58
$HCHDG,274.2,0.0,E,,*2A
$HCHDG,274.2,0.0,E,,*2A
$GPRMC,154253.0,A,4740.81013,N,12224.42502,W,000.01,000.0,180513,016.6,E,A*27
$GPRMB,A,0.12,L,,N,4741.0622,N,12224.6030,W,0.3,335,0.01,V*42
$PGRME,3.0,M,3.0,M,4.3,M*29
$HCHDG,274.2,0.0,E,,*2A
$HCHDG,274.1,0.0,E,,*29
$GPRMC,154253.2,A,4740.81013,N,12224.42501,W,000.02,000.0,180513,016.6,E,A*25
$PGRME,3.0,M,3.0,M,4.3,M*29
$HCHDG,274.1,0.0,E,,*29
$YXXDR,A,5.3,D,PTCH,A,5.6,D,ROLL*58
$PTAK,FFD1,5.6*56
$GPRMC,154253.4,A,4740.81013,N,12224.42501,W,000.02,000.0,180513,016.6,E,A*23
$PGRME,3.0,M,3.0,M,4.3,M*29
$HCHDG,274.1,0.0,E,,*29
$HCHDG,274.0,0.0,E,,*28
$HCHDG,274.0,0.0,E,,*28
$GPRMC,154253.6,A,4740.81013,N,12224.42501,W,000.03,000.0,180513,016.6,E,A*20
$PGRME,3.0,M,3.0,M,4.3,M*29
$HCHDG,274.0,0.0,E,,*28
$HCHDG,273.9,0.0,E,,*26
$GPRMC,154253.8,A,4740.81013,N,12224.42501,W,000.01,000.0,180513,016.6,E,A*2C
$PGRME,3.0,M,3.0,M,4.3,M*29
$YXXDR,A,5.1,D,PTCH,A,5.6,D,ROLL*5A
$HCHDG,273.8,0.0,E,,*27
$HCHDG,273.9,0.0,E,,*26
$GPRMC,154254.0,A,4740.81013,N,12224.42501,W,000.02,000.0,180513,016.6,E,A*20
$GPRMB,A,0.12,L,,N,4741.0622,N,12224.6030,W,0.3,335,0.02,V*41
$PGRME,3.0,M,3.0,M,4.3,M*29
$HCHDG,274.1,0.0,E,,*29
$HCHDG,273.9,0.0,E,,*26
$GPRMC,154254.2,A,4740.81013,N,12224.42501,W,000.00,000.0,180513,016.6,E,A*20
$PGRME,3.0,M,3.0,M,4.3,M*29
$HCHDG,273.8,0.0,E,,*27
$YXXDR,A,5.4,D,PTCH,A,5.7,D,ROLL*5E
$GPRMC,154254.4,A,4740.81013,N,12224.42501,W,000.02,000.0,180513,016.6,E,A*24
$PGRME,3.0,M,3.0,M,4.3,M*29
$HCHDG,273.7,0.0,E,,*28
$HCHDG,273.7,0.0,E,,*28
$HCHDG,273.7,0.0,E,,*28
$GPRMC,154254.6,A,4740.81013,N,12224.42501,W,000.03,000.0,180513,016.6,E,A*27
$PGRME,3.0,M,3.0,M,4.3,M*29
$HCHDG,273.6,0.0,E,,*29
$HCHDG,273.5,0.0,E,,*2A
$GPRMC,154254.8,A,4740.81013,N,12224.42501,W,000.03,000.0,180513,016.6,E,A*29
$PTAK,FFP1,HEEL,@*07
$PGRME,3.0,M,3.0,M,4.3,M*29
$YXXDR,A,5.5,D,PTCH,A,5.7,D,ROLL*5F
$PTAK,FFD1,5.7*57
$HCHDG,273.3,0.0,E,,*2C
$HCHDG,273.3,0.0,E,,*2C
$GPRMC,154255.0,A,4740.81013,N,12224.42501,W,000.02,000.0,180513,016.6,E,A*21
$PGRME,3.0,M,3.0,M,4.3,M*29
$HCHDG,273.3,0.0,E,,*2C
$HCHDG,273.2,0.0,E,,*2D
$GPRMC,154255.2,A,4740.81013,N,12224.42501,W,000.02,000.0,180513,016.6,E,A*23
$GPRMB,A,0.12,L,,N,4741.0622,N,12224.6030,W,0.3,335,0.02,V*41
$PGRME,3.0,M,3.0,M,4.3,M*29
$HCHDG,273.3,0.0,E,,*2C
$YXXDR,A,5.5,D,PTCH,A,6.1,D,ROLL*5A
$GPRMC,154255.4,A,4740.81013,N,12224.42501,W,000.01,000.0,180513,016.6,E,A*26
$PGRME,3.0,M,3.0,M,4.3,M*29
$HCHDG,273.1,0.0,E,,*2E
$HCHDG,273.0,0.0,E,,*2F
$HCHDG,273.0,0.0,E,,*2F
$GPRMC,154255.6,A,4740.81013,N,12224.42501,W,000.01,000.0,180513,016.6,E,A*24
$PGRME,3.0,M,3.0,M,4.3,M*29
$HCHDG,273.0,0.0,E,,*2F
$HCHDG,272.8,0.0,E,,*26
$GPRMC,154255.8,A,4740.81013,N,12224.42502,W,000.01,000.0,180513,016.6,E,A*29
$PGRME,3.0,M,3.0,M,4.3,M*29
$YXXDR,A,5.3,D,PTCH,A,6.7,D,ROLL*5A
$HCHDG,272.8,0.0,E,,*26
$HCHDG,272.7,0.0,E,,*29
$GPRMC,154256.0,A,4740.81013,N,12224.42502,W,000.01,000.0,180513,016.6,E,A*22
$PGRME,3.0,M,3.0,M,4.3,M*29
$HCHDG,272.7,0.0,E,,*29
$HCHDG,272.7,0.0,E,,*29
$GPRMC,154256.2,A,4740.81013,N,12224.42502,W,000.00,000.0,180513,016.6,E,A*21
$PGRME,3.0,M,3.0,M,4.3,M*29
$HCHDG,272.7,0.0,E,,*29
$YXXDR,A,5.3,D,PTCH,A,6.7,D,ROLL*5A
$PTAK,FFD1,6.7*54
$GPRMC,154256.4,A,4740.81013,N,12224.42502,W,000.00,000.0,180513,016.6,E,A*27
$GPRMB,A,0.12,L,,N,4741.0622,N,12224.6030,W,0.3,335,0.00,V*43
$PGRME,3.0,M,3.0,M,4.3,M*29
$HCHDG,272.6,0.0,E,,*28
$HCHDG,272.6,0.0,E,,*28
$HCHDG,272.6,0.0,E,,*28
$GPRMC,154256.6,A,4740.81013,N,12224.42502,W,000.01,000.0,180513,016.6,E,A*24
$PGRME,3.0,M,3.0,M,4.3,M*29
$HCHDG,272.6,0.0,E,,*28
$HCHDG,272.6,0.0,E,,*28
$GPRMC,154256.8,A,4740.81013,N,12224.42502,W,000.01,000.0,180513,016.6,E,A*2A
$PGRME,3.0,M,3.0,M,4.3,M*29
$YXXDR,A,5.5,D,PTCH,A,6.7,D,ROLL*5C
$HCHDG,272.7,0.0,E,,*29
$HCHDG,272.6,0.0,E,,*28
$GPRMC,154257.0,A,4740.81013,N,12224.42502,W,000.02,000.0,180513,016.6,E,A*20
$PGRME,3.0,M,3.0,M,4.3,M*29
$HCHDG,272.6,0.0,E,,*28
$HCHDG,272.5,0.0,E,,*2B
$GPRMC,154257.2,A,4740.81013,N,12224.42502,W,000.01,000.0,180513,016.6,E,A*21
$PGRME,3.0,M,3.0,M,4.3,M*29
$HCHDG,272.5,0.0,E,,*2B
$YXXDR,A,5.2,D,PTCH,A,6.6,D,ROLL*5A
$GPRMC,154257.4,A,4740.81013,N,12224.42502,W,000.01,000.0,180513,016.6,E,A*27
$PGRME,3.0,M,3.0,M,4.3,M*29
$HCHDG,272.5,0.0,E,,*2B
$HCHDG,272.4,0.0,E,,*2A
$HCHDG,272.4,0.0,E,,*2A
$GPRMC,154257.6,A,4740.81013,N,12224.42502,W,000.01,000.0,180513,016.6,E,A*25
$GPRMB,A,0.12,L,,N,4741.0622,N,12224.6030,W,0.3,335,0.01,V*42
$PGRME,3.0,M,3.0,M,4.3,M*29
$HCHDG,272.4,0.0,E,,*2A
$HCHDG,272.3,0.0,E,,*2D
$GPRMC,154257.8,A,4740.81013,N,12224.42501,W,000.01,000.0,180513,016.6,E,A*28
$PGRME,3.0,M,3.0,M,4.3,M*29
$YXXDR,A,5.3,D,PTCH,A,6.1,D,ROLL*5C
$PTAK,FFD1,6.1*52
$HCHDG,272.3,0.0,E,,*2D
$HCHDG,272.4,0.0,E,,*2A
$GPRMC,154258.0,A,4740.81013,N,12224.42501,W,000.01,000.0,180513,016.6,E,A*2F
$PGRME,3.0,M,3.0,M,4.3,M*29
$HCHDG,272.4,0.0,E,,*2A
$HCHDG,272.5,0.0,E,,*2B
$GPRMC,154258.2,A,4740.81013,N,12224.42501,W,000.00,000.0,180513,016.6,E,A*2C
$PGRME,3.0,M,3.0,M,4.3,M*29
$HCHDG,272.5,0.0,E,,*2B
$YXXDR,A,5.4,D,PTCH,A,6.3,D,ROLL*59
$GPRMC,154258.4,A,4740.81013,N,12224.42501,W,000.01,000.0,180513,016.6,E,A*2B
$PGRME,3.0,M,3.0,M,4.3,M*29
$HCHDG,272.5,0.0,E,,*2B
$HCHDG,272.5,0.0,E,,*2B
$HCHDG,272.5,0.0,E,,*2B
$GPRMC,154258.6,A,4740.81013,N,12224.42501,W,000.01,000.0,180513,016.6,E,A*29
$PGRME,3.0,M,3.0,M,4.3,M*29
$HCHDG,272.5,0.0,E,,*2B
$HCHDG,272.4,0.0,E,,*2A
$GPRMC,154258.8,A,4740.81013,N,12224.42501,W,000.02,000.0,180513,016.6,E,A*24
$GPRMB,A,0.12,L,,N,4741.0622,N,12224.6030,W,0.3,335,0.02,V*41
$PTAK,FFP1,HEEL,@*07
$PGRME,3.0,M,3.0,M,4.3,M*29
$YXXDR,A,5.5,D,PTCH,A,6.6,D,ROLL*5D
$PTAK,FFD1,6.6*55
$HCHDG,272.7,0.0,E,,*29
$HCHDG,272.8,0.0,E,,*26
$GPRMC,154259.0,A,4740.81014,N,12224.42501,W,000.01,000.0,180513,016.6,E,A*29
$PGRME,3.0,M,3.0,M,4.3,M*29
$HCHDG,272.8,0.0,E,,*26
$HCHDG,272.9,0.0,E,,*27
$GPRMC,154259.2,A,4740.81014,N,12224.42501,W,000.01,000.0,180513,016.6,E,A*2B
$PGRME,3.0,M,3.0,M,4.3,M*29
$HCHDG,272.9,0.0,E,,*27
$YXXDR,A,5.5,D,PTCH,A,6.6,D,ROLL*5D
$GPRMC,154259.4,A,4740.81014,N,12224.42500,W,000.01,000.0,180513,016.6,E,A*2C
$PGRME,3.0,M,3.0,M,4.3,M*29
$HCHDG,272.9,0.0,E,,*27
$HCHDG,272.9,0.0,E,,*27
$HCHDG,272.9,0.0,E,,*27
$GPRMC,154259.6,A,4740.81014,N,12224.42500,W,000.01,000.0,180513,016.6,E,A*2E
$PGRME,3.0,M,3.0,M,4.3,M*29
$HCHDG,273.0,0.0,E,,*2F
$HCHDG,272.9,0.0,E,,*27
$GPRMC,154259.8,A,4740.81013,N,12224.42500,W,000.00,000.0,180513,016.6,E,A*26
$PGRME,3.0,M,3.0,M,4.3,M*29
$YXXDR,A,5.5,D,PTCH,A,6.7,D,ROLL*5C
$HCHDG,272.9,0.0,E,,*27
$HCHDG,273.0,0.0,E,,*2F
$GPRMC,154300.0,A,4740.81013,N,12224.42500,W,000.00,000.0,180513,016.6,E,A*23
$GPRMB,A,0.12,L,,N,4741.0622,N,12224.6030,W,0.3,335,0.00,V*43
$PGRME,3.0,M,3.0,M,4.3,M*29
$HCHDG,272.9,0.0,E,,*27
$HCHDG,273.0,0.0,E,,*2F
$GPRMC,154300.2,A,4740.81013,N,12224.42500,W,000.02,000.0,180513,016.6,E,A*23
$PGRME,3.0,M,3.0,M,4.3,M*29
$HCHDG,273.1,0.0,E,,*2E
$YXXDR,A,5.4,D,PTCH,A,7.2,D,ROLL*59
$PTAK,FFD1,7.2*50
$GPRMC,154300.4,A,4740.81013,N,12224.42500,W,000.02,000.0,180513,016.6,E,A*25
$PGRME,3.0,M,3.0,M,4.3,M*29
$HCHDG,273.1,0.0,E,,*2E
$HCHDG,273.1,0.0,E,,*2E
$HCHDG,273.1,0.0,E,,*2E
$GPRMC,154300.6,A,4740.81013,N,12224.42499,W,000.01,000.0,180513,016.6,E,A*25
$PGRME,3.0,M,3.0,M,4.3,M*29
$HCHDG,273.0,0.0,E,,*2F
$HCHDG,273.1,0.0,E,,*2E
$GPRMC,154300.8,A,4740.81013,N,12224.42499,W,000.01,000.0,180513,016.6,E,A*2B
$PGRME,3.0,M,3.0,M,4.3,M*29
$YXXDR,A,5.5,D,PTCH,A,7.2,D,ROLL*58
$HCHDG,273.1,0.0,E,,*2E
$HCHDG,273.2,0.0,E,,*2D
$GPRMC,154301.0,A,4740.81014,N,12224.42500,W,000.00,000.0,180513,016.6,E,A*25
$PGRME,3.0,M,3.0,M,4.3,M*29
$HCHDG,273.2,0.0,E,,*2D
$HCHDG,273.2,0.0,E,,*2D
$GPRMC,154301.2,A,4740.81014,N,12224.42499,W,000.01,000.0,180513,016.6,E,A*27
$GPRMB,A,0.12,L,,N,4741.0622,N,12224.6030,W,0.3,335,0.01,V*42
$PGRME,3.0,M,3.0,M,4.3,M*29
$HCHDG,273.2,0.0,E,,*2D
$YXXDR,A,5.5,D,PTCH,A,6.6,D,ROLL*5D
$PTAK,FFD1,6.6*55
$GPRMC,154301.4,A,4740.81014,N,12224.42499,W,000.01,000.0,180513,016.6,E,A*21
$PGRME,3.0,M,3.0,M,4.3,M*29
$HCHDG,273.2,0.0,E,,*2D
$HCHDG,273.3,0.0,E,,*2C
$HCHDG,273.5,0.0,E,,*2A
$GPRMC,154301.6,A,4740.81014,N,12224.42499,W,000.01,000.0,180513,016.6,E,A*23
$PGRME,3.0,M,3.0,M,4.3,M*29
$HCHDG,273.6,0.0,E,,*29
$HCHDG,273.6,0.0,E,,*29
$GPRMC,154301.8,A,4740.81014,N,12224.42499,W,000.00,000.0,180513,016.6,E,A*2C
$PGRME,3.0,M,3.0,M,4.3,M*29
$YXXDR,A,5.5,D,PTCH,A,6.5,D,ROLL*5E
$HCHDG,273.6,0.0,E,,*29
$HCHDG,273.6,0.0,E,,*29
$GPRMC,154302.0,A,4740.81014,N,12224.42499,W,000.01,000.0,180513,016.6,E,A*26
$PGRME,3.0,M,3.0,M,4.3,M*29
$HCHDG,273.6,0.0,E,,*29
$HCHDG,273.6,0.0,E,,*29
$GPRMC,154302.2,A,4740.81014,N,12224.42499,W,000.01,000.0,180513,016.6,E,A*24
$PGRME,3.0,M,3.0,M,4.3,M*29
$HCHDG,273.7,0.0,E,,*28
$YXXDR,A,5.5,D,PTCH,A,6.3,D,ROLL*58
$GPRMC,154302.4,A,4740.81014,N,12224.42499,W,000.01,000.0,180513,016.6,E,A*22
$GPRMB,A,0.12,L,,N,4741.0622,N,12224.6030,W,0.3,335,0.01,V*42
$PGRME,3.0,M,3.0,M,4.3,M*29
$HCHDG,273.7,0.0,E,,*28
$HCHDG,273.7,0.0,E,,*28
$HCHDG,273.7,0.0,E,,*28
$GPRMC,154302.6,A,4740.81015,N,12224.42499,W,000.01,000.0,180513,016.6,E,A*21
$PGRME,3.0,M,3.0,M,4.3,M*29
$HCHDG,273.6,0.0,E,,*29
$HCHDG,273.6,0.0,E,,*29
$GPRMC,154302.8,A,4740.81015,N,12224.42499,W,000.00,000.0,180513,016.6,E,A*2E
$PTAK,FFP1,HEEL,@*07
$PGRME,3.0,M,3.0,M,4.3,M*29
$YXXDR,A,5.6,D,PTCH,A,6.1,D,ROLL*59
$PTAK,FFD1,6.1*52
$HCHDG,273.7,0.0,E,,*28
$HCHDG,273.7,0.0,E,,*28
$GPRMC,154303.0,A,4740.81015,N,12224.42499,W,000.00,000.0,180513,016.6,E,A*27
$PGRME,3.0,M,3.0,M,4.3,M*29
$HCHDG,273.7,0.0,E,,*28
$HCHDG,273.5,0.0,E,,*2A
$GPRMC,154303.2,A,4740.81015,N,12224.42499,W,000.01,000.0,180513,016.6,E,A*24
$PGRME,3.0,M,3.0,M,4.3,M*29
$HCHDG,273.5,0.0,E,,*2A
$YXXDR,A,5.3,D,PTCH,A,6.7,D,ROLL*5A
$GPRMC,154303.4,A,4740.81015,N,12224.42499,W,000.01,000.0,180513,016.6,E,A*22
$GPRMB,A,0.12,L,,N,4741.0622,N,12224.6030,W,0.3,335,0.01,V*42
$PGRME,3.0,M,3.0,M,4.3,M*29
$HCHDG,273.6,0.0,E,,*29
$HCHDG,273.6,0.0,E,,*29
$HCHDG,273.6,0.0,E,,*29
$GPRMC,154303.6,A,4740.81015,N,12224.42499,W,000.03,000.0,180513,016.6,E,A*22
$PGRME,3.0,M,3.0,M,4.3,M*29
$HCHDG,273.7,0.0,E,,*28
$HCHDG,273.9,0.0,E,,*26
$GPRMC,154303.8,A,4740.81015,N,12224.42499,W,000.01,000.0,180513,016.6,E,A*2E
$PGRME,3.0,M,3.0,M,4.3,M*29
$YXXDR,A,5.4,D,PTCH,A,6.9,D,ROLL*53
$HCHDG,273.9,0.0,E,,*26
$HCHDG,273.9,0.0,E,,*26
$GPRMC,154304.0,A,4740.81015,N,12224.42499,W,000.01,000.0,180513,016.6,E,A*21
$PGRME,3.0,M,3.0,M,4.3,M*29
$HCHDG,273.9,0.0,E,,*26
$HCHDG,273.9,0.0,E,,*26
$GPRMC,154304.2,A,4740.81015,N,12224.42499,W,000.01,000.0,180513,016.6,E,A*23
$PGRME,3.0,M,3.0,M,4.3,M*29
$HCHDG,273.9,0.0,E,,*26
$YXXDR,A,5.5,D,PTCH,A,6.5,D,ROLL*5E
$PTAK,FFD1,6.5*56
$GPRMC,154304.4,A,4740.81015,N,12224.42499,W,000.01,000.0,180513,016.6,E,A*25
$PGRME,3.0,M,3.0,M,4.3,M*29
$HCHDG,273.8,0.0,E,,*27
$HCHDG,273.8,0.0,E,,*27
$HCHDG,273.8,0.0,E,,*27
$GPRMC,154304.6,A,4740.81015,N,12224.42499,W,000.03,000.0,180513,016.6,E,A*25
$GPRMB,A,0.12,L,,N,4741.0622,N,12224.6030,W,0.3,335,0.03,V*40
$PGRME,3.0,M,3.0,M,4.3,M*29
$HCHDG,273.8,0.0,E,,*27
$HCHDG,273.7,0.0,E,,*28
$GPRMC,154304.8,A,4740.81015,N,12224.42499,W,000.02,000.0,180513,016.6,E,A*2A
$PGRME,3.0,M,3.0,M,4.3,M*29
$YXXDR,A,5.5,D,PTCH,A,6.4,D,ROLL*5F
$HCHDG,273.7,0.0,E,,*28
$HCHDG,273.7,0.0,E,,*28
$GPRMC,154305.0,A,4740.81015,N,12224.42499,W,000.01,000.0,180513,016.6,E,A*20
$PGRME,3.0,M,3.0,M,4.3,M*29
$HCHDG,273.7,0.0,E,,*28
$HCHDG,273.7,0.0,E,,*28
$GPRMC,154305.2,A,4740.81015,N,12224.42499,W,000.01,000.0,180513,016.6,E,A*22
$PGRME,3.0,M,3.0,M,4.3,M*29
$HCHDG,273.7,0.0,E,,*28
$YXXDR,A,5.5,D,PTCH,A,6.9,D,ROLL*52
$GPRMC,154305.4,A,4740.81015,N,12224.42499,W,000.00,000.0,180513,016.6,E,A*25
$PGRME,3.0,M,3.0,M,4.3,M*29
$HCHDG,273.7,0.0,E,,*28
$HCHDG,273.8,0.0,E,,*27
$HCHDG,273.8,0.0,E,,*27
$GPRMC,154305.6,A,4740.81015,N,12224.42500,W,000.01,000.0,180513,016.6,E,A*27
$PGRME,3.0,M,3.0,M,4.3,M*29
$HCHDG,273.8,0.0,E,,*27
$HCHDG,273.8,0.0,E,,*27
$GPRMC,154305.8,A,4740.81015,N,12224.42500,W,000.01,000.0,180513,016.6,E,A*29
$GPRMB,A,0.12,L,,N,4741.0622,N,12224.6030,W,0.3,335,0.01,V*42
$PGRME,3.0,M,3.0,M,4.3,M*29
$YXXDR,A,5.6,D,PTCH,A,7.1,D,ROLL*58
$PTAK,FFD1,7.1*53
$HCHDG,273.6,0.0,E,,*29
$HCHDG,273.6,0.0,E,,*29
$GPRMC,154306.0,A,4740.81015,N,12224.42500,W,000.00,000.0,180513,016.6,E,A*23
$PGRME,3.0,M,3.0,M,4.3,M*29
$HCHDG,273.6,0.0,E,,*29
$HCHDG,273.6,0.0,E,,*29
$GPRMC,154306.2,A,4740.81015,N,12224.42500,W,000.01,000.0,180513,016.6,E,A*20
$PGRME,3.0,M,3.0,M,4.3,M*29
$HCHDG,273.6,0.0,E,,*29
$YXXDR,A,6.0,D,PTCH,A,6.0,D,ROLL*5D
$GPRMC,154306.4,A,4740.81015,N,12224.42500,W,000.01,000.0,180513,016.6,E,A*26
$PGRME,3.0,M,3.0,M,4.3,M*29
$HCHDG,273.8,0.0,E,,*27
$HCHDG,273.8,0.0,E,,*27
$HCHDG,273.8,0.0,E,,*27
$GPRMC,154306.6,A,4740.81015,N,12224.42500,W,000.01,000.0,180513,016.6,E,A*24
$PGRME,3.0,M,3.0,M,4.3,M*29
$HCHDG,273.7,0.0,E,,*28
$HCHDG,273.7,0.0,E,,*28
$GPRMC,154306.8,A,4740.81015,N,12224.42500,W,000.01,000.0,180513,016.6,E,A*2A
$PGRME,3.0,M,3.0,M,4.3,M*29
$YXXDR,A,5.6,D,PTCH,A,6.1,D,ROLL*59
$PTAK,FFP1,HEEL,@*07
$HCHDG,273.5,0.0,E,,*2A
$HCHDG,273.5,0.0,E,,*2A
$GPRMC,154307.0,A,4740.81015,N,12224.42500,W,000.01,000.0,180513,016.6,E,A*23
$GPRMB,A,0.12,L,,N,4741.0622,N,12224.6030,W,0.3,335,0.01,V*42
$PGRME,3.0,M,3.0,M,4.3,M*29
$HCHDG,273.5,0.0,E,,*2A
$HCHDG,273.5,0.0,E,,*2A
$GPRMC,154307.2,A,4740.81015,N,12224.42500,W,000.00,000.0,180513,016.6,E,A*20
$PGRME,3.0,M,3.0,M,4.3,M*29
$HCHDG,273.4,0.0,E,,*2B
$YXXDR,A,5.5,D,PTCH,A,5.8,D,ROLL*50
$PTAK,FFD1,5.8*58
$GPRMC,154307.4,A,4740.81015,N,12224.42500,W,000.00,000.0,180513,016.6,E,A*26
$PGRME,3.0,M,3.0,M,4.3,M*29
$HCHDG,273.4,0.0,E,,*2B
$HCHDG,273.4,0.0,E,,*2B
$HCHDG,273.5,0.0,E,,*2A
$GPRMC,154307.6,A,4740.81015,N,12224.42500,W,000.00,000.0,180513,016.6,E,A*24
$PGRME,3.0,M,3.0,M,4.3,M*29
$HCHDG,273.8,0.0,E,,*27
$HCHDG,273.8,0.0,E,,*27
$GPRMC,154307.8,A,4740.81015,N,12224.42500,W,000.00,000.0,180513,016.6,E,A*2A
$PGRME,3.0,M,3.0,M,4.3,M*29
$YXXDR,A,5.6,D,PTCH,A,6.0,D,ROLL*58
$HCHDG,273.9,0.0,E,,*26
$HCHDG,273.9,0.0,E,,*26
$GPRMC,154308.0,A,4740.81015,N,12224.42501,W,000.00,000.0,180513,016.6,E,A*2C
$GPRMB,A,0.12,L,,N,4741.0622,N,12224.6030,W,0.3,335,0.00,V*43
$PGRME,3.0,M,3.0,M,4.3,M*29
$HCHDG,273.9,0.0,E,,*26
$HCHDG,273.9,0.0,E,,*26
$GPRMC,154308.2,A,4740.81015,N,12224.42501,W,000.00,000.0,180513,016.6,E,A*2E
$PGRME,3.0,M,3.0,M,4.3,M*29
$HCHDG,273.9,0.0,E,,*26
$YXXDR,A,5.8,D,PTCH,A,6.0,D,ROLL*56
$PTAK,FFD1,6.0*53
$GPRMC,154308.4,A,4740.81015,N,12224.42501,W,000.01,000.0,180513,016.6,E,A*29
$PGRME,3.0,M,3.0,M,4.3,M*29
$HCHDG,273.9,0.0,E,,*26
$HCHDG,274.0,0.0,E,,*28
$HCHDG,274.0,0.0,E,,*28
$GPRMC,154308.6,A,4740.81015,N,12224.42501,W,000.00,000.0,180513,016.6,E,A*2A
$PGRME,3.0,M,3.0,M,4.3,M*29
$HCHDG,273.9,0.0,E,,*26
$HCHDG,273.9,0.0,E,,*26
$GPRMC,154308.8,A,4740.81015,N,12224.42501,W,000.00,000.0,180513,016.6,E,A*24
$PGRME,3.0,M,3.0,M,4.3,M*29
$YXXDR,A,5.7,D,PTCH,A,6.3,D,ROLL*5A
$HCHDG,273.9,0.0,E,,*26
$HCHDG,273.9,0.0,E,,*26
$GPRMC,154309.0,A,4740.81015,N,12224.42501,W,000.01,000.0,180513,016.6,E,A*2C
$PGRME,3.0,M,3.0,M,4.3,M*29
$HCHDG,273.8,0.0,E,,*27
$HCHDG,273.8,0.0,E,,*27
$GPRMC,154309.2,A,4740.81015,N,12224.42501,W,000.00,000.0,180513,016.6,E,A*2F
$GPRMB,A,0.12,L,,N,4741.0622,N,12224.6030,W,0.3,335,0.00,V*43
$PGRME,3.0,M,3.0,M,4.3,M*29
$HCHDG,273.8,0.0,E,,*27
$YXXDR,A,5.5,D,PTCH,A,6.5,D,ROLL*5E
$PTAK,FFD1,6.5*56
$GPRMC,154309.4,A,4740.81015,N,12224.42501,W,000.01,000.0,180513,016.6,E,A*28
$PGRME,3.0,M,3.0,M,4.3,M*29
$HCHDG,273.7,0.0,E,,*28
$HCHDG,273.6,0.0,E,,*29
$HCHDG,273.7,0.0,E,,*28
$GPRMC,154309.6,A,4740.81015,N,12224.42501,W,000.01,000.0,180513,016.6,E,A*2A
$PGRME,3.0,M,3.0,M,4.3,M*29
