$GPRMB,A,0.23,L,,Ptm,4807.0330,N,12244.9520,W,0.3,238,-1.48,V*6C
$IIMTW,+08.5,C*35
$PGRME,4.7,M,11.4,M,12.3,M*29
$HCHDG,341.0,0.0,E,,*2F
$PTAK,FFP1,HEEL,@*07
$HCHDG,340.9,0.0,E,,*27
$GPRMC,163217.8,A,4807.29330,N,12244.60260,W,002.95,016.0,050513,016.8,E,A*28
$GPRMB,A,0.23,L,,Ptm,4807.0330,N,12244.9520,W,0.3,238,-1.51,V*64
$PGRME,4.6,M,11.3,M,12.2,M*2E
$HCHDG,341.1,0.0,E,,*2E
$YXXDR,A,4.6,D,PTCH,A,4.1,D,ROLL*5A
$PTAK,FFD1,4.1*50
$HCHDG,341.1,0.0,E,,*2E
$GPRMC,163218.0,A,4807.29348,N,12244.60255,W,002.77,016.9,050513,016.8,E,A*23
$PGRME,4.6,M,11.3,M,12.2,M*2E
$HCHDG,341.1,0.0,E,,*2E
$HCHDG,341.1,0.0,E,,*2E
$GPRMC,163218.2,A,4807.29358,N,12244.60253,W,002.93,015.1,050513,016.8,E,A*27
$PGRME,4.6,M,11.2,M,12.1,M*2C
$HCHDG,341.0,0.0,E,,*2F
$IIRMC,163200,A,4807.291,N,12244.603,W,03.0,018,050513,16,E,A*12
$HCHDG,341.0,0.0,E,,*2F
$IIVHW,,,,,00.0,N,,*19
$GPRMC,163218.4,A,4807.29375,N,12244.60241,W,002.85,016.2,050513,016.8,E,A*2A
$PGRME,4.6,M,11.1,M,12.0,M*2E
$IIVLW,06236,N,000.0,N*52
$YXXDR,A,4.5,D,PTCH,A,3.9,D,ROLL*56
$IIDPT,027.2,-1.0,*47
$HCHDG,341.0,0.0,E,,*2F
$HCHDG,340.9,0.0,E,,*27
$IIGLL,4807.291,N,12244.603,W,163200,A,A*41
$GPRMC,163218.6,A,4807.29393,N,12244.60228,W,003.01,017.4,050513,016.8,E,A*25
$IIMTW,+08.5,C*35
$PGRME,4.6,M,11.0,M,11.9,M*25
$HCHDG,340.9,0.0,E,,*27
$HCHDG,340.8,0.0,E,,*26
$GPRMC,163218.8,A,4807.29411,N,12244.60216,W,002.96,016.7,050513,016.8,E,A*26
$PGRME,4.6,M,10.9,M,11.8,M*2C
$HCHDG,340.8,0.0,E,,*26
$YXXDR,A,4.7,D,PTCH,A,3.8,D,ROLL*55
$HCHDG,340.6,0.0,E,,*28
$GPRMC,163219.0,A,4807.29434,N,12244.60207,W,003.11,016.8,050513,016.8,E,A*29
$PGRME,4.6,M,10.8,M,11.7,M*22
$HCHDG,340.6,0.0,E,,*28
$HCHDG,340.1,0.0,E,,*2F
$GPRMC,163219.2,A,4807.29458,N,12244.60200,W,003.08,016.0,050513,016.8,E,A*26
$GPRMB,A,0.23,L,,Ptm,4807.0330,N,12244.9520,W,0.4,238,-1.58,V*6A
$PGRME,4.5,M,10.7,M,11.6,M*2F
$HCHDG,340.0,0.0,E,,*2E
$IIRMC,163200,A,4807.293,N,12244.602,W,02.8,016,050513,16,E,A*16
$HCHDG,340.2,0.0,E,,*2C
$IIVHW,,,,,00.0,N,,*19
$GPRMC,163219.4,A,4807.29482,N,12244.60194,W,002.95,013.7,050513,016.8,E,A*2E
$PGRME,4.5,M,10.6,M,11.5,M*2D
$IIVLW,06236,N,000.0,N*52
$YXXDR,A,4.8,D,PTCH,A,3.9,D,ROLL*5B
$PTAK,FFD1,3.9*5F
$IIDPT,027.2,-1.0,*47
$HCHDG,340.2,0.0,E,,*2C
$HCHDG,340.2,0.0,E,,*2C
$IIGLL,4807.293,N,12244.602,W,163200,A,A*42
$IIMTW,+08.5,C*35
$GPRMC,163219.6,A,4807.29512,N,12244.60189,W,003.17,013.4,050513,016.8,E,A*20
$PGRME,4.5,M,10.4,M,11.3,M*29
$HCHDG,340.2,0.0,E,,*2C
$HCHDG,340.3,0.0,E,,*2D
$GPRMC,163219.8,A,4807.29535,N,12244.60164,W,002.95,014.5,050513,016.8,E,A*25
$PGRME,4.4,M,10.2,M,11.1,M*2C
$HCHDG,340.3,0.0,E,,*2D
$YXXDR,A,4.6,D,PTCH,A,5.1,D,ROLL*5B
$HCHDG,340.2,0.0,E,,*2C
$GPRMC,163220.0,A,4807.29559,N,12244.60149,W,002.86,014.6,050513,016.8,E,A*23
$PGRME,4.4,M,10.1,M,11.0,M*2E
$HCHDG,340.3,0.0,E,,*2D
$HCHDG,340.1,0.0,E,,*2F
$GPRMC,163220.2,A,4807.29586,N,12244.60147,W,003.12,009.2,050513,016.8,E,A*29
$PGRME,4.4,M,9.9,M,10.8,M*17
$HCHDG,340.3,0.0,E,,*2D
$IIRMC,163200,A,4807.294,N,12244.601,W,02.9,013,050513,16,E,A*16
$HCHDG,340.2,0.0,E,,*2C
$IIVHW,,,,,00.0,N,,*19
$GPRMC,163220.4,A,4807.29611,N,12244.60135,W,002.80,014.8,050513,016.8,E,A*2B
$GPRMB,A,0.23,L,,Ptm,4807.0330,N,12244.9520,W,0.4,238,-1.39,V*6D
$PGRME,4.3,M,9.7,M,10.6,M*10
$IIVLW,06236,N,000.0,N*52
$YXXDR,A,4.6,D,PTCH,A,4.9,D,ROLL*52
$PTAK,FFD1,4.9*58
$IIDPT,027.3,-1.0,*46
$HCHDG,340.4,0.0,E,,*2A
$HCHDG,340.2,0.0,E,,*2C
$IIGLL,4807.294,N,12244.601,W,163200,A,A*46
$GPRMC,163220.6,A,4807.29633,N,12244.60120,W,002.85,012.7,050513,016.8,E,A*21
$IIMTW,+08.5,C*35
$PGRME,4.3,M,9.6,M,10.5,M*12
$HCHDG,340.2,0.0,E,,*2C
$IIRMB,A,0.23,L,,Ptm ,,,,,000.4,238,,V,A*22
$HCHDG,340.0,0.0,E,,*2E
$GPRMC,163220.8,A,4807.29657,N,12244.60100,W,003.07,008.5,050513,016.8,E,A*2D
$PGRME,4.3,M,9.5,M,10.4,M*10
$HCHDG,340.1,0.0,E,,*2F
$YXXDR,A,4.6,D,PTCH,A,4.8,D,ROLL*53
$HCHDG,340.0,0.0,E,,*2E
$GPRMC,163221.0,A,4807.29672,N,12244.60105,W,003.04,009.1,050513,016.8,E,A*20
$PGRME,4.3,M,9.4,M,10.3,M*16
$HCHDG,340.0,0.0,E,,*2E
$HCHDG,339.9,0.0,E,,*29
$GPRMC,163221.2,A,4807.29688,N,12244.60108,W,002.75,011.3,050513,016.8,E,A*26
$PGRME,4.3,M,9.3,M,10.2,M*10
$HCHDG,339.9,0.0,E,,*29
$IIRMC,163200,A,4807.296,N,12244.601,W,02.8,014,050513,16,E,A*12
$HCHDG,340.1,0.0,E,,*2F
$IIVHW,,,,,00.0,N,,*19
$GPRMC,163221.4,A,4807.29703,N,12244.60103,W,002.81,008.9,050513,016.8,E,A*20
$GPRMB,A,0.23,L,,Ptm,4807.0330,N,12244.9520,W,0.4,238,-1.14,V*62
$PGRME,4.3,M,9.2,M,10.1,M*12
$IIVLW,06236,N,000.0,N*52
$YXXDR,A,4.6,D,PTCH,A,4.8,D,ROLL*53
$IIDPT,027.3,-1.0,*46
$HCHDG,340.0,0.0,E,,*2E
$HCHDG,340.0,0.0,E,,*2E
$IIGLL,4807.296,N,12244.601,W,163200,A,A*44
$GPRMC,163221.6,A,4807.29719,N,12244.60096,W,003.10,006.7,050513,016.8,E,A*2D
$IIMTW,+08.5,C*35
$PGRME,4.2,M,9.1,M,10.0,M*11
$HCHDG,340.2,0.0,E,,*2C
$IIRMB,A,0.23,L,,Ptm ,,,,,000.4,238,,V,A*22
$HCHDG,340.1,0.0,E,,*2F
$GPRMC,163221.8,A,4807.29730,N,12244.60085,W,003.03,008.5,050513,016.8,E,A*24
$PGRME,4.2,M,9.0,M,9.9,M*21
$HCHDG,340.1,0.0,E,,*2F
$YXXDR,A,4.8,D,PTCH,A,4.9,D,ROLL*5C
$PTAK,FFD1,4.9*58
$HCHDG,339.8,0.0,E,,*28
$GPRMC,163222.0,A,4807.29744,N,12244.60077,W,002.85,008.2,050513,016.8,E,A*29
$PGRME,4.2,M,8.9,M,9.9,M*29
$HCHDG,339.9,0.0,E,,*29
$HCHDG,339.8,0.0,E,,*28
$PTAK,FFP1,HEEL,@*07
$GPRMC,163222.2,A,4807.29761,N,12244.60062,W,002.95,007.1,050513,016.8,E,A*25
$PGRME,4.2,M,8.9,M,9.8,M*28
$HCHDG,339.6,0.0,E,,*26
$IIRMC,163200,A,4807.297,N,12244.601,W,02.8,008,050513,16,E,A*1E
$HCHDG,339.6,0.0,E,,*26
$IIVHW,,,,,00.0,N,,*19
$GPRMC,163222.4,A,4807.29786,N,12244.60050,W,002.87,008.2,050513,016.8,E,A*24
$PGRME,4.2,M,8.8,M,9.7,M*26
$IIVLW,06236,N,000.0,N*52
$YXXDR,A,4.8,D,PTCH,A,4.2,D,ROLL*57
$IIDPT,027.3,-1.0,*46
$HCHDG,339.6,0.0,E,,*26
$HCHDG,339.7,0.0,E,,*27
$IIGLL,4807.297,N,12244.601,W,163200,A,A*45
$GPRMC,163222.6,A,4807.29805,N,12244.60046,W,002.89,006.2,050513,016.8,E,A*25
$GPRMB,A,0.23,L,,Ptm,4807.0330,N,12244.9520,W,0.4,238,-1.05,V*62
$IIMTW,+08.5,C*35
$PGRME,4.2,M,8.7,M,9.7,M*29
$HCHDG,339.8,0.0,E,,*28
$IIRMB,A,0.23,L,,Ptm ,,,,,000.4,238,,V,A*22
$HCHDG,340.1,0.0,E,,*2F
$GPRMC,163222.8,A,4807.29828,N,12244.60038,W,003.00,004.1,050513,016.8,E,A*2C
$PGRME,4.2,M,8.7,M,9.6,M*28
$HCHDG,340.1,0.0,E,,*2F
$YXXDR,A,4.6,D,PTCH,A,4.8,D,ROLL*53
$PTAK,FFD1,4.8*59
$HCHDG,340.2,0.0,E,,*2C
$GPRMC,163223.0,A,4807.29841,N,12244.60025,W,002.73,006.5,050513,016.8,E,A*25
$PGRME,4.2,M,8.5,M,9.5,M*29
$HCHDG,340.3,0.0,E,,*2D
$HCHDG,340.4,0.0,E,,*2A
$GPRMC,163223.2,A,4807.29856,N,12244.60019,W,002.83,005.9,050513,016.8,E,A*2E
$PGRME,4.2,M,8.5,M,9.4,M*28
$HCHDG,340.4,0.0,E,,*2A
$IIRMC,163200,A,4807.297,N,12244.600,W,02.8,008,050513,16,E,A*1F
$HCHDG,340.6,0.0,E,,*28
$IIVHW,,,,,00.0,N,,*19
$GPRMC,163223.4,A,4807.29874,N,12244.60020,W,002.98,005.5,050513,016.8,E,A*24
$PGRME,4.1,M,8.4,M,9.3,M*2D
$IIVLW,06236,N,000.0,N*52
$YXXDR,A,4.9,D,PTCH,A,3.6,D,ROLL*55
$IIDPT,027.2,-1.0,*47
$HCHDG,340.5,0.0,E,,*2B
$HCHDG,340.4,0.0,E,,*2A
$IIGLL,4807.297,N,12244.600,W,163200,A,A*44
$IIMTW,+08.5,C*35
$GPRMC,163223.6,A,4807.29887,N,12244.60011,W,002.94,007.2,050513,016.8,E,A*21
$GPRMB,A,0.24,L,,Ptm,4807.0330,N,12244.9520,W,0.4,238,-1.12,V*63
$PGRME,4.1,M,8.1,M,9.1,M*2A
$HCHDG,340.3,0.0,E,,*2D
$IIRMB,A,0.23,L,,Ptm ,,,,,000.4,238,,V,A*22
$HCHDG,340.3,0.0,E,,*2D
$GPRMC,163223.8,A,4807.29903,N,12244.60012,W,002.65,008.1,050513,016.8,E,A*23
$PGRME,4.1,M,8.0,M,9.0,M*2A
$HCHDG,340.3,0.0,E,,*2D
$YXXDR,A,4.6,D,PTCH,A,2.5,D,ROLL*58
$PTAK,FFD1,2.5*52
$HCHDG,340.2,0.0,E,,*2C
$GPRMC,163224.0,A,4807.29919,N,12244.60005,W,003.00,007.0,050513,016.8,E,A*2D
$PGRME,4.1,M,7.9,M,8.9,M*24
$HCHDG,340.2,0.0,E,,*2C
$HCHDG,340.0,0.0,E,,*2E
$GPRMC,163224.2,A,4807.29934,N,12244.59998,W,002.84,008.7,050513,016.8,E,A*22
$GPRMB,A,0.24,L,,Ptm,4807.0330,N,12244.9520,W,0.4,238,-1.15,V*64
$PGRME,4.0,M,7.7,M,8.7,M*25
$HCHDG,340.5,0.0,E,,*2B
$IIRMC,163200,A,4807.298,N,12244.600,W,02.9,005,050513,16,E,A*1C
$HCHDG,340.6,0.0,E,,*28
$IIVHW,,,,,00.0,N,,*19
$GPRMC,163224.4,A,4807.29951,N,12244.59993,W,002.92,009.5,050513,016.8,E,A*28
$PGRME,4.0,M,7.5,M,8.5,M*25
$IIVLW,06236,N,000.0,N*52
$YXXDR,A,4.3,D,PTCH,A,2.3,D,ROLL*5B
$PTAK,FFD1,2.3*54
$IIDPT,027.2,-1.0,*47
$HCHDG,340.6,0.0,E,,*28
$HCHDG,340.9,0.0,E,,*27
$IIGLL,4807.298,N,12244.600,W,163200,A,A*4B
$GPRMC,163224.6,A,4807.29973,N,12244.59996,W,002.97,008.2,050513,016.8,E,A*2C
$IIMTW,+08.5,C*35
$PGRME,4.0,M,7.5,M,8.5,M*25
$HCHDG,341.1,0.0,E,,*2E
$IIRMB,A,0.24,L,,Ptm ,,,,,000.4,238,,V,A*25
$HCHDG,341.3,0.0,E,,*2C
$GPRMC,163224.8,A,4807.29993,N,12244.59995,W,003.02,009.0,050513,016.8,E,A*21
$PGRME,3.9,M,7.3,M,8.3,M*2B
$HCHDG,341.5,0.0,E,,*2A
$YXXDR,A,4.5,D,PTCH,A,2.0,D,ROLL*5E
$HCHDG,341.8,0.0,E,,*27
$GPRMC,163225.0,A,4807.30015,N,12244.59999,W,002.82,011.5,050513,016.8,E,A*2E
$PGRME,3.9,M,7.2,M,8.2,M*2B
$HCHDG,341.9,0.0,E,,*26
$HCHDG,342.0,0.0,E,,*2C
$GPRMC,163225.2,A,4807.30014,N,12244.59975,W,002.89,010.6,050513,016.8,E,A*26
$PGRME,3.9,M,7.1,M,8.0,M*2A
$HCHDG,342.3,0.0,E,,*2F
$IIRMC,163200,A,4807.299,N,12244.599,W,02.9,009,050513,16,E,A*12
$HCHDG,342.5,0.0,E,,*29
$IIVHW,,,,,00.0,N,,*19
$GPRMC,163225.4,A,4807.30031,N,12244.59976,W,003.00,010.3,050513,016.8,E,A*21
$PGRME,3.8,M,6.9,M,7.9,M*24
$IIVLW,06236,N,000.0,N*52
$YXXDR,A,4.4,D,PTCH,A,1.9,D,ROLL*55
$IIDPT,027.2,-1.0,*47
$HCHDG,343.0,0.0,E,,*2D
$HCHDG,343.0,0.0,E,,*2D
$IIGLL,4807.299,N,12244.599,W,163200,A,A*49
$GPRMC,163225.6,A,4807.30050,N,12244.59981,W,002.83,012.4,050513,016.8,E,A*23
$IIMTW,+08.5,C*35
$PGRME,3.8,M,6.8,M,7.8,M*24
$HCHDG,343.4,0.0,E,,*29
$IIRMB,A,0.24,L,,Ptm ,,,,,000.4,238,,V,A*25
$HCHDG,343.6,0.0,E,,*2B
$GPRMC,163225.8,A,4807.30075,N,12244.59987,W,002.75,014.8,050513,016.8,E,A*2F
$PGRME,3.8,M,6.7,M,7.7,M*24
$HCHDG,343.7,0.0,E,,*2A
$YXXDR,A,4.5,D,PTCH,A,2.2,D,ROLL*5C
$HCHDG,343.8,0.0,E,,*25
$GPRMC,163226.0,A,4807.30093,N,12244.59984,W,002.92,012.9,050513,016.8,E,A*21
$GPRMB,A,0.24,L,,Ptm,4807.0330,N,12244.9520,W,0.4,238,-1.38,V*6B
$PGRME,3.7,M,6.6,M,7.6,M*2B
$HCHDG,344.1,0.0,E,,*2B
$PTAK,FFP1,HEEL,@*07
$HCHDG,344.1,0.0,E,,*2B
$GPRMC,163226.2,A,4807.30121,N,12244.59993,W,003.06,014.3,050513,016.8,E,A*2D
$PGRME,3.7,M,6.5,M,7.5,M*2B
$HCHDG,344.3,0.0,E,,*29
$IIRMC,163200,A,4807.300,N,12244.599,W,03.0,010,050513,16,E,A*13
$HCHDG,344.1,0.0,E,,*2B
$IIVHW,,,,,00.0,N,,*19
$GPRMC,163226.4,A,4807.30142,N,12244.59983,W,003.20,016.1,050513,016.8,E,A*2B
$PGRME,3.7,M,6.4,M,7.4,M*2B
$IIVLW,06236,N,000.0,N*52
$YXXDR,A,4.6,D,PTCH,A,2.3,D,ROLL*5E
$PTAK,FFD1,2.3*54
$IIDPT,027.2,-1.0,*47
$HCHDG,344.1,0.0,E,,*2B
$HCHDG,344.2,0.0,E,,*28
$IIGLL,4807.300,N,12244.599,W,163200,A,A*48
$GPRMC,163226.6,A,4807.30156,N,12244.59979,W,002.91,014.2,050513,016.8,E,A*23
$IIMTW,+08.5,C*35
$PGRME,3.7,M,6.4,M,7.4,M*2B
$HCHDG,344.2,0.0,E,,*28
$IIRMB,A,0.24,L,,Ptm ,,,,,000.4,238,,V,A*25
$HCHDG,344.6,0.0,E,,*2C
$GPRMC,163226.8,A,4807.30163,N,12244.59970,W,002.90,019.0,050513,016.8,E,A*2C
$PGRME,3.7,M,6.3,M,7.3,M*2B
$HCHDG,344.5,0.0,E,,*2F
$YXXDR,A,4.6,D,PTCH,A,3.1,D,ROLL*5D
$HCHDG,344.8,0.0,E,,*22
$GPRMC,163227.0,A,4807.30170,N,12244.59962,W,003.03,016.6,050513,016.8,E,A*26
$GPRMB,A,0.24,L,,Ptm,4807.0330,N,12244.9520,W,0.4,238,-1.61,V*67
$PGRME,3.7,M,6.3,M,7.2,M*2A
$HCHDG,345.3,0.0,E,,*28
$HCHDG,345.5,0.0,E,,*2E
$GPRMC,163227.2,A,4807.30179,N,12244.59959,W,002.82,022.2,050513,016.8,E,A*2E
$PGRME,3.6,M,6.2,M,7.2,M*2A
$HCHDG,345.9,0.0,E,,*22
$IIRMC,163200,A,4807.301,N,12244.599,W,03.2,016,050513,16,E,A*16
$HCHDG,346.1,0.0,E,,*29
$IIVHW,,,,,00.0,N,,*19
$GPRMC,163227.4,A,4807.30201,N,12244.59960,W,003.01,020.0,050513,016.8,E,A*24
$PGRME,3.6,M,6.1,M,7.1,M*2A
$IIVLW,06236,N,000.0,N*52
$YXXDR,A,4.7,D,PTCH,A,4.5,D,ROLL*5F
$IIDPT,027.2,-1.0,*47
$HCHDG,346.4,0.0,E,,*2C
$HCHDG,346.6,0.0,E,,*2E
$IIGLL,4807.301,N,12244.599,W,163200,A,A*49
$GPRMC,163227.6,A,4807.30234,N,12244.59961,W,002.99,019.8,050513,016.8,E,A*23
$IIMTW,+08.5,C*35
$PGRME,3.6,M,6.0,M,7.0,M*2A
$HCHDG,346.7,0.0,E,,*2F
$IIRMB,A,0.24,L,,Ptm ,,,,,000.4,238,,V,A*25
$HCHDG,347.2,0.0,E,,*2B
$GPRMC,163227.8,A,4807.30263,N,12244.59976,W,003.06,019.1,050513,016.8,E,A*27
$PGRME,3.6,M,6.0,M,7.0,M*2A
$HCHDG,347.6,0.0,E,,*2F
$YXXDR,A,4.8,D,PTCH,A,5.2,D,ROLL*56
$PTAK,FFD1,5.2*52
$HCHDG,347.7,0.0,E,,*2E
$GPRMC,163228.0,A,4807.30280,N,12244.59967,W,002.98,018.9,050513,016.8,E,A*22
$PGRME,3.6,M,6.0,M,7.0,M*2A
$HCHDG,348.2,0.0,E,,*24
$HCHDG,348.3,0.0,E,,*25
$GPRMC,163228.2,A,4807.30300,N,12244.59967,W,002.95,022.2,050513,016.8,E,A*26
$GPRMB,A,0.24,L,,Ptm,4807.0330,N,12244.9520,W,0.4,238,-1.81,V*69
$PGRME,3.6,M,6.0,M,6.9,M*22
$HCHDG,348.8,0.0,E,,*2E
$PTAK,FFP1,HEEL,@*07
$IIRMC,163200,A,4807.302,N,12244.599,W,02.9,019,050513,16,E,A*10
$HCHDG,348.8,0.0,E,,*2E
$IIVHW,,,,,00.0,N,,*19
$GPRMC,163228.4,A,4807.30316,N,12244.59963,W,002.86,020.6,050513,016.8,E,A*27
$GPRMB,A,0.24,L,,Ptm,4807.0330,N,12244.9520,W,0.4,238,-1.69,V*6F
$PGRME,3.6,M,5.9,M,6.9,M*28
$IIVLW,06236,N,000.0,N*52
$YXXDR,A,5.0,D,PTCH,A,6.0,D,ROLL*5E
$PTAK,FFD1,6.0*53
$IIDPT,027.2,-1.0,*47
$HCHDG,349.2,0.0,E,,*25
$HCHDG,349.4,0.0,E,,*23
$IIGLL,4807.302,N,12244.599,W,163200,A,A*4A
$GPRMC,163228.6,A,4807.30339,N,12244.59962,W,003.18,022.2,050513,016.8,E,A*29
$IIMTW,+08.5,C*35
$PGRME,3.6,M,5.9,M,6.9,M*28
$HCHDG,349.4,0.0,E,,*23
$IIRMB,A,0.24,L,,Ptm ,,,,,000.4,238,,V,A*25
$HCHDG,349.6,0.0,E,,*21
$GPRMC,163228.8,A,4807.30358,N,12244.59960,W,003.02,024.8,050513,016.8,E,A*25
$PGRME,3.5,M,5.8,M,6.8,M*2B
$HCHDG,349.3,0.0,E,,*24
$YXXDR,A,4.8,D,PTCH,A,5.1,D,ROLL*55
$HCHDG,349.4,0.0,E,,*23
$GPRMC,163229.0,A,4807.30388,N,12244.59969,W,003.08,024.9,050513,016.8,E,A*23
$PGRME,3.5,M,5.8,M,6.8,M*2B
$HCHDG,349.2,0.0,E,,*25
$HCHDG,349.0,0.0,E,,*27
$GPRMC,163229.2,A,4807.30410,N,12244.59974,W,003.09,024.5,050513,016.8,E,A*26
$PGRME,3.5,M,5.8,M,6.7,M*24
$HCHDG,349.0,0.0,E,,*27
$IIRMC,163200,A,4807.302,N,12244.599,W,02.9,019,050513,16,E,A*10
$HCHDG,349.1,0.0,E,,*26
$IIVHW,,,,,00.0,N,,*19
$GPRMC,163229.4,A,4807.30437,N,12244.59974,W,003.02,027.3,050513,016.8,E,A*2B
$PGRME,3.5,M,5.7,M,6.7,M*2B
$IIVLW,06236,N,000.0,N*52
$YXXDR,A,4.6,D,PTCH,A,4.9,D,ROLL*52
$IIDPT,027.2,-1.0,*47
$HCHDG,349.4,0.0,E,,*23
$HCHDG,349.5,0.0,E,,*22
$IIGLL,4807.302,N,12244.599,W,163200,A,A*4A
$GPRMC,163229.6,A,4807.30455,N,12244.59964,W,003.22,024.5,050513,016.8,E,A*2B
$IIMTW,+08.5,C*35
$PGRME,3.4,M,5.7,M,6.6,M*2B
$HCHDG,349.7,0.0,E,,*20
$IIRMB,A,0.24,L,,Ptm ,,,,,000.4,238,,V,A*25
$HCHDG,349.9,0.0,E,,*2E
$GPRMC,163229.8,A,4807.30467,N,12244.59960,W,003.28,025.9,050513,016.8,E,A*27
$PGRME,3.4,M,5.6,M,6.6,M*2A
$HCHDG,350.1,0.0,E,,*2E
$YXXDR,A,4.5,D,PTCH,A,5.8,D,ROLL*51
$HCHDG,350.0,0.0,E,,*2F
$GPRMC,163230.0,A,4807.30485,N,12244.59954,W,003.29,027.3,050513,016.8,E,A*25
$PGRME,3.4,M,5.6,M,6.6,M*2A
$HCHDG,350.2,0.0,E,,*2D
$HCHDG,350.1,0.0,E,,*2E
$GPRMC,163230.2,A,4807.30510,N,12244.59962,W,003.20,020.3,050513,016.8,E,A*21
$PGRME,3.4,M,5.6,M,6.5,M*29
$HCHDG,349.9,0.0,E,,*2E
$IIRMC,163200,A,4807.304,N,12244.599,W,03.2,025,050513,16,E,A*13
$HCHDG,350.2,0.0,E,,*2D
$IIVHW,,,,,00.0,N,,*19
$GPRMC,163230.4,A,4807.30534,N,12244.59962,W,003.55,027.3,050513,016.8,E,A*24
$PGRME,3.4,M,5.6,M,6.5,M*29
$IIVLW,06236,N,000.0,N*52
$YXXDR,A,4.8,D,PTCH,A,5.8,D,ROLL*5C
$IIDPT,027.2,-1.0,*47
$HCHDG,350.0,0.0,E,,*2F
$HCHDG,350.2,0.0,E,,*2D
$IIGLL,4807.304,N,12244.599,W,163200,A,A*4C
$GPRMC,163230.6,A,4807.30559,N,12244.59962,W,003.37,024.2,050513,016.8,E,A*2B
$GPRMB,A,0.24,L,,Ptm,4807.0330,N,12244.9520,W,0.4,237,-2.17,V*6A
$IIMTW,+08.5,C*35
$PGRME,3.4,M,5.6,M,6.5,M*29
$HCHDG,350.4,0.0,E,,*2B
$IIRMB,A,0.24,L,,Ptm ,,,,,000.4,238,,V,A*25
$HCHDG,350.6,0.0,E,,*29
$GPRMC,163230.8,A,4807.30579,N,12244.59950,W,003.27,025.6,050513,016.8,E,A*22
$PGRME,3.4,M,5.6,M,6.5,M*29
$HCHDG,350.8,0.0,E,,*27
$YXXDR,A,4.8,D,PTCH,A,6.6,D,ROLL*51
$PTAK,FFD1,6.6*55
$HCHDG,350.9,0.0,E,,*26
$GPRMC,163231.0,A,4807.30604,N,12244.59945,W,003.32,026.0,050513,016.8,E,A*27
$PGRME,3.4,M,5.5,M,6.5,M*2A
$HCHDG,351.0,0.0,E,,*2E
$HCHDG,351.3,0.0,E,,*2D
$GPRMC,163231.2,A,4807.30623,N,12244.59935,W,003.41,020.7,050513,016.8,E,A*22
$PGRME,3.4,M,5.5,M,6.5,M*2A
$HCHDG,351.5,0.0,E,,*2B
$HCHDG,351.4,0.0,E,,*2A
$GPRMC,163231.4,A,4807.30646,N,12244.59935,W,003.33,026.9,050513,016.8,E,A*2A
$PGRME,3.3,M,5.5,M,6.4,M*2C
$YXXDR,A,4.9,D,PTCH,A,6.9,D,ROLL*5F
$HCHDG,351.3,0.0,E,,*2D
$HCHDG,351.3,0.0,E,,*2D
$GPRMC,163231.6,A,4807.30670,N,12244.59930,W,003.36,024.2,050513,016.8,E,A*24
$PGRME,3.3,M,5.5,M,6.4,M*2C
$HCHDG,351.2,0.0,E,,*2C
$HCHDG,351.2,0.0,E,,*2C
$GPRMC,163231.8,A,4807.30697,N,12244.59933,W,003.37,022.5,050513,016.8,E,A*20
$PGRME,3.3,M,5.4,M,6.4,M*2D
$HCHDG,351.3,0.0,E,,*2D
$YXXDR,A,4.8,D,PTCH,A,6.4,D,ROLL*53
$HCHDG,351.3,0.0,E,,*2D
$GPRMC,163232.0,A,4807.30723,N,12244.59928,W,003.44,021.8,050513,016.8,E,A*25
$PGRME,3.3,M,5.4,M,6.3,M*2A
$HCHDG,351.2,0.0,E,,*2C
$HCHDG,351.1,0.0,E,,*2F
$GPRMC,163232.2,A,4807.30745,N,12244.59920,W,003.27,024.9,050513,016.8,E,A*2E
$PGRME,3.3,M,5.3,M,6.2,M*2C
$HCHDG,351.1,0.0,E,,*2F
$IIRMC,163200,A,4807.305,N,12244.599,W,03.2,025,050513,16,E,A*12
$HCHDG,351.3,0.0,E,,*2D
$IIVHW,,,,,00.0,N,,*19
$GPRMC,163232.4,A,4807.30771,N,12244.59918,W,003.32,023.0,050513,016.8,E,A*2E
$PGRME,3.3,M,5.1,M,6.1,M*2D
$IIVLW,06236,N,000.0,N*52
$YXXDR,A,4.4,D,PTCH,A,6.4,D,ROLL*5F
$IIDPT,027.3,-1.0,*46
$HCHDG,351.2,0.0,E,,*2C
$HCHDG,351.2,0.0,E,,*2C
$IIGLL,4807.305,N,12244.599,W,163200,A,A*4D
$GPRMC,163232.6,A,4807.30788,N,12244.59922,W,003.55,021.2,050513,016.8,E,A*22
$IIMTW,+08.5,C*35
$PGRME,3.2,M,5.0,M,6.0,M*2C
$HCHDG,351.2,0.0,E,,*2C
$IIRMB,A,0.24,L,,Ptm ,,,,,000.4,238,,V,A*25
$HCHDG,350.9,0.0,E,,*26
$GPRMC,163232.8,A,4807.30807,N,12244.59914,W,003.37,023.9,050513,016.8,E,A*2C
$PGRME,3.2,M,5.0,M,5.9,M*26
$HCHDG,350.9,0.0,E,,*26
$YXXDR,A,4.5,D,PTCH,A,6.1,D,ROLL*5B
$HCHDG,350.8,0.0,E,,*27
$GPRMC,163233.0,A,4807.30827,N,12244.59909,W,003.10,026.8,050513,016.8,E,A*2A
$GPRMB,A,0.24,L,,Ptm,4807.0330,N,12244.9520,W,0.4,237,-2.11,V*6C
$PGRME,3.2,M,5.0,M,5.9,M*26
$HCHDG,350.8,0.0,E,,*27
$HCHDG,350.8,0.0,E,,*27
$GPRMC,163233.2,A,4807.30844,N,12244.59897,W,003.51,022.6,050513,016.8,E,A*24
$PGRME,3.2,M,4.9,M,5.9,M*2E
$HCHDG,350.8,0.0,E,,*27
$IIRMC,163200,A,4807.308,N,12244.599,W,03.3,023,050513,16,E,A*18
$HCHDG,350.9,0.0,E,,*26
$IIVHW,,,,,00.0,N,,*19
$GPRMC,163233.4,A,4807.30867,N,12244.59882,W,003.49,023.0,050513,016.8,E,A*29
$PGRME,3.2,M,4.9,M,5.9,M*2E
$IIVLW,06236,N,000.0,N*52
$YXXDR,A,4.7,D,PTCH,A,6.2,D,ROLL*5A
$PTAK,FFD1,6.2*51
$IIDPT,027.3,-1.0,*46
$HCHDG,351.1,0.0,E,,*2F
$HCHDG,351.1,0.0,E,,*2F
$IIGLL,4807.308,N,12244.599,W,163200,A,A*40
$GPRMC,163233.6,A,4807.30890,N,12244.59879,W,003.49,021.4,050513,016.8,E,A*21
$IIMTW,+08.5,C*35
$PGRME,3.2,M,4.9,M,5.9,M*2E
$HCHDG,351.3,0.0,E,,*2D
$IIRMB,A,0.24,L,,Ptm ,,,,,000.4,237,,V,A*2A
$HCHDG,351.2,0.0,E,,*2C
$GPRMC,163233.8,A,4807.30915,N,12244.59871,W,003.53,021.9,050513,016.8,E,A*2D
$PGRME,3.2,M,4.9,M,5.8,M*2F
$HCHDG,351.3,0.0,E,,*2D
$YXXDR,A,4.8,D,PTCH,A,6.5,D,ROLL*52
$HCHDG,351.3,0.0,E,,*2D
$GPRMC,163234.0,A,4807.30936,N,12244.59860,W,003.51,023.3,050513,016.8,E,A*29
$PGRME,3.2,M,4.8,M,5.8,M*2E
$HCHDG,351.3,0.0,E,,*2D
$HCHDG,351.3,0.0,E,,*2D
$GPRMC,163234.2,A,4807.30961,N,12244.59845,W,003.51,021.1,050513,016.8,E,A*2E
$PGRME,3.2,M,4.7,M,5.7,M*2E
$HCHDG,351.3,0.0,E,,*2D
$IIRMC,163200,A,4807.309,N,12244.598,W,03.5,021,050513,16,E,A*1C
$HCHDG,351.3,0.0,E,,*2D
$IIVHW,,,,,00.0,N,,*19
$GPRMC,163234.4,A,4807.30991,N,12244.59836,W,003.54,022.8,050513,016.8,E,A*2C
$GPRMB,A,0.24,L,,Ptm,4807.0330,N,12244.9520,W,0.4,237,-2.23,V*6D
$PGRME,3.2,M,4.7,M,5.7,M*2E
$IIVLW,06236,N,000.0,N*52
$YXXDR,A,4.8,D,PTCH,A,6.5,D,ROLL*52
$PTAK,FFD1,6.5*56
$PTAK,FFP1,HEEL,@*07
$IIDPT,027.3,-1.0,*46
$HCHDG,351.2,0.0,E,,*2C
$HCHDG,351.4,0.0,E,,*2A
$IIGLL,4807.309,N,12244.598,W,163200,A,A*40
$GPRMC,163234.6,A,4807.31020,N,12244.59834,W,003.55,021.0,050513,016.8,E,A*24
$GPRMB,A,0.24,L,,Ptm,4807.0330,N,12244.9520,W,0.4,237,-2.15,V*68
$IIMTW,+08.5,C*35
$PGRME,3.2,M,4.6,M,5.6,M*2E
$HCHDG,351.3,0.0,E,,*2D
$IIRMB,A,0.24,L,,Ptm ,,,,,000.4,237,,V,A*2A
$HCHDG,351.6,0.0,E,,*28
$GPRMC,163234.8,A,4807.31046,N,12244.59836,W,003.55,022.2,050513,016.8,E,A*29
$PGRME,3.1,M,4.6,M,5.5,M*2E
$HCHDG,351.5,0.0,E,,*2B
$YXXDR,A,4.8,D,PTCH,A,7.0,D,ROLL*56
$HCHDG,351.4,0.0,E,,*2A
$GPRMC,163235.0,A,4807.31074,N,12244.59826,W,003.77,018.9,050513,016.8,E,A*22
$PGRME,3.1,M,4.5,M,5.5,M*2D
$HCHDG,351.7,0.0,E,,*29
$HCHDG,351.6,0.0,E,,*28
$GPRMC,163235.2,A,4807.31101,N,12244.59815,W,003.55,022.3,050513,016.8,E,A*20
$PGRME,3.1,M,4.5,M,5.4,M*2C
$HCHDG,351.5,0.0,E,,*2B
$IIRMC,163200,A,4807.310,N,12244.598,W,03.5,022,050513,16,E,A*17
$HCHDG,351.6,0.0,E,,*28
$IIVHW,,,,,00.0,N,,*19
$GPRMC,163235.4,A,4807.31123,N,12244.59802,W,003.59,021.3,050513,016.8,E,A*2F
$PGRME,3.1,M,4.4,M,5.4,M*2D
$IIVLW,06236,N,000.0,N*52
$YXXDR,A,4.8,D,PTCH,A,7.1,D,ROLL*57
$IIDPT,027.3,-1.0,*46
$HCHDG,351.5,0.0,E,,*2B
$HCHDG,351.7,0.0,E,,*29
$IIGLL,4807.310,N,12244.598,W,163200,A,A*48
$GPRMC,163235.6,A,4807.31133,N,12244.59804,W,003.58,021.6,050513,016.8,E,A*2E
$IIMTW,+08.5,C*35
$PGRME,3.1,M,4.4,M,5.4,M*2D
$HCHDG,351.6,0.0,E,,*28
$IIRMB,A,0.24,L,,Ptm ,,,,,000.4,237,,V,A*2A
$HCHDG,351.8,0.0,E,,*26
$GPRMC,163235.8,A,4807.31153,N,12244.59815,W,003.60,022.5,050513,016.8,E,A*2D
$PGRME,3.1,M,4.3,M,5.3,M*2D
$HCHDG,352.0,0.0,E,,*2D
$YXXDR,A,4.5,D,PTCH,A,7.5,D,ROLL*5E
$HCHDG,352.1,0.0,E,,*2C
$GPRMC,163236.0,A,4807.31175,N,12244.59808,W,003.66,019.7,050513,016.8,E,A*22
$PGRME,3.1,M,4.3,M,5.3,M*2D
$HCHDG,352.3,0.0,E,,*2E
$HCHDG,352.4,0.0,E,,*29
$GPRMC,163236.2,A,4807.31200,N,12244.59793,W,003.66,023.9,050513,016.8,E,A*2B
$PGRME,3.1,M,4.3,M,5.3,M*2D
$HCHDG,352.3,0.0,E,,*2E
$IIRMC,163200,A,4807.311,N,12244.598,W,03.6,022,050513,16,E,A*15
$HCHDG,352.3,0.0,E,,*2E
$IIVHW,,,,,00.0,N,,*19
$GPRMC,163236.4,A,4807.31224,N,12244.59787,W,003.69,022.1,050513,016.8,E,A*28
$PGRME,3.1,M,4.3,M,5.3,M*2D
$IIVLW,06236,N,000.0,N*52
$YXXDR,A,4.6,D,PTCH,A,7.3,D,ROLL*5B
$PTAK,FFD1,7.3*51
$IIDPT,027.5,-1.0,*40
$HCHDG,352.1,0.0,E,,*2C
$HCHDG,351.8,0.0,E,,*26
$IIGLL,4807.311,N,12244.598,W,163200,A,A*49
$GPRMC,163236.6,A,4807.31252,N,12244.59778,W,003.87,025.1,050513,016.8,E,A*2C
$GPRMB,A,0.24,L,,Ptm,4807.0330,N,12244.9520,W,0.4,237,-2.56,V*6F
$IIMTW,+08.5,C*35
$PGRME,3.1,M,4.4,M,5.3,M*2A
$HCHDG,351.9,0.0,E,,*27
$IIRMB,A,0.24,L,,Ptm ,,,,,000.4,237,,V,A*2A
$HCHDG,351.7,0.0,E,,*29
$GPRMC,163236.8,A,4807.31273,N,12244.59765,W,003.82,024.4,050513,016.8,E,A*2C
$PGRME,3.1,M,4.4,M,5.3,M*2A
$HCHDG,351.5,0.0,E,,*2B
$YXXDR,A,4.9,D,PTCH,A,5.9,D,ROLL*5C
$HCHDG,351.5,0.0,E,,*2B
$GPRMC,163237.0,A,4807.31295,N,12244.59754,W,003.81,026.7,050513,016.8,E,A*2D
$PGRME,3.1,M,4.4,M,5.3,M*2A
$HCHDG,351.5,0.0,E,,*2B
$HCHDG,351.4,0.0,E,,*2A
$GPRMC,163237.2,A,4807.31320,N,12244.59745,W,003.83,025.8,050513,016.8,E,A*2E
$PGRME,3.0,M,4.3,M,5.3,M*2C
$HCHDG,351.5,0.0,E,,*2B
$IIRMC,163200,A,4807.312,N,12244.597,W,03.8,024,050513,16,E,A*11
$HCHDG,351.6,0.0,E,,*28
$IIVHW,,,,,00.0,N,,*19
$GPRMC,163237.4,A,4807.31346,N,12244.59736,W,003.90,025.6,050513,016.8,E,A*20
$PGRME,3.0,M,4.3,M,5.3,M*2C
$IIVLW,06236,N,000.0,N*52
$YXXDR,A,4.8,D,PTCH,A,6.6,D,ROLL*51
$IIDPT,027.5,-1.0,*40
$HCHDG,351.6,0.0,E,,*28
$HCHDG,351.7,0.0,E,,*29
$IIGLL,4807.312,N,12244.597,W,163200,A,A*45
$GPRMC,163237.6,A,4807.31372,N,12244.59713,W,003.87,025.7,050513,016.8,E,A*25
$IIMTW,+08.5,C*35
$PGRME,3.0,M,4.3,M,5.3,M*2C
$HCHDG,352.0,0.0,E,,*2D
$IIRMB,A,0.24,L,,Ptm ,,,,,000.4,237,,V,A*2A
$HCHDG,351.9,0.0,E,,*27
$GPRMC,163237.8,A,4807.31405,N,12244.59691,W,003.91,026.0,050513,016.8,E,A*24
$GPRMB,A,0.24,L,,Ptm,4807.0330,N,12244.9520,W,0.4,237,-2.64,V*6E
$PGRME,3.0,M,4.3,M,5.2,M*2D
$HCHDG,352.0,0.0,E,,*2D
$YXXDR,A,4.8,D,PTCH,A,6.9,D,ROLL*5E
$PTAK,FFD1,6.9*5A
$HCHDG,352.1,0.0,E,,*2C
$GPRMC,163238.0,A,4807.31427,N,12244.59677,W,003.91,028.2,050513,016.8,E,A*27
$PGRME,3.0,M,4.3,M,5.2,M*2D
$HCHDG,351.9,0.0,E,,*27
$HCHDG,352.0,0.0,E,,*2D
$GPRMC,163238.2,A,4807.31449,N,12244.59660,W,003.90,029.9,050513,016.8,E,A*20
$PGRME,3.0,M,4.2,M,5.2,M*2C
$HCHDG,352.1,0.0,E,,*2C
$IIRMC,163200,A,4807.312,N,12244.597,W,03.8,024,050513,16,E,A*11
$HCHDG,351.9,0.0,E,,*27
$IIVHW,,,,,00.0,N,,*19
$GPRMC,163238.4,A,4807.31474,N,12244.59636,W,003.89,026.2,050513,016.8,E,A*27
$PGRME,3.0,M,4.2,M,5.2,M*2C
$IIVLW,06236,N,000.0,N*52
$YXXDR,A,4.7,D,PTCH,A,6.4,D,ROLL*5C
$IIDPT,027.5,-1.0,*40
$HCHDG,351.9,0.0,E,,*27
$HCHDG,352.0,0.0,E,,*2D
$IIGLL,4807.312,N,12244.597,W,163200,A,A*45
$GPRMC,163238.6,A,4807.31500,N,12244.59622,W,003.92,027.8,050513,016.8,E,A*23
$IIMTW,+08.5,C*35
$PGRME,3.0,M,4.2,M,5.2,M*2C
$HCHDG,352.3,0.0,E,,*2E
$IIRMB,A,0.24,L,,Ptm ,,,,,000.4,237,,V,A*2A
$HCHDG,352.3,0.0,E,,*2E
$GPRMC,163238.8,A,4807.31529,N,12244.59607,W,003.93,027.2,050513,016.8,E,A*2A
$PGRME,3.0,M,4.2,M,5.2,M*2C
$HCHDG,352.3,0.0,E,,*2E
$YXXDR,A,4.6,D,PTCH,A,6.6,D,ROLL*5F
$HCHDG,352.3,0.0,E,,*2E
$GPRMC,163239.0,A,4807.31551,N,12244.59593,W,003.96,030.6,050513,016.8,E,A*25
$GPRMB,A,0.24,L,,Ptm,4807.0330,N,12244.9520,W,0.4,237,-2.90,V*65
$PGRME,3.0,M,4.2,M,5.2,M*2C
$HCHDG,352.2,0.0,E,,*2F
$HCHDG,352.2,0.0,E,,*2F
$GPRMC,163239.2,A,4807.31567,N,12244.59578,W,003.96,031.3,050513,016.8,E,A*23
$PGRME,3.0,M,4.2,M,5.2,M*2C
$HCHDG,352.2,0.0,E,,*2F
$IIRMC,163200,A,4807.314,N,12244.596,W,03.9,028,050513,16,E,A*1B
$HCHDG,352.3,0.0,E,,*2E
$IIVHW,,,,,00.0,N,,*19
$GPRMC,163239.4,A,4807.31590,N,12244.59557,W,003.97,030.2,050513,016.8,E,A*21
$PGRME,3.0,M,4.2,M,5.2,M*2C
$IIVLW,06236,N,000.0,N*52
$YXXDR,A,4.5,D,PTCH,A,6.6,D,ROLL*5C
$PTAK,FFD1,6.6*55
$PTAK,FFP1,HEEL,@*07
$IIDPT,027.9,-1.0,*4C
$HCHDG,352.2,0.0,E,,*2F
$HCHDG,352.2,0.0,E,,*2F
$IIGLL,4807.314,N,12244.596,W,163200,A,A*42
$GPRMC,163239.6,A,4807.31615,N,12244.59542,W,004.00,028.4,050513,016.8,E,A*2F
$PGRME,3.0,M,4.2,M,5.2,M*2C
$IIMTW,+08.5,C*35
$HCHDG,352.4,0.0,E,,*29
$IIRMB,A,0.24,L,,Ptm ,,,,,000.4,237,,V,A*2A
$HCHDG,352.4,0.0,E,,*29
$GPRMC,163239.8,A,4807.31643,N,12244.59524,W,004.19,029.6,050513,016.8,E,A*29
$PGRME,3.0,M,4.2,M,5.2,M*2C
$HCHDG,352.0,0.0,E,,*2D
$YXXDR,A,4.5,D,PTCH,A,6.3,D,ROLL*59
$HCHDG,352.0,0.0,E,,*2D
$GPRMC,163240.0,A,4807.31662,N,12244.59505,W,003.87,033.7,050513,016.8,E,A*25
$PGRME,3.0,M,4.2,M,5.2,M*2C
$HCHDG,351.9,0.0,E,,*27
$HCHDG,351.7,0.0,E,,*29
$GPRMC,163240.2,A,4807.31676,N,12244.59482,W,004.15,029.4,050513,016.8,E,A*28
$GPRMB,A,0.24,L,,Ptm,4807.0330,N,12244.9520,W,0.4,237,-2.98,V*6D
$PGRME,3.0,M,4.2,M,5.2,M*2C
$HCHDG,351.6,0.0,E,,*28
$IIRMC,163200,A,4807.315,N,12244.595,W,03.9,030,050513,16,E,A*10
$HCHDG,351.8,0.0,E,,*26
$IIVHW,,,,,00.0,N,,*19
$GPRMC,163240.4,A,4807.31694,N,12244.59472,W,004.35,027.7,050513,016.8,E,A*22
$PGRME,3.0,M,4.2,M,5.2,M*2C
$IIVLW,06236,N,000.0,N*52
$YXXDR,A,4.7,D,PTCH,A,7.1,D,ROLL*58
$PTAK,FFD1,7.1*53
$IIDPT,027.9,-1.0,*4C
$HCHDG,351.7,0.0,E,,*29
$HCHDG,351.7,0.0,E,,*29
$IIGLL,4807.315,N,12244.595,W,163200,A,A*40
$GPRMC,163240.6,A,4807.31707,N,12244.59464,W,004.10,031.8,050513,016.8,E,A*23
$IIMTW,+08.5,C*35
$PGRME,3.0,M,4.2,M,5.2,M*2C
$HCHDG,352.0,0.0,E,,*2D
$IIRMB,A,0.24,L,,Ptm ,,,,,000.4,237,,V,A*2A
$HCHDG,351.8,0.0,E,,*26
$GPRMC,163240.8,A,4807.31718,N,12244.59454,W,004.13,029.0,050513,016.8,E,A*22
$PGRME,3.0,M,4.1,M,5.1,M*2C
$HCHDG,351.6,0.0,E,,*28
$YXXDR,A,4.7,D,PTCH,A,7.4,D,ROLL*5D
$HCHDG,351.6,0.0,E,,*28
$GPRMC,163241.0,A,4807.31741,N,12244.59433,W,004.16,029.5,050513,016.8,E,A*26
$PGRME,3.0,M,4.0,M,5.1,M*2D
$HCHDG,351.3,0.0,E,,*2D
$HCHDG,351.1,0.0,E,,*2F
$GPRMC,163241.2,A,4807.31758,N,12244.59420,W,004.17,028.9,050513,016.8,E,A*22
$GPRMB,A,0.24,L,,Ptm,4807.0330,N,12244.9520,W,0.4,237,-2.97,V*62
$PGRME,3.0,M,4.0,M,5.1,M*2D
$HCHDG,351.0,0.0,E,,*2E
$IIRMC,163200,A,4807.315,N,12244.595,W,03.9,030,050513,16,E,A*10
$HCHDG,351.1,0.0,E,,*2F
$IIVHW,,,,,00.0,N,,*19
$GPRMC,163241.4,A,4807.31780,N,12244.59412,W,004.12,027.6,050513,016.8,E,A*25
$PGRME,3.0,M,4.0,M,5.0,M*2C
$IIVLW,06236,N,000.0,N*52
$YXXDR,A,4.7,D,PTCH,A,7.7,D,ROLL*5E
$PTAK,FFD1,7.7*55
$IIDPT,027.9,-1.0,*4C
$HCHDG,351.0,0.0,E,,*2E
$HCHDG,351.2,0.0,E,,*2C
$IIGLL,4807.315,N,12244.595,W,163200,A,A*40
$GPRMC,163241.6,A,4807.31803,N,12244.59402,W,004.12,026.0,050513,016.8,E,A*25
$IIMTW,+08.5,C*35
$PGRME,3.0,M,3.9,M,5.0,M*22
$HCHDG,351.4,0.0,E,,*2A
$IIRMB,A,0.24,L,,Ptm ,,,,,000.4,237,,V,A*2A
$HCHDG,351.4,0.0,E,,*2A
$GPRMC,163241.8,A,4807.31829,N,12244.59388,W,004.09,027.8,050513,016.8,E,A*25
$PGRME,3.0,M,3.8,M,4.9,M*2B
$HCHDG,351.4,0.0,E,,*2A
$YXXDR,A,4.9,D,PTCH,A,7.5,D,ROLL*52
$HCHDG,351.4,0.0,E,,*2A
$GPRMC,163242.0,A,4807.31846,N,12244.59383,W,004.06,027.3,050513,016.8,E,A*28
$PGRME,3.0,M,3.8,M,4.9,M*2B
$HCHDG,351.2,0.0,E,,*2C
$HCHDG,351.1,0.0,E,,*2F
$GPRMC,163242.2,A,4807.31865,N,12244.59373,W,004.05,024.3,050513,016.8,E,A*24
$PGRME,3.0,M,3.8,M,4.9,M*2B
$HCHDG,350.8,0.0,E,,*27
$IIRMC,163200,A,4807.317,N,12244.594,W,04.1,029,050513,16,E,A*14
$HCHDG,350.7,0.0,E,,*28
$IIVHW,,,,,00.0,N,,*19
$GPRMC,163242.4,A,4807.31887,N,12244.59353,W,004.02,025.7,050513,016.8,E,A*2E
$GPRMB,A,0.24,L,,Ptm,4807.0330,N,12244.9520,W,0.4,237,-2.71,V*6A
$PGRME,3.0,M,3.8,M,4.9,M*2B
$IIVLW,06236,N,000.0,N*52
$YXXDR,A,4.6,D,PTCH,A,6.1,D,ROLL*58
$PTAK,FFD1,6.1*52
$IIDPT,027.9,-1.0,*4C
$HCHDG,350.7,0.0,E,,*28
$HCHDG,350.7,0.0,E,,*28
$IIGLL,4807.317,N,12244.594,W,163200,A,A*43
$GPRMC,163242.6,A,4807.31916,N,12244.59338,W,003.75,026.5,050513,016.8,E,A*2E
$IIMTW,+08.5,C*35
$PGRME,3.0,M,3.8,M,4.8,M*2A
$HCHDG,350.4,0.0,E,,*2B
$IIRMB,A,0.24,L,,Ptm ,,,,,000.4,237,,V,A*2A
$HCHDG,350.3,0.0,E,,*2C
$GPRMC,163242.8,A,4807.31943,N,12244.59323,W,003.94,025.1,050513,016.8,E,A*22
$PGRME,3.0,M,3.7,M,4.8,M*25
$HCHDG,350.2,0.0,E,,*2D
$YXXDR,A,4.7,D,PTCH,A,5.5,D,ROLL*5E
$HCHDG,350.1,0.0,E,,*2E
$GPRMC,163243.0,A,4807.31968,N,12244.59307,W,003.99,022.5,050513,016.8,E,A*2A
$PGRME,3.0,M,3.7,M,4.8,M*25
$HCHDG,350.4,0.0,E,,*2B
$HCHDG,350.3,0.0,E,,*2C
$GPRMC,163243.2,A,4807.31984,N,12244.59288,W,003.94,024.4,050513,016.8,E,A*26
$PGRME,3.0,M,3.6,M,4.7,M*2B
$HCHDG,350.2,0.0,E,,*2D
$IIRMC,163200,A,4807.318,N,12244.593,W,04.0,027,050513,16,E,A*13
$HCHDG,350.2,0.0,E,,*2D
$IIVHW,,,,,00.0,N,,*19
$GPRMC,163243.4,A,4807.32004,N,12244.59276,W,003.71,022.1,050513,016.8,E,A*2B
$PGRME,3.0,M,3.6,M,4.7,M*2B
$IIVLW,06236,N,000.0,N*52
$YXXDR,A,4.4,D,PTCH,A,5.3,D,ROLL*5B
$PTAK,FFP1,HEEL,@*07
$IIDPT,028.1,-1.0,*4B
$HCHDG,350.0,0.0,E,,*2F
$HCHDG,350.0,0.0,E,,*2F
$IIGLL,4807.318,N,12244.593,W,163200,A,A*4B
$GPRMC,163243.6,A,4807.32024,N,12244.59265,W,003.88,022.8,050513,016.8,E,A*26
$GPRMB,A,0.24,L,,Ptm,4807.0330,N,12244.9520,W,0.4,236,-2.47,V*6E
$IIMTW,+08.5,C*35
$PGRME,3.0,M,3.6,M,4.7,M*2B
$HCHDG,349.9,0.0,E,,*2E
$IIRMB,A,0.24,L,,Ptm ,,,,,000.4,237,,V,A*2A
$HCHDG,349.9,0.0,E,,*2E
$GPRMC,163243.8,A,4807.32043,N,12244.59253,W,003.86,022.8,050513,016.8,E,A*22
$PGRME,3.0,M,3.6,M,4.7,M*2B
$HCHDG,349.8,0.0,E,,*2F
$YXXDR,A,4.3,D,PTCH,A,5.1,D,ROLL*5E
$PTAK,FFD1,5.1*51
$HCHDG,349.7,0.0,E,,*20
$GPRMC,163244.0,A,4807.32064,N,12244.59243,W,003.88,023.5,050513,016.8,E,A*2B
$PGRME,3.0,M,3.6,M,4.7,M*2B
$PGRMT,GPS 18x-5Hz software ver. 3.20,,,,,,,,*30
$HCHDG,349.6,0.0,E,,*21
$HCHDG,349.3,0.0,E,,*24
$GPRMC,163244.2,A,4807.32083,N,12244.59233,W,004.12,020.2,050513,016.8,E,A*27
$PGRME,3.0,M,3.6,M,4.7,M*2B
$HCHDG,349.2,0.0,E,,*25
$IIRMC,163200,A,4807.319,N,12244.593,W,03.9,022,050513,16,E,A*19
$HCHDG,349.2,0.0,E,,*25
$IIVHW,,,,,00.0,N,,*19
$GPRMC,163244.4,A,4807.32097,N,12244.59225,W,003.64,020.8,050513,016.8,E,A*2F
$PGRME,3.0,M,3.6,M,4.7,M*2B
$IIVLW,06236,N,000.0,N*52
$YXXDR,A,4.6,D,PTCH,A,5.4,D,ROLL*5E
$IIDPT,028.2,-1.0,*48
$HCHDG,349.1,0.0,E,,*26
$HCHDG,349.0,0.0,E,,*27
$IIGLL,4807.319,N,12244.593,W,163200,A,A*4A
$GPRMC,163244.6,A,4807.32120,N,12244.59221,W,004.08,021.7,050513,016.8,E,A*27
$GPRMB,A,0.24,L,,Ptm,4807.0330,N,12244.9520,W,0.4,236,-2.54,V*6C
$IIMTW,+08.5,C*35
$PGRME,3.0,M,3.6,M,4.7,M*2B
$HCHDG,349.2,0.0,E,,*25
$IIRMB,A,0.24,L,,Ptm ,,,,,000.4,236,,V,A*2B
$HCHDG,349.0,0.0,E,,*27
$GPRMC,163244.8,A,4807.32139,N,12244.59209,W,003.73,023.7,050513,016.8,E,A*22
$PGRME,3.0,M,3.6,M,4.7,M*2B
$HCHDG,349.0,0.0,E,,*27
$YXXDR,A,4.7,D,PTCH,A,6.0,D,ROLL*58
$HCHDG,348.8,0.0,E,,*2E
$GPRMC,163245.0,A,4807.32155,N,12244.59197,W,003.89,021.2,050513,016.8,E,A*27
$PGRME,3.0,M,3.6,M,4.7,M*2B
$HCHDG,348.9,0.0,E,,*2F
$HCHDG,348.6,0.0,E,,*20
$GPRMC,163245.2,A,4807.32178,N,12244.59183,W,004.11,019.1,050513,016.8,E,A*21
$PGRME,3.0,M,3.6,M,4.7,M*2B
$HCHDG,348.8,0.0,E,,*2E
$IIRMC,163200,A,4807.320,N,12244.592,W,03.8,023,050513,16,E,A*12
$HCHDG,349.0,0.0,E,,*27
$IIVHW,,,,,00.0,N,,*19
$GPRMC,163245.4,A,4807.32195,N,12244.59173,W,003.84,021.1,050513,016.8,E,A*2B
$PGRME,3.0,M,3.6,M,4.7,M*2B
$IIVLW,06236,N,000.0,N*52
$YXXDR,A,4.5,D,PTCH,A,6.5,D,ROLL*5F
$PTAK,FFD1,6.5*56
$IIDPT,028.2,-1.0,*48
$HCHDG,348.8,0.0,E,,*2E
$HCHDG,348.7,0.0,E,,*21
$IIGLL,4807.320,N,12244.592,W,163200,A,A*41
$GPRMC,163245.6,A,4807.32214,N,12244.59161,W,004.11,020.0,050513,016.8,E,A*2B
$IIMTW,+08.5,C*35
$PGRME,3.0,M,3.6,M,4.7,M*2B
$HCHDG,348.8,0.0,E,,*2E
$IIRMB,A,0.24,L,,Ptm ,,,,,000.4,236,,V,A*2B
$HCHDG,348.8,0.0,E,,*2E
$GPRMC,163245.8,A,4807.32236,N,12244.59149,W,004.10,019.0,050513,016.8,E,A*24
$GPRMB,A,0.24,L,,Ptm,4807.0330,N,12244.9520,W,0.4,236,-2.40,V*69
$PGRME,3.0,M,3.6,M,4.7,M*2B
$HCHDG,348.9,0.0,E,,*2F
$YXXDR,A,4.6,D,PTCH,A,6.6,D,ROLL*5F
$HCHDG,348.7,0.0,E,,*21
$GPRMC,163246.0,A,4807.32256,N,12244.59138,W,003.94,021.3,050513,016.8,E,A*2C
$PGRME,3.0,M,3.6,M,4.7,M*2B
$HCHDG,348.9,0.0,E,,*2F
$HCHDG,348.9,0.0,E,,*2F
$GPRMC,163246.2,A,4807.32272,N,12244.59131,W,003.94,023.0,050513,016.8,E,A*20
$PGRME,3.0,M,3.6,M,4.7,M*2B
$HCHDG,349.2,0.0,E,,*25
$IIRMC,163200,A,4807.321,N,12244.591,W,03.8,021,050513,16,E,A*12
$HCHDG,349.1,0.0,E,,*26
$IIVHW,,,,,00.0,N,,*19
$GPRMC,163246.4,A,4807.32289,N,12244.59127,W,003.90,020.4,050513,016.8,E,A*26
$PGRME,3.0,M,3.5,M,4.7,M*28
$IIVLW,06236,N,000.0,N*52
$YXXDR,A,4.9,D,PTCH,A,6.6,D,ROLL*50
$PTAK,FFD1,6.6*55
$IIDPT,028.2,-1.0,*48
$HCHDG,349.0,0.0,E,,*27
$HCHDG,348.7,0.0,E,,*21
$IIGLL,4807.321,N,12244.591,W,163200,A,A*43
$GPRMC,163246.6,A,4807.32311,N,12244.59113,W,003.95,021.3,050513,016.8,E,A*20
$IIMTW,+08.5,C*35
$PGRME,3.0,M,3.5,M,4.7,M*28
$HCHDG,348.6,0.0,E,,*20
$IIRMB,A,0.24,L,,Ptm ,,,,,000.4,236,,V,A*2B
$HCHDG,348.3,0.0,E,,*25
$GPRMC,163246.8,A,4807.32333,N,12244.59102,W,003.90,022.1,050513,016.8,E,A*2A
$PGRME,3.0,M,3.5,M,4.7,M*28
$HCHDG,348.2,0.0,E,,*24
$YXXDR,A,4.9,D,PTCH,A,5.4,D,ROLL*51
$HCHDG,348.0,0.0,E,,*26
$GPRMC,163247.0,A,4807.32354,N,12244.59088,W,004.06,019.7,050513,016.8,E,A*27
$GPRMB,A,0.24,L,,Ptm,4807.0330,N,12244.9520,W,0.4,236,-2.42,V*6B
$PGRME,3.0,M,3.5,M,4.7,M*28
$HCHDG,348.0,0.0,E,,*26
$HCHDG,347.6,0.0,E,,*2F
$GPRMC,163247.2,A,4807.32378,N,12244.59078,W,004.05,020.8,050513,016.8,E,A*22
$PGRME,3.0,M,3.5,M,4.7,M*28
$HCHDG,347.6,0.0,E,,*2F
$IIRMC,163200,A,4807.322,N,12244.591,W,03.9,021,050513,16,E,A*10
$HCHDG,347.6,0.0,E,,*2F
$IIVHW,,,,,00.0,N,,*19
$GPRMC,163247.4,A,4807.32397,N,12244.59073,W,004.05,021.8,050513,016.8,E,A*2F
$PGRME,3.0,M,3.5,M,4.7,M*28
$IIVLW,06236,N,000.0,N*52
$YXXDR,A,4.7,D,PTCH,A,5.3,D,ROLL*58
$PTAK,FFD1,5.3*53
$PTAK,FFP1,HEEL,@*07
$IIDPT,028.2,-1.0,*48
$HCHDG,347.2,0.0,E,,*2B
$HCHDG,347.2,0.0,E,,*2B
$IIGLL,4807.322,N,12244.591,W,163200,A,A*40
$GPRMC,163247.6,A,4807.32414,N,12244.59060,W,004.04,021.6,050513,016.8,E,A*2C
$IIMTW,+08.5,C*35
$PGRME,3.0,M,3.5,M,4.7,M*28
$HCHDG,347.2,0.0,E,,*2B
$IIRMB,A,0.24,L,,Ptm ,,,,,000.4,236,,V,A*2B
$HCHDG,347.0,0.0,E,,*29
$GPRMC,163247.8,A,4807.32426,N,12244.59050,W,003.75,025.8,050513,016.8,E,A*2B
$PGRME,3.0,M,3.5,M,4.7,M*28
$HCHDG,346.9,0.0,E,,*21
$YXXDR,A,4.7,D,PTCH,A,5.1,D,ROLL*5A
$HCHDG,346.6,0.0,E,,*2E
$GPRMC,163248.0,A,4807.32441,N,12244.59035,W,003.81,021.2,050513,016.8,E,A*2B
$GPRMB,A,0.24,L,,Ptm,4807.0330,N,12244.9520,W,0.4,236,-2.35,V*6B
$PGRME,3.0,M,3.5,M,4.7,M*28
$HCHDG,346.6,0.0,E,,*2E
$HCHDG,346.6,0.0,E,,*2E
$GPRMC,163248.2,A,4807.32456,N,12244.59022,W,003.83,022.7,050513,016.8,E,A*2D
$PGRME,3.0,M,3.5,M,4.6,M*29
$HCHDG,346.4,0.0,E,,*2C
$IIRMC,163200,A,4807.323,N,12244.590,W,04.0,019,050513,16,E,A*15
$HCHDG,346.5,0.0,E,,*2D
$IIVHW,,,,,00.0,N,,*19
$GPRMC,163248.4,A,4807.32470,N,12244.59014,W,003.80,021.5,050513,016.8,E,A*28
$PGRME,3.0,M,3.5,M,4.6,M*29
$IIVLW,06236,N,000.0,N*52
$YXXDR,A,4.6,D,PTCH,A,5.2,D,ROLL*58
$PTAK,FFD1,5.2*52
$IIDPT,028.6,-1.0,*4C
$HCHDG,346.3,0.0,E,,*2B
$HCHDG,346.4,0.0,E,,*2C
$IIGLL,4807.323,N,12244.590,W,163200,A,A*40
$GPRMC,163248.6,A,4807.32488,N,12244.58999,W,003.75,021.8,050513,016.8,E,A*27
$IIMTW,+08.5,C*35
$PGRME,3.0,M,3.4,M,4.6,M*28
$HCHDG,346.2,0.0,E,,*2A
$IIRMB,A,0.24,L,,Ptm ,,,,,000.4,236,,V,A*2B
$HCHDG,346.2,0.0,E,,*2A
$GPRMC,163248.8,A,4807.32507,N,12244.58986,W,003.76,017.4,050513,016.8,E,A*2B
$PGRME,3.0,M,3.4,M,4.6,M*28
$HCHDG,346.1,0.0,E,,*29
$YXXDR,A,4.6,D,PTCH,A,5.4,D,ROLL*5E
$HCHDG,346.1,0.0,E,,*29
$GPRMC,163249.0,A,4807.32523,N,12244.58976,W,003.71,021.6,050513,016.8,E,A*2B
$PGRME,3.1,M,3.4,M,4.6,M*29
$HCHDG,346.1,0.0,E,,*29
$HCHDG,346.1,0.0,E,,*29
$GPRMC,163249.2,A,4807.32542,N,12244.58963,W,003.90,016.3,050513,016.8,E,A*24
$GPRMB,A,0.24,L,,Ptm,4807.0330,N,12244.9520,W,0.4,236,-2.14,V*68
$PGRME,3.1,M,3.4,M,4.6,M*29
$HCHDG,346.0,0.0,E,,*28
$IIRMC,163200,A,4807.324,N,12244.590,W,03.8,021,050513,16,E,A*16
$HCHDG,346.0,0.0,E,,*28
$IIVHW,,,,,00.0,N,,*19
$GPRMC,163249.4,A,4807.32557,N,12244.58951,W,003.85,017.6,050513,016.8,E,A*27
$PGRME,3.1,M,3.4,M,4.6,M*29
$IIVLW,06236,N,000.0,N*52
$YXXDR,A,4.7,D,PTCH,A,5.5,D,ROLL*5E
$PTAK,FFD1,5.5*55
$IIDPT,028.6,-1.0,*4C
$HCHDG,346.0,0.0,E,,*28
$HCHDG,345.7,0.0,E,,*2C
$IIGLL,4807.324,N,12244.590,W,163200,A,A*47
$GPRMC,163249.6,A,4807.32572,N,12244.58944,W,003.79,017.7,050513,016.8,E,A*24
$IIMTW,+08.5,C*35
$PGRME,3.1,M,3.4,M,4.5,M*2A
$HCHDG,345.6,0.0,E,,*2D
$IIRMB,A,0.24,L,,Ptm ,,,,,000.4,236,,V,A*2B
$HCHDG,345.7,0.0,E,,*2C
$GPRMC,163249.8,A,4807.32587,N,12244.58929,W,003.60,018.9,050513,016.8,E,A*22
$PGRME,3.1,M,3.3,M,4.5,M*2D
$HCHDG,345.6,0.0,E,,*2D
$YXXDR,A,4.7,D,PTCH,A,5.0,D,ROLL*5B
$HCHDG,345.4,0.0,E,,*2F
$GPRMC,163250.0,A,4807.32606,N,12244.58915,W,003.96,014.7,050513,016.8,E,A*2C
$PGRME,3.1,M,3.3,M,4.5,M*2D
$HCHDG,345.2,0.0,E,,*29
$HCHDG,345.3,0.0,E,,*28
$GPRMC,163250.2,A,4807.32622,N,12244.58905,W,003.70,016.8,050513,016.8,E,A*2C
$PGRME,3.1,M,3.3,M,4.5,M*2D
$HCHDG,345.0,0.0,E,,*2B
$IIRMC,163200,A,4807.325,N,12244.589,W,03.7,021,050513,16,E,A*10
$HCHDG,344.9,0.0,E,,*23
$IIVHW,,,,,00.0,N,,*19
$GPRMC,163250.4,A,4807.32640,N,12244.58884,W,003.71,016.7,050513,016.8,E,A*28
$GPRMB,A,0.24,L,,Ptm,4807.0330,N,12244.9520,W,0.4,236,-2.06,V*6B
$PGRME,3.1,M,3.3,M,4.5,M*2D
$IIVLW,06236,N,000.0,N*52
$YXXDR,A,4.6,D,PTCH,A,5.1,D,ROLL*5B
$PTAK,FFD1,5.1*51
$IIDPT,028.6,-1.0,*4C
$HCHDG,345.0,0.0,E,,*2B
$HCHDG,345.0,0.0,E,,*2B
$IIGLL,4807.325,N,12244.589,W,163200,A,A*4E
$GPRMC,163250.6,A,4807.32663,N,12244.58872,W,003.70,016.5,050513,016.8,E,A*21
$IIMTW,+08.5,C*35
$PGRME,3.1,M,3.2,M,4.5,M*2C
$HCHDG,345.0,0.0,E,,*2B
$IIRMB,A,0.24,L,,Ptm ,,,,,000.4,236,,V,A*2B
$HCHDG,344.8,0.0,E,,*22
$GPRMC,163250.8,A,4807.32684,N,12244.58862,W,003.70,015.2,050513,016.8,E,A*23
$PGRME,3.1,M,3.2,M,4.5,M*2C
$HCHDG,344.7,0.0,E,,*2D
$YXXDR,A,4.9,D,PTCH,A,5.4,D,ROLL*51
$HCHDG,344.6,0.0,E,,*2C
$GPRMC,163251.0,A,4807.32700,N,12244.58851,W,003.74,015.2,050513,016.8,E,A*23
$PGRME,3.1,M,3.2,M,4.4,M*2D
$HCHDG,344.5,0.0,E,,*2F
$HCHDG,344.3,0.0,E,,*29
$GPRMC,163251.2,A,4807.32717,N,12244.58845,W,003.76,013.0,050513,016.8,E,A*24
$PGRME,3.1,M,3.2,M,4.4,M*2D
$HCHDG,344.2,0.0,E,,*28
$IIRMC,163200,A,4807.326,N,12244.589,W,03.7,016,050513,16,E,A*17
$HCHDG,343.9,0.0,E,,*24
$IIVHW,,,,,00.0,N,,*19
$GPRMC,163251.4,A,4807.32733,N,12244.58837,W,003.56,016.5,050513,016.8,E,A*23
$PGRME,3.1,M,3.2,M,4.4,M*2D
$IIVLW,06236,N,000.0,N*52
$YXXDR,A,4.8,D,PTCH,A,5.2,D,ROLL*56
$IIDPT,028.8,-1.0,*42
$HCHDG,343.8,0.0,E,,*25
$PTAK,FFP1,HEEL,@*07
$HCHDG,343.6,0.0,E,,*2B
$IIGLL,4807.326,N,12244.589,W,163200,A,A*4D
$GPRMC,163251.6,A,4807.32750,N,12244.58834,W,003.62,013.1,050513,016.8,E,A*21
$GPRMB,A,0.24,L,,Ptm,4807.0330,N,12244.9520,W,0.4,236,-1.82,V*64
$PGRME,3.1,M,3.2,M,4.4,M*2D
$IIMTW,+08.5,C*35
$HCHDG,343.6,0.0,E,,*2B
$IIRMB,A,0.24,L,,Ptm ,,,,,000.4,236,,V,A*2B
$HCHDG,343.6,0.0,E,,*2B
$GPRMC,163251.8,A,4807.32765,N,12244.58829,W,003.63,014.2,050513,016.8,E,A*20
$PGRME,3.1,M,3.1,M,4.4,M*2E
$HCHDG,343.5,0.0,E,,*28
$YXXDR,A,4.7,D,PTCH,A,5.0,D,ROLL*5B
$PTAK,FFD1,5.0*50
$HCHDG,343.3,0.0,E,,*2E
$GPRMC,163252.0,A,4807.32784,N,12244.58828,W,003.66,012.1,050513,016.8,E,A*25
$PGRME,3.1,M,3.1,M,4.4,M*2E
$HCHDG,343.2,0.0,E,,*2F
$HCHDG,342.9,0.0,E,,*25
$GPRMC,163252.2,A,4807.32799,N,12244.58828,W,003.61,015.5,050513,016.8,E,A*2F
$PGRME,3.1,M,3.1,M,4.3,M*29
$HCHDG,342.9,0.0,E,,*25
$IIRMC,163200,A,4807.327,N,12244.588,W,03.5,016,050513,16,E,A*15
$HCHDG,342.7,0.0,E,,*2B
$IIVHW,,,,,00.0,N,,*19
$GPRMC,163252.4,A,4807.32811,N,12244.58821,W,003.57,016.6,050513,016.8,E,A*2A
$PGRME,3.1,M,3.0,M,4.3,M*28
$IIVLW,06236,N,000.0,N*52
$YXXDR,A,4.5,D,PTCH,A,4.4,D,ROLL*5C
$IIDPT,028.8,-1.0,*42
$HCHDG,342.6,0.0,E,,*2A
$HCHDG,342.4,0.0,E,,*28
$IIGLL,4807.327,N,12244.588,W,163200,A,A*4D
$GPRMC,163252.6,A,4807.32827,N,12244.58812,W,003.73,012.9,050513,016.8,E,A*20
$GPRMB,A,0.24,L,,Ptm,4807.0330,N,12244.9520,W,0.4,236,-1.87,V*61
$IIMTW,+08.5,C*35
$PGRME,3.1,M,3.0,M,4.3,M*28
$HCHDG,342.6,0.0,E,,*2A
$IIRMB,A,0.24,L,,Ptm ,,,,,000.4,236,,V,A*2B
$HCHDG,342.2,0.0,E,,*2E
$GPRMC,163252.8,A,4807.32850,N,12244.58811,W,003.72,012.6,050513,016.8,E,A*23
$PGRME,3.1,M,3.0,M,4.3,M*28
$HCHDG,342.3,0.0,E,,*2F
$YXXDR,A,4.6,D,PTCH,A,4.1,D,ROLL*5A
$PTAK,FFD1,4.1*50
$HCHDG,342.0,0.0,E,,*2C
$GPRMC,163253.0,A,4807.32867,N,12244.58810,W,003.37,016.2,050513,016.8,E,A*2E
$PGRME,3.1,M,3.0,M,4.3,M*28
$HCHDG,342.0,0.0,E,,*2C
$HCHDG,341.8,0.0,E,,*27
$GPRMC,163253.2,A,4807.32875,N,12244.58804,W,003.66,014.2,050513,016.8,E,A*2C
$PGRME,3.1,M,3.0,M,4.3,M*28
$HCHDG,341.8,0.0,E,,*27
$IIRMC,163200,A,4807.328,N,12244.588,W,03.5,016,050513,16,E,A*1A
$HCHDG,341.6,0.0,E,,*29
$IIVHW,,,,,00.0,N,,*19
$GPRMC,163253.4,A,4807.32883,N,12244.58807,W,003.48,011.2,050513,016.8,E,A*29
$PGRME,3.1,M,3.0,M,4.3,M*28
$IIVLW,06236,N,000.0,N*52
$YXXDR,A,4.5,D,PTCH,A,4.0,D,ROLL*58
$IIDPT,028.8,-1.0,*42
$HCHDG,341.5,0.0,E,,*2A
$HCHDG,341.5,0.0,E,,*2A
$IIGLL,4807.328,N,12244.588,W,163200,A,A*42
$GPRMC,163253.6,A,4807.32896,N,12244.58800,W,003.50,011.9,050513,016.8,E,A*2A
$GPRMB,A,0.24,L,,Ptm,4807.0330,N,12244.9520,W,0.4,236,-1.70,V*69
$IIMTW,+08.5,C*35
$PGRME,3.1,M,3.0,M,4.3,M*28
$HCHDG,341.6,0.0,E,,*29
$IIRMB,A,0.24,L,,Ptm ,,,,,000.4,236,,V,A*2B
$HCHDG,341.3,0.0,E,,*2C
$GPRMC,163253.8,A,4807.32905,N,12244.58795,W,003.51,013.7,050513,016.8,E,A*21
$PGRME,3.1,M,3.0,M,4.3,M*28
$HCHDG,341.3,0.0,E,,*2C
$YXXDR,A,4.6,D,PTCH,A,4.1,D,ROLL*5A
$HCHDG,341.5,0.0,E,,*2A
$GPRMC,163254.0,A,4807.32922,N,12244.58790,W,003.50,012.6,050513,016.8,E,A*2F
$PGRME,3.0,M,3.0,M,4.3,M*29
$HCHDG,341.7,0.0,E,,*28
$HCHDG,341.7,0.0,E,,*28
$GPRMC,163254.2,A,4807.32937,N,12244.58780,W,003.44,010.2,050513,016.8,E,A*2B
$PGRME,3.0,M,3.0,M,4.3,M*29
$HCHDG,341.9,0.0,E,,*26
$IIRMC,163200,A,4807.328,N,12244.588,W,03.5,011,050513,16,E,A*1D
$HCHDG,342.0,0.0,E,,*2C
$IIVHW,,,,,00.0,N,,*19
$GPRMC,163254.4,A,4807.32951,N,12244.58772,W,003.40,007.6,050513,016.8,E,A*26
$PGRME,3.0,M,3.0,M,4.3,M*29
$IIVLW,06236,N,000.0,N*52
$YXXDR,A,4.7,D,PTCH,A,4.4,D,ROLL*5E
$PTAK,FFD1,4.4*55
$IIDPT,028.9,-1.0,*43
$HCHDG,342.5,0.0,E,,*29
$HCHDG,342.6,0.0,E,,*2A
$IIGLL,4807.328,N,12244.588,W,163200,A,A*42
$GPRMC,163254.6,A,4807.32967,N,12244.58766,W,003.37,008.5,050513,016.8,E,A*28
$GPRMB,A,0.24,L,,Ptm,4807.0330,N,12244.9520,W,0.4,236,-1.46,V*6C
$IIMTW,+08.5,C*35
$PGRME,3.0,M,3.0,M,4.3,M*29
$HCHDG,342.8,0.0,E,,*24
$IIRMB,A,0.24,L,,Ptm ,,,,,000.4,236,,V,A*2B
$HCHDG,343.2,0.0,E,,*2F
$GPRMC,163254.8,A,4807.32979,N,12244.58756,W,003.34,007.8,050513,016.8,E,A*2B
$PGRME,3.0,M,3.0,M,4.3,M*29
$HCHDG,343.4,0.0,E,,*29
$YXXDR,A,4.7,D,PTCH,A,4.3,D,ROLL*59
$HCHDG,343.6,0.0,E,,*2B
$GPRMC,163255.0,A,4807.32997,N,12244.58748,W,003.34,007.9,050513,016.8,E,A*2C
$PGRME,3.0,M,3.0,M,4.3,M*29
$HCHDG,343.7,0.0,E,,*2A
$HCHDG,343.7,0.0,E,,*2A
$GPRMC,163255.2,A,4807.33018,N,12244.58750,W,003.37,009.8,050513,016.8,E,A*24
$PGRME,3.0,M,3.0,M,4.3,M*29
$HCHDG,343.7,0.0,E,,*2A
$IIRMC,163200,A,4807.329,N,12244.587,W,03.3,008,050513,16,E,A*1D
$HCHDG,343.7,0.0,E,,*2A
$IIVHW,,,,,00.0,N,,*19
$GPRMC,163255.4,A,4807.33038,N,12244.58743,W,003.41,010.6,050513,016.8,E,A*25
$PGRME,3.0,M,3.0,M,4.3,M*29
$IIVLW,06236,N,000.0,N*52
$YXXDR,A,4.6,D,PTCH,A,3.6,D,ROLL*5A
$IIDPT,028.9,-1.0,*43
$HCHDG,343.9,0.0,E,,*24
$PTAK,FFP1,HEEL,@*07
$IIGLL,4807.329,N,12244.587,W,163200,A,A*4C
$HCHDG,343.9,0.0,E,,*24
$GPRMC,163255.6,A,4807.33056,N,12244.58730,W,003.16,013.7,050513,016.8,E,A*2B
$GPRMB,A,0.24,L,,Ptm,4807.0330,N,12244.9520,W,0.4,236,-1.63,V*6B
$IIMTW,+08.5,C*35
$PGRME,3.0,M,3.0,M,4.3,M*29
$HCHDG,343.9,0.0,E,,*24
$IIRMB,A,0.24,L,,Ptm ,,,,,000.4,236,,V,A*2B
$HCHDG,344.0,0.0,E,,*2A
$GPRMC,163255.8,A,4807.33069,N,12244.58716,W,003.23,013.2,050513,016.8,E,A*2E
$PGRME,3.0,M,3.0,M,4.3,M*29
$HCHDG,343.9,0.0,E,,*24
$YXXDR,A,4.8,D,PTCH,A,2.6,D,ROLL*55
$PTAK,FFD1,2.6*51
$HCHDG,344.1,0.0,E,,*2B
$GPRMC,163256.0,A,4807.33078,N,12244.58692,W,003.26,015.3,050513,016.8,E,A*2A
$PGRME,3.0,M,3.0,M,4.3,M*29
$HCHDG,344.4,0.0,E,,*2E
$HCHDG,344.2,0.0,E,,*28
$GPRMC,163256.2,A,4807.33097,N,12244.58679,W,003.63,013.4,050513,016.8,E,A*2C
$PGRME,3.0,M,3.0,M,4.3,M*29
$HCHDG,344.4,0.0,E,,*2E
$IIRMC,163200,A,4807.330,N,12244.587,W,03.1,013,050513,16,E,A*1D
$HCHDG,344.4,0.0,E,,*2E
$IIVHW,,,,,00.0,N,,*19
$GPRMC,163256.4,A,4807.33116,N,12244.58655,W,003.26,018.0,050513,016.8,E,A*22
$PGRME,3.0,M,3.0,M,4.3,M*29
$IIVLW,06236,N,000.0,N*52
$YXXDR,A,4.8,D,PTCH,A,2.7,D,ROLL*54
$IIDPT,028.9,-1.0,*43
$HCHDG,344.5,0.0,E,,*2F
$HCHDG,344.3,0.0,E,,*29
$IIGLL,4807.330,N,12244.587,W,163200,A,A*44
$GPRMC,163256.6,A,4807.33135,N,12244.58641,W,003.29,019.5,050513,016.8,E,A*2F
$IIMTW,+08.5,C*35
$PGRME,3.0,M,3.0,M,4.3,M*29
$HCHDG,344.4,0.0,E,,*2E
$IIRMB,A,0.24,L,,Ptm ,,,,,000.4,236,,V,A*2B
$HCHDG,344.5,0.0,E,,*2F
$GPRMC,163256.8,A,4807.33151,N,12244.58627,W,003.50,019.6,050513,016.8,E,A*2E
$GPRMB,A,0.24,L,,Ptm,4807.0330,N,12244.9520,W,0.4,236,-2.10,V*6C
$PGRME,3.0,M,3.0,M,4.3,M*29
$HCHDG,344.7,0.0,E,,*2D
$YXXDR,A,4.6,D,PTCH,A,3.0,D,ROLL*5C
$PTAK,FFD1,3.0*56
$HCHDG,344.8,0.0,E,,*22
$GPRMC,163257.0,A,4807.33170,N,12244.58606,W,003.27,021.3,050513,016.8,E,A*29
$PGRME,3.0,M,3.0,M,4.3,M*29
$HCHDG,345.1,0.0,E,,*2A
$HCHDG,345.2,0.0,E,,*29
$GPRMC,163257.2,A,4807.33185,N,12244.58591,W,003.30,019.8,050513,016.8,E,A*2A
$PGRME,3.0,M,3.0,M,4.3,M*29
$HCHDG,345.4,0.0,E,,*2F
$IIRMC,163200,A,4807.331,N,12244.586,W,03.2,019,050513,16,E,A*14
$HCHDG,345.5,0.0,E,,*2E
$IIVHW,,,,,00.0,N,,*19
$GPRMC,163257.4,A,4807.33202,N,12244.58581,W,003.77,020.2,050513,016.8,E,A*22
$PGRME,3.0,M,3.0,M,4.3,M*29
$IIVLW,06236,N,000.0,N*52
$YXXDR,A,4.7,D,PTCH,A,3.9,D,ROLL*54
$IIDPT,028.9,-1.0,*43
$HCHDG,345.5,0.0,E,,*2E
$HCHDG,345.8,0.0,E,,*23
$IIGLL,4807.331,N,12244.586,W,163200,A,A*44
$GPRMC,163257.6,A,4807.33223,N,12244.58570,W,003.36,022.3,050513,016.8,E,A*2B
$IIMTW,+08.5,C*35
$PGRME,3.0,M,3.0,M,4.3,M*29
$HCHDG,345.8,0.0,E,,*23
$IIRMB,A,0.24,L,,Ptm ,,,,,000.4,236,,V,A*2B
$HCHDG,345.7,0.0,E,,*2C
$GPRMC,163257.8,A,4807.33240,N,12244.58560,W,003.35,025.0,050513,016.8,E,A*26
$GPRMB,A,0.24,L,,Ptm,4807.0330,N,12244.9520,W,0.4,236,-2.26,V*69
$PGRME,3.0,M,3.0,M,4.3,M*29
$HCHDG,345.9,0.0,E,,*22
$YXXDR,A,4.7,D,PTCH,A,4.1,D,ROLL*5B
$PTAK,FFD1,4.1*50
$HCHDG,345.9,0.0,E,,*22
$GPRMC,163258.0,A,4807.33259,N,12244.58548,W,003.61,022.1,050513,016.8,E,A*24
$PGRME,3.0,M,3.0,M,4.3,M*29
$HCHDG,346.0,0.0,E,,*28
$HCHDG,346.3,0.0,E,,*2B
$GPRMC,163258.2,A,4807.33276,N,12244.58535,W,003.61,019.9,050513,016.8,E,A*21
$PGRME,3.0,M,3.0,M,4.3,M*29
$HCHDG,346.5,0.0,E,,*2D
$IIRMC,163200,A,4807.332,N,12244.585,W,03.3,022,050513,16,E,A*1D
$HCHDG,346.9,0.0,E,,*21
$IIVHW,,,,,00.0,N,,*19
$GPRMC,163258.4,A,4807.33293,N,12244.58517,W,003.45,022.6,050513,016.8,E,A*2D
$PGRME,3.1,M,3.0,M,4.3,M*28
$IIVLW,06236,N,000.0,N*52
$YXXDR,A,4.9,D,PTCH,A,5.1,D,ROLL*54
$IIDPT,028.9,-1.0,*43
$HCHDG,347.1,0.0,E,,*28
$HCHDG,347.4,0.0,E,,*2D
$IIGLL,4807.332,N,12244.585,W,163200,A,A*44
$GPRMC,163258.6,A,4807.33315,N,12244.58499,W,003.44,023.9,050513,016.8,E,A*28
$IIMTW,+08.5,C*35
$PGRME,3.1,M,3.0,M,4.3,M*28
$HCHDG,347.3,0.0,E,,*2A
$IIRMB,A,0.24,L,,Ptm ,,,,,000.4,236,,V,A*2B
$HCHDG,347.6,0.0,E,,*2F
$GPRMC,163258.8,A,4807.33333,N,12244.58486,W,003.24,027.9,050513,016.8,E,A*2E
$GPRMB,A,0.25,L,,Ptm,4807.0330,N,12244.9520,W,0.4,236,-2.30,V*6F
$PGRME,3.1,M,3.0,M,4.3,M*28
$HCHDG,347.6,0.0,E,,*2F
$YXXDR,A,4.7,D,PTCH,A,5.1,D,ROLL*5A
$HCHDG,347.5,0.0,E,,*2C
$GPRMC,163259.0,A,4807.33353,N,12244.58475,W,003.88,021.1,050513,016.8,E,A*25
$PGRME,3.1,M,3.0,M,4.3,M*28
$HCHDG,347.4,0.0,E,,*2D
$HCHDG,347.6,0.0,E,,*2F
$GPRMC,163259.2,A,4807.33369,N,12244.58466,W,003.46,024.5,050513,016.8,E,A*2F
$PGRME,3.1,M,3.0,M,4.3,M*28
$HCHDG,347.6,0.0,E,,*2F
$IIRMC,163200,A,4807.333,N,12244.584,W,03.4,023,050513,16,E,A*1B
$HCHDG,347.7,0.0,E,,*2E
$IIVHW,,,,,00.0,N,,*19
$GPRMC,163259.4,A,4807.33389,N,12244.58465,W,003.46,023.9,050513,016.8,E,A*2F
$PGRME,3.1,M,3.0,M,4.3,M*28
$IIVLW,06236,N,000.0,N*52
$YXXDR,A,4.7,D,PTCH,A,5.1,D,ROLL*5A
$PTAK,FFD1,5.1*51
$IIDPT,029.1,-1.0,*4A
$HCHDG,347.6,0.0,E,,*2F
$PTAK,FFP1,HEEL,@*07
$HCHDG,347.9,0.0,E,,*20
$IIGLL,4807.333,N,12244.584,W,163200,A,A*44
$GPRMC,163259.6,A,4807.33412,N,12244.58460,W,003.41,023.6,050513,016.8,E,A*25
$IIMTW,+08.5,C*35
$PGRME,3.1,M,3.0,M,4.3,M*28
$HCHDG,348.1,0.0,E,,*27
$IIRMB,A,0.24,L,,Ptm ,,,,,000.4,236,,V,A*2B
$HCHDG,348.0,0.0,E,,*26
$GPRMC,163259.8,A,4807.33437,N,12244.58448,W,003.68,023.0,050513,016.8,E,A*2B
$GPRMB,A,0.25,L,,Ptm,4807.0330,N,12244.9520,W,0.4,236,-2.39,V*66
$PGRME,3.1,M,3.0,M,4.3,M*28
$HCHDG,348.2,0.0,E,,*24
$YXXDR,A,5.0,D,PTCH,A,5.6,D,ROLL*5B
$HCHDG,348.1,0.0,E,,*27
$GPRMC,163300.0,A,4807.33465,N,12244.58434,W,003.68,022.8,050513,016.8,E,A*2B
$PGRME,3.1,M,3.0,M,4.3,M*28
$HCHDG,348.1,0.0,E,,*27
$HCHDG,348.0,0.0,E,,*26
$GPRMC,163300.2,A,4807.33487,N,12244.58417,W,003.49,026.1,050513,016.8,E,A*2A
$PGRME,3.1,M,3.0,M,4.3,M*28
$HCHDG,348.2,0.0,E,,*24
$IIRMC,163200,A,4807.333,N,12244.584,W,03.4,023,050513,16,E,A*1B
$HCHDG,348.1,0.0,E,,*27
$IIVHW,,,,,00.0,N,,*19
$GPRMC,163300.4,A,4807.33508,N,12244.58403,W,003.66,021.7,050513,016.8,E,A*23
$PGRME,3.1,M,3.0,M,4.3,M*28
$IIVLW,06236,N,000.0,N*52
$YXXDR,A,5.0,D,PTCH,A,5.9,D,ROLL*54
$PTAK,FFD1,5.9*59
$IIDPT,029.3,-1.0,*48
$HCHDG,348.2,0.0,E,,*24
$HCHDG,348.0,0.0,E,,*26
$IIGLL,4807.333,N,12244.584,W,163200,A,A*44
$GPRMC,163300.6,A,4807.33528,N,12244.58395,W,003.33,024.2,050513,016.8,E,A*2B
$IIMTW,+08.5,C*35
$PGRME,3.1,M,3.0,M,4.3,M*28
$HCHDG,348.0,0.0,E,,*26
$IIRMB,A,0.24,L,,Ptm ,,,,,000.4,236,,V,A*2B
$HCHDG,347.7,0.0,E,,*2E
$GPRMC,163300.8,A,4807.33547,N,12244.58384,W,003.74,025.0,050513,016.8,E,A*2C
$PGRME,3.1,M,3.0,M,4.3,M*28
$HCHDG,347.7,0.0,E,,*2E
$YXXDR,A,4.8,D,PTCH,A,6.3,D,ROLL*54
$HCHDG,347.9,0.0,E,,*20
$GPRMC,163301.0,A,4807.33565,N,12244.58373,W,003.58,026.2,050513,016.8,E,A*22
$GPRMB,A,0.25,L,,Ptm,4807.0330,N,12244.9520,W,0.4,236,-2.47,V*6F
$PGRME,3.1,M,3.0,M,4.3,M*28
$HCHDG,347.7,0.0,E,,*2E
$HCHDG,347.7,0.0,E,,*2E
$GPRMC,163301.2,A,4807.33585,N,12244.58365,W,003.60,018.4,050513,016.8,E,A*29
$PGRME,3.1,M,3.0,M,4.3,M*28
$HCHDG,348.0,0.0,E,,*26
$IIRMC,163300,A,4807.335,N,12244.583,W,03.3,024,050513,16,E,A*1B
$HCHDG,347.9,0.0,E,,*20
$IIVHW,,,,,00.0,N,,*19
$GPRMC,163301.4,A,4807.33603,N,12244.58356,W,003.41,026.4,050513,016.8,E,A*2C
$PGRME,3.1,M,3.0,M,4.3,M*28
$IIVLW,06236,N,000.0,N*52
$YXXDR,A,4.7,D,PTCH,A,7.3,D,ROLL*5A
$IIDPT,029.3,-1.0,*48
$HCHDG,347.9,0.0,E,,*20
$HCHDG,347.8,0.0,E,,*21
$IIGLL,4807.335,N,12244.583,W,163300,A,A*44
$GPRMC,163301.6,A,4807.33620,N,12244.58345,W,003.44,026.9,050513,016.8,E,A*25
$IIMTW,+08.5,C*35
$PGRME,3.1,M,3.0,M,4.3,M*28
$HCHDG,347.8,0.0,E,,*21
$IIRMB,A,0.25,L,,Ptm ,,,,,000.4,236,,V,A*2A
$HCHDG,347.7,0.0,E,,*2E
$GPRMC,163301.8,A,4807.33640,N,12244.58337,W,003.84,018.5,050513,016.8,E,A*25
$PGRME,3.1,M,3.0,M,4.3,M*28
$HCHDG,347.6,0.0,E,,*2F
$YXXDR,A,5.0,D,PTCH,A,7.8,D,ROLL*57
$PTAK,FFD1,7.8*5A
$HCHDG,347.6,0.0,E,,*2F
$GPRMC,163302.0,A,4807.33659,N,12244.58328,W,003.77,022.6,050513,016.8,E,A*2E
$PGRME,3.1,M,3.0,M,4.3,M*28
$HCHDG,347.6,0.0,E,,*2F
$HCHDG,347.5,0.0,E,,*2C
$GPRMC,163302.2,A,4807.33677,N,12244.58315,W,003.73,023.4,050513,016.8,E,A*29
$GPRMB,A,0.25,L,,Ptm,4807.0330,N,12244.9520,W,0.4,236,-2.45,V*6D
$PGRME,3.1,M,3.0,M,4.3,M*28
$HCHDG,347.2,0.0,E,,*2B
$IIRMC,163300,A,4807.336,N,12244.583,W,03.4,026,050513,16,E,A*1D
$HCHDG,346.8,0.0,E,,*20
$IIVHW,,,,,00.0,N,,*19
$GPRMC,163302.4,A,4807.33699,N,12244.58307,W,003.99,020.5,050513,016.8,E,A*2A
$PGRME,3.1,M,3.0,M,4.3,M*28
$IIVLW,06236,N,000.0,N*52
$YXXDR,A,5.1,D,PTCH,A,7.5,D,ROLL*5B
$IIDPT,029.5,-1.0,*4E
$HCHDG,346.3,0.0,E,,*2B
$HCHDG,345.5,0.0,E,,*2E
$IIGLL,4807.336,N,12244.583,W,163300,A,A*47
$GPRMC,163302.6,A,4807.33727,N,12244.58297,W,004.00,023.3,050513,016.8,E,A*26
$IIMTW,+08.5,C*35
$PGRME,3.1,M,3.0,M,4.3,M*28
$HCHDG,345.0,0.0,E,,*2B
$IIRMB,A,0.25,L,,Ptm ,,,,,000.4,236,,V,A*2A
$HCHDG,343.9,0.0,E,,*24
$GPRMC,163302.8,A,4807.33750,N,12244.58289,W,003.50,030.4,050513,016.8,E,A*20
$PGRME,3.1,M,3.0,M,4.3,M*28
$HCHDG,342.8,0.0,E,,*24
$YXXDR,A,4.9,D,PTCH,A,5.5,D,ROLL*50
$HCHDG,342.1,0.0,E,,*2D
$GPRMC,163303.0,A,4807.33770,N,12244.58279,W,003.86,023.9,050513,016.8,E,A*20
$PGRME,3.1,M,3.0,M,4.3,M*28
$HCHDG,341.6,0.0,E,,*29
$HCHDG,340.6,0.0,E,,*28
$GPRMC,163303.2,A,4807.33788,N,12244.58275,W,003.85,018.8,050513,016.8,E,A*23
$PGRME,3.1,M,3.0,M,4.3,M*28
$HCHDG,340.0,0.0,E,,*2E
$IIRMC,163300,A,4807.337,N,12244.582,W,04.0,023,050513,16,E,A*1B
$HCHDG,339.0,0.0,E,,*20
$PTAK,FFP1,HEEL,@*07
$IIVHW,,,,,00.0,N,,*19
$GPRMC,163303.4,A,4807.33810,N,12244.58265,W,003.63,022.6,050513,016.8,E,A*25
$GPRMB,A,0.25,L,,Ptm,4807.0330,N,12244.9520,W,0.4,236,-2.35,V*6A
$PGRME,3.1,M,3.0,M,4.3,M*28
$IIVLW,06236,N,000.0,N*52
$YXXDR,A,5.0,D,PTCH,A,7.0,D,ROLL*5F
$PTAK,FFD1,7.0*52
$IIDPT,029.5,-1.0,*4E
$HCHDG,338.3,0.0,E,,*22
$IIGLL,4807.337,N,12244.582,W,163300,A,A*47
$HCHDG,337.8,0.0,E,,*26
$GPRMC,163303.6,A,4807.33835,N,12244.58250,W,003.89,020.1,050513,016.8,E,A*27
$IIMTW,+08.5,C*35
$PGRME,3.1,M,3.0,M,4.3,M*28
$HCHDG,337.0,0.0,E,,*2E
$IIRMB,A,0.25,L,,Ptm ,,,,,000.4,236,,V,A*2A
$HCHDG,336.2,0.0,E,,*2D
$GPRMC,163303.8,A,4807.33858,N,12244.58232,W,003.43,022.9,050513,016.8,E,A*2A
$PGRME,3.1,M,3.0,M,4.3,M*28
$HCHDG,335.7,0.0,E,,*2B
$YXXDR,A,5.6,D,PTCH,A,7.6,D,ROLL*5F
$HCHDG,334.8,0.0,E,,*25
$GPRMC,163304.0,A,4807.33884,N,12244.58217,W,003.48,015.8,050513,016.8,E,A*2D
$PGRME,3.1,M,3.0,M,4.3,M*28
$HCHDG,334.2,0.0,E,,*2F
$HCHDG,333.7,0.0,E,,*2D
$GPRMC,163304.2,A,4807.33911,N,12244.58203,W,003.10,015.0,050513,016.8,E,A*22
$PGRME,3.1,M,3.0,M,4.3,M*28
$HCHDG,332.9,0.0,E,,*22
$IIRMC,163300,A,4807.338,N,12244.582,W,03.8,020,050513,16,E,A*18
$HCHDG,332.1,0.0,E,,*2A
$IIVHW,,,,,00.0,N,,*19
$GPRMC,163304.4,A,4807.33929,N,12244.58196,W,003.30,011.6,050513,016.8,E,A*20
$PGRME,3.1,M,3.0,M,4.3,M*28
$IIVLW,06236,N,000.0,N*52
$YXXDR,A,5.6,D,PTCH,A,9.3,D,ROLL*54
$IIDPT,029.7,-1.0,*4C
$HCHDG,331.2,0.0,E,,*2A
$HCHDG,330.0,0.0,E,,*29
$IIGLL,4807.338,N,12244.582,W,163300,A,A*48
$GPRMC,163304.6,A,4807.33949,N,12244.58190,W,003.30,005.1,050513,016.8,E,A*20
$IIMTW,+08.5,C*35
$PGRME,3.1,M,3.0,M,4.3,M*28
$HCHDG,328.8,0.0,E,,*28
$IIRMB,A,0.25,L,,Ptm ,,,,,000.4,236,,V,A*2A
$HCHDG,327.7,0.0,E,,*28
$GPRMC,163304.8,A,4807.33968,N,12244.58188,W,003.24,002.6,050513,016.8,E,A*21
$GPRMB,A,0.25,L,,Ptm,4807.0330,N,12244.9520,W,0.4,235,-1.13,V*6E
$PGRME,3.1,M,3.0,M,4.3,M*28
$HCHDG,326.4,0.0,E,,*2A
$YXXDR,A,5.4,D,PTCH,A,7.5,D,ROLL*5E
$PTAK,FFD1,7.5*57
$HCHDG,325.3,0.0,E,,*2E
$GPRMC,163305.0,A,4807.33985,N,12244.58183,W,003.06,359.1,050513,016.8,E,A*2A
$PGRME,3.1,M,3.0,M,4.3,M*28
$HCHDG,324.2,0.0,E,,*2E
$HCHDG,323.3,0.0,E,,*28
$GPRMC,163305.2,A,4807.34000,N,12244.58180,W,002.83,355.3,050513,016.8,E,A*2A
$PGRME,3.1,M,3.0,M,4.3,M*28
$HCHDG,322.7,0.0,E,,*2D
$IIRMC,163300,A,4807.339,N,12244.581,W,03.3,005,050513,16,E,A*16
$HCHDG,321.2,0.0,E,,*2B
$IIVHW,,,,,00.0,N,,*19
$GPRMC,163305.4,A,4807.34016,N,12244.58186,W,002.85,350.2,050513,016.8,E,A*2F
$PGRME,3.1,M,3.0,M,4.3,M*28
$IIVLW,06236,N,000.0,N*52
$YXXDR,A,5.9,D,PTCH,A,7.5,D,ROLL*53
$IIDPT,029.7,-1.0,*4C
$HCHDG,320.2,0.0,E,,*2A
$HCHDG,319.0,0.0,E,,*22
$IIGLL,4807.339,N,12244.581,W,163300,A,A*4A
$GPRMC,163305.6,A,4807.34030,N,12244.58186,W,002.84,351.1,050513,016.8,E,A*2A
$IIMTW,+08.5,C*35
$PGRME,3.1,M,3.0,M,4.3,M*28
$HCHDG,317.9,0.0,E,,*25
$IIRMB,A,0.25,L,,Ptm ,,,,,000.4,236,,V,A*2A
$HCHDG,316.3,0.0,E,,*2E
$GPRMC,163305.8,A,4807.34045,N,12244.58195,W,002.62,343.4,050513,016.8,E,A*2A
$GPRMB,A,0.25,L,,Ptm,4807.0330,N,12244.9520,W,0.4,235,-0.06,V*6B
$PGRME,3.1,M,3.0,M,4.3,M*28
$HCHDG,315.1,0.0,E,,*2F
$YXXDR,A,5.8,D,PTCH,A,6.3,D,ROLL*55
$PTAK,FFD1,6.3*50
$HCHDG,313.9,0.0,E,,*21
$GPRMC,163306.0,A,4807.34065,N,12244.58205,W,002.69,339.7,050513,016.8,E,A*2C
$PGRME,3.1,M,3.0,M,4.3,M*28
$HCHDG,312.5,0.0,E,,*2C
$HCHDG,311.1,0.0,E,,*2B
$GPRMC,163306.2,A,4807.34075,N,12244.58205,W,002.77,339.4,050513,016.8,E,A*23
$PGRME,3.1,M,3.0,M,4.3,M*28
$HCHDG,309.5,0.0,E,,*26
$IIRMC,163300,A,4807.340,N,12244.581,W,02.8,351,050513,16,E,A*10
$HCHDG,307.9,0.0,E,,*24
$IIVHW,,,,,00.0,N,,*19
$GPRMC,163306.4,A,4807.34089,N,12244.58217,W,002.38,331.3,050513,016.8,E,A*21
$PGRME,3.1,M,3.0,M,4.3,M*28
$IIVLW,06236,N,000.0,N*52
$YXXDR,A,6.4,D,PTCH,A,5.0,D,ROLL*5A
$IIDPT,029.5,-1.0,*4E
$HCHDG,306.2,0.0,E,,*2E
$HCHDG,304.2,0.0,E,,*2C
$IIGLL,4807.340,N,12244.581,W,163300,A,A*44
$GPRMC,163306.6,A,4807.34088,N,12244.58229,W,002.14,327.3,050513,016.8,E,A*26
$IIMTW,+08.5,C*35
$PGRME,3.1,M,3.0,M,4.3,M*28
$HCHDG,302.7,0.0,E,,*2F
$IIRMB,A,0.25,L,,Ptm ,,,,,000.4,235,,V,A*29
$HCHDG,301.6,0.0,E,,*2D
$GPRMC,163306.8,A,4807.34093,N,12244.58242,W,002.12,323.1,050513,016.8,E,A*2F
$GPRMB,A,0.25,L,,Ptm,4807.0330,N,12244.9520,W,0.4,235,0.69,V*4F
$PGRME,3.1,M,3.0,M,4.3,M*28
$HCHDG,299.9,0.0,E,,*22
$YXXDR,A,6.7,D,PTCH,A,3.9,D,ROLL*56
$PTAK,FFD1,3.9*5F
$HCHDG,297.8,0.0,E,,*2D
$GPRMC,163307.0,A,4807.34102,N,12244.58260,W,002.77,317.5,050513,016.8,E,A*2F
$PGRME,3.1,M,3.0,M,4.3,M*28
$HCHDG,296.2,0.0,E,,*26
$HCHDG,294.4,0.0,E,,*22
$GPRMC,163307.2,A,4807.34121,N,12244.58270,W,002.36,315.3,050513,016.8,E,A*2C
$PGRME,3.1,M,3.0,M,4.3,M*28
$HCHDG,292.6,0.0,E,,*26
$IIRMC,163300,A,4807.340,N,12244.582,W,02.1,327,050513,16,E,A*1B
$HCHDG,290.6,0.0,E,,*24
$IIVHW,,,,,00.0,N,,*19
$GPRMC,163307.4,A,4807.34135,N,12244.58284,W,002.36,311.6,050513,016.8,E,A*25
$PGRME,3.1,M,3.0,M,4.3,M*28
$IIVLW,06236,N,000.0,N*52
$YXXDR,A,6.6,D,PTCH,A,3.9,D,ROLL*57
$IIDPT,029.5,-1.0,*4E
$HCHDG,288.6,0.0,E,,*2D
$HCHDG,286.5,0.0,E,,*20
$IIGLL,4807.340,N,12244.582,W,163300,A,A*47
$GPRMC,163307.6,A,4807.34146,N,12244.58291,W,002.17,306.1,050513,016.8,E,A*25
$IIMTW,+08.5,C*35
$PGRME,3.1,M,3.0,M,4.3,M*28
$HCHDG,285.3,0.0,E,,*25
$IIRMB,A,0.25,L,,Ptm ,,,,,000.4,235,,V,A*29
$HCHDG,283.0,0.0,E,,*20
$PTAK,FFP1,HEEL,@*07
$GPRMC,163307.8,A,4807.34157,N,12244.58292,W,002.16,301.7,050513,016.8,E,A*28
$PGRME,3.0,M,3.0,M,4.3,M*29
$HCHDG,280.9,0.0,E,,*2A
$YXXDR,A,6.7,D,PTCH,A,3.0,D,ROLL*5F
$HCHDG,278.8,0.0,E,,*2C
$GPRMC,163308.0,A,4807.34164,N,12244.58296,W,002.08,298.5,050513,016.8,E,A*27
$GPRMB,A,0.25,L,,Ptm,4807.0330,N,12244.9520,W,0.4,235,1.43,V*46
$PGRME,3.0,M,3.0,M,4.3,M*29
$HCHDG,277.3,0.0,E,,*28
$HCHDG,275.1,0.0,E,,*28
$GPRMC,163308.2,A,4807.34183,N,12244.58307,W,002.39,284.3,050513,016.8,E,A*2C
$PGRME,3.0,M,3.0,M,4.3,M*29
$HCHDG,273.4,0.0,E,,*2B
