$PGRME,2.4,M,2.4,M,3.4,M*29
$HCHDG,57.4,0.0,E,,*1F
$IIMWV,251,T,02.4,N,A*15
$IIRMB,A,0.18,L,,N   ,,,,,000.4,330,,V,A*24
$HCHDG,57.4,0.0,E,,*1F
$GPRMC,020000.4,A,4740.75899,N,12224.33975,W,000.01,074.7,200513,016.6,E,D*24
$PGRME,2.4,M,2.4,M,3.4,M*29
$HCHDG,57.4,0.0,E,,*1F
$YXXDR,A,4.4,D,PTCH,A,4.3,D,ROLL*5A
$HCHDG,57.4,0.0,E,,*1F
$GPRMC,020000.6,A,4740.75899,N,12224.33975,W,000.00,074.7,200513,016.6,E,D*27
$GPRMB,A,0.18,L,,N,4741.0622,N,12224.6030,W,0.4,330,-0.00,V*66
$PGRME,2.4,M,2.4,M,3.4,M*29
$HCHDG,57.4,0.0,E,,*1F
$HCHDG,57.4,0.0,E,,*1F
$GPRMC,020000.8,A,4740.75899,N,12224.33976,W,000.00,074.7,200513,016.6,E,D*2A
$PGRME,2.4,M,2.4,M,3.4,M*29
$HCHDG,57.4,0.0,E,,*1F
$HCHDG,57.4,0.0,E,,*1F
$IIRMC,015900,A,4740.758,N,12224.339,W,00.0,074,190513,16,E,A*1B
$GPRMC,020001.0,A,4740.75899,N,12224.33976,W,000.00,074.7,200513,016.6,E,D*23
$PTAK,FFP1,HEEL,@*07
$PGRME,2.4,M,2.4,M,3.4,M*29
$YXXDR,A,4.4,D,PTCH,A,4.3,D,ROLL*5A
$PTAK,FFD1,4.3*52
$IIVHW,,,,,00.0,N,,*19
$HCHDG,57.4,0.0,E,,*1F
$IIVLW,06312,N,034.6,N*54
$IIVWR,107,L,02.3,N,,,,*78
$HCHDG,57.4,0.0,E,,*1F
$GPRMC,020001.2,A,4740.75899,N,12224.33976,W,000.00,074.7,200513,016.6,E,D*21
$PGRME,2.4,M,2.4,M,3.4,M*29
$IIGLL,4740.758,N,12224.339,W,015900,A,A*4C
$HCHDG,57.4,0.0,E,,*1F
$IIMTW,+12.5,C*3E
$IIMWV,253,R,02.3,N,A*16
$HCHDG,57.4,0.0,E,,*1F
$IIMWV,253,T,02.3,N,A*10
$GPRMC,020001.4,A,4740.75899,N,12224.33976,W,000.00,074.7,200513,016.6,E,D*27
$PGRME,2.4,M,2.4,M,3.4,M*29
$HCHDG,57.4,0.0,E,,*1F
$YXXDR,A,4.4,D,PTCH,A,4.3,D,ROLL*5A
$HCHDG,57.4,0.0,E,,*1F
$GPRMC,020001.6,A,4740.75899,N,12224.33976,W,000.00,074.7,200513,016.6,E,D*25
$GPRMB,A,0.18,L,,N,4741.0622,N,12224.6030,W,0.4,330,-0.00,V*66
$PGRME,2.4,M,2.4,M,3.4,M*29
$HCHDG,57.4,0.0,E,,*1F
$HCHDG,57.4,0.0,E,,*1F
$GPRMC,020001.8,A,4740.75899,N,12224.33977,W,000.01,074.7,200513,016.6,E,D*2B
$PGRME,2.4,M,2.4,M,3.4,M*29
$HCHDG,57.4,0.0,E,,*1F
$IIRMB,A,0.18,L,,N   ,,,,,000.4,330,,V,A*24
$HCHDG,57.4,0.0,E,,*1F
$GPRMC,020002.0,A,4740.75899,N,12224.33977,W,000.00,074.7,200513,016.6,E,D*21
$PGRME,2.4,M,2.4,M,3.4,M*29
$YXXDR,A,4.4,D,PTCH,A,4.3,D,ROLL*5A
$IIRMC,020000,A,4740.758,N,12224.339,W,00.0,074,190513,16,E,A*14
$HCHDG,57.5,0.0,E,,*1E
$IIVHW,,,,,00.0,N,,*19
$HCHDG,57.5,0.0,E,,*1E
$IIVLW,06312,N,034.6,N*54
$GPRMC,020002.2,A,4740.75899,N,12224.33977,W,000.00,074.7,200513,016.6,E,D*23
$PGRME,2.4,M,2.4,M,3.4,M*29
$IIVWR,105,L,02.2,N,,,,*7B
$HCHDG,57.5,0.0,E,,*1E
$IIGLL,4740.758,N,12224.339,W,020000,A,A*43
$HCHDG,57.5,0.0,E,,*1E
$IIMTW,+12.5,C*3E
$GPRMC,020002.4,A,4740.75899,N,12224.33977,W,000.00,074.7,200513,016.6,E,D*25
$PGRME,2.4,M,2.4,M,3.4,M*29
$IIMWV,255,R,02.2,N,A*11
$HCHDG,57.5,0.0,E,,*1E
$YXXDR,A,4.4,D,PTCH,A,4.3,D,ROLL*5A
$PTAK,FFD1,4.3*52
$HCHDG,57.5,0.0,E,,*1E
$GPRMC,020002.6,A,4740.75899,N,12224.33977,W,000.00,074.7,200513,016.6,E,D*27
$PGRME,2.4,M,2.4,M,3.4,M*29
$HCHDG,57.5,0.0,E,,*1E
$HCHDG,57.5,0.0,E,,*1E
$GPRMC,020002.8,A,4740.75899,N,12224.33977,W,000.00,074.7,200513,016.6,E,D*29
$GPRMB,A,0.18,L,,N,4741.0622,N,12224.6030,W,0.4,330,-0.00,V*66
$PGRME,2.4,M,2.4,M,3.4,M*29
$HCHDG,57.5,0.0,E,,*1E
$IIMWV,255,T,02.2,N,A*17
$HCHDG,57.5,0.0,E,,*1E
$IIRMB,A,0.18,L,,N   ,,,,,000.4,330,,V,A*24
$GPRMC,020003.0,A,4740.75899,N,12224.33977,W,000.01,074.7,200513,016.6,E,D*21
$PGRME,2.4,M,2.4,M,3.4,M*29
$YXXDR,A,4.4,D,PTCH,A,4.3,D,ROLL*5A
$HCHDG,57.5,0.0,E,,*1E
$IIRMC,020000,A,4740.758,N,12224.339,W,00.0,074,190513,16,E,A*14
$HCHDG,57.5,0.0,E,,*1E
$IIVHW,,,,,00.0,N,,*19
$GPRMC,020003.2,A,4740.75899,N,12224.33977,W,000.00,074.7,200513,016.6,E,D*22
$PGRME,2.4,M,2.4,M,3.4,M*29
$IIVLW,06312,N,034.6,N*54
$HCHDG,57.5,0.0,E,,*1E
$IIVWR,107,L,02.2,N,,,,*79
$HCHDG,57.5,0.0,E,,*1E
$IIGLL,4740.758,N,12224.339,W,020000,A,A*43
$GPRMC,020003.4,A,4740.75899,N,12224.33977,W,000.00,074.7,200513,016.6,E,D*24
$PGRME,2.4,M,2.4,M,3.4,M*29
$IIMTW,+12.5,C*3E
$HCHDG,57.5,0.0,E,,*1E
$YXXDR,A,4.4,D,PTCH,A,4.3,D,ROLL*5A
$PTAK,FFD1,4.3*52
$HCHDG,57.5,0.0,E,,*1E
$GPRMC,020003.6,A,4740.75899,N,12224.33978,W,000.00,074.7,200513,016.6,E,D*29
$PGRME,2.4,M,2.4,M,3.4,M*29
$HCHDG,57.5,0.0,E,,*1E
$HCHDG,57.5,0.0,E,,*1E
$GPRMC,020003.8,A,4740.75899,N,12224.33978,W,000.00,074.7,200513,016.6,E,D*27
$PGRME,2.4,M,2.4,M,3.4,M*29
$HCHDG,57.5,0.0,E,,*1E
$IIMWV,245,R,02.2,N,A*10
$HCHDG,57.5,0.0,E,,*1E
$IIMWV,253,T,02.2,N,A*11
$GPRMC,020004.0,A,4740.75899,N,12224.33978,W,000.00,074.7,200513,016.6,E,D*28
$GPRMB,A,0.18,L,,N,4741.0622,N,12224.6030,W,0.4,330,-0.00,V*66
$PGRME,2.4,M,2.4,M,3.4,M*29
$YXXDR,A,4.4,D,PTCH,A,4.3,D,ROLL*5A
$IIRMB,A,0.18,L,,N   ,,,,,000.4,330,,V,A*24
$HCHDG,57.5,0.0,E,,*1E
$HCHDG,57.5,0.0,E,,*1E
$IIRMC,020000,A,4740.758,N,12224.339,W,00.0,074,190513,16,E,A*14
$GPRMC,020004.2,A,4740.75899,N,12224.33978,W,000.00,074.7,200513,016.6,E,D*2A
$PGRME,2.4,M,2.4,M,3.4,M*29
$IIVHW,,,,,00.0,N,,*19
$HCHDG,57.5,0.0,E,,*1E
$IIVLW,06312,N,034.6,N*54
$IIVWR,115,L,02.2,N,,,,*7A
$HCHDG,57.5,0.0,E,,*1E
$GPRMC,020004.4,A,4740.75899,N,12224.33978,W,000.00,074.7,200513,016.6,E,D*2C
$PGRME,2.4,M,2.4,M,3.4,M*29
$IIGLL,4740.758,N,12224.339,W,020000,A,A*43
$HCHDG,57.5,0.0,E,,*1E
$YXXDR,A,4.4,D,PTCH,A,4.3,D,ROLL*5A
$HCHDG,57.5,0.0,E,,*1E
$GPRMC,020004.6,A,4740.75899,N,12224.33978,W,000.01,074.7,200513,016.6,E,D*2F
$PGRME,2.4,M,2.4,M,3.4,M*29
$HCHDG,57.5,0.0,E,,*1E
$HCHDG,57.5,0.0,E,,*1E
$GPRMC,020004.8,A,4740.75899,N,12224.33978,W,000.00,074.7,200513,016.6,E,D*20
$PGRME,2.4,M,2.4,M,3.4,M*29
$HCHDG,57.5,0.0,E,,*1E
$IIMTW,+12.5,C*3E
$IIMWV,240,R,02.2,N,A*15
$HCHDG,57.5,0.0,E,,*1E
$IIMWV,245,T,02.2,N,A*16
$GPRMC,020005.0,A,4740.75899,N,12224.33978,W,000.01,074.7,200513,016.6,E,D*28
$GPRMB,A,0.18,L,,N,4741.0622,N,12224.6030,W,0.4,330,-0.00,V*66
$PTAK,FFP1,HEEL,@*07
$PGRME,2.4,M,2.4,M,3.4,M*29
$YXXDR,A,4.4,D,PTCH,A,4.3,D,ROLL*5A
$PTAK,FFD1,4.3*52
$HCHDG,57.5,0.0,E,,*1E
$IIRMB,A,0.18,L,,N   ,,,,,000.4,330,,V,A*24
$HCHDG,57.5,0.0,E,,*1E
$GPRMC,020005.2,A,4740.75899,N,12224.33978,W,000.01,074.7,200513,016.6,E,D*2A
$PGRME,2.4,M,2.4,M,3.4,M*29
$IIRMC,020000,A,4740.758,N,12224.339,W,00.0,074,190513,16,E,A*14
$HCHDG,57.5,0.0,E,,*1E
$IIVHW,,,,,00.0,N,,*19
$IIVLW,06312,N,034.6,N*54
$HCHDG,57.5,0.0,E,,*1E
$IIVWR,120,L,02.2,N,,,,*7C
$GPRMC,020005.4,A,4740.75899,N,12224.33979,W,000.00,074.7,200513,016.6,E,D*2C
$PGRME,2.4,M,2.4,M,3.4,M*29
$HCHDG,57.5,0.0,E,,*1E
$YXXDR,A,4.4,D,PTCH,A,4.3,D,ROLL*5A
$HCHDG,57.5,0.0,E,,*1E
$GPRMC,020005.6,A,4740.75899,N,12224.33979,W,000.00,074.7,200513,016.6,E,D*2E
$PGRME,2.4,M,2.4,M,3.4,M*29
$HCHDG,57.5,0.0,E,,*1E
$HCHDG,57.5,0.0,E,,*1E
$GPRMC,020005.8,A,4740.75899,N,12224.33979,W,000.01,074.7,200513,016.6,E,D*21
$PGRME,2.4,M,2.4,M,3.4,M*29
$HCHDG,57.5,0.0,E,,*1E
$IIGLL,4740.758,N,12224.339,W,020000,A,A*43
$HCHDG,57.5,0.0,E,,*1E
$IIHDG,207,,,16,E*10
$GPRMC,020006.0,A,4740.75899,N,12224.33979,W,000.00,074.7,200513,016.6,E,D*2B
$PGRME,2.4,M,2.4,M,3.4,M*29
$IIMTW,+12.5,C*3E
$YXXDR,A,4.4,D,PTCH,A,4.3,D,ROLL*5A
$IIMWV,235,R,02.2,N,A*17
$HCHDG,57.5,0.0,E,,*1E
$IIMWV,240,T,02.2,N,A*13
$HCHDG,57.5,0.0,E,,*1E
$GPRMC,020006.2,A,4740.75899,N,12224.33979,W,000.00,074.7,200513,016.6,E,D*29
$GPRMB,A,0.18,L,,N,4741.0622,N,12224.6030,W,0.4,330,-0.00,V*66
$PGRME,2.4,M,2.4,M,3.4,M*29
$IIRMB,A,0.18,L,,N   ,,,,,000.4,330,,V,A*24
$HCHDG,57.5,0.0,E,,*1E
$HCHDG,57.5,0.0,E,,*1E
$IIRMC,020000,A,4740.758,N,12224.339,W,00.0,074,190513,16,E,A*14
$GPRMC,020006.4,A,4740.75899,N,12224.33979,W,000.00,074.7,200513,016.6,E,D*2F
$PGRME,2.4,M,2.4,M,3.4,M*29
$IIVHW,,,207,M,00.0,N,,*61
$HCHDG,57.5,0.0,E,,*1E
$YXXDR,A,4.4,D,PTCH,A,4.3,D,ROLL*5A
$PTAK,FFD1,4.3*52
$HCHDG,57.5,0.0,E,,*1E
$GPRMC,020006.6,A,4740.75899,N,12224.33979,W,000.00,074.7,200513,016.6,E,D*2D
$PGRME,2.4,M,2.4,M,3.4,M*29
$HCHDG,57.5,0.0,E,,*1E
$HCHDG,57.4,0.0,E,,*1F
$GPRMC,020006.8,A,4740.75900,N,12224.33979,W,000.00,074.7,200513,016.6,E,D*22
$PGRME,2.4,M,2.4,M,3.4,M*29
$HCHDG,57.5,0.0,E,,*1E
$IIVLW,06312,N,034.6,N*54
$HCHDG,57.4,0.0,E,,*1F
$IIVWR,123,L,02.2,N,,,,*7F
$GPRMC,020007.0,A,4740.75900,N,12224.33979,W,000.00,074.7,200513,016.6,E,D*2B
$PGRME,2.4,M,2.4,M,3.4,M*29
$YXXDR,A,4.4,D,PTCH,A,4.3,D,ROLL*5A
$IIGLL,4740.758,N,12224.339,W,020000,A,A*43
$HCHDG,57.4,0.0,E,,*1F
$IIHDG,207,,,16,E*10
$IIMTW,+12.5,C*3E
$HCHDG,57.4,0.0,E,,*1F
$IIMWV,237,R,02.2,N,A*15
$GPRMC,020007.2,A,4740.75900,N,12224.33979,W,000.00,074.7,200513,016.6,E,D*29
$GPRMB,A,0.18,L,,N,4741.0622,N,12224.6030,W,0.4,330,-0.00,V*66
$PGRME,2.4,M,2.4,M,3.4,M*29
$IIMWV,235,T,02.2,N,A*11
$HCHDG,57.4,0.0,E,,*1F
$IIRMB,A,0.18,L,,N   ,,,,,000.4,330,,V,A*24
$HCHDG,57.4,0.0,E,,*1F
$GPRMC,020007.4,A,4740.75900,N,12224.33979,W,000.00,074.7,200513,016.6,E,D*2F
$PGRME,2.4,M,2.4,M,3.4,M*29
$HCHDG,57.4,0.0,E,,*1F
$YXXDR,A,4.4,D,PTCH,A,4.3,D,ROLL*5A
$HCHDG,57.4,0.0,E,,*1F
$GPRMC,020007.6,A,4740.75900,N,12224.33980,W,000.00,074.7,200513,016.6,E,D*2B
$PGRME,2.4,M,2.4,M,3.4,M*29
$HCHDG,57.4,0.0,E,,*1F
$HCHDG,57.4,0.0,E,,*1F
$GPRMC,020007.8,A,4740.75900,N,12224.33980,W,000.00,074.7,200513,016.6,E,D*25
$PGRME,2.4,M,2.4,M,3.4,M*29
$HCHDG,57.4,0.0,E,,*1F
$HCHDG,57.4,0.0,E,,*1F
$IIRMC,020000,A,4740.759,N,12224.339,W,00.0,074,190513,16,E,A*15
$GPRMC,020008.0,A,4740.75900,N,12224.33980,W,000.00,074.7,200513,016.6,E,D*22
$PGRME,2.4,M,2.4,M,3.4,M*29
$YXXDR,A,4.4,D,PTCH,A,4.3,D,ROLL*5A
$PTAK,FFD1,4.3*52
$IIVHW,,,207,M,00.0,N,,*61
$HCHDG,57.4,0.0,E,,*1F
$IIVLW,06312,N,034.6,N*54
$IIVWR,118,L,02.3,N,,,,*76
$HCHDG,57.4,0.0,E,,*1F
$GPRMC,020008.2,A,4740.75900,N,12224.33980,W,000.00,074.7,200513,016.6,E,D*20
$PGRME,2.4,M,2.4,M,3.4,M*29
$HCHDG,57.4,0.0,E,,*1F
$IIGLL,4740.759,N,12224.339,W,020000,A,A*42
$IIHDG,207,,,16,E*10
$IIMTW,+12.5,C*3E
$HCHDG,57.4,0.0,E,,*1F
$IIMWV,242,R,02.3,N,A*16
$GPRMC,020008.4,A,4740.75900,N,12224.33980,W,000.00,074.7,200513,016.6,E,D*26
$GPRMB,A,0.18,L,,N,4741.0622,N,12224.6030,W,0.4,330,-0.00,V*66
$PGRME,2.4,M,2.4,M,3.4,M*29
$IIMWV,237,T,02.2,N,A*13
$HCHDG,57.4,0.0,E,,*1F
$YXXDR,A,4.4,D,PTCH,A,4.3,D,ROLL*5A
$HCHDG,57.4,0.0,E,,*1F
$GPRMC,020008.6,A,4740.75900,N,12224.33980,W,000.00,074.7,200513,016.6,E,D*24
$PGRME,2.4,M,2.4,M,3.4,M*29
$HCHDG,57.4,0.0,E,,*1F
$HCHDG,57.4,0.0,E,,*1F
$GPRMC,020008.8,A,4740.75900,N,12224.33980,W,000.01,074.7,200513,016.6,E,D*2B
$PGRME,2.4,M,2.4,M,3.4,M*29
$HCHDG,57.4,0.0,E,,*1F
$IIRMB,A,0.18,L,,N   ,,,,,000.4,330,,V,A*24
$HCHDG,57.4,0.0,E,,*1F
$GPRMC,020009.0,A,4740.75900,N,12224.33980,W,000.00,074.7,200513,016.6,E,D*23
$PGRME,2.4,M,2.4,M,3.4,M*29
$YXXDR,A,4.4,D,PTCH,A,4.3,D,ROLL*5A
$PTAK,FFP1,HEEL,@*07
$HCHDG,57.4,0.0,E,,*1F
$IIRMC,020000,A,4740.759,N,12224.339,W,00.0,074,190513,16,E,A*15
$IIVHW,,,207,M,00.0,N,,*61
$HCHDG,57.4,0.0,E,,*1F
$IIVLW,06312,N,034.6,N*54
$GPRMC,020009.2,A,4740.75900,N,12224.33980,W,000.00,074.7,200513,016.6,E,D*21
$PGRME,2.4,M,2.4,M,3.4,M*29
$IIVWR,115,L,02.3,N,,,,*7B
$HCHDG,57.4,0.0,E,,*1F
$IIGLL,4740.759,N,12224.339,W,020000,A,A*42
$HCHDG,57.4,0.0,E,,*1F
$IIHDG,207,,,16,E*10
$GPRMC,020009.4,A,4740.75901,N,12224.33980,W,000.00,074.7,200513,016.6,E,D*26
$PGRME,2.4,M,2.4,M,3.4,M*29
$IIMTW,+12.5,C*3E
$HCHDG,57.4,0.0,E,,*1F
$YXXDR,A,4.4,D,PTCH,A,4.3,D,ROLL*5A
$PTAK,FFD1,4.3*52
$HCHDG,57.4,0.0,E,,*1F
$GPRMC,020009.6,A,4740.75901,N,12224.33980,W,000.00,074.7,200513,016.6,E,D*24
$GPRMB,A,0.18,L,,N,4741.0622,N,12224.6030,W,0.4,330,-0.00,V*66
$PGRME,2.4,M,2.4,M,3.4,M*29
$HCHDG,57.4,0.0,E,,*1F
$HCHDG,57.4,0.0,E,,*1F
$GPRMC,020009.8,A,4740.75901,N,12224.33980,W,000.00,074.7,200513,016.6,E,D*2A
$PGRME,2.4,M,2.4,M,3.4,M*29
$HCHDG,57.4,0.0,E,,*1F
$IIMWV,249,R,02.3,N,A*1D
$HCHDG,57.4,0.0,E,,*1F
$IIMWV,245,T,02.3,N,A*17
$GPRMC,020010.0,A,4740.75901,N,12224.33980,W,000.01,074.7,200513,016.6,E,D*2B
$PGRME,2.4,M,2.4,M,3.4,M*29
$YXXDR,A,4.4,D,PTCH,A,4.3,D,ROLL*5A
$IIRMB,A,0.18,L,,N   ,,,,,000.4,330,,V,A*24
$HCHDG,57.4,0.0,E,,*1F
$HCHDG,57.4,0.0,E,,*1F
$IIRMC,020000,A,4740.759,N,12224.339,W,00.0,074,190513,16,E,A*15
$GPRMC,020010.2,A,4740.75901,N,12224.33980,W,000.01,074.7,200513,016.6,E,D*29
$PGRME,2.4,M,2.4,M,3.4,M*29
$IIVHW,,,207,M,00.0,N,,*61
$HCHDG,57.4,0.0,E,,*1F
$IIVLW,06312,N,034.6,N*54
$HCHDG,57.4,0.0,E,,*1F
$IIVWR,111,L,02.3,N,,,,*7F
$GPRMC,020010.4,A,4740.75901,N,12224.33980,W,000.00,074.7,200513,016.6,E,D*2E
$PGRME,2.4,M,2.4,M,3.4,M*29
$HCHDG,57.4,0.0,E,,*1F
$IIGLL,4740.759,N,12224.339,W,020000,A,A*42
$YXXDR,A,4.4,D,PTCH,A,4.3,D,ROLL*5A
$PTAK,FFD1,4.3*52
$HCHDG,57.4,0.0,E,,*1F
$GPRMC,020010.6,A,4740.75901,N,12224.33981,W,000.00,074.7,200513,016.6,E,D*2D
$GPRMB,A,0.18,L,,N,4741.0622,N,12224.6030,W,0.4,330,-0.00,V*66
$PGRME,2.4,M,2.4,M,3.4,M*29
$HCHDG,57.4,0.0,E,,*1F
$HCHDG,57.4,0.0,E,,*1F
$GPRMC,020010.8,A,4740.75901,N,12224.33981,W,000.00,074.7,200513,016.6,E,D*23
$PGRME,2.4,M,2.4,M,3.4,M*29
$HCHDG,57.4,0.0,E,,*1F
$IIHDG,207,,,16,E*10
$IIMTW,+12.5,C*3E
$HCHDG,57.4,0.0,E,,*1F
$IIMWV,247,R,02.3,N,A*13
$GPRMC,020011.0,A,4740.75902,N,12224.33981,W,000.00,074.7,200513,016.6,E,D*29
$PGRME,2.4,M,2.4,M,3.4,M*29
$YXXDR,A,4.4,D,PTCH,A,4.3,D,ROLL*5A
$IIMWV,249,T,02.3,N,A*1B
$HCHDG,57.4,0.0,E,,*1F
$IIRMB,A,0.18,L,,N   ,,,,,000.4,330,,V,A*24
$HCHDG,57.4,0.0,E,,*1F
$GPRMC,020011.2,A,4740.75902,N,12224.33981,W,000.01,074.7,200513,016.6,E,D*2A
$PGRME,2.4,M,2.4,M,3.4,M*29
$HCHDG,57.4,0.0,E,,*1F
$IIRMC,020000,A,4740.759,N,12224.339,W,00.0,074,190513,16,E,A*15
$IIVHW,,,207,M,00.0,N,,*61
$HCHDG,57.4,0.0,E,,*1F
$IIVLW,06312,N,034.6,N*54
$GPRMC,020011.4,A,4740.75902,N,12224.33981,W,000.00,074.7,200513,016.6,E,D*2D
$PGRME,2.4,M,2.4,M,3.4,M*29
$IIVWR,113,L,02.3,N,,,,*7D
$HCHDG,57.4,0.0,E,,*1F
$YXXDR,A,4.4,D,PTCH,A,4.3,D,ROLL*5A
$HCHDG,57.4,0.0,E,,*1F
$GPRMC,020011.6,A,4740.75902,N,12224.33981,W,000.01,074.7,200513,016.6,E,D*2E
$GPRMB,A,0.18,L,,N,4741.0622,N,12224.6030,W,0.4,330,-0.00,V*66
$PGRME,2.4,M,2.4,M,3.4,M*29
$HCHDG,57.4,0.0,E,,*1F
$HCHDG,57.4,0.0,E,,*1F
$GPRMC,020011.8,A,4740.75902,N,12224.33981,W,000.00,074.7,200513,016.6,E,D*21
$PGRME,2.4,M,2.4,M,3.4,M*29
$HCHDG,57.4,0.0,E,,*1F
$IIGLL,4740.759,N,12224.339,W,020000,A,A*42
$HCHDG,57.4,0.0,E,,*1F
$IIHDG,207,,,16,E*10
$GPRMC,020012.0,A,4740.75902,N,12224.33981,W,000.00,074.7,200513,016.6,E,D*2A
$PGRME,2.4,M,2.4,M,3.4,M*29
$IIMTW,+12.5,C*3E
$YXXDR,A,4.4,D,PTCH,A,4.3,D,ROLL*5A
$PTAK,FFD1,4.3*52
$HCHDG,57.4,0.0,E,,*1F
$IIMWV,249,R,02.4,N,A*1A
$IIMWV,247,T,02.3,N,A*15
$HCHDG,57.4,0.0,E,,*1F
$GPRMC,020012.2,A,4740.75902,N,12224.33982,W,000.00,074.7,200513,016.6,E,D*2B
$PGRME,2.4,M,2.4,M,3.4,M*29
$IIRMB,A,0.18,L,,N   ,,,,,000.4,330,,V,A*24
$HCHDG,57.4,0.0,E,,*1F
$HCHDG,57.4,0.0,E,,*1F
$IIRMC,020000,A,4740.759,N,12224.339,W,00.0,074,190513,16,E,A*15
$GPRMC,020012.4,A,4740.75902,N,12224.33982,W,000.00,074.7,200513,016.6,E,D*2D
$PGRME,2.4,M,2.4,M,3.4,M*29
$IIVHW,,,207,M,00.0,N,,*61
$HCHDG,57.4,0.0,E,,*1F
$YXXDR,A,4.4,D,PTCH,A,4.3,D,ROLL*5A
$HCHDG,57.4,0.0,E,,*1F
$GPRMC,020012.6,A,4740.75902,N,12224.33982,W,000.00,074.7,200513,016.6,E,D*2F
$GPRMB,A,0.18,L,,N,4741.0622,N,12224.6030,W,0.4,330,-0.00,V*66
$PGRME,2.4,M,2.4,M,3.4,M*29
$HCHDG,57.4,0.0,E,,*1F
$HCHDG,57.4,0.0,E,,*1F
$GPRMC,020012.8,A,4740.75902,N,12224.33982,W,000.00,074.7,200513,016.6,E,D*21
$PGRME,2.4,M,2.4,M,3.4,M*29
$HCHDG,57.4,0.0,E,,*1F
$IIVLW,06312,N,034.6,N*54
$HCHDG,57.4,0.0,E,,*1F
$IIVWR,111,L,02.5,N,,,,*79
$GPRMC,020013.0,A,4740.75902,N,12224.33982,W,000.01,074.7,200513,016.6,E,D*29
$PGRME,2.4,M,2.4,M,3.4,M*29
$YXXDR,A,4.4,D,PTCH,A,4.3,D,ROLL*5A
$PTAK,FFP1,HEEL,@*07
$IIGLL,4740.759,N,12224.339,W,020000,A,A*42
$HCHDG,57.4,0.0,E,,*1F
$IIMTW,+12.5,C*3E
$IIMWV,249,R,02.5,N,A*1B
$HCHDG,57.4,0.0,E,,*1F
$IIMWV,249,T,02.4,N,A*1C
$GPRMC,020013.2,A,4740.75902,N,12224.33982,W,000.00,074.7,200513,016.6,E,D*2A
$PGRME,2.4,M,2.4,M,3.4,M*29
$HCHDG,57.4,0.0,E,,*1F
$IIRMB,A,0.18,L,,N   ,,,,,000.4,330,,V,A*24
$HCHDG,57.4,0.0,E,,*1F
$GPRMC,020013.4,A,4740.75902,N,12224.33982,W,000.00,074.7,200513,016.6,E,D*2C
$PGRME,2.4,M,2.4,M,3.4,M*29
$IIRMC,020000,A,4740.759,N,12224.339,W,00.0,074,190513,16,E,A*15
$HCHDG,57.4,0.0,E,,*1F
$YXXDR,A,4.4,D,PTCH,A,4.3,D,ROLL*5A
$PTAK,FFD1,4.3*52
$HCHDG,57.4,0.0,E,,*1F
$GPRMC,020013.6,A,4740.75903,N,12224.33982,W,000.00,074.7,200513,016.6,E,D*2F
$GPRMB,A,0.18,L,,N,4741.0622,N,12224.6030,W,0.4,330,-0.00,V*66
$PGRME,2.4,M,2.4,M,3.4,M*29
$HCHDG,57.4,0.0,E,,*1F
$HCHDG,57.4,0.0,E,,*1F
$GPRMC,020013.8,A,4740.75903,N,12224.33982,W,000.00,074.7,200513,016.6,E,D*21
$PGRME,2.4,M,2.4,M,3.4,M*29
$HCHDG,57.4,0.0,E,,*1F
$IIVHW,,,,,00.0,N,,*19
$IIVLW,06312,N,034.6,N*54
$HCHDG,57.4,0.0,E,,*1F
$GPRMC,020014.0,A,4740.75903,N,12224.33982,W,000.00,074.7,200513,016.6,E,D*2E
$IIVWR,113,L,02.6,N,,,,*78
$PGRME,2.4,M,2.4,M,3.4,M*29
$YXXDR,A,4.4,D,PTCH,A,4.3,D,ROLL*5A
$HCHDG,57.4,0.0,E,,*1F
$IIGLL,4740.759,N,12224.339,W,020000,A,A*42
$IIMTW,+12.5,C*3E
$HCHDG,57.4,0.0,E,,*1F
$IIMWV,247,R,02.6,N,A*16
$GPRMC,020014.2,A,4740.75903,N,12224.33983,W,000.00,074.7,200513,016.6,E,D*2D
$PGRME,2.4,M,2.4,M,3.4,M*29
$IIMWV,249,T,02.5,N,A*1D
$HCHDG,57.4,0.0,E,,*1F
$IIRMB,A,0.18,L,,N   ,,,,,000.4,330,,V,A*24
$HCHDG,57.4,0.0,E,,*1F
$GPRMC,020014.4,A,4740.75903,N,12224.33983,W,000.00,074.7,200513,016.6,E,D*2B
$PGRME,2.4,M,2.4,M,3.4,M*29
$HCHDG,57.4,0.0,E,,*1F
$YXXDR,A,4.4,D,PTCH,A,4.3,D,ROLL*5A
$HCHDG,57.4,0.0,E,,*1F
$GPRMC,020014.6,A,4740.75903,N,12224.33983,W,000.01,074.7,200513,016.6,E,D*28
$GPRMB,A,0.18,L,,N,4741.0622,N,12224.6030,W,0.4,330,-0.00,V*66
$PGRME,2.4,M,2.4,M,3.4,M*29
$HCHDG,57.4,0.0,E,,*1F
$HCHDG,57.4,0.0,E,,*1F
$GPRMC,020014.8,A,4740.75903,N,12224.33983,W,000.00,074.7,200513,016.6,E,D*27
$PGRME,2.4,M,2.4,M,3.4,M*29
$HCHDG,57.4,0.0,E,,*1F
$HCHDG,57.4,0.0,E,,*1F
$IIRMC,020000,A,4740.759,N,12224.339,W,00.0,074,190513,16,E,A*15
$GPRMC,020015.0,A,4740.75903,N,12224.33983,W,000.00,074.7,200513,016.6,E,D*2E
$PGRME,2.4,M,2.4,M,3.4,M*29
$YXXDR,A,4.4,D,PTCH,A,4.3,D,ROLL*5A
$PTAK,FFD1,4.3*52
$IIVHW,,,,,00.0,N,,*19
$HCHDG,57.4,0.0,E,,*1F
$IIVLW,06312,N,034.6,N*54
$IIVWR,116,L,02.8,N,,,,*73
$HCHDG,57.4,0.0,E,,*1F
$GPRMC,020015.2,A,4740.75903,N,12224.33983,W,000.00,074.7,200513,016.6,E,D*2C
$PGRME,2.4,M,2.4,M,3.4,M*29
$IIGLL,4740.759,N,12224.339,W,020000,A,A*42
$HCHDG,57.4,0.0,E,,*1F
$IIMTW,+12.5,C*3E
$IIMWV,244,R,02.8,N,A*1B
$HCHDG,57.4,0.0,E,,*1F
$IIMWV,247,T,02.6,N,A*10
$GPRMC,020015.4,A,4740.75903,N,12224.33984,W,000.00,074.7,200513,016.6,E,D*2D
$PGRME,2.4,M,2.4,M,3.4,M*29
$HCHDG,57.4,0.0,E,,*1F
$YXXDR,A,4.4,D,PTCH,A,4.3,D,ROLL*5A
$HCHDG,57.4,0.0,E,,*1F
$GPRMC,020015.6,A,4740.75903,N,12224.33984,W,000.00,074.7,200513,016.6,E,D*2F
$PGRME,2.4,M,2.4,M,3.4,M*29
$HCHDG,57.4,0.0,E,,*1F
$HCHDG,57.4,0.0,E,,*1F
$GPRMC,020015.8,A,4740.75903,N,12224.33984,W,000.00,074.7,200513,016.6,E,D*21
$GPRMB,A,0.18,L,,N,4741.0622,N,12224.6030,W,0.4,330,-0.00,V*66
$PGRME,2.4,M,2.4,M,3.4,M*29
$HCHDG,57.4,0.0,E,,*1F
$IIRMB,A,0.18,L,,N   ,,,,,000.4,330,,V,A*24
$HCHDG,57.4,0.0,E,,*1F
$GPRMC,020016.0,A,4740.75904,N,12224.33984,W,000.00,074.7,200513,016.6,E,D*2D
$PGRME,2.4,M,2.4,M,3.4,M*29
$YXXDR,A,4.4,D,PTCH,A,4.3,D,ROLL*5A
$PTAK,FFD1,4.3*52
$HCHDG,57.4,0.0,E,,*1F
$IIRMC,020000,A,4740.759,N,12224.339,W,00.0,074,190513,16,E,A*15
$IIVHW,,,,,00.0,N,,*19
$HCHDG,57.4,0.0,E,,*1F
$IIVLW,06312,N,034.6,N*54
$GPRMC,020016.2,A,4740.75904,N,12224.33984,W,000.00,074.7,200513,016.6,E,D*2F
$PGRME,2.4,M,2.4,M,3.4,M*29
$IIVWR,113,L,03.2,N,,,,*7D
$HCHDG,57.3,0.0,E,,*18
$IIGLL,4740.759,N,12224.339,W,020000,A,A*42
$HCHDG,57.3,0.0,E,,*18
$IIMTW,+12.5,C*3E
$GPRMC,020016.4,A,4740.75904,N,12224.33984,W,000.00,074.7,200513,016.6,E,D*29
$PGRME,2.4,M,2.4,M,3.4,M*29
$IIMWV,247,R,03.2,N,A*13
$HCHDG,57.3,0.0,E,,*18
$YXXDR,A,4.4,D,PTCH,A,4.3,D,ROLL*5A
$HCHDG,57.3,0.0,E,,*18
$GPRMC,020016.6,A,4740.75904,N,12224.33984,W,000.01,074.7,200513,016.6,E,D*2A
$PGRME,2.4,M,2.4,M,3.4,M*29
$HCHDG,57.4,0.0,E,,*1F
$HCHDG,57.4,0.0,E,,*1F
$GPRMC,020016.8,A,4740.75904,N,12224.33984,W,000.00,074.7,200513,016.6,E,D*25
$PGRME,2.4,M,2.4,M,3.4,M*29
$HCHDG,57.3,0.0,E,,*18
$IIMWV,247,T,03.2,N,A*15
$HCHDG,57.3,0.0,E,,*18
$IIRMB,A,0.18,L,,N   ,,,,,000.4,330,,V,A*24
$GPRMC,020017.0,A,4740.75904,N,12224.33984,W,000.00,074.7,200513,016.6,E,D*2C
$GPRMB,A,0.18,L,,N,4741.0622,N,12224.6030,W,0.4,330,-0.00,V*66
$PGRME,2.4,M,2.4,M,3.4,M*29
$YXXDR,A,4.4,D,PTCH,A,4.3,D,ROLL*5A
$PTAK,FFD1,4.3*52
$PTAK,FFP1,HEEL,@*07
$HCHDG,57.3,0.0,E,,*18
$IIRMC,020000,A,4740.759,N,12224.339,W,00.0,074,190513,16,E,A*15
$HCHDG,57.3,0.0,E,,*18
$IIVHW,,,,,00.0,N,,*19
$GPRMC,020017.2,A,4740.75904,N,12224.33984,W,000.00,074.7,200513,016.6,E,D*2E
$PGRME,2.4,M,2.4,M,3.4,M*29
$IIVLW,06312,N,034.6,N*54
$HCHDG,57.3,0.0,E,,*18
$IIVWR,112,L,03.6,N,,,,*78
$HCHDG,57.3,0.0,E,,*18
$IIGLL,4740.759,N,12224.339,W,020000,A,A*42
$GPRMC,020017.4,A,4740.75904,N,12224.33984,W,000.00,074.7,200513,016.6,E,D*28
$PGRME,2.4,M,2.4,M,3.4,M*29
$IIMTW,+12.5,C*3E
$HCHDG,57.3,0.0,E,,*18
$YXXDR,A,4.4,D,PTCH,A,4.3,D,ROLL*5A
$HCHDG,57.3,0.0,E,,*18
$GPRMC,020017.6,A,4740.75904,N,12224.33985,W,000.00,074.7,200513,016.6,E,D*2B
$PGRME,2.4,M,2.4,M,3.4,M*29
$HCHDG,57.3,0.0,E,,*18
$HCHDG,57.3,0.0,E,,*18
$GPRMC,020017.8,A,4740.75904,N,12224.33985,W,000.00,074.7,200513,016.6,E,D*25
$PGRME,2.4,M,2.4,M,3.4,M*29
$HCHDG,57.3,0.0,E,,*18
$IIMWV,249,R,03.8,N,A*17
$HCHDG,57.3,0.0,E,,*18
$IIMWV,248,T,03.6,N,A*1E
$GPRMC,020018.0,A,4740.75904,N,12224.33985,W,000.00,074.7,200513,016.6,E,D*22
$PGRME,2.4,M,2.4,M,3.4,M*29
$YXXDR,A,4.4,D,PTCH,A,4.3,D,ROLL*5A
$IIRMB,A,0.18,L,,N   ,,,,,000.4,330,,V,A*24
$HCHDG,57.3,0.0,E,,*18
$HCHDG,57.4,0.0,E,,*1F
$IIRMC,020000,A,4740.759,N,12224.339,W,00.0,074,190513,16,E,A*15
$GPRMC,020018.2,A,4740.75905,N,12224.33985,W,000.01,074.7,200513,016.6,E,D*20
$GPRMB,A,0.18,L,,N,4741.0622,N,12224.6030,W,0.4,330,-0.00,V*66
$PGRME,2.4,M,2.4,M,3.4,M*29
$IIVHW,,,,,00.0,N,,*19
$HCHDG,57.4,0.0,E,,*1F
$IIVLW,06312,N,034.6,N*54
$IIVWR,111,L,03.8,N,,,,*75
$HCHDG,57.4,0.0,E,,*1F
$GPRMC,020018.4,A,4740.75905,N,12224.33985,W,000.01,074.7,200513,016.6,E,D*26
$PGRME,2.4,M,2.4,M,3.4,M*29
$IIGLL,4740.759,N,12224.339,W,020000,A,A*42
$HCHDG,57.4,0.0,E,,*1F
$YXXDR,A,4.4,D,PTCH,A,4.3,D,ROLL*5A
$PTAK,FFD1,4.3*52
$HCHDG,57.4,0.0,E,,*1F
$GPRMC,020018.6,A,4740.75905,N,12224.33985,W,000.00,074.7,200513,016.6,E,D*25
$PGRME,2.4,M,2.4,M,3.4,M*29
$HCHDG,57.4,0.0,E,,*1F
$HCHDG,57.4,0.0,E,,*1F
$GPRMC,020018.8,A,4740.75905,N,12224.33985,W,000.00,074.7,200513,016.6,E,D*2B
$PGRME,2.4,M,2.4,M,3.4,M*29
$HCHDG,57.4,0.0,E,,*1F
$IIMTW,+12.5,C*3E
$IIMWV,248,R,04.0,N,A*19
$HCHDG,57.4,0.0,E,,*1F
$IIMWV,249,T,03.8,N,A*11
$GPRMC,020019.0,A,4740.75905,N,12224.33985,W,000.00,074.7,200513,016.6,E,D*22
$PGRME,2.4,M,2.4,M,3.4,M*29
$YXXDR,A,4.4,D,PTCH,A,4.3,D,ROLL*5A
$HCHDG,57.4,0.0,E,,*1F
$IIRMB,A,0.18,L,,N   ,,,,,000.4,330,,V,A*24
$HCHDG,57.4,0.0,E,,*1F
$GPRMC,020019.2,A,4740.75905,N,12224.33985,W,000.00,074.7,200513,016.6,E,D*20
$PGRME,2.4,M,2.4,M,3.4,M*29
$IIRMC,020000,A,4740.759,N,12224.339,W,00.0,074,190513,16,E,A*15
$HCHDG,57.4,0.0,E,,*1F
$IIVHW,,,,,00.0,N,,*19
$IIVLW,06312,N,034.6,N*54
$HCHDG,57.4,0.0,E,,*1F
$IIVWR,112,L,04.0,N,,,,*79
$GPRMC,020019.4,A,4740.75905,N,12224.33985,W,000.01,074.7,200513,016.6,E,D*27
$GPRMB,A,0.18,L,,N,4741.0622,N,12224.6030,W,0.4,330,-0.00,V*66
$PGRME,2.4,M,2.4,M,3.4,M*29
$HCHDG,57.4,0.0,E,,*1F
$YXXDR,A,4.4,D,PTCH,A,4.3,D,ROLL*5A
$PTAK,FFD1,4.3*52
$HCHDG,57.4,0.0,E,,*1F
$GPRMC,020019.6,A,4740.75905,N,12224.33985,W,000.00,074.7,200513,016.6,E,D*24
$PGRME,2.4,M,2.4,M,3.4,M*29
$HCHDG,57.4,0.0,E,,*1F
$HCHDG,57.4,0.0,E,,*1F
$GPRMC,020019.8,A,4740.75905,N,12224.33986,W,000.00,074.7,200513,016.6,E,D*29
$PGRME,2.4,M,2.4,M,3.4,M*29
$HCHDG,57.4,0.0,E,,*1F
$IIGLL,4740.759,N,12224.339,W,020000,A,A*42
$HCHDG,57.4,0.0,E,,*1F
$IIMTW,+12.5,C*3E
$GPRMC,020020.0,A,4740.75905,N,12224.33986,W,000.00,074.7,200513,016.6,E,D*2B
$PGRME,2.4,M,2.4,M,3.4,M*29
$YXXDR,A,4.4,D,PTCH,A,4.3,D,ROLL*5A
$IIMWV,246,R,03.9,N,A*19
$HCHDG,57.4,0.0,E,,*1F
$IIMWV,248,T,04.0,N,A*1F
$HCHDG,57.4,0.0,E,,*1F
$IIRMB,A,0.18,L,,N   ,,,,,000.4,330,,V,A*24
$GPRMC,020020.2,A,4740.75905,N,12224.33986,W,000.01,074.7,200513,016.6,E,D*28
$PGRME,2.4,M,2.4,M,3.4,M*29
$HCHDG,57.4,0.0,E,,*1F
$IIRMC,020000,A,4740.759,N,12224.339,W,00.0,074,190513,16,E,A*15
$HCHDG,57.4,0.0,E,,*1F
$IIVHW,,,,,00.0,N,,*19
$GPRMC,020020.4,A,4740.75905,N,12224.33986,W,000.00,074.7,200513,016.6,E,D*2F
$PGRME,2.4,M,2.4,M,3.4,M*29
$IIVLW,06312,N,034.6,N*54
$HCHDG,57.4,0.0,E,,*1F
$YXXDR,A,4.4,D,PTCH,A,4.3,D,ROLL*5A
$HCHDG,57.4,0.0,E,,*1F
$GPRMC,020020.6,A,4740.75905,N,12224.33986,W,000.00,074.7,200513,016.6,E,D*2D
$GPRMB,A,0.18,L,,N,4741.0622,N,12224.6030,W,0.4,330,-0.00,V*66
$PGRME,2.4,M,2.4,M,3.4,M*29
$HCHDG,57.4,0.0,E,,*1F
$HCHDG,57.4,0.0,E,,*1F
$GPRMC,020020.8,A,4740.75905,N,12224.33987,W,000.00,074.7,200513,016.6,E,D*22
$PGRME,2.4,M,2.4,M,3.4,M*29
$HCHDG,57.3,0.0,E,,*18
$IIVWR,116,L,04.0,N,,,,*7D
$HCHDG,57.2,0.0,E,,*19
$IIGLL,4740.759,N,12224.339,W,020000,A,A*42
$GPRMC,020021.0,A,4740.75905,N,12224.33987,W,000.01,074.7,200513,016.6,E,D*2A
$PGRME,2.4,M,2.4,M,3.4,M*29
$YXXDR,A,4.4,D,PTCH,A,4.3,D,ROLL*5A
$PTAK,FFD1,4.3*52
$IIMTW,+12.5,C*3E
$HCHDG,57.2,0.0,E,,*19
$IIMWV,244,R,04.0,N,A*15
$IIMWV,246,T,03.9,N,A*1F
$HCHDG,57.2,0.0,E,,*19
$GPRMC,020021.2,A,4740.75905,N,12224.33987,W,000.00,074.7,200513,016.6,E,D*29
$PGRME,2.4,M,2.4,M,3.4,M*29
$IIRMB,A,0.18,L,,N   ,,,,,000.4,330,,V,A*24
$HCHDG,57.3,0.0,E,,*18
$PTAK,FFP1,HEEL,@*07
$HCHDG,57.3,0.0,E,,*18
$IIRMC,020000,A,4740.759,N,12224.339,W,00.0,074,190513,16,E,A*15
$GPRMC,020021.4,A,4740.75905,N,12224.33987,W,000.00,074.7,200513,016.6,E,D*2F
$PGRME,2.4,M,2.4,M,3.4,M*29
$IIVHW,,,,,00.0,N,,*19
$HCHDG,57.3,0.0,E,,*18
$YXXDR,A,4.5,D,PTCH,A,4.4,D,ROLL*5C
$HCHDG,57.3,0.0,E,,*18
$GPRMC,020021.6,A,4740.75905,N,12224.33988,W,000.00,074.7,200513,016.6,E,D*22
$GPRMB,A,0.18,L,,N,4741.0622,N,12224.6030,W,0.4,330,-0.00,V*66
$PGRME,2.4,M,2.4,M,3.4,M*29
$HCHDG,57.3,0.0,E,,*18
$HCHDG,57.2,0.0,E,,*19
$GPRMC,020021.8,A,4740.75905,N,12224.33988,W,000.01,074.7,200513,016.6,E,D*2D
$PGRME,2.4,M,2.4,M,3.4,M*29
$HCHDG,57.2,0.0,E,,*19
$IIVLW,06312,N,034.6,N*54
$HCHDG,57.2,0.0,E,,*19
$IIVWR,117,L,04.2,N,,,,*7E
$GPRMC,020022.0,A,4740.75905,N,12224.33988,W,000.01,074.7,200513,016.6,E,D*26
$PGRME,2.4,M,2.4,M,3.4,M*29
$YXXDR,A,4.5,D,PTCH,A,4.4,D,ROLL*5C
$IIGLL,4740.759,N,12224.339,W,020000,A,A*42
$HCHDG,57.2,0.0,E,,*19
$IIMTW,+12.5,C*3E
$IIMWV,243,R,04.2,N,A*10
$HCHDG,57.2,0.0,E,,*19
$IIMWV,244,T,04.0,N,A*13
$GPRMC,020022.2,A,4740.75905,N,12224.33988,W,000.00,074.7,200513,016.6,E,D*25
$PGRME,2.4,M,2.4,M,3.4,M*29
$HCHDG,57.2,0.0,E,,*19
$IIRMB,A,0.18,L,,N   ,,,,,000.4,330,,V,A*24
$HCHDG,57.2,0.0,E,,*19
$GPRMC,020022.4,A,4740.75905,N,12224.33988,W,000.00,074.7,200513,016.6,E,D*23
$PGRME,2.4,M,2.4,M,3.4,M*29
$IIRMC,020000,A,4740.759,N,12224.339,W,00.0,074,190513,16,E,A*15
$HCHDG,57.2,0.0,E,,*19
$YXXDR,A,4.4,D,PTCH,A,4.3,D,ROLL*5A
$PTAK,FFD1,4.3*52
$HCHDG,57.2,0.0,E,,*19
$GPRMC,020022.6,A,4740.75905,N,12224.33988,W,000.00,074.7,200513,016.6,E,D*21
$PGRME,2.4,M,2.4,M,3.4,M*29
$HCHDG,57.2,0.0,E,,*19
$HCHDG,57.3,0.0,E,,*18
$GPRMC,020022.8,A,4740.75905,N,12224.33988,W,000.00,074.7,200513,016.6,E,D*2F
$GPRMB,A,0.18,L,,N,4741.0622,N,12224.6030,W,0.4,330,-0.00,V*66
$PGRME,2.4,M,2.4,M,3.4,M*29
$HCHDG,57.3,0.0,E,,*18
$IIVHW,,,,,00.0,N,,*19
$HCHDG,57.3,0.0,E,,*18
$IIVLW,06312,N,034.6,N*54
$GPRMC,020023.0,A,4740.75905,N,12224.33988,W,000.01,074.7,200513,016.6,E,D*27
$IIVWR,117,L,04.5,N,,,,*79
$PGRME,2.4,M,2.4,M,3.4,M*29
$YXXDR,A,4.4,D,PTCH,A,4.3,D,ROLL*5A
$HCHDG,57.3,0.0,E,,*18
$IIGLL,4740.759,N,12224.339,W,020000,A,A*42
$IIMTW,+12.5,C*3E
$HCHDG,57.3,0.0,E,,*18
$IIMWV,243,R,04.5,N,A*17
$GPRMC,020023.2,A,4740.75905,N,12224.33989,W,000.00,074.7,200513,016.6,E,D*25
$PGRME,2.4,M,2.4,M,3.4,M*29
$IIMWV,243,T,04.2,N,A*16
$HCHDG,57.3,0.0,E,,*18
$IIRMB,A,0.18,L,,N   ,,,,,000.4,330,,V,A*24
$HCHDG,57.3,0.0,E,,*18
$GPRMC,020023.4,A,4740.75905,N,12224.33989,W,000.00,074.7,200513,016.6,E,D*23
$PGRME,2.4,M,2.4,M,3.4,M*29
$HCHDG,57.3,0.0,E,,*18
$YXXDR,A,4.4,D,PTCH,A,4.3,D,ROLL*5A
$HCHDG,57.3,0.0,E,,*18
$GPRMC,020023.6,A,4740.75905,N,12224.33989,W,000.00,074.7,200513,016.6,E,D*21
$PGRME,2.4,M,2.4,M,3.4,M*29
$HCHDG,57.3,0.0,E,,*18
$HCHDG,57.3,0.0,E,,*18
$GPRMC,020023.8,A,4740.75905,N,12224.33989,W,000.00,074.7,200513,016.6,E,D*2F
$GPRMB,A,0.18,L,,N,4741.0622,N,12224.6030,W,0.4,330,-0.00,V*66
$PGRME,2.4,M,2.4,M,3.4,M*29
$HCHDG,57.3,0.0,E,,*18
$HCHDG,57.3,0.0,E,,*18
$IIRMC,020000,A,4740.759,N,12224.339,W,00.0,074,190513,16,E,A*15
$GPRMC,020024.0,A,4740.75905,N,12224.33989,W,000.00,074.7,200513,016.6,E,D*20
$PGRME,2.4,M,2.4,M,3.4,M*29
$YXXDR,A,4.4,D,PTCH,A,4.3,D,ROLL*5A
$PTAK,FFD1,4.3*52
$IIVHW,,,,,00.0,N,,*19
$HCHDG,57.3,0.0,E,,*18
$IIVLW,06312,N,034.6,N*54
$IIVWR,118,L,04.5,N,,,,*76
$HCHDG,57.3,0.0,E,,*18
$GPRMC,020024.2,A,4740.75906,N,12224.33989,W,000.00,074.7,200513,016.6,E,D*21
$PGRME,2.4,M,2.4,M,3.4,M*29
$IIGLL,4740.759,N,12224.339,W,020000,A,A*42
$HCHDG,57.3,0.0,E,,*18
$IIMTW,+12.5,C*3E
$IIMWV,242,R,04.5,N,A*16
$HCHDG,57.3,0.0,E,,*18
$IIMWV,243,T,04.5,N,A*11
$GPRMC,020024.4,A,4740.75906,N,12224.33989,W,000.00,074.7,200513,016.6,E,D*27
$PGRME,2.4,M,2.4,M,3.4,M*29
$HCHDG,57.3,0.0,E,,*18
$YXXDR,A,4.4,D,PTCH,A,4.3,D,ROLL*5A
$HCHDG,57.3,0.0,E,,*18
$GPRMC,020024.6,A,4740.75906,N,12224.33989,W,000.01,074.7,200513,016.6,E,D*24
$PGRME,2.4,M,2.4,M,3.4,M*29
$HCHDG,57.3,0.0,E,,*18
$HCHDG,57.3,0.0,E,,*18
$GPRMC,020024.8,A,4740.75906,N,12224.33989,W,000.00,074.7,200513,016.6,E,D*2B
$GPRMB,A,0.18,L,,N,4741.0622,N,12224.6030,W,0.4,330,-0.00,V*66
$PGRME,2.4,M,2.4,M,3.4,M*29
$HCHDG,57.3,0.0,E,,*18
$IIRMB,A,0.18,L,,N   ,,,,,000.4,330,,V,A*24
$HCHDG,57.3,0.0,E,,*18
$GPRMC,020025.0,A,4740.75906,N,12224.33989,W,000.00,074.7,200513,016.6,E,D*22
$PGRME,2.4,M,2.4,M,3.4,M*29
$YXXDR,A,4.4,D,PTCH,A,4.3,D,ROLL*5A
$IIRMC,020000,A,4740.759,N,12224.339,W,00.0,074,190513,16,E,A*15
$HCHDG,57.3,0.0,E,,*18
$IIVHW,,,,,00.0,N,,*19
$HCHDG,57.3,0.0,E,,*18
$IIVLW,06312,N,034.6,N*54
$GPRMC,020025.2,A,4740.75906,N,12224.33989,W,000.00,074.7,200513,016.6,E,D*20
$PGRME,2.4,M,2.4,M,3.4,M*29
$IIVWR,119,L,04.6,N,,,,*74
$HCHDG,57.3,0.0,E,,*18
$IIGLL,4740.759,N,12224.339,W,020000,A,A*42
$HCHDG,57.3,0.0,E,,*18
$PTAK,FFP1,HEEL,@*07
$IIMTW,+12.5,C*3E
$GPRMC,020025.4,A,4740.75906,N,12224.33989,W,000.00,074.7,200513,016.6,E,D*26
$PGRME,2.4,M,2.4,M,3.4,M*29
$IIMWV,241,R,04.6,N,A*16
$HCHDG,57.3,0.0,E,,*18
$YXXDR,A,4.4,D,PTCH,A,4.3,D,ROLL*5A
$PTAK,FFD1,4.3*52
$HCHDG,57.3,0.0,E,,*18
$GPRMC,020025.6,A,4740.75906,N,12224.33989,W,000.01,074.7,200513,016.6,E,D*25
$PGRME,2.4,M,2.4,M,3.4,M*29
$HCHDG,57.3,0.0,E,,*18
$HCHDG,57.3,0.0,E,,*18
$GPRMC,020025.8,A,4740.75906,N,12224.33989,W,000.00,074.7,200513,016.6,E,D*2A
$GPRMB,A,0.18,L,,N,4741.0622,N,12224.6030,W,0.4,330,-0.00,V*66
$PGRME,2.4,M,2.4,M,3.4,M*29
$HCHDG,57.3,0.0,E,,*18
$IIMWV,241,T,04.6,N,A*10
$HCHDG,57.3,0.0,E,,*18
$IIRMB,A,0.18,L,,N   ,,,,,000.4,330,,V,A*24
$GPRMC,020026.0,A,4740.75906,N,12224.33989,W,000.00,074.7,200513,016.6,E,D*21
$PGRME,2.4,M,2.4,M,3.4,M*29
$YXXDR,A,4.4,D,PTCH,A,4.3,D,ROLL*5A
$HCHDG,57.3,0.0,E,,*18
$IIRMC,020000,A,4740.759,N,12224.339,W,00.0,074,190513,16,E,A*15
$HCHDG,57.3,0.0,E,,*18
$IIVHW,,,,,00.0,N,,*19
$GPRMC,020026.2,A,4740.75906,N,12224.33989,W,000.00,074.7,200513,016.6,E,D*23
$PGRME,2.4,M,2.4,M,3.4,M*29
$IIVLW,06312,N,034.6,N*54
$HCHDG,57.3,0.0,E,,*18
$IIVWR,121,L,04.8,N,,,,*71
$HCHDG,57.3,0.0,E,,*18
$IIGLL,4740.759,N,12224.339,W,020000,A,A*42
$GPRMC,020026.4,A,4740.75907,N,12224.33989,W,000.00,074.7,200513,016.6,E,D*24
$PGRME,2.4,M,2.4,M,3.4,M*29
$IIMTW,+12.5,C*3E
$HCHDG,57.3,0.0,E,,*18
$YXXDR,A,4.4,D,PTCH,A,4.3,D,ROLL*5A
$PTAK,FFD1,4.3*52
$HCHDG,57.3,0.0,E,,*18
$GPRMC,020026.6,A,4740.75907,N,12224.33989,W,000.00,074.7,200513,016.6,E,D*26
$PGRME,2.4,M,2.4,M,3.4,M*29
$HCHDG,57.3,0.0,E,,*18
$HCHDG,57.3,0.0,E,,*18
$GPRMC,020026.8,A,4740.75907,N,12224.33989,W,000.01,074.7,200513,016.6,E,D*29
$GPRMB,A,0.18,L,,N,4741.0622,N,12224.6030,W,0.4,330,-0.00,V*66
$PGRME,2.4,M,2.4,M,3.4,M*29
$HCHDG,57.3,0.0,E,,*18
$IIMWV,238,R,04.8,N,A*16
$IIMWV,239,T,04.8,N,A*11
$HCHDG,57.3,0.0,E,,*18
$GPRMC,020027.0,A,4740.75907,N,12224.33989,W,000.00,074.7,200513,016.6,E,D*21
$PGRME,2.4,M,2.4,M,3.4,M*29
$YXXDR,A,4.4,D,PTCH,A,4.3,D,ROLL*5A
$IIRMB,A,0.18,L,,N   ,,,,,000.4,330,,V,A*24
$HCHDG,57.3,0.0,E,,*18
$HCHDG,57.3,0.0,E,,*18
$IIRMC,020000,A,4740.759,N,12224.339,W,00.0,074,190513,16,E,A*15
$GPRMC,020027.2,A,4740.75907,N,12224.33989,W,000.00,074.7,200513,016.6,E,D*23
$PGRME,2.4,M,2.4,M,3.4,M*29
$IIVHW,,,,,00.0,N,,*19
$HCHDG,57.3,0.0,E,,*18
$IIVLW,06312,N,034.6,N*54
$IIVWR,122,L,04.8,N,,,,*72
$HCHDG,57.3,0.0,E,,*18
$GPRMC,020027.4,A,4740.75907,N,12224.33989,W,000.00,074.7,200513,016.6,E,D*25
$PGRME,2.4,M,2.4,M,3.4,M*29
$IIGLL,4740.759,N,12224.339,W,020000,A,A*42
$HCHDG,57.3,0.0,E,,*18
$YXXDR,A,4.4,D,PTCH,A,4.3,D,ROLL*5A
$PTAK,FFD1,4.3*52
$HCHDG,57.3,0.0,E,,*18
$GPRMC,020027.6,A,4740.75907,N,12224.33989,W,000.01,074.7,200513,016.6,E,D*26
$PGRME,2.4,M,2.4,M,3.4,M*29
$HCHDG,57.3,0.0,E,,*18
$HCHDG,57.3,0.0,E,,*18
$GPRMC,020027.8,A,4740.75907,N,12224.33989,W,000.00,074.7,200513,016.6,E,D*29
$PGRME,2.4,M,2.4,M,3.4,M*29
$HCHDG,57.3,0.0,E,,*18
$HCHDG,57.3,0.0,E,,*18
$GPRMC,020028.0,A,4740.75907,N,12224.33989,W,000.00,074.7,200513,016.6,E,D*2E
$GPRMB,A,0.18,L,,N,4741.0622,N,12224.6030,W,0.4,330,-0.00,V*66
$PGRME,2.4,M,2.4,M,3.4,M*29
$YXXDR,A,4.4,D,PTCH,A,4.3,D,ROLL*5A
$HCHDG,57.3,0.0,E,,*18
$HCHDG,57.3,0.0,E,,*18
$GPRMC,020028.2,A,4740.75907,N,12224.33989,W,000.01,074.7,200513,016.6,E,D*2D
$PGRME,2.4,M,2.4,M,3.4,M*29
$HCHDG,57.3,0.0,E,,*18
$HCHDG,57.3,0.0,E,,*18
$GPRMC,020028.4,A,4740.75907,N,12224.33988,W,000.00,074.7,200513,016.6,E,D*2B
$PGRME,2.4,M,2.4,M,3.4,M*29
$HCHDG,57.3,0.0,E,,*18
$YXXDR,A,4.4,D,PTCH,A,4.3,D,ROLL*5A
$PTAK,FFD1,4.3*52
$HCHDG,57.3,0.0,E,,*18
$GPRMC,020028.6,A,4740.75908,N,12224.33988,W,000.01,074.7,200513,016.6,E,D*27
$PGRME,2.4,M,2.4,M,3.4,M*29
$HCHDG,57.3,0.0,E,,*18
$HCHDG,57.3,0.0,E,,*18
$GPRMC,020028.8,A,4740.75908,N,12224.33988,W,000.00,074.7,200513,016.6,E,D*28
$PGRME,2.4,M,2.4,M,3.4,M*29
$HCHDG,57.3,0.0,E,,*18
$IIMTW,+12.5,C*3E
$IIMWV,243,R,05.0,N,A*13
$HCHDG,57.3,0.0,E,,*18
$IIMWV,238,T,04.8,N,A*10
$GPRMC,020029.0,A,4740.75908,N,12224.33988,W,000.00,074.7,200513,016.6,E,D*21
$GPRMB,A,0.18,L,,N,4741.0622,N,12224.6030,W,0.4,330,-0.00,V*66
$PGRME,2.4,M,2.4,M,3.4,M*29
$YXXDR,A,4.4,D,PTCH,A,4.3,D,ROLL*5A
$HCHDG,57.4,0.0,E,,*1F
$IIRMB,A,0.18,L,,N   ,,,,,000.4,330,,V,A*24
$HCHDG,57.4,0.0,E,,*1F
$GPRMC,020029.2,A,4740.75908,N,12224.33988,W,000.01,074.7,200513,016.6,E,D*22
$PGRME,2.4,M,2.4,M,3.4,M*29
$IIRMC,020000,A,4740.759,N,12224.339,W,00.0,074,190513,16,E,A*15
$HCHDG,57.4,0.0,E,,*1F
$IIVHW,,,,,00.0,N,,*19
$IIVLW,06312,N,034.6,N*54
$HCHDG,57.4,0.0,E,,*1F
$IIVWR,117,L,05.0,N,,,,*7D
$GPRMC,020029.4,A,4740.75908,N,12224.33988,W,000.00,074.7,200513,016.6,E,D*25
$PTAK,FFP1,HEEL,@*07
$PGRME,2.4,M,2.4,M,3.4,M*29
$HCHDG,57.4,0.0,E,,*1F
$YXXDR,A,4.4,D,PTCH,A,4.3,D,ROLL*5A
$HCHDG,57.4,0.0,E,,*1F
$GPRMC,020029.6,A,4740.75908,N,12224.33988,W,000.00,074.7,200513,016.6,E,D*27
$PGRME,2.4,M,2.4,M,3.4,M*29
$HCHDG,57.4,0.0,E,,*1F
$HCHDG,57.4,0.0,E,,*1F
$GPRMC,020029.8,A,4740.75908,N,12224.33988,W,000.00,074.7,200513,016.6,E,D*29
$PGRME,2.4,M,2.4,M,3.4,M*29
$HCHDG,57.4,0.0,E,,*1F
$IIGLL,4740.759,N,12224.339,W,020000,A,A*42
$HCHDG,57.4,0.0,E,,*1F
$IIMTW,+12.5,C*3E
$GPRMC,020030.0,A,4740.75908,N,12224.33987,W,000.00,074.7,200513,016.6,E,D*26
$PGRME,2.4,M,2.4,M,3.4,M*29
$YXXDR,A,4.4,D,PTCH,A,4.3,D,ROLL*5A
$PTAK,FFD1,4.3*52
$IIMWV,248,R,04.8,N,A*11
$HCHDG,57.4,0.0,E,,*1F
$IIMWV,248,T,04.9,N,A*16
$HCHDG,57.4,0.0,E,,*1F
$IIRMB,A,0.18,L,,N   ,,,,,000.4,330,,V,A*24
$GPRMC,020030.2,A,4740.75909,N,12224.33987,W,000.00,074.7,200513,016.6,E,D*25
$GPRMB,A,0.18,L,,N,4741.0622,N,12224.6030,W,0.4,330,-0.00,V*66
$PGRME,2.4,M,2.4,M,3.4,M*29
$HCHDG,57.4,0.0,E,,*1F
$IIRMC,020000,A,4740.759,N,12224.339,W,00.0,074,190513,16,E,A*15
$HCHDG,57.4,0.0,E,,*1F
$IIVHW,,,,,00.0,N,,*19
$GPRMC,020030.4,A,4740.75909,N,12224.33987,W,000.00,074.7,200513,016.6,E,D*23
$PGRME,2.4,M,2.4,M,3.4,M*29
$IIVLW,06312,N,034.6,N*54
$HCHDG,57.4,0.0,E,,*1F
$YXXDR,A,4.4,D,PTCH,A,4.3,D,ROLL*5A
$HCHDG,57.4,0.0,E,,*1F
$GPRMC,020030.6,A,4740.75909,N,12224.33987,W,000.00,074.7,200513,016.6,E,D*21
$PGRME,2.4,M,2.4,M,3.4,M*29
$HCHDG,57.4,0.0,E,,*1F
$HCHDG,57.4,0.0,E,,*1F
$GPRMC,020030.8,A,4740.75909,N,12224.33987,W,000.00,074.7,200513,016.6,E,D*2F
$PGRME,2.4,M,2.4,M,3.4,M*29
$HCHDG,57.4,0.0,E,,*1F
$IIVWR,107,L,04.8,N,,,,*75
$HCHDG,57.4,0.0,E,,*1F
$IIGLL,4740.759,N,12224.339,W,020000,A,A*42
$GPRMC,020031.0,A,4740.75909,N,12224.33987,W,000.01,074.7,200513,016.6,E,D*27
$PGRME,2.4,M,2.4,M,3.4,M*29
$YXXDR,A,4.4,D,PTCH,A,4.3,D,ROLL*5A
$PTAK,FFD1,4.3*52
$IIMTW,+12.5,C*3E
$HCHDG,57.4,0.0,E,,*1F
$IIMWV,253,R,04.8,N,A*1B
$IIMWV,248,T,04.8,N,A*17
$HCHDG,57.4,0.0,E,,*1F
$GPRMC,020031.2,A,4740.75909,N,12224.33987,W,000.00,074.7,200513,016.6,E,D*24
$PGRME,2.4,M,2.4,M,3.4,M*29
$IIRMB,A,0.18,L,,N   ,,,,,000.4,330,,V,A*24
$HCHDG,57.4,0.0,E,,*1F
$HCHDG,57.4,0.0,E,,*1F
$IIRMC,020000,A,4740.759,N,12224.339,W,00.0,074,190513,16,E,A*15
$GPRMC,020031.4,A,4740.75909,N,12224.33987,W,000.00,074.7,200513,016.6,E,D*22
$GPRMB,A,0.18,L,,N,4741.0622,N,12224.6030,W,0.4,330,-0.00,V*66
$PGRME,2.4,M,2.4,M,3.4,M*29
$IIVHW,,,,,00.0,N,,*19
$HCHDG,57.4,0.0,E,,*1F
$YXXDR,A,4.4,D,PTCH,A,4.3,D,ROLL*5A
$HCHDG,57.4,0.0,E,,*1F
$GPRMC,020031.6,A,4740.75909,N,12224.33987,W,000.00,074.7,200513,016.6,E,D*20
$PGRME,2.4,M,2.4,M,3.4,M*29
$HCHDG,57.4,0.0,E,,*1F
$HCHDG,57.4,0.0,E,,*1F
$GPRMC,020031.8,A,4740.75909,N,12224.33986,W,000.00,074.7,200513,016.6,E,D*2F
$PGRME,2.4,M,2.4,M,3.4,M*29
$HCHDG,57.4,0.0,E,,*1F
$IIVLW,06312,N,034.6,N*54
$HCHDG,57.4,0.0,E,,*1F
$IIVWR,105,L,04.7,N,,,,*78
$GPRMC,020032.0,A,4740.75909,N,12224.33986,W,000.00,074.7,200513,016.6,E,D*24
$PGRME,2.4,M,2.4,M,3.4,M*29
$YXXDR,A,4.4,D,PTCH,A,4.3,D,ROLL*5A
$IIGLL,4740.759,N,12224.339,W,020000,A,A*42
$HCHDG,57.4,0.0,E,,*1F
$IIMTW,+12.5,C*3E
$IIMWV,255,R,04.7,N,A*12
$HCHDG,57.4,0.0,E,,*1F
$IIMWV,253,T,04.8,N,A*1D
$GPRMC,020032.2,A,4740.75909,N,12224.33986,W,000.01,074.7,200513,016.6,E,D*27
$PGRME,2.4,M,2.4,M,3.4,M*29
$HCHDG,57.4,0.0,E,,*1F
$IIRMB,A,0.18,L,,N   ,,,,,000.4,330,,V,A*24
$HCHDG,57.4,0.0,E,,*1F
$GPRMC,020032.4,A,4740.75909,N,12224.33986,W,000.00,074.7,200513,016.6,E,D*20
$PGRME,2.4,M,2.4,M,3.4,M*29
$IIRMC,020000,A,4740.759,N,12224.339,W,00.0,074,190513,16,E,A*15
$HCHDG,57.4,0.0,E,,*1F
$YXXDR,A,4.4,D,PTCH,A,4.3,D,ROLL*5A
$PTAK,FFD1,4.3*52
$HCHDG,57.4,0.0,E,,*1F
$GPRMC,020032.6,A,4740.75909,N,12224.33986,W,000.00,074.7,200513,016.6,E,D*22
$GPRMB,A,0.18,L,,N,4741.0622,N,12224.6030,W,0.4,330,-0.00,V*66
$PGRME,2.4,M,2.4,M,3.4,M*29
$HCHDG,57.4,0.0,E,,*1F
$HCHDG,57.4,0.0,E,,*1F
$GPRMC,020032.8,A,4740.75909,N,12224.33986,W,000.01,074.7,200513,016.6,E,D*2D
$PGRME,2.4,M,2.4,M,3.4,M*29
$HCHDG,57.4,0.0,E,,*1F
$IIVHW,,,,,00.0,N,,*19
$HCHDG,57.4,0.0,E,,*1F
$IIVLW,06312,N,034.6,N*54
$GPRMC,020033.0,A,4740.75909,N,12224.33986,W,000.00,074.7,200513,016.6,E,D*25
$IIVWR,106,L,04.4,N,,,,*78
$PGRME,2.4,M,2.4,M,3.4,M*29
$YXXDR,A,4.4,D,PTCH,A,4.3,D,ROLL*5A
$HCHDG,57.4,0.0,E,,*1F
$IIGLL,4740.759,N,12224.339,W,020000,A,A*42
$IIMTW,+12.5,C*3E
$HCHDG,57.4,0.0,E,,*1F
$IIMWV,254,R,04.4,N,A*10
$GPRMC,020033.2,A,4740.75909,N,12224.33986,W,000.00,074.7,200513,016.6,E,D*27
$PGRME,2.4,M,2.4,M,3.4,M*29
$HCHDG,57.4,0.0,E,,*1F
$IIMWV,255,T,04.7,N,A*14
$IIRMB,A,0.18,L,,N   ,,,,,000.4,330,,V,A*24
$HCHDG,57.4,0.0,E,,*1F
$GPRMC,020033.4,A,4740.75909,N,12224.33986,W,000.00,074.7,200513,016.6,E,D*21
$PGRME,2.4,M,2.4,M,3.4,M*29
$HCHDG,57.4,0.0,E,,*1F
$PTAK,FFP1,HEEL,@*07
$YXXDR,A,4.4,D,PTCH,A,4.3,D,ROLL*5A
$PTAK,FFD1,4.3*52
$HCHDG,57.4,0.0,E,,*1F
$GPRMC,020033.6,A,4740.75910,N,12224.33986,W,000.01,074.7,200513,016.6,E,D*2A
$PGRME,2.4,M,2.4,M,3.4,M*29
$HCHDG,57.4,0.0,E,,*1F
$HCHDG,57.4,0.0,E,,*1F
$GPRMC,020033.8,A,4740.75910,N,12224.33986,W,000.00,074.7,200513,016.6,E,D*25
$GPRMB,A,0.18,L,,N,4741.0622,N,12224.6030,W,0.4,330,-0.00,V*66
$PGRME,2.4,M,2.4,M,3.4,M*29
$HCHDG,57.4,0.0,E,,*1F
$HCHDG,57.4,0.0,E,,*1F
$IIRMC,020000,A,4740.759,N,12224.339,W,00.0,074,190513,16,E,A*15
$GPRMC,020034.0,A,4740.75910,N,12224.33985,W,000.00,074.7,200513,016.6,E,D*29
$PGRME,2.4,M,2.4,M,3.4,M*29
$YXXDR,A,4.4,D,PTCH,A,4.3,D,ROLL*5A
$IIVHW,,,,,00.0,N,,*19
$HCHDG,57.4,0.0,E,,*1F
$IIVLW,06312,N,034.6,N*54
$IIVWR,113,L,03.9,N,,,,*76
$HCHDG,57.4,0.0,E,,*1F
$GPRMC,020034.2,A,4740.75910,N,12224.33985,W,000.00,074.7,200513,016.6,E,D*2B
$PGRME,2.4,M,2.4,M,3.4,M*29
$IIGLL,4740.759,N,12224.339,W,020000,A,A*42
$HCHDG,57.4,0.0,E,,*1F
$IIMTW,+12.5,C*3E
$IIMWV,247,R,03.9,N,A*18
$HCHDG,57.4,0.0,E,,*1F
$IIMWV,254,T,04.4,N,A*16
$GPRMC,020034.4,A,4740.75910,N,12224.33985,W,000.00,074.7,200513,016.6,E,D*2D
$PGRME,2.4,M,2.4,M,3.4,M*29
$HCHDG,57.4,0.0,E,,*1F
$YXXDR,A,4.4,D,PTCH,A,4.3,D,ROLL*5A
$HCHDG,57.5,0.0,E,,*1E
$GPRMC,020034.6,A,4740.75910,N,12224.33985,W,000.00,074.7,200513,016.6,E,D*2F
$PGRME,2.4,M,2.4,M,3.4,M*29
$HCHDG,57.5,0.0,E,,*1E
$HCHDG,57.5,0.0,E,,*1E
$GPRMC,020034.8,A,4740.75910,N,12224.33985,W,000.00,074.7,200513,016.6,E,D*21
$PGRME,2.4,M,2.4,M,3.4,M*29
$HCHDG,57.5,0.0,E,,*1E
$IIRMB,A,0.18,L,,N   ,,,,,000.4,330,,V,A*24
$HCHDG,57.5,0.0,E,,*1E
$GPRMC,020035.0,A,4740.75910,N,12224.33985,W,000.00,074.7,200513,016.6,E,D*28
$GPRMB,A,0.18,L,,N,4741.0622,N,12224.6030,W,0.4,330,-0.00,V*66
$PGRME,2.4,M,2.4,M,3.4,M*29
$YXXDR,A,4.4,D,PTCH,A,4.3,D,ROLL*5A
$PTAK,FFD1,4.3*52
$IIRMC,020000,A,4740.759,N,12224.339,W,00.0,074,190513,16,E,A*15
$HCHDG,57.5,0.0,E,,*1E
$IIVHW,,,,,00.0,N,,*19
$HCHDG,57.5,0.0,E,,*1E
$IIVLW,06312,N,034.6,N*54
$GPRMC,020035.2,A,4740.75910,N,12224.33984,W,000.00,074.7,200513,016.6,E,D*2B
$PGRME,2.4,M,2.4,M,3.4,M*29
$IIVWR,120,L,03.4,N,,,,*7B
$HCHDG,57.5,0.0,E,,*1E
$IIGLL,4740.759,N,12224.339,W,020000,A,A*42
$HCHDG,57.5,0.0,E,,*1E
$IIMTW,+12.5,C*3E
$GPRMC,020035.4,A,4740.75910,N,12224.33984,W,000.00,074.7,200513,016.6,E,D*2D
$PGRME,2.4,M,2.4,M,3.4,M*29
$IIMWV,240,R,03.4,N,A*12
$HCHDG,57.5,0.0,E,,*1E
$YXXDR,A,4.4,D,PTCH,A,4.3,D,ROLL*5A
$HCHDG,57.5,0.0,E,,*1E
$GPRMC,020035.6,A,4740.75910,N,12224.33984,W,000.00,074.7,200513,016.6,E,D*2F
$PGRME,2.4,M,2.4,M,3.4,M*29
$HCHDG,57.5,0.0,E,,*1E
$HCHDG,57.5,0.0,E,,*1E
$GPRMC,020035.8,A,4740.75910,N,12224.33984,W,000.00,074.7,200513,016.6,E,D*21
$PGRME,2.4,M,2.4,M,3.4,M*29
$HCHDG,57.5,0.0,E,,*1E
$IIMWV,240,T,03.4,N,A*14
$HCHDG,57.5,0.0,E,,*1E
$IIRMB,A,0.18,L,,N   ,,,,,000.4,330,,V,A*24
$GPRMC,020036.0,A,4740.75910,N,12224.33984,W,000.00,074.7,200513,016.6,E,D*2A
$GPRMB,A,0.18,L,,N,4741.0622,N,12224.6030,W,0.4,330,-0.00,V*66
$PGRME,2.4,M,2.4,M,3.4,M*29
$YXXDR,A,4.4,D,PTCH,A,4.3,D,ROLL*5A
$PTAK,FFD1,4.3*52
$HCHDG,57.5,0.0,E,,*1E
$IIRMC,020000,A,4740.759,N,12224.339,W,00.0,074,190513,16,E,A*15
$HCHDG,57.5,0.0,E,,*1E
$IIVHW,,,,,00.0,N,,*19
$GPRMC,020036.2,A,4740.75910,N,12224.33984,W,000.00,074.7,200513,016.6,E,D*28
$PGRME,2.4,M,2.4,M,3.4,M*29
$IIVLW,06312,N,034.6,N*54
$HCHDG,57.5,0.0,E,,*1E
$IIVWR,125,L,03.4,N,,,,*7E
$HCHDG,57.5,0.0,E,,*1E
$IIGLL,4740.759,N,12224.339,W,020000,A,A*42
$GPRMC,020036.4,A,4740.75910,N,12224.33984,W,000.00,074.7,200513,016.6,E,D*2E
$PGRME,2.4,M,2.4,M,3.4,M*29
$IIMTW,+12.5,C*3E
$HCHDG,57.4,0.0,E,,*1F
$YXXDR,A,4.4,D,PTCH,A,4.3,D,ROLL*5A
$HCHDG,57.4,0.0,E,,*1F
$GPRMC,020036.6,A,4740.75910,N,12224.33984,W,000.00,074.7,200513,016.6,E,D*2C
$PGRME,2.4,M,2.4,M,3.4,M*29
$HCHDG,57.4,0.0,E,,*1F
$HCHDG,57.4,0.0,E,,*1F
$GPRMC,020036.8,A,4740.75910,N,12224.33984,W,000.00,074.7,200513,016.6,E,D*22
$PGRME,2.4,M,2.4,M,3.4,M*29
$HCHDG,57.4,0.0,E,,*1F
$IIMWV,231,R,03.2,N,A*12
$HCHDG,57.4,0.0,E,,*1F
$IIMWV,235,T,03.4,N,A*16
$GPRMC,020037.0,A,4740.75910,N,12224.33984,W,000.00,074.7,200513,016.6,E,D*2B
$PGRME,2.4,M,2.4,M,3.4,M*29
$YXXDR,A,4.4,D,PTCH,A,4.3,D,ROLL*5A
$IIRMB,A,0.18,L,,N   ,,,,,000.4,330,,V,A*24
$HCHDG,57.4,0.0,E,,*1F
$HCHDG,57.4,0.0,E,,*1F
$IIRMC,020000,A,4740.759,N,12224.339,W,00.0,074,190513,16,E,A*15
$GPRMC,020037.2,A,4740.75910,N,12224.33984,W,000.00,074.7,200513,016.6,E,D*29
$GPRMB,A,0.18,L,,N,4741.0622,N,12224.6030,W,0.4,330,-0.00,V*66
$PGRME,2.4,M,2.4,M,3.4,M*29
$IIVHW,,,,,00.0,N,,*19
$HCHDG,57.4,0.0,E,,*1F
$IIVLW,06312,N,034.6,N*54
$IIVWR,129,L,03.2,N,,,,*74
$HCHDG,57.4,0.0,E,,*1F
$GPRMC,020037.4,A,4740.75910,N,12224.33983,W,000.00,074.7,200513,016.6,E,D*28
$PGRME,2.4,M,2.4,M,3.4,M*29
$IIGLL,4740.759,N,12224.339,W,020000,A,A*42
$HCHDG,57.4,0.0,E,,*1F
$PTAK,FFP1,HEEL,@*07
$YXXDR,A,4.4,D,PTCH,A,4.3,D,ROLL*5A
$PTAK,FFD1,4.3*52
$HCHDG,57.4,0.0,E,,*1F
$GPRMC,020037.6,A,4740.75911,N,12224.33983,W,000.00,074.7,200513,016.6,E,D*2B
$PGRME,2.4,M,2.4,M,3.4,M*29
$HCHDG,57.4,0.0,E,,*1F
$HCHDG,57.4,0.0,E,,*1F
$GPRMC,020037.8,A,4740.75911,N,12224.33983,W,000.01,074.7,200513,016.6,E,D*24
$PGRME,2.4,M,2.4,M,3.4,M*29
$HCHDG,57.4,0.0,E,,*1F
$IIMTW,+12.5,C*3E
$IIMWV,229,R,03.2,N,A*1B
$HCHDG,57.4,0.0,E,,*1F
$IIMWV,231,T,03.2,N,A*14
$GPRMC,020038.0,A,4740.75911,N,12224.33983,W,000.00,074.7,200513,016.6,E,D*22
$PGRME,2.4,M,2.4,M,3.4,M*29
$YXXDR,A,4.4,D,PTCH,A,4.3,D,ROLL*5A
$HCHDG,57.5,0.0,E,,*1E
$IIRMB,A,0.18,L,,N   ,,,,,000.4,330,,V,A*24
$HCHDG,57.5,0.0,E,,*1E
$GPRMC,020038.2,A,4740.75911,N,12224.33983,W,000.00,074.7,200513,016.6,E,D*20
$PGRME,2.4,M,2.4,M,3.4,M*29
$IIRMC,020000,A,4740.759,N,12224.339,W,00.0,074,190513,16,E,A*15
$HCHDG,57.5,0.0,E,,*1E
$IIVHW,,,,,00.0,N,,*19
$IIVLW,06312,N,034.6,N*54
$HCHDG,57.5,0.0,E,,*1E
$IIVWR,131,L,03.2,N,,,,*7D
$GPRMC,020038.4,A,4740.75911,N,12224.33983,W,000.00,074.7,200513,016.6,E,D*26
$GPRMB,A,0.18,L,,N,4741.0622,N,12224.6030,W,0.4,330,-0.00,V*66
$PGRME,2.4,M,2.4,M,3.4,M*29
$HCHDG,57.5,0.0,E,,*1E
$YXXDR,A,4.4,D,PTCH,A,4.3,D,ROLL*5A
$PTAK,FFD1,4.3*52
$HCHDG,57.5,0.0,E,,*1E
$GPRMC,020038.6,A,4740.75911,N,12224.33983,W,000.00,074.7,200513,016.6,E,D*24
$PGRME,2.4,M,2.4,M,3.4,M*29
$HCHDG,57.5,0.0,E,,*1E
$HCHDG,57.5,0.0,E,,*1E
$GPRMC,020038.8,A,4740.75911,N,12224.33983,W,000.00,074.7,200513,016.6,E,D*2A
$PGRME,2.4,M,2.4,M,3.4,M*29
$HCHDG,57.5,0.0,E,,*1E
$IIGLL,4740.759,N,12224.339,W,020000,A,A*42
$HCHDG,57.5,0.0,E,,*1E
$IIMTW,+12.5,C*3E
$GPRMC,020039.0,A,4740.75911,N,12224.33983,W,000.00,074.7,200513,016.6,E,D*23
$PGRME,2.4,M,2.4,M,3.4,M*29
$YXXDR,A,4.4,D,PTCH,A,4.3,D,ROLL*5A
$IIMWV,228,R,02.9,N,A*10
$HCHDG,57.5,0.0,E,,*1E
$IIMWV,229,T,03.2,N,A*1D
$HCHDG,57.5,0.0,E,,*1E
$IIRMB,A,0.18,L,,N   ,,,,,000.4,330,,V,A*24
$GPRMC,020039.2,A,4740.75911,N,12224.33983,W,000.00,074.7,200513,016.6,E,D*21
$PGRME,2.4,M,2.4,M,3.4,M*29
$HCHDG,57.5,0.0,E,,*1E
$IIRMC,020000,A,4740.759,N,12224.339,W,00.0,074,190513,16,E,A*15
$HCHDG,57.5,0.0,E,,*1E
$IIVHW,,,,,00.0,N,,*19
$GPRMC,020039.4,A,4740.75911,N,12224.33983,W,000.00,074.7,200513,016.6,E,D*27
$PGRME,2.4,M,2.4,M,3.4,M*29
$IIVLW,06312,N,034.6,N*54
$HCHDG,57.5,0.0,E,,*1E
$YXXDR,A,4.4,D,PTCH,A,4.3,D,ROLL*5A
$HCHDG,57.5,0.0,E,,*1E
$GPRMC,020039.6,A,4740.75911,N,12224.33983,W,000.00,074.7,200513,016.6,E,D*25
$GPRMB,A,0.18,L,,N,4741.0622,N,12224.6030,W,0.4,330,-0.00,V*66
$PGRME,2.4,M,2.4,M,3.4,M*29
$HCHDG,57.5,0.0,E,,*1E
$HCHDG,57.5,0.0,E,,*1E
$GPRMC,020039.8,A,4740.75911,N,12224.33982,W,000.00,074.7,200513,016.6,E,D*2A
$PGRME,2.4,M,2.4,M,3.4,M*29
$HCHDG,57.5,0.0,E,,*1E
$IIVWR,138,L,02.8,N,,,,*7F
$HCHDG,57.5,0.0,E,,*1E
$IIGLL,4740.759,N,12224.339,W,020000,A,A*42
$GPRMC,020040.0,A,4740.75911,N,12224.33982,W,000.00,074.7,200513,016.6,E,D*2C
$PGRME,2.4,M,2.4,M,3.4,M*29
$YXXDR,A,4.4,D,PTCH,A,4.3,D,ROLL*5A
$PTAK,FFD1,4.3*52
$IIMTW,+12.5,C*3E
$HCHDG,57.5,0.0,E,,*1E
$IIMWV,222,R,02.8,N,A*1B
$IIMWV,228,T,02.9,N,A*16
$HCHDG,57.5,0.0,E,,*1E
$GPRMC,020040.2,A,4740.75912,N,12224.33982,W,000.00,074.7,200513,016.6,E,D*2D
$PGRME,2.4,M,2.4,M,3.4,M*29
$IIRMB,A,0.18,L,,N   ,,,,,000.4,330,,V,A*24
$HCHDG,57.5,0.0,E,,*1E
$HCHDG,57.5,0.0,E,,*1E
$IIRMC,020000,A,4740.759,N,12224.339,W,00.0,074,190513,16,E,A*15
$GPRMC,020040.4,A,4740.75912,N,12224.33982,W,000.00,074.7,200513,016.6,E,D*2B
$PGRME,2.4,M,2.4,M,3.4,M*29
$IIVHW,,,,,00.0,N,,*19
$HCHDG,57.5,0.0,E,,*1E
$YXXDR,A,4.4,D,PTCH,A,4.3,D,ROLL*5A
$HCHDG,57.4,0.0,E,,*1F
$GPRMC,020040.6,A,4740.75912,N,12224.33982,W,000.00,074.7,200513,016.6,E,D*29
$GPRMB,A,0.18,L,,N,4741.0622,N,12224.6030,W,0.4,330,-0.00,V*66
$PGRME,2.4,M,2.4,M,3.4,M*29
$HCHDG,57.4,0.0,E,,*1F
$HCHDG,57.4,0.0,E,,*1F
$GPRMC,020040.8,A,4740.75912,N,12224.33982,W,000.00,074.7,200513,016.6,E,D*27
$PGRME,2.4,M,2.4,M,3.4,M*29
$HCHDG,57.4,0.0,E,,*1F
$IIVLW,06312,N,034.6,N*54
$HCHDG,57.4,0.0,E,,*1F
$IIVWR,135,L,02.4,N,,,,*7E
$GPRMC,020041.0,A,4740.75912,N,12224.33982,W,000.00,074.7,200513,016.6,E,D*2E
$PGRME,2.4,M,2.4,M,3.4,M*29
$YXXDR,A,4.4,D,PTCH,A,4.3,D,ROLL*5A
$IIGLL,4740.759,N,12224.339,W,020000,A,A*42
$HCHDG,57.4,0.0,E,,*1F
$IIMTW,+12.5,C*3E
$IIMWV,225,R,02.4,N,A*10
$HCHDG,57.5,0.0,E,,*1E
$IIMWV,222,T,02.8,N,A*1D
$GPRMC,020041.2,A,4740.75912,N,12224.33982,W,000.00,074.7,200513,016.6,E,D*2C
$PGRME,2.4,M,2.4,M,3.4,M*29
$HCHDG,57.5,0.0,E,,*1E
$IIRMB,A,0.18,L,,N   ,,,,,000.4,330,,V,A*24
$HCHDG,57.5,0.0,E,,*1E
$GPRMC,020041.4,A,4740.75912,N,12224.33982,W,000.01,074.7,200513,016.6,E,D*2B
$PGRME,2.4,M,2.4,M,3.4,M*29
$IIRMC,020000,A,4740.759,N,12224.339,W,00.0,074,190513,16,E,A*15
$HCHDG,57.5,0.0,E,,*1E
$YXXDR,A,4.4,D,PTCH,A,4.3,D,ROLL*5A
$PTAK,FFD1,4.3*52
$HCHDG,57.5,0.0,E,,*1E
$PTAK,FFP1,HEEL,@*07
$GPRMC,020041.6,A,4740.75912,N,12224.33982,W,000.00,074.7,200513,016.6,E,D*28
$GPRMB,A,0.18,L,,N,4741.0622,N,12224.6030,W,0.4,330,-0.00,V*66
$PGRME,2.4,M,2.4,M,3.4,M*29
$HCHDG,57.5,0.0,E,,*1E
$HCHDG,57.5,0.0,E,,*1E
$GPRMC,020041.8,A,4740.75912,N,12224.33982,W,000.00,074.7,200513,016.6,E,D*26
$PGRME,2.4,M,2.4,M,3.4,M*29
$HCHDG,57.5,0.0,E,,*1E
$IIVHW,,,,,00.0,N,,*19
$IIVLW,06312,N,034.6,N*54
$HCHDG,57.5,0.0,E,,*1E
$GPRMC,020042.0,A,4740.75912,N,12224.33982,W,000.00,074.7,200513,016.6,E,D*2D
$IIVWR,131,L,02.4,N,,,,*7A
$PGRME,2.4,M,2.4,M,3.4,M*29
$YXXDR,A,4.4,D,PTCH,A,4.3,D,ROLL*5A
$HCHDG,57.5,0.0,E,,*1E
$IIGLL,4740.759,N,12224.339,W,020000,A,A*42
$IIMTW,+12.5,C*3E
$HCHDG,57.5,0.0,E,,*1E
$IIMWV,229,R,02.4,N,A*1C
$GPRMC,020042.2,A,4740.75912,N,12224.33982,W,000.00,074.7,200513,016.6,E,D*2F
$PGRME,2.4,M,2.4,M,3.4,M*29
$IIMWV,225,T,02.4,N,A*16
$HCHDG,57.5,0.0,E,,*1E
$IIRMB,A,0.18,L,,N   ,,,,,000.4,330,,V,A*24
$HCHDG,57.5,0.0,E,,*1E
$GPRMC,020042.4,A,4740.75912,N,12224.33981,W,000.00,074.7,200513,016.6,E,D*2A
$PGRME,2.4,M,2.4,M,3.4,M*29
$HCHDG,57.5,0.0,E,,*1E
$YXXDR,A,4.4,D,PTCH,A,4.3,D,ROLL*5A
$HCHDG,57.5,0.0,E,,*1E
$GPRMC,020042.6,A,4740.75912,N,12224.33981,W,000.00,074.7,200513,016.6,E,D*28
$PGRME,2.4,M,2.4,M,3.4,M*29
$HCHDG,57.5,0.0,E,,*1E
$HCHDG,57.5,0.0,E,,*1E
$GPRMC,020042.8,A,4740.75912,N,12224.33981,W,000.00,074.7,200513,016.6,E,D*26
$GPRMB,A,0.18,L,,N,4741.0622,N,12224.6030,W,0.4,330,-0.00,V*66
$PGRME,2.4,M,2.4,M,3.4,M*29
$HCHDG,57.5,0.0,E,,*1E
$HCHDG,57.5,0.0,E,,*1E
$IIRMC,020000,A,4740.759,N,12224.339,W,00.0,074,190513,16,E,A*15
$GPRMC,020043.0,A,4740.75912,N,12224.33981,W,000.00,074.7,200513,016.6,E,D*2F
$PGRME,2.4,M,2.4,M,3.4,M*29
$YXXDR,A,4.4,D,PTCH,A,4.3,D,ROLL*5A
$PTAK,FFD1,4.3*52
$IIVHW,,,,,00.0,N,,*19
$HCHDG,57.5,0.0,E,,*1E
$IIVLW,06312,N,034.6,N*54
$IIVWR,128,L,02.3,N,,,,*75
$HCHDG,57.5,0.0,E,,*1E
$GPRMC,020043.2,A,4740.75912,N,12224.33981,W,000.00,074.7,200513,016.6,E,D*2D
$PGRME,2.4,M,2.4,M,3.4,M*29
$IIGLL,4740.759,N,12224.339,W,020000,A,A*42
$HCHDG,57.5,0.0,E,,*1E
$IIMTW,+12.5,C*3E
$IIMWV,232,R,02.3,N,A*11
$HCHDG,57.5,0.0,E,,*1E
$IIMWV,229,T,02.4,N,A*1A
$GPRMC,020043.4,A,4740.75912,N,12224.33981,W,000.00,074.7,200513,016.6,E,D*2B
$PGRME,2.4,M,2.4,M,3.4,M*29
$HCHDG,57.5,0.0,E,,*1E
$YXXDR,A,4.4,D,PTCH,A,4.3,D,ROLL*5A
$HCHDG,57.5,0.0,E,,*1E
$GPRMC,020043.6,A,4740.75913,N,12224.33981,W,000.00,074.7,200513,016.6,E,D*28
$PGRME,2.4,M,2.4,M,3.4,M*29
$HCHDG,57.5,0.0,E,,*1E
$HCHDG,57.5,0.0,E,,*1E
$GPRMC,020043.8,A,4740.75913,N,12224.33981,W,000.00,074.7,200513,016.6,E,D*26
$GPRMB,A,0.18,L,,N,4741.0622,N,12224.6030,W,0.4,330,-0.00,V*66
$PGRME,2.4,M,2.4,M,3.4,M*29
$HCHDG,57.5,0.0,E,,*1E
$IIRMB,A,0.18,L,,N   ,,,,,000.4,330,,V,A*24
$HCHDG,57.5,0.0,E,,*1E
$GPRMC,020044.0,A,4740.75913,N,12224.33981,W,000.00,074.7,200513,016.6,E,D*29
$PGRME,2.4,M,2.4,M,3.4,M*29
$PGRMT,GPS 18x-5Hz software ver. 3.20,,,,,,,,*30
$YXXDR,A,4.4,D,PTCH,A,4.3,D,ROLL*5A
$PTAK,FFD1,4.3*52
$IIRMC,020000,A,4740.759,N,12224.339,W,00.0,074,190513,16,E,A*15
$HCHDG,57.5,0.0,E,,*1E
$IIVHW,,,,,00.0,N,,*19
$HCHDG,57.5,0.0,E,,*1E
$IIVLW,06312,N,034.6,N*54
$GPRMC,020044.2,A,4740.75913,N,12224.33981,W,000.00,074.7,200513,016.6,E,D*2B
$PGRME,2.4,M,2.4,M,3.4,M*29
$IIVWR,126,L,02.0,N,,,,*78
$HCHDG,57.5,0.0,E,,*1E
$IIGLL,4740.759,N,12224.339,W,020000,A,A*42
$HCHDG,57.5,0.0,E,,*1E
$IIMTW,+12.5,C*3E
$GPRMC,020044.4,A,4740.75913,N,12224.33980,W,000.00,074.7,200513,016.6,E,D*2C
$PGRME,2.4,M,2.4,M,3.4,M*29
$IIMWV,234,R,02.0,N,A*14
$HCHDG,57.5,0.0,E,,*1E
$YXXDR,A,4.4,D,PTCH,A,4.3,D,ROLL*5A
$HCHDG,57.5,0.0,E,,*1E
$GPRMC,020044.6,A,4740.75913,N,12224.33980,W,000.00,074.7,200513,016.6,E,D*2E
$PGRME,2.4,M,2.4,M,3.4,M*29
$HCHDG,57.4,0.0,E,,*1F
$HCHDG,57.4,0.0,E,,*1F
$GPRMC,020044.8,A,4740.75913,N,12224.33980,W,000.00,074.7,200513,016.6,E,D*20
$PGRME,2.4,M,2.4,M,3.4,M*29
$HCHDG,57.4,0.0,E,,*1F
$IIMWV,234,T,02.0,N,A*12
$HCHDG,57.4,0.0,E,,*1F
$IIRMB,A,0.18,L,,N   ,,,,,000.4,330,,V,A*24
$GPRMC,020045.0,A,4740.75913,N,12224.33980,W,000.00,074.7,200513,016.6,E,D*29
$GPRMB,A,0.18,L,,N,4741.0622,N,12224.6030,W,0.4,330,-0.00,V*66
$PGRME,2.4,M,2.4,M,3.4,M*29
$YXXDR,A,4.4,D,PTCH,A,4.3,D,ROLL*5A
$PTAK,FFD1,4.3*52
$HCHDG,57.4,0.0,E,,*1F
$IIRMC,020000,A,4740.759,N,12224.339,W,00.0,074,190513,16,E,A*15
$HCHDG,57.4,0.0,E,,*1F
$IIVHW,,,,,00.0,N,,*19
$GPRMC,020045.2,A,4740.75913,N,12224.33980,W,000.00,074.7,200513,016.6,E,D*2B
$PGRME,2.4,M,2.4,M,3.4,M*29
$IIVLW,06312,N,034.6,N*54
$HCHDG,57.4,0.0,E,,*1F
$IIVWR,119,L,02.1,N,,,,*75
$HCHDG,57.4,0.0,E,,*1F
$IIGLL,4740.759,N,12224.339,W,020000,A,A*42
$GPRMC,020045.4,A,4740.75913,N,12224.33980,W,000.00,074.7,200513,016.6,E,D*2D
$PGRME,2.4,M,2.4,M,3.4,M*29
$IIMTW,+12.5,C*3E
$HCHDG,57.4,0.0,E,,*1F
$YXXDR,A,4.4,D,PTCH,A,4.3,D,ROLL*5A
$HCHDG,57.4,0.0,E,,*1F
$PTAK,FFP1,HEEL,@*07
$GPRMC,020045.6,A,4740.75913,N,12224.33980,W,000.00,074.7,200513,016.6,E,D*2F
$PGRME,2.4,M,2.4,M,3.4,M*29
$HCHDG,57.4,0.0,E,,*1F
$HCHDG,57.4,0.0,E,,*1F
$GPRMC,020045.8,A,4740.75913,N,12224.33980,W,000.00,074.7,200513,016.6,E,D*21
$PGRME,2.4,M,2.4,M,3.4,M*29
$HCHDG,57.4,0.0,E,,*1F
$IIMWV,245,R,01.8,N,A*19
$IIMWV,241,T,02.1,N,A*11
$HCHDG,57.4,0.0,E,,*1F
$GPRMC,020046.0,A,4740.75913,N,12224.33979,W,000.00,074.7,200513,016.6,E,D*2C
$PGRME,2.4,M,2.4,M,3.4,M*29
$YXXDR,A,4.4,D,PTCH,A,4.3,D,ROLL*5A
$IIRMB,A,0.18,L,,N   ,,,,,000.4,330,,V,A*24
$HCHDG,57.4,0.0,E,,*1F
$HCHDG,57.4,0.0,E,,*1F
$IIRMC,020000,A,4740.759,N,12224.339,W,00.0,074,190513,16,E,A*15
$GPRMC,020046.2,A,4740.75913,N,12224.33979,W,000.00,074.7,200513,016.6,E,D*2E
$GPRMB,A,0.18,L,,N,4741.0622,N,12224.6030,W,0.4,330,-0.00,V*66
$PGRME,2.4,M,2.4,M,3.4,M*29
$IIVHW,,,,,00.0,N,,*19
$HCHDG,57.4,0.0,E,,*1F
$IIVLW,06312,N,034.6,N*54
$IIVWR,115,L,01.8,N,,,,*73
$HCHDG,57.4,0.0,E,,*1F
$GPRMC,020046.4,A,4740.75913,N,12224.33979,W,000.00,074.7,200513,016.6,E,D*28
$PGRME,2.4,M,2.4,M,3.4,M*29
$IIGLL,4740.759,N,12224.339,W,020000,A,A*42
$HCHDG,57.4,0.0,E,,*1F
$YXXDR,A,4.4,D,PTCH,A,4.3,D,ROLL*5A
$PTAK,FFD1,4.3*52
$HCHDG,57.4,0.0,E,,*1F
$GPRMC,020046.6,A,4740.75913,N,12224.33979,W,000.01,074.7,200513,016.6,E,D*2B
$PGRME,2.4,M,2.4,M,3.4,M*29
$HCHDG,57.4,0.0,E,,*1F
$HCHDG,57.4,0.0,E,,*1F
$GPRMC,020046.8,A,4740.75913,N,12224.33979,W,000.00,074.7,200513,016.6,E,D*24
$PGRME,2.4,M,2.4,M,3.4,M*29
$HCHDG,57.4,0.0,E,,*1F
$IIMTW,+12.5,C*3E
$IIMWV,247,R,01.9,N,A*1A
$HCHDG,57.4,0.0,E,,*1F
$IIMWV,245,T,01.8,N,A*1F
$GPRMC,020047.0,A,4740.75913,N,12224.33979,W,000.00,074.7,200513,016.6,E,D*2D
$PGRME,2.4,M,2.4,M,3.4,M*29
$YXXDR,A,4.4,D,PTCH,A,4.3,D,ROLL*5A
$HCHDG,57.4,0.0,E,,*1F
$IIRMB,A,0.18,L,,N   ,,,,,000.4,330,,V,A*24
$HCHDG,57.4,0.0,E,,*1F
$GPRMC,020047.2,A,4740.75913,N,12224.33979,W,000.00,074.7,200513,016.6,E,D*2F
$PGRME,2.4,M,2.4,M,3.4,M*29
$IIRMC,020000,A,4740.759,N,12224.339,W,00.0,074,190513,16,E,A*15
$HCHDG,57.4,0.0,E,,*1F
$IIVHW,,,,,00.0,N,,*19
$IIVLW,06312,N,034.6,N*54
$HCHDG,57.4,0.0,E,,*1F
$IIVWR,113,L,01.9,N,,,,*74
$GPRMC,020047.4,A,4740.75913,N,12224.33979,W,000.00,074.7,200513,016.6,E,D*29
$GPRMB,A,0.18,L,,N,4741.0622,N,12224.6030,W,0.4,330,-0.00,V*66
$PGRME,2.4,M,2.4,M,3.4,M*29
$HCHDG,57.4,0.0,E,,*1F
$YXXDR,A,4.4,D,PTCH,A,4.3,D,ROLL*5A
$PTAK,FFD1,4.3*52
$HCHDG,57.4,0.0,E,,*1F
$GPRMC,020047.6,A,4740.75913,N,12224.33978,W,000.00,074.7,200513,016.6,E,D*2A
$PGRME,2.4,M,2.4,M,3.4,M*29
$HCHDG,57.4,0.0,E,,*1F
$HCHDG,57.4,0.0,E,,*1F
$GPRMC,020047.8,A,4740.75913,N,12224.33978,W,000.00,074.7,200513,016.6,E,D*24
$PGRME,2.4,M,2.4,M,3.4,M*29
$HCHDG,57.4,0.0,E,,*1F
$IIGLL,4740.759,N,12224.339,W,020000,A,A*42
$HCHDG,57.4,0.0,E,,*1F
$IIMTW,+12.5,C*3E
$GPRMC,020048.0,A,4740.75913,N,12224.33978,W,000.00,074.7,200513,016.6,E,D*23
$PGRME,2.4,M,2.4,M,3.4,M*29
$YXXDR,A,4.4,D,PTCH,A,4.3,D,ROLL*5A
$IIMWV,250,R,01.9,N,A*1C
$HCHDG,57.4,0.0,E,,*1F
$IIMWV,247,T,01.9,N,A*1C
$HCHDG,57.4,0.0,E,,*1F
$IIRMB,A,0.18,L,,N   ,,,,,000.4,330,,V,A*24
$GPRMC,020048.2,A,4740.75913,N,12224.33978,W,000.00,074.7,200513,016.6,E,D*21
$PGRME,2.4,M,2.4,M,3.4,M*29
$HCHDG,57.4,0.0,E,,*1F
$IIRMC,020000,A,4740.759,N,12224.339,W,00.0,074,190513,16,E,A*15
$HCHDG,57.4,0.0,E,,*1F
$IIVHW,,,,,00.0,N,,*19
$GPRMC,020048.4,A,4740.75913,N,12224.33978,W,000.00,074.7,200513,016.6,E,D*27
$PGRME,2.4,M,2.4,M,3.4,M*29
$IIVLW,06312,N,034.6,N*54
$HCHDG,57.4,0.0,E,,*1F
$YXXDR,A,4.4,D,PTCH,A,4.3,D,ROLL*5A
$HCHDG,57.4,0.0,E,,*1F
$GPRMC,020048.6,A,4740.75913,N,12224.33978,W,000.00,074.7,200513,016.6,E,D*25
$GPRMB,A,0.18,L,,N,4741.0622,N,12224.6030,W,0.4,330,-0.00,V*66
$PGRME,2.4,M,2.4,M,3.4,M*29
$HCHDG,57.4,0.0,E,,*1F
$HCHDG,57.4,0.0,E,,*1F
$GPRMC,020048.8,A,4740.75913,N,12224.33978,W,000.01,074.7,200513,016.6,E,D*2A
$PGRME,2.4,M,2.4,M,3.4,M*29
$HCHDG,57.4,0.0,E,,*1F
$HCHDG,57.4,0.0,E,,*1F
$GPRMC,020049.0,A,4740.75913,N,12224.33978,W,000.00,074.7,200513,016.6,E,D*22
$PGRME,2.4,M,2.4,M,3.4,M*29
$YXXDR,A,4.4,D,PTCH,A,4.3,D,ROLL*5A
$PTAK,FFD1,4.3*52
$HCHDG,57.4,0.0,E,,*1F
$HCHDG,57.4,0.0,E,,*1F
$GPRMC,020049.2,A,4740.75913,N,12224.33977,W,000.01,074.7,200513,016.6,E,D*2E
$PGRME,2.4,M,2.4,M,3.4,M*29
$HCHDG,57.4,0.0,E,,*1F
$HCHDG,57.4,0.0,E,,*1F
$GPRMC,020049.4,A,4740.75913,N,12224.33977,W,000.01,074.7,200513,016.6,E,D*28
$PGRME,2.4,M,2.4,M,3.4,M*29
$HCHDG,57.4,0.0,E,,*1F
$YXXDR,A,4.4,D,PTCH,A,4.3,D,ROLL*5A
$HCHDG,57.4,0.0,E,,*1F
$GPRMC,020049.6,A,4740.75913,N,12224.33977,W,000.01,074.7,200513,016.6,E,D*2A
$GPRMB,A,0.18,L,,N,4741.0622,N,12224.6030,W,0.4,330,-0.00,V*66
$PTAK,FFP1,HEEL,@*07
$PGRME,2.4,M,2.4,M,3.4,M*29
$HCHDG,57.4,0.0,E,,*1F
$HCHDG,57.4,0.0,E,,*1F
$GPRMC,020049.8,A,4740.75913,N,12224.33977,W,000.00,074.7,200513,016.6,E,D*25
$PGRME,2.4,M,2.4,M,3.4,M*29
$HCHDG,57.4,0.0,E,,*1F
$IIVWR,112,L,02.1,N,,,,*7E
$HCHDG,57.4,0.0,E,,*1F
$IIGLL,4740.759,N,12224.339,W,020000,A,A*42
$GPRMC,020050.0,A,4740.75913,N,12224.33977,W,000.01,074.7,200513,016.6,E,D*24
$PGRME,2.4,M,2.4,M,3.4,M*29
$YXXDR,A,4.4,D,PTCH,A,4.3,D,ROLL*5A
$PTAK,FFD1,4.3*52
$IIMTW,+12.5,C*3E
$HCHDG,57.4,0.0,E,,*1F
$IIMWV,248,R,02.1,N,A*1E
$IIMWV,250,T,01.9,N,A*1A
$HCHDG,57.4,0.0,E,,*1F
$GPRMC,020050.2,A,4740.75913,N,12224.33977,W,000.01,074.7,200513,016.6,E,D*26
$PGRME,2.4,M,2.4,M,3.4,M*29
$IIRMB,A,0.18,L,,N   ,,,,,000.4,330,,V,A*24
$HCHDG,57.4,0.0,E,,*1F
$HCHDG,57.4,0.0,E,,*1F
$IIRMC,020000,A,4740.759,N,12224.339,W,00.0,074,190513,16,E,A*15
$GPRMC,020050.4,A,4740.75913,N,12224.33976,W,000.00,074.7,200513,016.6,E,D*20
$IIVHW,,,,,00.0,N,,*19
