$GPRMB,A,0.11,L,,N,4741.0622,N,12224.6030,W,0.3,336,0.00,V*43
$PGRME,2.4,M,2.4,M,3.4,M*29
$HCHDG,267.3,0.0,E,,*29
$PTAK,FFP1,HEEL,@*07
$YXXDR,A,5.4,D,PTCH,A,3.8,D,ROLL*57
$PTAK,FFD1,3.8*5E
$HCHDG,267.3,0.0,E,,*29
$GPRMC,050000.8,A,4740.81634,N,12224.44022,W,000.00,287.3,190513,016.6,E,D*27
$PGRME,2.4,M,2.4,M,3.4,M*29
$HCHDG,267.3,0.0,E,,*29
$HCHDG,267.3,0.0,E,,*29
$GPRMC,050001.0,A,4740.81634,N,12224.44022,W,000.00,287.3,190513,016.6,E,D*2E
$PGRME,2.4,M,2.4,M,3.4,M*29
$HCHDG,267.3,0.0,E,,*29
$HCHDG,267.3,0.0,E,,*29
$GPRMC,050001.2,A,4740.81634,N,12224.44022,W,000.01,287.3,190513,016.6,E,D*2D
$PGRME,2.4,M,2.4,M,3.4,M*29
$YXXDR,A,5.4,D,PTCH,A,3.8,D,ROLL*57
$HCHDG,267.3,0.0,E,,*29
$HCHDG,267.3,0.0,E,,*29
$GPRMC,050001.4,A,4740.81633,N,12224.44022,W,000.00,287.3,190513,016.6,E,D*2D
$PGRME,2.4,M,2.4,M,3.4,M*29
$HCHDG,267.3,0.0,E,,*29
$HCHDG,267.3,0.0,E,,*29
$GPRMC,050001.6,A,4740.81633,N,12224.44022,W,000.00,287.3,190513,016.6,E,D*2F
$PGRME,2.4,M,2.4,M,3.4,M*29
$HCHDG,267.3,0.0,E,,*29
$YXXDR,A,5.4,D,PTCH,A,3.8,D,ROLL*57
$HCHDG,267.3,0.0,E,,*29
$GPRMC,050001.8,A,4740.81633,N,12224.44022,W,000.00,287.3,190513,016.6,E,D*21
$GPRMB,A,0.11,L,,N,4741.0622,N,12224.6030,W,0.3,336,0.00,V*43
$PGRME,2.4,M,2.4,M,3.4,M*29
$HCHDG,267.3,0.0,E,,*29
$HCHDG,267.3,0.0,E,,*29
$GPRMC,050002.0,A,4740.81633,N,12224.44022,W,000.00,287.3,190513,016.6,E,D*2A
$PGRME,2.4,M,2.4,M,3.4,M*29
$HCHDG,267.3,0.0,E,,*29
$HCHDG,267.4,0.0,E,,*2E
$GPRMC,050002.2,A,4740.81633,N,12224.44022,W,000.01,287.3,190513,016.6,E,D*29
$PGRME,2.4,M,2.4,M,3.4,M*29
$YXXDR,A,5.4,D,PTCH,A,3.8,D,ROLL*57
$PTAK,FFD1,3.8*5E
$HCHDG,267.4,0.0,E,,*2E
$HCHDG,267.4,0.0,E,,*2E
$GPRMC,050002.4,A,4740.81633,N,12224.44022,W,000.00,287.3,190513,016.6,E,D*2E
$PGRME,2.4,M,2.4,M,3.4,M*29
$HCHDG,267.4,0.0,E,,*2E
$HCHDG,267.4,0.0,E,,*2E
$GPRMC,050002.6,A,4740.81633,N,12224.44022,W,000.00,287.3,190513,016.6,E,D*2C
$PGRME,2.4,M,2.4,M,3.4,M*29
$HCHDG,267.4,0.0,E,,*2E
$YXXDR,A,5.4,D,PTCH,A,3.8,D,ROLL*57
$HCHDG,267.4,0.0,E,,*2E
$GPRMC,050002.8,A,4740.81633,N,12224.44021,W,000.01,287.3,190513,016.6,E,D*20
$PGRME,2.4,M,2.4,M,3.4,M*29
$HCHDG,267.4,0.0,E,,*2E
$HCHDG,267.4,0.0,E,,*2E
$GPRMC,050003.0,A,4740.81632,N,12224.44021,W,000.00,287.3,190513,016.6,E,D*29
$GPRMB,A,0.11,L,,N,4741.0622,N,12224.6030,W,0.3,336,0.00,V*43
$PGRME,2.4,M,2.4,M,3.4,M*29
$HCHDG,267.4,0.0,E,,*2E
$HCHDG,267.4,0.0,E,,*2E
$GPRMC,050003.2,A,4740.81632,N,12224.44021,W,000.01,287.3,190513,016.6,E,D*2A
$PGRME,2.4,M,2.4,M,3.4,M*29
$YXXDR,A,5.4,D,PTCH,A,3.8,D,ROLL*57
$HCHDG,267.4,0.0,E,,*2E
$HCHDG,267.4,0.0,E,,*2E
$GPRMC,050003.4,A,4740.81632,N,12224.44021,W,000.00,287.3,190513,016.6,E,D*2D
$PGRME,2.4,M,2.4,M,3.4,M*29
$HCHDG,267.3,0.0,E,,*29
$HCHDG,267.3,0.0,E,,*29
$GPRMC,050003.6,A,4740.81632,N,12224.44021,W,000.01,287.3,190513,016.6,E,D*2E
$PGRME,2.4,M,2.4,M,3.4,M*29
$HCHDG,267.3,0.0,E,,*29
$YXXDR,A,5.4,D,PTCH,A,3.8,D,ROLL*57
$PTAK,FFD1,3.8*5E
$HCHDG,267.3,0.0,E,,*29
$GPRMC,050003.8,A,4740.81632,N,12224.44021,W,000.00,287.3,190513,016.6,E,D*21
$PGRME,2.4,M,2.4,M,3.4,M*29
$HCHDG,267.3,0.0,E,,*29
$HCHDG,267.3,0.0,E,,*29
$GPRMC,050004.0,A,4740.81632,N,12224.44021,W,000.00,287.3,190513,016.6,E,D*2E
$PGRME,2.4,M,2.4,M,3.4,M*29
$HCHDG,267.4,0.0,E,,*2E
$HCHDG,267.4,0.0,E,,*2E
$GPRMC,050004.2,A,4740.81632,N,12224.44021,W,000.00,287.3,190513,016.6,E,D*2C
$GPRMB,A,0.11,L,,N,4741.0622,N,12224.6030,W,0.3,336,0.00,V*43
$PGRME,2.4,M,2.4,M,3.4,M*29
$YXXDR,A,5.5,D,PTCH,A,3.8,D,ROLL*56
$HCHDG,267.4,0.0,E,,*2E
$HCHDG,267.5,0.0,E,,*2F
$GPRMC,050004.4,A,4740.81632,N,12224.44021,W,000.00,287.3,190513,016.6,E,D*2A
$PGRME,2.4,M,2.4,M,3.4,M*29
$HCHDG,267.5,0.0,E,,*2F
$HCHDG,267.5,0.0,E,,*2F
$GPRMC,050004.6,A,4740.81631,N,12224.44020,W,000.00,287.3,190513,016.6,E,D*2A
$PGRME,2.4,M,2.4,M,3.4,M*29
$HCHDG,267.6,0.0,E,,*2C
$PTAK,FFP1,HEEL,@*07
$YXXDR,A,5.6,D,PTCH,A,3.6,D,ROLL*5B
$PTAK,FFD1,3.6*50
$HCHDG,267.5,0.0,E,,*2F
$GPRMC,050004.8,A,4740.81631,N,12224.44020,W,000.00,287.3,190513,016.6,E,D*24
$PGRME,2.4,M,2.4,M,3.4,M*29
$HCHDG,267.5,0.0,E,,*2F
$HCHDG,267.5,0.0,E,,*2F
$GPRMC,050005.0,A,4740.81631,N,12224.44020,W,000.00,287.3,190513,016.6,E,D*2D
$PGRME,2.4,M,2.4,M,3.4,M*29
$HCHDG,267.5,0.0,E,,*2F
$HCHDG,267.5,0.0,E,,*2F
$GPRMC,050005.2,A,4740.81631,N,12224.44020,W,000.00,287.3,190513,016.6,E,D*2F
$PGRME,2.4,M,2.4,M,3.4,M*29
$YXXDR,A,5.5,D,PTCH,A,3.7,D,ROLL*59
$HCHDG,267.5,0.0,E,,*2F
$HCHDG,267.5,0.0,E,,*2F
$GPRMC,050005.4,A,4740.81631,N,12224.44020,W,000.00,287.3,190513,016.6,E,D*29
$GPRMB,A,0.11,L,,N,4741.0622,N,12224.6030,W,0.3,336,0.00,V*43
$PGRME,2.4,M,2.4,M,3.4,M*29
$HCHDG,267.5,0.0,E,,*2F
$HCHDG,267.5,0.0,E,,*2F
$GPRMC,050005.6,A,4740.81631,N,12224.44020,W,000.00,287.3,190513,016.6,E,D*2B
$PGRME,2.4,M,2.4,M,3.4,M*29
$HCHDG,267.5,0.0,E,,*2F
$YXXDR,A,5.4,D,PTCH,A,3.8,D,ROLL*57
$HCHDG,267.5,0.0,E,,*2F
$GPRMC,050005.8,A,4740.81631,N,12224.44020,W,000.01,287.3,190513,016.6,E,D*24
$PGRME,2.4,M,2.4,M,3.4,M*29
$HCHDG,267.5,0.0,E,,*2F
$HCHDG,267.5,0.0,E,,*2F
$GPRMC,050006.0,A,4740.81631,N,12224.44020,W,000.00,287.3,190513,016.6,E,D*2E
$PGRME,2.4,M,2.4,M,3.4,M*29
$HCHDG,267.5,0.0,E,,*2F
$HCHDG,267.5,0.0,E,,*2F
$GPRMC,050006.2,A,4740.81630,N,12224.44020,W,000.00,287.3,190513,016.6,E,D*2D
$PGRME,2.4,M,2.4,M,3.4,M*29
$YXXDR,A,5.5,D,PTCH,A,3.7,D,ROLL*59
$PTAK,FFD1,3.7*51
$HCHDG,267.5,0.0,E,,*2F
$HCHDG,267.4,0.0,E,,*2E
$GPRMC,050006.4,A,4740.81630,N,12224.44019,W,000.00,287.3,190513,016.6,E,D*21
$PGRME,2.4,M,2.4,M,3.4,M*29
$HCHDG,267.4,0.0,E,,*2E
$HCHDG,267.3,0.0,E,,*29
$GPRMC,050006.6,A,4740.81630,N,12224.44019,W,000.01,287.3,190513,016.6,E,D*22
$GPRMB,A,0.11,L,,N,4741.0622,N,12224.6030,W,0.3,336,0.01,V*42
$PGRME,2.4,M,2.4,M,3.4,M*29
$HCHDG,267.3,0.0,E,,*29
$YXXDR,A,5.5,D,PTCH,A,3.7,D,ROLL*59
$HCHDG,267.3,0.0,E,,*29
$GPRMC,050006.8,A,4740.81630,N,12224.44019,W,000.01,287.3,190513,016.6,E,D*2C
$PGRME,2.4,M,2.4,M,3.4,M*29
$HCHDG,267.3,0.0,E,,*29
$HCHDG,267.3,0.0,E,,*29
$GPRMC,050007.0,A,4740.81630,N,12224.44019,W,000.00,287.3,190513,016.6,E,D*24
$PGRME,2.4,M,2.4,M,3.4,M*29
$HCHDG,267.3,0.0,E,,*29
$HCHDG,267.3,0.0,E,,*29
$GPRMC,050007.2,A,4740.81630,N,12224.44019,W,000.01,287.3,190513,016.6,E,D*27
$PGRME,2.4,M,2.4,M,3.4,M*29
$YXXDR,A,5.5,D,PTCH,A,3.7,D,ROLL*59
$HCHDG,267.3,0.0,E,,*29
$HCHDG,267.3,0.0,E,,*29
$GPRMC,050007.4,A,4740.81630,N,12224.44019,W,000.00,287.3,190513,016.6,E,D*20
$PGRME,2.4,M,2.4,M,3.4,M*29
$HCHDG,267.3,0.0,E,,*29
$HCHDG,267.3,0.0,E,,*29
$GPRMC,050007.6,A,4740.81630,N,12224.44019,W,000.00,287.3,190513,016.6,E,D*22
$PGRME,2.4,M,2.4,M,3.4,M*29
$HCHDG,267.3,0.0,E,,*29
$YXXDR,A,5.5,D,PTCH,A,3.7,D,ROLL*59
$PTAK,FFD1,3.7*51
$HCHDG,267.3,0.0,E,,*29
$GPRMC,050007.8,A,4740.81630,N,12224.44019,W,000.01,287.3,190513,016.6,E,D*2D
$GPRMB,A,0.11,L,,N,4741.0622,N,12224.6030,W,0.3,336,0.01,V*42
$PGRME,2.4,M,2.4,M,3.4,M*29
$HCHDG,267.3,0.0,E,,*29
$HCHDG,267.3,0.0,E,,*29
$GPRMC,050008.0,A,4740.81630,N,12224.44018,W,000.00,287.3,190513,016.6,E,D*2A
$PGRME,2.4,M,2.4,M,3.4,M*29
$HCHDG,267.3,0.0,E,,*29
$HCHDG,267.3,0.0,E,,*29
$GPRMC,050008.2,A,4740.81630,N,12224.44018,W,000.00,287.3,190513,016.6,E,D*28
$PGRME,2.4,M,2.4,M,3.4,M*29
$YXXDR,A,5.5,D,PTCH,A,3.7,D,ROLL*59
$HCHDG,267.3,0.0,E,,*29
$HCHDG,267.3,0.0,E,,*29
$GPRMC,050008.4,A,4740.81629,N,12224.44018,W,000.00,287.3,190513,016.6,E,D*26
$PGRME,2.4,M,2.4,M,3.4,M*29
$HCHDG,267.3,0.0,E,,*29
$HCHDG,267.3,0.0,E,,*29
$GPRMC,050008.6,A,4740.81629,N,12224.44018,W,000.00,287.3,190513,016.6,E,D*24
$PGRME,2.4,M,2.4,M,3.4,M*29
$HCHDG,267.3,0.0,E,,*29
$YXXDR,A,5.6,D,PTCH,A,3.6,D,ROLL*5B
$PTAK,FFD1,3.6*50
$HCHDG,267.3,0.0,E,,*29
$GPRMC,050008.8,A,4740.81629,N,12224.44018,W,000.01,287.3,190513,016.6,E,D*2B
$PGRME,2.4,M,2.4,M,3.4,M*29
$HCHDG,267.3,0.0,E,,*29
$PTAK,FFP1,HEEL,@*07
$HCHDG,267.3,0.0,E,,*29
$GPRMC,050009.0,A,4740.81629,N,12224.44018,W,000.00,287.3,190513,016.6,E,D*23
$GPRMB,A,0.11,L,,N,4741.0622,N,12224.6030,W,0.3,336,0.00,V*43
$PGRME,2.4,M,2.4,M,3.4,M*29
$HCHDG,267.3,0.0,E,,*29
$HCHDG,267.3,0.0,E,,*29
$GPRMC,050009.2,A,4740.81629,N,12224.44018,W,000.00,287.3,190513,016.6,E,D*21
$PGRME,2.4,M,2.4,M,3.4,M*29
$YXXDR,A,5.5,D,PTCH,A,3.7,D,ROLL*59
$HCHDG,267.3,0.0,E,,*29
$HCHDG,267.3,0.0,E,,*29
$GPRMC,050009.4,A,4740.81629,N,12224.44018,W,000.01,287.3,190513,016.6,E,D*26
$PGRME,2.4,M,2.4,M,3.4,M*29
$HCHDG,267.3,0.0,E,,*29
$HCHDG,267.3,0.0,E,,*29
$GPRMC,050009.6,A,4740.81629,N,12224.44018,W,000.00,287.3,190513,016.6,E,D*25
$PGRME,2.4,M,2.4,M,3.4,M*29
$HCHDG,267.3,0.0,E,,*29
$YXXDR,A,5.5,D,PTCH,A,3.7,D,ROLL*59
$PTAK,FFD1,3.7*51
$HCHDG,267.3,0.0,E,,*29
$GPRMC,050009.8,A,4740.81629,N,12224.44018,W,000.00,287.3,190513,016.6,E,D*2B
$PGRME,2.4,M,2.4,M,3.4,M*29
$HCHDG,267.3,0.0,E,,*29
$HCHDG,267.3,0.0,E,,*29
$GPRMC,050010.0,A,4740.81629,N,12224.44018,W,000.00,287.3,190513,016.6,E,D*2B
$PGRME,2.4,M,2.4,M,3.4,M*29
$HCHDG,267.3,0.0,E,,*29
$HCHDG,267.3,0.0,E,,*29
$GPRMC,050010.2,A,4740.81629,N,12224.44018,W,000.01,287.3,190513,016.6,E,D*28
$GPRMB,A,0.11,L,,N,4741.0622,N,12224.6030,W,0.3,336,0.01,V*42
$PGRME,2.4,M,2.4,M,3.4,M*29
$YXXDR,A,5.4,D,PTCH,A,3.8,D,ROLL*57
$HCHDG,267.3,0.0,E,,*29
$HCHDG,267.3,0.0,E,,*29
$GPRMC,050010.4,A,4740.81628,N,12224.44018,W,000.01,287.3,190513,016.6,E,D*2F
$PGRME,2.4,M,2.4,M,3.4,M*29
$HCHDG,267.3,0.0,E,,*29
$HCHDG,267.2,0.0,E,,*28
$GPRMC,050010.6,A,4740.81628,N,12224.44018,W,000.01,287.3,190513,016.6,E,D*2D
$PGRME,2.4,M,2.4,M,3.4,M*29
$HCHDG,267.2,0.0,E,,*28
$YXXDR,A,5.4,D,PTCH,A,3.8,D,ROLL*57
$HCHDG,267.2,0.0,E,,*28
$GPRMC,050010.8,A,4740.81628,N,12224.44018,W,000.01,287.3,190513,016.6,E,D*23
$PGRME,2.4,M,2.4,M,3.4,M*29
$HCHDG,267.2,0.0,E,,*28
$HCHDG,267.2,0.0,E,,*28
$GPRMC,050011.0,A,4740.81628,N,12224.44017,W,000.01,287.3,190513,016.6,E,D*25
$PGRME,2.4,M,2.4,M,3.4,M*29
$HCHDG,267.2,0.0,E,,*28
$HCHDG,267.2,0.0,E,,*28
$GPRMC,050011.2,A,4740.81628,N,12224.44017,W,000.01,287.3,190513,016.6,E,D*27
$PGRME,2.4,M,2.4,M,3.4,M*29
$YXXDR,A,5.4,D,PTCH,A,3.8,D,ROLL*57
$PTAK,FFD1,3.8*5E
$HCHDG,267.2,0.0,E,,*28
$HCHDG,267.2,0.0,E,,*28
$GPRMC,050011.4,A,4740.81628,N,12224.44017,W,000.00,287.3,190513,016.6,E,D*20
$GPRMB,A,0.11,L,,N,4741.0622,N,12224.6030,W,0.3,336,0.00,V*43
$PGRME,2.4,M,2.4,M,3.4,M*29
$HCHDG,267.2,0.0,E,,*28
$HCHDG,267.2,0.0,E,,*28
$GPRMC,050011.6,A,4740.81628,N,12224.44017,W,000.01,287.3,190513,016.6,E,D*23
$PGRME,2.4,M,2.4,M,3.4,M*29
$HCHDG,267.2,0.0,E,,*28
$YXXDR,A,5.4,D,PTCH,A,3.8,D,ROLL*57
$HCHDG,267.2,0.0,E,,*28
$GPRMC,050011.8,A,4740.81628,N,12224.44017,W,000.01,287.3,190513,016.6,E,D*2D
$PGRME,2.4,M,2.4,M,3.4,M*29
$HCHDG,267.2,0.0,E,,*28
$HCHDG,267.2,0.0,E,,*28
$GPRMC,050012.0,A,4740.81628,N,12224.44017,W,000.00,287.3,190513,016.6,E,D*27
$PGRME,2.4,M,2.4,M,3.4,M*29
$HCHDG,267.2,0.0,E,,*28
$HCHDG,267.2,0.0,E,,*28
$GPRMC,050012.2,A,4740.81628,N,12224.44017,W,000.00,287.3,190513,016.6,E,D*25
$PGRME,2.4,M,2.4,M,3.4,M*29
$YXXDR,A,5.5,D,PTCH,A,3.7,D,ROLL*59
$HCHDG,267.2,0.0,E,,*28
$HCHDG,267.2,0.0,E,,*28
$GPRMC,050012.4,A,4740.81628,N,12224.44017,W,000.00,287.3,190513,016.6,E,D*23
$PGRME,2.4,M,2.4,M,3.4,M*29
$HCHDG,267.2,0.0,E,,*28
$HCHDG,267.2,0.0,E,,*28
$GPRMC,050012.6,A,4740.81627,N,12224.44017,W,000.00,287.3,190513,016.6,E,D*2E
$GPRMB,A,0.11,L,,N,4741.0622,N,12224.6030,W,0.3,336,0.00,V*43
$PGRME,2.4,M,2.4,M,3.4,M*29
$HCHDG,267.2,0.0,E,,*28
$YXXDR,A,5.4,D,PTCH,A,3.8,D,ROLL*57
$PTAK,FFD1,3.8*5E
$HCHDG,267.2,0.0,E,,*28
$GPRMC,050012.8,A,4740.81627,N,12224.44017,W,000.00,287.3,190513,016.6,E,D*20
$PGRME,2.4,M,2.4,M,3.4,M*29
$HCHDG,267.2,0.0,E,,*28
$PTAK,FFP1,HEEL,@*07
$HCHDG,267.2,0.0,E,,*28
$GPRMC,050013.0,A,4740.81627,N,12224.44017,W,000.00,287.3,190513,016.6,E,D*29
$PGRME,2.4,M,2.4,M,3.4,M*29
$HCHDG,267.2,0.0,E,,*28
$HCHDG,267.2,0.0,E,,*28
$GPRMC,050013.2,A,4740.81627,N,12224.44017,W,000.00,287.3,190513,016.6,E,D*2B
$PGRME,2.4,M,2.4,M,3.4,M*29
$YXXDR,A,5.4,D,PTCH,A,3.8,D,ROLL*57
$HCHDG,267.2,0.0,E,,*28
$HCHDG,267.2,0.0,E,,*28
$GPRMC,050013.4,A,4740.81627,N,12224.44017,W,000.00,287.3,190513,016.6,E,D*2D
$PGRME,2.4,M,2.4,M,3.4,M*29
$HCHDG,267.2,0.0,E,,*28
$HCHDG,267.2,0.0,E,,*28
$GPRMC,050013.6,A,4740.81627,N,12224.44017,W,000.00,287.3,190513,016.6,E,D*2F
$PGRME,2.4,M,2.4,M,3.4,M*29
$HCHDG,267.2,0.0,E,,*28
$YXXDR,A,5.4,D,PTCH,A,3.8,D,ROLL*57
$HCHDG,267.2,0.0,E,,*28
$GPRMC,050013.8,A,4740.81627,N,12224.44016,W,000.00,287.3,190513,016.6,E,D*20
$GPRMB,A,0.11,L,,N,4741.0622,N,12224.6030,W,0.3,336,0.00,V*43
$PGRME,2.4,M,2.4,M,3.4,M*29
$HCHDG,267.3,0.0,E,,*29
$HCHDG,267.3,0.0,E,,*29
$GPRMC,050014.0,A,4740.81627,N,12224.44016,W,000.00,287.3,190513,016.6,E,D*2F
$PGRME,2.4,M,2.4,M,3.4,M*29
$HCHDG,267.3,0.0,E,,*29
$HCHDG,267.3,0.0,E,,*29
$GPRMC,050014.2,A,4740.81627,N,12224.44016,W,000.00,287.3,190513,016.6,E,D*2D
$PGRME,2.4,M,2.4,M,3.4,M*29
$YXXDR,A,5.4,D,PTCH,A,3.8,D,ROLL*57
$PTAK,FFD1,3.8*5E
$HCHDG,267.3,0.0,E,,*29
$HCHDG,267.4,0.0,E,,*2E
$GPRMC,050014.4,A,4740.81627,N,12224.44016,W,000.00,287.3,190513,016.6,E,D*2B
$PGRME,2.4,M,2.4,M,3.4,M*29
$HCHDG,267.4,0.0,E,,*2E
$HCHDG,267.4,0.0,E,,*2E
$GPRMC,050014.6,A,4740.81627,N,12224.44016,W,000.00,287.3,190513,016.6,E,D*29
$PGRME,2.4,M,2.4,M,3.4,M*29
$HCHDG,267.4,0.0,E,,*2E
$YXXDR,A,5.4,D,PTCH,A,3.8,D,ROLL*57
$HCHDG,267.4,0.0,E,,*2E
$GPRMC,050014.8,A,4740.81627,N,12224.44016,W,000.00,287.3,190513,016.6,E,D*27
$PGRME,2.4,M,2.4,M,3.4,M*29
$HCHDG,267.4,0.0,E,,*2E
$HCHDG,267.4,0.0,E,,*2E
$GPRMC,050015.0,A,4740.81627,N,12224.44016,W,000.00,287.3,190513,016.6,E,D*2E
$GPRMB,A,0.11,L,,N,4741.0622,N,12224.6030,W,0.3,336,0.00,V*43
$PGRME,2.4,M,2.4,M,3.4,M*29
$HCHDG,267.4,0.0,E,,*2E
$HCHDG,267.4,0.0,E,,*2E
$GPRMC,050015.2,A,4740.81627,N,12224.44016,W,000.00,287.3,190513,016.6,E,D*2C
$PGRME,2.4,M,2.4,M,3.4,M*29
$YXXDR,A,5.4,D,PTCH,A,3.8,D,ROLL*57
$HCHDG,267.4,0.0,E,,*2E
$HCHDG,267.5,0.0,E,,*2F
$GPRMC,050015.4,A,4740.81627,N,12224.44016,W,000.00,287.3,190513,016.6,E,D*2A
$PGRME,2.4,M,2.4,M,3.4,M*29
$HCHDG,267.4,0.0,E,,*2E
$HCHDG,267.4,0.0,E,,*2E
$GPRMC,050015.6,A,4740.81627,N,12224.44016,W,000.00,287.3,190513,016.6,E,D*28
$PGRME,2.4,M,2.4,M,3.4,M*29
$HCHDG,267.4,0.0,E,,*2E
$YXXDR,A,5.4,D,PTCH,A,3.8,D,ROLL*57
$PTAK,FFD1,3.8*5E
$HCHDG,267.4,0.0,E,,*2E
$GPRMC,050015.8,A,4740.81627,N,12224.44015,W,000.00,287.3,190513,016.6,E,D*25
$PGRME,2.4,M,2.4,M,3.4,M*29
$HCHDG,267.4,0.0,E,,*2E
$HCHDG,267.4,0.0,E,,*2E
$GPRMC,050016.0,A,4740.81627,N,12224.44015,W,000.00,287.3,190513,016.6,E,D*2E
$PGRME,2.4,M,2.4,M,3.4,M*29
$HCHDG,267.4,0.0,E,,*2E
$HCHDG,267.4,0.0,E,,*2E
$GPRMC,050016.2,A,4740.81626,N,12224.44015,W,000.00,287.3,190513,016.6,E,D*2D
$GPRMB,A,0.11,L,,N,4741.0622,N,12224.6030,W,0.3,336,0.00,V*43
$PGRME,2.4,M,2.4,M,3.4,M*29
$YXXDR,A,5.4,D,PTCH,A,3.8,D,ROLL*57
$HCHDG,267.4,0.0,E,,*2E
$HCHDG,267.4,0.0,E,,*2E
$GPRMC,050016.4,A,4740.81626,N,12224.44016,W,000.00,287.3,190513,016.6,E,D*28
$PGRME,2.4,M,2.4,M,3.4,M*29
$HCHDG,267.4,0.0,E,,*2E
$HCHDG,267.4,0.0,E,,*2E
$GPRMC,050016.6,A,4740.81626,N,12224.44016,W,000.00,287.3,190513,016.6,E,D*2A
$PGRME,2.4,M,2.4,M,3.4,M*29
$HCHDG,267.4,0.0,E,,*2E
$YXXDR,A,5.4,D,PTCH,A,3.8,D,ROLL*57
$PTAK,FFD1,3.8*5E
$HCHDG,267.4,0.0,E,,*2E
$GPRMC,050016.8,A,4740.81626,N,12224.44015,W,000.00,287.3,190513,016.6,E,D*27
$PGRME,2.4,M,2.4,M,3.4,M*29
$HCHDG,267.4,0.0,E,,*2E
$HCHDG,267.4,0.0,E,,*2E
$GPRMC,050017.0,A,4740.81626,N,12224.44015,W,000.00,287.3,190513,016.6,E,D*2E
$PTAK,FFP1,HEEL,@*07
$PGRME,2.4,M,2.4,M,3.4,M*29
$HCHDG,267.4,0.0,E,,*2E
$HCHDG,267.4,0.0,E,,*2E
$GPRMC,050017.2,A,4740.81626,N,12224.44015,W,000.00,287.3,190513,016.6,E,D*2C
$PGRME,2.4,M,2.4,M,3.4,M*29
$YXXDR,A,5.4,D,PTCH,A,3.8,D,ROLL*57
$HCHDG,267.4,0.0,E,,*2E
$HCHDG,267.4,0.0,E,,*2E
$GPRMC,050017.4,A,4740.81626,N,12224.44015,W,000.00,287.3,190513,016.6,E,D*2A
$GPRMB,A,0.11,L,,N,4741.0622,N,12224.6030,W,0.3,336,0.00,V*43
$PGRME,2.4,M,2.4,M,3.4,M*29
$HCHDG,267.4,0.0,E,,*2E
$HCHDG,267.4,0.0,E,,*2E
$GPRMC,050017.6,A,4740.81626,N,12224.44015,W,000.00,287.3,190513,016.6,E,D*28
$PGRME,2.4,M,2.4,M,3.4,M*29
$HCHDG,267.4,0.0,E,,*2E
$YXXDR,A,5.4,D,PTCH,A,3.8,D,ROLL*57
$PTAK,FFD1,3.8*5E
$HCHDG,267.4,0.0,E,,*2E
$GPRMC,050017.8,A,4740.81626,N,12224.44015,W,000.00,287.3,190513,016.6,E,D*26
$PGRME,2.4,M,2.4,M,3.4,M*29
$HCHDG,267.4,0.0,E,,*2E
$HCHDG,267.4,0.0,E,,*2E
$GPRMC,050018.0,A,4740.81626,N,12224.44015,W,000.00,287.3,190513,016.6,E,D*21
$PGRME,2.4,M,2.4,M,3.4,M*29
$HCHDG,267.4,0.0,E,,*2E
$HCHDG,267.4,0.0,E,,*2E
$GPRMC,050018.2,A,4740.81626,N,12224.44014,W,000.00,287.3,190513,016.6,E,D*22
$PGRME,2.4,M,2.4,M,3.4,M*29
$YXXDR,A,5.4,D,PTCH,A,3.8,D,ROLL*57
$HCHDG,267.4,0.0,E,,*2E
$HCHDG,267.4,0.0,E,,*2E
$GPRMC,050018.4,A,4740.81626,N,12224.44014,W,000.00,287.3,190513,016.6,E,D*24
$PGRME,2.4,M,2.4,M,3.4,M*29
$HCHDG,267.4,0.0,E,,*2E
$HCHDG,267.4,0.0,E,,*2E
$GPRMC,050018.6,A,4740.81626,N,12224.44014,W,000.00,287.3,190513,016.6,E,D*26
$GPRMB,A,0.11,L,,N,4741.0622,N,12224.6030,W,0.3,336,0.00,V*43
$PGRME,2.4,M,2.4,M,3.4,M*29
$HCHDG,267.4,0.0,E,,*2E
$YXXDR,A,5.4,D,PTCH,A,3.8,D,ROLL*57
$PTAK,FFD1,3.8*5E
$HCHDG,267.4,0.0,E,,*2E
$GPRMC,050018.8,A,4740.81626,N,12224.44014,W,000.01,287.3,190513,016.6,E,D*29
$PGRME,2.4,M,2.4,M,3.4,M*29
$HCHDG,267.4,0.0,E,,*2E
$HCHDG,267.4,0.0,E,,*2E
$GPRMC,050019.0,A,4740.81625,N,12224.44014,W,000.00,287.3,190513,016.6,E,D*22
$PGRME,2.4,M,2.4,M,3.4,M*29
$HCHDG,267.4,0.0,E,,*2E
$HCHDG,267.4,0.0,E,,*2E
$GPRMC,050019.2,A,4740.81625,N,12224.44014,W,000.00,287.3,190513,016.6,E,D*20
$PGRME,2.4,M,2.4,M,3.4,M*29
$YXXDR,A,5.4,D,PTCH,A,3.8,D,ROLL*57
$HCHDG,267.4,0.0,E,,*2E
$HCHDG,267.4,0.0,E,,*2E
$GPRMC,050019.4,A,4740.81625,N,12224.44014,W,000.01,287.3,190513,016.6,E,D*27
$PGRME,2.4,M,2.4,M,3.4,M*29
$HCHDG,267.3,0.0,E,,*29
$HCHDG,267.3,0.0,E,,*29
$GPRMC,050019.6,A,4740.81625,N,12224.44014,W,000.00,287.3,190513,016.6,E,D*24
$PGRME,2.4,M,2.4,M,3.4,M*29
$HCHDG,267.3,0.0,E,,*29
$YXXDR,A,5.5,D,PTCH,A,3.8,D,ROLL*56
$HCHDG,267.3,0.0,E,,*29
$GPRMC,050019.8,A,4740.81625,N,12224.44014,W,000.01,287.3,190513,016.6,E,D*2B
$GPRMB,A,0.11,L,,N,4741.0622,N,12224.6030,W,0.3,336,0.01,V*42
$PGRME,2.4,M,2.4,M,3.4,M*29
$HCHDG,267.3,0.0,E,,*29
$HCHDG,267.3,0.0,E,,*29
$GPRMC,050020.0,A,4740.81625,N,12224.44013,W,000.01,287.3,190513,016.6,E,D*2E
$PGRME,2.4,M,2.4,M,3.4,M*29
$HCHDG,267.3,0.0,E,,*29
$HCHDG,267.3,0.0,E,,*29
$GPRMC,050020.2,A,4740.81625,N,12224.44013,W,000.00,287.3,190513,016.6,E,D*2D
$PGRME,2.4,M,2.4,M,3.4,M*29
$YXXDR,A,5.4,D,PTCH,A,3.8,D,ROLL*57
$PTAK,FFD1,3.8*5E
$HCHDG,267.3,0.0,E,,*29
$HCHDG,267.3,0.0,E,,*29
$GPRMC,050020.4,A,4740.81625,N,12224.44013,W,000.00,287.3,190513,016.6,E,D*2B
$PGRME,2.4,M,2.4,M,3.4,M*29
$HCHDG,267.3,0.0,E,,*29
$HCHDG,267.3,0.0,E,,*29
$GPRMC,050020.6,A,4740.81625,N,12224.44013,W,000.01,287.3,190513,016.6,E,D*28
$PGRME,2.4,M,2.4,M,3.4,M*29
$HCHDG,267.3,0.0,E,,*29
$YXXDR,A,5.4,D,PTCH,A,3.8,D,ROLL*57
$HCHDG,267.3,0.0,E,,*29
$GPRMC,050020.8,A,4740.81625,N,12224.44012,W,000.01,287.3,190513,016.6,E,D*27
$PGRME,2.4,M,2.4,M,3.4,M*29
$HCHDG,267.3,0.0,E,,*29
$HCHDG,267.3,0.0,E,,*29
$GPRMC,050021.0,A,4740.81625,N,12224.44012,W,000.00,287.3,190513,016.6,E,D*2F
$GPRMB,A,0.11,L,,N,4741.0622,N,12224.6030,W,0.3,336,0.00,V*43
$PTAK,FFP1,HEEL,@*07
$PGRME,2.4,M,2.4,M,3.4,M*29
$HCHDG,267.3,0.0,E,,*29
$HCHDG,267.3,0.0,E,,*29
$GPRMC,050021.2,A,4740.81625,N,12224.44012,W,000.01,287.3,190513,016.6,E,D*2C
$PGRME,2.4,M,2.4,M,3.4,M*29
$YXXDR,A,5.4,D,PTCH,A,3.8,D,ROLL*57
$HCHDG,267.3,0.0,E,,*29
$HCHDG,267.3,0.0,E,,*29
$GPRMC,050021.4,A,4740.81625,N,12224.44012,W,000.00,287.3,190513,016.6,E,D*2B
$PGRME,2.4,M,2.4,M,3.4,M*29
$HCHDG,267.3,0.0,E,,*29
$HCHDG,267.3,0.0,E,,*29
$GPRMC,050021.6,A,4740.81625,N,12224.44012,W,000.01,287.3,190513,016.6,E,D*28
$PGRME,2.4,M,2.4,M,3.4,M*29
$HCHDG,267.3,0.0,E,,*29
$YXXDR,A,5.5,D,PTCH,A,3.7,D,ROLL*59
$PTAK,FFD1,3.7*51
$HCHDG,267.3,0.0,E,,*29
$GPRMC,050021.8,A,4740.81625,N,12224.44012,W,000.00,287.3,190513,016.6,E,D*27
$PGRME,2.4,M,2.4,M,3.4,M*29
$HCHDG,267.3,0.0,E,,*29
$HCHDG,267.3,0.0,E,,*29
$GPRMC,050022.0,A,4740.81624,N,12224.44011,W,000.01,287.3,190513,016.6,E,D*2F
$PGRME,2.4,M,2.4,M,3.4,M*29
$HCHDG,267.3,0.0,E,,*29
$HCHDG,267.3,0.0,E,,*29
$GPRMC,050022.2,A,4740.81624,N,12224.44011,W,000.00,287.3,190513,016.6,E,D*2C
$GPRMB,A,0.11,L,,N,4741.0622,N,12224.6030,W,0.3,336,0.00,V*43
$PGRME,2.4,M,2.4,M,3.4,M*29
$YXXDR,A,5.5,D,PTCH,A,3.7,D,ROLL*59
$HCHDG,267.3,0.0,E,,*29
$HCHDG,267.3,0.0,E,,*29
$GPRMC,050022.4,A,4740.81624,N,12224.44011,W,000.00,287.3,190513,016.6,E,D*2A
$PGRME,2.4,M,2.4,M,3.4,M*29
$HCHDG,267.3,0.0,E,,*29
$HCHDG,267.3,0.0,E,,*29
$GPRMC,050022.6,A,4740.81624,N,12224.44011,W,000.00,287.3,190513,016.6,E,D*28
$PGRME,2.4,M,2.4,M,3.4,M*29
$HCHDG,267.3,0.0,E,,*29
$YXXDR,A,5.5,D,PTCH,A,3.7,D,ROLL*59
$HCHDG,267.3,0.0,E,,*29
$GPRMC,050022.8,A,4740.81624,N,12224.44011,W,000.01,287.3,190513,016.6,E,D*27
$PGRME,2.4,M,2.4,M,3.4,M*29
$HCHDG,267.3,0.0,E,,*29
$HCHDG,267.3,0.0,E,,*29
$GPRMC,050023.0,A,4740.81624,N,12224.44011,W,000.01,287.3,190513,016.6,E,D*2E
$PGRME,2.4,M,2.4,M,3.4,M*29
$HCHDG,267.3,0.0,E,,*29
$HCHDG,267.3,0.0,E,,*29
$GPRMC,050023.2,A,4740.81624,N,12224.44011,W,000.01,287.3,190513,016.6,E,D*2C
$PGRME,2.4,M,2.4,M,3.4,M*29
$YXXDR,A,5.4,D,PTCH,A,3.8,D,ROLL*57
$PTAK,FFD1,3.8*5E
$HCHDG,267.3,0.0,E,,*29
$HCHDG,267.3,0.0,E,,*29
$GPRMC,050023.4,A,4740.81624,N,12224.44011,W,000.01,287.3,190513,016.6,E,D*2A
$GPRMB,A,0.11,L,,N,4741.0622,N,12224.6030,W,0.3,336,0.01,V*42
$PGRME,2.4,M,2.4,M,3.4,M*29
$HCHDG,267.3,0.0,E,,*29
$HCHDG,267.3,0.0,E,,*29
$GPRMC,050023.6,A,4740.81624,N,12224.44011,W,000.01,287.3,190513,016.6,E,D*28
$PGRME,2.4,M,2.4,M,3.4,M*29
$HCHDG,267.3,0.0,E,,*29
$YXXDR,A,5.4,D,PTCH,A,3.8,D,ROLL*57
$HCHDG,267.3,0.0,E,,*29
$GPRMC,050023.8,A,4740.81624,N,12224.44011,W,000.01,287.3,190513,016.6,E,D*26
$PGRME,2.4,M,2.4,M,3.4,M*29
$HCHDG,267.3,0.0,E,,*29
$HCHDG,267.3,0.0,E,,*29
$GPRMC,050024.0,A,4740.81624,N,12224.44010,W,000.01,287.3,190513,016.6,E,D*28
$PGRME,2.4,M,2.4,M,3.4,M*29
$HCHDG,267.3,0.0,E,,*29
$HCHDG,267.3,0.0,E,,*29
$GPRMC,050024.2,A,4740.81624,N,12224.44010,W,000.01,287.3,190513,016.6,E,D*2A
$PGRME,2.4,M,2.4,M,3.4,M*29
$YXXDR,A,5.4,D,PTCH,A,3.8,D,ROLL*57
$PTAK,FFD1,3.8*5E
$HCHDG,267.3,0.0,E,,*29
$HCHDG,267.3,0.0,E,,*29
$GPRMC,050024.4,A,4740.81624,N,12224.44010,W,000.00,287.3,190513,016.6,E,D*2D
$PGRME,2.4,M,2.4,M,3.4,M*29
$HCHDG,267.3,0.0,E,,*29
$HCHDG,267.3,0.0,E,,*29
$GPRMC,050024.6,A,4740.81624,N,12224.44010,W,000.00,287.3,190513,016.6,E,D*2F
$GPRMB,A,0.11,L,,N,4741.0622,N,12224.6030,W,0.3,336,0.00,V*43
$PGRME,2.4,M,2.4,M,3.4,M*29
$HCHDG,267.3,0.0,E,,*29
$YXXDR,A,5.5,D,PTCH,A,3.7,D,ROLL*59
$HCHDG,267.3,0.0,E,,*29
$GPRMC,050024.8,A,4740.81624,N,12224.44010,W,000.00,287.3,190513,016.6,E,D*21
$PGRME,2.4,M,2.4,M,3.4,M*29
$HCHDG,267.3,0.0,E,,*29
$HCHDG,267.3,0.0,E,,*29
$GPRMC,050025.0,A,4740.81624,N,12224.44010,W,000.00,287.3,190513,016.6,E,D*28
$PTAK,FFP1,HEEL,@*07
$PGRME,2.4,M,2.4,M,3.4,M*29
$HCHDG,267.3,0.0,E,,*29
$HCHDG,267.3,0.0,E,,*29
$GPRMC,050025.2,A,4740.81623,N,12224.44010,W,000.00,287.3,190513,016.6,E,D*2D
$PGRME,2.4,M,2.4,M,3.4,M*29
$YXXDR,A,5.5,D,PTCH,A,3.7,D,ROLL*59
$HCHDG,267.3,0.0,E,,*29
$HCHDG,267.3,0.0,E,,*29
$GPRMC,050025.4,A,4740.81623,N,12224.44010,W,000.00,287.3,190513,016.6,E,D*2B
$PGRME,2.4,M,2.4,M,3.4,M*29
$HCHDG,267.3,0.0,E,,*29
$HCHDG,267.3,0.0,E,,*29
$GPRMC,050025.6,A,4740.81623,N,12224.44010,W,000.00,287.3,190513,016.6,E,D*29
$PGRME,2.4,M,2.4,M,3.4,M*29
$HCHDG,267.3,0.0,E,,*29
$YXXDR,A,5.4,D,PTCH,A,3.8,D,ROLL*57
$PTAK,FFD1,3.8*5E
$HCHDG,267.3,0.0,E,,*29
$GPRMC,050025.8,A,4740.81623,N,12224.44010,W,000.00,287.3,190513,016.6,E,D*27
$GPRMB,A,0.11,L,,N,4741.0622,N,12224.6030,W,0.3,336,0.00,V*43
$PGRME,2.4,M,2.4,M,3.4,M*29
$HCHDG,267.3,0.0,E,,*29
$HCHDG,267.3,0.0,E,,*29
$GPRMC,050026.0,A,4740.81623,N,12224.44010,W,000.00,287.3,190513,016.6,E,D*2C
$PGRME,2.4,M,2.4,M,3.4,M*29
$HCHDG,267.3,0.0,E,,*29
$HCHDG,267.2,0.0,E,,*28
$GPRMC,050026.2,A,4740.81623,N,12224.44010,W,000.00,287.3,190513,016.6,E,D*2E
$PGRME,2.4,M,2.4,M,3.4,M*29
$YXXDR,A,5.4,D,PTCH,A,3.8,D,ROLL*57
$HCHDG,267.2,0.0,E,,*28
$HCHDG,267.2,0.0,E,,*28
$GPRMC,050026.4,A,4740.81623,N,12224.44010,W,000.00,287.3,190513,016.6,E,D*28
$PGRME,2.4,M,2.4,M,3.4,M*29
$HCHDG,267.3,0.0,E,,*29
$HCHDG,267.3,0.0,E,,*29
$GPRMC,050026.6,A,4740.81623,N,12224.44010,W,000.00,287.3,190513,016.6,E,D*2A
$PGRME,2.4,M,2.4,M,3.4,M*29
$HCHDG,267.3,0.0,E,,*29
$YXXDR,A,5.4,D,PTCH,A,3.8,D,ROLL*57
$PTAK,FFD1,3.8*5E
$HCHDG,267.3,0.0,E,,*29
$GPRMC,050026.8,A,4740.81623,N,12224.44010,W,000.00,287.3,190513,016.6,E,D*24
$PGRME,2.4,M,2.4,M,3.4,M*29
$HCHDG,267.3,0.0,E,,*29
$HCHDG,267.3,0.0,E,,*29
$GPRMC,050027.0,A,4740.81623,N,12224.44009,W,000.00,287.3,190513,016.6,E,D*25
$GPRMB,A,0.11,L,,N,4741.0622,N,12224.6030,W,0.3,336,0.00,V*43
$PGRME,2.4,M,2.4,M,3.4,M*29
$HCHDG,267.3,0.0,E,,*29
$HCHDG,267.3,0.0,E,,*29
$GPRMC,050027.2,A,4740.81623,N,12224.44009,W,000.00,287.3,190513,016.6,E,D*27
$PGRME,2.4,M,2.4,M,3.4,M*29
$YXXDR,A,5.4,D,PTCH,A,3.8,D,ROLL*57
$HCHDG,267.3,0.0,E,,*29
$HCHDG,267.3,0.0,E,,*29
$GPRMC,050027.4,A,4740.81623,N,12224.44009,W,000.00,287.3,190513,016.6,E,D*21
$PGRME,2.4,M,2.4,M,3.4,M*29
$HCHDG,267.3,0.0,E,,*29
$HCHDG,267.3,0.0,E,,*29
$GPRMC,050027.6,A,4740.81623,N,12224.44009,W,000.00,287.3,190513,016.6,E,D*23
$PGRME,2.4,M,2.4,M,3.4,M*29
$HCHDG,267.3,0.0,E,,*29
$YXXDR,A,5.4,D,PTCH,A,3.8,D,ROLL*57
$PTAK,FFD1,3.8*5E
$HCHDG,267.3,0.0,E,,*29
$GPRMC,050027.8,A,4740.81623,N,12224.44009,W,000.00,287.3,190513,016.6,E,D*2D
$PGRME,2.4,M,2.4,M,3.4,M*29
$HCHDG,267.3,0.0,E,,*29
$HCHDG,267.3,0.0,E,,*29
$GPRMC,050028.0,A,4740.81623,N,12224.44009,W,000.00,287.3,190513,016.6,E,D*2A
$PGRME,2.4,M,2.4,M,3.4,M*29
$HCHDG,267.3,0.0,E,,*29
$HCHDG,267.3,0.0,E,,*29
$GPRMC,050028.2,A,4740.81623,N,12224.44009,W,000.00,287.3,190513,016.6,E,D*28
$GPRMB,A,0.11,L,,N,4741.0622,N,12224.6030,W,0.3,336,0.00,V*43
$PGRME,2.4,M,2.4,M,3.4,M*29
$YXXDR,A,5.4,D,PTCH,A,3.8,D,ROLL*57
$HCHDG,267.3,0.0,E,,*29
$HCHDG,267.3,0.0,E,,*29
$GPRMC,050028.4,A,4740.81623,N,12224.44009,W,000.00,287.3,190513,016.6,E,D*2E
$PGRME,2.4,M,2.4,M,3.4,M*29
$HCHDG,267.3,0.0,E,,*29
$HCHDG,267.4,0.0,E,,*2E
$GPRMC,050028.6,A,4740.81623,N,12224.44009,W,000.00,287.3,190513,016.6,E,D*2C
$PGRME,2.4,M,2.4,M,3.4,M*29
$HCHDG,267.4,0.0,E,,*2E
$YXXDR,A,5.4,D,PTCH,A,3.8,D,ROLL*57
$PTAK,FFD1,3.8*5E
$HCHDG,267.4,0.0,E,,*2E
$GPRMC,050028.8,A,4740.81623,N,12224.44009,W,000.00,287.3,190513,016.6,E,D*22
$PGRME,2.4,M,2.4,M,3.4,M*29
$HCHDG,267.4,0.0,E,,*2E
$HCHDG,267.4,0.0,E,,*2E
$GPRMC,050029.0,A,4740.81623,N,12224.44009,W,000.00,287.3,190513,016.6,E,D*2B
$PGRME,2.4,M,2.4,M,3.4,M*29
$HCHDG,267.4,0.0,E,,*2E
$PTAK,FFP1,HEEL,@*07
$HCHDG,267.4,0.0,E,,*2E
$GPRMC,050029.2,A,4740.81623,N,12224.44009,W,000.01,287.3,190513,016.6,E,D*28
$GPRMB,A,0.11,L,,N,4741.0622,N,12224.6030,W,0.3,336,0.01,V*42
$PGRME,2.4,M,2.4,M,3.4,M*29
$YXXDR,A,5.4,D,PTCH,A,3.8,D,ROLL*57
$HCHDG,267.4,0.0,E,,*2E
$HCHDG,267.4,0.0,E,,*2E
$GPRMC,050029.4,A,4740.81623,N,12224.44009,W,000.00,287.3,190513,016.6,E,D*2F
$PGRME,2.4,M,2.4,M,3.4,M*29
$HCHDG,267.4,0.0,E,,*2E
$HCHDG,267.4,0.0,E,,*2E
$GPRMC,050029.6,A,4740.81623,N,12224.44009,W,000.00,287.3,190513,016.6,E,D*2D
$PGRME,2.4,M,2.4,M,3.4,M*29
$HCHDG,267.4,0.0,E,,*2E
$YXXDR,A,5.4,D,PTCH,A,3.8,D,ROLL*57
$PTAK,FFD1,3.8*5E
$HCHDG,267.4,0.0,E,,*2E
$GPRMC,050029.8,A,4740.81623,N,12224.44009,W,000.00,287.3,190513,016.6,E,D*23
$PGRME,2.4,M,2.4,M,3.4,M*29
$HCHDG,267.4,0.0,E,,*2E
$HCHDG,267.4,0.0,E,,*2E
$GPRMC,050030.0,A,4740.81623,N,12224.44009,W,000.00,287.3,190513,016.6,E,D*23
$PGRME,2.4,M,2.4,M,3.4,M*29
$HCHDG,267.4,0.0,E,,*2E
$HCHDG,267.5,0.0,E,,*2F
$GPRMC,050030.2,A,4740.81623,N,12224.44009,W,000.00,287.3,190513,016.6,E,D*21
$GPRMB,A,0.11,L,,N,4741.0622,N,12224.6030,W,0.3,336,0.00,V*43
$PGRME,2.4,M,2.4,M,3.4,M*29
$YXXDR,A,5.4,D,PTCH,A,3.8,D,ROLL*57
$HCHDG,267.5,0.0,E,,*2F
$HCHDG,267.5,0.0,E,,*2F
$GPRMC,050030.4,A,4740.81623,N,12224.44009,W,000.01,287.3,190513,016.6,E,D*26
$PGRME,2.4,M,2.4,M,3.4,M*29
$HCHDG,267.5,0.0,E,,*2F
$HCHDG,267.5,0.0,E,,*2F
$GPRMC,050030.6,A,4740.81623,N,12224.44008,W,000.01,287.3,190513,016.6,E,D*25
$PGRME,2.4,M,2.4,M,3.4,M*29
$HCHDG,267.5,0.0,E,,*2F
$YXXDR,A,5.4,D,PTCH,A,3.8,D,ROLL*57
$HCHDG,267.5,0.0,E,,*2F
$GPRMC,050030.8,A,4740.81623,N,12224.44008,W,000.00,287.3,190513,016.6,E,D*2A
$PGRME,2.4,M,2.4,M,3.4,M*29
$HCHDG,267.5,0.0,E,,*2F
$HCHDG,267.5,0.0,E,,*2F
$GPRMC,050031.0,A,4740.81623,N,12224.44008,W,000.01,287.3,190513,016.6,E,D*22
$PGRME,2.4,M,2.4,M,3.4,M*29
$HCHDG,267.5,0.0,E,,*2F
$HCHDG,267.5,0.0,E,,*2F
$GPRMC,050031.2,A,4740.81623,N,12224.44008,W,000.00,287.3,190513,016.6,E,D*21
$GPRMB,A,0.11,L,,N,4741.0622,N,12224.6030,W,0.3,336,0.00,V*43
$PGRME,2.4,M,2.4,M,3.4,M*29
$YXXDR,A,5.4,D,PTCH,A,3.8,D,ROLL*57
$PTAK,FFD1,3.8*5E
$HCHDG,267.5,0.0,E,,*2F
$HCHDG,267.5,0.0,E,,*2F
$GPRMC,050031.4,A,4740.81624,N,12224.44008,W,000.00,287.3,190513,016.6,E,D*20
$PGRME,2.4,M,2.4,M,3.4,M*29
$HCHDG,267.5,0.0,E,,*2F
$HCHDG,267.5,0.0,E,,*2F
$GPRMC,050031.6,A,4740.81624,N,12224.44008,W,000.01,287.3,190513,016.6,E,D*23
$PGRME,2.4,M,2.4,M,3.4,M*29
$HCHDG,267.5,0.0,E,,*2F
$YXXDR,A,5.4,D,PTCH,A,3.8,D,ROLL*57
$HCHDG,267.5,0.0,E,,*2F
$GPRMC,050031.8,A,4740.81624,N,12224.44008,W,000.00,287.3,190513,016.6,E,D*2C
$PGRME,2.4,M,2.4,M,3.4,M*29
$HCHDG,267.5,0.0,E,,*2F
$HCHDG,267.5,0.0,E,,*2F
$GPRMC,050032.0,A,4740.81624,N,12224.44008,W,000.00,287.3,190513,016.6,E,D*27
$PGRME,2.4,M,2.4,M,3.4,M*29
$HCHDG,267.5,0.0,E,,*2F
$HCHDG,267.5,0.0,E,,*2F
$GPRMC,050032.2,A,4740.81624,N,12224.44008,W,000.01,287.3,190513,016.6,E,D*24
$PGRME,2.4,M,2.4,M,3.4,M*29
$YXXDR,A,5.4,D,PTCH,A,3.8,D,ROLL*57
$HCHDG,267.5,0.0,E,,*2F
$HCHDG,267.5,0.0,E,,*2F
$GPRMC,050032.4,A,4740.81624,N,12224.44008,W,000.00,287.3,190513,016.6,E,D*23
$GPRMB,A,0.11,L,,N,4741.0622,N,12224.6030,W,0.3,336,0.00,V*43
$PGRME,2.4,M,2.4,M,3.4,M*29
$HCHDG,267.5,0.0,E,,*2F
$HCHDG,267.5,0.0,E,,*2F
$GPRMC,050032.6,A,4740.81624,N,12224.44008,W,000.00,287.3,190513,016.6,E,D*21
$PGRME,2.4,M,2.4,M,3.4,M*29
$HCHDG,267.5,0.0,E,,*2F
$YXXDR,A,5.4,D,PTCH,A,3.8,D,ROLL*57
$PTAK,FFD1,3.8*5E
$HCHDG,267.5,0.0,E,,*2F
$GPRMC,050032.8,A,4740.81624,N,12224.44008,W,000.01,287.3,190513,016.6,E,D*2E
$PGRME,2.4,M,2.4,M,3.4,M*29
$HCHDG,267.5,0.0,E,,*2F
$HCHDG,267.5,0.0,E,,*2F
$GPRMC,050033.0,A,4740.81624,N,12224.44008,W,000.00,287.3,190513,016.6,E,D*26
$PGRME,2.4,M,2.4,M,3.4,M*29
$HCHDG,267.5,0.0,E,,*2F
$PTAK,FFP1,HEEL,@*07
$HCHDG,267.5,0.0,E,,*2F
$GPRMC,050033.2,A,4740.81624,N,12224.44008,W,000.01,287.3,190513,016.6,E,D*25
$PGRME,2.4,M,2.4,M,3.4,M*29
$YXXDR,A,5.4,D,PTCH,A,3.8,D,ROLL*57
$HCHDG,267.5,0.0,E,,*2F
$HCHDG,267.4,0.0,E,,*2E
$GPRMC,050033.4,A,4740.81624,N,12224.44008,W,000.00,287.3,190513,016.6,E,D*22
$GPRMB,A,0.11,L,,N,4741.0622,N,12224.6030,W,0.3,336,0.00,V*43
$PGRME,2.4,M,2.4,M,3.4,M*29
$HCHDG,267.4,0.0,E,,*2E
$HCHDG,267.4,0.0,E,,*2E
$GPRMC,050033.6,A,4740.81624,N,12224.44008,W,000.00,287.3,190513,016.6,E,D*20
$PGRME,2.4,M,2.4,M,3.4,M*29
$HCHDG,267.4,0.0,E,,*2E
$YXXDR,A,5.4,D,PTCH,A,3.9,D,ROLL*56
$HCHDG,267.4,0.0,E,,*2E
$GPRMC,050033.8,A,4740.81624,N,12224.44008,W,000.00,287.3,190513,016.6,E,D*2E
$PGRME,2.4,M,2.4,M,3.4,M*29
$HCHDG,267.4,0.0,E,,*2E
$HCHDG,267.4,0.0,E,,*2E
$GPRMC,050034.0,A,4740.81624,N,12224.44008,W,000.00,287.3,190513,016.6,E,D*21
$PGRME,2.4,M,2.4,M,3.4,M*29
$HCHDG,267.4,0.0,E,,*2E
$HCHDG,267.4,0.0,E,,*2E
$GPRMC,050034.2,A,4740.81624,N,12224.44008,W,000.01,287.3,190513,016.6,E,D*22
$PGRME,2.4,M,2.4,M,3.4,M*29
$YXXDR,A,5.5,D,PTCH,A,3.8,D,ROLL*56
$PTAK,FFD1,3.8*5E
$HCHDG,267.4,0.0,E,,*2E
$HCHDG,267.4,0.0,E,,*2E
$GPRMC,050034.4,A,4740.81624,N,12224.44008,W,000.00,287.3,190513,016.6,E,D*25
$PGRME,2.4,M,2.4,M,3.4,M*29
$HCHDG,267.4,0.0,E,,*2E
$HCHDG,267.3,0.0,E,,*29
$GPRMC,050034.6,A,4740.81624,N,12224.44008,W,000.00,287.3,190513,016.6,E,D*27
$GPRMB,A,0.11,L,,N,4741.0622,N,12224.6030,W,0.3,336,0.00,V*43
$PGRME,2.4,M,2.4,M,3.4,M*29
$HCHDG,267.3,0.0,E,,*29
$YXXDR,A,5.4,D,PTCH,A,3.8,D,ROLL*57
$HCHDG,267.3,0.0,E,,*29
$GPRMC,050034.8,A,4740.81624,N,12224.44008,W,000.00,287.3,190513,016.6,E,D*29
$PGRME,2.4,M,2.4,M,3.4,M*29
$HCHDG,267.3,0.0,E,,*29
$HCHDG,267.4,0.0,E,,*2E
$GPRMC,050035.0,A,4740.81624,N,12224.44007,W,000.00,287.3,190513,016.6,E,D*2F
$PGRME,2.4,M,2.4,M,3.4,M*29
$HCHDG,267.4,0.0,E,,*2E
$HCHDG,267.4,0.0,E,,*2E
$GPRMC,050035.2,A,4740.81624,N,12224.44007,W,000.00,287.3,190513,016.6,E,D*2D
$PGRME,2.4,M,2.4,M,3.4,M*29
$YXXDR,A,5.5,D,PTCH,A,3.8,D,ROLL*56
$PTAK,FFD1,3.8*5E
$HCHDG,267.4,0.0,E,,*2E
$HCHDG,267.4,0.0,E,,*2E
$GPRMC,050035.4,A,4740.81624,N,12224.44007,W,000.01,287.3,190513,016.6,E,D*2A
$PGRME,2.4,M,2.4,M,3.4,M*29
$HCHDG,267.3,0.0,E,,*29
$HCHDG,267.3,0.0,E,,*29
$GPRMC,050035.6,A,4740.81624,N,12224.44007,W,000.00,287.3,190513,016.6,E,D*29
$PGRME,2.4,M,2.4,M,3.4,M*29
$HCHDG,267.3,0.0,E,,*29
$YXXDR,A,5.4,D,PTCH,A,3.8,D,ROLL*57
$HCHDG,267.3,0.0,E,,*29
$GPRMC,050035.8,A,4740.81624,N,12224.44007,W,000.01,287.3,190513,016.6,E,D*26
$GPRMB,A,0.11,L,,N,4741.0622,N,12224.6030,W,0.3,336,0.01,V*42
$PGRME,2.4,M,2.4,M,3.4,M*29
$HCHDG,267.3,0.0,E,,*29
$HCHDG,267.3,0.0,E,,*29
$GPRMC,050036.0,A,4740.81624,N,12224.44007,W,000.01,287.3,190513,016.6,E,D*2D
$PGRME,2.4,M,2.4,M,3.4,M*29
$HCHDG,267.3,0.0,E,,*29
$HCHDG,267.4,0.0,E,,*2E
$GPRMC,050036.2,A,4740.81624,N,12224.44007,W,000.01,287.3,190513,016.6,E,D*2F
$PGRME,2.4,M,2.4,M,3.4,M*29
$YXXDR,A,5.4,D,PTCH,A,3.8,D,ROLL*57
$PTAK,FFD1,3.8*5E
$HCHDG,267.4,0.0,E,,*2E
$HCHDG,267.4,0.0,E,,*2E
$GPRMC,050036.4,A,4740.81624,N,12224.44007,W,000.00,287.3,190513,016.6,E,D*28
$PGRME,2.4,M,2.4,M,3.4,M*29
$HCHDG,267.4,0.0,E,,*2E
$HCHDG,267.4,0.0,E,,*2E
$GPRMC,050036.6,A,4740.81624,N,12224.44007,W,000.00,287.3,190513,016.6,E,D*2A
$PGRME,2.4,M,2.4,M,3.4,M*29
$HCHDG,267.4,0.0,E,,*2E
$YXXDR,A,5.4,D,PTCH,A,3.8,D,ROLL*57
$HCHDG,267.4,0.0,E,,*2E
$GPRMC,050036.8,A,4740.81624,N,12224.44007,W,000.00,287.3,190513,016.6,E,D*24
$PGRME,2.4,M,2.4,M,3.4,M*29
$HCHDG,267.4,0.0,E,,*2E
$HCHDG,267.4,0.0,E,,*2E
$GPRMC,050037.0,A,4740.81624,N,12224.44007,W,000.00,287.3,190513,016.6,E,D*2D
$GPRMB,A,0.11,L,,N,4741.0622,N,12224.6030,W,0.3,336,0.00,V*43
$PGRME,2.4,M,2.4,M,3.4,M*29
$HCHDG,267.4,0.0,E,,*2E
$PTAK,FFP1,HEEL,@*07
$HCHDG,267.4,0.0,E,,*2E
$GPRMC,050037.2,A,4740.81624,N,12224.44007,W,000.00,287.3,190513,016.6,E,D*2F
$PGRME,2.4,M,2.4,M,3.4,M*29
$YXXDR,A,5.4,D,PTCH,A,3.8,D,ROLL*57
$PTAK,FFD1,3.8*5E
$HCHDG,267.4,0.0,E,,*2E
$HCHDG,267.4,0.0,E,,*2E
$GPRMC,050037.4,A,4740.81624,N,12224.44007,W,000.00,287.3,190513,016.6,E,D*29
$PGRME,2.4,M,2.4,M,3.4,M*29
$HCHDG,267.4,0.0,E,,*2E
$HCHDG,267.4,0.0,E,,*2E
$GPRMC,050037.6,A,4740.81624,N,12224.44007,W,000.00,287.3,190513,016.6,E,D*2B
$PGRME,2.4,M,2.4,M,3.4,M*29
$HCHDG,267.4,0.0,E,,*2E
$YXXDR,A,5.4,D,PTCH,A,3.8,D,ROLL*57
$HCHDG,267.4,0.0,E,,*2E
$GPRMC,050037.8,A,4740.81624,N,12224.44007,W,000.00,287.3,190513,016.6,E,D*25
$PGRME,2.4,M,2.4,M,3.4,M*29
$HCHDG,267.4,0.0,E,,*2E
$HCHDG,267.4,0.0,E,,*2E
$GPRMC,050038.0,A,4740.81624,N,12224.44007,W,000.00,287.3,190513,016.6,E,D*22
$PGRME,2.4,M,2.4,M,3.4,M*29
$HCHDG,267.4,0.0,E,,*2E
$HCHDG,267.4,0.0,E,,*2E
$GPRMC,050038.2,A,4740.81624,N,12224.44007,W,000.00,287.3,190513,016.6,E,D*20
$GPRMB,A,0.11,L,,N,4741.0622,N,12224.6030,W,0.3,336,0.00,V*43
$PGRME,2.4,M,2.4,M,3.4,M*29
$YXXDR,A,5.4,D,PTCH,A,3.8,D,ROLL*57
$PTAK,FFD1,3.8*5E
$HCHDG,267.4,0.0,E,,*2E
$HCHDG,267.4,0.0,E,,*2E
$GPRMC,050038.4,A,4740.81624,N,12224.44007,W,000.00,287.3,190513,016.6,E,D*26
$PGRME,2.4,M,2.4,M,3.4,M*29
$HCHDG,267.4,0.0,E,,*2E
$HCHDG,267.4,0.0,E,,*2E
$GPRMC,050038.6,A,4740.81624,N,12224.44007,W,000.00,287.3,190513,016.6,E,D*24
$PGRME,2.4,M,2.4,M,3.4,M*29
$HCHDG,267.3,0.0,E,,*29
$YXXDR,A,5.4,D,PTCH,A,3.8,D,ROLL*57
$HCHDG,267.3,0.0,E,,*29
$GPRMC,050038.8,A,4740.81624,N,12224.44007,W,000.00,287.3,190513,016.6,E,D*2A
$PGRME,2.4,M,2.4,M,3.4,M*29
$HCHDG,267.3,0.0,E,,*29
$HCHDG,267.3,0.0,E,,*29
$GPRMC,050039.0,A,4740.81624,N,12224.44007,W,000.00,287.3,190513,016.6,E,D*23
$PGRME,2.4,M,2.4,M,3.4,M*29
$HCHDG,267.3,0.0,E,,*29
$HCHDG,267.3,0.0,E,,*29
$GPRMC,050039.2,A,4740.81624,N,12224.44007,W,000.00,287.3,190513,016.6,E,D*21
$PGRME,2.4,M,2.4,M,3.4,M*29
$YXXDR,A,5.4,D,PTCH,A,3.8,D,ROLL*57
$HCHDG,267.3,0.0,E,,*29
$HCHDG,267.3,0.0,E,,*29
$GPRMC,050039.4,A,4740.81624,N,12224.44007,W,000.00,287.3,190513,016.6,E,D*27
$GPRMB,A,0.11,L,,N,4741.0622,N,12224.6030,W,0.3,336,0.00,V*43
$PGRME,2.4,M,2.4,M,3.4,M*29
$HCHDG,267.3,0.0,E,,*29
$HCHDG,267.3,0.0,E,,*29
$GPRMC,050039.6,A,4740.81624,N,12224.44007,W,000.00,287.3,190513,016.6,E,D*25
$PGRME,2.4,M,2.4,M,3.4,M*29
$HCHDG,267.3,0.0,E,,*29
$YXXDR,A,5.4,D,PTCH,A,3.8,D,ROLL*57
$PTAK,FFD1,3.8*5E
$HCHDG,267.3,0.0,E,,*29
$GPRMC,050039.8,A,4740.81624,N,12224.44007,W,000.01,287.3,190513,016.6,E,D*2A
$PGRME,2.4,M,2.4,M,3.4,M*29
$HCHDG,267.3,0.0,E,,*29
$HCHDG,267.3,0.0,E,,*29
$GPRMC,050040.0,A,4740.81624,N,12224.44007,W,000.00,287.3,190513,016.6,E,D*2D
$PGRME,2.4,M,2.4,M,3.4,M*29
$HCHDG,267.3,0.0,E,,*29
$HCHDG,267.3,0.0,E,,*29
$GPRMC,050040.2,A,4740.81624,N,12224.44007,W,000.00,287.3,190513,016.6,E,D*2F
$PGRME,2.4,M,2.4,M,3.4,M*29
$YXXDR,A,5.4,D,PTCH,A,3.8,D,ROLL*57
$HCHDG,267.3,0.0,E,,*29
$HCHDG,267.3,0.0,E,,*29
$GPRMC,050040.4,A,4740.81624,N,12224.44007,W,000.01,287.3,190513,016.6,E,D*28
$PGRME,2.4,M,2.4,M,3.4,M*29
$HCHDG,267.3,0.0,E,,*29
$HCHDG,267.3,0.0,E,,*29
$GPRMC,050040.6,A,4740.81624,N,12224.44007,W,000.01,287.3,190513,016.6,E,D*2A
$GPRMB,A,0.11,L,,N,4741.0622,N,12224.6030,W,0.3,336,0.01,V*42
$PGRME,2.4,M,2.4,M,3.4,M*29
$HCHDG,267.3,0.0,E,,*29
$YXXDR,A,5.4,D,PTCH,A,3.8,D,ROLL*57
$PTAK,FFD1,3.8*5E
$HCHDG,267.3,0.0,E,,*29
$GPRMC,050040.8,A,4740.81624,N,12224.44007,W,000.00,287.3,190513,016.6,E,D*25
$PGRME,2.4,M,2.4,M,3.4,M*29
$HCHDG,267.3,0.0,E,,*29
$HCHDG,267.3,0.0,E,,*29
$GPRMC,050041.0,A,4740.81624,N,12224.44007,W,000.00,287.3,190513,016.6,E,D*2C
$PGRME,2.4,M,2.4,M,3.4,M*29
$HCHDG,267.3,0.0,E,,*29
$HCHDG,267.3,0.0,E,,*29
$GPRMC,050041.2,A,4740.81624,N,12224.44007,W,000.00,287.3,190513,016.6,E,D*2E
$PGRME,2.4,M,2.4,M,3.4,M*29
$YXXDR,A,5.4,D,PTCH,A,3.8,D,ROLL*57
$PTAK,FFP1,HEEL,@*07
$HCHDG,267.3,0.0,E,,*29
$HCHDG,267.3,0.0,E,,*29
$GPRMC,050041.4,A,4740.81624,N,12224.44007,W,000.01,287.3,190513,016.6,E,D*29
$PGRME,2.4,M,2.4,M,3.4,M*29
$HCHDG,267.3,0.0,E,,*29
$HCHDG,267.3,0.0,E,,*29
$GPRMC,050041.6,A,4740.81624,N,12224.44007,W,000.00,287.3,190513,016.6,E,D*2A
$PGRME,2.4,M,2.4,M,3.4,M*29
$HCHDG,267.3,0.0,E,,*29
$YXXDR,A,5.4,D,PTCH,A,3.8,D,ROLL*57
$HCHDG,267.3,0.0,E,,*29
$GPRMC,050041.8,A,4740.81624,N,12224.44007,W,000.01,287.3,190513,016.6,E,D*25
$GPRMB,A,0.11,L,,N,4741.0622,N,12224.6030,W,0.3,336,0.01,V*42
$PGRME,2.4,M,2.4,M,3.4,M*29
$HCHDG,267.3,0.0,E,,*29
$HCHDG,267.4,0.0,E,,*2E
$GPRMC,050042.0,A,4740.81624,N,12224.44007,W,000.01,287.3,190513,016.6,E,D*2E
$PGRME,2.4,M,2.4,M,3.4,M*29
$HCHDG,267.4,0.0,E,,*2E
$HCHDG,267.4,0.0,E,,*2E
$GPRMC,050042.2,A,4740.81624,N,12224.44007,W,000.01,287.3,190513,016.6,E,D*2C
$PGRME,2.4,M,2.4,M,3.4,M*29
$YXXDR,A,5.5,D,PTCH,A,3.8,D,ROLL*56
$PTAK,FFD1,3.8*5E
$HCHDG,267.4,0.0,E,,*2E
$HCHDG,267.4,0.0,E,,*2E
$GPRMC,050042.4,A,4740.81624,N,12224.44007,W,000.01,287.3,190513,016.6,E,D*2A
$PGRME,2.4,M,2.4,M,3.4,M*29
$HCHDG,267.4,0.0,E,,*2E
$HCHDG,267.4,0.0,E,,*2E
$GPRMC,050042.6,A,4740.81624,N,12224.44007,W,000.00,287.3,190513,016.6,E,D*29
$PGRME,2.4,M,2.4,M,3.4,M*29
$HCHDG,267.4,0.0,E,,*2E
$YXXDR,A,5.4,D,PTCH,A,3.8,D,ROLL*57
$HCHDG,267.4,0.0,E,,*2E
$GPRMC,050042.8,A,4740.81624,N,12224.44007,W,000.00,287.3,190513,016.6,E,D*27
$PGRME,2.4,M,2.4,M,3.4,M*29
$HCHDG,267.4,0.0,E,,*2E
$HCHDG,267.4,0.0,E,,*2E
$GPRMC,050043.0,A,4740.81624,N,12224.44006,W,000.01,287.3,190513,016.6,E,D*2E
$GPRMB,A,0.11,L,,N,4741.0622,N,12224.6030,W,0.3,336,0.01,V*42
$PGRME,2.4,M,2.4,M,3.4,M*29
$HCHDG,267.4,0.0,E,,*2E
$HCHDG,267.4,0.0,E,,*2E
$GPRMC,050043.2,A,4740.81624,N,12224.44006,W,000.01,287.3,190513,016.6,E,D*2C
$PGRME,2.4,M,2.4,M,3.4,M*29
$YXXDR,A,5.4,D,PTCH,A,3.8,D,ROLL*57
$PTAK,FFD1,3.8*5E
$HCHDG,267.3,0.0,E,,*29
$HCHDG,267.3,0.0,E,,*29
$GPRMC,050043.4,A,4740.81624,N,12224.44006,W,000.00,287.3,190513,016.6,E,D*2B
$PGRME,2.4,M,2.4,M,3.4,M*29
$HCHDG,267.3,0.0,E,,*29
$HCHDG,267.3,0.0,E,,*29
$GPRMC,050043.6,A,4740.81624,N,12224.44006,W,000.01,287.3,190513,016.6,E,D*28
$PGRME,2.4,M,2.4,M,3.4,M*29
$HCHDG,267.3,0.0,E,,*29
$YXXDR,A,5.4,D,PTCH,A,3.8,D,ROLL*57
$HCHDG,267.3,0.0,E,,*29
$GPRMC,050043.8,A,4740.81624,N,12224.44006,W,000.00,287.3,190513,016.6,E,D*27
$PGRME,2.4,M,2.4,M,3.4,M*29
$HCHDG,267.3,0.0,E,,*29
$HCHDG,267.3,0.0,E,,*29
$GPRMC,050044.0,A,4740.81624,N,12224.44006,W,000.01,287.3,190513,016.6,E,D*29
$PGRME,2.4,M,2.4,M,3.4,M*29
$PGRMT,GPS 18x-5Hz software ver. 3.20,,,,,,,,*30
$HCHDG,267.3,0.0,E,,*29
$HCHDG,267.3,0.0,E,,*29
$GPRMC,050044.2,A,4740.81624,N,12224.44006,W,000.01,287.3,190513,016.6,E,D*2B
$GPRMB,A,0.11,L,,N,4741.0622,N,12224.6030,W,0.3,336,0.01,V*42
$PGRME,2.4,M,2.4,M,3.4,M*29
$YXXDR,A,5.4,D,PTCH,A,3.8,D,ROLL*57
$PTAK,FFD1,3.8*5E
$HCHDG,267.3,0.0,E,,*29
$HCHDG,267.3,0.0,E,,*29
$GPRMC,050044.4,A,4740.81623,N,12224.44006,W,000.00,287.3,190513,016.6,E,D*2B
$PGRME,2.4,M,2.4,M,3.4,M*29
$HCHDG,267.3,0.0,E,,*29
$HCHDG,267.3,0.0,E,,*29
$GPRMC,050044.6,A,4740.81623,N,12224.44006,W,000.01,287.3,190513,016.6,E,D*28
$PGRME,2.4,M,2.4,M,3.4,M*29
$HCHDG,267.3,0.0,E,,*29
$YXXDR,A,5.4,D,PTCH,A,3.8,D,ROLL*57
$HCHDG,267.3,0.0,E,,*29
$GPRMC,050044.8,A,4740.81623,N,12224.44005,W,000.01,287.3,190513,016.6,E,D*25
$PGRME,2.4,M,2.4,M,3.4,M*29
$HCHDG,267.3,0.0,E,,*29
$HCHDG,267.3,0.0,E,,*29
$GPRMC,050045.0,A,4740.81623,N,12224.44005,W,000.00,287.3,190513,016.6,E,D*2D
$PGRME,2.4,M,2.4,M,3.4,M*29
$HCHDG,267.3,0.0,E,,*29
$HCHDG,267.3,0.0,E,,*29
$GPRMC,050045.2,A,4740.81623,N,12224.44005,W,000.00,287.3,190513,016.6,E,D*2F
$PGRME,2.4,M,2.4,M,3.4,M*29
$YXXDR,A,5.4,D,PTCH,A,3.8,D,ROLL*57
$PTAK,FFD1,3.8*5E
$PTAK,FFP1,HEEL,@*07
$HCHDG,267.3,0.0,E,,*29
$HCHDG,267.3,0.0,E,,*29
$GPRMC,050045.4,A,4740.81623,N,12224.44005,W,000.01,287.3,190513,016.6,E,D*28
$GPRMB,A,0.11,L,,N,4741.0622,N,12224.6030,W,0.3,336,0.01,V*42
$PGRME,2.4,M,2.4,M,3.4,M*29
$HCHDG,267.3,0.0,E,,*29
$HCHDG,267.3,0.0,E,,*29
$GPRMC,050045.6,A,4740.81623,N,12224.44005,W,000.00,287.3,190513,016.6,E,D*2B
$PGRME,2.4,M,2.4,M,3.4,M*29
$HCHDG,267.3,0.0,E,,*29
$YXXDR,A,5.4,D,PTCH,A,3.8,D,ROLL*57
$HCHDG,267.3,0.0,E,,*29
$GPRMC,050045.8,A,4740.81623,N,12224.44005,W,000.00,287.3,190513,016.6,E,D*25
$PGRME,2.4,M,2.4,M,3.4,M*29
$HCHDG,267.3,0.0,E,,*29
$HCHDG,267.3,0.0,E,,*29
$GPRMC,050046.0,A,4740.81623,N,12224.44005,W,000.00,287.3,190513,016.6,E,D*2E
$PGRME,2.4,M,2.4,M,3.4,M*29
$HCHDG,267.3,0.0,E,,*29
$HCHDG,267.3,0.0,E,,*29
$GPRMC,050046.2,A,4740.81623,N,12224.44005,W,000.01,287.3,190513,016.6,E,D*2D
$PGRME,2.4,M,2.4,M,3.4,M*29
$YXXDR,A,5.4,D,PTCH,A,3.8,D,ROLL*57
$HCHDG,267.3,0.0,E,,*29
$HCHDG,267.3,0.0,E,,*29
$GPRMC,050046.4,A,4740.81623,N,12224.44005,W,000.00,287.3,190513,016.6,E,D*2A
$PGRME,2.4,M,2.4,M,3.4,M*29
$HCHDG,267.3,0.0,E,,*29
$HCHDG,267.3,0.0,E,,*29
$GPRMC,050046.6,A,4740.81622,N,12224.44004,W,000.00,287.3,190513,016.6,E,D*28
$GPRMB,A,0.11,L,,N,4741.0622,N,12224.6030,W,0.3,336,0.00,V*43
$PGRME,2.4,M,2.4,M,3.4,M*29
$HCHDG,267.3,0.0,E,,*29
$YXXDR,A,5.4,D,PTCH,A,3.8,D,ROLL*57
$PTAK,FFD1,3.8*5E
$HCHDG,267.3,0.0,E,,*29
$GPRMC,050046.8,A,4740.81622,N,12224.44004,W,000.00,287.3,190513,016.6,E,D*26
$PGRME,2.4,M,2.4,M,3.4,M*29
$HCHDG,267.3,0.0,E,,*29
$HCHDG,267.3,0.0,E,,*29
$GPRMC,050047.0,A,4740.81622,N,12224.44004,W,000.00,287.3,190513,016.6,E,D*2F
$PGRME,2.4,M,2.4,M,3.4,M*29
$HCHDG,267.3,0.0,E,,*29
$HCHDG,267.3,0.0,E,,*29
$GPRMC,050047.2,A,4740.81622,N,12224.44004,W,000.00,287.3,190513,016.6,E,D*2D
$PGRME,2.4,M,2.4,M,3.4,M*29
$YXXDR,A,5.4,D,PTCH,A,3.8,D,ROLL*57
$HCHDG,267.3,0.0,E,,*29
$HCHDG,267.3,0.0,E,,*29
$GPRMC,050047.4,A,4740.81622,N,12224.44004,W,000.00,287.3,190513,016.6,E,D*2B
$PGRME,2.4,M,2.4,M,3.4,M*29
$HCHDG,267.3,0.0,E,,*29
$HCHDG,267.3,0.0,E,,*29
$GPRMC,050047.6,A,4740.81622,N,12224.44004,W,000.00,287.3,190513,016.6,E,D*29
$PGRME,2.4,M,2.4,M,3.4,M*29
$HCHDG,267.3,0.0,E,,*29
$YXXDR,A,5.4,D,PTCH,A,3.8,D,ROLL*57
$HCHDG,267.3,0.0,E,,*29
$GPRMC,050047.8,A,4740.81622,N,12224.44004,W,000.00,287.3,190513,016.6,E,D*27
$GPRMB,A,0.11,L,,N,4741.0622,N,12224.6030,W,0.3,336,0.00,V*43
$PGRME,2.4,M,2.4,M,3.4,M*29
$HCHDG,267.3,0.0,E,,*29
$HCHDG,267.3,0.0,E,,*29
$GPRMC,050048.0,A,4740.81622,N,12224.44004,W,000.00,287.3,190513,016.6,E,D*20
$PGRME,2.4,M,2.4,M,3.4,M*29
$HCHDG,267.3,0.0,E,,*29
$HCHDG,267.3,0.0,E,,*29
$GPRMC,050048.2,A,4740.81622,N,12224.44004,W,000.00,287.3,190513,016.6,E,D*22
$PGRME,2.4,M,2.4,M,3.4,M*29
$YXXDR,A,5.4,D,PTCH,A,3.8,D,ROLL*57
$PTAK,FFD1,3.8*5E
$HCHDG,267.3,0.0,E,,*29
$HCHDG,267.3,0.0,E,,*29
$GPRMC,050048.4,A,4740.81621,N,12224.44004,W,000.00,287.3,190513,016.6,E,D*27
$PGRME,2.4,M,2.4,M,3.4,M*29
$HCHDG,267.3,0.0,E,,*29
$HCHDG,267.3,0.0,E,,*29
$GPRMC,050048.6,A,4740.81621,N,12224.44003,W,000.01,287.3,190513,016.6,E,D*23
$PGRME,2.4,M,2.4,M,3.4,M*29
$HCHDG,267.3,0.0,E,,*29
$YXXDR,A,5.5,D,PTCH,A,3.7,D,ROLL*59
$HCHDG,267.3,0.0,E,,*29
$GPRMC,050048.8,A,4740.81621,N,12224.44003,W,000.00,287.3,190513,016.6,E,D*2C
$PGRME,2.4,M,2.4,M,3.4,M*29
$HCHDG,267.3,0.0,E,,*29
$HCHDG,267.3,0.0,E,,*29
$GPRMC,050049.0,A,4740.81621,N,12224.44003,W,000.00,287.3,190513,016.6,E,D*25
$GPRMB,A,0.11,L,,N,4741.0622,N,12224.6030,W,0.3,336,0.00,V*43
$PGRME,2.4,M,2.4,M,3.4,M*29
$HCHDG,267.3,0.0,E,,*29
$HCHDG,267.3,0.0,E,,*29
$GPRMC,050049.2,A,4740.81621,N,12224.44003,W,000.00,287.3,190513,016.6,E,D*27
$PGRME,2.4,M,2.4,M,3.4,M*29
$YXXDR,A,5.5,D,PTCH,A,3.7,D,ROLL*59
$PTAK,FFD1,3.7*51
$HCHDG,267.3,0.0,E,,*29
$HCHDG,267.3,0.0,E,,*29
$PTAK,FFP1,HEEL,@*07
$GPRMC,050049.4,A,4740.81621,N,12224.44003,W,000.00,287.3,190513,016.6,E,D*21
$PGRME,2.4,M,2.4,M,3.4,M*29
$HCHDG,267.3,0.0,E,,*29
$HCHDG,267.3,0.0,E,,*29
$GPRMC,050049.6,A,4740.81621,N,12224.44003,W,000.00,287.3,190513,016.6,E,D*23
$PGRME,2.4,M,2.4,M,3.4,M*29
$HCHDG,267.3,0.0,E,,*29
$YXXDR,A,5.5,D,PTCH,A,3.7,D,ROLL*59
$HCHDG,267.3,0.0,E,,*29
$GPRMC,050049.8,A,4740.81621,N,12224.44002,W,000.00,287.3,190513,016.6,E,D*2C
$PGRME,2.4,M,2.4,M,3.4,M*29
$HCHDG,267.3,0.0,E,,*29
$HCHDG,267.3,0.0,E,,*29
$GPRMC,050050.0,A,4740.81621,N,12224.44002,W,000.00,287.3,190513,016.6,E,D*2C
$PGRME,2.4,M,2.4,M,3.4,M*29
$HCHDG,267.3,0.0,E,,*29
$HCHDG,267.3,0.0,E,,*29
$GPRMC,050050.2,A,4740.81620,N,12224.44002,W,000.00,287.3,190513,016.6,E,D*2F
$GPRMB,A,0.11,L,,N,4741.0622,N,12224.6030,W,0.3,336,0.00,V*43
$PGRME,2.4,M,2.4,M,3.4,M*29
$YXXDR,A,5.4,D,PTCH,A,3.8,D,ROLL*57
$PTAK,FFD1,3.8*5E
$HCHDG,267.3,0.0,E,,*29
$HCHDG,267.3,0.0,E,,*29
$GPRMC,050050.4,A,4740.81620,N,12224.44002,W,000.01,287.3,190513,016.6,E,D*28
$PGRME,2.4,M,2.4,M,3.4,M*29
$HCHDG,267.3,0.0,E,,*29
$HCHDG,267.3,0.0,E,,*29
$GPRMC,050050.6,A,4740.81620,N,12224.44002,W,000.01,287.3,190513,016.6,E,D*2A
$PGRME,2.4,M,2.4,M,3.4,M*29
$HCHDG,267.3,0.0,E,,*29
$YXXDR,A,5.5,D,PTCH,A,3.7,D,ROLL*59
$HCHDG,267.3,0.0,E,,*29
$GPRMC,050050.8,A,4740.81620,N,12224.44001,W,000.00,287.3,190513,016.6,E,D*26
$PGRME,2.4,M,2.4,M,3.4,M*29
$HCHDG,267.3,0.0,E,,*29
$HCHDG,267.3,0.0,E,,*29
$GPRMC,050051.0,A,4740.81620,N,12224.44001,W,000.00,287.3,190513,016.6,E,D*2F
$PGRME,2.4,M,2.4,M,3.4,M*29
$HCHDG,267.3,0.0,E,,*29
$HCHDG,267.3,0.0,E,,*29
$GPRMC,050051.2,A,4740.81620,N,12224.44001,W,000.00,287.3,190513,016.6,E,D*2D
$PGRME,2.4,M,2.4,M,3.4,M*29
$YXXDR,A,5.5,D,PTCH,A,3.7,D,ROLL*59
$HCHDG,267.3,0.0,E,,*29
$HCHDG,267.3,0.0,E,,*29
$GPRMC,050051.4,A,4740.81620,N,12224.44001,W,000.00,287.3,190513,016.6,E,D*2B
$GPRMB,A,0.11,L,,N,4741.0622,N,12224.6030,W,0.3,336,0.00,V*43
$PGRME,2.4,M,2.4,M,3.4,M*29
$HCHDG,267.3,0.0,E,,*29
$HCHDG,267.3,0.0,E,,*29
$GPRMC,050051.6,A,4740.81620,N,12224.44001,W,000.00,287.3,190513,016.6,E,D*29
$PGRME,2.4,M,2.4,M,3.4,M*29
$HCHDG,267.3,0.0,E,,*29
$YXXDR,A,5.5,D,PTCH,A,3.7,D,ROLL*59
$PTAK,FFD1,3.7*51
$HCHDG,267.3,0.0,E,,*29
$GPRMC,050051.8,A,4740.81620,N,12224.44001,W,000.00,287.3,190513,016.6,E,D*27
$PGRME,2.4,M,2.4,M,3.4,M*29
$HCHDG,267.3,0.0,E,,*29
$HCHDG,267.3,0.0,E,,*29
$GPRMC,050052.0,A,4740.81620,N,12224.44001,W,000.00,287.3,190513,016.6,E,D*2C
$PGRME,2.4,M,2.4,M,3.4,M*29
$HCHDG,267.3,0.0,E,,*29
$HCHDG,267.3,0.0,E,,*29
$GPRMC,050052.2,A,4740.81620,N,12224.44001,W,000.00,287.3,190513,016.6,E,D*2E
$PGRME,2.4,M,2.4,M,3.4,M*29
$YXXDR,A,5.5,D,PTCH,A,3.7,D,ROLL*59
$HCHDG,267.3,0.0,E,,*29
$HCHDG,267.3,0.0,E,,*29
$GPRMC,050052.4,A,4740.81619,N,12224.44000,W,000.00,287.3,190513,016.6,E,D*23
$PGRME,2.4,M,2.4,M,3.4,M*29
$HCHDG,267.3,0.0,E,,*29
$HCHDG,267.3,0.0,E,,*29
$GPRMC,050052.6,A,4740.81619,N,12224.44000,W,000.01,287.3,190513,016.6,E,D*20
$GPRMB,A,0.11,L,,N,4741.0622,N,12224.6030,W,0.3,336,0.01,V*42
$PGRME,2.4,M,2.4,M,3.4,M*29
$HCHDG,267.3,0.0,E,,*29
$YXXDR,A,5.4,D,PTCH,A,3.8,D,ROLL*57
$PTAK,FFD1,3.8*5E
$HCHDG,267.3,0.0,E,,*29
$GPRMC,050052.8,A,4740.81619,N,12224.44000,W,000.01,287.3,190513,016.6,E,D*2E
$PGRME,2.4,M,2.4,M,3.4,M*29
$HCHDG,267.3,0.0,E,,*29
$HCHDG,267.3,0.0,E,,*29
$GPRMC,050053.0,A,4740.81619,N,12224.44000,W,000.01,287.3,190513,016.6,E,D*27
$PGRME,2.4,M,2.4,M,3.4,M*29
$HCHDG,267.3,0.0,E,,*29
$HCHDG,267.3,0.0,E,,*29
$GPRMC,050053.2,A,4740.81619,N,12224.44000,W,000.00,287.3,190513,016.6,E,D*24
$PGRME,2.4,M,2.4,M,3.4,M*29
$YXXDR,A,5.5,D,PTCH,A,3.7,D,ROLL*59
$HCHDG,267.3,0.0,E,,*29
$HCHDG,267.3,0.0,E,,*29
$PTAK,FFP1,HEEL,@*07
$GPRMC,050053.4,A,4740.81619,N,12224.44000,W,000.01,287.3,190513,016.6,E,D*23
$PGRME,2.4,M,2.4,M,3.4,M*29
$HCHDG,267.3,0.0,E,,*29
$HCHDG,267.3,0.0,E,,*29
$GPRMC,050053.6,A,4740.81619,N,12224.43999,W,000.01,287.3,190513,016.6,E,D*2F
$PGRME,2.4,M,2.4,M,3.4,M*29
$HCHDG,267.2,0.0,E,,*28
$YXXDR,A,5.5,D,PTCH,A,3.7,D,ROLL*59
$HCHDG,267.2,0.0,E,,*28
$GPRMC,050053.8,A,4740.81619,N,12224.43999,W,000.01,287.3,190513,016.6,E,D*21
$GPRMB,A,0.11,L,,N,4741.0622,N,12224.6030,W,0.3,336,0.01,V*42
$PGRME,2.4,M,2.4,M,3.4,M*29
$HCHDG,267.2,0.0,E,,*28
$HCHDG,267.2,0.0,E,,*28
$GPRMC,050054.0,A,4740.81619,N,12224.43999,W,000.00,287.3,190513,016.6,E,D*2F
$PGRME,2.4,M,2.4,M,3.4,M*29
$HCHDG,267.2,0.0,E,,*28
$HCHDG,267.3,0.0,E,,*29
$GPRMC,050054.2,A,4740.81619,N,12224.43999,W,000.01,287.3,190513,016.6,E,D*2C
$PGRME,2.4,M,2.4,M,3.4,M*29
$YXXDR,A,5.5,D,PTCH,A,3.7,D,ROLL*59
$PTAK,FFD1,3.7*51
$HCHDG,267.3,0.0,E,,*29
$HCHDG,267.3,0.0,E,,*29
$GPRMC,050054.4,A,4740.81619,N,12224.43999,W,000.01,287.3,190513,016.6,E,D*2A
$PGRME,2.4,M,2.4,M,3.4,M*29
$HCHDG,267.3,0.0,E,,*29
$HCHDG,267.2,0.0,E,,*28
$GPRMC,050054.6,A,4740.81619,N,12224.43999,W,000.01,287.3,190513,016.6,E,D*28
$PGRME,2.4,M,2.4,M,3.4,M*29
$HCHDG,267.2,0.0,E,,*28
$YXXDR,A,5.5,D,PTCH,A,3.7,D,ROLL*59
$HCHDG,267.3,0.0,E,,*29
$GPRMC,050054.8,A,4740.81619,N,12224.43999,W,000.00,287.3,190513,016.6,E,D*27
$PGRME,2.4,M,2.4,M,3.4,M*29
$HCHDG,267.3,0.0,E,,*29
$HCHDG,267.3,0.0,E,,*29
$GPRMC,050055.0,A,4740.81619,N,12224.43999,W,000.00,287.3,190513,016.6,E,D*2E
$GPRMB,A,0.11,L,,N,4741.0622,N,12224.6030,W,0.3,336,0.00,V*43
$PGRME,2.4,M,2.4,M,3.4,M*29
$HCHDG,267.3,0.0,E,,*29
$HCHDG,267.3,0.0,E,,*29
$GPRMC,050055.2,A,4740.81619,N,12224.43999,W,000.01,287.3,190513,016.6,E,D*2D
$PGRME,2.4,M,2.4,M,3.4,M*29
$YXXDR,A,5.5,D,PTCH,A,3.7,D,ROLL*59
$HCHDG,267.3,0.0,E,,*29
$HCHDG,267.3,0.0,E,,*29
$GPRMC,050055.4,A,4740.81619,N,12224.43999,W,000.01,287.3,190513,016.6,E,D*2B
$PGRME,2.4,M,2.4,M,3.4,M*29
$HCHDG,267.3,0.0,E,,*29
$HCHDG,267.3,0.0,E,,*29
$GPRMC,050055.6,A,4740.81619,N,12224.43999,W,000.00,287.3,190513,016.6,E,D*28
$PGRME,2.4,M,2.4,M,3.4,M*29
$HCHDG,267.3,0.0,E,,*29
$YXXDR,A,5.5,D,PTCH,A,3.7,D,ROLL*59
$PTAK,FFD1,3.7*51
$HCHDG,267.3,0.0,E,,*29
$GPRMC,050055.8,A,4740.81619,N,12224.43999,W,000.01,287.3,190513,016.6,E,D*27
$PGRME,2.4,M,2.4,M,3.4,M*29
$HCHDG,267.3,0.0,E,,*29
$HCHDG,267.3,0.0,E,,*29
$GPRMC,050056.0,A,4740.81619,N,12224.43999,W,000.01,287.3,190513,016.6,E,D*2C
$PGRME,2.4,M,2.4,M,3.4,M*29
$HCHDG,267.3,0.0,E,,*29
$HCHDG,267.3,0.0,E,,*29
$GPRMC,050056.2,A,4740.81619,N,12224.43998,W,000.00,287.3,190513,016.6,E,D*2E
$GPRMB,A,0.11,L,,N,4741.0622,N,12224.6030,W,0.3,336,0.00,V*43
$PGRME,2.4,M,2.4,M,3.4,M*29
$YXXDR,A,5.5,D,PTCH,A,3.7,D,ROLL*59
$HCHDG,267.3,0.0,E,,*29
$HCHDG,267.3,0.0,E,,*29
$GPRMC,050056.4,A,4740.81619,N,12224.43998,W,000.01,287.3,190513,016.6,E,D*29
$PGRME,2.4,M,2.4,M,3.4,M*29
$HCHDG,267.3,0.0,E,,*29
$HCHDG,267.3,0.0,E,,*29
$GPRMC,050056.6,A,4740.81619,N,12224.43998,W,000.00,287.3,190513,016.6,E,D*2A
$PGRME,2.4,M,2.4,M,3.4,M*29
$HCHDG,267.3,0.0,E,,*29
$YXXDR,A,5.5,D,PTCH,A,3.7,D,ROLL*59
$HCHDG,267.3,0.0,E,,*29
$GPRMC,050056.8,A,4740.81619,N,12224.43998,W,000.00,287.3,190513,016.6,E,D*24
$PGRME,2.4,M,2.4,M,3.4,M*29
$HCHDG,267.3,0.0,E,,*29
$HCHDG,267.3,0.0,E,,*29
$GPRMC,050057.0,A,4740.81619,N,12224.43998,W,000.01,287.3,190513,016.6,E,D*2C
$PGRME,2.4,M,2.4,M,3.4,M*29
$HCHDG,267.3,0.0,E,,*29
$HCHDG,267.4,0.0,E,,*2E
$GPRMC,050057.2,A,4740.81619,N,12224.43998,W,000.01,287.3,190513,016.6,E,D*2E
$PGRME,2.4,M,2.4,M,3.4,M*29
$YXXDR,A,5.5,D,PTCH,A,3.7,D,ROLL*59
$PTAK,FFD1,3.7*51
$HCHDG,267.4,0.0,E,,*2E
$HCHDG,267.4,0.0,E,,*2E
$PTAK,FFP1,HEEL,@*07
$GPRMC,050057.4,A,4740.81619,N,12224.43998,W,000.00,287.3,190513,016.6,E,D*29
$GPRMB,A,0.11,L,,N,4741.0622,N,12224.6030,W,0.3,336,0.00,V*43
$PGRME,2.4,M,2.4,M,3.4,M*29
$HCHDG,267.4,0.0,E,,*2E
$HCHDG,267.4,0.0,E,,*2E
$GPRMC,050057.6,A,4740.81619,N,12224.43998,W,000.00,287.3,190513,016.6,E,D*2B
$PGRME,2.4,M,2.4,M,3.4,M*29
$HCHDG,267.4,0.0,E,,*2E
$YXXDR,A,5.5,D,PTCH,A,3.7,D,ROLL*59
$HCHDG,267.5,0.0,E,,*2F
$GPRMC,050057.8,A,4740.81619,N,12224.43998,W,000.01,287.3,190513,016.6,E,D*24
$PGRME,2.4,M,2.4,M,3.4,M*29
$HCHDG,267.5,0.0,E,,*2F
$HCHDG,267.4,0.0,E,,*2E
$GPRMC,050058.0,A,4740.81619,N,12224.43998,W,000.00,287.3,190513,016.6,E,D*22
$PGRME,2.4,M,2.4,M,3.4,M*29
$HCHDG,267.4,0.0,E,,*2E
$HCHDG,267.4,0.0,E,,*2E
$GPRMC,050058.2,A,4740.81619,N,12224.43998,W,000.01,287.3,190513,016.6,E,D*21
$PGRME,2.4,M,2.4,M,3.4,M*29
$YXXDR,A,5.5,D,PTCH,A,3.7,D,ROLL*59
$HCHDG,267.4,0.0,E,,*2E
$HCHDG,267.3,0.0,E,,*29
$GPRMC,050058.4,A,4740.81619,N,12224.43998,W,000.00,287.3,190513,016.6,E,D*26
$PGRME,2.4,M,2.4,M,3.4,M*29
$HCHDG,267.3,0.0,E,,*29
$HCHDG,267.3,0.0,E,,*29
$GPRMC,050058.6,A,4740.81620,N,12224.43997,W,000.00,287.3,190513,016.6,E,D*21
$GPRMB,A,0.11,L,,N,4741.0622,N,12224.6030,W,0.3,336,0.00,V*43
$PGRME,2.4,M,2.4,M,3.4,M*29
$HCHDG,267.3,0.0,E,,*29
$YXXDR,A,5.5,D,PTCH,A,3.7,D,ROLL*59
$PTAK,FFD1,3.7*51
$HCHDG,267.3,0.0,E,,*29
$GPRMC,050058.8,A,4740.81620,N,12224.43997,W,000.01,287.3,190513,016.6,E,D*2E
$PGRME,2.4,M,2.4,M,3.4,M*29
$HCHDG,267.3,0.0,E,,*29
$HCHDG,267.3,0.0,E,,*29
$GPRMC,050059.0,A,4740.81620,N,12224.43997,W,000.00,287.3,190513,016.6,E,D*26
$PGRME,2.4,M,2.4,M,3.4,M*29
$HCHDG,267.3,0.0,E,,*29
$HCHDG,267.3,0.0,E,,*29
$GPRMC,050059.2,A,4740.81620,N,12224.43997,W,000.00,287.3,190513,016.6,E,D*24
$PGRME,2.4,M,2.4,M,3.4,M*29
$YXXDR,A,5.5,D,PTCH,A,3.7,D,ROLL*59
$HCHDG,267.3,0.0,E,,*29
$HCHDG,267.3,0.0,E,,*29
$GPRMC,050059.4,A,4740.81620,N,12224.43997,W,000.00,287.3,190513,016.6,E,D*22
$PGRME,2.4,M,2.4,M,3.4,M*29
$HCHDG,267.3,0.0,E,,*29
$HCHDG,267.3,0.0,E,,*29
$GPRMC,050059.6,A,4740.81620,N,12224.43997,W,000.00,287.3,190513,016.6,E,D*20
$PGRME,2.4,M,2.4,M,3.4,M*29
$HCHDG,267.3,0.0,E,,*29
$YXXDR,A,5.4,D,PTCH,A,3.8,D,ROLL*57
$HCHDG,267.3,0.0,E,,*29
$GPRMC,050059.8,A,4740.81620,N,12224.43997,W,000.01,287.3,190513,016.6,E,D*2F
$GPRMB,A,0.11,L,,N,4741.0622,N,12224.6030,W,0.3,336,0.01,V*42
$PGRME,2.4,M,2.4,M,3.4,M*29
$HCHDG,267.3,0.0,E,,*29
$HCHDG,267.4,0.0,E,,*2E
$GPRMC,050100.0,A,4740.81620,N,12224.43997,W,000.01,287.3,190513,016.6,E,D*2A
$PGRME,2.4,M,2.4,M,3.4,M*29
$HCHDG,267.4,0.0,E,,*2E
$HCHDG,267.3,0.0,E,,*29
$GPRMC,050100.2,A,4740.81620,N,12224.43997,W,000.01,287.3,190513,016.6,E,D*28
$PGRME,2.4,M,2.4,M,3.4,M*29
$YXXDR,A,5.4,D,PTCH,A,3.8,D,ROLL*57
$PTAK,FFD1,3.8*5E
$HCHDG,267.3,0.0,E,,*29
$HCHDG,267.3,0.0,E,,*29
$GPRMC,050100.4,A,4740.81621,N,12224.43997,W,000.00,287.3,190513,016.6,E,D*2E
$PGRME,2.4,M,2.4,M,3.4,M*29
$HCHDG,267.3,0.0,E,,*29
$HCHDG,267.3,0.0,E,,*29
$GPRMC,050100.6,A,4740.81621,N,12224.43997,W,000.00,287.3,190513,016.6,E,D*2C
$PGRME,2.4,M,2.4,M,3.4,M*29
$HCHDG,267.3,0.0,E,,*29
$YXXDR,A,5.4,D,PTCH,A,3.8,D,ROLL*57
$HCHDG,267.3,0.0,E,,*29
$GPRMC,050100.8,A,4740.81621,N,12224.43997,W,000.00,287.3,190513,016.6,E,D*22
$PGRME,2.4,M,2.4,M,3.4,M*29
$HCHDG,267.3,0.0,E,,*29
$HCHDG,267.3,0.0,E,,*29
$GPRMC,050101.0,A,4740.81621,N,12224.43997,W,000.00,287.3,190513,016.6,E,D*2B
$GPRMB,A,0.11,L,,N,4741.0622,N,12224.6030,W,0.3,336,0.00,V*43
$PGRME,2.4,M,2.4,M,3.4,M*29
$HCHDG,267.3,0.0,E,,*29
$HCHDG,267.3,0.0,E,,*29
$GPRMC,050101.2,A,4740.81621,N,12224.43998,W,000.00,287.3,190513,016.6,E,D*26
$PGRME,2.4,M,2.4,M,3.4,M*29
$YXXDR,A,5.4,D,PTCH,A,3.8,D,ROLL*57
$PTAK,FFD1,3.8*5E
$HCHDG,267.3,0.0,E,,*29
$HCHDG,267.3,0.0,E,,*29
$PTAK,FFP1,HEEL,@*07
$GPRMC,050101.4,A,4740.81621,N,12224.43998,W,000.00,287.3,190513,016.6,E,D*20
$PGRME,2.4,M,2.4,M,3.4,M*29
$HCHDG,267.3,0.0,E,,*29
$HCHDG,267.3,0.0,E,,*29
$GPRMC,050101.6,A,4740.81621,N,12224.43997,W,000.00,287.3,190513,016.6,E,D*2D
$PGRME,2.4,M,2.4,M,3.4,M*29
$HCHDG,267.3,0.0,E,,*29
$YXXDR,A,5.4,D,PTCH,A,3.8,D,ROLL*57
$HCHDG,267.3,0.0,E,,*29
$GPRMC,050101.8,A,4740.81621,N,12224.43997,W,000.00,287.3,190513,016.6,E,D*23
$PGRME,2.4,M,2.4,M,3.4,M*29
$HCHDG,267.3,0.0,E,,*29
$HCHDG,267.3,0.0,E,,*29
$GPRMC,050102.0,A,4740.81622,N,12224.43997,W,000.00,287.3,190513,016.6,E,D*2B
$PGRME,2.4,M,2.4,M,3.4,M*29
$HCHDG,267.3,0.0,E,,*29
$HCHDG,267.3,0.0,E,,*29
$GPRMC,050102.2,A,4740.81622,N,12224.43997,W,000.00,287.3,190513,016.6,E,D*29
$GPRMB,A,0.11,L,,N,4741.0622,N,12224.6030,W,0.3,336,0.00,V*43
$PGRME,2.4,M,2.4,M,3.4,M*29
$YXXDR,A,5.4,D,PTCH,A,3.8,D,ROLL*57
$PTAK,FFD1,3.8*5E
$HCHDG,267.3,0.0,E,,*29
$HCHDG,267.3,0.0,E,,*29
$GPRMC,050102.4,A,4740.81622,N,12224.43997,W,000.00,287.3,190513,016.6,E,D*2F
$PGRME,2.4,M,2.4,M,3.4,M*29
$HCHDG,267.3,0.0,E,,*29
$HCHDG,267.3,0.0,E,,*29
$GPRMC,050102.6,A,4740.81622,N,12224.43997,W,000.00,287.3,190513,016.6,E,D*2D
$PGRME,2.4,M,2.4,M,3.4,M*29
$HCHDG,267.3,0.0,E,,*29
$YXXDR,A,5.4,D,PTCH,A,3.8,D,ROLL*57
$HCHDG,267.3,0.0,E,,*29
$GPRMC,050102.8,A,4740.81622,N,12224.43997,W,000.00,287.3,190513,016.6,E,D*23
$PGRME,2.4,M,2.4,M,3.4,M*29
$HCHDG,267.3,0.0,E,,*29
$HCHDG,267.3,0.0,E,,*29
$GPRMC,050103.0,A,4740.81622,N,12224.43997,W,000.00,287.3,190513,016.6,E,D*2A
$PGRME,2.4,M,2.4,M,3.4,M*29
$HCHDG,267.3,0.0,E,,*29
$HCHDG,267.3,0.0,E,,*29
$GPRMC,050103.2,A,4740.81623,N,12224.43997,W,000.00,287.3,190513,016.6,E,D*29
$PGRME,2.4,M,2.4,M,3.4,M*29
$YXXDR,A,5.5,D,PTCH,A,3.7,D,ROLL*59
$HCHDG,267.3,0.0,E,,*29
$HCHDG,267.3,0.0,E,,*29
$GPRMC,050103.4,A,4740.81623,N,12224.43997,W,000.00,287.3,190513,016.6,E,D*2F
$GPRMB,A,0.11,L,,N,4741.0622,N,12224.6030,W,0.3,336,0.00,V*43
$PGRME,2.4,M,2.4,M,3.4,M*29
$HCHDG,267.3,0.0,E,,*29
$HCHDG,267.3,0.0,E,,*29
$GPRMC,050103.6,A,4740.81623,N,12224.43997,W,000.00,287.3,190513,016.6,E,D*2D
$PGRME,2.4,M,2.4,M,3.4,M*29
$HCHDG,267.3,0.0,E,,*29
$YXXDR,A,5.5,D,PTCH,A,3.7,D,ROLL*59
$PTAK,FFD1,3.7*51
$HCHDG,267.3,0.0,E,,*29
$GPRMC,050103.8,A,4740.81623,N,12224.43997,W,000.00,287.3,190513,016.6,E,D*23
$PGRME,2.4,M,2.4,M,3.4,M*29
$HCHDG,267.2,0.0,E,,*28
$HCHDG,267.2,0.0,E,,*28
$GPRMC,050104.0,A,4740.81623,N,12224.43997,W,000.00,287.3,190513,016.6,E,D*2C
$PGRME,2.4,M,2.4,M,3.4,M*29
$HCHDG,267.3,0.0,E,,*29
$HCHDG,267.3,0.0,E,,*29
$GPRMC,050104.2,A,4740.81624,N,12224.43997,W,000.00,287.3,190513,016.6,E,D*29
$PGRME,2.4,M,2.4,M,3.4,M*29
$YXXDR,A,5.5,D,PTCH,A,3.7,D,ROLL*59
$HCHDG,267.3,0.0,E,,*29
$HCHDG,267.3,0.0,E,,*29
$GPRMC,050104.4,A,4740.81624,N,12224.43997,W,000.00,287.3,190513,016.6,E,D*2F
$GPRMB,A,0.11,L,,N,4741.0622,N,12224.6030,W,0.3,336,0.00,V*43
