$PGRME,,M,,M,,M*00
$HCHDG,4.4,0.0,E,,*29
$PTAK,FFP1,HEEL,@*07
$IIMWV,358,T,14.9,N,A*17
$IIVHW,,,,,00.0,N,,*19
$HCHDG,4.2,0.0,E,,*2F
$IIVLW,06277,N,000.0,N*57
$IIVWR,001,L,15.0,N,,,,*7A
$GPRMC,161856.0,V,4740.81628,N,12224.43979,W,,,190513,016.6,E,N*09
$PGRME,,M,,M,,M*00
$HCHDG,4.1,0.0,E,,*2C
$IIDPT,007.4,-1.0,*43
$HCHDG,4.1,0.0,E,,*2C
$HCHDG,3.8,0.0,E,,*22
$YXXDR,A,5.7,D,PTCH,A,2.4,D,ROLL*59
$PTAK,FFD1,2.4*53
$GPRMC,161856.2,V,4740.81628,N,12224.43979,W,,,190513,016.6,E,N*0B
$PGRME,,M,,M,,M*00
$HCHDG,4.0,0.0,E,,*2D
$HCHDG,3.8,0.0,E,,*22
$GPRMC,161856.4,A,4740.94413,N,12224.45012,W,003.61,027.2,190513,016.6,E,A*2A
$PGRME,16.7,M,229.0,M,229.6,M*18
$HCHDG,3.7,0.0,E,,*2D
$HCHDG,3.9,0.0,E,,*23
$GPRMC,161856.6,A,4740.94557,N,12224.45048,W,003.55,026.0,190513,016.6,E,A*22
$PGRME,10.4,M,95.9,M,96.5,M*14
$HCHDG,3.8,0.0,E,,*22
$IIGLL,4740.944,N,12224.450,W,161800,A,A*44
$YXXDR,A,6.0,D,PTCH,A,3.1,D,ROLL*59
$IIMTW,+09.0,C*31
$HCHDG,3.6,0.0,E,,*2C
$GPRMC,161856.8,A,4740.94500,N,12224.45005,W,003.48,027.4,190513,016.6,E,A*2E
$PGRME,8.3,M,61.9,M,62.4,M*2B
$IIMWV,000,R,15.1,N,A*16
$HCHDG,3.6,0.0,E,,*2C
$IIMWV,359,T,15.0,N,A*1E
$HCHDG,3.3,0.0,E,,*29
$GPRMC,161857.0,A,4740.94526,N,12224.45021,W,003.50,025.3,190513,016.6,E,A*29
$PGRME,7.4,M,49.4,M,50.0,M*21
$IIRMC,161800,A,4740.944,N,12224.450,W,03.6,027,190513,16,E,A*10
$HCHDG,3.4,0.0,E,,*2E
$IIVHW,,,,,00.0,N,,*19
$IIVLW,06277,N,000.0,N*57
$HCHDG,3.4,0.0,E,,*2E
$IIVWR,000,R,15.1,N,,,,*64
$GPRMC,161857.2,A,4740.94638,N,12224.44995,W,003.46,026.0,190513,016.6,E,A*27
$PGRME,6.6,M,39.0,M,39.5,M*2B
$IIDPT,007.4,-1.0,*43
$YXXDR,A,5.8,D,PTCH,A,3.6,D,ROLL*55
$PTAK,FFD1,3.6*50
$HCHDG,3.5,0.0,E,,*2F
$HCHDG,3.6,0.0,E,,*2C
$GPRMC,161857.4,A,4740.94730,N,12224.44928,W,003.50,024.8,190513,016.6,E,A*23
$GPRMB,A,0.10,L,,N,4741.0622,N,12224.6030,W,0.2,318,1.38,V*45
$PGRME,6.0,M,32.6,M,33.1,M*2E
$HCHDG,3.2,0.0,E,,*28
$HCHDG,3.2,0.0,E,,*28
$GPRMC,161857.6,A,4740.94750,N,12224.44952,W,003.41,024.9,190513,016.6,E,A*2B
$PGRME,5.5,M,27.8,M,28.3,M*2A
$HCHDG,3.2,0.0,E,,*28
$YXXDR,A,5.8,D,PTCH,A,4.1,D,ROLL*55
$IIGLL,4740.947,N,12224.449,W,161800,A,A*4F
$IIMTW,+09.0,C*31
$HCHDG,3.2,0.0,E,,*28
$GPRMC,161857.8,A,4740.94747,N,12224.44996,W,003.51,023.8,190513,016.6,E,A*2C
$PGRME,5.2,M,24.1,M,24.6,M*2E
$IIMWV,358,R,14.7,N,A*1F
$HCHDG,2.9,0.0,E,,*22
$IIMWV,000,T,15.1,N,A*10
$HCHDG,3.0,0.0,E,,*2A
$GPRMC,161858.0,A,4740.94799,N,12224.44996,W,003.48,024.1,190513,016.6,E,A*2E
$PGRME,4.9,M,21.6,M,22.1,M*27
$IIRMC,161800,A,4740.947,N,12224.449,W,03.5,024,190513,16,E,A*1B
$HCHDG,2.8,0.0,E,,*23
$IIVHW,,,,,00.0,N,,*19
$IIVLW,06277,N,000.0,N*57
$HCHDG,2.6,0.0,E,,*2D
$IIVWR,002,L,14.7,N,,,,*7F
$GPRMC,161858.2,A,4740.94843,N,12224.45009,W,003.49,023.7,190513,016.6,E,A*2A
$PGRME,4.7,M,19.6,M,20.1,M*20
$IIDPT,007.4,-1.0,*43
$YXXDR,A,5.9,D,PTCH,A,4.2,D,ROLL*57
$HCHDG,2.5,0.0,E,,*2E
$HCHDG,2.3,0.0,E,,*28
$GPRMC,161858.4,A,4740.94909,N,12224.44991,W,003.54,021.5,190513,016.6,E,A*26
$PGRME,4.5,M,17.7,M,18.2,M*25
$HCHDG,2.3,0.0,E,,*28
$HCHDG,2.3,0.0,E,,*28
$GPRMC,161858.6,A,4740.94949,N,12224.44986,W,003.51,022.8,190513,016.6,E,A*2D
$PGRME,4.3,M,16.4,M,16.9,M*24
$HCHDG,2.2,0.0,E,,*29
$IIGLL,4740.949,N,12224.449,W,161800,A,A*41
$YXXDR,A,6.2,D,PTCH,A,4.6,D,ROLL*5B
$IIMTW,+09.5,C*34
$HCHDG,2.1,0.0,E,,*2A
$GPRMC,161858.8,A,4740.94941,N,12224.45011,W,003.50,021.2,190513,016.6,E,A*25
$PGRME,4.1,M,15.0,M,15.6,M*2D
$IIMWV,355,R,14.8,N,A*1D
$HCHDG,2.0,0.0,E,,*2B
$IIMWV,358,T,14.7,N,A*19
$HCHDG,2.1,0.0,E,,*2A
$GPRMC,161859.0,A,4740.94960,N,12224.44993,W,003.52,018.7,190513,016.6,E,A*20
$PGRME,4.0,M,13.9,M,14.4,M*20
$IIRMC,161800,A,4740.949,N,12224.449,W,03.5,021,190513,16,E,A*10
$HCHDG,2.2,0.0,E,,*29
$IIVHW,,,,,00.0,N,,*19
$IIVLW,06277,N,000.0,N*57
$HCHDG,2.3,0.0,E,,*28
$IIVWR,005,L,14.8,N,,,,*77
$GPRMC,161859.2,A,4740.94962,N,12224.44966,W,003.43,019.6,190513,016.6,E,A*2A
$GPRMB,A,0.10,L,,N,4741.0622,N,12224.6030,W,0.2,317,1.60,V*47
$PGRME,3.8,M,12.9,M,13.4,M*29
$IIDPT,007.4,-1.0,*43
$YXXDR,A,6.3,D,PTCH,A,5.1,D,ROLL*5C
$PTAK,FFD1,5.1*51
$HCHDG,2.1,0.0,E,,*2A
$HCHDG,2.2,0.0,E,,*29
$GPRMC,161859.4,A,4740.94936,N,12224.44951,W,003.57,017.8,190513,016.6,E,A*2C
$PGRME,3.7,M,12.1,M,12.6,M*2D
$HCHDG,2.2,0.0,E,,*29
$HCHDG,2.0,0.0,E,,*2B
$GPRMC,161859.6,A,4740.94930,N,12224.44956,W,003.49,018.8,190513,016.6,E,A*2F
$PGRME,3.6,M,11.3,M,11.9,M*21
$HCHDG,2.0,0.0,E,,*2B
$IIGLL,4740.949,N,12224.449,W,161800,A,A*41
$YXXDR,A,6.2,D,PTCH,A,4.3,D,ROLL*5E
$IIMTW,+09.5,C*34
$HCHDG,2.0,0.0,E,,*2B
$GPRMC,161859.8,A,4740.94936,N,12224.44937,W,003.53,016.1,190513,016.6,E,A*2C
$PGRME,3.5,M,10.7,M,11.2,M*2C
$IIMWV,353,R,14.8,N,A*1B
$HCHDG,2.0,0.0,E,,*2B
$IIMWV,355,T,14.8,N,A*1B
$HCHDG,1.7,0.0,E,,*2F
$GPRMC,161900.0,A,4740.94967,N,12224.44900,W,003.55,017.7,190513,016.6,E,A*28
$PGRME,3.4,M,10.1,M,10.6,M*2E
$IIRMC,161800,A,4740.949,N,12224.449,W,03.5,017,190513,16,E,A*15
$HCHDG,1.8,0.0,E,,*20
$IIVHW,,,,,00.0,N,,*19
$IIVLW,06277,N,000.0,N*57
$HCHDG,1.8,0.0,E,,*20
$IIVWR,007,L,14.8,N,,,,*75
$GPRMC,161900.2,A,4740.94986,N,12224.44870,W,003.46,016.3,190513,016.6,E,A*24
$PGRME,3.3,M,9.5,M,10.1,M*12
$IIDPT,007.4,-1.0,*43
$YXXDR,A,6.1,D,PTCH,A,3.6,D,ROLL*5F
$HCHDG,1.7,0.0,E,,*2F
$HCHDG,1.5,0.0,E,,*2D
$GPRMC,161900.4,A,4740.94981,N,12224.44839,W,003.61,014.9,190513,016.6,E,A*25
$PGRME,3.2,M,9.1,M,9.6,M*28
$HCHDG,1.6,0.0,E,,*2E
$PTAK,FFP1,HEEL,@*07
$HCHDG,1.7,0.0,E,,*2F
$GPRMC,161900.6,A,4740.94999,N,12224.44834,W,003.53,015.4,190513,016.6,E,A*2E
$PGRME,3.2,M,8.6,M,9.2,M*2A
$HCHDG,1.6,0.0,E,,*2E
$IIGLL,4740.949,N,12224.448,W,161900,A,A*41
$YXXDR,A,6.0,D,PTCH,A,3.2,D,ROLL*5A
$IIMTW,+09.5,C*34
$HCHDG,1.5,0.0,E,,*2D
$GPRMC,161900.8,A,4740.95021,N,12224.44817,W,003.43,016.7,190513,016.6,E,A*2B
$PGRME,3.1,M,8.2,M,8.8,M*26
$IIMWV,354,R,14.2,N,A*16
$HCHDG,1.6,0.0,E,,*2E
$IIMWV,353,T,14.8,N,A*1D
$HCHDG,1.6,0.0,E,,*2E
$GPRMC,161901.0,A,4740.95041,N,12224.44799,W,003.41,017.3,190513,016.6,E,A*2A
$PGRME,3.0,M,7.9,M,8.5,M*2E
$IIRMC,161900,A,4740.949,N,12224.448,W,03.6,014,190513,16,E,A*15
$HCHDG,1.5,0.0,E,,*2D
$IIVHW,,,,,00.0,N,,*19
$IIVLW,06277,N,000.0,N*57
$HCHDG,1.4,0.0,E,,*2C
$IIVWR,006,L,14.2,N,,,,*7E
$GPRMC,161901.2,A,4740.95067,N,12224.44778,W,003.53,016.1,190513,016.6,E,A*23
$PGRME,3.0,M,7.6,M,8.2,M*26
$IIDPT,007.6,-1.0,*41
$YXXDR,A,5.7,D,PTCH,A,2.5,D,ROLL*58
$HCHDG,1.3,0.0,E,,*2B
$HCHDG,1.3,0.0,E,,*2B
$GPRMC,161901.4,A,4740.95092,N,12224.44768,W,003.45,016.2,190513,016.6,E,A*2A
$GPRMB,A,0.10,L,,N,4741.0622,N,12224.6030,W,0.2,317,1.76,V*40
$PGRME,3.0,M,7.3,M,7.9,M*27
$HCHDG,1.4,0.0,E,,*2C
$HCHDG,1.4,0.0,E,,*2C
$GPRMC,161901.6,A,4740.95106,N,12224.44758,W,003.38,018.1,190513,016.6,E,A*20
$GPRMB,A,0.10,L,,N,4741.0622,N,12224.6030,W,0.2,317,1.62,V*45
$PGRME,3.0,M,7.0,M,7.7,M*2A
$HCHDG,1.5,0.0,E,,*2D
$IIGLL,4740.949,N,12224.448,W,161900,A,A*41
$YXXDR,A,5.9,D,PTCH,A,2.6,D,ROLL*55
$PTAK,FFD1,2.6*51
$IIMTW,+09.5,C*34
$HCHDG,1.3,0.0,E,,*2B
$GPRMC,161901.8,A,4740.95121,N,12224.44741,W,003.48,018.0,190513,016.6,E,A*25
$PGRME,3.0,M,6.8,M,7.4,M*20
$IIMWV,355,R,14.1,N,A*14
$HCHDG,1.2,0.0,E,,*2A
$IIMWV,354,T,14.2,N,A*10
$HCHDG,1.1,0.0,E,,*29
$IIRMB,A,0.10,L,,N   ,,,,,000.2,318,,V,A*20
$GPRMC,161902.0,A,4740.95135,N,12224.44735,W,003.46,019.2,190513,016.6,E,A*25
$PGRME,3.0,M,6.6,M,7.2,M*28
$HCHDG,1.2,0.0,E,,*2A
$IIRMC,161900,A,4740.949,N,12224.448,W,03.6,014,190513,16,E,A*15
$HCHDG,1.0,0.0,E,,*28
$IIVHW,,,,,00.0,N,,*19
$GPRMC,161902.2,A,4740.95144,N,12224.44712,W,003.56,018.0,190513,016.6,E,A*26
$PGRME,3.0,M,6.3,M,7.0,M*2F
$IIVLW,06277,N,000.0,N*57
$YXXDR,A,5.8,D,PTCH,A,2.6,D,ROLL*54
$HCHDG,1.0,0.0,E,,*28
$HCHDG,1.0,0.0,E,,*28
$GPRMC,161902.4,A,4740.95169,N,12224.44707,W,003.49,020.7,190513,016.6,E,A*29
$PGRME,3.0,M,6.1,M,6.9,M*25
$HCHDG,1.0,0.0,E,,*28
$HCHDG,1.0,0.0,E,,*28
$GPRMC,161902.6,A,4740.95192,N,12224.44697,W,003.48,020.6,190513,016.6,E,A*27
$PGRME,3.0,M,6.0,M,6.7,M*2A
$HCHDG,0.9,0.0,E,,*20
$IIVWR,006,L,13.6,N,,,,*7D
$YXXDR,A,6.0,D,PTCH,A,3.0,D,ROLL*58
$IIDPT,007.4,-1.0,*43
$HCHDG,0.8,0.0,E,,*21
$GPRMC,161902.8,A,4740.95211,N,12224.44674,W,003.51,018.1,190513,016.6,E,A*28
$PGRME,3.0,M,5.8,M,6.5,M*23
$IIGLL,4740.950,N,12224.447,W,161900,A,A*46
$HCHDG,1.0,0.0,E,,*28
$IIMTW,+09.5,C*34
$IIMWV,354,R,13.6,N,A*15
$HCHDG,1.0,0.0,E,,*28
$IIMWV,355,T,14.1,N,A*12
$GPRMC,161903.0,A,4740.95238,N,12224.44653,W,003.48,019.6,190513,016.6,E,A*21
$PGRME,3.0,M,5.6,M,6.4,M*2C
$HCHDG,0.9,0.0,E,,*20
$IIRMB,A,0.10,L,,N   ,,,,,000.2,318,,V,A*20
$HCHDG,1.1,0.0,E,,*29
$GPRMC,161903.2,A,4740.95255,N,12224.44645,W,003.62,017.4,190513,016.6,E,A*2B
$PGRME,3.0,M,5.5,M,6.3,M*28
$IIRMC,161900,A,4740.950,N,12224.447,W,03.4,016,190513,16,E,A*12
$YXXDR,A,6.0,D,PTCH,A,3.5,D,ROLL*5D
$HCHDG,1.3,0.0,E,,*2B
$HCHDG,1.2,0.0,E,,*2A
$GPRMC,161903.4,A,4740.95267,N,12224.44636,W,003.46,019.2,190513,016.6,E,A*26
$PGRME,3.0,M,5.3,M,6.1,M*2C
$HCHDG,1.4,0.0,E,,*2C
$HCHDG,1.4,0.0,E,,*2C
$GPRMC,161903.6,A,4740.95283,N,12224.44632,W,003.45,017.0,190513,016.6,E,A*25
$PGRME,3.0,M,5.2,M,6.0,M*2C
$HCHDG,1.3,0.0,E,,*2B
$IIVHW,,,,,00.0,N,,*19
$YXXDR,A,5.8,D,PTCH,A,4.0,D,ROLL*54
$IIVLW,06277,N,000.0,N*57
$HCHDG,1.3,0.0,E,,*2B
$GPRMC,161903.8,A,4740.95300,N,12224.44622,W,003.53,017.9,190513,016.6,E,A*2E
$GPRMB,A,0.11,L,,N,4741.0622,N,12224.6030,W,0.2,316,1.66,V*41
$IIVWR,009,L,13.3,N,,,,*77
$PGRME,3.0,M,5.1,M,5.9,M*25
$IIDPT,007.4,-1.0,*43
$HCHDG,1.2,0.0,E,,*2A
$IIGLL,4740.951,N,12224.447,W,161900,A,A*47
$HCHDG,1.4,0.0,E,,*2C
$IIMTW,+09.5,C*34
$GPRMC,161904.0,A,4740.95325,N,12224.44600,W,003.53,017.5,190513,016.6,E,A*2A
$PGRME,3.0,M,4.9,M,5.8,M*2D
$IIMWV,351,R,13.3,N,A*15
$HCHDG,1.3,0.0,E,,*2B
$IIMWV,354,T,13.6,N,A*13
$HCHDG,1.6,0.0,E,,*2E
$IIRMB,A,0.10,L,,N   ,,,,,000.2,317,,V,A*2F
$GPRMC,161904.2,A,4740.95341,N,12224.44591,W,003.51,018.2,190513,016.6,E,A*2B
$PGRME,3.0,M,4.8,M,5.7,M*23
$YXXDR,A,5.8,D,PTCH,A,4.0,D,ROLL*54
$PTAK,FFD1,4.0*51
$HCHDG,1.4,0.0,E,,*2C
$HCHDG,1.3,0.0,E,,*2B
$GPRMC,161904.4,A,4740.95357,N,12224.44585,W,003.52,016.3,190513,016.6,E,A*23
$PGRME,3.0,M,4.7,M,5.6,M*2D
$HCHDG,1.5,0.0,E,,*2D
$HCHDG,1.5,0.0,E,,*2D
$GPRMC,161904.6,A,4740.95370,N,12224.44575,W,003.49,018.3,190513,016.6,E,A*2F
$PGRME,3.0,M,4.6,M,5.5,M*2F
$HCHDG,1.5,0.0,E,,*2D
$YXXDR,A,6.0,D,PTCH,A,4.0,D,ROLL*5F
$IIRMC,161900,A,4740.952,N,12224.446,W,03.4,019,190513,16,E,A*1E
$HCHDG,1.8,0.0,E,,*20
$GPRMC,161904.8,A,4740.95380,N,12224.44555,W,003.58,016.7,190513,016.6,E,A*26
$PGRME,3.0,M,4.5,M,5.4,M*2D
$IIVHW,,,,,00.0,N,,*19
$HCHDG,1.8,0.0,E,,*20
$IIVLW,06277,N,000.0,N*57
$IIVWR,008,L,12.9,N,,,,*7D
$HCHDG,1.7,0.0,E,,*2F
$IIDPT,007.4,-1.0,*43
$GPRMC,161905.0,A,4740.95398,N,12224.44547,W,003.53,016.6,190513,016.6,E,A*2F
$PGRME,3.0,M,4.4,M,5.4,M*2C
$HCHDG,1.8,0.0,E,,*20
$IIGLL,4740.952,N,12224.446,W,161900,A,A*45
$IIMTW,+09.5,C*34
$HCHDG,1.8,0.0,E,,*20
$IIMWV,352,R,12.9,N,A*1D
$GPRMC,161905.2,A,4740.95427,N,12224.44540,W,003.52,016.0,190513,016.6,E,A*2E
$PGRME,3.0,M,4.3,M,5.3,M*2C
$IIMWV,351,T,13.3,N,A*13
$YXXDR,A,5.8,D,PTCH,A,3.9,D,ROLL*5A
$HCHDG,2.0,0.0,E,,*2B
$HCHDG,2.2,0.0,E,,*29
$GPRMC,161905.4,A,4740.95451,N,12224.44541,W,003.54,015.8,190513,016.6,E,A*25
$PGRME,3.0,M,4.2,M,5.2,M*2C
$HCHDG,2.1,0.0,E,,*2A
$HCHDG,2.3,0.0,E,,*28
$GPRMC,161905.6,A,4740.95470,N,12224.44549,W,003.56,016.9,190513,016.6,E,A*2C
$PGRME,3.0,M,4.2,M,5.2,M*2C
$HCHDG,2.2,0.0,E,,*29
$IIRMB,A,0.11,L,,N   ,,,,,000.2,316,,V,A*2F
$YXXDR,A,6.0,D,PTCH,A,3.7,D,ROLL*5F
$HCHDG,2.3,0.0,E,,*28
$GPRMC,161905.8,A,4740.95491,N,12224.44546,W,003.55,015.7,190513,016.6,E,A*2C
$GPRMB,A,0.11,L,,N,4741.0622,N,12224.6030,W,0.2,315,1.76,V*43
$PGRME,3.0,M,4.1,M,5.1,M*2C
$HCHDG,2.3,0.0,E,,*28
$IIRMC,161900,A,4740.953,N,12224.445,W,03.5,016,190513,16,E,A*12
$IIVHW,,,,,00.0,N,,*19
$HCHDG,2.3,0.0,E,,*28
$IIVLW,06277,N,000.0,N*57
$GPRMC,161906.0,A,4740.95510,N,12224.44539,W,003.47,017.5,190513,016.6,E,A*24
$PGRME,3.0,M,4.0,M,5.0,M*2C
$IIVWR,007,L,13.0,N,,,,*7A
$HCHDG,2.4,0.0,E,,*2F
$IIDPT,007.4,-1.0,*43
$HCHDG,2.3,0.0,E,,*28
$IIGLL,4740.953,N,12224.445,W,161900,A,A*47
$GPRMC,161906.2,A,4740.95532,N,12224.44533,W,003.53,016.5,190513,016.6,E,A*28
$PGRME,3.0,M,3.9,M,5.0,M*22
$IIMTW,+09.5,C*34
$YXXDR,A,5.8,D,PTCH,A,3.0,D,ROLL*53
$PTAK,FFD1,3.0*56
$HCHDG,2.4,0.0,E,,*2F
$PTAK,FFP1,HEEL,@*07
$HCHDG,2.3,0.0,E,,*28
$GPRMC,161906.4,A,4740.95554,N,12224.44527,W,003.50,017.4,190513,016.6,E,A*28
$PGRME,3.0,M,3.9,M,4.9,M*2A
$HCHDG,2.4,0.0,E,,*2F
$HCHDG,2.5,0.0,E,,*2E
$GPRMC,161906.6,A,4740.95576,N,12224.44510,W,003.53,017.0,190513,016.6,E,A*29
$PGRME,3.0,M,3.8,M,4.9,M*2B
$HCHDG,2.6,0.0,E,,*2D
$IIMWV,353,R,13.0,N,A*14
$YXXDR,A,5.8,D,PTCH,A,3.0,D,ROLL*53
$IIMWV,353,T,13.0,N,A*12
$HCHDG,2.4,0.0,E,,*2F
$GPRMC,161906.8,A,4740.95600,N,12224.44512,W,003.50,017.8,190513,016.6,E,A*2C
$GPRMB,A,0.11,L,,N,4741.0622,N,12224.6030,W,0.2,315,1.60,V*44
$PGRME,3.0,M,3.7,M,4.8,M*25
$IIRMB,A,0.11,L,,N   ,,,,,000.2,315,,V,A*2C
$HCHDG,2.4,0.0,E,,*2F
$HCHDG,2.6,0.0,E,,*2D
$IIRMC,161900,A,4740.954,N,12224.445,W,03.5,015,190513,16,E,A*16
$GPRMC,161907.0,A,4740.95618,N,12224.44513,W,003.47,018.6,190513,016.6,E,A*2A
$PGRME,3.0,M,3.7,M,4.8,M*25
$IIVHW,,,,,00.0,N,,*19
$HCHDG,2.5,0.0,E,,*2E
$IIVLW,06277,N,000.0,N*57
$IIVWR,007,L,13.0,N,,,,*7A
$HCHDG,2.3,0.0,E,,*28
$IIDPT,007.4,-1.0,*43
$GPRMC,161907.2,A,4740.95633,N,12224.44506,W,003.54,018.9,190513,016.6,E,A*28
$PGRME,3.0,M,3.6,M,4.7,M*2B
$YXXDR,A,5.7,D,PTCH,A,2.6,D,ROLL*5B
$HCHDG,2.4,0.0,E,,*2F
$HCHDG,2.5,0.0,E,,*2E
$GPRMC,161907.4,A,4740.95651,N,12224.44501,W,003.45,017.2,190513,016.6,E,A*29
$PGRME,3.0,M,3.5,M,4.7,M*28
$HCHDG,2.3,0.0,E,,*28
$HCHDG,2.5,0.0,E,,*2E
$GPRMC,161907.6,A,4740.95666,N,12224.44488,W,003.52,018.9,190513,016.6,E,A*2D
$PGRME,3.0,M,3.5,M,4.6,M*29
$HCHDG,2.7,0.0,E,,*2C
$YXXDR,A,5.9,D,PTCH,A,2.6,D,ROLL*55
$PTAK,FFD1,2.6*51
$HCHDG,2.8,0.0,E,,*23
$GPRMC,161907.8,A,4740.95682,N,12224.44466,W,003.54,019.0,190513,016.6,E,A*27
$PGRME,3.0,M,3.4,M,4.6,M*28
$HCHDG,2.6,0.0,E,,*2D
$HCHDG,2.6,0.0,E,,*2D
$GPRMC,161908.0,A,4740.95707,N,12224.44448,W,003.48,018.0,190513,016.6,E,A*2C
$GPRMB,A,0.11,L,,N,4741.0622,N,12224.6030,W,0.1,315,1.56,V*42
$PGRME,3.0,M,3.4,M,4.5,M*2B
$HCHDG,2.8,0.0,E,,*23
$HCHDG,2.9,0.0,E,,*22
$GPRMC,161908.2,A,4740.95720,N,12224.44441,W,003.57,018.8,190513,016.6,E,A*24
$PGRME,3.0,M,3.3,M,4.5,M*2C
$YXXDR,A,6.0,D,PTCH,A,2.7,D,ROLL*5E
$HCHDG,2.7,0.0,E,,*2C
$HCHDG,2.8,0.0,E,,*23
$GPRMC,161908.4,A,4740.95733,N,12224.44447,W,003.55,018.9,190513,016.6,E,A*25
$PGRME,3.0,M,3.3,M,4.5,M*2C
$HCHDG,2.7,0.0,E,,*2C
$HCHDG,2.8,0.0,E,,*23
$GPRMC,161908.6,A,4740.95750,N,12224.44444,W,003.55,019.5,190513,016.6,E,A*2C
$PGRME,3.0,M,3.2,M,4.4,M*2C
$HCHDG,2.8,0.0,E,,*23
$IIGLL,4740.955,N,12224.445,W,161900,A,A*41
$YXXDR,A,6.1,D,PTCH,A,3.2,D,ROLL*5B
$PTAK,FFD1,3.2*54
$IIMTW,+09.5,C*34
$HCHDG,3.1,0.0,E,,*2B
$GPRMC,161908.8,A,4740.95770,N,12224.44431,W,003.52,019.0,190513,016.6,E,A*20
$PGRME,3.0,M,3.2,M,4.4,M*2C
$IIMWV,351,R,13.3,N,A*15
$HCHDG,3.1,0.0,E,,*2B
$IIMWV,353,T,13.0,N,A*12
$HCHDG,2.9,0.0,E,,*22
$IIRMB,A,0.11,L,,N   ,,,,,000.2,315,,V,A*2C
$GPRMC,161909.0,A,4740.95795,N,12224.44422,W,003.55,019.6,190513,016.6,E,A*21
$PGRME,3.0,M,3.2,M,4.4,M*2C
$HCHDG,3.0,0.0,E,,*2A
$IIRMC,161900,A,4740.955,N,12224.445,W,03.5,017,190513,16,E,A*15
$IIVHW,,,,,00.0,N,,*19
$HCHDG,3.3,0.0,E,,*29
$GPRMC,161909.2,A,4740.95808,N,12224.44404,W,003.54,019.5,190513,016.6,E,A*2E
$IIVLW,06277,N,000.0,N*57
$PGRME,3.0,M,3.1,M,4.4,M*2F
$YXXDR,A,6.2,D,PTCH,A,3.5,D,ROLL*5F
$HCHDG,3.2,0.0,E,,*28
$HCHDG,3.3,0.0,E,,*29
$GPRMC,161909.4,A,4740.95823,N,12224.44388,W,003.58,017.9,190513,016.6,E,A*2C
$GPRMB,A,0.11,L,,N,4741.0622,N,12224.6030,W,0.1,314,1.58,V*4D
$PGRME,3.0,M,3.1,M,4.3,M*28
$HCHDG,3.5,0.0,E,,*2F
$HCHDG,3.4,0.0,E,,*2E
$GPRMC,161909.6,A,4740.95843,N,12224.44370,W,003.55,020.9,190513,016.6,E,A*26
$PGRME,3.0,M,3.0,M,4.3,M*29
$HCHDG,3.5,0.0,E,,*2F
$IIVWR,006,L,14.4,N,,,,*78
$YXXDR,A,6.0,D,PTCH,A,4.0,D,ROLL*5F
$IIDPT,007.4,-1.0,*43
$HCHDG,3.3,0.0,E,,*29
$GPRMC,161909.8,A,4740.95858,N,12224.44359,W,003.62,018.9,190513,016.6,E,A*26
$PGRME,3.0,M,3.0,M,4.3,M*29
$IIGLL,4740.956,N,12224.444,W,161900,A,A*43
$HCHDG,3.6,0.0,E,,*2C
$IIMTW,+09.5,C*34
$IIMWV,354,R,14.4,N,A*10
$HCHDG,3.5,0.0,E,,*2F
$IIMWV,352,T,13.7,N,A*14
$GPRMC,161910.0,A,4740.95870,N,12224.44351,W,003.51,018.5,190513,016.6,E,A*28
$PGRME,3.0,M,3.0,M,4.3,M*29
$HCHDG,3.6,0.0,E,,*2C
$IIRMB,A,0.11,L,,N   ,,,,,000.1,315,,V,A*2F
$HCHDG,3.8,0.0,E,,*22
$GPRMC,161910.2,A,4740.95889,N,12224.44347,W,003.53,018.6,190513,016.6,E,A*2A
$PGRME,3.0,M,3.0,M,4.3,M*29
$IIRMC,161900,A,4740.956,N,12224.444,W,03.5,019,190513,16,E,A*19
$YXXDR,A,5.9,D,PTCH,A,4.2,D,ROLL*57
$PTAK,FFD1,4.2*53
$HCHDG,3.6,0.0,E,,*2C
$PTAK,FFP1,HEEL,@*07
$HCHDG,3.5,0.0,E,,*2F
$GPRMC,161910.4,A,4740.95911,N,12224.44344,W,003.48,020.3,190513,016.6,E,A*2B
$PGRME,3.0,M,3.0,M,4.3,M*29
$HCHDG,3.8,0.0,E,,*22
$HCHDG,3.8,0.0,E,,*22
$GPRMC,161910.6,A,4740.95930,N,12224.44323,W,003.61,018.7,190513,016.6,E,A*2F
$GPRMB,A,0.11,L,,N,4741.0622,N,12224.6030,W,0.1,314,1.53,V*46
$PGRME,3.0,M,3.0,M,4.3,M*29
$HCHDG,3.7,0.0,E,,*2D
$IIVHW,,,,,00.0,N,,*19
$YXXDR,A,5.8,D,PTCH,A,4.1,D,ROLL*55
$IIVLW,06277,N,000.0,N*57
$HCHDG,3.7,0.0,E,,*2D
$GPRMC,161910.8,A,4740.95957,N,12224.44301,W,003.52,019.8,190513,016.6,E,A*2E
$IIVWR,007,L,14.6,N,,,,*7B
$PGRME,3.0,M,3.0,M,4.3,M*29
$IIDPT,007.4,-1.0,*43
$HCHDG,3.6,0.0,E,,*2C
$IIGLL,4740.958,N,12224.443,W,161900,A,A*4A
$HCHDG,3.7,0.0,E,,*2D
$IIMTW,+09.5,C*34
$GPRMC,161911.0,A,4740.95977,N,12224.44282,W,003.49,018.6,190513,016.6,E,A*2A
$PGRME,3.0,M,3.0,M,4.3,M*29
$IIMWV,353,R,14.6,N,A*15
$HCHDG,3.6,0.0,E,,*2C
$IIMWV,354,T,14.4,N,A*16
$HCHDG,3.7,0.0,E,,*2D
$IIRMB,A,0.11,L,,N   ,,,,,000.1,314,,V,A*2E
$GPRMC,161911.2,A,4740.95991,N,12224.44283,W,003.51,019.0,190513,016.6,E,A*2F
$PGRME,3.0,M,3.0,M,4.3,M*29
$YXXDR,A,6.0,D,PTCH,A,3.8,D,ROLL*50
$HCHDG,3.7,0.0,E,,*2D
$HCHDG,3.7,0.0,E,,*2D
$GPRMC,161911.4,A,4740.96012,N,12224.44277,W,003.49,020.1,190513,016.6,E,A*21
$PGRME,3.0,M,3.0,M,4.3,M*29
$HCHDG,3.7,0.0,E,,*2D
$HCHDG,3.8,0.0,E,,*22
$GPRMC,161911.6,A,4740.96030,N,12224.44263,W,003.50,018.6,190513,016.6,E,A*22
$PGRME,3.0,M,3.0,M,4.3,M*29
$HCHDG,3.7,0.0,E,,*2D
$YXXDR,A,6.0,D,PTCH,A,3.8,D,ROLL*50
$PTAK,FFD1,3.8*5E
$IIRMC,161900,A,4740.958,N,12224.443,W,03.6,018,190513,16,E,A*12
$HCHDG,3.7,0.0,E,,*2D
$GPRMC,161911.8,A,4740.96045,N,12224.44251,W,003.55,019.0,190513,016.6,E,A*2D
$GPRMB,A,0.11,L,,N,4741.0622,N,12224.6030,W,0.1,313,1.46,V*45
$PGRME,3.0,M,3.0,M,4.3,M*29
$IIVHW,,,,,00.0,N,,*19
$HCHDG,3.7,0.0,E,,*2D
$IIVLW,06277,N,000.0,N*57
$IIVWR,008,L,14.7,N,,,,*75
$HCHDG,3.6,0.0,E,,*2C
$IIDPT,007.4,-1.0,*43
$GPRMC,161912.0,A,4740.96060,N,12224.44246,W,003.60,018.0,190513,016.6,E,A*20
$PGRME,3.0,M,3.0,M,4.3,M*29
$HCHDG,3.6,0.0,E,,*2C
$IIGLL,4740.958,N,12224.443,W,161900,A,A*4A
$IIMTW,+09.5,C*34
$HCHDG,3.6,0.0,E,,*2C
$IIMWV,352,R,14.7,N,A*15
$GPRMC,161912.2,A,4740.96084,N,12224.44236,W,003.59,018.4,190513,016.6,E,A*21
$PGRME,3.0,M,3.0,M,4.3,M*29
$IIMWV,353,T,14.6,N,A*13
$YXXDR,A,5.8,D,PTCH,A,3.9,D,ROLL*5A
$HCHDG,3.6,0.0,E,,*2C
$HCHDG,3.6,0.0,E,,*2C
$GPRMC,161912.4,A,4740.96109,N,12224.44230,W,003.52,019.0,190513,016.6,E,A*2B
$PGRME,3.0,M,3.0,M,4.3,M*29
$HCHDG,3.7,0.0,E,,*2D
$HCHDG,3.7,0.0,E,,*2D
$GPRMC,161912.6,A,4740.96131,N,12224.44223,W,003.44,020.4,190513,016.6,E,A*29
$PGRME,3.0,M,3.0,M,4.3,M*29
$HCHDG,3.6,0.0,E,,*2C
$IIRMB,A,0.11,L,,N   ,,,,,000.1,314,,V,A*2E
$YXXDR,A,6.0,D,PTCH,A,4.0,D,ROLL*5F
$PTAK,FFD1,4.0*51
$HCHDG,3.9,0.0,E,,*23
$GPRMC,161912.8,A,4740.96142,N,12224.44218,W,003.55,016.9,190513,016.6,E,A*23
$PGRME,3.0,M,3.0,M,4.3,M*29
$HCHDG,3.9,0.0,E,,*23
$IIRMC,161900,A,4740.960,N,12224.442,W,03.5,019,190513,16,E,A*1A
$IIVHW,,,,,00.0,N,,*19
$HCHDG,3.9,0.0,E,,*23
$IIVLW,06277,N,000.0,N*57
$GPRMC,161913.0,A,4740.96153,N,12224.44221,W,003.55,018.5,190513,016.6,E,A*22
$GPRMB,A,0.11,L,,N,4741.0622,N,12224.6030,W,0.1,313,1.47,V*44
$PGRME,3.0,M,3.0,M,4.3,M*29
$IIVWR,007,L,14.6,N,,,,*7B
$HCHDG,4.2,0.0,E,,*2F
$IIDPT,007.4,-1.0,*43
$HCHDG,4.2,0.0,E,,*2F
$IIGLL,4740.960,N,12224.442,W,161900,A,A*40
$GPRMC,161913.2,A,4740.96173,N,12224.44216,W,003.56,016.3,190513,016.6,E,A*2D
$PGRME,3.0,M,3.0,M,4.3,M*29
$IIMTW,+09.5,C*34
$YXXDR,A,5.9,D,PTCH,A,4.3,D,ROLL*56
$HCHDG,4.1,0.0,E,,*2C
$HCHDG,4.2,0.0,E,,*2F
$GPRMC,161913.4,A,4740.96195,N,12224.44206,W,003.48,020.0,190513,016.6,E,A*2B
$PGRME,3.0,M,3.0,M,4.3,M*29
$HCHDG,4.4,0.0,E,,*29
$HCHDG,4.3,0.0,E,,*2E
$GPRMC,161913.6,A,4740.96220,N,12224.44181,W,003.53,018.0,190513,016.6,E,A*29
$PGRME,3.0,M,3.0,M,4.3,M*29
$HCHDG,4.2,0.0,E,,*2F
$IIMWV,354,R,14.7,N,A*13
$YXXDR,A,5.9,D,PTCH,A,4.3,D,ROLL*56
$IIMWV,353,T,14.6,N,A*13
$HCHDG,4.2,0.0,E,,*2F
$GPRMC,161913.8,A,4740.96247,N,12224.44180,W,003.49,017.5,190513,016.6,E,A*26
$PGRME,3.0,M,3.0,M,4.3,M*29
$IIRMB,A,0.11,L,,N   ,,,,,000.1,313,,V,A*29
$HCHDG,4.5,0.0,E,,*28
$HCHDG,4.4,0.0,E,,*29
$IIRMC,161900,A,4740.961,N,12224.442,W,03.5,016,190513,16,E,A*14
$GPRMC,161914.0,A,4740.96268,N,12224.44188,W,003.58,015.9,190513,016.6,E,A*22
$GPRMB,A,0.11,L,,N,4741.0622,N,12224.6030,W,0.1,313,1.61,V*40
$PGRME,3.0,M,3.0,M,4.3,M*29
$IIVHW,,,,,00.0,N,,*19
$HCHDG,4.3,0.0,E,,*2E
$IIVLW,06277,N,000.0,N*57
$IIVWR,006,L,14.7,N,,,,*7B
$HCHDG,4.4,0.0,E,,*29
$IIDPT,007.4,-1.0,*43
$GPRMC,161914.2,A,4740.96283,N,12224.44188,W,003.53,019.7,190513,016.6,E,A*2C
$PGRME,3.0,M,3.0,M,4.3,M*29
$YXXDR,A,6.0,D,PTCH,A,4.3,D,ROLL*5C
$PTAK,FFD1,4.3*52
$PTAK,FFP1,HEEL,@*07
$HCHDG,4.3,0.0,E,,*2E
$HCHDG,4.6,0.0,E,,*2B
$GPRMC,161914.4,A,4740.96299,N,12224.44181,W,003.51,018.6,190513,016.6,E,A*2A
$PGRME,3.0,M,3.0,M,4.3,M*29
$HCHDG,4.5,0.0,E,,*28
$HCHDG,4.5,0.0,E,,*28
$GPRMC,161914.6,A,4740.96310,N,12224.44163,W,003.50,019.1,190513,016.6,E,A*23
$PGRME,3.0,M,3.0,M,4.3,M*29
$HCHDG,4.5,0.0,E,,*28
$IIGLL,4740.962,N,12224.441,W,161900,A,A*41
$YXXDR,A,6.0,D,PTCH,A,4.3,D,ROLL*5C
$IIMTW,+09.5,C*34
$HCHDG,4.5,0.0,E,,*28
$GPRMC,161914.8,A,4740.96333,N,12224.44158,W,003.50,017.8,190513,016.6,E,A*23
$PGRME,3.0,M,3.0,M,4.3,M*29
$IIMWV,354,R,14.7,N,A*13
$HCHDG,4.5,0.0,E,,*28
$IIMWV,354,T,14.7,N,A*15
$HCHDG,4.6,0.0,E,,*2B
$IIRMB,A,0.11,L,,N   ,,,,,000.1,313,,V,A*29
$GPRMC,161915.0,A,4740.96358,N,12224.44153,W,003.55,018.2,190513,016.6,E,A*2C
$PGRME,3.0,M,3.0,M,4.3,M*29
$HCHDG,4.6,0.0,E,,*2B
$IIRMC,161900,A,4740.962,N,12224.441,W,03.4,017,190513,16,E,A*14
$HCHDG,4.6,0.0,E,,*2B
$IIVHW,,,,,00.0,N,,*19
$GPRMC,161915.2,A,4740.96385,N,12224.44147,W,003.51,017.3,190513,016.6,E,A*21
$GPRMB,A,0.11,L,,N,4741.0622,N,12224.6030,W,0.1,312,1.47,V*45
$PGRME,3.0,M,3.0,M,4.3,M*29
$IIVLW,06277,N,000.0,N*57
$YXXDR,A,5.9,D,PTCH,A,4.3,D,ROLL*56
$PTAK,FFD1,4.3*52
$HCHDG,4.7,0.0,E,,*2A
$HCHDG,4.7,0.0,E,,*2A
$GPRMC,161915.4,A,4740.96402,N,12224.44130,W,003.52,020.3,190513,016.6,E,A*28
$PGRME,3.0,M,3.0,M,4.3,M*29
$HCHDG,4.8,0.0,E,,*25
$HCHDG,4.7,0.0,E,,*2A
$GPRMC,161915.6,A,4740.96408,N,12224.44124,W,003.52,019.0,190513,016.6,E,A*2C
$PGRME,3.0,M,3.0,M,4.3,M*29
$HCHDG,4.6,0.0,E,,*2B
$IIVWR,007,L,14.6,N,,,,*7B
$YXXDR,A,6.0,D,PTCH,A,4.0,D,ROLL*5F
$IIDPT,007.4,-1.0,*43
$HCHDG,4.8,0.0,E,,*25
$GPRMC,161915.8,A,4740.96423,N,12224.44118,W,003.57,018.3,190513,016.6,E,A*23
$PGRME,3.0,M,3.0,M,4.3,M*29
$IIGLL,4740.963,N,12224.441,W,161900,A,A*40
$HCHDG,4.8,0.0,E,,*25
$IIMTW,+09.5,C*34
$IIMWV,353,R,14.6,N,A*15
$HCHDG,4.7,0.0,E,,*2A
$IIMWV,354,T,14.7,N,A*15
$GPRMC,161916.0,A,4740.96442,N,12224.44109,W,003.50,019.5,190513,016.6,E,A*2F
$PGRME,3.0,M,3.0,M,4.3,M*29
$HCHDG,4.8,0.0,E,,*25
$IIRMB,A,0.11,L,,N   ,,,,,000.1,312,,V,A*28
$HCHDG,4.9,0.0,E,,*24
$GPRMC,161916.2,A,4740.96466,N,12224.44096,W,003.60,018.7,190513,016.6,E,A*2C
$GPRMB,A,0.11,L,,N,4741.0622,N,12224.6030,W,0.1,312,1.41,V*43
$PGRME,3.0,M,3.0,M,4.3,M*29
$IIRMC,161900,A,4740.963,N,12224.441,W,03.5,017,190513,16,E,A*14
$YXXDR,A,5.9,D,PTCH,A,3.6,D,ROLL*54
$PTAK,FFD1,3.6*50
$HCHDG,4.9,0.0,E,,*24
$HCHDG,5.1,0.0,E,,*2D
$GPRMC,161916.4,A,4740.96489,N,12224.44067,W,003.51,020.7,190513,016.6,E,A*2C
$PGRME,3.0,M,3.0,M,4.3,M*29
$HCHDG,4.9,0.0,E,,*24
$HCHDG,5.0,0.0,E,,*2C
$GPRMC,161916.6,A,4740.96510,N,12224.44048,W,003.58,019.4,190513,016.6,E,A*22
$PGRME,3.0,M,3.0,M,4.3,M*29
$HCHDG,5.0,0.0,E,,*2C
$IIVHW,,,,,00.0,N,,*19
$IIVLW,06277,N,000.0,N*57
$YXXDR,A,5.9,D,PTCH,A,3.6,D,ROLL*54
$HCHDG,4.9,0.0,E,,*24
$IIVWR,008,L,14.6,N,,,,*74
$GPRMC,161916.8,A,4740.96527,N,12224.44050,W,003.50,021.1,190513,016.6,E,A*27
$PGRME,3.0,M,3.0,M,4.3,M*29
$IIDPT,007.4,-1.0,*43
$HCHDG,5.0,0.0,E,,*2C
$IIGLL,4740.964,N,12224.441,W,161900,A,A*47
$HCHDG,5.1,0.0,E,,*2D
$IIMTW,+09.5,C*34
$GPRMC,161917.0,A,4740.96546,N,12224.44047,W,003.58,020.7,190513,016.6,E,A*20
$PGRME,3.0,M,3.0,M,4.3,M*29
$IIMWV,352,R,14.6,N,A*14
$HCHDG,5.3,0.0,E,,*2F
$IIMWV,353,T,14.6,N,A*13
$HCHDG,5.2,0.0,E,,*2E
$IIRMB,A,0.11,L,,N   ,,,,,000.1,312,,V,A*28
$GPRMC,161917.2,A,4740.96564,N,12224.44030,W,003.50,023.6,190513,016.6,E,A*28
$GPRMB,A,0.11,L,,N,4741.0622,N,12224.6030,W,0.1,311,1.07,V*42
$PGRME,3.0,M,3.0,M,4.3,M*29
$YXXDR,A,5.8,D,PTCH,A,3.6,D,ROLL*55
$HCHDG,5.0,0.0,E,,*2C
$HCHDG,5.1,0.0,E,,*2D
$GPRMC,161917.4,A,4740.96578,N,12224.44017,W,003.63,020.9,190513,016.6,E,A*2A
$PGRME,3.0,M,3.0,M,4.3,M*29
$HCHDG,5.1,0.0,E,,*2D
$HCHDG,5.1,0.0,E,,*2D
$GPRMC,161917.6,A,4740.96601,N,12224.43997,W,003.53,021.8,190513,016.6,E,A*20
$PGRME,3.0,M,3.0,M,4.3,M*29
$HCHDG,5.0,0.0,E,,*2C
$YXXDR,A,5.8,D,PTCH,A,4.0,D,ROLL*54
$PTAK,FFD1,4.0*51
$IIRMC,161900,A,4740.965,N,12224.440,W,03.5,021,190513,16,E,A*16
$HCHDG,5.4,0.0,E,,*28
$GPRMC,161917.8,A,4740.96624,N,12224.43983,W,003.54,022.8,190513,016.6,E,A*28
$PGRME,3.0,M,3.0,M,4.3,M*29
$IIVHW,,,,,00.0,N,,*19
$HCHDG,5.3,0.0,E,,*2F
$IIVLW,06277,N,000.0,N*57
$IIVWR,008,L,14.5,N,,,,*77
$HCHDG,5.2,0.0,E,,*2E
$IIDPT,007.4,-1.0,*43
$GPRMC,161918.0,A,4740.96646,N,12224.43967,W,003.59,021.8,190513,016.6,E,A*2F
$PGRME,3.0,M,3.0,M,4.3,M*29
$HCHDG,5.2,0.0,E,,*2E
$IIGLL,4740.965,N,12224.440,W,161900,A,A*47
$IIMTW,+09.5,C*34
$HCHDG,5.0,0.0,E,,*2C
$IIMWV,352,R,14.5,N,A*17
$GPRMC,161918.2,A,4740.96662,N,12224.43954,W,003.47,024.0,190513,016.6,E,A*29
$PGRME,3.0,M,3.0,M,4.3,M*29
$IIMWV,352,T,14.6,N,A*12
$YXXDR,A,5.9,D,PTCH,A,4.2,D,ROLL*57
$HCHDG,5.2,0.0,E,,*2E
$HCHDG,5.2,0.0,E,,*2E
$PTAK,FFP1,HEEL,@*07
$GPRMC,161918.4,A,4740.96670,N,12224.43938,W,003.60,022.9,190513,016.6,E,A*2C
$GPRMB,A,0.11,L,,N,4741.0622,N,12224.6030,W,0.1,311,1.11,V*45
$PGRME,3.0,M,3.0,M,4.3,M*29
$HCHDG,5.1,0.0,E,,*2D
$HCHDG,5.2,0.0,E,,*2E
$GPRMC,161918.6,A,4740.96688,N,12224.43936,W,003.51,023.9,190513,016.6,E,A*24
$PGRME,3.0,M,3.0,M,4.3,M*29
$HCHDG,5.1,0.0,E,,*2D
$IIRMB,A,0.11,L,,N   ,,,,,000.1,311,,V,A*2B
$YXXDR,A,5.8,D,PTCH,A,4.3,D,ROLL*57
$PTAK,FFD1,4.3*52
$HCHDG,5.3,0.0,E,,*2F
$GPRMC,161918.8,A,4740.96703,N,12224.43927,W,003.50,023.4,190513,016.6,E,A*24
$PGRME,3.0,M,3.0,M,4.3,M*29
$HCHDG,5.2,0.0,E,,*2E
$IIRMC,161900,A,4740.965,N,12224.440,W,03.5,021,190513,16,E,A*16
$IIVHW,,,,,00.0,N,,*19
$HCHDG,5.4,0.0,E,,*28
$IIVLW,06277,N,000.0,N*57
$GPRMC,161919.0,A,4740.96719,N,12224.43910,W,003.57,023.3,190513,016.6,E,A*22
$PGRME,3.0,M,3.0,M,4.3,M*29
$IIVWR,009,L,14.6,N,,,,*75
$HCHDG,5.2,0.0,E,,*2E
$IIDPT,007.4,-1.0,*43
$HCHDG,5.5,0.0,E,,*29
$IIGLL,4740.965,N,12224.440,W,161900,A,A*47
$GPRMC,161919.2,A,4740.96739,N,12224.43900,W,003.50,021.1,190513,016.6,E,A*24
$PGRME,3.0,M,3.0,M,4.3,M*29
$IIMTW,+09.5,C*34
$YXXDR,A,6.0,D,PTCH,A,4.9,D,ROLL*56
$HCHDG,5.4,0.0,E,,*28
$HCHDG,5.6,0.0,E,,*2A
$GPRMC,161919.4,A,4740.96760,N,12224.43884,W,003.51,022.5,190513,016.6,E,A*25
$GPRMB,A,0.11,L,,N,4741.0622,N,12224.6030,W,0.1,311,1.09,V*4C
$PGRME,3.0,M,3.0,M,4.3,M*29
$HCHDG,5.5,0.0,E,,*29
$HCHDG,5.7,0.0,E,,*2B
$GPRMC,161919.6,A,4740.96769,N,12224.43876,W,003.53,021.7,190513,016.6,E,A*20
$PGRME,3.0,M,3.0,M,4.3,M*29
$HCHDG,5.6,0.0,E,,*2A
$IIMWV,351,R,14.7,N,A*16
$YXXDR,A,6.2,D,PTCH,A,4.8,D,ROLL*55
$IIMWV,351,T,14.6,N,A*11
$HCHDG,5.6,0.0,E,,*2A
$GPRMC,161919.8,A,4740.96781,N,12224.43870,W,003.59,020.3,190513,016.6,E,A*21
$PGRME,3.0,M,3.0,M,4.3,M*29
$IIRMB,A,0.11,L,,N   ,,,,,000.1,311,,V,A*2B
$HCHDG,5.9,0.0,E,,*25
$HCHDG,5.9,0.0,E,,*25
$IIRMC,161900,A,4740.967,N,12224.439,W,03.5,023,190513,16,E,A*18
$GPRMC,161920.0,A,4740.96798,N,12224.43862,W,003.54,019.9,190513,016.6,E,A*25
$PGRME,3.0,M,3.0,M,4.3,M*29
$IIVHW,,,,,00.0,N,,*19
$HCHDG,5.9,0.0,E,,*25
$IIVLW,06277,N,000.0,N*57
$IIVWR,009,L,14.7,N,,,,*74
$HCHDG,5.9,0.0,E,,*25
$IIDPT,007.4,-1.0,*43
$GPRMC,161920.2,A,4740.96808,N,12224.43843,W,003.53,020.7,190513,016.6,E,A*21
$PGRME,3.0,M,3.0,M,4.3,M*29
$YXXDR,A,6.2,D,PTCH,A,4.8,D,ROLL*55
$PTAK,FFD1,4.8*59
$HCHDG,5.9,0.0,E,,*25
$HCHDG,5.6,0.0,E,,*2A
$GPRMC,161920.4,A,4740.96822,N,12224.43833,W,003.57,019.9,190513,016.6,E,A*28
$PGRME,3.0,M,3.0,M,4.3,M*29
$HCHDG,5.7,0.0,E,,*2B
$HCHDG,5.8,0.0,E,,*24
$GPRMC,161920.6,A,4740.96840,N,12224.43819,W,003.54,022.1,190513,016.6,E,A*25
$GPRMB,A,0.11,L,,N,4741.0622,N,12224.6030,W,0.1,310,1.10,V*45
$PGRME,3.0,M,3.0,M,4.3,M*29
$HCHDG,5.6,0.0,E,,*2A
$IIGLL,4740.967,N,12224.439,W,161900,A,A*4B
$YXXDR,A,6.0,D,PTCH,A,4.0,D,ROLL*5F
$IIMTW,+09.5,C*34
$HCHDG,5.6,0.0,E,,*2A
$GPRMC,161920.8,A,4740.96858,N,12224.43798,W,003.48,022.3,190513,016.6,E,A*2B
$PGRME,3.0,M,3.0,M,4.3,M*29
$IIMWV,350,R,14.5,N,A*15
$HCHDG,5.7,0.0,E,,*2B
$IIMWV,351,T,14.7,N,A*10
$HCHDG,5.5,0.0,E,,*29
$IIRMB,A,0.11,L,,N   ,,,,,000.1,311,,V,A*2B
$GPRMC,161921.0,A,4740.96872,N,12224.43787,W,003.56,020.6,190513,016.6,E,A*2C
$PGRME,3.0,M,3.0,M,4.3,M*29
$HCHDG,5.6,0.0,E,,*2A
$IIRMC,161900,A,4740.967,N,12224.439,W,03.5,023,190513,16,E,A*18
$IIVHW,,,,,00.0,N,,*19
$HCHDG,5.6,0.0,E,,*2A
$GPRMC,161921.2,A,4740.96886,N,12224.43776,W,003.53,021.4,190513,016.6,E,A*2D
$PGRME,3.0,M,3.0,M,4.3,M*29
$IIVLW,06277,N,000.0,N*57
$YXXDR,A,6.0,D,PTCH,A,3.8,D,ROLL*50
$PTAK,FFD1,3.8*5E
$HCHDG,5.7,0.0,E,,*2B
$HCHDG,5.6,0.0,E,,*2A
$GPRMC,161921.4,A,4740.96900,N,12224.43770,W,003.64,020.0,190513,016.6,E,A*23
$PGRME,3.0,M,3.0,M,4.3,M*29
$HCHDG,5.6,0.0,E,,*2A
$HCHDG,5.6,0.0,E,,*2A
$GPRMC,161921.6,A,4740.96913,N,12224.43768,W,003.50,019.7,190513,016.6,E,A*20
$GPRMB,A,0.11,L,,N,4741.0622,N,12224.6030,W,0.1,310,1.21,V*47
$PGRME,3.0,M,3.0,M,4.3,M*29
$HCHDG,5.5,0.0,E,,*29
$IIVWR,009,L,14.4,N,,,,*77
$YXXDR,A,6.0,D,PTCH,A,3.8,D,ROLL*50
$IIDPT,007.3,-1.0,*44
$HCHDG,5.6,0.0,E,,*2A
$GPRMC,161921.8,A,4740.96931,N,12224.43757,W,003.59,021.9,190513,016.6,E,A*2E
$PGRME,3.0,M,3.0,M,4.3,M*29
$IIGLL,4740.968,N,12224.437,W,161900,A,A*4A
$HCHDG,5.7,0.0,E,,*2B
$IIMTW,+09.5,C*34
$IIMWV,351,R,14.4,N,A*15
$HCHDG,5.6,0.0,E,,*2A
$IIMWV,350,T,14.5,N,A*13
$GPRMC,161922.0,A,4740.96955,N,12224.43735,W,003.53,022.2,190513,016.6,E,A*21
$PGRME,3.0,M,3.0,M,4.3,M*29
$HCHDG,5.8,0.0,E,,*24
$IIRMB,A,0.11,L,,N   ,,,,,000.1,310,,V,A*2A
$HCHDG,5.9,0.0,E,,*25
$GPRMC,161922.2,A,4740.96975,N,12224.43722,W,003.46,021.0,190513,016.6,E,A*22
$PGRME,3.0,M,3.0,M,4.3,M*29
$IIRMC,161900,A,4740.968,N,12224.437,W,03.5,020,190513,16,E,A*1A
$YXXDR,A,5.9,D,PTCH,A,3.6,D,ROLL*54
$PTAK,FFD1,3.6*50
$HCHDG,5.7,0.0,E,,*2B
$HCHDG,5.8,0.0,E,,*24
$GPRMC,161922.4,A,4740.96992,N,12224.43715,W,003.62,020.7,190513,016.6,E,A*29
$PTAK,FFP1,HEEL,@*07
$PGRME,3.0,M,3.0,M,4.3,M*29
$HCHDG,5.7,0.0,E,,*2B
$HCHDG,5.9,0.0,E,,*25
$GPRMC,161922.6,A,4740.97005,N,12224.43713,W,003.51,021.5,190513,016.6,E,A*28
$PGRME,3.0,M,3.0,M,4.3,M*29
$HCHDG,5.9,0.0,E,,*25
$IIVHW,,,,,00.0,N,,*19
$YXXDR,A,6.0,D,PTCH,A,3.8,D,ROLL*50
$IIVLW,06277,N,000.0,N*57
$HCHDG,5.9,0.0,E,,*25
$IIVWR,009,L,14.3,N,,,,*70
$GPRMC,161922.8,A,4740.97016,N,12224.43706,W,003.55,021.2,190513,016.6,E,A*23
$GPRMB,A,0.11,L,,N,4741.0622,N,12224.6030,W,0.1,309,1.11,V*4C
$PGRME,3.0,M,3.0,M,4.3,M*29
$IIDPT,007.3,-1.0,*44
$HCHDG,5.9,0.0,E,,*25
$IIGLL,4740.969,N,12224.437,W,161900,A,A*4B
$HCHDG,6.0,0.0,E,,*2F
$IIMTW,+09.5,C*34
$GPRMC,161923.0,A,4740.97037,N,12224.43690,W,003.51,022.0,190513,016.6,E,A*22
$PGRME,3.0,M,3.0,M,4.3,M*29
$IIMWV,351,R,14.3,N,A*12
$HCHDG,6.1,0.0,E,,*2E
$IIMWV,351,T,14.4,N,A*13
$HCHDG,6.1,0.0,E,,*2E
$IIRMB,A,0.11,L,,N   ,,,,,000.1,310,,V,A*2A
$GPRMC,161923.2,A,4740.97061,N,12224.43681,W,003.56,021.7,190513,016.6,E,A*20
$PGRME,3.0,M,3.0,M,4.3,M*29
$YXXDR,A,5.8,D,PTCH,A,4.0,D,ROLL*54
$HCHDG,6.2,0.0,E,,*2D
$HCHDG,6.0,0.0,E,,*2F
$GPRMC,161923.4,A,4740.97084,N,12224.43664,W,003.56,021.6,190513,016.6,E,A*27
$PGRME,3.0,M,3.0,M,4.3,M*29
$HCHDG,6.0,0.0,E,,*2F
$HCHDG,6.1,0.0,E,,*2E
$GPRMC,161923.6,A,4740.97109,N,12224.43658,W,003.52,022.6,190513,016.6,E,A*29
$PGRME,3.0,M,3.0,M,4.3,M*29
$HCHDG,6.3,0.0,E,,*2C
$YXXDR,A,5.9,D,PTCH,A,4.2,D,ROLL*57
$PTAK,FFD1,4.2*53
$IIRMC,161900,A,4740.970,N,12224.436,W,03.5,021,190513,16,E,A*13
$HCHDG,6.2,0.0,E,,*2D
$GPRMC,161923.8,A,4740.97131,N,12224.43643,W,003.54,022.9,190513,016.6,E,A*2F
$PGRME,3.0,M,3.0,M,4.3,M*29
$IIVHW,,,,,00.0,N,,*19
$HCHDG,6.1,0.0,E,,*2E
$IIVLW,06277,N,000.0,N*57
$IIVWR,008,L,14.5,N,,,,*77
$HCHDG,6.1,0.0,E,,*2E
$IIDPT,007.3,-1.0,*44
$GPRMC,161924.0,A,4740.97152,N,12224.43641,W,003.57,024.7,190513,016.6,E,A*2C
$GPRMB,A,0.11,L,,N,4741.0622,N,12224.6030,W,0.1,309,0.88,V*4D
$PGRME,3.0,M,3.0,M,4.3,M*29
$HCHDG,6.1,0.0,E,,*2E
$IIGLL,4740.970,N,12224.436,W,161900,A,A*42
$IIMTW,+09.5,C*34
$HCHDG,6.0,0.0,E,,*2F
$IIMWV,352,R,14.5,N,A*17
$GPRMC,161924.2,A,4740.97167,N,12224.43630,W,003.59,023.7,190513,016.6,E,A*27
$PGRME,3.0,M,3.0,M,4.3,M*29
$IIMWV,351,T,14.3,N,A*14
$YXXDR,A,5.9,D,PTCH,A,4.2,D,ROLL*57
$HCHDG,6.0,0.0,E,,*2F
$HCHDG,6.0,0.0,E,,*2F
$GPRMC,161924.4,A,4740.97185,N,12224.43624,W,003.58,024.0,190513,016.6,E,A*29
$PGRME,3.0,M,3.0,M,4.3,M*29
$HCHDG,6.2,0.0,E,,*2D
$HCHDG,6.2,0.0,E,,*2D
$GPRMC,161924.6,A,4740.97204,N,12224.43617,W,003.63,023.0,190513,016.6,E,A*2E
$PGRME,3.0,M,3.0,M,4.3,M*29
$HCHDG,6.2,0.0,E,,*2D
$IIRMB,A,0.11,L,,N   ,,,,,000.1,309,,V,A*22
$YXXDR,A,5.9,D,PTCH,A,4.3,D,ROLL*56
$PTAK,FFD1,4.3*52
$HCHDG,6.2,0.0,E,,*2D
$GPRMC,161924.8,A,4740.97227,N,12224.43595,W,003.56,024.1,190513,016.6,E,A*28
$PGRME,3.0,M,3.0,M,4.3,M*29
$HCHDG,6.1,0.0,E,,*2E
$IIRMC,161900,A,4740.971,N,12224.436,W,03.5,023,190513,16,E,A*10
$IIVHW,,,,,00.0,N,,*19
$HCHDG,6.2,0.0,E,,*2D
$IIVLW,06277,N,000.0,N*57
$GPRMC,161925.0,A,4740.97253,N,12224.43572,W,003.64,023.1,190513,016.6,E,A*2D
$PGRME,3.0,M,3.0,M,4.3,M*29
$IIVWR,008,L,14.6,N,,,,*74
$HCHDG,6.2,0.0,E,,*2D
$IIDPT,007.3,-1.0,*44
$HCHDG,6.3,0.0,E,,*2C
$IIGLL,4740.971,N,12224.436,W,161900,A,A*43
$GPRMC,161925.2,A,4740.97271,N,12224.43562,W,003.53,025.5,190513,016.6,E,A*28
$GPRMB,A,0.11,L,,N,4741.0622,N,12224.6030,W,0.1,308,0.79,V*42
$PGRME,3.0,M,3.0,M,4.3,M*29
$IIMTW,+09.5,C*34
$YXXDR,A,6.0,D,PTCH,A,4.1,D,ROLL*5E
$HCHDG,6.3,0.0,E,,*2C
$HCHDG,6.3,0.0,E,,*2C
$GPRMC,161925.4,A,4740.97283,N,12224.43559,W,003.67,023.5,190513,016.6,E,A*2A
$PGRME,3.0,M,3.0,M,4.3,M*29
$HCHDG,6.4,0.0,E,,*2B
$HCHDG,6.4,0.0,E,,*2B
$GPRMC,161925.6,A,4740.97300,N,12224.43548,W,003.53,026.9,190513,016.6,E,A*2C
$PGRME,3.0,M,3.0,M,4.3,M*29
$HCHDG,6.5,0.0,E,,*2A
$IIMWV,351,R,14.7,N,A*16
$YXXDR,A,5.8,D,PTCH,A,4.1,D,ROLL*55
$IIMWV,352,T,14.6,N,A*12
$HCHDG,6.5,0.0,E,,*2A
$GPRMC,161925.8,A,4740.97321,N,12224.43533,W,003.65,024.9,190513,016.6,E,A*2A
$PGRME,3.0,M,3.0,M,4.3,M*29
$IIRMB,A,0.11,L,,N   ,,,,,000.1,308,,V,A*23
$HCHDG,6.4,0.0,E,,*2B
$HCHDG,6.5,0.0,E,,*2A
$IIRMC,161900,A,4740.972,N,12224.435,W,03.5,025,190513,16,E,A*16
$GPRMC,161926.0,A,4740.97346,N,12224.43524,W,003.65,022.4,190513,016.6,E,A*2D
$PGRME,3.0,M,3.0,M,4.3,M*29
$IIVHW,,,,,00.0,N,,*19
$HCHDG,6.5,0.0,E,,*2A
$IIVLW,06277,N,000.0,N*57
$IIVWR,009,L,14.7,N,,,,*74
$HCHDG,6.6,0.0,E,,*29
$IIDPT,007.3,-1.0,*44
$GPRMC,161926.2,A,4740.97374,N,12224.43520,W,003.56,026.0,190513,016.6,E,A*2A
$GPRMB,A,0.11,L,,N,4741.0622,N,12224.6030,W,0.1,308,0.74,V*4F
$PGRME,3.0,M,3.0,M,4.3,M*29
$YXXDR,A,5.8,D,PTCH,A,4.3,D,ROLL*57
$PTAK,FFD1,4.3*52
$PTAK,FFP1,HEEL,@*07
$HCHDG,6.6,0.0,E,,*29
$HCHDG,6.6,0.0,E,,*29
$GPRMC,161926.4,A,4740.97397,N,12224.43503,W,003.52,025.7,190513,016.6,E,A*20
$PGRME,3.0,M,3.0,M,4.3,M*29
$HCHDG,6.5,0.0,E,,*2A
$HCHDG,6.4,0.0,E,,*2B
$GPRMC,161926.6,A,4740.97417,N,12224.43486,W,003.58,024.7,190513,016.6,E,A*2A
$PGRME,3.0,M,3.0,M,4.3,M*29
$HCHDG,6.6,0.0,E,,*29
$IIGLL,4740.973,N,12224.435,W,161900,A,A*42
$YXXDR,A,5.6,D,PTCH,A,4.5,D,ROLL*5F
$IIMTW,+09.5,C*34
$HCHDG,6.6,0.0,E,,*29
$GPRMC,161926.8,A,4740.97430,N,12224.43478,W,003.56,026.6,190513,016.6,E,A*2D
$PGRME,3.0,M,3.0,M,4.3,M*29
$IIMWV,352,R,15.0,N,A*13
$HCHDG,6.5,0.0,E,,*2A
$IIMWV,351,T,14.7,N,A*10
$HCHDG,6.4,0.0,E,,*2B
$IIRMB,A,0.11,L,,N   ,,,,,000.1,308,,V,A*23
$GPRMC,161927.0,A,4740.97442,N,12224.43477,W,003.56,024.7,190513,016.6,E,A*2D
$PGRME,3.0,M,3.0,M,4.3,M*29
$HCHDG,6.5,0.0,E,,*2A
$IIRMC,161900,A,4740.973,N,12224.435,W,03.5,026,190513,16,E,A*14
$IIVHW,,,,,00.0,N,,*19
$HCHDG,6.3,0.0,E,,*2C
$GPRMC,161927.2,A,4740.97459,N,12224.43461,W,003.55,026.2,190513,016.6,E,A*26
$PGRME,3.0,M,3.0,M,4.3,M*29
$IIVLW,06277,N,000.0,N*57
$YXXDR,A,5.8,D,PTCH,A,4.8,D,ROLL*5C
$HCHDG,6.5,0.0,E,,*2A
$HCHDG,6.3,0.0,E,,*2C
$GPRMC,161927.4,A,4740.97476,N,12224.43449,W,003.53,025.0,190513,016.6,E,A*20
$GPRMB,A,0.11,L,,N,4741.0622,N,12224.6030,W,0.1,308,0.77,V*4C
$PGRME,3.0,M,3.0,M,4.3,M*29
$HCHDG,6.4,0.0,E,,*2B
$HCHDG,6.3,0.0,E,,*2C
$GPRMC,161927.6,A,4740.97500,N,12224.43430,W,003.55,025.1,190513,016.6,E,A*2B
$PGRME,3.0,M,3.0,M,4.3,M*29
$HCHDG,6.3,0.0,E,,*2C
$IIVWR,007,L,15.3,N,,,,*7F
$YXXDR,A,5.9,D,PTCH,A,5.3,D,ROLL*57
$PTAK,FFD1,5.3*53
$IIDPT,007.3,-1.0,*44
$HCHDG,6.5,0.0,E,,*2A
$GPRMC,161927.8,A,4740.97524,N,12224.43412,W,003.54,025.2,190513,016.6,E,A*21
$PGRME,3.0,M,3.0,M,4.3,M*29
$IIGLL,4740.974,N,12224.434,W,161900,A,A*44
$HCHDG,6.2,0.0,E,,*2D
$IIMTW,+09.5,C*34
$IIMWV,353,R,15.3,N,A*11
$HCHDG,6.3,0.0,E,,*2C
$IIMWV,352,T,15.0,N,A*15
$GPRMC,161928.0,A,4740.97536,N,12224.43405,W,003.55,024.4,190513,016.6,E,A*25
$PGRME,3.0,M,3.0,M,4.3,M*29
$HCHDG,6.3,0.0,E,,*2C
$IIRMB,A,0.11,L,,N   ,,,,,000.1,308,,V,A*23
$HCHDG,6.4,0.0,E,,*2B
$GPRMC,161928.2,A,4740.97548,N,12224.43399,W,003.53,024.1,190513,016.6,E,A*2F
$PGRME,3.0,M,3.0,M,4.3,M*29
$IIRMC,161900,A,4740.974,N,12224.434,W,03.5,026,190513,16,E,A*12
$YXXDR,A,5.9,D,PTCH,A,6.2,D,ROLL*55
$HCHDG,6.5,0.0,E,,*2A
$HCHDG,6.5,0.0,E,,*2A
$GPRMC,161928.4,A,4740.97567,N,12224.43399,W,003.54,022.3,190513,016.6,E,A*27
$PGRME,3.0,M,3.0,M,4.3,M*29
$HCHDG,6.3,0.0,E,,*2C
$HCHDG,6.4,0.0,E,,*2B
$GPRMC,161928.6,A,4740.97588,N,12224.43382,W,003.56,025.2,190513,016.6,E,A*2A
$GPRMB,A,0.11,L,,N,4741.0622,N,12224.6030,W,0.1,307,0.74,V*40
$PGRME,3.0,M,3.0,M,4.3,M*29
$HCHDG,6.2,0.0,E,,*2D
$IIVHW,,,,,00.0,N,,*19
$YXXDR,A,6.2,D,PTCH,A,6.0,D,ROLL*5F
$PTAK,FFD1,6.0*53
$IIVLW,06277,N,000.0,N*57
$HCHDG,6.4,0.0,E,,*2B
$GPRMC,161928.8,A,4740.97608,N,12224.43371,W,003.58,020.3,190513,016.6,E,A*29
$IIVWR,007,L,15.4,N,,,,*78
$PGRME,3.0,M,3.0,M,4.3,M*29
$IIDPT,007.3,-1.0,*44
$HCHDG,6.2,0.0,E,,*2D
$IIGLL,4740.974,N,12224.434,W,161900,A,A*44
$HCHDG,6.3,0.0,E,,*2C
$IIMTW,+09.5,C*34
$GPRMC,161929.0,A,4740.97625,N,12224.43358,W,003.59,025.1,190513,016.6,E,A*22
$PGRME,3.0,M,3.0,M,4.3,M*29
$IIMWV,353,R,15.4,N,A*16
$HCHDG,6.3,0.0,E,,*2C
$IIMWV,353,T,15.3,N,A*17
$HCHDG,6.4,0.0,E,,*2B
$IIRMB,A,0.11,L,,N   ,,,,,000.1,308,,V,A*23
$GPRMC,161929.2,A,4740.97644,N,12224.43350,W,003.59,022.9,190513,016.6,E,A*20
$PGRME,3.0,M,3.0,M,4.3,M*29
$YXXDR,A,6.1,D,PTCH,A,5.8,D,ROLL*57
$HCHDG,6.2,0.0,E,,*2D
$HCHDG,6.2,0.0,E,,*2D
$GPRMC,161929.4,A,4740.97663,N,12224.43347,W,003.60,023.4,190513,016.6,E,A*23
$PGRME,3.0,M,3.0,M,4.3,M*29
$HCHDG,6.1,0.0,E,,*2E
$HCHDG,6.2,0.0,E,,*2D
$GPRMC,161929.6,A,4740.97681,N,12224.43348,W,003.60,022.6,190513,016.6,E,A*21
$PGRME,3.0,M,3.0,M,4.3,M*29
$HCHDG,6.2,0.0,E,,*2D
$YXXDR,A,5.8,D,PTCH,A,5.5,D,ROLL*50
$IIRMC,161900,A,4740.975,N,12224.433,W,03.5,022,190513,16,E,A*10
$HCHDG,6.1,0.0,E,,*2E
$GPRMC,161929.8,A,4740.97690,N,12224.43336,W,003.59,022.1,190513,016.6,E,A*2B
$GPRMB,A,0.11,L,,N,4741.0622,N,12224.6030,W,0.1,307,0.91,V*4B
$PGRME,3.0,M,3.0,M,4.3,M*29
$IIVHW,,,,,00.0,N,,*19
$HCHDG,6.2,0.0,E,,*2D
$IIVLW,06277,N,000.0,N*57
$IIVWR,009,L,15.6,N,,,,*74
$HCHDG,6.2,0.0,E,,*2D
$IIDPT,007.3,-1.0,*44
$GPRMC,161930.0,A,4740.97705,N,12224.43323,W,003.60,022.7,190513,016.6,E,A*2E
$PGRME,3.0,M,3.0,M,4.3,M*29
$HCHDG,6.2,0.0,E,,*2D
$IIGLL,4740.975,N,12224.433,W,161900,A,A*42
$IIMTW,+09.5,C*34
$HCHDG,6.2,0.0,E,,*2D
$IIMWV,351,R,15.6,N,A*16
$GPRMC,161930.2,A,4740.97720,N,12224.43300,W,003.61,022.7,190513,016.6,E,A*2B
$PGRME,3.0,M,3.0,M,4.3,M*29
$IIMWV,353,T,15.4,N,A*10
$YXXDR,A,5.8,D,PTCH,A,5.4,D,ROLL*51
$PTAK,FFD1,5.4*54
$HCHDG,5.9,0.0,E,,*25
$HCHDG,5.9,0.0,E,,*25
$GPRMC,161930.4,A,4740.97746,N,12224.43279,W,003.60,024.1,190513,016.6,E,A*23
$PGRME,3.0,M,3.0,M,4.3,M*29
$HCHDG,6.0,0.0,E,,*2F
$PTAK,FFP1,HEEL,@*07
$HCHDG,6.0,0.0,E,,*2F
$GPRMC,161930.6,A,4740.97768,N,12224.43260,W,003.61,023.5,190513,016.6,E,A*27
$PGRME,3.0,M,3.0,M,4.3,M*29
$HCHDG,6.0,0.0,E,,*2F
$IIRMB,A,0.11,L,,N   ,,,,,000.1,307,,V,A*2C
$YXXDR,A,5.8,D,PTCH,A,5.3,D,ROLL*56
$HCHDG,6.0,0.0,E,,*2F
$GPRMC,161930.8,A,4740.97784,N,12224.43246,W,003.62,022.3,190513,016.6,E,A*2B
$PGRME,3.0,M,3.0,M,4.3,M*29
$HCHDG,6.0,0.0,E,,*2F
$IIRMC,161900,A,4740.976,N,12224.433,W,03.6,023,190513,16,E,A*11
$IIVHW,,,,,00.0,N,,*19
$HCHDG,6.0,0.0,E,,*2F
$IIVLW,06277,N,000.0,N*57
$GPRMC,161931.0,A,4740.97800,N,12224.43250,W,003.61,023.8,190513,016.6,E,A*2F
$GPRMB,A,0.11,L,,N,4741.0622,N,12224.6030,W,0.1,306,0.78,V*4D
$PGRME,3.0,M,3.0,M,4.3,M*29
$IIVWR,009,L,15.7,N,,,,*75
$HCHDG,6.0,0.0,E,,*2F
$IIDPT,007.3,-1.0,*44
$HCHDG,5.9,0.0,E,,*25
$IIGLL,4740.976,N,12224.433,W,161900,A,A*41
$GPRMC,161931.2,A,4740.97819,N,12224.43242,W,003.58,025.5,190513,016.6,E,A*27
$IIMTW,+09.5,C*34
$PGRME,3.0,M,3.0,M,4.3,M*29
$YXXDR,A,5.6,D,PTCH,A,5.6,D,ROLL*5D
$PTAK,FFD1,5.6*56
$HCHDG,5.8,0.0,E,,*24
$HCHDG,6.0,0.0,E,,*2F
$GPRMC,161931.4,A,4740.97836,N,12224.43225,W,003.60,022.6,190513,016.6,E,A*22
$PGRME,3.0,M,3.0,M,4.3,M*29
$HCHDG,5.9,0.0,E,,*25
$HCHDG,5.9,0.0,E,,*25
$GPRMC,161931.6,A,4740.97850,N,12224.43207,W,003.60,022.5,190513,016.6,E,A*23
$PGRME,3.0,M,3.0,M,4.3,M*29
$HCHDG,6.1,0.0,E,,*2E
$IIMWV,351,R,15.7,N,A*17
$YXXDR,A,5.8,D,PTCH,A,6.1,D,ROLL*57
$IIMWV,351,T,15.7,N,A*11
$HCHDG,6.0,0.0,E,,*2F
$GPRMC,161931.8,A,4740.97865,N,12224.43191,W,003.59,025.3,190513,016.6,E,A*2C
$PGRME,3.0,M,3.0,M,4.3,M*29
$IIRMB,A,0.11,L,,N   ,,,,,000.1,306,,V,A*2D
$HCHDG,5.9,0.0,E,,*25
$HCHDG,5.8,0.0,E,,*24
$IIRMC,161900,A,4740.977,N,12224.432,W,03.6,024,190513,16,E,A*16
$GPRMC,161932.0,A,4740.97878,N,12224.43175,W,003.61,022.5,190513,016.6,E,A*2B
$GPRMB,A,0.12,L,,N,4741.0622,N,12224.6030,W,0.1,306,0.84,V*4D
$PGRME,3.0,M,3.0,M,4.3,M*29
$IIVHW,,,,,00.0,N,,*19
$HCHDG,5.9,0.0,E,,*25
$IIVLW,06277,N,000.0,N*57
$IIVWR,009,L,15.7,N,,,,*75
$HCHDG,5.8,0.0,E,,*24
$IIDPT,007.3,-1.0,*44
$GPRMC,161932.2,A,4740.97894,N,12224.43165,W,003.63,023.6,190513,016.6,E,A*2A
$PGRME,3.0,M,3.0,M,4.3,M*29
$YXXDR,A,5.7,D,PTCH,A,6.4,D,ROLL*5D
$HCHDG,5.8,0.0,E,,*24
$HCHDG,5.9,0.0,E,,*25
$GPRMC,161932.4,A,4740.97903,N,12224.43165,W,003.45,022.9,190513,016.6,E,A*29
$PGRME,3.0,M,3.0,M,4.3,M*29
$HCHDG,5.8,0.0,E,,*24
$HCHDG,5.9,0.0,E,,*25
$GPRMC,161932.6,A,4740.97906,N,12224.43144,W,003.64,024.0,190513,016.6,E,A*21
$PGRME,3.0,M,3.0,M,4.3,M*29
$HCHDG,6.0,0.0,E,,*2F
$IIGLL,4740.978,N,12224.432,W,161900,A,A*4E
$YXXDR,A,5.8,D,PTCH,A,6.8,D,ROLL*5E
$PTAK,FFD1,6.8*5B
$IIMTW,+09.5,C*34
$HCHDG,6.1,0.0,E,,*2E
$GPRMC,161932.8,A,4740.97929,N,12224.43141,W,003.64,022.0,190513,016.6,E,A*21
$PGRME,3.0,M,3.0,M,4.3,M*29
$IIMWV,351,R,15.8,N,A*18
$HCHDG,5.9,0.0,E,,*25
$IIMWV,351,T,15.7,N,A*11
$HCHDG,6.1,0.0,E,,*2E
$IIRMB,A,0.12,L,,N   ,,,,,000.1,306,,V,A*2E
$GPRMC,161933.0,A,4740.97950,N,12224.43141,W,003.63,023.4,190513,016.6,E,A*24
$GPRMB,A,0.12,L,,N,4741.0622,N,12224.6030,W,0.1,306,0.77,V*41
$PGRME,3.0,M,3.0,M,4.3,M*29
$HCHDG,6.0,0.0,E,,*2F
$IIRMC,161900,A,4740.978,N,12224.432,W,03.6,022,190513,16,E,A*1F
$IIVHW,,,,,00.0,N,,*19
$HCHDG,6.1,0.0,E,,*2E
$GPRMC,161933.2,A,4740.97965,N,12224.43136,W,003.59,023.0,190513,016.6,E,A*2D
$PGRME,3.0,M,3.0,M,4.3,M*29
$IIVLW,06277,N,000.0,N*57
$YXXDR,A,5.8,D,PTCH,A,6.9,D,ROLL*5F
$HCHDG,6.1,0.0,E,,*2E
$HCHDG,6.2,0.0,E,,*2D
$GPRMC,161933.4,A,4740.97983,N,12224.43138,W,003.61,021.6,190513,016.6,E,A*22
$PGRME,3.0,M,3.0,M,4.3,M*29
$HCHDG,6.1,0.0,E,,*2E
$HCHDG,6.3,0.0,E,,*2C
$GPRMC,161933.6,A,4740.98000,N,12224.43138,W,003.61,022.2,190513,016.6,E,A*2A
$PGRME,3.0,M,3.0,M,4.3,M*29
$HCHDG,6.2,0.0,E,,*2D
$IIVWR,009,L,15.8,N,,,,*7A
$YXXDR,A,5.9,D,PTCH,A,7.2,D,ROLL*54
$IIDPT,007.3,-1.0,*44
$HCHDG,6.1,0.0,E,,*2E
$GPRMC,161933.8,A,4740.98016,N,12224.43138,W,003.59,023.7,190513,016.6,E,A*2C
$PGRME,3.0,M,3.0,M,4.3,M*29
$IIGLL,4740.979,N,12224.431,W,161900,A,A*4C
$HCHDG,6.1,0.0,E,,*2E
$IIMTW,+09.5,C*34
$IIMWV,351,R,15.8,N,A*18
$HCHDG,6.0,0.0,E,,*2F
$IIMWV,351,T,15.8,N,A*1E
$GPRMC,161934.0,A,4740.98034,N,12224.43139,W,003.59,020.7,190513,016.6,E,A*21
$PGRME,3.0,M,3.0,M,4.3,M*29
$HCHDG,6.0,0.0,E,,*2F
$IIRMB,A,0.12,L,,N   ,,,,,000.1,306,,V,A*2E
$HCHDG,6.0,0.0,E,,*2F
$GPRMC,161934.2,A,4740.98051,N,12224.43127,W,003.60,022.3,190513,016.6,E,A*23
$PGRME,3.0,M,3.0,M,4.3,M*29
$IIRMC,161900,A,4740.979,N,12224.431,W,03.4,022,190513,16,E,A*1F
$YXXDR,A,6.0,D,PTCH,A,6.6,D,ROLL*5B
$PTAK,FFD1,6.6*55
$HCHDG,6.0,0.0,E,,*2F
$HCHDG,6.1,0.0,E,,*2E
$GPRMC,161934.4,A,4740.98069,N,12224.43110,W,003.59,022.6,190513,016.6,E,A*25
$GPRMB,A,0.12,L,,N,4741.0622,N,12224.6030,W,0.1,305,0.78,V*4D
$PGRME,3.0,M,3.0,M,4.3,M*29
$HCHDG,6.1,0.0,E,,*2E
$PTAK,FFP1,HEEL,@*07
$HCHDG,6.2,0.0,E,,*2D
$GPRMC,161934.6,A,4740.98085,N,12224.43099,W,003.58,022.8,190513,016.6,E,A*2A
$PGRME,3.0,M,3.0,M,4.3,M*29
$HCHDG,6.0,0.0,E,,*2F
$IIVHW,,,,,00.0,N,,*19
$YXXDR,A,5.9,D,PTCH,A,6.2,D,ROLL*55
$IIVLW,06277,N,000.0,N*57
$HCHDG,6.1,0.0,E,,*2E
$IIVWR,009,L,15.9,N,,,,*7B
$GPRMC,161934.8,A,4740.98102,N,12224.43085,W,003.60,022.4,190513,016.6,E,A*20
$PGRME,3.0,M,3.0,M,4.3,M*29
$IIDPT,007.3,-1.0,*44
$HCHDG,5.9,0.0,E,,*25
$IIGLL,4740.979,N,12224.431,W,161900,A,A*4C
$HCHDG,6.1,0.0,E,,*2E
$IIMTW,+09.5,C*34
$GPRMC,161935.0,A,4740.98120,N,12224.43071,W,003.59,022.3,190513,016.6,E,A*2F
$PGRME,3.0,M,3.0,M,4.3,M*29
$IIMWV,351,R,15.9,N,A*19
$HCHDG,6.1,0.0,E,,*2E
$IIMWV,351,T,15.8,N,A*1E
$HCHDG,6.0,0.0,E,,*2F
$IIRMB,A,0.12,L,,N   ,,,,,000.1,306,,V,A*2E
$GPRMC,161935.2,A,4740.98126,N,12224.43062,W,003.59,023.6,190513,016.6,E,A*2D
$PGRME,3.0,M,3.0,M,4.3,M*29
$YXXDR,A,5.8,D,PTCH,A,5.8,D,ROLL*5D
$HCHDG,5.9,0.0,E,,*25
$HCHDG,6.0,0.0,E,,*2F
$GPRMC,161935.4,A,4740.98138,N,12224.43055,W,003.63,021.5,190513,016.6,E,A*28
$PGRME,3.0,M,3.0,M,4.3,M*29
$HCHDG,5.8,0.0,E,,*24
$HCHDG,6.0,0.0,E,,*2F
$GPRMC,161935.6,A,4740.98158,N,12224.43036,W,003.62,023.6,190513,016.6,E,A*29
$GPRMB,A,0.12,L,,N,4741.0622,N,12224.6030,W,0.1,305,0.70,V*45
$PGRME,3.0,M,3.0,M,4.3,M*29
$HCHDG,6.1,0.0,E,,*2E
$YXXDR,A,5.6,D,PTCH,A,5.6,D,ROLL*5D
$PTAK,FFD1,5.6*56
$IIRMC,161900,A,4740.980,N,12224.431,W,03.5,022,190513,16,E,A*18
$HCHDG,5.9,0.0,E,,*25
$GPRMC,161935.8,A,4740.98176,N,12224.43028,W,003.62,023.6,190513,016.6,E,A*24
$PGRME,3.0,M,3.0,M,4.3,M*29
$IIVHW,,,,,00.0,N,,*19
$HCHDG,5.9,0.0,E,,*25
$IIVLW,06277,N,000.0,N*57
$IIVWR,007,L,15.9,N,,,,*75
$HCHDG,6.0,0.0,E,,*2F
$IIDPT,007.3,-1.0,*44
$GPRMC,161936.0,A,4740.98199,N,12224.43024,W,003.63,022.0,190513,016.6,E,A*24
$PGRME,3.0,M,3.0,M,4.3,M*29
$HCHDG,6.2,0.0,E,,*2D
$IIGLL,4740.980,N,12224.431,W,161900,A,A*4A
$IIMTW,+09.5,C*34
$HCHDG,6.3,0.0,E,,*2C
$IIMWV,353,R,15.9,N,A*1B
$GPRMC,161936.2,A,4740.98218,N,12224.43010,W,003.62,023.3,190513,016.6,E,A*28
$PGRME,3.0,M,3.0,M,4.3,M*29
$IIMWV,351,T,15.9,N,A*1F
$YXXDR,A,5.7,D,PTCH,A,5.7,D,ROLL*5D
$HCHDG,6.1,0.0,E,,*2E
$HCHDG,6.2,0.0,E,,*2D
$GPRMC,161936.4,A,4740.98233,N,12224.42997,W,003.61,022.9,190513,016.6,E,A*28
$PGRME,3.0,M,3.0,M,4.3,M*29
$HCHDG,6.3,0.0,E,,*2C
$HCHDG,6.3,0.0,E,,*2C
$GPRMC,161936.6,A,4740.98251,N,12224.42989,W,003.60,024.2,190513,016.6,E,A*2D
$GPRMB,A,0.12,L,,N,4741.0622,N,12224.6030,W,0.1,304,0.64,V*41
$PGRME,3.0,M,3.0,M,4.3,M*29
$HCHDG,6.3,0.0,E,,*2C
$IIRMB,A,0.12,L,,N   ,,,,,000.1,305,,V,A*2D
$YXXDR,A,5.8,D,PTCH,A,5.8,D,ROLL*5D
$PTAK,FFD1,5.8*58
$HCHDG,6.4,0.0,E,,*2B
$GPRMC,161936.8,A,4740.98270,N,12224.42979,W,003.58,024.5,190513,016.6,E,A*23
$PGRME,3.0,M,3.0,M,4.3,M*29
$HCHDG,6.4,0.0,E,,*2B
$IIRMC,161900,A,4740.981,N,12224.430,W,03.6,021,190513,16,E,A*18
$IIVHW,,,,,00.0,N,,*19
$HCHDG,6.4,0.0,E,,*2B
$IIVLW,06277,N,000.0,N*57
$GPRMC,161937.0,A,4740.98287,N,12224.42961,W,003.58,023.7,190513,016.6,E,A*2E
$PGRME,3.0,M,3.0,M,4.3,M*29
$IIVWR,006,L,15.9,N,,,,*74
$HCHDG,6.4,0.0,E,,*2B
$IIDPT,007.3,-1.0,*44
$HCHDG,6.4,0.0,E,,*2B
$IIGLL,4740.981,N,12224.430,W,161900,A,A*4A
$GPRMC,161937.2,A,4740.98312,N,12224.42951,W,003.56,022.3,190513,016.6,E,A*29
$IIMTW,+09.5,C*34
$PGRME,3.0,M,3.0,M,4.3,M*29
$YXXDR,A,5.6,D,PTCH,A,5.9,D,ROLL*52
$HCHDG,6.6,0.0,E,,*29
$HCHDG,6.7,0.0,E,,*28
$GPRMC,161937.4,A,4740.98329,N,12224.42933,W,003.56,023.7,190513,016.6,E,A*26
$PGRME,3.0,M,3.0,M,4.3,M*29
$HCHDG,6.7,0.0,E,,*28
$HCHDG,6.7,0.0,E,,*28
$GPRMC,161937.6,A,4740.98339,N,12224.42926,W,003.57,023.5,190513,016.6,E,A*22
$GPRMB,A,0.12,L,,N,4741.0622,N,12224.6030,W,0.1,304,0.65,V*40
$PGRME,3.0,M,3.0,M,4.3,M*29
$HCHDG,6.8,0.0,E,,*27
$IIMWV,355,R,15.9,N,A*1D
$YXXDR,A,5.6,D,PTCH,A,6.0,D,ROLL*58
$IIMWV,354,T,15.9,N,A*1A
$HCHDG,6.8,0.0,E,,*27
$GPRMC,161937.8,A,4740.98361,N,12224.42923,W,003.56,022.6,190513,016.6,E,A*27
$PGRME,3.0,M,3.0,M,4.3,M*29
$IIRMB,A,0.12,L,,N   ,,,,,000.1,304,,V,A*2C
$HCHDG,6.8,0.0,E,,*27
$HCHDG,6.7,0.0,E,,*28
$IIRMC,161900,A,4740.982,N,12224.429,W,03.6,022,190513,16,E,A*10
$GPRMC,161938.0,A,4740.98372,N,12224.42907,W,003.55,023.4,190513,016.6,E,A*24
$PGRME,3.0,M,3.0,M,4.3,M*29
$IIVHW,,,,,00.0,N,,*19
$HCHDG,6.9,0.0,E,,*26
$IIVLW,06277,N,000.0,N*57
$IIVWR,005,L,15.9,N,,,,*77
$HCHDG,6.9,0.0,E,,*26
$IIDPT,007.3,-1.0,*44
$GPRMC,161938.2,A,4740.98393,N,12224.42901,W,003.56,022.9,190513,016.6,E,A*20
$PGRME,3.0,M,3.0,M,4.3,M*29
$YXXDR,A,5.8,D,PTCH,A,5.8,D,ROLL*5D
$PTAK,FFD1,5.8*58
$HCHDG,7.0,0.0,E,,*2E
$HCHDG,6.8,0.0,E,,*27
$GPRMC,161938.4,A,4740.98415,N,12224.42889,W,003.56,024.0,190513,016.6,E,A*21
$PGRME,3.0,M,3.0,M,4.3,M*29
$HCHDG,6.9,0.0,E,,*26
$HCHDG,7.0,0.0,E,,*2E
$GPRMC,161938.6,A,4740.98436,N,12224.42877,W,003.56,022.0,190513,016.6,E,A*25
$PGRME,3.0,M,3.0,M,4.3,M*29
$HCHDG,6.8,0.0,E,,*27
$PTAK,FFP1,HEEL,@*07
$IIGLL,4740.983,N,12224.429,W,161900,A,A*40
$YXXDR,A,6.0,D,PTCH,A,5.2,D,ROLL*5C
$IIMTW,+09.5,C*34
$HCHDG,7.1,0.0,E,,*2F
$GPRMC,161938.8,A,4740.98462,N,12224.42863,W,003.57,022.4,190513,016.6,E,A*2A
$GPRMB,A,0.12,L,,N,4741.0622,N,12224.6030,W,0.1,303,0.68,V*4A
$PGRME,3.0,M,3.0,M,4.3,M*29
$IIMWV,354,R,15.7,N,A*12
$HCHDG,7.0,0.0,E,,*2E
$IIMWV,355,T,15.9,N,A*1B
$HCHDG,7.0,0.0,E,,*2E
$IIRMB,A,0.12,L,,N   ,,,,,000.1,304,,V,A*2C
$GPRMC,161939.0,A,4740.98482,N,12224.42857,W,003.57,023.5,190513,016.6,E,A*2A
$PGRME,3.0,M,3.0,M,4.3,M*29
$HCHDG,7.0,0.0,E,,*2E
$IIRMC,161900,A,4740.983,N,12224.429,W,03.5,023,190513,16,E,A*13
$IIVHW,,,,,00.0,N,,*19
$HCHDG,7.1,0.0,E,,*2F
$GPRMC,161939.2,A,4740.98503,N,12224.42848,W,003.58,024.7,190513,016.6,E,A*24
$PGRME,3.0,M,3.0,M,4.3,M*29
$IIVLW,06277,N,000.0,N*57
$YXXDR,A,5.8,D,PTCH,A,5.0,D,ROLL*55
$PTAK,FFD1,5.0*50
$HCHDG,7.2,0.0,E,,*2C
$HCHDG,7.1,0.0,E,,*2F
$GPRMC,161939.4,A,4740.98523,N,12224.42841,W,003.60,024.9,190513,016.6,E,A*2C
$PGRME,3.0,M,3.0,M,4.3,M*29
$HCHDG,7.4,0.0,E,,*2A
$HCHDG,7.3,0.0,E,,*2D
$GPRMC,161939.6,A,4740.98542,N,12224.42833,W,003.60,024.6,190513,016.6,E,A*23
$PGRME,3.0,M,3.0,M,4.3,M*29
$HCHDG,7.3,0.0,E,,*2D
$IIVWR,007,L,15.7,N,,,,*7B
$YXXDR,A,5.6,D,PTCH,A,4.4,D,ROLL*5E
$IIDPT,007.1,-1.0,*46
$HCHDG,7.2,0.0,E,,*2C
$GPRMC,161939.8,A,4740.98558,N,12224.42822,W,003.60,024.8,190513,016.6,E,A*28
$PGRME,3.0,M,3.0,M,4.3,M*29
$IIGLL,4740.984,N,12224.428,W,161900,A,A*46
$HCHDG,7.3,0.0,E,,*2D
$IIMTW,+09.5,C*34
$IIMWV,353,R,15.7,N,A*15
$HCHDG,7.2,0.0,E,,*2C
$IIMWV,354,T,15.7,N,A*14
$GPRMC,161940.0,A,4740.98586,N,12224.42807,W,003.62,025.1,190513,016.6,E,A*20
$GPRMB,A,0.12,L,,N,4741.0622,N,12224.6030,W,0.1,303,0.49,V*49
$PGRME,3.0,M,3.0,M,4.3,M*29
$HCHDG,7.1,0.0,E,,*2F
$IIRMB,A,0.12,L,,N   ,,,,,000.1,303,,V,A*2B
$HCHDG,7.2,0.0,E,,*2C
$GPRMC,161940.2,A,4740.98607,N,12224.42805,W,003.59,025.7,190513,016.6,E,A*24
$PGRME,3.0,M,3.0,M,4.3,M*29
$IIRMC,161900,A,4740.984,N,12224.428,W,03.5,024,190513,16,E,A*12
$YXXDR,A,5.6,D,PTCH,A,4.1,D,ROLL*5B
$PTAK,FFD1,4.1*50
$HCHDG,7.2,0.0,E,,*2C
$HCHDG,7.3,0.0,E,,*2D
$GPRMC,161940.4,A,4740.98617,N,12224.42797,W,003.58,025.5,190513,016.6,E,A*24
$PGRME,3.0,M,3.0,M,4.3,M*29
$HCHDG,7.4,0.0,E,,*2A
$HCHDG,7.5,0.0,E,,*2B
$GPRMC,161940.6,A,4740.98638,N,12224.42783,W,003.58,024.8,190513,016.6,E,A*22
$PGRME,3.0,M,3.0,M,4.3,M*29
$HCHDG,7.3,0.0,E,,*2D
$IIVHW,,,,,00.0,N,,*19
$YXXDR,A,5.6,D,PTCH,A,4.5,D,ROLL*5F
$IIVLW,06277,N,000.0,N*57
$HCHDG,7.4,0.0,E,,*2A
$GPRMC,161940.8,A,4740.98656,N,12224.42773,W,003.54,028.0,190513,016.6,E,A*23
$IIVWR,006,L,15.5,N,,,,*78
$PGRME,3.0,M,3.0,M,4.3,M*29
$IIDPT,007.1,-1.0,*46
$HCHDG,7.5,0.0,E,,*2B
$IIGLL,4740.985,N,12224.428,W,161900,A,A*47
$HCHDG,7.5,0.0,E,,*2B
$IIMTW,+09.5,C*34
$GPRMC,161941.0,A,4740.98681,N,12224.42756,W,003.55,026.1,190513,016.6,E,A*29
$PGRME,3.0,M,3.0,M,4.3,M*29
$IIMWV,354,R,15.5,N,A*10
$HCHDG,7.5,0.0,E,,*2B
$IIMWV,353,T,15.7,N,A*13
$HCHDG,7.5,0.0,E,,*2B
$IIRMB,A,0.12,L,,N   ,,,,,000.1,303,,V,A*2B
$GPRMC,161941.2,A,4740.98704,N,12224.42744,W,003.57,026.6,190513,016.6,E,A*21
$GPRMB,A,0.12,L,,N,4741.0622,N,12224.6030,W,0.1,302,0.36,V*40
$PGRME,3.0,M,3.0,M,4.3,M*29
$YXXDR,A,5.5,D,PTCH,A,4.7,D,ROLL*5E
$PTAK,FFD1,4.7*56
$HCHDG,7.5,0.0,E,,*2B
$HCHDG,7.4,0.0,E,,*2A
$GPRMC,161941.4,A,4740.98727,N,12224.42731,W,003.54,027.0,190513,016.6,E,A*20
$PGRME,3.0,M,3.0,M,4.3,M*29
$HCHDG,7.4,0.0,E,,*2A
$HCHDG,7.5,0.0,E,,*2B
$GPRMC,161941.6,A,4740.98748,N,12224.42716,W,003.52,028.1,190513,016.6,E,A*26
$PGRME,3.0,M,3.0,M,4.3,M*29
$HCHDG,7.4,0.0,E,,*2A
$YXXDR,A,5.6,D,PTCH,A,5.0,D,ROLL*5B
$IIRMC,161900,A,4740.986,N,12224.427,W,03.5,024,190513,16,E,A*1F
$HCHDG,7.4,0.0,E,,*2A
$GPRMC,161941.8,A,4740.98770,N,12224.42703,W,003.54,025.0,190513,016.6,E,A*2D
$PGRME,3.0,M,3.0,M,4.3,M*29
$IIVHW,,,,,00.0,N,,*19
$HCHDG,7.6,0.0,E,,*28
$IIVLW,06277,N,000.0,N*57
$IIVWR,006,L,15.4,N,,,,*79
$HCHDG,7.5,0.0,E,,*2B
$IIDPT,007.1,-1.0,*46
$GPRMC,161942.0,A,4740.98785,N,12224.42689,W,003.54,026.5,190513,016.6,E,A*29
$PGRME,3.0,M,3.0,M,4.3,M*29
$HCHDG,7.5,0.0,E,,*2B
$IIGLL,4740.986,N,12224.427,W,161900,A,A*4B
$IIMTW,+09.5,C*34
$HCHDG,7.7,0.0,E,,*29
$IIMWV,354,R,15.4,N,A*11
$GPRMC,161942.2,A,4740.98804,N,12224.42679,W,003.56,025.2,190513,016.6,E,A*24
$PGRME,3.0,M,3.0,M,4.3,M*29
$IIMWV,354,T,15.5,N,A*16
$YXXDR,A,5.8,D,PTCH,A,5.1,D,ROLL*54
$HCHDG,7.6,0.0,E,,*28
$HCHDG,7.5,0.0,E,,*2B
$GPRMC,161942.4,A,4740.98817,N,12224.42665,W,003.58,024.9,190513,016.6,E,A*29
$GPRMB,A,0.12,L,,N,4741.0622,N,12224.6030,W,0.1,302,0.44,V*45
$PGRME,3.0,M,3.0,M,4.3,M*29
$HCHDG,7.7,0.0,E,,*29
$HCHDG,7.7,0.0,E,,*29
$GPRMC,161942.6,A,4740.98842,N,12224.42655,W,003.58,028.2,190513,016.6,E,A*2F
$PGRME,3.0,M,3.0,M,4.3,M*29
$HCHDG,7.6,0.0,E,,*28
$PTAK,FFP1,HEEL,@*07
$IIRMB,A,0.12,L,,N   ,,,,,000.1,302,,V,A*2A
$YXXDR,A,5.9,D,PTCH,A,5.3,D,ROLL*57
$PTAK,FFD1,5.3*53
$HCHDG,7.9,0.0,E,,*27
$GPRMC,161942.8,A,4740.98869,N,12224.42632,W,003.57,026.4,190513,016.6,E,A*2E
$PGRME,3.0,M,3.0,M,4.3,M*29
$HCHDG,7.8,0.0,E,,*26
$IIRMC,161900,A,4740.987,N,12224.427,W,03.5,028,190513,16,E,A*12
$IIVHW,,,,,00.0,N,,*19
$HCHDG,7.8,0.0,E,,*26
$IIVLW,06277,N,000.0,N*57
$GPRMC,161943.0,A,4740.98884,N,12224.42622,W,003.58,024.7,190513,016.6,E,A*2B
$PGRME,3.0,M,3.0,M,4.3,M*29
$IIVWR,007,L,15.3,N,,,,*7F
$HCHDG,7.7,0.0,E,,*29
$IIDPT,007.1,-1.0,*46
$HCHDG,7.8,0.0,E,,*26
$IIGLL,4740.987,N,12224.427,W,161900,A,A*4A
$GPRMC,161943.2,A,4740.98903,N,12224.42619,W,003.58,027.5,190513,016.6,E,A*2E
$PGRME,3.0,M,3.0,M,4.3,M*29
$IIMTW,+09.5,C*34
$YXXDR,A,5.9,D,PTCH,A,5.3,D,ROLL*57
$HCHDG,8.0,0.0,E,,*21
$HCHDG,8.0,0.0,E,,*21
$GPRMC,161943.4,A,4740.98922,N,12224.42606,W,003.58,025.2,190513,016.6,E,A*20
$GPRMB,A,0.12,L,,N,4741.0622,N,12224.6030,W,0.1,301,0.39,V*4C
$PGRME,3.0,M,3.0,M,4.3,M*29
$HCHDG,7.9,0.0,E,,*27
$HCHDG,7.9,0.0,E,,*27
$GPRMC,161943.6,A,4740.98946,N,12224.42597,W,003.58,026.3,190513,016.6,E,A*29
$PGRME,3.0,M,3.0,M,4.3,M*29
$HCHDG,7.9,0.0,E,,*27
$IIMWV,353,R,15.2,N,A*10
$YXXDR,A,5.8,D,PTCH,A,5.2,D,ROLL*57
$IIMWV,353,T,15.3,N,A*17
$HCHDG,7.6,0.0,E,,*28
$GPRMC,161943.8,A,4740.98970,N,12224.42583,W,003.58,027.2,190513,016.6,E,A*27
$PGRME,3.0,M,3.0,M,4.3,M*29
$IIRMB,A,0.12,L,,N   ,,,,,000.1,302,,V,A*2A
$HCHDG,7.5,0.0,E,,*2B
$HCHDG,7.6,0.0,E,,*28
$IIRMC,161900,A,4740.988,N,12224.426,W,03.5,028,190513,16,E,A*1C
$GPRMC,161944.0,A,4740.98994,N,12224.42566,W,003.59,025.5,190513,016.6,E,A*2D
$PGRME,3.0,M,3.0,M,4.3,M*29
$PGRMT,GPS 18x-5Hz software ver. 3.20,,,,,,,,*30
$IIVHW,,,,,00.0,N,,*19
$HCHDG,7.6,0.0,E,,*28
$IIVLW,06277,N,000.0,N*57
$IIVWR,007,L,15.2,N,,,,*7E
$HCHDG,7.5,0.0,E,,*2B
$IIDPT,007.1,-1.0,*46
$GPRMC,161944.2,A,4740.99016,N,12224.42553,W,003.60,026.0,190513,016.6,E,A*27
$PGRME,3.0,M,3.0,M,4.3,M*29
$YXXDR,A,5.8,D,PTCH,A,5.0,D,ROLL*55
$PTAK,FFD1,5.0*50
$HCHDG,7.5,0.0,E,,*2B
$HCHDG,7.7,0.0,E,,*29
$GPRMC,161944.4,A,4740.99034,N,12224.42532,W,003.60,028.1,190513,016.6,E,A*29
$GPRMB,A,0.12,L,,N,4741.0622,N,12224.6030,W,0.1,301,0.18,V*4F
$PGRME,3.0,M,3.0,M,4.3,M*29
$HCHDG,7.6,0.0,E,,*28
$HCHDG,7.5,0.0,E,,*2B
$GPRMC,161944.6,A,4740.99055,N,12224.42517,W,003.61,026.0,190513,016.6,E,A*25
$PGRME,3.0,M,3.0,M,4.3,M*29
$HCHDG,7.6,0.0,E,,*28
$IIGLL,4740.989,N,12224.425,W,161900,A,A*46
$YXXDR,A,5.8,D,PTCH,A,4.8,D,ROLL*5C
$IIMTW,+09.5,C*34
$HCHDG,7.4,0.0,E,,*2A
$GPRMC,161944.8,A,4740.99068,N,12224.42508,W,003.62,026.6,190513,016.6,E,A*2E
$PGRME,3.0,M,3.0,M,4.3,M*29
$IIMWV,352,R,15.1,N,A*12
$HCHDG,7.5,0.0,E,,*2B
$IIMWV,353,T,15.2,N,A*16
$HCHDG,7.5,0.0,E,,*2B
$IIRMB,A,0.12,L,,N   ,,,,,000.1,302,,V,A*2A
$GPRMC,161945.0,A,4740.99084,N,12224.42496,W,003.60,027.2,190513,016.6,E,A*24
$PGRME,3.0,M,3.0,M,4.3,M*29
$HCHDG,7.5,0.0,E,,*2B
$IIRMC,161900,A,4740.989,N,12224.425,W,03.5,026,190513,16,E,A*10
$HCHDG,7.4,0.0,E,,*2A
$IIVHW,,,,,00.0,N,,*19
$GPRMC,161945.2,A,4740.99103,N,12224.42480,W,003.61,026.8,190513,016.6,E,A*25
$PGRME,3.0,M,3.0,M,4.3,M*29
$IIVLW,06277,N,000.0,N*57
$YXXDR,A,5.8,D,PTCH,A,4.7,D,ROLL*53
$PTAK,FFD1,4.7*56
$HCHDG,7.4,0.0,E,,*2A
$HCHDG,7.3,0.0,E,,*2D
$GPRMC,161945.4,A,4740.99126,N,12224.42453,W,003.60,028.6,190513,016.6,E,A*2B
$PGRME,3.0,M,3.0,M,4.3,M*29
$HCHDG,7.1,0.0,E,,*2F
$HCHDG,7.4,0.0,E,,*2A
$GPRMC,161945.6,A,4740.99151,N,12224.42431,W,003.62,024.1,190513,016.6,E,A*24
$GPRMB,A,0.12,L,,N,4741.0622,N,12224.6030,W,0.1,300,0.40,V*43
$PGRME,3.0,M,3.0,M,4.3,M*29
$HCHDG,7.5,0.0,E,,*2B
$IIVWR,008,L,15.1,N,,,,*72
$IIDPT,007.1,-1.0,*46
$YXXDR,A,5.8,D,PTCH,A,4.9,D,ROLL*5D
$HCHDG,7.4,0.0,E,,*2A
$GPRMC,161945.8,A,4740.99165,N,12224.42413,W,003.62,027.3,190513,016.6,E,A*2C
$PGRME,3.0,M,3.0,M,4.3,M*29
$IIGLL,4740.990,N,12224.425,W,161900,A,A*4E
$HCHDG,7.4,0.0,E,,*2A
$IIMTW,+09.5,C*34
$IIMWV,352,R,15.1,N,A*12
$HCHDG,7.4,0.0,E,,*2A
$IIMWV,352,T,15.1,N,A*14
$GPRMC,161946.0,A,4740.99182,N,12224.42402,W,003.63,025.6,190513,016.6,E,A*28
$PGRME,3.0,M,3.0,M,4.3,M*29
$HCHDG,7.4,0.0,E,,*2A
$IIRMB,A,0.12,L,,N   ,,,,,000.1,301,,V,A*29
$HCHDG,7.4,0.0,E,,*2A
$GPRMC,161946.2,A,4740.99202,N,12224.42399,W,003.63,024.4,190513,016.6,E,A*27
$PGRME,3.0,M,3.0,M,4.3,M*29
$IIRMC,161900,A,4740.990,N,12224.425,W,03.6,026,190513,16,E,A*1B
$YXXDR,A,5.8,D,PTCH,A,5.0,D,ROLL*55
$PTAK,FFD1,5.0*50
$HCHDG,7.3,0.0,E,,*2D
$HCHDG,7.3,0.0,E,,*2D
$GPRMC,161946.4,A,4740.99222,N,12224.42385,W,003.62,026.6,190513,016.6,E,A*2F
$PGRME,3.0,M,3.0,M,4.3,M*29
