$GPRMC,010000.0,A,4740.81455,N,12224.44120,W,000.00,287.3,190513,016.6,E,D*2D
$PGRME,2.4,M,2.4,M,3.4,M*29
$YXXDR,A,5.5,D,PTCH,A,3.8,D,ROLL*56
$HCHDG,267.2,0.0,E,,*28
$HCHDG,267.2,0.0,E,,*28
$GPRMC,010000.2,A,4740.81455,N,12224.44121,W,000.00,287.3,190513,016.6,E,D*2E
$PGRME,2.4,M,2.4,M,3.4,M*29
$HCHDG,267.2,0.0,E,,*28
$HCHDG,267.2,0.0,E,,*28
$GPRMC,010000.4,A,4740.81455,N,12224.44121,W,000.00,287.3,190513,016.6,E,D*28
$PGRME,2.4,M,2.4,M,3.4,M*29
$HCHDG,267.1,0.0,E,,*2B
$YXXDR,A,5.5,D,PTCH,A,3.8,D,ROLL*56
$PTAK,FFD1,3.8*5E
$GPRMC,010000.6,A,4740.81455,N,12224.44121,W,000.00,287.3,190513,016.6,E,D*2A
$GPRMB,A,0.11,L,,N,4741.0622,N,12224.6030,W,0.3,336,0.00,V*43
$HCHDG,267.1,0.0,E,,*2B
$PGRME,2.4,M,2.4,M,3.4,M*29
$HCHDG,267.1,0.0,E,,*2B
$HCHDG,267.1,0.0,E,,*2B
$GPRMC,010000.8,A,4740.81455,N,12224.44121,W,000.00,287.3,190513,016.6,E,D*24
$PGRME,2.4,M,2.4,M,3.4,M*29
$HCHDG,267.1,0.0,E,,*2B
$HCHDG,267.1,0.0,E,,*2B
$GPRMC,010001.0,A,4740.81455,N,12224.44121,W,000.00,287.3,190513,016.6,E,D*2D
$PTAK,FFP1,HEEL,@*07
$PGRME,2.4,M,2.4,M,3.4,M*29
$YXXDR,A,5.5,D,PTCH,A,3.8,D,ROLL*56
$HCHDG,267.1,0.0,E,,*2B
$HCHDG,267.1,0.0,E,,*2B
$GPRMC,010001.2,A,4740.81455,N,12224.44121,W,000.00,287.3,190513,016.6,E,D*2F
$PGRME,2.4,M,2.4,M,3.4,M*29
$HCHDG,267.1,0.0,E,,*2B
$HCHDG,267.1,0.0,E,,*2B
$GPRMC,010001.4,A,4740.81455,N,12224.44121,W,000.00,287.3,190513,016.6,E,D*29
$PGRME,2.4,M,2.4,M,3.4,M*29
$HCHDG,267.1,0.0,E,,*2B
$YXXDR,A,5.5,D,PTCH,A,3.8,D,ROLL*56
$PTAK,FFD1,3.8*5E
$GPRMC,010001.6,A,4740.81455,N,12224.44121,W,000.00,287.3,190513,016.6,E,D*2B
$GPRMB,A,0.11,L,,N,4741.0622,N,12224.6030,W,0.3,336,0.00,V*43
$HCHDG,267.1,0.0,E,,*2B
$PGRME,2.4,M,2.4,M,3.4,M*29
$HCHDG,267.1,0.0,E,,*2B
$HCHDG,267.1,0.0,E,,*2B
$GPRMC,010001.8,A,4740.81455,N,12224.44121,W,000.00,287.3,190513,016.6,E,D*25
$PGRME,2.4,M,2.4,M,3.4,M*29
$HCHDG,267.1,0.0,E,,*2B
$HCHDG,267.1,0.0,E,,*2B
$GPRMC,010002.0,A,4740.81455,N,12224.44121,W,000.00,287.3,190513,016.6,E,D*2E
$PGRME,2.4,M,2.4,M,3.4,M*29
$YXXDR,A,5.6,D,PTCH,A,3.9,D,ROLL*54
$HCHDG,267.1,0.0,E,,*2B
$HCHDG,267.1,0.0,E,,*2B
$GPRMC,010002.2,A,4740.81455,N,12224.44122,W,000.00,287.3,190513,016.6,E,D*2F
$PGRME,2.4,M,2.4,M,3.4,M*29
$HCHDG,267.1,0.0,E,,*2B
$HCHDG,267.1,0.0,E,,*2B
$GPRMC,010002.4,A,4740.81455,N,12224.44122,W,000.00,287.3,190513,016.6,E,D*29
$PGRME,2.4,M,2.4,M,3.4,M*29
$HCHDG,267.1,0.0,E,,*2B
$YXXDR,A,5.6,D,PTCH,A,3.9,D,ROLL*54
$PTAK,FFD1,3.9*5F
$GPRMC,010002.6,A,4740.81455,N,12224.44122,W,000.00,287.3,190513,016.6,E,D*2B
$GPRMB,A,0.11,L,,N,4741.0622,N,12224.6030,W,0.3,336,0.00,V*43
$HCHDG,267.1,0.0,E,,*2B
$PGRME,2.4,M,2.4,M,3.4,M*29
$HCHDG,267.1,0.0,E,,*2B
$HCHDG,267.1,0.0,E,,*2B
$GPRMC,010002.8,A,4740.81455,N,12224.44122,W,000.00,287.3,190513,016.6,E,D*25
$PGRME,2.4,M,2.4,M,3.4,M*29
$HCHDG,267.1,0.0,E,,*2B
$HCHDG,267.1,0.0,E,,*2B
$GPRMC,010003.0,A,4740.81455,N,12224.44122,W,000.00,287.3,190513,016.6,E,D*2C
$PGRME,2.4,M,2.4,M,3.4,M*29
$YXXDR,A,5.5,D,PTCH,A,3.8,D,ROLL*56
$HCHDG,267.1,0.0,E,,*2B
$HCHDG,267.1,0.0,E,,*2B
$GPRMC,010003.2,A,4740.81455,N,12224.44122,W,000.00,287.3,190513,016.6,E,D*2E
$PGRME,2.4,M,2.4,M,3.4,M*29
$HCHDG,267.1,0.0,E,,*2B
$HCHDG,267.1,0.0,E,,*2B
$GPRMC,010003.4,A,4740.81456,N,12224.44123,W,000.00,287.3,190513,016.6,E,D*2A
$PGRME,2.4,M,2.4,M,3.4,M*29
$HCHDG,267.1,0.0,E,,*2B
$YXXDR,A,5.4,D,PTCH,A,3.8,D,ROLL*57
$PTAK,FFD1,3.8*5E
$GPRMC,010003.6,A,4740.81456,N,12224.44123,W,000.00,287.3,190513,016.6,E,D*28
$GPRMB,A,0.11,L,,N,4741.0622,N,12224.6030,W,0.3,336,0.00,V*43
$HCHDG,267.1,0.0,E,,*2B
$PGRME,2.4,M,2.4,M,3.4,M*29
$HCHDG,267.1,0.0,E,,*2B
$HCHDG,267.1,0.0,E,,*2B
$GPRMC,010003.8,A,4740.81455,N,12224.44123,W,000.00,287.3,190513,016.6,E,D*25
$PGRME,2.4,M,2.4,M,3.4,M*29
$HCHDG,267.1,0.0,E,,*2B
$HCHDG,267.1,0.0,E,,*2B
$GPRMC,010004.0,A,4740.81455,N,12224.44123,W,000.00,287.3,190513,016.6,E,D*2A
$PGRME,2.4,M,2.4,M,3.4,M*29
$YXXDR,A,5.4,D,PTCH,A,3.8,D,ROLL*57
$HCHDG,267.1,0.0,E,,*2B
$HCHDG,267.1,0.0,E,,*2B
$GPRMC,010004.2,A,4740.81455,N,12224.44123,W,000.00,287.3,190513,016.6,E,D*28
$PGRME,2.4,M,2.4,M,3.4,M*29
$HCHDG,267.1,0.0,E,,*2B
$HCHDG,267.1,0.0,E,,*2B
$GPRMC,010004.4,A,4740.81455,N,12224.44123,W,000.00,287.3,190513,016.6,E,D*2E
$PGRME,2.4,M,2.4,M,3.4,M*29
$HCHDG,267.1,0.0,E,,*2B
$YXXDR,A,5.6,D,PTCH,A,3.9,D,ROLL*54
$PTAK,FFD1,3.9*5F
$GPRMC,010004.6,A,4740.81455,N,12224.44123,W,000.00,287.3,190513,016.6,E,D*2C
$GPRMB,A,0.11,L,,N,4741.0622,N,12224.6030,W,0.3,336,0.00,V*43
$PGRME,2.4,M,2.4,M,3.4,M*29
$HCHDG,267.1,0.0,E,,*2B
$HCHDG,267.1,0.0,E,,*2B
$HCHDG,267.1,0.0,E,,*2B
$GPRMC,010004.8,A,4740.81455,N,12224.44124,W,000.00,287.3,190513,016.6,E,D*25
$PGRME,2.4,M,2.4,M,3.4,M*29
$HCHDG,267.1,0.0,E,,*2B
$HCHDG,267.1,0.0,E,,*2B
$GPRMC,010005.0,A,4740.81455,N,12224.44124,W,000.00,287.3,190513,016.6,E,D*2C
$PTAK,FFP1,HEEL,@*07
$PGRME,2.4,M,2.4,M,3.4,M*29
$YXXDR,A,5.6,D,PTCH,A,3.9,D,ROLL*54
$HCHDG,267.1,0.0,E,,*2B
$HCHDG,267.1,0.0,E,,*2B
$GPRMC,010005.2,A,4740.81455,N,12224.44124,W,000.01,287.3,190513,016.6,E,D*2F
$PGRME,2.4,M,2.4,M,3.4,M*29
$HCHDG,267.1,0.0,E,,*2B
$HCHDG,267.1,0.0,E,,*2B
$GPRMC,010005.4,A,4740.81455,N,12224.44124,W,000.01,287.3,190513,016.6,E,D*29
$PGRME,2.4,M,2.4,M,3.4,M*29
$HCHDG,267.1,0.0,E,,*2B
$YXXDR,A,5.4,D,PTCH,A,3.9,D,ROLL*56
$GPRMC,010005.6,A,4740.81455,N,12224.44124,W,000.01,287.3,190513,016.6,E,D*2B
$HCHDG,267.1,0.0,E,,*2B
$PGRME,2.4,M,2.4,M,3.4,M*29
$HCHDG,267.1,0.0,E,,*2B
$HCHDG,267.1,0.0,E,,*2B
$GPRMC,010005.8,A,4740.81455,N,12224.44124,W,000.00,287.3,190513,016.6,E,D*24
$GPRMB,A,0.11,L,,N,4741.0622,N,12224.6030,W,0.3,336,0.00,V*43
$PGRME,2.4,M,2.4,M,3.4,M*29
$HCHDG,267.1,0.0,E,,*2B
$HCHDG,267.1,0.0,E,,*2B
$GPRMC,010006.0,A,4740.81455,N,12224.44124,W,000.00,287.3,190513,016.6,E,D*2F
$PGRME,2.4,M,2.4,M,3.4,M*29
$YXXDR,A,5.4,D,PTCH,A,3.8,D,ROLL*57
$PTAK,FFD1,3.8*5E
$HCHDG,267.1,0.0,E,,*2B
$HCHDG,267.1,0.0,E,,*2B
$GPRMC,010006.2,A,4740.81455,N,12224.44124,W,000.01,287.3,190513,016.6,E,D*2C
$PGRME,2.4,M,2.4,M,3.4,M*29
$HCHDG,267.1,0.0,E,,*2B
$HCHDG,267.1,0.0,E,,*2B
$GPRMC,010006.4,A,4740.81455,N,12224.44124,W,000.00,287.3,190513,016.6,E,D*2B
$PGRME,2.4,M,2.4,M,3.4,M*29
$HCHDG,267.1,0.0,E,,*2B
$YXXDR,A,5.5,D,PTCH,A,3.8,D,ROLL*56
$GPRMC,010006.6,A,4740.81455,N,12224.44124,W,000.00,287.3,190513,016.6,E,D*29
$HCHDG,267.1,0.0,E,,*2B
$PGRME,2.4,M,2.4,M,3.4,M*29
$HCHDG,267.1,0.0,E,,*2B
$HCHDG,267.0,0.0,E,,*2A
$GPRMC,010006.8,A,4740.81455,N,12224.44124,W,000.00,287.3,190513,016.6,E,D*27
$GPRMB,A,0.11,L,,N,4741.0622,N,12224.6030,W,0.3,336,0.00,V*43
$PGRME,2.4,M,2.4,M,3.4,M*29
$HCHDG,267.0,0.0,E,,*2A
$HCHDG,267.0,0.0,E,,*2A
$GPRMC,010007.0,A,4740.81455,N,12224.44124,W,000.00,287.3,190513,016.6,E,D*2E
$PGRME,2.4,M,2.4,M,3.4,M*29
$YXXDR,A,5.5,D,PTCH,A,3.8,D,ROLL*56
$HCHDG,267.0,0.0,E,,*2A
$HCHDG,267.0,0.0,E,,*2A
$GPRMC,010007.2,A,4740.81455,N,12224.44124,W,000.00,287.3,190513,016.6,E,D*2C
$PGRME,2.4,M,2.4,M,3.4,M*29
$HCHDG,267.0,0.0,E,,*2A
$HCHDG,267.0,0.0,E,,*2A
$GPRMC,010007.4,A,4740.81455,N,12224.44125,W,000.00,287.3,190513,016.6,E,D*2B
$PGRME,2.4,M,2.4,M,3.4,M*29
$HCHDG,267.0,0.0,E,,*2A
$YXXDR,A,5.6,D,PTCH,A,3.9,D,ROLL*54
$PTAK,FFD1,3.9*5F
$GPRMC,010007.6,A,4740.81455,N,12224.44125,W,000.00,287.3,190513,016.6,E,D*29
$PGRME,2.4,M,2.4,M,3.4,M*29
$HCHDG,267.0,0.0,E,,*2A
$HCHDG,267.0,0.0,E,,*2A
$HCHDG,267.0,0.0,E,,*2A
$GPRMC,010007.8,A,4740.81454,N,12224.44125,W,000.00,287.3,190513,016.6,E,D*26
$GPRMB,A,0.11,L,,N,4741.0622,N,12224.6030,W,0.3,336,0.00,V*43
$PGRME,2.4,M,2.4,M,3.4,M*29
$HCHDG,267.0,0.0,E,,*2A
$HCHDG,267.0,0.0,E,,*2A
$GPRMC,010008.0,A,4740.81454,N,12224.44126,W,000.00,287.3,190513,016.6,E,D*22
$PGRME,2.4,M,2.4,M,3.4,M*29
$YXXDR,A,5.6,D,PTCH,A,3.9,D,ROLL*54
$HCHDG,267.0,0.0,E,,*2A
$HCHDG,267.0,0.0,E,,*2A
$GPRMC,010008.2,A,4740.81454,N,12224.44126,W,000.00,287.3,190513,016.6,E,D*20
$PGRME,2.4,M,2.4,M,3.4,M*29
$HCHDG,267.0,0.0,E,,*2A
$HCHDG,267.0,0.0,E,,*2A
$GPRMC,010008.4,A,4740.81454,N,12224.44126,W,000.00,287.3,190513,016.6,E,D*26
$PGRME,2.4,M,2.4,M,3.4,M*29
$HCHDG,267.0,0.0,E,,*2A
$YXXDR,A,5.5,D,PTCH,A,3.8,D,ROLL*56
$GPRMC,010008.6,A,4740.81454,N,12224.44126,W,000.00,287.3,190513,016.6,E,D*24
$HCHDG,267.0,0.0,E,,*2A
$PGRME,2.4,M,2.4,M,3.4,M*29
$HCHDG,267.0,0.0,E,,*2A
$HCHDG,267.0,0.0,E,,*2A
$GPRMC,010008.8,A,4740.81454,N,12224.44126,W,000.00,287.3,190513,016.6,E,D*2A
$PGRME,2.4,M,2.4,M,3.4,M*29
$HCHDG,267.0,0.0,E,,*2A
$HCHDG,267.0,0.0,E,,*2A
$GPRMC,010009.0,A,4740.81454,N,12224.44126,W,000.00,287.3,190513,016.6,E,D*23
$GPRMB,A,0.11,L,,N,4741.0622,N,12224.6030,W,0.3,336,0.00,V*43
$PTAK,FFP1,HEEL,@*07
$PGRME,2.4,M,2.4,M,3.4,M*29
$YXXDR,A,5.5,D,PTCH,A,3.8,D,ROLL*56
$PTAK,FFD1,3.8*5E
$HCHDG,267.0,0.0,E,,*2A
$HCHDG,267.0,0.0,E,,*2A
$GPRMC,010009.2,A,4740.81454,N,12224.44126,W,000.00,287.3,190513,016.6,E,D*21
$PGRME,2.4,M,2.4,M,3.4,M*29
$HCHDG,267.0,0.0,E,,*2A
$HCHDG,267.0,0.0,E,,*2A
$GPRMC,010009.4,A,4740.81454,N,12224.44126,W,000.00,287.3,190513,016.6,E,D*27
$PGRME,2.4,M,2.4,M,3.4,M*29
$HCHDG,267.0,0.0,E,,*2A
$YXXDR,A,5.4,D,PTCH,A,3.8,D,ROLL*57
$GPRMC,010009.6,A,4740.81454,N,12224.44126,W,000.00,287.3,190513,016.6,E,D*25
$HCHDG,267.0,0.0,E,,*2A
$PGRME,2.4,M,2.4,M,3.4,M*29
$HCHDG,267.0,0.0,E,,*2A
$HCHDG,267.0,0.0,E,,*2A
$GPRMC,010009.8,A,4740.81454,N,12224.44126,W,000.00,287.3,190513,016.6,E,D*2B
$PGRME,2.4,M,2.4,M,3.4,M*29
$HCHDG,267.0,0.0,E,,*2A
$HCHDG,267.0,0.0,E,,*2A
$GPRMC,010010.0,A,4740.81454,N,12224.44126,W,000.00,287.3,190513,016.6,E,D*2B
$PGRME,2.4,M,2.4,M,3.4,M*29
$YXXDR,A,5.6,D,PTCH,A,3.9,D,ROLL*54
$HCHDG,267.0,0.0,E,,*2A
$HCHDG,267.0,0.0,E,,*2A
$GPRMC,010010.2,A,4740.81454,N,12224.44126,W,000.00,287.3,190513,016.6,E,D*29
$GPRMB,A,0.11,L,,N,4741.0622,N,12224.6030,W,0.3,336,0.00,V*43
$PGRME,2.4,M,2.4,M,3.4,M*29
$HCHDG,267.0,0.0,E,,*2A
$HCHDG,267.0,0.0,E,,*2A
$GPRMC,010010.4,A,4740.81454,N,12224.44126,W,000.00,287.3,190513,016.6,E,D*2F
$PGRME,2.4,M,2.4,M,3.4,M*29
$HCHDG,267.0,0.0,E,,*2A
$YXXDR,A,5.4,D,PTCH,A,3.9,D,ROLL*56
$PTAK,FFD1,3.9*5F
$GPRMC,010010.6,A,4740.81454,N,12224.44126,W,000.00,287.3,190513,016.6,E,D*2D
$PGRME,2.4,M,2.4,M,3.4,M*29
$HCHDG,267.0,0.0,E,,*2A
$HCHDG,267.0,0.0,E,,*2A
$HCHDG,267.0,0.0,E,,*2A
$GPRMC,010010.8,A,4740.81454,N,12224.44126,W,000.00,287.3,190513,016.6,E,D*23
$PGRME,2.4,M,2.4,M,3.4,M*29
$HCHDG,267.0,0.0,E,,*2A
$HCHDG,267.0,0.0,E,,*2A
$GPRMC,010011.0,A,4740.81454,N,12224.44126,W,000.00,287.3,190513,016.6,E,D*2A
$PGRME,2.4,M,2.4,M,3.4,M*29
$YXXDR,A,5.6,D,PTCH,A,3.9,D,ROLL*54
$HCHDG,267.0,0.0,E,,*2A
$HCHDG,267.0,0.0,E,,*2A
$GPRMC,010011.2,A,4740.81454,N,12224.44126,W,000.00,287.3,190513,016.6,E,D*28
$PGRME,2.4,M,2.4,M,3.4,M*29
$HCHDG,267.0,0.0,E,,*2A
$HCHDG,267.0,0.0,E,,*2A
$GPRMC,010011.4,A,4740.81454,N,12224.44127,W,000.00,287.3,190513,016.6,E,D*2F
$GPRMB,A,0.11,L,,N,4741.0622,N,12224.6030,W,0.3,336,0.00,V*43
$PGRME,2.4,M,2.4,M,3.4,M*29
$HCHDG,267.0,0.0,E,,*2A
$YXXDR,A,5.5,D,PTCH,A,3.8,D,ROLL*56
$PTAK,FFD1,3.8*5E
$GPRMC,010011.6,A,4740.81454,N,12224.44127,W,000.00,287.3,190513,016.6,E,D*2D
$HCHDG,267.1,0.0,E,,*2B
$PGRME,2.4,M,2.4,M,3.4,M*29
$HCHDG,267.1,0.0,E,,*2B
$HCHDG,267.1,0.0,E,,*2B
$GPRMC,010011.8,A,4740.81454,N,12224.44127,W,000.00,287.3,190513,016.6,E,D*23
$PGRME,2.4,M,2.4,M,3.4,M*29
$HCHDG,267.1,0.0,E,,*2B
$HCHDG,267.1,0.0,E,,*2B
$GPRMC,010012.0,A,4740.81454,N,12224.44127,W,000.00,287.3,190513,016.6,E,D*28
$PGRME,2.4,M,2.4,M,3.4,M*29
$YXXDR,A,5.5,D,PTCH,A,3.8,D,ROLL*56
$HCHDG,267.1,0.0,E,,*2B
$HCHDG,267.1,0.0,E,,*2B
$GPRMC,010012.2,A,4740.81454,N,12224.44127,W,000.00,287.3,190513,016.6,E,D*2A
$PGRME,2.4,M,2.4,M,3.4,M*29
$HCHDG,267.1,0.0,E,,*2B
$HCHDG,267.1,0.0,E,,*2B
$GPRMC,010012.4,A,4740.81454,N,12224.44128,W,000.00,287.3,190513,016.6,E,D*23
$PGRME,2.4,M,2.4,M,3.4,M*29
$HCHDG,267.1,0.0,E,,*2B
$YXXDR,A,5.5,D,PTCH,A,3.8,D,ROLL*56
$GPRMC,010012.6,A,4740.81453,N,12224.44128,W,000.00,287.3,190513,016.6,E,D*26
$GPRMB,A,0.11,L,,N,4741.0622,N,12224.6030,W,0.3,336,0.00,V*43
$HCHDG,267.1,0.0,E,,*2B
$PGRME,2.4,M,2.4,M,3.4,M*29
$HCHDG,267.1,0.0,E,,*2B
$HCHDG,267.1,0.0,E,,*2B
$GPRMC,010012.8,A,4740.81453,N,12224.44128,W,000.00,287.3,190513,016.6,E,D*28
$PGRME,2.4,M,2.4,M,3.4,M*29
$HCHDG,267.1,0.0,E,,*2B
$HCHDG,267.1,0.0,E,,*2B
$GPRMC,010013.0,A,4740.81453,N,12224.44128,W,000.00,287.3,190513,016.6,E,D*21
$PGRME,2.4,M,2.4,M,3.4,M*29
$YXXDR,A,5.6,D,PTCH,A,3.9,D,ROLL*54
$PTAK,FFD1,3.9*5F
$PTAK,FFP1,HEEL,@*07
$HCHDG,267.1,0.0,E,,*2B
$HCHDG,267.1,0.0,E,,*2B
$GPRMC,010013.2,A,4740.81453,N,12224.44128,W,000.00,287.3,190513,016.6,E,D*23
$PGRME,2.4,M,2.4,M,3.4,M*29
$HCHDG,267.1,0.0,E,,*2B
$HCHDG,267.1,0.0,E,,*2B
$GPRMC,010013.4,A,4740.81453,N,12224.44128,W,000.00,287.3,190513,016.6,E,D*25
$PGRME,2.4,M,2.4,M,3.4,M*29
$HCHDG,267.1,0.0,E,,*2B
$YXXDR,A,5.6,D,PTCH,A,3.9,D,ROLL*54
$GPRMC,010013.6,A,4740.81453,N,12224.44128,W,000.00,287.3,190513,016.6,E,D*27
$GPRMB,A,0.11,L,,N,4741.0622,N,12224.6030,W,0.3,336,0.00,V*43
$PGRME,2.4,M,2.4,M,3.4,M*29
$HCHDG,267.1,0.0,E,,*2B
$HCHDG,267.1,0.0,E,,*2B
$HCHDG,267.1,0.0,E,,*2B
$GPRMC,010013.8,A,4740.81453,N,12224.44128,W,000.00,287.3,190513,016.6,E,D*29
$PGRME,2.4,M,2.4,M,3.4,M*29
$HCHDG,267.1,0.0,E,,*2B
$HCHDG,267.1,0.0,E,,*2B
$GPRMC,010014.0,A,4740.81453,N,12224.44128,W,000.00,287.3,190513,016.6,E,D*26
$PGRME,2.4,M,2.4,M,3.4,M*29
$YXXDR,A,5.5,D,PTCH,A,3.8,D,ROLL*56
$PTAK,FFD1,3.8*5E
$HCHDG,267.1,0.0,E,,*2B
$HCHDG,267.2,0.0,E,,*28
$GPRMC,010014.2,A,4740.81453,N,12224.44128,W,000.00,287.3,190513,016.6,E,D*24
$PGRME,2.4,M,2.4,M,3.4,M*29
$HCHDG,267.2,0.0,E,,*28
$HCHDG,267.2,0.0,E,,*28
$GPRMC,010014.4,A,4740.81453,N,12224.44127,W,000.00,287.3,190513,016.6,E,D*2D
$PGRME,2.4,M,2.4,M,3.4,M*29
$HCHDG,267.2,0.0,E,,*28
$YXXDR,A,5.5,D,PTCH,A,3.8,D,ROLL*56
$GPRMC,010014.6,A,4740.81453,N,12224.44127,W,000.00,287.3,190513,016.6,E,D*2F
$HCHDG,267.2,0.0,E,,*28
$PGRME,2.4,M,2.4,M,3.4,M*29
$HCHDG,267.2,0.0,E,,*28
$HCHDG,267.1,0.0,E,,*2B
$GPRMC,010014.8,A,4740.81454,N,12224.44127,W,000.00,287.3,190513,016.6,E,D*26
$GPRMB,A,0.11,L,,N,4741.0622,N,12224.6030,W,0.3,336,0.00,V*43
$PGRME,2.4,M,2.4,M,3.4,M*29
$HCHDG,267.1,0.0,E,,*2B
$HCHDG,267.1,0.0,E,,*2B
$GPRMC,010015.0,A,4740.81454,N,12224.44127,W,000.00,287.3,190513,016.6,E,D*2F
$PGRME,2.4,M,2.4,M,3.4,M*29
$YXXDR,A,5.5,D,PTCH,A,3.8,D,ROLL*56
$HCHDG,267.1,0.0,E,,*2B
$HCHDG,267.1,0.0,E,,*2B
$GPRMC,010015.2,A,4740.81454,N,12224.44128,W,000.00,287.3,190513,016.6,E,D*22
$PGRME,2.4,M,2.4,M,3.4,M*29
$HCHDG,267.1,0.0,E,,*2B
$HCHDG,267.1,0.0,E,,*2B
$GPRMC,010015.4,A,4740.81454,N,12224.44128,W,000.00,287.3,190513,016.6,E,D*24
$PGRME,2.4,M,2.4,M,3.4,M*29
$HCHDG,267.1,0.0,E,,*2B
$YXXDR,A,5.4,D,PTCH,A,3.9,D,ROLL*56
$PTAK,FFD1,3.9*5F
$GPRMC,010015.6,A,4740.81453,N,12224.44128,W,000.00,287.3,190513,016.6,E,D*21
$HCHDG,267.1,0.0,E,,*2B
$PGRME,2.4,M,2.4,M,3.4,M*29
$HCHDG,267.1,0.0,E,,*2B
$HCHDG,267.1,0.0,E,,*2B
$GPRMC,010015.8,A,4740.81454,N,12224.44128,W,000.00,287.3,190513,016.6,E,D*28
$PGRME,2.4,M,2.4,M,3.4,M*29
$HCHDG,267.1,0.0,E,,*2B
$HCHDG,267.1,0.0,E,,*2B
$GPRMC,010016.0,A,4740.81454,N,12224.44128,W,000.00,287.3,190513,016.6,E,D*23
$GPRMB,A,0.11,L,,N,4741.0622,N,12224.6030,W,0.3,336,0.00,V*43
$PGRME,2.4,M,2.4,M,3.4,M*29
$YXXDR,A,5.6,D,PTCH,A,3.9,D,ROLL*54
$HCHDG,267.1,0.0,E,,*2B
$HCHDG,267.1,0.0,E,,*2B
$GPRMC,010016.2,A,4740.81454,N,12224.44129,W,000.00,287.3,190513,016.6,E,D*20
$PGRME,2.4,M,2.4,M,3.4,M*29
$HCHDG,267.1,0.0,E,,*2B
$HCHDG,267.1,0.0,E,,*2B
$GPRMC,010016.4,A,4740.81454,N,12224.44129,W,000.00,287.3,190513,016.6,E,D*26
$PGRME,2.4,M,2.4,M,3.4,M*29
$HCHDG,267.1,0.0,E,,*2B
$YXXDR,A,5.4,D,PTCH,A,3.8,D,ROLL*57
$PTAK,FFD1,3.8*5E
$GPRMC,010016.6,A,4740.81454,N,12224.44129,W,000.00,287.3,190513,016.6,E,D*24
$PGRME,2.4,M,2.4,M,3.4,M*29
$HCHDG,267.1,0.0,E,,*2B
$HCHDG,267.1,0.0,E,,*2B
$HCHDG,267.1,0.0,E,,*2B
$GPRMC,010016.8,A,4740.81454,N,12224.44129,W,000.00,287.3,190513,016.6,E,D*2A
$PGRME,2.4,M,2.4,M,3.4,M*29
$HCHDG,267.1,0.0,E,,*2B
$HCHDG,267.1,0.0,E,,*2B
$GPRMC,010017.0,A,4740.81454,N,12224.44129,W,000.00,287.3,190513,016.6,E,D*23
$PGRME,2.4,M,2.4,M,3.4,M*29
$YXXDR,A,5.5,D,PTCH,A,3.8,D,ROLL*56
$PTAK,FFP1,HEEL,@*07
$HCHDG,267.1,0.0,E,,*2B
$HCHDG,267.1,0.0,E,,*2B
$GPRMC,010017.2,A,4740.81454,N,12224.44129,W,000.00,287.3,190513,016.6,E,D*21
$GPRMB,A,0.11,L,,N,4741.0622,N,12224.6030,W,0.3,336,0.00,V*43
$PGRME,2.4,M,2.4,M,3.4,M*29
$HCHDG,267.1,0.0,E,,*2B
$HCHDG,267.1,0.0,E,,*2B
$GPRMC,010017.4,A,4740.81454,N,12224.44129,W,000.00,287.3,190513,016.6,E,D*27
$PGRME,2.4,M,2.4,M,3.4,M*29
$HCHDG,267.1,0.0,E,,*2B
$YXXDR,A,5.5,D,PTCH,A,3.8,D,ROLL*56
$GPRMC,010017.6,A,4740.81454,N,12224.44129,W,000.00,287.3,190513,016.6,E,D*25
$HCHDG,267.1,0.0,E,,*2B
$PGRME,2.4,M,2.4,M,3.4,M*29
$HCHDG,267.1,0.0,E,,*2B
$HCHDG,267.1,0.0,E,,*2B
$GPRMC,010017.8,A,4740.81454,N,12224.44129,W,000.00,287.3,190513,016.6,E,D*2B
$PGRME,2.4,M,2.4,M,3.4,M*29
$HCHDG,267.1,0.0,E,,*2B
$HCHDG,267.1,0.0,E,,*2B
$GPRMC,010018.0,A,4740.81454,N,12224.44128,W,000.00,287.3,190513,016.6,E,D*2D
$PGRME,2.4,M,2.4,M,3.4,M*29
$YXXDR,A,5.6,D,PTCH,A,3.9,D,ROLL*54
$PTAK,FFD1,3.9*5F
$HCHDG,267.1,0.0,E,,*2B
$HCHDG,267.1,0.0,E,,*2B
$GPRMC,010018.2,A,4740.81454,N,12224.44128,W,000.00,287.3,190513,016.6,E,D*2F
$PGRME,2.4,M,2.4,M,3.4,M*29
$HCHDG,267.1,0.0,E,,*2B
$HCHDG,267.1,0.0,E,,*2B
$GPRMC,010018.4,A,4740.81454,N,12224.44128,W,000.00,287.3,190513,016.6,E,D*29
$GPRMB,A,0.11,L,,N,4741.0622,N,12224.6030,W,0.3,336,0.00,V*43
$PGRME,2.4,M,2.4,M,3.4,M*29
$HCHDG,267.1,0.0,E,,*2B
$YXXDR,A,5.6,D,PTCH,A,3.9,D,ROLL*54
$GPRMC,010018.6,A,4740.81454,N,12224.44128,W,000.00,287.3,190513,016.6,E,D*2B
$HCHDG,267.1,0.0,E,,*2B
$PGRME,2.4,M,2.4,M,3.4,M*29
$HCHDG,267.1,0.0,E,,*2B
$HCHDG,267.1,0.0,E,,*2B
$GPRMC,010018.8,A,4740.81454,N,12224.44128,W,000.00,287.3,190513,016.6,E,D*25
$PGRME,2.4,M,2.4,M,3.4,M*29
$HCHDG,267.1,0.0,E,,*2B
$HCHDG,267.1,0.0,E,,*2B
$GPRMC,010019.0,A,4740.81454,N,12224.44128,W,000.00,287.3,190513,016.6,E,D*2C
$PGRME,2.4,M,2.4,M,3.4,M*29
$YXXDR,A,5.6,D,PTCH,A,3.9,D,ROLL*54
$HCHDG,267.1,0.0,E,,*2B
$HCHDG,267.1,0.0,E,,*2B
$GPRMC,010019.2,A,4740.81454,N,12224.44127,W,000.00,287.3,190513,016.6,E,D*21
$PGRME,2.4,M,2.4,M,3.4,M*29
$HCHDG,267.1,0.0,E,,*2B
$HCHDG,267.1,0.0,E,,*2B
$GPRMC,010019.4,A,4740.81454,N,12224.44127,W,000.00,287.3,190513,016.6,E,D*27
$PGRME,2.4,M,2.4,M,3.4,M*29
$HCHDG,267.1,0.0,E,,*2B
$YXXDR,A,5.5,D,PTCH,A,3.8,D,ROLL*56
$PTAK,FFD1,3.8*5E
$GPRMC,010019.6,A,4740.81454,N,12224.44127,W,000.00,287.3,190513,016.6,E,D*25
$GPRMB,A,0.11,L,,N,4741.0622,N,12224.6030,W,0.3,336,0.00,V*43
$PGRME,2.4,M,2.4,M,3.4,M*29
$HCHDG,267.1,0.0,E,,*2B
$HCHDG,267.1,0.0,E,,*2B
$HCHDG,267.1,0.0,E,,*2B
$GPRMC,010019.8,A,4740.81454,N,12224.44127,W,000.00,287.3,190513,016.6,E,D*2B
$PGRME,2.4,M,2.4,M,3.4,M*29
$HCHDG,267.1,0.0,E,,*2B
$HCHDG,267.1,0.0,E,,*2B
$GPRMC,010020.0,A,4740.81454,N,12224.44127,W,000.00,287.3,190513,016.6,E,D*29
$PGRME,2.4,M,2.4,M,3.4,M*29
$YXXDR,A,5.5,D,PTCH,A,3.8,D,ROLL*56
$HCHDG,267.1,0.0,E,,*2B
$HCHDG,267.1,0.0,E,,*2B
$GPRMC,010020.2,A,4740.81454,N,12224.44128,W,000.00,287.3,190513,016.6,E,D*24
$PGRME,2.4,M,2.4,M,3.4,M*29
$HCHDG,267.1,0.0,E,,*2B
$HCHDG,267.1,0.0,E,,*2B
$GPRMC,010020.4,A,4740.81455,N,12224.44128,W,000.00,287.3,190513,016.6,E,D*23
$PGRME,2.4,M,2.4,M,3.4,M*29
$HCHDG,267.1,0.0,E,,*2B
$YXXDR,A,5.6,D,PTCH,A,3.9,D,ROLL*54
$GPRMC,010020.6,A,4740.81455,N,12224.44128,W,000.00,287.3,190513,016.6,E,D*21
$HCHDG,267.1,0.0,E,,*2B
$PGRME,2.4,M,2.4,M,3.4,M*29
$HCHDG,267.1,0.0,E,,*2B
$HCHDG,267.1,0.0,E,,*2B
$GPRMC,010020.8,A,4740.81455,N,12224.44128,W,000.00,287.3,190513,016.6,E,D*2F
$GPRMB,A,0.11,L,,N,4741.0622,N,12224.6030,W,0.3,336,0.00,V*43
$PGRME,2.4,M,2.4,M,3.4,M*29
$HCHDG,267.1,0.0,E,,*2B
$HCHDG,267.1,0.0,E,,*2B
$GPRMC,010021.0,A,4740.81455,N,12224.44128,W,000.00,287.3,190513,016.6,E,D*26
$PGRME,2.4,M,2.4,M,3.4,M*29
$YXXDR,A,5.6,D,PTCH,A,3.9,D,ROLL*54
$PTAK,FFD1,3.9*5F
$PTAK,FFP1,HEEL,@*07
$HCHDG,267.1,0.0,E,,*2B
$HCHDG,267.1,0.0,E,,*2B
$GPRMC,010021.2,A,4740.81456,N,12224.44128,W,000.00,287.3,190513,016.6,E,D*27
$PGRME,2.4,M,2.4,M,3.4,M*29
$HCHDG,267.1,0.0,E,,*2B
$HCHDG,267.1,0.0,E,,*2B
$GPRMC,010021.4,A,4740.81456,N,12224.44128,W,000.00,287.3,190513,016.6,E,D*21
$PGRME,2.4,M,2.4,M,3.4,M*29
$HCHDG,267.1,0.0,E,,*2B
$YXXDR,A,5.5,D,PTCH,A,3.8,D,ROLL*56
$GPRMC,010021.6,A,4740.81456,N,12224.44128,W,000.00,287.3,190513,016.6,E,D*23
$HCHDG,267.1,0.0,E,,*2B
$PGRME,2.4,M,2.4,M,3.4,M*29
$HCHDG,267.1,0.0,E,,*2B
$HCHDG,267.1,0.0,E,,*2B
$GPRMC,010021.8,A,4740.81456,N,12224.44128,W,000.00,287.3,190513,016.6,E,D*2D
$GPRMB,A,0.11,L,,N,4741.0622,N,12224.6030,W,0.3,336,0.00,V*43
$PGRME,2.4,M,2.4,M,3.4,M*29
$HCHDG,267.1,0.0,E,,*2B
$HCHDG,267.1,0.0,E,,*2B
$GPRMC,010022.0,A,4740.81456,N,12224.44127,W,000.00,287.3,190513,016.6,E,D*29
$PGRME,2.4,M,2.4,M,3.4,M*29
$YXXDR,A,5.5,D,PTCH,A,3.8,D,ROLL*56
$HCHDG,267.1,0.0,E,,*2B
$HCHDG,267.1,0.0,E,,*2B
$GPRMC,010022.2,A,4740.81456,N,12224.44127,W,000.00,287.3,190513,016.6,E,D*2B
$PGRME,2.4,M,2.4,M,3.4,M*29
$HCHDG,267.1,0.0,E,,*2B
$HCHDG,267.1,0.0,E,,*2B
$GPRMC,010022.4,A,4740.81456,N,12224.44127,W,000.00,287.3,190513,016.6,E,D*2D
$PGRME,2.4,M,2.4,M,3.4,M*29
$HCHDG,267.1,0.0,E,,*2B
$YXXDR,A,5.5,D,PTCH,A,3.8,D,ROLL*56
$PTAK,FFD1,3.8*5E
$GPRMC,010022.6,A,4740.81456,N,12224.44127,W,000.00,287.3,190513,016.6,E,D*2F
$PGRME,2.4,M,2.4,M,3.4,M*29
$HCHDG,267.1,0.0,E,,*2B
$HCHDG,267.1,0.0,E,,*2B
$HCHDG,267.1,0.0,E,,*2B
$GPRMC,010022.8,A,4740.81457,N,12224.44126,W,000.00,287.3,190513,016.6,E,D*21
$GPRMB,A,0.11,L,,N,4741.0622,N,12224.6030,W,0.3,336,0.00,V*43
$PGRME,2.4,M,2.4,M,3.4,M*29
$HCHDG,267.1,0.0,E,,*2B
$HCHDG,267.1,0.0,E,,*2B
$GPRMC,010023.0,A,4740.81457,N,12224.44126,W,000.00,287.3,190513,016.6,E,D*28
$PGRME,2.4,M,2.4,M,3.4,M*29
$YXXDR,A,5.5,D,PTCH,A,3.8,D,ROLL*56
$HCHDG,267.1,0.0,E,,*2B
$HCHDG,267.1,0.0,E,,*2B
$GPRMC,010023.2,A,4740.81457,N,12224.44125,W,000.00,287.3,190513,016.6,E,D*29
$PGRME,2.4,M,2.4,M,3.4,M*29
$HCHDG,267.1,0.0,E,,*2B
$HCHDG,267.1,0.0,E,,*2B
$GPRMC,010023.4,A,4740.81457,N,12224.44125,W,000.00,287.3,190513,016.6,E,D*2F
$PGRME,2.4,M,2.4,M,3.4,M*29
$HCHDG,267.1,0.0,E,,*2B
$YXXDR,A,5.4,D,PTCH,A,3.9,D,ROLL*56
$GPRMC,010023.6,A,4740.81457,N,12224.44125,W,000.00,287.3,190513,016.6,E,D*2D
$HCHDG,267.1,0.0,E,,*2B
$PGRME,2.4,M,2.4,M,3.4,M*29
$HCHDG,267.1,0.0,E,,*2B
$HCHDG,267.1,0.0,E,,*2B
$GPRMC,010023.8,A,4740.81457,N,12224.44125,W,000.00,287.3,190513,016.6,E,D*23
$PGRME,2.4,M,2.4,M,3.4,M*29
$HCHDG,267.1,0.0,E,,*2B
$HCHDG,267.1,0.0,E,,*2B
$GPRMC,010024.0,A,4740.81457,N,12224.44125,W,000.00,287.3,190513,016.6,E,D*2C
$GPRMB,A,0.11,L,,N,4741.0622,N,12224.6030,W,0.3,336,0.00,V*43
$PGRME,2.4,M,2.4,M,3.4,M*29
$YXXDR,A,5.4,D,PTCH,A,3.8,D,ROLL*57
$PTAK,FFD1,3.8*5E
$HCHDG,267.1,0.0,E,,*2B
$HCHDG,267.1,0.0,E,,*2B
$GPRMC,010024.2,A,4740.81457,N,12224.44125,W,000.00,287.3,190513,016.6,E,D*2E
$PGRME,2.4,M,2.4,M,3.4,M*29
$HCHDG,267.1,0.0,E,,*2B
$HCHDG,267.1,0.0,E,,*2B
$GPRMC,010024.4,A,4740.81457,N,12224.44125,W,000.01,287.3,190513,016.6,E,D*29
$PGRME,2.4,M,2.4,M,3.4,M*29
$HCHDG,267.1,0.0,E,,*2B
$YXXDR,A,5.5,D,PTCH,A,3.8,D,ROLL*56
$GPRMC,010024.6,A,4740.81457,N,12224.44125,W,000.01,287.3,190513,016.6,E,D*2B
$HCHDG,267.1,0.0,E,,*2B
$PGRME,2.4,M,2.4,M,3.4,M*29
$HCHDG,267.1,0.0,E,,*2B
$HCHDG,267.1,0.0,E,,*2B
$GPRMC,010024.8,A,4740.81458,N,12224.44125,W,000.00,287.3,190513,016.6,E,D*2B
$PGRME,2.4,M,2.4,M,3.4,M*29
$HCHDG,267.1,0.0,E,,*2B
$HCHDG,267.1,0.0,E,,*2B
$GPRMC,010025.0,A,4740.81458,N,12224.44124,W,000.01,287.3,190513,016.6,E,D*22
$PGRME,2.4,M,2.4,M,3.4,M*29
$YXXDR,A,5.5,D,PTCH,A,3.8,D,ROLL*56
$HCHDG,267.1,0.0,E,,*2B
$PTAK,FFP1,HEEL,@*07
$HCHDG,267.1,0.0,E,,*2B
$GPRMC,010025.2,A,4740.81458,N,12224.44124,W,000.00,287.3,190513,016.6,E,D*21
$GPRMB,A,0.11,L,,N,4741.0622,N,12224.6030,W,0.3,336,0.00,V*43
$PGRME,2.4,M,2.4,M,3.4,M*29
$HCHDG,267.1,0.0,E,,*2B
$HCHDG,267.1,0.0,E,,*2B
$GPRMC,010025.4,A,4740.81458,N,12224.44124,W,000.01,287.3,190513,016.6,E,D*26
$PGRME,2.4,M,2.4,M,3.4,M*29
$HCHDG,267.1,0.0,E,,*2B
$YXXDR,A,5.4,D,PTCH,A,3.8,D,ROLL*57
$PTAK,FFD1,3.8*5E
$GPRMC,010025.6,A,4740.81458,N,12224.44124,W,000.01,287.3,190513,016.6,E,D*24
$PGRME,2.4,M,2.4,M,3.4,M*29
$HCHDG,267.1,0.0,E,,*2B
$HCHDG,267.1,0.0,E,,*2B
$HCHDG,267.1,0.0,E,,*2B
$GPRMC,010025.8,A,4740.81458,N,12224.44124,W,000.00,287.3,190513,016.6,E,D*2B
$PGRME,2.4,M,2.4,M,3.4,M*29
$HCHDG,267.1,0.0,E,,*2B
$HCHDG,267.1,0.0,E,,*2B
$GPRMC,010026.0,A,4740.81458,N,12224.44124,W,000.01,287.3,190513,016.6,E,D*21
$PGRME,2.4,M,2.4,M,3.4,M*29
$YXXDR,A,5.5,D,PTCH,A,3.8,D,ROLL*56
$HCHDG,267.1,0.0,E,,*2B
$HCHDG,267.1,0.0,E,,*2B
$GPRMC,010026.2,A,4740.81458,N,12224.44124,W,000.01,287.3,190513,016.6,E,D*23
$PGRME,2.4,M,2.4,M,3.4,M*29
$HCHDG,267.1,0.0,E,,*2B
$HCHDG,267.1,0.0,E,,*2B
$GPRMC,010026.4,A,4740.81458,N,12224.44124,W,000.01,287.3,190513,016.6,E,D*25
$GPRMB,A,0.11,L,,N,4741.0622,N,12224.6030,W,0.3,336,0.01,V*42
$PGRME,2.4,M,2.4,M,3.4,M*29
$HCHDG,267.1,0.0,E,,*2B
$YXXDR,A,5.4,D,PTCH,A,3.8,D,ROLL*57
$GPRMC,010026.6,A,4740.81458,N,12224.44123,W,000.01,287.3,190513,016.6,E,D*20
$HCHDG,267.1,0.0,E,,*2B
$PGRME,2.4,M,2.4,M,3.4,M*29
$HCHDG,267.1,0.0,E,,*2B
$HCHDG,267.1,0.0,E,,*2B
$GPRMC,010026.8,A,4740.81459,N,12224.44123,W,000.01,287.3,190513,016.6,E,D*2F
$PGRME,2.4,M,2.4,M,3.4,M*29
$HCHDG,267.1,0.0,E,,*2B
$HCHDG,267.1,0.0,E,,*2B
$GPRMC,010027.0,A,4740.81459,N,12224.44122,W,000.01,287.3,190513,016.6,E,D*27
$PGRME,2.4,M,2.4,M,3.4,M*29
$YXXDR,A,5.6,D,PTCH,A,3.9,D,ROLL*54
$PTAK,FFD1,3.9*5F
$HCHDG,267.1,0.0,E,,*2B
$HCHDG,267.1,0.0,E,,*2B
$GPRMC,010027.2,A,4740.81459,N,12224.44122,W,000.00,287.3,190513,016.6,E,D*24
$PGRME,2.4,M,2.4,M,3.4,M*29
$HCHDG,267.1,0.0,E,,*2B
$HCHDG,267.1,0.0,E,,*2B
$GPRMC,010027.4,A,4740.81459,N,12224.44123,W,000.00,287.3,190513,016.6,E,D*23
$PGRME,2.4,M,2.4,M,3.4,M*29
$HCHDG,267.1,0.0,E,,*2B
$YXXDR,A,5.4,D,PTCH,A,3.8,D,ROLL*57
$GPRMC,010027.6,A,4740.81459,N,12224.44122,W,000.00,287.3,190513,016.6,E,D*20
$GPRMB,A,0.11,L,,N,4741.0622,N,12224.6030,W,0.3,336,0.00,V*43
$HCHDG,267.1,0.0,E,,*2B
$PGRME,2.4,M,2.4,M,3.4,M*29
$HCHDG,267.1,0.0,E,,*2B
$HCHDG,267.1,0.0,E,,*2B
$GPRMC,010027.8,A,4740.81459,N,12224.44122,W,000.01,287.3,190513,016.6,E,D*2F
$PGRME,2.4,M,2.4,M,3.4,M*29
$HCHDG,267.1,0.0,E,,*2B
$HCHDG,267.1,0.0,E,,*2B
$GPRMC,010028.0,A,4740.81459,N,12224.44122,W,000.01,287.3,190513,016.6,E,D*28
$PGRME,2.4,M,2.4,M,3.4,M*29
$YXXDR,A,5.5,D,PTCH,A,3.8,D,ROLL*56
$PTAK,FFD1,3.8*5E
$HCHDG,267.1,0.0,E,,*2B
$HCHDG,267.1,0.0,E,,*2B
$GPRMC,010028.2,A,4740.81459,N,12224.44122,W,000.01,287.3,190513,016.6,E,D*2A
$PGRME,2.4,M,2.4,M,3.4,M*29
$HCHDG,267.1,0.0,E,,*2B
$HCHDG,267.1,0.0,E,,*2B
$GPRMC,010028.4,A,4740.81459,N,12224.44122,W,000.00,287.3,190513,016.6,E,D*2D
$PGRME,2.4,M,2.4,M,3.4,M*29
$HCHDG,267.1,0.0,E,,*2B
$YXXDR,A,5.4,D,PTCH,A,3.8,D,ROLL*57
$GPRMC,010028.6,A,4740.81459,N,12224.44122,W,000.01,287.3,190513,016.6,E,D*2E
$GPRMB,A,0.11,L,,N,4741.0622,N,12224.6030,W,0.3,336,0.01,V*42
$PGRME,2.4,M,2.4,M,3.4,M*29
$HCHDG,267.1,0.0,E,,*2B
$HCHDG,267.1,0.0,E,,*2B
$HCHDG,267.1,0.0,E,,*2B
$GPRMC,010028.8,A,4740.81459,N,12224.44122,W,000.01,287.3,190513,016.6,E,D*20
$PGRME,2.4,M,2.4,M,3.4,M*29
$HCHDG,267.1,0.0,E,,*2B
$HCHDG,267.1,0.0,E,,*2B
$GPRMC,010029.0,A,4740.81460,N,12224.44121,W,000.01,287.3,190513,016.6,E,D*20
$PGRME,2.5,M,2.4,M,3.5,M*29
$YXXDR,A,5.5,D,PTCH,A,3.8,D,ROLL*56
$PTAK,FFD1,3.8*5E
$HCHDG,267.1,0.0,E,,*2B
$PTAK,FFP1,HEEL,@*07
$HCHDG,267.1,0.0,E,,*2B
$GPRMC,010029.2,A,4740.81461,N,12224.44121,W,000.00,287.3,190513,016.6,E,D*22
$PGRME,2.5,M,2.4,M,3.5,M*29
$HCHDG,267.1,0.0,E,,*2B
$HCHDG,267.1,0.0,E,,*2B
$GPRMC,010029.4,A,4740.81462,N,12224.44121,W,000.00,287.3,190513,016.6,E,D*27
$PGRME,2.5,M,2.4,M,3.5,M*29
$HCHDG,267.1,0.0,E,,*2B
$YXXDR,A,5.6,D,PTCH,A,3.9,D,ROLL*54
$GPRMC,010029.6,A,4740.81462,N,12224.44121,W,000.00,287.3,190513,016.6,E,D*25
$HCHDG,267.1,0.0,E,,*2B
$PGRME,2.5,M,2.4,M,3.5,M*29
$HCHDG,267.1,0.0,E,,*2B
$HCHDG,267.1,0.0,E,,*2B
$GPRMC,010029.8,A,4740.81463,N,12224.44120,W,000.00,287.3,190513,016.6,E,D*2B
$GPRMB,A,0.11,L,,N,4741.0622,N,12224.6030,W,0.3,336,0.00,V*43
$PGRME,2.5,M,2.4,M,3.5,M*29
$HCHDG,267.1,0.0,E,,*2B
$HCHDG,267.1,0.0,E,,*2B
$GPRMC,010030.0,A,4740.81463,N,12224.44120,W,000.01,287.3,190513,016.6,E,D*2A
$PGRME,2.5,M,2.4,M,3.5,M*29
$YXXDR,A,5.5,D,PTCH,A,3.8,D,ROLL*56
$HCHDG,267.1,0.0,E,,*2B
$HCHDG,267.1,0.0,E,,*2B
$GPRMC,010030.2,A,4740.81463,N,12224.44119,W,000.00,287.3,190513,016.6,E,D*23
$PGRME,2.4,M,2.4,M,3.4,M*29
$HCHDG,267.1,0.0,E,,*2B
$HCHDG,267.1,0.0,E,,*2B
$GPRMC,010030.4,A,4740.81463,N,12224.44119,W,000.01,287.3,190513,016.6,E,D*24
$PGRME,2.4,M,2.4,M,3.4,M*29
$HCHDG,267.1,0.0,E,,*2B
$YXXDR,A,5.5,D,PTCH,A,3.8,D,ROLL*56
$PTAK,FFD1,3.8*5E
$GPRMC,010030.6,A,4740.81463,N,12224.44119,W,000.01,287.3,190513,016.6,E,D*26
$HCHDG,267.1,0.0,E,,*2B
$PGRME,2.4,M,2.4,M,3.4,M*29
$HCHDG,267.1,0.0,E,,*2B
$HCHDG,267.1,0.0,E,,*2B
$GPRMC,010030.8,A,4740.81463,N,12224.44118,W,000.00,287.3,190513,016.6,E,D*28
$PGRME,2.4,M,2.4,M,3.4,M*29
$HCHDG,267.1,0.0,E,,*2B
$HCHDG,267.1,0.0,E,,*2B
$GPRMC,010031.0,A,4740.81464,N,12224.44119,W,000.00,287.3,190513,016.6,E,D*27
$GPRMB,A,0.11,L,,N,4741.0622,N,12224.6030,W,0.3,336,0.00,V*43
$PGRME,2.4,M,2.4,M,3.4,M*29
$YXXDR,A,5.5,D,PTCH,A,3.8,D,ROLL*56
$HCHDG,267.1,0.0,E,,*2B
$HCHDG,267.1,0.0,E,,*2B
$GPRMC,010031.2,A,4740.81464,N,12224.44118,W,000.00,287.3,190513,016.6,E,D*24
$PGRME,2.4,M,2.4,M,3.4,M*29
$HCHDG,267.1,0.0,E,,*2B
$HCHDG,267.1,0.0,E,,*2B
$GPRMC,010031.4,A,4740.81464,N,12224.44118,W,000.01,287.3,190513,016.6,E,D*23
$PGRME,2.4,M,2.4,M,3.4,M*29
$HCHDG,267.1,0.0,E,,*2B
$YXXDR,A,5.6,D,PTCH,A,3.9,D,ROLL*54
$PTAK,FFD1,3.9*5F
$GPRMC,010031.6,A,4740.81464,N,12224.44118,W,000.01,287.3,190513,016.6,E,D*21
$PGRME,2.4,M,2.4,M,3.4,M*29
$HCHDG,267.1,0.0,E,,*2B
$HCHDG,267.1,0.0,E,,*2B
$HCHDG,267.1,0.0,E,,*2B
$GPRMC,010031.8,A,4740.81464,N,12224.44117,W,000.01,287.3,190513,016.6,E,D*20
$PGRME,2.4,M,2.4,M,3.4,M*29
$HCHDG,267.1,0.0,E,,*2B
$HCHDG,267.1,0.0,E,,*2B
$GPRMC,010032.0,A,4740.81465,N,12224.44117,W,000.00,287.3,190513,016.6,E,D*2B
$PGRME,2.4,M,2.4,M,3.4,M*29
$YXXDR,A,5.6,D,PTCH,A,3.9,D,ROLL*54
$HCHDG,267.1,0.0,E,,*2B
$HCHDG,267.1,0.0,E,,*2B
$GPRMC,010032.2,A,4740.81465,N,12224.44117,W,000.01,287.3,190513,016.6,E,D*28
$GPRMB,A,0.11,L,,N,4741.0622,N,12224.6030,W,0.3,336,0.01,V*42
$PGRME,2.4,M,2.4,M,3.4,M*29
$HCHDG,267.1,0.0,E,,*2B
$HCHDG,267.1,0.0,E,,*2B
$GPRMC,010032.4,A,4740.81465,N,12224.44117,W,000.01,287.3,190513,016.6,E,D*2E
$PGRME,2.4,M,2.4,M,3.4,M*29
$HCHDG,267.1,0.0,E,,*2B
$YXXDR,A,5.6,D,PTCH,A,3.9,D,ROLL*54
$GPRMC,010032.6,A,4740.81465,N,12224.44117,W,000.00,287.3,190513,016.6,E,D*2D
$HCHDG,267.1,0.0,E,,*2B
$PGRME,2.4,M,2.4,M,3.4,M*29
$HCHDG,267.1,0.0,E,,*2B
$HCHDG,267.1,0.0,E,,*2B
$GPRMC,010032.8,A,4740.81465,N,12224.44116,W,000.01,287.3,190513,016.6,E,D*23
$PGRME,2.4,M,2.4,M,3.4,M*29
$HCHDG,267.1,0.0,E,,*2B
$HCHDG,267.1,0.0,E,,*2B
$GPRMC,010033.0,A,4740.81465,N,12224.44116,W,000.01,287.3,190513,016.6,E,D*2A
$PGRME,2.4,M,2.4,M,3.4,M*29
$YXXDR,A,5.4,D,PTCH,A,3.9,D,ROLL*56
$PTAK,FFD1,3.9*5F
$HCHDG,267.1,0.0,E,,*2B
$PTAK,FFP1,HEEL,@*07
$HCHDG,267.1,0.0,E,,*2B
$GPRMC,010033.2,A,4740.81465,N,12224.44116,W,000.00,287.3,190513,016.6,E,D*29
$GPRMB,A,0.11,L,,N,4741.0622,N,12224.6030,W,0.3,336,0.00,V*43
$PGRME,2.4,M,2.4,M,3.4,M*29
$HCHDG,267.1,0.0,E,,*2B
$HCHDG,267.1,0.0,E,,*2B
$GPRMC,010033.4,A,4740.81465,N,12224.44116,W,000.01,287.3,190513,016.6,E,D*2E
$PGRME,2.4,M,2.4,M,3.4,M*29
$HCHDG,267.1,0.0,E,,*2B
$YXXDR,A,5.5,D,PTCH,A,3.8,D,ROLL*56
$GPRMC,010033.6,A,4740.81465,N,12224.44116,W,000.00,287.3,190513,016.6,E,D*2D
$HCHDG,267.1,0.0,E,,*2B
$PGRME,2.4,M,2.4,M,3.4,M*29
$HCHDG,267.1,0.0,E,,*2B
$HCHDG,267.1,0.0,E,,*2B
$GPRMC,010033.8,A,4740.81465,N,12224.44115,W,000.01,287.3,190513,016.6,E,D*21
$PGRME,2.4,M,2.4,M,3.4,M*29
$HCHDG,267.1,0.0,E,,*2B
$HCHDG,267.1,0.0,E,,*2B
$GPRMC,010034.0,A,4740.81465,N,12224.44115,W,000.00,287.3,190513,016.6,E,D*2F
$PGRME,2.4,M,2.4,M,3.4,M*29
$YXXDR,A,5.5,D,PTCH,A,3.8,D,ROLL*56
$HCHDG,267.2,0.0,E,,*28
$HCHDG,267.2,0.0,E,,*28
$GPRMC,010034.2,A,4740.81465,N,12224.44115,W,000.01,287.3,190513,016.6,E,D*2C
$PGRME,2.4,M,2.4,M,3.4,M*29
$HCHDG,267.2,0.0,E,,*28
$HCHDG,267.2,0.0,E,,*28
$GPRMC,010034.4,A,4740.81465,N,12224.44115,W,000.01,287.3,190513,016.6,E,D*2A
$PGRME,2.4,M,2.4,M,3.4,M*29
$HCHDG,267.2,0.0,E,,*28
$YXXDR,A,5.5,D,PTCH,A,3.8,D,ROLL*56
$GPRMC,010034.6,A,4740.81465,N,12224.44115,W,000.00,287.3,190513,016.6,E,D*29
$PGRME,2.4,M,2.4,M,3.4,M*29
$HCHDG,267.2,0.0,E,,*28
$HCHDG,267.1,0.0,E,,*2B
$HCHDG,267.1,0.0,E,,*2B
$GPRMC,010034.8,A,4740.81465,N,12224.44115,W,000.01,287.3,190513,016.6,E,D*26
$PGRME,2.4,M,2.4,M,3.4,M*29
$HCHDG,267.1,0.0,E,,*2B
$HCHDG,267.1,0.0,E,,*2B
$GPRMC,010035.0,A,4740.81465,N,12224.44115,W,000.01,287.3,190513,016.6,E,D*2F
$PGRME,2.4,M,2.4,M,3.4,M*29
$YXXDR,A,5.6,D,PTCH,A,3.9,D,ROLL*54
$PTAK,FFD1,3.9*5F
$HCHDG,267.1,0.0,E,,*2B
$HCHDG,267.1,0.0,E,,*2B
$GPRMC,010035.2,A,4740.81465,N,12224.44115,W,000.00,287.3,190513,016.6,E,D*2C
$GPRMB,A,0.11,L,,N,4741.0622,N,12224.6030,W,0.3,336,0.00,V*43
$PGRME,2.4,M,2.4,M,3.4,M*29
$HCHDG,267.1,0.0,E,,*2B
$HCHDG,267.1,0.0,E,,*2B
$GPRMC,010035.4,A,4740.81465,N,12224.44115,W,000.00,287.3,190513,016.6,E,D*2A
$PGRME,2.4,M,2.4,M,3.4,M*29
$HCHDG,267.1,0.0,E,,*2B
$YXXDR,A,5.6,D,PTCH,A,3.9,D,ROLL*54
$GPRMC,010035.6,A,4740.81465,N,12224.44115,W,000.00,287.3,190513,016.6,E,D*28
$HCHDG,267.1,0.0,E,,*2B
$PGRME,2.4,M,2.4,M,3.4,M*29
$HCHDG,267.1,0.0,E,,*2B
$HCHDG,267.1,0.0,E,,*2B
$GPRMC,010035.8,A,4740.81465,N,12224.44114,W,000.00,287.3,190513,016.6,E,D*27
$PGRME,2.4,M,2.4,M,3.4,M*29
$HCHDG,267.1,0.0,E,,*2B
$HCHDG,267.1,0.0,E,,*2B
$GPRMC,010036.0,A,4740.81465,N,12224.44114,W,000.00,287.3,190513,016.6,E,D*2C
$PGRME,2.4,M,2.4,M,3.4,M*29
$YXXDR,A,5.6,D,PTCH,A,3.9,D,ROLL*54
$HCHDG,267.1,0.0,E,,*2B
$HCHDG,267.1,0.0,E,,*2B
$GPRMC,010036.2,A,4740.81465,N,12224.44115,W,000.00,287.3,190513,016.6,E,D*2F
$GPRMB,A,0.11,L,,N,4741.0622,N,12224.6030,W,0.3,336,0.00,V*43
$PGRME,2.4,M,2.4,M,3.4,M*29
$HCHDG,267.1,0.0,E,,*2B
$HCHDG,267.1,0.0,E,,*2B
$GPRMC,010036.4,A,4740.81465,N,12224.44115,W,000.01,287.3,190513,016.6,E,D*28
$PGRME,2.4,M,2.4,M,3.4,M*29
$HCHDG,267.1,0.0,E,,*2B
$YXXDR,A,5.5,D,PTCH,A,3.8,D,ROLL*56
$PTAK,FFD1,3.8*5E
$GPRMC,010036.6,A,4740.81465,N,12224.44114,W,000.00,287.3,190513,016.6,E,D*2A
$HCHDG,267.1,0.0,E,,*2B
$PGRME,2.4,M,2.4,M,3.4,M*29
$HCHDG,267.1,0.0,E,,*2B
$HCHDG,267.1,0.0,E,,*2B
$GPRMC,010036.8,A,4740.81466,N,12224.44114,W,000.00,287.3,190513,016.6,E,D*27
$PGRME,2.4,M,2.4,M,3.4,M*29
$HCHDG,267.1,0.0,E,,*2B
$HCHDG,267.1,0.0,E,,*2B
$GPRMC,010037.0,A,4740.81466,N,12224.44114,W,000.00,287.3,190513,016.6,E,D*2E
$PGRME,2.4,M,2.4,M,3.4,M*29
$YXXDR,A,5.5,D,PTCH,A,3.8,D,ROLL*56
$HCHDG,267.1,0.0,E,,*2B
$HCHDG,267.1,0.0,E,,*2B
$GPRMC,010037.2,A,4740.81466,N,12224.44114,W,000.01,287.3,190513,016.6,E,D*2D
$GPRMB,A,0.11,L,,N,4741.0622,N,12224.6030,W,0.3,336,0.01,V*42
$PGRME,2.4,M,2.4,M,3.4,M*29
$HCHDG,267.1,0.0,E,,*2B
$HCHDG,267.1,0.0,E,,*2B
$GPRMC,010037.4,A,4740.81466,N,12224.44114,W,000.00,287.3,190513,016.6,E,D*2A
$PGRME,2.4,M,2.4,M,3.4,M*29
$HCHDG,267.2,0.0,E,,*28
$YXXDR,A,5.6,D,PTCH,A,3.9,D,ROLL*54
$PTAK,FFD1,3.9*5F
$GPRMC,010037.6,A,4740.81466,N,12224.44114,W,000.00,287.3,190513,016.6,E,D*28
$PGRME,2.4,M,2.4,M,3.4,M*29
$HCHDG,267.2,0.0,E,,*28
$HCHDG,267.2,0.0,E,,*28
$HCHDG,267.2,0.0,E,,*28
$GPRMC,010037.8,A,4740.81466,N,12224.44114,W,000.00,287.3,190513,016.6,E,D*26
$PGRME,2.4,M,2.4,M,3.4,M*29
$HCHDG,267.1,0.0,E,,*2B
$HCHDG,267.1,0.0,E,,*2B
$GPRMC,010038.0,A,4740.81466,N,12224.44113,W,000.00,287.3,190513,016.6,E,D*26
$PTAK,FFP1,HEEL,@*07
$PGRME,2.4,M,2.4,M,3.4,M*29
$YXXDR,A,5.4,D,PTCH,A,3.9,D,ROLL*56
$HCHDG,267.1,0.0,E,,*2B
$HCHDG,267.1,0.0,E,,*2B
$GPRMC,010038.2,A,4740.81466,N,12224.44113,W,000.00,287.3,190513,016.6,E,D*24
$PGRME,2.4,M,2.4,M,3.4,M*29
$HCHDG,267.1,0.0,E,,*2B
$HCHDG,267.1,0.0,E,,*2B
$GPRMC,010038.4,A,4740.81466,N,12224.44113,W,000.01,287.3,190513,016.6,E,D*23
$GPRMB,A,0.11,L,,N,4741.0622,N,12224.6030,W,0.3,336,0.01,V*42
$PGRME,2.4,M,2.4,M,3.4,M*29
$HCHDG,267.1,0.0,E,,*2B
$YXXDR,A,5.4,D,PTCH,A,3.9,D,ROLL*56
$PTAK,FFD1,3.9*5F
$GPRMC,010038.6,A,4740.81466,N,12224.44113,W,000.00,287.3,190513,016.6,E,D*20
$HCHDG,267.1,0.0,E,,*2B
$PGRME,2.4,M,2.4,M,3.4,M*29
$HCHDG,267.1,0.0,E,,*2B
$HCHDG,267.2,0.0,E,,*28
$GPRMC,010038.8,A,4740.81466,N,12224.44112,W,000.01,287.3,190513,016.6,E,D*2E
$PGRME,2.4,M,2.4,M,3.4,M*29
$HCHDG,267.2,0.0,E,,*28
$HCHDG,267.2,0.0,E,,*28
$GPRMC,010039.0,A,4740.81467,N,12224.44112,W,000.01,287.3,190513,016.6,E,D*26
$PGRME,2.4,M,2.4,M,3.4,M*29
$YXXDR,A,5.6,D,PTCH,A,3.9,D,ROLL*54
$HCHDG,267.2,0.0,E,,*28
$HCHDG,267.1,0.0,E,,*2B
$GPRMC,010039.2,A,4740.81467,N,12224.44112,W,000.00,287.3,190513,016.6,E,D*25
$PGRME,2.4,M,2.4,M,3.4,M*29
$HCHDG,267.1,0.0,E,,*2B
$HCHDG,267.1,0.0,E,,*2B
$GPRMC,010039.4,A,4740.81467,N,12224.44112,W,000.00,287.3,190513,016.6,E,D*23
$PGRME,2.4,M,2.4,M,3.4,M*29
$HCHDG,267.1,0.0,E,,*2B
$YXXDR,A,5.5,D,PTCH,A,3.8,D,ROLL*56
$GPRMC,010039.6,A,4740.81467,N,12224.44112,W,000.00,287.3,190513,016.6,E,D*21
$GPRMB,A,0.11,L,,N,4741.0622,N,12224.6030,W,0.3,336,0.00,V*43
$HCHDG,267.1,0.0,E,,*2B
$PGRME,2.4,M,2.4,M,3.4,M*29
$HCHDG,267.2,0.0,E,,*28
$HCHDG,267.2,0.0,E,,*28
$GPRMC,010039.8,A,4740.81467,N,12224.44113,W,000.00,287.3,190513,016.6,E,D*2E
$PGRME,2.4,M,2.4,M,3.4,M*29
$HCHDG,267.2,0.0,E,,*28
$HCHDG,267.2,0.0,E,,*28
$GPRMC,010040.0,A,4740.81467,N,12224.44113,W,000.00,287.3,190513,016.6,E,D*28
$PGRME,2.4,M,2.4,M,3.4,M*29
$YXXDR,A,5.5,D,PTCH,A,3.8,D,ROLL*56
$PTAK,FFD1,3.8*5E
$HCHDG,267.2,0.0,E,,*28
$HCHDG,267.2,0.0,E,,*28
$GPRMC,010040.2,A,4740.81467,N,12224.44113,W,000.00,287.3,190513,016.6,E,D*2A
$PGRME,2.4,M,2.4,M,3.4,M*29
$HCHDG,267.2,0.0,E,,*28
$HCHDG,267.2,0.0,E,,*28
$GPRMC,010040.4,A,4740.81467,N,12224.44113,W,000.00,287.3,190513,016.6,E,D*2C
$PGRME,2.4,M,2.4,M,3.4,M*29
$HCHDG,267.2,0.0,E,,*28
$YXXDR,A,5.6,D,PTCH,A,3.9,D,ROLL*54
$GPRMC,010040.6,A,4740.81467,N,12224.44112,W,000.00,287.3,190513,016.6,E,D*2F
$GPRMB,A,0.11,L,,N,4741.0622,N,12224.6030,W,0.3,336,0.00,V*43
$PGRME,2.4,M,2.4,M,3.4,M*29
$HCHDG,267.2,0.0,E,,*28
$HCHDG,267.2,0.0,E,,*28
$HCHDG,267.2,0.0,E,,*28
$GPRMC,010040.8,A,4740.81467,N,12224.44112,W,000.00,287.3,190513,016.6,E,D*21
$PGRME,2.4,M,2.4,M,3.4,M*29
$HCHDG,267.2,0.0,E,,*28
$HCHDG,267.2,0.0,E,,*28
$GPRMC,010041.0,A,4740.81467,N,12224.44113,W,000.00,287.3,190513,016.6,E,D*29
$PGRME,2.4,M,2.4,M,3.4,M*29
$YXXDR,A,5.6,D,PTCH,A,3.9,D,ROLL*54
$PTAK,FFD1,3.9*5F
$HCHDG,267.2,0.0,E,,*28
$HCHDG,267.2,0.0,E,,*28
$GPRMC,010041.2,A,4740.81467,N,12224.44113,W,000.00,287.3,190513,016.6,E,D*2B
$PGRME,2.4,M,2.4,M,3.4,M*29
$HCHDG,267.2,0.0,E,,*28
$HCHDG,267.2,0.0,E,,*28
$GPRMC,010041.4,A,4740.81467,N,12224.44113,W,000.00,287.3,190513,016.6,E,D*2D
$PGRME,2.4,M,2.4,M,3.4,M*29
$HCHDG,267.2,0.0,E,,*28
$YXXDR,A,5.6,D,PTCH,A,3.9,D,ROLL*54
$GPRMC,010041.6,A,4740.81467,N,12224.44113,W,000.00,287.3,190513,016.6,E,D*2F
$HCHDG,267.2,0.0,E,,*28
$PGRME,2.4,M,2.4,M,3.4,M*29
$HCHDG,267.2,0.0,E,,*28
$HCHDG,267.2,0.0,E,,*28
$GPRMC,010041.8,A,4740.81467,N,12224.44112,W,000.00,287.3,190513,016.6,E,D*20
$GPRMB,A,0.11,L,,N,4741.0622,N,12224.6030,W,0.3,336,0.00,V*43
$PGRME,2.4,M,2.4,M,3.4,M*29
$HCHDG,267.2,0.0,E,,*28
$HCHDG,267.2,0.0,E,,*28
$PTAK,FFP1,HEEL,@*07
$GPRMC,010042.0,A,4740.81467,N,12224.44112,W,000.01,287.3,190513,016.6,E,D*2A
$PGRME,2.4,M,2.4,M,3.4,M*29
$YXXDR,A,5.4,D,PTCH,A,3.8,D,ROLL*57
$HCHDG,267.2,0.0,E,,*28
$HCHDG,267.2,0.0,E,,*28
$GPRMC,010042.2,A,4740.81467,N,12224.44112,W,000.00,287.3,190513,016.6,E,D*29
$PGRME,2.4,M,2.4,M,3.4,M*29
$HCHDG,267.2,0.0,E,,*28
$HCHDG,267.2,0.0,E,,*28
$GPRMC,010042.4,A,4740.81467,N,12224.44112,W,000.00,287.3,190513,016.6,E,D*2F
$PGRME,2.4,M,2.4,M,3.4,M*29
$HCHDG,267.2,0.0,E,,*28
$YXXDR,A,5.5,D,PTCH,A,3.8,D,ROLL*56
$PTAK,FFD1,3.8*5E
$GPRMC,010042.6,A,4740.81467,N,12224.44111,W,000.00,287.3,190513,016.6,E,D*2E
$HCHDG,267.2,0.0,E,,*28
$PGRME,2.4,M,2.4,M,3.4,M*29
$HCHDG,267.2,0.0,E,,*28
$HCHDG,267.2,0.0,E,,*28
$GPRMC,010042.8,A,4740.81468,N,12224.44111,W,000.00,287.3,190513,016.6,E,D*2F
$PGRME,2.4,M,2.4,M,3.4,M*29
$HCHDG,267.2,0.0,E,,*28
$HCHDG,267.2,0.0,E,,*28
$GPRMC,010043.0,A,4740.81468,N,12224.44111,W,000.00,287.3,190513,016.6,E,D*26
$GPRMB,A,0.11,L,,N,4741.0622,N,12224.6030,W,0.3,336,0.00,V*43
$PGRME,2.4,M,2.4,M,3.4,M*29
$YXXDR,A,5.6,D,PTCH,A,3.9,D,ROLL*54
$HCHDG,267.2,0.0,E,,*28
$HCHDG,267.2,0.0,E,,*28
$GPRMC,010043.2,A,4740.81468,N,12224.44111,W,000.01,287.3,190513,016.6,E,D*25
$PGRME,2.4,M,2.4,M,3.4,M*29
$HCHDG,267.2,0.0,E,,*28
$HCHDG,267.2,0.0,E,,*28
$GPRMC,010043.4,A,4740.81468,N,12224.44111,W,000.00,287.3,190513,016.6,E,D*22
$PGRME,2.4,M,2.4,M,3.4,M*29
$HCHDG,267.2,0.0,E,,*28
$YXXDR,A,5.6,D,PTCH,A,3.9,D,ROLL*54
$PTAK,FFD1,3.9*5F
$GPRMC,010043.6,A,4740.81468,N,12224.44111,W,000.00,287.3,190513,016.6,E,D*20
$PGRME,2.4,M,2.4,M,3.4,M*29
$HCHDG,267.1,0.0,E,,*2B
$HCHDG,267.1,0.0,E,,*2B
$HCHDG,267.1,0.0,E,,*2B
$GPRMC,010043.8,A,4740.81468,N,12224.44111,W,000.01,287.3,190513,016.6,E,D*2F
$PGRME,2.4,M,2.4,M,3.4,M*29
$HCHDG,267.1,0.0,E,,*2B
$HCHDG,267.1,0.0,E,,*2B
$GPRMC,010044.0,A,4740.81468,N,12224.44112,W,000.00,287.3,190513,016.6,E,D*22
$PGRME,2.4,M,2.4,M,3.4,M*29
$PGRMT,GPS 18x-5Hz software ver. 3.20,,,,,,,,*30
$YXXDR,A,5.6,D,PTCH,A,3.9,D,ROLL*54
$HCHDG,267.1,0.0,E,,*2B
$HCHDG,267.1,0.0,E,,*2B
$GPRMC,010044.2,A,4740.81468,N,12224.44112,W,000.01,287.3,190513,016.6,E,D*21
$GPRMB,A,0.11,L,,N,4741.0622,N,12224.6030,W,0.3,336,0.01,V*42
$PGRME,2.4,M,2.4,M,3.4,M*29
$HCHDG,267.1,0.0,E,,*2B
$HCHDG,267.1,0.0,E,,*2B
$GPRMC,010044.4,A,4740.81467,N,12224.44112,W,000.00,287.3,190513,016.6,E,D*29
$PGRME,2.4,M,2.4,M,3.4,M*29
$HCHDG,267.1,0.0,E,,*2B
$YXXDR,A,5.5,D,PTCH,A,3.8,D,ROLL*56
$GPRMC,010044.6,A,4740.81467,N,12224.44112,W,000.01,287.3,190513,016.6,E,D*2A
$HCHDG,267.1,0.0,E,,*2B
$PGRME,2.4,M,2.4,M,3.4,M*29
$HCHDG,267.1,0.0,E,,*2B
$HCHDG,267.1,0.0,E,,*2B
$GPRMC,010044.8,A,4740.81467,N,12224.44112,W,000.00,287.3,190513,016.6,E,D*25
$PGRME,2.4,M,2.4,M,3.4,M*29
$HCHDG,267.1,0.0,E,,*2B
$HCHDG,267.1,0.0,E,,*2B
$GPRMC,010045.0,A,4740.81467,N,12224.44112,W,000.01,287.3,190513,016.6,E,D*2D
$PGRME,2.4,M,2.4,M,3.4,M*29
$YXXDR,A,5.5,D,PTCH,A,3.8,D,ROLL*56
$PTAK,FFD1,3.8*5E
$HCHDG,267.1,0.0,E,,*2B
$HCHDG,267.1,0.0,E,,*2B
$GPRMC,010045.2,A,4740.81467,N,12224.44112,W,000.00,287.3,190513,016.6,E,D*2E
$GPRMB,A,0.11,L,,N,4741.0622,N,12224.6030,W,0.3,336,0.00,V*43
$PGRME,2.4,M,2.4,M,3.4,M*29
$HCHDG,267.1,0.0,E,,*2B
$HCHDG,267.1,0.0,E,,*2B
$GPRMC,010045.4,A,4740.81467,N,12224.44112,W,000.01,287.3,190513,016.6,E,D*29
$PGRME,2.4,M,2.4,M,3.4,M*29
$HCHDG,267.1,0.0,E,,*2B
$YXXDR,A,5.6,D,PTCH,A,3.9,D,ROLL*54
$GPRMC,010045.6,A,4740.81467,N,12224.44112,W,000.00,287.3,190513,016.6,E,D*2A
$HCHDG,267.1,0.0,E,,*2B
$PGRME,2.4,M,2.4,M,3.4,M*29
$HCHDG,267.1,0.0,E,,*2B
$HCHDG,267.1,0.0,E,,*2B
$GPRMC,010045.8,A,4740.81468,N,12224.44112,W,000.01,287.3,190513,016.6,E,D*2A
$PGRME,2.4,M,2.4,M,3.4,M*29
$HCHDG,267.1,0.0,E,,*2B
$HCHDG,267.1,0.0,E,,*2B
$GPRMC,010046.0,A,4740.81468,N,12224.44112,W,000.00,287.3,190513,016.6,E,D*20
$PTAK,FFP1,HEEL,@*07
$PGRME,2.4,M,2.4,M,3.4,M*29
$YXXDR,A,5.6,D,PTCH,A,3.9,D,ROLL*54
$PTAK,FFD1,3.9*5F
$HCHDG,267.1,0.0,E,,*2B
$HCHDG,267.1,0.0,E,,*2B
$GPRMC,010046.2,A,4740.81468,N,12224.44112,W,000.00,287.3,190513,016.6,E,D*22
$GPRMB,A,0.11,L,,N,4741.0622,N,12224.6030,W,0.3,336,0.00,V*43
$PGRME,2.4,M,2.4,M,3.4,M*29
$HCHDG,267.1,0.0,E,,*2B
$HCHDG,267.1,0.0,E,,*2B
$GPRMC,010046.4,A,4740.81468,N,12224.44112,W,000.01,287.3,190513,016.6,E,D*25
$PGRME,2.4,M,2.4,M,3.4,M*29
$HCHDG,267.1,0.0,E,,*2B
$YXXDR,A,5.6,D,PTCH,A,3.9,D,ROLL*54
$GPRMC,010046.6,A,4740.81468,N,12224.44112,W,000.01,287.3,190513,016.6,E,D*27
$PGRME,2.4,M,2.4,M,3.4,M*29
$HCHDG,267.1,0.0,E,,*2B
$HCHDG,267.1,0.0,E,,*2B
$HCHDG,267.1,0.0,E,,*2B
$GPRMC,010046.8,A,4740.81468,N,12224.44111,W,000.00,287.3,190513,016.6,E,D*2B
$PGRME,2.4,M,2.4,M,3.4,M*29
$HCHDG,267.1,0.0,E,,*2B
$HCHDG,267.1,0.0,E,,*2B
$GPRMC,010047.0,A,4740.81468,N,12224.44111,W,000.00,287.3,190513,016.6,E,D*22
$PGRME,2.4,M,2.4,M,3.4,M*29
$YXXDR,A,5.6,D,PTCH,A,3.9,D,ROLL*54
$PTAK,FFD1,3.9*5F
$HCHDG,267.1,0.0,E,,*2B
$HCHDG,267.1,0.0,E,,*2B
$GPRMC,010047.2,A,4740.81468,N,12224.44111,W,000.01,287.3,190513,016.6,E,D*21
$PGRME,2.4,M,2.4,M,3.4,M*29
$HCHDG,267.1,0.0,E,,*2B
$HCHDG,267.1,0.0,E,,*2B
$GPRMC,010047.4,A,4740.81468,N,12224.44111,W,000.01,287.3,190513,016.6,E,D*27
$GPRMB,A,0.11,L,,N,4741.0622,N,12224.6030,W,0.3,336,0.01,V*42
$PGRME,2.4,M,2.4,M,3.4,M*29
$HCHDG,267.1,0.0,E,,*2B
$YXXDR,A,5.5,D,PTCH,A,3.8,D,ROLL*56
$GPRMC,010047.6,A,4740.81468,N,12224.44111,W,000.00,287.3,190513,016.6,E,D*24
$HCHDG,267.1,0.0,E,,*2B
$PGRME,2.4,M,2.4,M,3.4,M*29
$HCHDG,267.1,0.0,E,,*2B
$HCHDG,267.1,0.0,E,,*2B
$GPRMC,010047.8,A,4740.81468,N,12224.44111,W,000.00,287.3,190513,016.6,E,D*2A
$PGRME,2.4,M,2.4,M,3.4,M*29
$HCHDG,267.1,0.0,E,,*2B
$HCHDG,267.1,0.0,E,,*2B
$GPRMC,010048.0,A,4740.81468,N,12224.44111,W,000.01,287.3,190513,016.6,E,D*2C
$PGRME,2.4,M,2.4,M,3.4,M*29
$YXXDR,A,5.6,D,PTCH,A,3.9,D,ROLL*54
$HCHDG,267.1,0.0,E,,*2B
$HCHDG,267.1,0.0,E,,*2B
$GPRMC,010048.2,A,4740.81468,N,12224.44112,W,000.00,287.3,190513,016.6,E,D*2C
$PGRME,2.4,M,2.4,M,3.4,M*29
$HCHDG,267.1,0.0,E,,*2B
$HCHDG,267.1,0.0,E,,*2B
$GPRMC,010048.4,A,4740.81468,N,12224.44112,W,000.00,287.3,190513,016.6,E,D*2A
$PGRME,2.4,M,2.4,M,3.4,M*29
$HCHDG,267.1,0.0,E,,*2B
$YXXDR,A,5.6,D,PTCH,A,3.9,D,ROLL*54
$PTAK,FFD1,3.9*5F
$GPRMC,010048.6,A,4740.81468,N,12224.44112,W,000.00,287.3,190513,016.6,E,D*28
$GPRMB,A,0.11,L,,N,4741.0622,N,12224.6030,W,0.3,336,0.00,V*43
$HCHDG,267.1,0.0,E,,*2B
$PGRME,2.4,M,2.4,M,3.4,M*29
$HCHDG,267.1,0.0,E,,*2B
$HCHDG,267.1,0.0,E,,*2B
$GPRMC,010048.8,A,4740.81468,N,12224.44113,W,000.00,287.3,190513,016.6,E,D*27
$PGRME,2.4,M,2.4,M,3.4,M*29
$HCHDG,267.1,0.0,E,,*2B
$HCHDG,267.1,0.0,E,,*2B
$GPRMC,010049.0,A,4740.81468,N,12224.44113,W,000.00,287.3,190513,016.6,E,D*2E
$PGRME,2.4,M,2.4,M,3.4,M*29
$YXXDR,A,5.6,D,PTCH,A,3.9,D,ROLL*54
$HCHDG,267.1,0.0,E,,*2B
$HCHDG,267.1,0.0,E,,*2B
$GPRMC,010049.2,A,4740.81468,N,12224.44113,W,000.01,287.3,190513,016.6,E,D*2D
$PGRME,2.4,M,2.4,M,3.4,M*29
$HCHDG,267.1,0.0,E,,*2B
$HCHDG,267.1,0.0,E,,*2B
$GPRMC,010049.4,A,4740.81468,N,12224.44113,W,000.00,287.3,190513,016.6,E,D*2A
$PGRME,2.4,M,2.4,M,3.4,M*29
$HCHDG,267.1,0.0,E,,*2B
$YXXDR,A,5.6,D,PTCH,A,3.9,D,ROLL*54
$PTAK,FFD1,3.9*5F
$GPRMC,010049.6,A,4740.81469,N,12224.44113,W,000.00,287.3,190513,016.6,E,D*29
$GPRMB,A,0.11,L,,N,4741.0622,N,12224.6030,W,0.3,336,0.00,V*43
$PGRME,2.4,M,2.4,M,3.4,M*29
$HCHDG,267.1,0.0,E,,*2B
$HCHDG,267.1,0.0,E,,*2B
$HCHDG,267.1,0.0,E,,*2B
$GPRMC,010049.8,A,4740.81469,N,12224.44113,W,000.00,287.3,190513,016.6,E,D*27
$PGRME,2.4,M,2.4,M,3.4,M*29
$HCHDG,267.1,0.0,E,,*2B
$HCHDG,267.1,0.0,E,,*2B
$GPRMC,010050.0,A,4740.81469,N,12224.44113,W,000.00,287.3,190513,016.6,E,D*27
$PTAK,FFP1,HEEL,@*07
$PGRME,2.4,M,2.4,M,3.4,M*29
$YXXDR,A,5.6,D,PTCH,A,3.9,D,ROLL*54
$HCHDG,267.1,0.0,E,,*2B
$HCHDG,267.1,0.0,E,,*2B
$GPRMC,010050.2,A,4740.81469,N,12224.44113,W,000.00,287.3,190513,016.6,E,D*25
$PGRME,2.4,M,2.4,M,3.4,M*29
$HCHDG,267.1,0.0,E,,*2B
$HCHDG,267.1,0.0,E,,*2B
$GPRMC,010050.4,A,4740.81469,N,12224.44113,W,000.00,287.3,190513,016.6,E,D*23
$PGRME,2.4,M,2.4,M,3.4,M*29
$HCHDG,267.1,0.0,E,,*2B
$YXXDR,A,5.5,D,PTCH,A,3.8,D,ROLL*56
$GPRMC,010050.6,A,4740.81469,N,12224.44113,W,000.00,287.3,190513,016.6,E,D*21
$HCHDG,267.1,0.0,E,,*2B
$PGRME,2.4,M,2.4,M,3.4,M*29
$HCHDG,267.1,0.0,E,,*2B
$HCHDG,267.1,0.0,E,,*2B
$GPRMC,010050.8,A,4740.81469,N,12224.44113,W,000.00,287.3,190513,016.6,E,D*2F
$GPRMB,A,0.11,L,,N,4741.0622,N,12224.6030,W,0.3,336,0.00,V*43
$PGRME,2.4,M,2.4,M,3.4,M*29
$HCHDG,267.1,0.0,E,,*2B
$HCHDG,267.1,0.0,E,,*2B
$GPRMC,010051.0,A,4740.81469,N,12224.44113,W,000.00,287.3,190513,016.6,E,D*26
$PGRME,2.4,M,2.4,M,3.4,M*29
$YXXDR,A,5.4,D,PTCH,A,3.8,D,ROLL*57
$PTAK,FFD1,3.8*5E
$HCHDG,267.1,0.0,E,,*2B
$HCHDG,267.1,0.0,E,,*2B
$GPRMC,010051.2,A,4740.81469,N,12224.44113,W,000.00,287.3,190513,016.6,E,D*24
$PGRME,2.4,M,2.4,M,3.4,M*29
$HCHDG,267.1,0.0,E,,*2B
$HCHDG,267.1,0.0,E,,*2B
$GPRMC,010051.4,A,4740.81469,N,12224.44113,W,000.00,287.3,190513,016.6,E,D*22
$PGRME,2.4,M,2.4,M,3.4,M*29
$HCHDG,267.1,0.0,E,,*2B
$YXXDR,A,5.6,D,PTCH,A,3.9,D,ROLL*54
$GPRMC,010051.6,A,4740.81470,N,12224.44113,W,000.00,287.3,190513,016.6,E,D*28
$HCHDG,267.1,0.0,E,,*2B
$PGRME,2.4,M,2.4,M,3.4,M*29
$HCHDG,267.1,0.0,E,,*2B
$HCHDG,267.1,0.0,E,,*2B
$GPRMC,010051.8,A,4740.81470,N,12224.44113,W,000.00,287.3,190513,016.6,E,D*26
$GPRMB,A,0.11,L,,N,4741.0622,N,12224.6030,W,0.3,336,0.00,V*43
$PGRME,2.4,M,2.4,M,3.4,M*29
$HCHDG,267.1,0.0,E,,*2B
$HCHDG,267.1,0.0,E,,*2B
$GPRMC,010052.0,A,4740.81470,N,12224.44113,W,000.00,287.3,190513,016.6,E,D*2D
$PGRME,2.4,M,2.4,M,3.4,M*29
$YXXDR,A,5.6,D,PTCH,A,3.9,D,ROLL*54
$PTAK,FFD1,3.9*5F
$HCHDG,267.1,0.0,E,,*2B
$HCHDG,267.1,0.0,E,,*2B
$GPRMC,010052.2,A,4740.81470,N,12224.44113,W,000.00,287.3,190513,016.6,E,D*2F
$PGRME,2.4,M,2.4,M,3.4,M*29
$HCHDG,267.1,0.0,E,,*2B
$HCHDG,267.1,0.0,E,,*2B
$GPRMC,010052.4,A,4740.81470,N,12224.44113,W,000.00,287.3,190513,016.6,E,D*29
$PGRME,2.4,M,2.4,M,3.4,M*29
$HCHDG,267.1,0.0,E,,*2B
$YXXDR,A,5.6,D,PTCH,A,3.9,D,ROLL*54
$GPRMC,010052.6,A,4740.81470,N,12224.44113,W,000.00,287.3,190513,016.6,E,D*2B
$PGRME,2.4,M,2.4,M,3.4,M*29
$HCHDG,267.1,0.0,E,,*2B
$HCHDG,267.1,0.0,E,,*2B
$HCHDG,267.1,0.0,E,,*2B
$GPRMC,010052.8,A,4740.81470,N,12224.44113,W,000.00,287.3,190513,016.6,E,D*25
$GPRMB,A,0.11,L,,N,4741.0622,N,12224.6030,W,0.3,336,0.00,V*43
$PGRME,2.4,M,2.4,M,3.4,M*29
$HCHDG,267.1,0.0,E,,*2B
$HCHDG,267.1,0.0,E,,*2B
$GPRMC,010053.0,A,4740.81470,N,12224.44113,W,000.00,287.3,190513,016.6,E,D*2C
$PGRME,2.4,M,2.4,M,3.4,M*29
$YXXDR,A,5.6,D,PTCH,A,3.9,D,ROLL*54
$HCHDG,267.1,0.0,E,,*2B
$HCHDG,267.1,0.0,E,,*2B
$GPRMC,010053.2,A,4740.81469,N,12224.44113,W,000.00,287.3,190513,016.6,E,D*26
$PGRME,2.4,M,2.4,M,3.4,M*29
$HCHDG,267.1,0.0,E,,*2B
$HCHDG,267.1,0.0,E,,*2B
$GPRMC,010053.4,A,4740.81469,N,12224.44114,W,000.00,287.3,190513,016.6,E,D*27
$PGRME,2.4,M,2.4,M,3.4,M*29
$HCHDG,267.1,0.0,E,,*2B
$YXXDR,A,5.5,D,PTCH,A,3.8,D,ROLL*56
$PTAK,FFD1,3.8*5E
$GPRMC,010053.6,A,4740.81469,N,12224.44114,W,000.00,287.3,190513,016.6,E,D*25
$HCHDG,267.1,0.0,E,,*2B
$PGRME,2.4,M,2.4,M,3.4,M*29
$HCHDG,267.1,0.0,E,,*2B
$HCHDG,267.1,0.0,E,,*2B
$GPRMC,010053.8,A,4740.81469,N,12224.44114,W,000.00,287.3,190513,016.6,E,D*2B
$PGRME,2.4,M,2.4,M,3.4,M*29
$HCHDG,267.1,0.0,E,,*2B
$HCHDG,267.1,0.0,E,,*2B
$GPRMC,010054.0,A,4740.81469,N,12224.44114,W,000.00,287.3,190513,016.6,E,D*24
$GPRMB,A,0.11,L,,N,4741.0622,N,12224.6030,W,0.3,336,0.00,V*43
$PTAK,FFP1,HEEL,@*07
$PGRME,2.4,M,2.4,M,3.4,M*29
$YXXDR,A,5.5,D,PTCH,A,3.8,D,ROLL*56
$HCHDG,267.1,0.0,E,,*2B
$HCHDG,267.1,0.0,E,,*2B
$GPRMC,010054.2,A,4740.81469,N,12224.44114,W,000.00,287.3,190513,016.6,E,D*26
$PGRME,2.4,M,2.4,M,3.4,M*29
$HCHDG,267.1,0.0,E,,*2B
$HCHDG,267.1,0.0,E,,*2B
$GPRMC,010054.4,A,4740.81469,N,12224.44113,W,000.00,287.3,190513,016.6,E,D*27
$PGRME,2.4,M,2.4,M,3.4,M*29
$HCHDG,267.1,0.0,E,,*2B
$YXXDR,A,5.6,D,PTCH,A,3.9,D,ROLL*54
$GPRMC,010054.6,A,4740.81469,N,12224.44113,W,000.01,287.3,190513,016.6,E,D*24
$HCHDG,267.1,0.0,E,,*2B
$PGRME,2.4,M,2.4,M,3.4,M*29
$HCHDG,267.1,0.0,E,,*2B
$HCHDG,267.1,0.0,E,,*2B
$GPRMC,010054.8,A,4740.81469,N,12224.44113,W,000.00,287.3,190513,016.6,E,D*2B
$PGRME,2.4,M,2.4,M,3.4,M*29
$HCHDG,267.1,0.0,E,,*2B
$HCHDG,267.1,0.0,E,,*2B
$GPRMC,010055.0,A,4740.81470,N,12224.44113,W,000.00,287.3,190513,016.6,E,D*2A
$PGRME,2.4,M,2.4,M,3.4,M*29
$YXXDR,A,5.6,D,PTCH,A,3.9,D,ROLL*54
$PTAK,FFD1,3.9*5F
$HCHDG,267.1,0.0,E,,*2B
$HCHDG,267.1,0.0,E,,*2B
$GPRMC,010055.2,A,4740.81470,N,12224.44113,W,000.00,287.3,190513,016.6,E,D*28
$GPRMB,A,0.11,L,,N,4741.0622,N,12224.6030,W,0.3,336,0.00,V*43
$PGRME,2.4,M,2.4,M,3.4,M*29
$HCHDG,267.1,0.0,E,,*2B
$HCHDG,267.1,0.0,E,,*2B
$GPRMC,010055.4,A,4740.81470,N,12224.44113,W,000.00,287.3,190513,016.6,E,D*2E
$PGRME,2.4,M,2.4,M,3.4,M*29
$HCHDG,267.1,0.0,E,,*2B
$YXXDR,A,5.5,D,PTCH,A,3.8,D,ROLL*56
$GPRMC,010055.6,A,4740.81469,N,12224.44113,W,000.00,287.3,190513,016.6,E,D*24
$PGRME,2.4,M,2.4,M,3.4,M*29
$HCHDG,267.1,0.0,E,,*2B
$HCHDG,267.1,0.0,E,,*2B
$HCHDG,267.1,0.0,E,,*2B
$GPRMC,010055.8,A,4740.81469,N,12224.44113,W,000.01,287.3,190513,016.6,E,D*2B
$PGRME,2.4,M,2.4,M,3.4,M*29
$HCHDG,267.1,0.0,E,,*2B
$HCHDG,267.1,0.0,E,,*2B
$GPRMC,010056.0,A,4740.81469,N,12224.44113,W,000.00,287.3,190513,016.6,E,D*21
$PGRME,2.4,M,2.4,M,3.4,M*29
$YXXDR,A,5.6,D,PTCH,A,3.9,D,ROLL*54
$PTAK,FFD1,3.9*5F
$HCHDG,267.1,0.0,E,,*2B
$HCHDG,267.1,0.0,E,,*2B
$GPRMC,010056.2,A,4740.81469,N,12224.44113,W,000.00,287.3,190513,016.6,E,D*23
$PGRME,2.4,M,2.4,M,3.4,M*29
$HCHDG,267.1,0.0,E,,*2B
$HCHDG,267.1,0.0,E,,*2B
$GPRMC,010056.4,A,4740.81469,N,12224.44113,W,000.01,287.3,190513,016.6,E,D*24
$GPRMB,A,0.11,L,,N,4741.0622,N,12224.6030,W,0.3,336,0.01,V*42
$PGRME,2.4,M,2.4,M,3.4,M*29
$HCHDG,267.1,0.0,E,,*2B
$YXXDR,A,5.6,D,PTCH,A,3.9,D,ROLL*54
$GPRMC,010056.6,A,4740.81469,N,12224.44113,W,000.00,287.3,190513,016.6,E,D*27
$HCHDG,267.1,0.0,E,,*2B
$PGRME,2.4,M,2.4,M,3.4,M*29
$HCHDG,267.1,0.0,E,,*2B
$HCHDG,267.1,0.0,E,,*2B
$GPRMC,010056.8,A,4740.81469,N,12224.44113,W,000.00,287.3,190513,016.6,E,D*29
$PGRME,2.4,M,2.4,M,3.4,M*29
$HCHDG,267.1,0.0,E,,*2B
$HCHDG,267.1,0.0,E,,*2B
$GPRMC,010057.0,A,4740.81469,N,12224.44113,W,000.00,287.3,190513,016.6,E,D*20
$PGRME,2.4,M,2.4,M,3.4,M*29
$YXXDR,A,5.6,D,PTCH,A,3.9,D,ROLL*54
$HCHDG,267.1,0.0,E,,*2B
$HCHDG,267.1,0.0,E,,*2B
$GPRMC,010057.2,A,4740.81469,N,12224.44113,W,000.01,287.3,190513,016.6,E,D*23
$PGRME,2.4,M,2.4,M,3.4,M*29
$HCHDG,267.1,0.0,E,,*2B
$HCHDG,267.1,0.0,E,,*2B
$GPRMC,010057.4,A,4740.81469,N,12224.44113,W,000.00,287.3,190513,016.6,E,D*24
$PGRME,2.4,M,2.4,M,3.4,M*29
$HCHDG,267.1,0.0,E,,*2B
$YXXDR,A,5.5,D,PTCH,A,3.8,D,ROLL*56
$PTAK,FFD1,3.8*5E
$GPRMC,010057.6,A,4740.81469,N,12224.44113,W,000.01,287.3,190513,016.6,E,D*27
$GPRMB,A,0.11,L,,N,4741.0622,N,12224.6030,W,0.3,336,0.01,V*42
$HCHDG,267.1,0.0,E,,*2B
$PGRME,2.4,M,2.4,M,3.4,M*29
$HCHDG,267.1,0.0,E,,*2B
$HCHDG,267.1,0.0,E,,*2B
$GPRMC,010057.8,A,4740.81469,N,12224.44113,W,000.00,287.3,190513,016.6,E,D*28
$PGRME,2.4,M,2.4,M,3.4,M*29
$HCHDG,267.1,0.0,E,,*2B
$HCHDG,267.1,0.0,E,,*2B
$GPRMC,010058.0,A,4740.81469,N,12224.44113,W,000.01,287.3,190513,016.6,E,D*2E
$PGRME,2.4,M,2.4,M,3.4,M*29
$YXXDR,A,5.5,D,PTCH,A,3.8,D,ROLL*56
$PTAK,FFP1,HEEL,@*07
$HCHDG,267.1,0.0,E,,*2B
$HCHDG,267.1,0.0,E,,*2B
$GPRMC,010058.2,A,4740.81469,N,12224.44113,W,000.01,287.3,190513,016.6,E,D*2C
$PGRME,2.4,M,2.4,M,3.4,M*29
$HCHDG,267.1,0.0,E,,*2B
$HCHDG,267.1,0.0,E,,*2B
$GPRMC,010058.4,A,4740.81469,N,12224.44113,W,000.00,287.3,190513,016.6,E,D*2B
$PGRME,2.4,M,2.4,M,3.4,M*29
$HCHDG,267.1,0.0,E,,*2B
$YXXDR,A,5.5,D,PTCH,A,3.8,D,ROLL*56
$PTAK,FFD1,3.8*5E
$GPRMC,010058.6,A,4740.81469,N,12224.44113,W,000.01,287.3,190513,016.6,E,D*28
$GPRMB,A,0.11,L,,N,4741.0622,N,12224.6030,W,0.3,336,0.01,V*42
$PGRME,2.4,M,2.4,M,3.4,M*29
$HCHDG,267.1,0.0,E,,*2B
$HCHDG,267.1,0.0,E,,*2B
$HCHDG,267.1,0.0,E,,*2B
$GPRMC,010058.8,A,4740.81469,N,12224.44113,W,000.01,287.3,190513,016.6,E,D*26
$PGRME,2.4,M,2.4,M,3.4,M*29
$HCHDG,267.1,0.0,E,,*2B
$HCHDG,267.1,0.0,E,,*2B
$GPRMC,010059.0,A,4740.81469,N,12224.44112,W,000.01,287.3,190513,016.6,E,D*2E
$PGRME,2.4,M,2.4,M,3.4,M*29
$YXXDR,A,5.5,D,PTCH,A,3.8,D,ROLL*56
$HCHDG,267.1,0.0,E,,*2B
$HCHDG,267.1,0.0,E,,*2B
$GPRMC,010059.2,A,4740.81469,N,12224.44112,W,000.00,287.3,190513,016.6,E,D*2D
$PGRME,2.4,M,2.4,M,3.4,M*29
$HCHDG,267.1,0.0,E,,*2B
$HCHDG,267.1,0.0,E,,*2B
$GPRMC,010059.4,A,4740.81469,N,12224.44113,W,000.00,287.3,190513,016.6,E,D*2A
$PGRME,2.4,M,2.4,M,3.4,M*29
$HCHDG,267.1,0.0,E,,*2B
$YXXDR,A,5.6,D,PTCH,A,3.9,D,ROLL*54
$GPRMC,010059.6,A,4740.81468,N,12224.44113,W,000.00,287.3,190513,016.6,E,D*29
$HCHDG,267.1,0.0,E,,*2B
$PGRME,2.4,M,2.4,M,3.4,M*29
$HCHDG,267.1,0.0,E,,*2B
$HCHDG,267.1,0.0,E,,*2B
$GPRMC,010059.8,A,4740.81468,N,12224.44113,W,000.00,287.3,190513,016.6,E,D*27
$GPRMB,A,0.11,L,,N,4741.0622,N,12224.6030,W,0.3,336,0.00,V*43
$PGRME,2.4,M,2.4,M,3.4,M*29
$HCHDG,267.1,0.0,E,,*2B
$HCHDG,267.1,0.0,E,,*2B
$GPRMC,010100.0,A,4740.81468,N,12224.44112,W,000.00,287.3,190513,016.6,E,D*23
$PGRME,2.4,M,2.4,M,3.4,M*29
$YXXDR,A,5.6,D,PTCH,A,3.9,D,ROLL*54
$PTAK,FFD1,3.9*5F
$HCHDG,267.2,0.0,E,,*28
$HCHDG,267.2,0.0,E,,*28
$GPRMC,010100.2,A,4740.81468,N,12224.44112,W,000.01,287.3,190513,016.6,E,D*20
$PGRME,2.4,M,2.4,M,3.4,M*29
$HCHDG,267.2,0.0,E,,*28
$HCHDG,267.2,0.0,E,,*28
$GPRMC,010100.4,A,4740.81469,N,12224.44112,W,000.00,287.3,190513,016.6,E,D*26
$PGRME,2.4,M,2.4,M,3.4,M*29
$HCHDG,267.2,0.0,E,,*28
$YXXDR,A,5.6,D,PTCH,A,3.9,D,ROLL*54
$GPRMC,010100.6,A,4740.81468,N,12224.44112,W,000.00,287.3,190513,016.6,E,D*25
$HCHDG,267.2,0.0,E,,*28
$PGRME,2.4,M,2.4,M,3.4,M*29
$HCHDG,267.2,0.0,E,,*28
$HCHDG,267.2,0.0,E,,*28
$GPRMC,010100.8,A,4740.81468,N,12224.44112,W,000.00,287.3,190513,016.6,E,D*2B
$PGRME,2.4,M,2.4,M,3.4,M*29
$HCHDG,267.2,0.0,E,,*28
$HCHDG,267.1,0.0,E,,*2B
$GPRMC,010101.0,A,4740.81468,N,12224.44112,W,000.00,287.3,190513,016.6,E,D*22
$GPRMB,A,0.11,L,,N,4741.0622,N,12224.6030,W,0.3,336,0.00,V*43
$PGRME,2.4,M,2.4,M,3.4,M*29
$YXXDR,A,5.5,D,PTCH,A,3.8,D,ROLL*56
$PTAK,FFD1,3.8*5E
$HCHDG,267.1,0.0,E,,*2B
$HCHDG,267.1,0.0,E,,*2B
$GPRMC,010101.2,A,4740.81468,N,12224.44112,W,000.00,287.3,190513,016.6,E,D*20
$PGRME,2.4,M,2.4,M,3.4,M*29
$HCHDG,267.1,0.0,E,,*2B
$HCHDG,267.1,0.0,E,,*2B
$GPRMC,010101.4,A,4740.81468,N,12224.44112,W,000.00,287.3,190513,016.6,E,D*26
$PGRME,2.4,M,2.4,M,3.4,M*29
$HCHDG,267.1,0.0,E,,*2B
$YXXDR,A,5.5,D,PTCH,A,3.8,D,ROLL*56
$GPRMC,010101.6,A,4740.81468,N,12224.44112,W,000.00,287.3,190513,016.6,E,D*24
$PGRME,2.4,M,2.4,M,3.4,M*29
$HCHDG,267.1,0.0,E,,*2B
$HCHDG,267.1,0.0,E,,*2B
$HCHDG,267.1,0.0,E,,*2B
$GPRMC,010101.8,A,4740.81468,N,12224.44112,W,000.00,287.3,190513,016.6,E,D*2A
$PGRME,2.4,M,2.4,M,3.4,M*29
$HCHDG,267.1,0.0,E,,*2B
$HCHDG,267.1,0.0,E,,*2B
$GPRMC,010102.0,A,4740.81468,N,12224.44112,W,000.00,287.3,190513,016.6,E,D*21
$GPRMB,A,0.11,L,,N,4741.0622,N,12224.6030,W,0.3,336,0.00,V*43
$PGRME,2.4,M,2.4,M,3.4,M*29
$YXXDR,A,5.5,D,PTCH,A,3.8,D,ROLL*56
$PTAK,FFP1,HEEL,@*07
$HCHDG,267.1,0.0,E,,*2B
$HCHDG,267.1,0.0,E,,*2B
$GPRMC,010102.2,A,4740.81468,N,12224.44112,W,000.00,287.3,190513,016.6,E,D*23
$PGRME,2.4,M,2.4,M,3.4,M*29
$HCHDG,267.1,0.0,E,,*2B
$HCHDG,267.1,0.0,E,,*2B
$GPRMC,010102.4,A,4740.81468,N,12224.44112,W,000.00,287.3,190513,016.6,E,D*25
$PGRME,2.4,M,2.4,M,3.4,M*29
$HCHDG,267.1,0.0,E,,*2B
$YXXDR,A,5.6,D,PTCH,A,3.9,D,ROLL*54
$PTAK,FFD1,3.9*5F
$GPRMC,010102.6,A,4740.81468,N,12224.44112,W,000.00,287.3,190513,016.6,E,D*27
$HCHDG,267.1,0.0,E,,*2B
$PGRME,2.4,M,2.4,M,3.4,M*29
$HCHDG,267.1,0.0,E,,*2B
$HCHDG,267.1,0.0,E,,*2B
$GPRMC,010102.8,A,4740.81468,N,12224.44112,W,000.00,287.3,190513,016.6,E,D*29
$PGRME,2.4,M,2.4,M,3.4,M*29
$HCHDG,267.1,0.0,E,,*2B
$HCHDG,267.1,0.0,E,,*2B
$GPRMC,010103.0,A,4740.81468,N,12224.44112,W,000.00,287.3,190513,016.6,E,D*20
$GPRMB,A,0.11,L,,N,4741.0622,N,12224.6030,W,0.3,336,0.00,V*43
$PGRME,2.4,M,2.4,M,3.4,M*29
$YXXDR,A,5.6,D,PTCH,A,3.9,D,ROLL*54
$HCHDG,267.1,0.0,E,,*2B
$HCHDG,267.1,0.0,E,,*2B
$GPRMC,010103.2,A,4740.81468,N,12224.44112,W,000.00,287.3,190513,016.6,E,D*22
$PGRME,2.4,M,2.4,M,3.4,M*29
$HCHDG,267.1,0.0,E,,*2B
$HCHDG,267.1,0.0,E,,*2B
$GPRMC,010103.4,A,4740.81468,N,12224.44112,W,000.00,287.3,190513,016.6,E,D*24
$PGRME,2.4,M,2.4,M,3.4,M*29
$HCHDG,267.1,0.0,E,,*2B
$YXXDR,A,5.6,D,PTCH,A,3.9,D,ROLL*54
$PTAK,FFD1,3.9*5F
$GPRMC,010103.6,A,4740.81468,N,12224.44111,W,000.00,287.3,190513,016.6,E,D*25
$HCHDG,267.1,0.0,E,,*2B
$PGRME,2.4,M,2.4,M,3.4,M*29
$HCHDG,267.1,0.0,E,,*2B
