$GPRMC,020000.0,A,4740.81537,N,12224.43962,W,000.00,287.3,190513,016.6,E,D*22
$PGRME,2.4,M,2.4,M,3.4,M*29
$HCHDG,266.6,0.0,E,,*2D
$HCHDG,266.6,0.0,E,,*2D
$GPRMC,020000.2,A,4740.81537,N,12224.43963,W,000.00,287.3,190513,016.6,E,D*21
$PGRME,2.4,M,2.4,M,3.4,M*29
$HCHDG,266.7,0.0,E,,*2C
$YXXDR,A,5.5,D,PTCH,A,3.8,D,ROLL*56
$HCHDG,266.7,0.0,E,,*2C
$GPRMC,020000.4,A,4740.81537,N,12224.43963,W,000.00,287.3,190513,016.6,E,D*27
$PGRME,2.4,M,2.4,M,3.4,M*29
$HCHDG,266.7,0.0,E,,*2C
$HCHDG,266.7,0.0,E,,*2C
$GPRMC,020000.6,A,4740.81537,N,12224.43963,W,000.01,287.3,190513,016.6,E,D*24
$GPRMB,A,0.11,L,,N,4741.0622,N,12224.6030,W,0.3,336,0.01,V*42
$PGRME,2.4,M,2.4,M,3.4,M*29
$HCHDG,266.7,0.0,E,,*2C
$HCHDG,266.7,0.0,E,,*2C
$GPRMC,020000.8,A,4740.81537,N,12224.43963,W,000.00,287.3,190513,016.6,E,D*2B
$PGRME,2.4,M,2.4,M,3.4,M*29
$YXXDR,A,5.5,D,PTCH,A,3.8,D,ROLL*56
$PTAK,FFD1,3.8*5E
$HCHDG,266.7,0.0,E,,*2C
$HCHDG,266.7,0.0,E,,*2C
$GPRMC,020001.0,A,4740.81537,N,12224.43963,W,000.01,287.3,190513,016.6,E,D*23
$PGRME,2.4,M,2.4,M,3.4,M*29
$HCHDG,266.7,0.0,E,,*2C
$HCHDG,266.7,0.0,E,,*2C
$GPRMC,020001.2,A,4740.81537,N,12224.43962,W,000.00,287.3,190513,016.6,E,D*21
$PGRME,2.4,M,2.4,M,3.4,M*29
$HCHDG,266.7,0.0,E,,*2C
$YXXDR,A,5.5,D,PTCH,A,3.8,D,ROLL*56
$HCHDG,266.7,0.0,E,,*2C
$GPRMC,020001.4,A,4740.81537,N,12224.43962,W,000.01,287.3,190513,016.6,E,D*26
$PGRME,2.4,M,2.4,M,3.4,M*29
$HCHDG,266.7,0.0,E,,*2C
$HCHDG,266.8,0.0,E,,*23
$GPRMC,020001.6,A,4740.81537,N,12224.43962,W,000.01,287.3,190513,016.6,E,D*24
$GPRMB,A,0.11,L,,N,4741.0622,N,12224.6030,W,0.3,336,0.01,V*42
$PGRME,2.4,M,2.4,M,3.4,M*29
$HCHDG,266.8,0.0,E,,*23
$PTAK,FFP1,HEEL,@*07
$HCHDG,266.8,0.0,E,,*23
$GPRMC,020001.8,A,4740.81537,N,12224.43962,W,000.00,287.3,190513,016.6,E,D*2B
$PGRME,2.4,M,2.4,M,3.4,M*29
$YXXDR,A,5.6,D,PTCH,A,3.6,D,ROLL*5B
$HCHDG,266.8,0.0,E,,*23
$HCHDG,266.8,0.0,E,,*23
$GPRMC,020002.0,A,4740.81537,N,12224.43962,W,000.01,287.3,190513,016.6,E,D*21
$PGRME,2.4,M,2.4,M,3.4,M*29
$HCHDG,266.8,0.0,E,,*23
$HCHDG,266.8,0.0,E,,*23
$GPRMC,020002.2,A,4740.81537,N,12224.43962,W,000.00,287.3,190513,016.6,E,D*22
$PGRME,2.4,M,2.4,M,3.4,M*29
$HCHDG,266.8,0.0,E,,*23
$YXXDR,A,5.6,D,PTCH,A,3.6,D,ROLL*5B
$PTAK,FFD1,3.6*50
$HCHDG,266.8,0.0,E,,*23
$GPRMC,020002.4,A,4740.81537,N,12224.43962,W,000.01,287.3,190513,016.6,E,D*25
$PGRME,2.4,M,2.4,M,3.4,M*29
$HCHDG,266.8,0.0,E,,*23
$HCHDG,266.7,0.0,E,,*2C
$GPRMC,020002.6,A,4740.81537,N,12224.43962,W,000.01,287.3,190513,016.6,E,D*27
$PGRME,2.4,M,2.4,M,3.4,M*29
$HCHDG,266.7,0.0,E,,*2C
$HCHDG,266.7,0.0,E,,*2C
$GPRMC,020002.8,A,4740.81537,N,12224.43962,W,000.01,287.3,190513,016.6,E,D*29
$GPRMB,A,0.11,L,,N,4741.0622,N,12224.6030,W,0.3,336,0.01,V*42
$PGRME,2.4,M,2.4,M,3.4,M*29
$YXXDR,A,5.5,D,PTCH,A,3.8,D,ROLL*56
$HCHDG,266.7,0.0,E,,*2C
$HCHDG,266.7,0.0,E,,*2C
$GPRMC,020003.0,A,4740.81537,N,12224.43962,W,000.01,287.3,190513,016.6,E,D*20
$PGRME,2.4,M,2.4,M,3.4,M*29
$HCHDG,266.7,0.0,E,,*2C
$HCHDG,266.7,0.0,E,,*2C
$GPRMC,020003.2,A,4740.81537,N,12224.43961,W,000.01,287.3,190513,016.6,E,D*21
$PGRME,2.4,M,2.4,M,3.4,M*29
$HCHDG,266.7,0.0,E,,*2C
$YXXDR,A,5.4,D,PTCH,A,3.8,D,ROLL*57
$HCHDG,266.7,0.0,E,,*2C
$GPRMC,020003.4,A,4740.81537,N,12224.43961,W,000.00,287.3,190513,016.6,E,D*26
$PGRME,2.4,M,2.4,M,3.4,M*29
$HCHDG,266.7,0.0,E,,*2C
$HCHDG,266.7,0.0,E,,*2C
$GPRMC,020003.6,A,4740.81537,N,12224.43961,W,000.01,287.3,190513,016.6,E,D*25
$PGRME,2.4,M,2.4,M,3.4,M*29
$HCHDG,266.7,0.0,E,,*2C
$HCHDG,266.7,0.0,E,,*2C
$GPRMC,020003.8,A,4740.81537,N,12224.43961,W,000.00,287.3,190513,016.6,E,D*2A
$PGRME,2.4,M,2.4,M,3.4,M*29
$YXXDR,A,5.5,D,PTCH,A,3.8,D,ROLL*56
$PTAK,FFD1,3.8*5E
$HCHDG,266.7,0.0,E,,*2C
$HCHDG,266.7,0.0,E,,*2C
$GPRMC,020004.0,A,4740.81537,N,12224.43961,W,000.01,287.3,190513,016.6,E,D*24
$GPRMB,A,0.11,L,,N,4741.0622,N,12224.6030,W,0.3,336,0.01,V*42
$PGRME,2.4,M,2.4,M,3.4,M*29
$HCHDG,266.7,0.0,E,,*2C
$HCHDG,266.7,0.0,E,,*2C
$GPRMC,020004.2,A,4740.81537,N,12224.43961,W,000.01,287.3,190513,016.6,E,D*26
$PGRME,2.4,M,2.4,M,3.4,M*29
$HCHDG,266.7,0.0,E,,*2C
$YXXDR,A,5.4,D,PTCH,A,3.8,D,ROLL*57
$HCHDG,266.7,0.0,E,,*2C
$GPRMC,020004.4,A,4740.81537,N,12224.43961,W,000.00,287.3,190513,016.6,E,D*21
$PGRME,2.4,M,2.4,M,3.4,M*29
$HCHDG,266.7,0.0,E,,*2C
$HCHDG,266.7,0.0,E,,*2C
$GPRMC,020004.6,A,4740.81537,N,12224.43961,W,000.00,287.3,190513,016.6,E,D*23
$PGRME,2.4,M,2.4,M,3.4,M*29
$HCHDG,266.7,0.0,E,,*2C
$HCHDG,266.7,0.0,E,,*2C
$GPRMC,020004.8,A,4740.81537,N,12224.43960,W,000.00,287.3,190513,016.6,E,D*2C
$PGRME,2.4,M,2.4,M,3.4,M*29
$YXXDR,A,5.5,D,PTCH,A,3.8,D,ROLL*56
$HCHDG,266.7,0.0,E,,*2C
$HCHDG,266.7,0.0,E,,*2C
$GPRMC,020005.0,A,4740.81537,N,12224.43960,W,000.00,287.3,190513,016.6,E,D*25
$PGRME,2.4,M,2.4,M,3.4,M*29
$HCHDG,266.8,0.0,E,,*23
$HCHDG,266.8,0.0,E,,*23
$GPRMC,020005.2,A,4740.81537,N,12224.43960,W,000.00,287.3,190513,016.6,E,D*27
$GPRMB,A,0.11,L,,N,4741.0622,N,12224.6030,W,0.3,336,0.00,V*43
$PGRME,2.4,M,2.4,M,3.4,M*29
$HCHDG,266.8,0.0,E,,*23
$YXXDR,A,5.6,D,PTCH,A,3.6,D,ROLL*5B
$PTAK,FFD1,3.6*50
$HCHDG,266.8,0.0,E,,*23
$GPRMC,020005.4,A,4740.81537,N,12224.43960,W,000.00,287.3,190513,016.6,E,D*21
$PGRME,2.4,M,2.4,M,3.4,M*29
$HCHDG,266.8,0.0,E,,*23
$HCHDG,266.8,0.0,E,,*23
$GPRMC,020005.6,A,4740.81537,N,12224.43960,W,000.00,287.3,190513,016.6,E,D*23
$PGRME,2.4,M,2.4,M,3.4,M*29
$HCHDG,266.8,0.0,E,,*23
$HCHDG,266.8,0.0,E,,*23
$GPRMC,020005.8,A,4740.81537,N,12224.43960,W,000.00,287.3,190513,016.6,E,D*2D
$PGRME,2.4,M,2.4,M,3.4,M*29
$YXXDR,A,5.6,D,PTCH,A,3.6,D,ROLL*5B
$PTAK,FFP1,HEEL,@*07
$HCHDG,266.8,0.0,E,,*23
$HCHDG,266.8,0.0,E,,*23
$GPRMC,020006.0,A,4740.81537,N,12224.43960,W,000.00,287.3,190513,016.6,E,D*26
$PGRME,2.4,M,2.4,M,3.4,M*29
$HCHDG,266.8,0.0,E,,*23
$HCHDG,266.7,0.0,E,,*2C
$GPRMC,020006.2,A,4740.81537,N,12224.43960,W,000.00,287.3,190513,016.6,E,D*24
$GPRMB,A,0.11,L,,N,4741.0622,N,12224.6030,W,0.3,336,0.00,V*43
$PGRME,2.4,M,2.4,M,3.4,M*29
$HCHDG,266.7,0.0,E,,*2C
$YXXDR,A,5.5,D,PTCH,A,3.8,D,ROLL*56
$PTAK,FFD1,3.8*5E
$HCHDG,266.7,0.0,E,,*2C
$GPRMC,020006.4,A,4740.81537,N,12224.43960,W,000.00,287.3,190513,016.6,E,D*22
$PGRME,2.4,M,2.4,M,3.4,M*29
$HCHDG,266.7,0.0,E,,*2C
$HCHDG,266.7,0.0,E,,*2C
$GPRMC,020006.6,A,4740.81537,N,12224.43960,W,000.00,287.3,190513,016.6,E,D*20
$PGRME,2.4,M,2.4,M,3.4,M*29
$HCHDG,266.7,0.0,E,,*2C
$HCHDG,266.7,0.0,E,,*2C
$GPRMC,020006.8,A,4740.81537,N,12224.43960,W,000.00,287.3,190513,016.6,E,D*2E
$PGRME,2.4,M,2.4,M,3.4,M*29
$YXXDR,A,5.5,D,PTCH,A,3.8,D,ROLL*56
$HCHDG,266.7,0.0,E,,*2C
$HCHDG,266.7,0.0,E,,*2C
$GPRMC,020007.0,A,4740.81537,N,12224.43960,W,000.00,287.3,190513,016.6,E,D*27
$PGRME,2.4,M,2.4,M,3.4,M*29
$HCHDG,266.7,0.0,E,,*2C
$HCHDG,266.7,0.0,E,,*2C
$GPRMC,020007.2,A,4740.81537,N,12224.43960,W,000.00,287.3,190513,016.6,E,D*25
$PGRME,2.4,M,2.4,M,3.4,M*29
$HCHDG,266.7,0.0,E,,*2C
$YXXDR,A,5.6,D,PTCH,A,3.6,D,ROLL*5B
$HCHDG,266.7,0.0,E,,*2C
$GPRMC,020007.4,A,4740.81537,N,12224.43960,W,000.00,287.3,190513,016.6,E,D*23
$GPRMB,A,0.11,L,,N,4741.0622,N,12224.6030,W,0.3,336,0.00,V*43
$PGRME,2.4,M,2.4,M,3.4,M*29
$HCHDG,266.7,0.0,E,,*2C
$HCHDG,266.7,0.0,E,,*2C
$GPRMC,020007.6,A,4740.81537,N,12224.43960,W,000.00,287.3,190513,016.6,E,D*21
$PGRME,2.4,M,2.4,M,3.4,M*29
$HCHDG,266.7,0.0,E,,*2C
$HCHDG,266.7,0.0,E,,*2C
$GPRMC,020007.8,A,4740.81537,N,12224.43960,W,000.00,287.3,190513,016.6,E,D*2F
$PGRME,2.4,M,2.4,M,3.4,M*29
$YXXDR,A,5.5,D,PTCH,A,3.8,D,ROLL*56
$PTAK,FFD1,3.8*5E
$HCHDG,266.7,0.0,E,,*2C
$HCHDG,266.7,0.0,E,,*2C
$GPRMC,020008.0,A,4740.81537,N,12224.43960,W,000.00,287.3,190513,016.6,E,D*28
$PGRME,2.4,M,2.4,M,3.4,M*29
$HCHDG,266.7,0.0,E,,*2C
$HCHDG,266.7,0.0,E,,*2C
$GPRMC,020008.2,A,4740.81537,N,12224.43961,W,000.00,287.3,190513,016.6,E,D*2B
$PGRME,2.4,M,2.4,M,3.4,M*29
$HCHDG,266.7,0.0,E,,*2C
$YXXDR,A,5.5,D,PTCH,A,3.8,D,ROLL*56
$HCHDG,266.7,0.0,E,,*2C
$GPRMC,020008.4,A,4740.81536,N,12224.43961,W,000.00,287.3,190513,016.6,E,D*2C
$PGRME,2.4,M,2.4,M,3.4,M*29
$HCHDG,266.7,0.0,E,,*2C
$HCHDG,266.7,0.0,E,,*2C
$GPRMC,020008.6,A,4740.81536,N,12224.43961,W,000.00,287.3,190513,016.6,E,D*2E
$GPRMB,A,0.11,L,,N,4741.0622,N,12224.6030,W,0.3,336,0.00,V*43
$PGRME,2.4,M,2.4,M,3.4,M*29
$HCHDG,266.7,0.0,E,,*2C
$HCHDG,266.7,0.0,E,,*2C
$GPRMC,020008.8,A,4740.81536,N,12224.43961,W,000.00,287.3,190513,016.6,E,D*20
$PGRME,2.4,M,2.4,M,3.4,M*29
$YXXDR,A,5.5,D,PTCH,A,3.8,D,ROLL*56
$PTAK,FFD1,3.8*5E
$HCHDG,266.7,0.0,E,,*2C
$HCHDG,266.7,0.0,E,,*2C
$GPRMC,020009.0,A,4740.81536,N,12224.43961,W,000.00,287.3,190513,016.6,E,D*29
$PGRME,2.4,M,2.4,M,3.4,M*29
$HCHDG,266.7,0.0,E,,*2C
$HCHDG,266.7,0.0,E,,*2C
$GPRMC,020009.2,A,4740.81536,N,12224.43961,W,000.00,287.3,190513,016.6,E,D*2B
$PGRME,2.4,M,2.4,M,3.4,M*29
$HCHDG,266.7,0.0,E,,*2C
$YXXDR,A,5.5,D,PTCH,A,3.8,D,ROLL*56
$HCHDG,266.7,0.0,E,,*2C
$GPRMC,020009.4,A,4740.81536,N,12224.43961,W,000.00,287.3,190513,016.6,E,D*2D
$PGRME,2.4,M,2.4,M,3.4,M*29
$HCHDG,266.7,0.0,E,,*2C
$HCHDG,266.7,0.0,E,,*2C
$GPRMC,020009.6,A,4740.81536,N,12224.43961,W,000.00,287.3,190513,016.6,E,D*2F
$PGRME,2.4,M,2.4,M,3.4,M*29
$HCHDG,266.6,0.0,E,,*2D
$HCHDG,266.6,0.0,E,,*2D
$GPRMC,020009.8,A,4740.81536,N,12224.43961,W,000.00,287.3,190513,016.6,E,D*21
$GPRMB,A,0.11,L,,N,4741.0622,N,12224.6030,W,0.3,336,0.00,V*43
$PGRME,2.4,M,2.4,M,3.4,M*29
$YXXDR,A,5.5,D,PTCH,A,3.7,D,ROLL*59
$PTAK,FFD1,3.7*51
$PTAK,FFP1,HEEL,@*07
$HCHDG,266.6,0.0,E,,*2D
$HCHDG,266.6,0.0,E,,*2D
$GPRMC,020010.0,A,4740.81536,N,12224.43961,W,000.01,287.3,190513,016.6,E,D*20
$PGRME,2.4,M,2.4,M,3.4,M*29
$HCHDG,266.6,0.0,E,,*2D
$HCHDG,266.6,0.0,E,,*2D
$GPRMC,020010.2,A,4740.81536,N,12224.43961,W,000.00,287.3,190513,016.6,E,D*23
$PGRME,2.4,M,2.4,M,3.4,M*29
$HCHDG,266.6,0.0,E,,*2D
$YXXDR,A,5.5,D,PTCH,A,3.8,D,ROLL*56
$HCHDG,266.6,0.0,E,,*2D
$GPRMC,020010.4,A,4740.81536,N,12224.43961,W,000.01,287.3,190513,016.6,E,D*24
$PGRME,2.4,M,2.4,M,3.4,M*29
$HCHDG,266.6,0.0,E,,*2D
$HCHDG,266.6,0.0,E,,*2D
$GPRMC,020010.6,A,4740.81536,N,12224.43961,W,000.00,287.3,190513,016.6,E,D*27
$PGRME,2.4,M,2.4,M,3.4,M*29
$HCHDG,266.6,0.0,E,,*2D
$HCHDG,266.6,0.0,E,,*2D
$GPRMC,020010.8,A,4740.81536,N,12224.43961,W,000.00,287.3,190513,016.6,E,D*29
$PGRME,2.4,M,2.4,M,3.4,M*29
$YXXDR,A,5.5,D,PTCH,A,3.8,D,ROLL*56
$HCHDG,266.6,0.0,E,,*2D
$HCHDG,266.6,0.0,E,,*2D
$GPRMC,020011.0,A,4740.81536,N,12224.43961,W,000.00,287.3,190513,016.6,E,D*20
$GPRMB,A,0.11,L,,N,4741.0622,N,12224.6030,W,0.3,336,0.00,V*43
$PGRME,2.4,M,2.4,M,3.4,M*29
$HCHDG,266.6,0.0,E,,*2D
$HCHDG,266.6,0.0,E,,*2D
$GPRMC,020011.2,A,4740.81535,N,12224.43961,W,000.01,287.3,190513,016.6,E,D*20
$PGRME,2.4,M,2.4,M,3.4,M*29
$HCHDG,266.6,0.0,E,,*2D
$YXXDR,A,5.5,D,PTCH,A,3.8,D,ROLL*56
$PTAK,FFD1,3.8*5E
$HCHDG,266.6,0.0,E,,*2D
$GPRMC,020011.4,A,4740.81535,N,12224.43961,W,000.00,287.3,190513,016.6,E,D*27
$PGRME,2.4,M,2.4,M,3.4,M*29
$HCHDG,266.6,0.0,E,,*2D
$HCHDG,266.6,0.0,E,,*2D
$GPRMC,020011.6,A,4740.81535,N,12224.43961,W,000.00,287.3,190513,016.6,E,D*25
$PGRME,2.4,M,2.4,M,3.4,M*29
$HCHDG,266.6,0.0,E,,*2D
$HCHDG,266.6,0.0,E,,*2D
$GPRMC,020011.8,A,4740.81535,N,12224.43961,W,000.00,287.3,190513,016.6,E,D*2B
$PGRME,2.4,M,2.4,M,3.4,M*29
$YXXDR,A,5.6,D,PTCH,A,3.6,D,ROLL*5B
$HCHDG,266.6,0.0,E,,*2D
$HCHDG,266.6,0.0,E,,*2D
$GPRMC,020012.0,A,4740.81535,N,12224.43961,W,000.00,287.3,190513,016.6,E,D*20
$PGRME,2.4,M,2.4,M,3.4,M*29
$HCHDG,266.6,0.0,E,,*2D
$HCHDG,266.6,0.0,E,,*2D
$GPRMC,020012.2,A,4740.81535,N,12224.43961,W,000.01,287.3,190513,016.6,E,D*23
$GPRMB,A,0.11,L,,N,4741.0622,N,12224.6030,W,0.3,336,0.01,V*42
$PGRME,2.4,M,2.4,M,3.4,M*29
$HCHDG,266.6,0.0,E,,*2D
$YXXDR,A,5.6,D,PTCH,A,3.6,D,ROLL*5B
$PTAK,FFD1,3.6*50
$HCHDG,266.6,0.0,E,,*2D
$GPRMC,020012.4,A,4740.81535,N,12224.43960,W,000.00,287.3,190513,016.6,E,D*25
$PGRME,2.4,M,2.4,M,3.4,M*29
$HCHDG,266.7,0.0,E,,*2C
$HCHDG,266.7,0.0,E,,*2C
$GPRMC,020012.6,A,4740.81535,N,12224.43960,W,000.01,287.3,190513,016.6,E,D*26
$PGRME,2.4,M,2.4,M,3.4,M*29
$HCHDG,266.7,0.0,E,,*2C
$HCHDG,266.7,0.0,E,,*2C
$GPRMC,020012.8,A,4740.81535,N,12224.43960,W,000.01,287.3,190513,016.6,E,D*28
$PGRME,2.4,M,2.4,M,3.4,M*29
$YXXDR,A,5.5,D,PTCH,A,3.8,D,ROLL*56
$HCHDG,266.7,0.0,E,,*2C
$HCHDG,266.7,0.0,E,,*2C
$GPRMC,020013.0,A,4740.81535,N,12224.43960,W,000.00,287.3,190513,016.6,E,D*20
$PGRME,2.4,M,2.4,M,3.4,M*29
$HCHDG,266.7,0.0,E,,*2C
$HCHDG,266.7,0.0,E,,*2C
$GPRMC,020013.2,A,4740.81535,N,12224.43960,W,000.00,287.3,190513,016.6,E,D*22
$PGRME,2.4,M,2.4,M,3.4,M*29
$HCHDG,266.7,0.0,E,,*2C
$YXXDR,A,5.5,D,PTCH,A,3.8,D,ROLL*56
$HCHDG,266.7,0.0,E,,*2C
$GPRMC,020013.4,A,4740.81535,N,12224.43960,W,000.00,287.3,190513,016.6,E,D*24
$GPRMB,A,0.11,L,,N,4741.0622,N,12224.6030,W,0.3,336,0.00,V*43
$PGRME,2.4,M,2.4,M,3.4,M*29
$HCHDG,266.7,0.0,E,,*2C
$HCHDG,266.7,0.0,E,,*2C
$GPRMC,020013.6,A,4740.81535,N,12224.43960,W,000.01,287.3,190513,016.6,E,D*27
$PGRME,2.4,M,2.4,M,3.4,M*29
$HCHDG,266.7,0.0,E,,*2C
$HCHDG,266.7,0.0,E,,*2C
$GPRMC,020013.8,A,4740.81535,N,12224.43960,W,000.01,287.3,190513,016.6,E,D*29
$PGRME,2.4,M,2.4,M,3.4,M*29
$YXXDR,A,5.5,D,PTCH,A,3.8,D,ROLL*56
$PTAK,FFD1,3.8*5E
$HCHDG,266.7,0.0,E,,*2C
$HCHDG,266.7,0.0,E,,*2C
$GPRMC,020014.0,A,4740.81535,N,12224.43959,W,000.00,287.3,190513,016.6,E,D*2D
$PGRME,2.4,M,2.4,M,3.4,M*29
$HCHDG,266.7,0.0,E,,*2C
$PTAK,FFP1,HEEL,@*07
$HCHDG,266.7,0.0,E,,*2C
$GPRMC,020014.2,A,4740.81535,N,12224.43959,W,000.00,287.3,190513,016.6,E,D*2F
$PGRME,2.4,M,2.4,M,3.4,M*29
$HCHDG,266.6,0.0,E,,*2D
$YXXDR,A,5.6,D,PTCH,A,3.6,D,ROLL*5B
$HCHDG,266.6,0.0,E,,*2D
$GPRMC,020014.4,A,4740.81535,N,12224.43959,W,000.00,287.3,190513,016.6,E,D*29
$GPRMB,A,0.11,L,,N,4741.0622,N,12224.6030,W,0.3,336,0.00,V*43
$PGRME,2.4,M,2.4,M,3.4,M*29
$HCHDG,266.6,0.0,E,,*2D
$HCHDG,266.6,0.0,E,,*2D
$GPRMC,020014.6,A,4740.81535,N,12224.43959,W,000.01,287.3,190513,016.6,E,D*2A
$PGRME,2.4,M,2.4,M,3.4,M*29
$HCHDG,266.6,0.0,E,,*2D
$HCHDG,266.6,0.0,E,,*2D
$GPRMC,020014.8,A,4740.81535,N,12224.43959,W,000.01,287.3,190513,016.6,E,D*24
$PGRME,2.4,M,2.4,M,3.4,M*29
$YXXDR,A,5.5,D,PTCH,A,3.7,D,ROLL*59
$PTAK,FFD1,3.7*51
$HCHDG,266.6,0.0,E,,*2D
$HCHDG,266.6,0.0,E,,*2D
$GPRMC,020015.0,A,4740.81535,N,12224.43959,W,000.00,287.3,190513,016.6,E,D*2C
$PGRME,2.4,M,2.4,M,3.4,M*29
$HCHDG,266.6,0.0,E,,*2D
$HCHDG,266.6,0.0,E,,*2D
$GPRMC,020015.2,A,4740.81535,N,12224.43959,W,000.01,287.3,190513,016.6,E,D*2F
$PGRME,2.4,M,2.4,M,3.4,M*29
$HCHDG,266.6,0.0,E,,*2D
$YXXDR,A,5.4,D,PTCH,A,3.8,D,ROLL*57
$HCHDG,266.6,0.0,E,,*2D
$GPRMC,020015.4,A,4740.81535,N,12224.43959,W,000.00,287.3,190513,016.6,E,D*28
$GPRMB,A,0.11,L,,N,4741.0622,N,12224.6030,W,0.3,336,0.00,V*43
$PGRME,2.4,M,2.4,M,3.4,M*29
$HCHDG,266.6,0.0,E,,*2D
$HCHDG,266.6,0.0,E,,*2D
$GPRMC,020015.6,A,4740.81535,N,12224.43959,W,000.01,287.3,190513,016.6,E,D*2B
$PGRME,2.4,M,2.4,M,3.4,M*29
$HCHDG,266.6,0.0,E,,*2D
$HCHDG,266.6,0.0,E,,*2D
$GPRMC,020015.8,A,4740.81535,N,12224.43959,W,000.00,287.3,190513,016.6,E,D*24
$PGRME,2.4,M,2.4,M,3.4,M*29
$YXXDR,A,5.5,D,PTCH,A,3.8,D,ROLL*56
$PTAK,FFD1,3.8*5E
$HCHDG,266.6,0.0,E,,*2D
$HCHDG,266.6,0.0,E,,*2D
$GPRMC,020016.0,A,4740.81535,N,12224.43959,W,000.00,287.3,190513,016.6,E,D*2F
$PGRME,2.4,M,2.4,M,3.4,M*29
$HCHDG,266.6,0.0,E,,*2D
$HCHDG,266.6,0.0,E,,*2D
$GPRMC,020016.2,A,4740.81535,N,12224.43959,W,000.00,287.3,190513,016.6,E,D*2D
$PGRME,2.4,M,2.4,M,3.4,M*29
$HCHDG,266.6,0.0,E,,*2D
$YXXDR,A,5.5,D,PTCH,A,3.8,D,ROLL*56
$HCHDG,266.6,0.0,E,,*2D
$GPRMC,020016.4,A,4740.81534,N,12224.43958,W,000.00,287.3,190513,016.6,E,D*2B
$GPRMB,A,0.11,L,,N,4741.0622,N,12224.6030,W,0.3,336,0.00,V*43
$PGRME,2.4,M,2.4,M,3.4,M*29
$HCHDG,266.6,0.0,E,,*2D
$HCHDG,266.6,0.0,E,,*2D
$GPRMC,020016.6,A,4740.81535,N,12224.43958,W,000.00,287.3,190513,016.6,E,D*28
$PGRME,2.4,M,2.4,M,3.4,M*29
$HCHDG,266.6,0.0,E,,*2D
$HCHDG,266.6,0.0,E,,*2D
$GPRMC,020016.8,A,4740.81535,N,12224.43958,W,000.01,287.3,190513,016.6,E,D*27
$PGRME,2.4,M,2.4,M,3.4,M*29
$YXXDR,A,5.5,D,PTCH,A,3.7,D,ROLL*59
$PTAK,FFD1,3.7*51
$HCHDG,266.6,0.0,E,,*2D
$HCHDG,266.6,0.0,E,,*2D
$GPRMC,020017.0,A,4740.81535,N,12224.43958,W,000.00,287.3,190513,016.6,E,D*2F
$PGRME,2.4,M,2.4,M,3.4,M*29
$HCHDG,266.6,0.0,E,,*2D
$HCHDG,266.6,0.0,E,,*2D
$GPRMC,020017.2,A,4740.81534,N,12224.43958,W,000.01,287.3,190513,016.6,E,D*2D
$PGRME,2.4,M,2.4,M,3.4,M*29
$HCHDG,266.6,0.0,E,,*2D
$YXXDR,A,5.4,D,PTCH,A,3.8,D,ROLL*57
$HCHDG,266.6,0.0,E,,*2D
$GPRMC,020017.4,A,4740.81534,N,12224.43958,W,000.00,287.3,190513,016.6,E,D*2A
$GPRMB,A,0.11,L,,N,4741.0622,N,12224.6030,W,0.3,336,0.00,V*43
$PGRME,2.4,M,2.4,M,3.4,M*29
$HCHDG,266.6,0.0,E,,*2D
$HCHDG,266.6,0.0,E,,*2D
$GPRMC,020017.6,A,4740.81534,N,12224.43958,W,000.01,287.3,190513,016.6,E,D*29
$PGRME,2.4,M,2.4,M,3.4,M*29
$HCHDG,266.6,0.0,E,,*2D
$HCHDG,266.6,0.0,E,,*2D
$GPRMC,020017.8,A,4740.81534,N,12224.43958,W,000.00,287.3,190513,016.6,E,D*26
$PGRME,2.4,M,2.4,M,3.4,M*29
$YXXDR,A,5.4,D,PTCH,A,3.8,D,ROLL*57
$HCHDG,266.6,0.0,E,,*2D
$HCHDG,266.6,0.0,E,,*2D
$GPRMC,020018.0,A,4740.81534,N,12224.43958,W,000.01,287.3,190513,016.6,E,D*20
$PGRME,2.4,M,2.4,M,3.4,M*29
$HCHDG,266.6,0.0,E,,*2D
$HCHDG,266.6,0.0,E,,*2D
$PTAK,FFP1,HEEL,@*07
$GPRMC,020018.2,A,4740.81534,N,12224.43958,W,000.00,287.3,190513,016.6,E,D*23
$PGRME,2.4,M,2.4,M,3.4,M*29
$HCHDG,266.6,0.0,E,,*2D
$YXXDR,A,5.5,D,PTCH,A,3.8,D,ROLL*56
$PTAK,FFD1,3.8*5E
$HCHDG,266.6,0.0,E,,*2D
$GPRMC,020018.4,A,4740.81534,N,12224.43958,W,000.00,287.3,190513,016.6,E,D*25
$PGRME,2.4,M,2.4,M,3.4,M*29
$HCHDG,266.6,0.0,E,,*2D
$HCHDG,266.6,0.0,E,,*2D
$GPRMC,020018.6,A,4740.81535,N,12224.43958,W,000.00,287.3,190513,016.6,E,D*26
$GPRMB,A,0.11,L,,N,4741.0622,N,12224.6030,W,0.3,336,0.00,V*43
$PGRME,2.4,M,2.4,M,3.4,M*29
$HCHDG,266.6,0.0,E,,*2D
$HCHDG,266.6,0.0,E,,*2D
$GPRMC,020018.8,A,4740.81535,N,12224.43958,W,000.00,287.3,190513,016.6,E,D*28
$PGRME,2.4,M,2.4,M,3.4,M*29
$YXXDR,A,5.5,D,PTCH,A,3.8,D,ROLL*56
$HCHDG,266.5,0.0,E,,*2E
$HCHDG,266.6,0.0,E,,*2D
$GPRMC,020019.0,A,4740.81535,N,12224.43958,W,000.00,287.3,190513,016.6,E,D*21
$PGRME,2.4,M,2.4,M,3.4,M*29
$HCHDG,266.6,0.0,E,,*2D
$HCHDG,266.6,0.0,E,,*2D
$GPRMC,020019.2,A,4740.81535,N,12224.43958,W,000.00,287.3,190513,016.6,E,D*23
$PGRME,2.4,M,2.4,M,3.4,M*29
$HCHDG,266.6,0.0,E,,*2D
$YXXDR,A,5.4,D,PTCH,A,3.8,D,ROLL*57
$PTAK,FFD1,3.8*5E
$HCHDG,266.6,0.0,E,,*2D
$GPRMC,020019.4,A,4740.81535,N,12224.43958,W,000.00,287.3,190513,016.6,E,D*25
$PGRME,2.4,M,2.4,M,3.4,M*29
$HCHDG,266.6,0.0,E,,*2D
$HCHDG,266.6,0.0,E,,*2D
$GPRMC,020019.6,A,4740.81535,N,12224.43958,W,000.00,287.3,190513,016.6,E,D*27
$PGRME,2.4,M,2.4,M,3.4,M*29
$HCHDG,266.6,0.0,E,,*2D
$HCHDG,266.6,0.0,E,,*2D
$GPRMC,020019.8,A,4740.81535,N,12224.43958,W,000.00,287.3,190513,016.6,E,D*29
$GPRMB,A,0.11,L,,N,4741.0622,N,12224.6030,W,0.3,336,0.00,V*43
$PGRME,2.4,M,2.4,M,3.4,M*29
$YXXDR,A,5.4,D,PTCH,A,3.8,D,ROLL*57
$HCHDG,266.6,0.0,E,,*2D
$HCHDG,266.6,0.0,E,,*2D
$GPRMC,020020.0,A,4740.81534,N,12224.43957,W,000.00,287.3,190513,016.6,E,D*25
$PGRME,2.4,M,2.4,M,3.4,M*29
$HCHDG,266.7,0.0,E,,*2C
$HCHDG,266.7,0.0,E,,*2C
$GPRMC,020020.2,A,4740.81534,N,12224.43957,W,000.00,287.3,190513,016.6,E,D*27
$PGRME,2.4,M,2.4,M,3.4,M*29
$HCHDG,266.7,0.0,E,,*2C
$YXXDR,A,5.5,D,PTCH,A,3.8,D,ROLL*56
$HCHDG,266.7,0.0,E,,*2C
$GPRMC,020020.4,A,4740.81534,N,12224.43957,W,000.00,287.3,190513,016.6,E,D*21
$PGRME,2.4,M,2.4,M,3.4,M*29
$HCHDG,266.7,0.0,E,,*2C
$HCHDG,266.7,0.0,E,,*2C
$GPRMC,020020.6,A,4740.81534,N,12224.43957,W,000.00,287.3,190513,016.6,E,D*23
$PGRME,2.4,M,2.4,M,3.4,M*29
$HCHDG,266.7,0.0,E,,*2C
$HCHDG,266.7,0.0,E,,*2C
$GPRMC,020020.8,A,4740.81534,N,12224.43957,W,000.00,287.3,190513,016.6,E,D*2D
$PGRME,2.4,M,2.4,M,3.4,M*29
$YXXDR,A,5.5,D,PTCH,A,3.8,D,ROLL*56
$PTAK,FFD1,3.8*5E
$HCHDG,266.7,0.0,E,,*2C
$HCHDG,266.7,0.0,E,,*2C
$GPRMC,020021.0,A,4740.81534,N,12224.43957,W,000.00,287.3,190513,016.6,E,D*24
$GPRMB,A,0.11,L,,N,4741.0622,N,12224.6030,W,0.3,336,0.00,V*43
$PGRME,2.4,M,2.4,M,3.4,M*29
$HCHDG,266.7,0.0,E,,*2C
$HCHDG,266.7,0.0,E,,*2C
$GPRMC,020021.2,A,4740.81534,N,12224.43957,W,000.00,287.3,190513,016.6,E,D*26
$PGRME,2.4,M,2.4,M,3.4,M*29
$HCHDG,266.7,0.0,E,,*2C
$YXXDR,A,5.6,D,PTCH,A,3.6,D,ROLL*5B
$HCHDG,266.7,0.0,E,,*2C
$GPRMC,020021.4,A,4740.81534,N,12224.43957,W,000.00,287.3,190513,016.6,E,D*20
$PGRME,2.4,M,2.4,M,3.4,M*29
$HCHDG,266.7,0.0,E,,*2C
$HCHDG,266.7,0.0,E,,*2C
$GPRMC,020021.6,A,4740.81534,N,12224.43957,W,000.00,287.3,190513,016.6,E,D*22
$PGRME,2.4,M,2.4,M,3.4,M*29
$HCHDG,266.7,0.0,E,,*2C
$HCHDG,266.7,0.0,E,,*2C
$GPRMC,020021.8,A,4740.81534,N,12224.43957,W,000.00,287.3,190513,016.6,E,D*2C
$PGRME,2.4,M,2.4,M,3.4,M*29
$YXXDR,A,5.5,D,PTCH,A,3.8,D,ROLL*56
$PTAK,FFD1,3.8*5E
$HCHDG,266.7,0.0,E,,*2C
$HCHDG,266.7,0.0,E,,*2C
$GPRMC,020022.0,A,4740.81534,N,12224.43957,W,000.00,287.3,190513,016.6,E,D*27
$GPRMB,A,0.11,L,,N,4741.0622,N,12224.6030,W,0.3,336,0.00,V*43
$PGRME,2.4,M,2.4,M,3.4,M*29
$HCHDG,266.7,0.0,E,,*2C
$PTAK,FFP1,HEEL,@*07
$HCHDG,266.7,0.0,E,,*2C
$GPRMC,020022.2,A,4740.81534,N,12224.43957,W,000.00,287.3,190513,016.6,E,D*25
$PGRME,2.4,M,2.4,M,3.4,M*29
$HCHDG,266.7,0.0,E,,*2C
$YXXDR,A,5.6,D,PTCH,A,3.6,D,ROLL*5B
$HCHDG,266.7,0.0,E,,*2C
$GPRMC,020022.4,A,4740.81534,N,12224.43957,W,000.01,287.3,190513,016.6,E,D*22
$PGRME,2.4,M,2.4,M,3.4,M*29
$HCHDG,266.7,0.0,E,,*2C
$HCHDG,266.7,0.0,E,,*2C
$GPRMC,020022.6,A,4740.81534,N,12224.43957,W,000.01,287.3,190513,016.6,E,D*20
$PGRME,2.4,M,2.4,M,3.4,M*29
$HCHDG,266.7,0.0,E,,*2C
$HCHDG,266.7,0.0,E,,*2C
$GPRMC,020022.8,A,4740.81534,N,12224.43957,W,000.00,287.3,190513,016.6,E,D*2F
$PGRME,2.4,M,2.4,M,3.4,M*29
$YXXDR,A,5.6,D,PTCH,A,3.6,D,ROLL*5B
$HCHDG,266.7,0.0,E,,*2C
$HCHDG,266.7,0.0,E,,*2C
$GPRMC,020023.0,A,4740.81534,N,12224.43957,W,000.01,287.3,190513,016.6,E,D*27
$PGRME,2.4,M,2.4,M,3.4,M*29
$HCHDG,266.7,0.0,E,,*2C
$HCHDG,266.7,0.0,E,,*2C
$GPRMC,020023.2,A,4740.81534,N,12224.43957,W,000.01,287.3,190513,016.6,E,D*25
$GPRMB,A,0.11,L,,N,4741.0622,N,12224.6030,W,0.3,336,0.01,V*42
$PGRME,2.4,M,2.4,M,3.4,M*29
$HCHDG,266.7,0.0,E,,*2C
$YXXDR,A,5.6,D,PTCH,A,3.6,D,ROLL*5B
$PTAK,FFD1,3.6*50
$HCHDG,266.7,0.0,E,,*2C
$GPRMC,020023.4,A,4740.81534,N,12224.43957,W,000.00,287.3,190513,016.6,E,D*22
$PGRME,2.4,M,2.4,M,3.4,M*29
$HCHDG,266.7,0.0,E,,*2C
$HCHDG,266.7,0.0,E,,*2C
$GPRMC,020023.6,A,4740.81534,N,12224.43957,W,000.00,287.3,190513,016.6,E,D*20
$PGRME,2.4,M,2.4,M,3.4,M*29
$HCHDG,266.7,0.0,E,,*2C
$HCHDG,266.7,0.0,E,,*2C
$GPRMC,020023.8,A,4740.81534,N,12224.43957,W,000.00,287.3,190513,016.6,E,D*2E
$PGRME,2.4,M,2.4,M,3.4,M*29
$YXXDR,A,5.6,D,PTCH,A,3.6,D,ROLL*5B
$HCHDG,266.7,0.0,E,,*2C
$HCHDG,266.7,0.0,E,,*2C
$GPRMC,020024.0,A,4740.81534,N,12224.43957,W,000.00,287.3,190513,016.6,E,D*21
$PGRME,2.4,M,2.4,M,3.4,M*29
$HCHDG,266.7,0.0,E,,*2C
$HCHDG,266.7,0.0,E,,*2C
$GPRMC,020024.2,A,4740.81535,N,12224.43957,W,000.00,287.3,190513,016.6,E,D*22
$GPRMB,A,0.11,L,,N,4741.0622,N,12224.6030,W,0.3,336,0.00,V*43
$PGRME,2.4,M,2.4,M,3.4,M*29
$HCHDG,266.7,0.0,E,,*2C
$YXXDR,A,5.6,D,PTCH,A,3.6,D,ROLL*5B
$HCHDG,266.7,0.0,E,,*2C
$GPRMC,020024.4,A,4740.81535,N,12224.43957,W,000.01,287.3,190513,016.6,E,D*25
$PGRME,2.4,M,2.4,M,3.4,M*29
$HCHDG,266.7,0.0,E,,*2C
$HCHDG,266.7,0.0,E,,*2C
$GPRMC,020024.6,A,4740.81535,N,12224.43956,W,000.01,287.3,190513,016.6,E,D*26
$PGRME,2.4,M,2.4,M,3.4,M*29
$HCHDG,266.7,0.0,E,,*2C
$HCHDG,266.7,0.0,E,,*2C
$GPRMC,020024.8,A,4740.81535,N,12224.43956,W,000.01,287.3,190513,016.6,E,D*28
$PGRME,2.4,M,2.4,M,3.4,M*29
$YXXDR,A,5.5,D,PTCH,A,3.7,D,ROLL*59
$PTAK,FFD1,3.7*51
$HCHDG,266.7,0.0,E,,*2C
$HCHDG,266.7,0.0,E,,*2C
$GPRMC,020025.0,A,4740.81535,N,12224.43956,W,000.01,287.3,190513,016.6,E,D*21
$PGRME,2.4,M,2.4,M,3.4,M*29
$HCHDG,266.7,0.0,E,,*2C
$HCHDG,266.7,0.0,E,,*2C
$GPRMC,020025.2,A,4740.81535,N,12224.43956,W,000.01,287.3,190513,016.6,E,D*23
$PGRME,2.4,M,2.4,M,3.4,M*29
$HCHDG,266.7,0.0,E,,*2C
$YXXDR,A,5.6,D,PTCH,A,3.6,D,ROLL*5B
$HCHDG,266.7,0.0,E,,*2C
$GPRMC,020025.4,A,4740.81535,N,12224.43956,W,000.00,287.3,190513,016.6,E,D*24
$GPRMB,A,0.11,L,,N,4741.0622,N,12224.6030,W,0.3,336,0.00,V*43
$PGRME,2.4,M,2.4,M,3.4,M*29
$HCHDG,266.7,0.0,E,,*2C
$HCHDG,266.7,0.0,E,,*2C
$GPRMC,020025.6,A,4740.81535,N,12224.43956,W,000.01,287.3,190513,016.6,E,D*27
$PGRME,2.4,M,2.4,M,3.4,M*29
$HCHDG,266.7,0.0,E,,*2C
$HCHDG,266.7,0.0,E,,*2C
$GPRMC,020025.8,A,4740.81535,N,12224.43956,W,000.00,287.3,190513,016.6,E,D*28
$PGRME,2.4,M,2.4,M,3.4,M*29
$YXXDR,A,5.5,D,PTCH,A,3.8,D,ROLL*56
$PTAK,FFD1,3.8*5E
$HCHDG,266.7,0.0,E,,*2C
$HCHDG,266.7,0.0,E,,*2C
$GPRMC,020026.0,A,4740.81535,N,12224.43956,W,000.01,287.3,190513,016.6,E,D*22
$PGRME,2.4,M,2.4,M,3.4,M*29
$HCHDG,266.7,0.0,E,,*2C
$HCHDG,266.7,0.0,E,,*2C
$GPRMC,020026.2,A,4740.81535,N,12224.43955,W,000.01,287.3,190513,016.6,E,D*23
$PGRME,2.4,M,2.4,M,3.4,M*29
$HCHDG,266.7,0.0,E,,*2C
$PTAK,FFP1,HEEL,@*07
$YXXDR,A,5.5,D,PTCH,A,3.8,D,ROLL*56
$HCHDG,266.7,0.0,E,,*2C
$GPRMC,020026.4,A,4740.81535,N,12224.43955,W,000.00,287.3,190513,016.6,E,D*24
$GPRMB,A,0.11,L,,N,4741.0622,N,12224.6030,W,0.3,336,0.00,V*43
$PGRME,2.4,M,2.4,M,3.4,M*29
$HCHDG,266.7,0.0,E,,*2C
$HCHDG,266.7,0.0,E,,*2C
$GPRMC,020026.6,A,4740.81536,N,12224.43955,W,000.01,287.3,190513,016.6,E,D*24
$PGRME,2.4,M,2.4,M,3.4,M*29
$HCHDG,266.7,0.0,E,,*2C
$HCHDG,266.7,0.0,E,,*2C
$GPRMC,020026.8,A,4740.81536,N,12224.43955,W,000.01,287.3,190513,016.6,E,D*2A
$PGRME,2.4,M,2.4,M,3.4,M*29
$YXXDR,A,5.6,D,PTCH,A,3.6,D,ROLL*5B
$HCHDG,266.7,0.0,E,,*2C
$HCHDG,266.7,0.0,E,,*2C
$GPRMC,020027.0,A,4740.81536,N,12224.43955,W,000.01,287.3,190513,016.6,E,D*23
$PGRME,2.4,M,2.4,M,3.4,M*29
$HCHDG,266.7,0.0,E,,*2C
$HCHDG,266.7,0.0,E,,*2C
$GPRMC,020027.2,A,4740.81536,N,12224.43955,W,000.00,287.3,190513,016.6,E,D*20
$PGRME,2.4,M,2.4,M,3.4,M*29
$HCHDG,266.7,0.0,E,,*2C
$YXXDR,A,5.5,D,PTCH,A,3.7,D,ROLL*59
$PTAK,FFD1,3.7*51
$HCHDG,266.7,0.0,E,,*2C
$GPRMC,020027.4,A,4740.81536,N,12224.43954,W,000.01,287.3,190513,016.6,E,D*26
$GPRMB,A,0.11,L,,N,4741.0622,N,12224.6030,W,0.3,336,0.01,V*42
$PGRME,2.4,M,2.4,M,3.4,M*29
$HCHDG,266.7,0.0,E,,*2C
$HCHDG,266.7,0.0,E,,*2C
$GPRMC,020027.6,A,4740.81536,N,12224.43954,W,000.01,287.3,190513,016.6,E,D*24
$PGRME,2.4,M,2.4,M,3.4,M*29
$HCHDG,266.7,0.0,E,,*2C
$HCHDG,266.7,0.0,E,,*2C
$GPRMC,020027.8,A,4740.81536,N,12224.43954,W,000.01,287.3,190513,016.6,E,D*2A
$PGRME,2.4,M,2.4,M,3.4,M*29
$YXXDR,A,5.5,D,PTCH,A,3.8,D,ROLL*56
$HCHDG,266.7,0.0,E,,*2C
$HCHDG,266.7,0.0,E,,*2C
$GPRMC,020028.0,A,4740.81536,N,12224.43954,W,000.01,287.3,190513,016.6,E,D*2D
$PGRME,2.4,M,2.4,M,3.4,M*29
$HCHDG,266.7,0.0,E,,*2C
$HCHDG,266.7,0.0,E,,*2C
$GPRMC,020028.2,A,4740.81536,N,12224.43954,W,000.01,287.3,190513,016.6,E,D*2F
$PGRME,2.4,M,2.4,M,3.4,M*29
$HCHDG,266.7,0.0,E,,*2C
$YXXDR,A,5.5,D,PTCH,A,3.8,D,ROLL*56
$PTAK,FFD1,3.8*5E
$HCHDG,266.7,0.0,E,,*2C
$GPRMC,020028.4,A,4740.81536,N,12224.43954,W,000.01,287.3,190513,016.6,E,D*29
$PGRME,2.4,M,2.4,M,3.4,M*29
$HCHDG,266.7,0.0,E,,*2C
$HCHDG,266.7,0.0,E,,*2C
$GPRMC,020028.6,A,4740.81536,N,12224.43953,W,000.01,287.3,190513,016.6,E,D*2C
$GPRMB,A,0.11,L,,N,4741.0622,N,12224.6030,W,0.3,336,0.01,V*42
$PGRME,2.4,M,2.4,M,3.4,M*29
$HCHDG,266.7,0.0,E,,*2C
$HCHDG,266.7,0.0,E,,*2C
$GPRMC,020028.8,A,4740.81536,N,12224.43953,W,000.01,287.3,190513,016.6,E,D*22
$PGRME,2.4,M,2.4,M,3.4,M*29
$YXXDR,A,5.4,D,PTCH,A,3.8,D,ROLL*57
$HCHDG,266.7,0.0,E,,*2C
$HCHDG,266.7,0.0,E,,*2C
$GPRMC,020029.0,A,4740.81536,N,12224.43953,W,000.01,287.3,190513,016.6,E,D*2B
$PGRME,2.4,M,2.4,M,3.4,M*29
$HCHDG,266.7,0.0,E,,*2C
$HCHDG,266.7,0.0,E,,*2C
$GPRMC,020029.2,A,4740.81537,N,12224.43953,W,000.00,287.3,190513,016.6,E,D*29
$PGRME,2.4,M,2.4,M,3.4,M*29
$HCHDG,266.6,0.0,E,,*2D
$YXXDR,A,5.5,D,PTCH,A,3.8,D,ROLL*56
$PTAK,FFD1,3.8*5E
$HCHDG,266.6,0.0,E,,*2D
$GPRMC,020029.4,A,4740.81537,N,12224.43953,W,000.01,287.3,190513,016.6,E,D*2E
$PGRME,2.4,M,2.4,M,3.4,M*29
$HCHDG,266.6,0.0,E,,*2D
$HCHDG,266.6,0.0,E,,*2D
$GPRMC,020029.6,A,4740.81537,N,12224.43953,W,000.00,287.3,190513,016.6,E,D*2D
$GPRMB,A,0.11,L,,N,4741.0622,N,12224.6030,W,0.3,336,0.00,V*43
$PGRME,2.4,M,2.4,M,3.4,M*29
$HCHDG,266.6,0.0,E,,*2D
$HCHDG,266.7,0.0,E,,*2C
$GPRMC,020029.8,A,4740.81537,N,12224.43953,W,000.00,287.3,190513,016.6,E,D*23
$PGRME,2.4,M,2.4,M,3.4,M*29
$YXXDR,A,5.5,D,PTCH,A,3.8,D,ROLL*56
$HCHDG,266.7,0.0,E,,*2C
$HCHDG,266.7,0.0,E,,*2C
$GPRMC,020030.0,A,4740.81537,N,12224.43952,W,000.00,287.3,190513,016.6,E,D*22
$PGRME,2.4,M,2.4,M,3.4,M*29
$HCHDG,266.7,0.0,E,,*2C
$HCHDG,266.7,0.0,E,,*2C
$GPRMC,020030.2,A,4740.81537,N,12224.43952,W,000.00,287.3,190513,016.6,E,D*20
$PGRME,2.4,M,2.4,M,3.4,M*29
$HCHDG,266.7,0.0,E,,*2C
$PTAK,FFP1,HEEL,@*07
$YXXDR,A,5.5,D,PTCH,A,3.8,D,ROLL*56
$PTAK,FFD1,3.8*5E
$HCHDG,266.7,0.0,E,,*2C
$GPRMC,020030.4,A,4740.81537,N,12224.43952,W,000.00,287.3,190513,016.6,E,D*26
$PGRME,2.4,M,2.4,M,3.4,M*29
$HCHDG,266.7,0.0,E,,*2C
$HCHDG,266.7,0.0,E,,*2C
$GPRMC,020030.6,A,4740.81537,N,12224.43952,W,000.00,287.3,190513,016.6,E,D*24
$PGRME,2.4,M,2.4,M,3.4,M*29
$HCHDG,266.7,0.0,E,,*2C
$HCHDG,266.7,0.0,E,,*2C
$GPRMC,020030.8,A,4740.81537,N,12224.43952,W,000.00,287.3,190513,016.6,E,D*2A
$GPRMB,A,0.11,L,,N,4741.0622,N,12224.6030,W,0.3,336,0.00,V*43
$PGRME,2.4,M,2.4,M,3.4,M*29
$YXXDR,A,5.6,D,PTCH,A,3.6,D,ROLL*5B
$HCHDG,266.7,0.0,E,,*2C
$HCHDG,266.7,0.0,E,,*2C
$GPRMC,020031.0,A,4740.81537,N,12224.43951,W,000.00,287.3,190513,016.6,E,D*20
$PGRME,2.4,M,2.4,M,3.4,M*29
$HCHDG,266.7,0.0,E,,*2C
$HCHDG,266.7,0.0,E,,*2C
$GPRMC,020031.2,A,4740.81537,N,12224.43951,W,000.00,287.3,190513,016.6,E,D*22
$PGRME,2.4,M,2.4,M,3.4,M*29
$HCHDG,266.7,0.0,E,,*2C
$YXXDR,A,5.5,D,PTCH,A,3.7,D,ROLL*59
$HCHDG,266.7,0.0,E,,*2C
$GPRMC,020031.4,A,4740.81537,N,12224.43951,W,000.00,287.3,190513,016.6,E,D*24
$PGRME,2.4,M,2.4,M,3.4,M*29
$HCHDG,266.7,0.0,E,,*2C
$HCHDG,266.7,0.0,E,,*2C
$GPRMC,020031.6,A,4740.81537,N,12224.43951,W,000.00,287.3,190513,016.6,E,D*26
$PGRME,2.4,M,2.4,M,3.4,M*29
$HCHDG,266.7,0.0,E,,*2C
$HCHDG,266.7,0.0,E,,*2C
$GPRMC,020031.8,A,4740.81537,N,12224.43951,W,000.00,287.3,190513,016.6,E,D*28
$PGRME,2.4,M,2.4,M,3.4,M*29
$YXXDR,A,5.5,D,PTCH,A,3.8,D,ROLL*56
$PTAK,FFD1,3.8*5E
$HCHDG,266.7,0.0,E,,*2C
$HCHDG,266.7,0.0,E,,*2C
$GPRMC,020032.0,A,4740.81537,N,12224.43951,W,000.00,287.3,190513,016.6,E,D*23
$GPRMB,A,0.11,L,,N,4741.0622,N,12224.6030,W,0.3,336,0.00,V*43
$PGRME,2.4,M,2.4,M,3.4,M*29
$HCHDG,266.7,0.0,E,,*2C
$HCHDG,266.7,0.0,E,,*2C
$GPRMC,020032.2,A,4740.81537,N,12224.43951,W,000.00,287.3,190513,016.6,E,D*21
$PGRME,2.4,M,2.4,M,3.4,M*29
$HCHDG,266.7,0.0,E,,*2C
$YXXDR,A,5.5,D,PTCH,A,3.8,D,ROLL*56
$HCHDG,266.7,0.0,E,,*2C
$GPRMC,020032.4,A,4740.81537,N,12224.43950,W,000.00,287.3,190513,016.6,E,D*26
$PGRME,2.4,M,2.4,M,3.4,M*29
$HCHDG,266.7,0.0,E,,*2C
$HCHDG,266.7,0.0,E,,*2C
$GPRMC,020032.6,A,4740.81537,N,12224.43950,W,000.00,287.3,190513,016.6,E,D*24
$PGRME,2.4,M,2.4,M,3.4,M*29
$HCHDG,266.7,0.0,E,,*2C
$HCHDG,266.7,0.0,E,,*2C
$GPRMC,020032.8,A,4740.81537,N,12224.43950,W,000.00,287.3,190513,016.6,E,D*2A
$PGRME,2.4,M,2.4,M,3.4,M*29
$YXXDR,A,5.5,D,PTCH,A,3.8,D,ROLL*56
$HCHDG,266.7,0.0,E,,*2C
$HCHDG,266.7,0.0,E,,*2C
$GPRMC,020033.0,A,4740.81537,N,12224.43950,W,000.00,287.3,190513,016.6,E,D*23
$PGRME,2.4,M,2.4,M,3.4,M*29
$HCHDG,266.7,0.0,E,,*2C
$HCHDG,266.7,0.0,E,,*2C
$GPRMC,020033.2,A,4740.81538,N,12224.43949,W,000.00,287.3,190513,016.6,E,D*26
$GPRMB,A,0.11,L,,N,4741.0622,N,12224.6030,W,0.3,336,0.00,V*43
$PGRME,2.4,M,2.4,M,3.4,M*29
$HCHDG,266.7,0.0,E,,*2C
$YXXDR,A,5.6,D,PTCH,A,3.6,D,ROLL*5B
$PTAK,FFD1,3.6*50
$HCHDG,266.7,0.0,E,,*2C
$GPRMC,020033.4,A,4740.81538,N,12224.43949,W,000.00,287.3,190513,016.6,E,D*20
$PGRME,2.4,M,2.4,M,3.4,M*29
$HCHDG,266.7,0.0,E,,*2C
$HCHDG,266.7,0.0,E,,*2C
$GPRMC,020033.6,A,4740.81538,N,12224.43949,W,000.00,287.3,190513,016.6,E,D*22
$PGRME,2.4,M,2.4,M,3.4,M*29
$HCHDG,266.7,0.0,E,,*2C
$HCHDG,266.7,0.0,E,,*2C
$GPRMC,020033.8,A,4740.81538,N,12224.43949,W,000.00,287.3,190513,016.6,E,D*2C
$PGRME,2.4,M,2.4,M,3.4,M*29
$YXXDR,A,5.6,D,PTCH,A,3.6,D,ROLL*5B
$HCHDG,266.7,0.0,E,,*2C
$HCHDG,266.7,0.0,E,,*2C
$GPRMC,020034.0,A,4740.81538,N,12224.43949,W,000.00,287.3,190513,016.6,E,D*23
$PGRME,2.4,M,2.4,M,3.4,M*29
$HCHDG,266.7,0.0,E,,*2C
$HCHDG,266.7,0.0,E,,*2C
$GPRMC,020034.2,A,4740.81538,N,12224.43948,W,000.00,287.3,190513,016.6,E,D*20
$PGRME,2.4,M,2.4,M,3.4,M*29
$HCHDG,266.7,0.0,E,,*2C
$YXXDR,A,5.5,D,PTCH,A,3.8,D,ROLL*56
$PTAK,FFP1,HEEL,@*07
$HCHDG,266.7,0.0,E,,*2C
$GPRMC,020034.4,A,4740.81538,N,12224.43948,W,000.01,287.3,190513,016.6,E,D*27
$GPRMB,A,0.11,L,,N,4741.0622,N,12224.6030,W,0.3,336,0.01,V*42
$PGRME,2.4,M,2.4,M,3.4,M*29
$HCHDG,266.7,0.0,E,,*2C
$HCHDG,266.7,0.0,E,,*2C
$GPRMC,020034.6,A,4740.81538,N,12224.43948,W,000.00,287.3,190513,016.6,E,D*24
$PGRME,2.4,M,2.4,M,3.4,M*29
$HCHDG,266.7,0.0,E,,*2C
$HCHDG,266.7,0.0,E,,*2C
$GPRMC,020034.8,A,4740.81538,N,12224.43948,W,000.01,287.3,190513,016.6,E,D*2B
$PGRME,2.4,M,2.4,M,3.4,M*29
$YXXDR,A,5.5,D,PTCH,A,3.8,D,ROLL*56
$PTAK,FFD1,3.8*5E
$HCHDG,266.7,0.0,E,,*2C
$HCHDG,266.7,0.0,E,,*2C
$GPRMC,020035.0,A,4740.81538,N,12224.43947,W,000.01,287.3,190513,016.6,E,D*2D
$PGRME,2.4,M,2.4,M,3.4,M*29
$HCHDG,266.7,0.0,E,,*2C
$HCHDG,266.7,0.0,E,,*2C
$GPRMC,020035.2,A,4740.81538,N,12224.43947,W,000.00,287.3,190513,016.6,E,D*2E
$PGRME,2.4,M,2.4,M,3.4,M*29
$HCHDG,266.7,0.0,E,,*2C
$YXXDR,A,5.5,D,PTCH,A,3.8,D,ROLL*56
$HCHDG,266.7,0.0,E,,*2C
$GPRMC,020035.4,A,4740.81538,N,12224.43947,W,000.01,287.3,190513,016.6,E,D*29
$PGRME,2.4,M,2.4,M,3.4,M*29
$HCHDG,266.7,0.0,E,,*2C
$HCHDG,266.7,0.0,E,,*2C
$GPRMC,020035.6,A,4740.81538,N,12224.43947,W,000.01,287.3,190513,016.6,E,D*2B
$GPRMB,A,0.11,L,,N,4741.0622,N,12224.6030,W,0.3,336,0.01,V*42
$PGRME,2.4,M,2.4,M,3.4,M*29
$HCHDG,266.7,0.0,E,,*2C
$HCHDG,266.7,0.0,E,,*2C
$GPRMC,020035.8,A,4740.81538,N,12224.43946,W,000.01,287.3,190513,016.6,E,D*24
$PGRME,2.4,M,2.4,M,3.4,M*29
$YXXDR,A,5.5,D,PTCH,A,3.7,D,ROLL*59
$PTAK,FFD1,3.7*51
$HCHDG,266.6,0.0,E,,*2D
$HCHDG,266.6,0.0,E,,*2D
$GPRMC,020036.0,A,4740.81538,N,12224.43946,W,000.00,287.3,190513,016.6,E,D*2E
$PGRME,2.4,M,2.4,M,3.4,M*29
$HCHDG,266.6,0.0,E,,*2D
$HCHDG,266.6,0.0,E,,*2D
$GPRMC,020036.2,A,4740.81539,N,12224.43946,W,000.01,287.3,190513,016.6,E,D*2C
$PGRME,2.4,M,2.4,M,3.4,M*29
$HCHDG,266.7,0.0,E,,*2C
$YXXDR,A,5.4,D,PTCH,A,3.8,D,ROLL*57
$HCHDG,266.7,0.0,E,,*2C
$GPRMC,020036.4,A,4740.81539,N,12224.43945,W,000.01,287.3,190513,016.6,E,D*29
$PGRME,2.4,M,2.4,M,3.4,M*29
$HCHDG,266.7,0.0,E,,*2C
$HCHDG,266.7,0.0,E,,*2C
$GPRMC,020036.6,A,4740.81539,N,12224.43945,W,000.01,287.3,190513,016.6,E,D*2B
$PGRME,2.4,M,2.4,M,3.4,M*29
$HCHDG,266.7,0.0,E,,*2C
$HCHDG,266.7,0.0,E,,*2C
$GPRMC,020036.8,A,4740.81539,N,12224.43945,W,000.01,287.3,190513,016.6,E,D*25
$GPRMB,A,0.11,L,,N,4741.0622,N,12224.6030,W,0.3,336,0.01,V*42
$PGRME,2.4,M,2.4,M,3.4,M*29
$YXXDR,A,5.5,D,PTCH,A,3.8,D,ROLL*56
$HCHDG,266.7,0.0,E,,*2C
$HCHDG,266.7,0.0,E,,*2C
$GPRMC,020037.0,A,4740.81539,N,12224.43945,W,000.01,287.3,190513,016.6,E,D*2C
$PGRME,2.4,M,2.4,M,3.4,M*29
$HCHDG,266.7,0.0,E,,*2C
$HCHDG,266.6,0.0,E,,*2D
$GPRMC,020037.2,A,4740.81540,N,12224.43944,W,000.01,287.3,190513,016.6,E,D*21
$PGRME,2.4,M,2.4,M,3.4,M*29
$HCHDG,266.6,0.0,E,,*2D
$YXXDR,A,5.5,D,PTCH,A,3.8,D,ROLL*56
$HCHDG,266.6,0.0,E,,*2D
$GPRMC,020037.4,A,4740.81540,N,12224.43944,W,000.01,287.3,190513,016.6,E,D*27
$PGRME,2.4,M,2.4,M,3.4,M*29
$HCHDG,266.6,0.0,E,,*2D
$HCHDG,266.6,0.0,E,,*2D
$GPRMC,020037.6,A,4740.81540,N,12224.43944,W,000.01,287.3,190513,016.6,E,D*25
$PGRME,2.4,M,2.4,M,3.4,M*29
$HCHDG,266.6,0.0,E,,*2D
$HCHDG,266.7,0.0,E,,*2C
$GPRMC,020037.8,A,4740.81540,N,12224.43943,W,000.01,287.3,190513,016.6,E,D*2C
$PGRME,2.4,M,2.4,M,3.4,M*29
$YXXDR,A,5.6,D,PTCH,A,3.6,D,ROLL*5B
$PTAK,FFD1,3.6*50
$HCHDG,266.7,0.0,E,,*2C
$HCHDG,266.7,0.0,E,,*2C
$GPRMC,020038.0,A,4740.81540,N,12224.43943,W,000.01,287.3,190513,016.6,E,D*2B
$PGRME,2.4,M,2.4,M,3.4,M*29
$HCHDG,266.7,0.0,E,,*2C
$HCHDG,266.7,0.0,E,,*2C
$GPRMC,020038.2,A,4740.81540,N,12224.43943,W,000.01,287.3,190513,016.6,E,D*29
$PGRME,2.4,M,2.4,M,3.4,M*29
$HCHDG,266.7,0.0,E,,*2C
$YXXDR,A,5.6,D,PTCH,A,3.6,D,ROLL*5B
$HCHDG,266.7,0.0,E,,*2C
$GPRMC,020038.4,A,4740.81540,N,12224.43942,W,000.01,287.3,190513,016.6,E,D*2E
$PGRME,2.4,M,2.4,M,3.4,M*29
$HCHDG,266.7,0.0,E,,*2C
$HCHDG,266.7,0.0,E,,*2C
$GPRMC,020038.6,A,4740.81540,N,12224.43942,W,000.01,287.3,190513,016.6,E,D*2C
$PGRME,2.4,M,2.4,M,3.4,M*29
$HCHDG,266.6,0.0,E,,*2D
$HCHDG,266.6,0.0,E,,*2D
$GPRMC,020038.8,A,4740.81540,N,12224.43942,W,000.01,287.3,190513,016.6,E,D*22
$GPRMB,A,0.11,L,,N,4741.0622,N,12224.6030,W,0.3,336,0.01,V*42
$PGRME,2.4,M,2.4,M,3.4,M*29
$YXXDR,A,5.5,D,PTCH,A,3.7,D,ROLL*59
$PTAK,FFD1,3.7*51
$HCHDG,266.6,0.0,E,,*2D
$HCHDG,266.5,0.0,E,,*2E
$GPRMC,020039.0,A,4740.81541,N,12224.43941,W,000.01,287.3,190513,016.6,E,D*29
$PGRME,2.4,M,2.4,M,3.4,M*29
$HCHDG,266.5,0.0,E,,*2E
$HCHDG,266.5,0.0,E,,*2E
$GPRMC,020039.2,A,4740.81541,N,12224.43941,W,000.01,287.3,190513,016.6,E,D*2B
$PTAK,FFP1,HEEL,@*07
$PGRME,2.4,M,2.4,M,3.4,M*29
$HCHDG,266.6,0.0,E,,*2D
$YXXDR,A,5.5,D,PTCH,A,3.8,D,ROLL*56
$HCHDG,266.6,0.0,E,,*2D
$GPRMC,020039.4,A,4740.81541,N,12224.43941,W,000.00,287.3,190513,016.6,E,D*2C
$PGRME,2.4,M,2.4,M,3.4,M*29
$HCHDG,266.6,0.0,E,,*2D
$HCHDG,266.6,0.0,E,,*2D
$GPRMC,020039.6,A,4740.81541,N,12224.43941,W,000.00,287.3,190513,016.6,E,D*2E
$PGRME,2.4,M,2.4,M,3.4,M*29
$HCHDG,266.5,0.0,E,,*2E
$HCHDG,266.5,0.0,E,,*2E
$GPRMC,020039.8,A,4740.81541,N,12224.43940,W,000.01,287.3,190513,016.6,E,D*20
$PGRME,2.4,M,2.4,M,3.4,M*29
$YXXDR,A,5.6,D,PTCH,A,3.6,D,ROLL*5B
$HCHDG,266.5,0.0,E,,*2E
$HCHDG,266.5,0.0,E,,*2E
$GPRMC,020040.0,A,4740.81541,N,12224.43940,W,000.01,287.3,190513,016.6,E,D*26
$GPRMB,A,0.11,L,,N,4741.0622,N,12224.6030,W,0.3,336,0.01,V*42
$PGRME,2.4,M,2.4,M,3.4,M*29
$HCHDG,266.5,0.0,E,,*2E
$HCHDG,266.5,0.0,E,,*2E
$GPRMC,020040.2,A,4740.81541,N,12224.43940,W,000.01,287.3,190513,016.6,E,D*24
$PGRME,2.4,M,2.4,M,3.4,M*29
$HCHDG,266.5,0.0,E,,*2E
$YXXDR,A,5.5,D,PTCH,A,3.7,D,ROLL*59
$PTAK,FFD1,3.7*51
$HCHDG,266.5,0.0,E,,*2E
$GPRMC,020040.4,A,4740.81542,N,12224.43940,W,000.01,287.3,190513,016.6,E,D*21
$PGRME,2.4,M,2.4,M,3.4,M*29
$HCHDG,266.5,0.0,E,,*2E
$HCHDG,266.5,0.0,E,,*2E
$GPRMC,020040.6,A,4740.81542,N,12224.43939,W,000.01,287.3,190513,016.6,E,D*2D
$PGRME,2.4,M,2.4,M,3.4,M*29
$HCHDG,266.5,0.0,E,,*2E
$HCHDG,266.5,0.0,E,,*2E
$GPRMC,020040.8,A,4740.81542,N,12224.43939,W,000.01,287.3,190513,016.6,E,D*23
$PGRME,2.4,M,2.4,M,3.4,M*29
$YXXDR,A,5.5,D,PTCH,A,3.7,D,ROLL*59
$HCHDG,266.5,0.0,E,,*2E
$HCHDG,266.5,0.0,E,,*2E
$GPRMC,020041.0,A,4740.81542,N,12224.43939,W,000.00,287.3,190513,016.6,E,D*2B
$PGRME,2.4,M,2.4,M,3.4,M*29
$HCHDG,266.5,0.0,E,,*2E
$HCHDG,266.5,0.0,E,,*2E
$GPRMC,020041.2,A,4740.81542,N,12224.43939,W,000.01,287.3,190513,016.6,E,D*28
$GPRMB,A,0.11,L,,N,4741.0622,N,12224.6030,W,0.3,336,0.01,V*42
$PGRME,2.4,M,2.4,M,3.4,M*29
$HCHDG,266.5,0.0,E,,*2E
$YXXDR,A,5.6,D,PTCH,A,3.6,D,ROLL*5B
$PTAK,FFD1,3.6*50
$HCHDG,266.5,0.0,E,,*2E
$GPRMC,020041.4,A,4740.81542,N,12224.43939,W,000.00,287.3,190513,016.6,E,D*2F
$PGRME,2.4,M,2.4,M,3.4,M*29
$HCHDG,266.5,0.0,E,,*2E
$HCHDG,266.5,0.0,E,,*2E
$GPRMC,020041.6,A,4740.81542,N,12224.43939,W,000.00,287.3,190513,016.6,E,D*2D
$PGRME,2.4,M,2.4,M,3.4,M*29
$HCHDG,266.5,0.0,E,,*2E
$HCHDG,266.5,0.0,E,,*2E
$GPRMC,020041.8,A,4740.81542,N,12224.43939,W,000.00,287.3,190513,016.6,E,D*23
$PGRME,2.4,M,2.4,M,3.4,M*29
$YXXDR,A,5.6,D,PTCH,A,3.6,D,ROLL*5B
$HCHDG,266.5,0.0,E,,*2E
$HCHDG,266.6,0.0,E,,*2D
$GPRMC,020042.0,A,4740.81542,N,12224.43939,W,000.00,287.3,190513,016.6,E,D*28
$PGRME,2.4,M,2.4,M,3.4,M*29
$HCHDG,266.6,0.0,E,,*2D
$HCHDG,266.6,0.0,E,,*2D
$GPRMC,020042.2,A,4740.81542,N,12224.43938,W,000.01,287.3,190513,016.6,E,D*2A
$GPRMB,A,0.11,L,,N,4741.0622,N,12224.6030,W,0.3,336,0.01,V*42
$PGRME,2.4,M,2.4,M,3.4,M*29
$HCHDG,266.6,0.0,E,,*2D
$YXXDR,A,5.6,D,PTCH,A,3.6,D,ROLL*5B
$PTAK,FFD1,3.6*50
$HCHDG,266.6,0.0,E,,*2D
$GPRMC,020042.4,A,4740.81542,N,12224.43938,W,000.00,287.3,190513,016.6,E,D*2D
$PGRME,2.4,M,2.4,M,3.4,M*29
$HCHDG,266.6,0.0,E,,*2D
$HCHDG,266.6,0.0,E,,*2D
$GPRMC,020042.6,A,4740.81542,N,12224.43938,W,000.00,287.3,190513,016.6,E,D*2F
$PGRME,2.4,M,2.4,M,3.4,M*29
$HCHDG,266.6,0.0,E,,*2D
$HCHDG,266.6,0.0,E,,*2D
$GPRMC,020042.8,A,4740.81543,N,12224.43938,W,000.00,287.3,190513,016.6,E,D*20
$PGRME,2.4,M,2.4,M,3.4,M*29
$YXXDR,A,5.6,D,PTCH,A,3.6,D,ROLL*5B
$HCHDG,266.6,0.0,E,,*2D
$HCHDG,266.6,0.0,E,,*2D
$GPRMC,020043.0,A,4740.81543,N,12224.43938,W,000.00,287.3,190513,016.6,E,D*29
$PGRME,2.4,M,2.4,M,3.4,M*29
$HCHDG,266.6,0.0,E,,*2D
$HCHDG,266.6,0.0,E,,*2D
$GPRMC,020043.2,A,4740.81543,N,12224.43938,W,000.00,287.3,190513,016.6,E,D*2B
$GPRMB,A,0.11,L,,N,4741.0622,N,12224.6030,W,0.3,336,0.00,V*43
$PTAK,FFP1,HEEL,@*07
$PGRME,2.4,M,2.4,M,3.4,M*29
$HCHDG,266.6,0.0,E,,*2D
$YXXDR,A,5.6,D,PTCH,A,3.6,D,ROLL*5B
$HCHDG,266.6,0.0,E,,*2D
$GPRMC,020043.4,A,4740.81543,N,12224.43938,W,000.00,287.3,190513,016.6,E,D*2D
$PGRME,2.4,M,2.4,M,3.4,M*29
$HCHDG,266.6,0.0,E,,*2D
$HCHDG,266.6,0.0,E,,*2D
$GPRMC,020043.6,A,4740.81543,N,12224.43938,W,000.00,287.3,190513,016.6,E,D*2F
$PGRME,2.4,M,2.4,M,3.4,M*29
$HCHDG,266.6,0.0,E,,*2D
$HCHDG,266.6,0.0,E,,*2D
$GPRMC,020043.8,A,4740.81543,N,12224.43938,W,000.00,287.3,190513,016.6,E,D*21
$PGRME,2.4,M,2.4,M,3.4,M*29
$YXXDR,A,5.6,D,PTCH,A,3.6,D,ROLL*5B
$PTAK,FFD1,3.6*50
$HCHDG,266.6,0.0,E,,*2D
$HCHDG,266.6,0.0,E,,*2D
$GPRMC,020044.0,A,4740.81543,N,12224.43937,W,000.00,287.3,190513,016.6,E,D*21
$PGRME,2.4,M,2.4,M,3.4,M*29
$PGRMT,GPS 18x-5Hz software ver. 3.20,,,,,,,,*30
$HCHDG,266.6,0.0,E,,*2D
$HCHDG,266.6,0.0,E,,*2D
$GPRMC,020044.2,A,4740.81543,N,12224.43937,W,000.00,287.3,190513,016.6,E,D*23
$GPRMB,A,0.11,L,,N,4741.0622,N,12224.6030,W,0.3,336,0.00,V*43
$PGRME,2.4,M,2.4,M,3.4,M*29
$HCHDG,266.6,0.0,E,,*2D
$YXXDR,A,5.6,D,PTCH,A,3.6,D,ROLL*5B
$HCHDG,266.6,0.0,E,,*2D
$GPRMC,020044.4,A,4740.81543,N,12224.43937,W,000.00,287.3,190513,016.6,E,D*25
$PGRME,2.4,M,2.4,M,3.4,M*29
$HCHDG,266.6,0.0,E,,*2D
$HCHDG,266.6,0.0,E,,*2D
$GPRMC,020044.6,A,4740.81543,N,12224.43937,W,000.00,287.3,190513,016.6,E,D*27
$PGRME,2.4,M,2.4,M,3.4,M*29
$HCHDG,266.6,0.0,E,,*2D
$HCHDG,266.6,0.0,E,,*2D
$GPRMC,020044.8,A,4740.81543,N,12224.43937,W,000.00,287.3,190513,016.6,E,D*29
$PGRME,2.4,M,2.4,M,3.4,M*29
$YXXDR,A,5.5,D,PTCH,A,3.7,D,ROLL*59
$HCHDG,266.6,0.0,E,,*2D
$HCHDG,266.6,0.0,E,,*2D
$GPRMC,020045.0,A,4740.81543,N,12224.43937,W,000.00,287.3,190513,016.6,E,D*20
$PGRME,2.4,M,2.4,M,3.4,M*29
$HCHDG,266.6,0.0,E,,*2D
$HCHDG,266.6,0.0,E,,*2D
$GPRMC,020045.2,A,4740.81544,N,12224.43937,W,000.00,287.3,190513,016.6,E,D*25
$PGRME,2.4,M,2.4,M,3.4,M*29
$HCHDG,266.6,0.0,E,,*2D
$YXXDR,A,5.5,D,PTCH,A,3.7,D,ROLL*59
$PTAK,FFD1,3.7*51
$HCHDG,266.6,0.0,E,,*2D
$GPRMC,020045.4,A,4740.81544,N,12224.43937,W,000.00,287.3,190513,016.6,E,D*23
$GPRMB,A,0.11,L,,N,4741.0622,N,12224.6030,W,0.3,336,0.00,V*43
$PGRME,2.4,M,2.4,M,3.4,M*29
$HCHDG,266.6,0.0,E,,*2D
$HCHDG,266.6,0.0,E,,*2D
$GPRMC,020045.6,A,4740.81544,N,12224.43937,W,000.00,287.3,190513,016.6,E,D*21
$PGRME,2.4,M,2.4,M,3.4,M*29
$HCHDG,266.6,0.0,E,,*2D
$HCHDG,266.6,0.0,E,,*2D
$GPRMC,020045.8,A,4740.81544,N,12224.43937,W,000.00,287.3,190513,016.6,E,D*2F
$PGRME,2.4,M,2.4,M,3.4,M*29
$YXXDR,A,5.4,D,PTCH,A,3.8,D,ROLL*57
$HCHDG,266.6,0.0,E,,*2D
$HCHDG,266.6,0.0,E,,*2D
$GPRMC,020046.0,A,4740.81544,N,12224.43937,W,000.00,287.3,190513,016.6,E,D*24
$PGRME,2.4,M,2.4,M,3.4,M*29
$HCHDG,266.6,0.0,E,,*2D
$HCHDG,266.6,0.0,E,,*2D
$GPRMC,020046.2,A,4740.81544,N,12224.43937,W,000.00,287.3,190513,016.6,E,D*26
$PGRME,2.4,M,2.4,M,3.4,M*29
$HCHDG,266.6,0.0,E,,*2D
$YXXDR,A,5.5,D,PTCH,A,3.8,D,ROLL*56
$PTAK,FFD1,3.8*5E
$HCHDG,266.6,0.0,E,,*2D
$GPRMC,020046.4,A,4740.81544,N,12224.43937,W,000.01,287.3,190513,016.6,E,D*21
$GPRMB,A,0.11,L,,N,4741.0622,N,12224.6030,W,0.3,336,0.01,V*42
$PGRME,2.4,M,2.4,M,3.4,M*29
$HCHDG,266.6,0.0,E,,*2D
$HCHDG,266.6,0.0,E,,*2D
$GPRMC,020046.6,A,4740.81544,N,12224.43937,W,000.00,287.3,190513,016.6,E,D*22
$PGRME,2.4,M,2.4,M,3.4,M*29
$HCHDG,266.6,0.0,E,,*2D
$HCHDG,266.6,0.0,E,,*2D
$GPRMC,020046.8,A,4740.81544,N,12224.43937,W,000.01,287.3,190513,016.6,E,D*2D
$PGRME,2.4,M,2.4,M,3.4,M*29
$YXXDR,A,5.6,D,PTCH,A,3.6,D,ROLL*5B
$HCHDG,266.6,0.0,E,,*2D
$HCHDG,266.6,0.0,E,,*2D
$GPRMC,020047.0,A,4740.81544,N,12224.43937,W,000.01,287.3,190513,016.6,E,D*24
$PGRME,2.4,M,2.4,M,3.4,M*29
$HCHDG,266.6,0.0,E,,*2D
$HCHDG,266.6,0.0,E,,*2D
$GPRMC,020047.2,A,4740.81544,N,12224.43937,W,000.00,287.3,190513,016.6,E,D*27
$PTAK,FFP1,HEEL,@*07
$PGRME,2.4,M,2.4,M,3.4,M*29
$HCHDG,266.6,0.0,E,,*2D
$YXXDR,A,5.5,D,PTCH,A,3.7,D,ROLL*59
$PTAK,FFD1,3.7*51
$HCHDG,266.6,0.0,E,,*2D
$GPRMC,020047.4,A,4740.81544,N,12224.43937,W,000.00,287.3,190513,016.6,E,D*21
$GPRMB,A,0.11,L,,N,4741.0622,N,12224.6030,W,0.3,336,0.00,V*43
$PGRME,2.4,M,2.4,M,3.4,M*29
$HCHDG,266.6,0.0,E,,*2D
$HCHDG,266.6,0.0,E,,*2D
$GPRMC,020047.6,A,4740.81544,N,12224.43937,W,000.01,287.3,190513,016.6,E,D*22
$PGRME,2.4,M,2.4,M,3.4,M*29
$HCHDG,266.6,0.0,E,,*2D
$HCHDG,266.6,0.0,E,,*2D
$GPRMC,020047.8,A,4740.81544,N,12224.43937,W,000.00,287.3,190513,016.6,E,D*2D
$PGRME,2.4,M,2.4,M,3.4,M*29
$YXXDR,A,5.6,D,PTCH,A,3.6,D,ROLL*5B
$HCHDG,266.6,0.0,E,,*2D
$HCHDG,266.6,0.0,E,,*2D
$GPRMC,020048.0,A,4740.81544,N,12224.43937,W,000.00,287.3,190513,016.6,E,D*2A
$PGRME,2.4,M,2.4,M,3.4,M*29
$HCHDG,266.6,0.0,E,,*2D
$HCHDG,266.6,0.0,E,,*2D
$GPRMC,020048.2,A,4740.81544,N,12224.43937,W,000.01,287.3,190513,016.6,E,D*29
$PGRME,2.4,M,2.4,M,3.4,M*29
$HCHDG,266.6,0.0,E,,*2D
$YXXDR,A,5.5,D,PTCH,A,3.7,D,ROLL*59
$HCHDG,266.6,0.0,E,,*2D
$GPRMC,020048.4,A,4740.81545,N,12224.43937,W,000.00,287.3,190513,016.6,E,D*2F
$PGRME,2.4,M,2.4,M,3.4,M*29
$HCHDG,266.6,0.0,E,,*2D
$HCHDG,266.6,0.0,E,,*2D
$GPRMC,020048.6,A,4740.81545,N,12224.43937,W,000.01,287.3,190513,016.6,E,D*2C
$GPRMB,A,0.11,L,,N,4741.0622,N,12224.6030,W,0.3,336,0.01,V*42
$PGRME,2.4,M,2.4,M,3.4,M*29
$HCHDG,266.6,0.0,E,,*2D
$HCHDG,266.6,0.0,E,,*2D
$GPRMC,020048.8,A,4740.81545,N,12224.43936,W,000.00,287.3,190513,016.6,E,D*22
$PGRME,2.4,M,2.4,M,3.4,M*29
$YXXDR,A,5.5,D,PTCH,A,3.7,D,ROLL*59
$PTAK,FFD1,3.7*51
$HCHDG,266.6,0.0,E,,*2D
$HCHDG,266.6,0.0,E,,*2D
$GPRMC,020049.0,A,4740.81545,N,12224.43936,W,000.00,287.3,190513,016.6,E,D*2B
$PGRME,2.4,M,2.4,M,3.4,M*29
$HCHDG,266.6,0.0,E,,*2D
$HCHDG,266.6,0.0,E,,*2D
$GPRMC,020049.2,A,4740.81545,N,12224.43936,W,000.00,287.3,190513,016.6,E,D*29
$PGRME,2.4,M,2.4,M,3.4,M*29
$HCHDG,266.6,0.0,E,,*2D
$YXXDR,A,5.5,D,PTCH,A,3.7,D,ROLL*59
$HCHDG,266.6,0.0,E,,*2D
$GPRMC,020049.4,A,4740.81545,N,12224.43936,W,000.01,287.3,190513,016.6,E,D*2E
$PGRME,2.4,M,2.4,M,3.4,M*29
$HCHDG,266.6,0.0,E,,*2D
$HCHDG,266.6,0.0,E,,*2D
$GPRMC,020049.6,A,4740.81545,N,12224.43936,W,000.00,287.3,190513,016.6,E,D*2D
$PGRME,2.4,M,2.4,M,3.4,M*29
$HCHDG,266.6,0.0,E,,*2D
$HCHDG,266.6,0.0,E,,*2D
$GPRMC,020049.8,A,4740.81545,N,12224.43936,W,000.01,287.3,190513,016.6,E,D*22
$GPRMB,A,0.11,L,,N,4741.0622,N,12224.6030,W,0.3,336,0.01,V*42
$PGRME,2.4,M,2.4,M,3.4,M*29
$YXXDR,A,5.5,D,PTCH,A,3.7,D,ROLL*59
$PTAK,FFD1,3.7*51
$HCHDG,266.6,0.0,E,,*2D
$HCHDG,266.6,0.0,E,,*2D
$GPRMC,020050.0,A,4740.81545,N,12224.43936,W,000.00,287.3,190513,016.6,E,D*23
$PGRME,2.4,M,2.4,M,3.4,M*29
$HCHDG,266.6,0.0,E,,*2D
$HCHDG,266.6,0.0,E,,*2D
$GPRMC,020050.2,A,4740.81545,N,12224.43936,W,000.01,287.3,190513,016.6,E,D*20
$PGRME,2.4,M,2.4,M,3.4,M*29
$HCHDG,266.6,0.0,E,,*2D
$YXXDR,A,5.6,D,PTCH,A,3.6,D,ROLL*5B
$HCHDG,266.6,0.0,E,,*2D
$GPRMC,020050.4,A,4740.81545,N,12224.43936,W,000.01,287.3,190513,016.6,E,D*26
$PGRME,2.4,M,2.4,M,3.4,M*29
$HCHDG,266.6,0.0,E,,*2D
$HCHDG,266.6,0.0,E,,*2D
$GPRMC,020050.6,A,4740.81546,N,12224.43936,W,000.00,287.3,190513,016.6,E,D*26
$PGRME,2.4,M,2.4,M,3.4,M*29
$HCHDG,266.6,0.0,E,,*2D
$HCHDG,266.5,0.0,E,,*2E
$GPRMC,020050.8,A,4740.81546,N,12224.43936,W,000.01,287.3,190513,016.6,E,D*29
$PGRME,2.4,M,2.4,M,3.4,M*29
$YXXDR,A,5.5,D,PTCH,A,3.7,D,ROLL*59
$HCHDG,266.5,0.0,E,,*2E
$HCHDG,266.5,0.0,E,,*2E
$GPRMC,020051.0,A,4740.81546,N,12224.43936,W,000.00,287.3,190513,016.6,E,D*21
$GPRMB,A,0.11,L,,N,4741.0622,N,12224.6030,W,0.3,336,0.00,V*43
$PGRME,2.4,M,2.4,M,3.4,M*29
$HCHDG,266.6,0.0,E,,*2D
$PTAK,FFP1,HEEL,@*07
$HCHDG,266.6,0.0,E,,*2D
$GPRMC,020051.2,A,4740.81546,N,12224.43935,W,000.01,287.3,190513,016.6,E,D*21
$PGRME,2.4,M,2.4,M,3.4,M*29
$HCHDG,266.6,0.0,E,,*2D
$YXXDR,A,5.5,D,PTCH,A,3.7,D,ROLL*59
$PTAK,FFD1,3.7*51
$HCHDG,266.6,0.0,E,,*2D
$GPRMC,020051.4,A,4740.81546,N,12224.43935,W,000.01,287.3,190513,016.6,E,D*27
$PGRME,2.4,M,2.4,M,3.4,M*29
$HCHDG,266.6,0.0,E,,*2D
$HCHDG,266.6,0.0,E,,*2D
$GPRMC,020051.6,A,4740.81546,N,12224.43935,W,000.01,287.3,190513,016.6,E,D*25
$PGRME,2.4,M,2.4,M,3.4,M*29
$HCHDG,266.6,0.0,E,,*2D
$HCHDG,266.6,0.0,E,,*2D
$GPRMC,020051.8,A,4740.81546,N,12224.43935,W,000.01,287.3,190513,016.6,E,D*2B
$PGRME,2.4,M,2.4,M,3.4,M*29
$YXXDR,A,5.6,D,PTCH,A,3.6,D,ROLL*5B
$HCHDG,266.6,0.0,E,,*2D
$HCHDG,266.6,0.0,E,,*2D
$GPRMC,020052.0,A,4740.81546,N,12224.43935,W,000.00,287.3,190513,016.6,E,D*21
$GPRMB,A,0.11,L,,N,4741.0622,N,12224.6030,W,0.3,336,0.00,V*43
$PGRME,2.4,M,2.4,M,3.4,M*29
$HCHDG,266.6,0.0,E,,*2D
$HCHDG,266.6,0.0,E,,*2D
$GPRMC,020052.2,A,4740.81546,N,12224.43934,W,000.01,287.3,190513,016.6,E,D*23
$PGRME,2.4,M,2.4,M,3.4,M*29
$HCHDG,266.6,0.0,E,,*2D
$YXXDR,A,5.6,D,PTCH,A,3.6,D,ROLL*5B
$PTAK,FFD1,3.6*50
$HCHDG,266.6,0.0,E,,*2D
$GPRMC,020052.4,A,4740.81546,N,12224.43934,W,000.00,287.3,190513,016.6,E,D*24
$PGRME,2.4,M,2.4,M,3.4,M*29
$HCHDG,266.6,0.0,E,,*2D
$HCHDG,266.6,0.0,E,,*2D
$GPRMC,020052.6,A,4740.81547,N,12224.43934,W,000.00,287.3,190513,016.6,E,D*27
$PGRME,2.4,M,2.4,M,3.4,M*29
$HCHDG,266.6,0.0,E,,*2D
$HCHDG,266.6,0.0,E,,*2D
$GPRMC,020052.8,A,4740.81547,N,12224.43934,W,000.00,287.3,190513,016.6,E,D*29
$PGRME,2.4,M,2.4,M,3.4,M*29
$YXXDR,A,5.5,D,PTCH,A,3.7,D,ROLL*59
$HCHDG,266.6,0.0,E,,*2D
$HCHDG,266.6,0.0,E,,*2D
$GPRMC,020053.0,A,4740.81547,N,12224.43934,W,000.00,287.3,190513,016.6,E,D*20
$GPRMB,A,0.11,L,,N,4741.0622,N,12224.6030,W,0.3,336,0.00,V*43
$PGRME,2.4,M,2.4,M,3.4,M*29
$HCHDG,266.6,0.0,E,,*2D
$HCHDG,266.6,0.0,E,,*2D
$GPRMC,020053.2,A,4740.81547,N,12224.43933,W,000.00,287.3,190513,016.6,E,D*25
$PGRME,2.4,M,2.4,M,3.4,M*29
$HCHDG,266.6,0.0,E,,*2D
$YXXDR,A,5.6,D,PTCH,A,3.6,D,ROLL*5B
$HCHDG,266.6,0.0,E,,*2D
$GPRMC,020053.4,A,4740.81547,N,12224.43933,W,000.00,287.3,190513,016.6,E,D*23
$PGRME,2.4,M,2.4,M,3.4,M*29
$HCHDG,266.6,0.0,E,,*2D
$HCHDG,266.6,0.0,E,,*2D
$GPRMC,020053.6,A,4740.81547,N,12224.43933,W,000.00,287.3,190513,016.6,E,D*21
$PGRME,2.4,M,2.4,M,3.4,M*29
$HCHDG,266.6,0.0,E,,*2D
$HCHDG,266.6,0.0,E,,*2D
$GPRMC,020053.8,A,4740.81547,N,12224.43933,W,000.00,287.3,190513,016.6,E,D*2F
$PGRME,2.4,M,2.4,M,3.4,M*29
$YXXDR,A,5.6,D,PTCH,A,3.6,D,ROLL*5B
$PTAK,FFD1,3.6*50
$HCHDG,266.6,0.0,E,,*2D
$HCHDG,266.6,0.0,E,,*2D
$GPRMC,020054.0,A,4740.81547,N,12224.43933,W,000.00,287.3,190513,016.6,E,D*20
$GPRMB,A,0.11,L,,N,4741.0622,N,12224.6030,W,0.3,336,0.00,V*43
$PGRME,2.4,M,2.4,M,3.4,M*29
$HCHDG,266.6,0.0,E,,*2D
$HCHDG,266.6,0.0,E,,*2D
$GPRMC,020054.2,A,4740.81547,N,12224.43932,W,000.00,287.3,190513,016.6,E,D*23
$PGRME,2.4,M,2.4,M,3.4,M*29
$HCHDG,266.6,0.0,E,,*2D
$YXXDR,A,5.6,D,PTCH,A,3.6,D,ROLL*5B
$HCHDG,266.6,0.0,E,,*2D
$GPRMC,020054.4,A,4740.81547,N,12224.43932,W,000.00,287.3,190513,016.6,E,D*25
$PGRME,2.4,M,2.4,M,3.4,M*29
$HCHDG,266.6,0.0,E,,*2D
$HCHDG,266.6,0.0,E,,*2D
$GPRMC,020054.6,A,4740.81548,N,12224.43932,W,000.00,287.3,190513,016.6,E,D*28
$PGRME,2.4,M,2.4,M,3.4,M*29
$HCHDG,266.6,0.0,E,,*2D
$HCHDG,266.6,0.0,E,,*2D
$GPRMC,020054.8,A,4740.81548,N,12224.43932,W,000.00,287.3,190513,016.6,E,D*26
$PGRME,2.4,M,2.4,M,3.4,M*29
$YXXDR,A,5.5,D,PTCH,A,3.7,D,ROLL*59
$PTAK,FFD1,3.7*51
$HCHDG,266.6,0.0,E,,*2D
$HCHDG,266.6,0.0,E,,*2D
$GPRMC,020055.0,A,4740.81548,N,12224.43932,W,000.00,287.3,190513,016.6,E,D*2F
$PGRME,2.4,M,2.4,M,3.4,M*29
$HCHDG,266.6,0.0,E,,*2D
$HCHDG,266.6,0.0,E,,*2D
$GPRMC,020055.2,A,4740.81548,N,12224.43932,W,000.00,287.3,190513,016.6,E,D*2D
$GPRMB,A,0.11,L,,N,4741.0622,N,12224.6030,W,0.3,336,0.00,V*43
$PGRME,2.4,M,2.4,M,3.4,M*29
$HCHDG,266.6,0.0,E,,*2D
$PTAK,FFP1,HEEL,@*07
$YXXDR,A,5.6,D,PTCH,A,3.6,D,ROLL*5B
$HCHDG,266.6,0.0,E,,*2D
$GPRMC,020055.4,A,4740.81548,N,12224.43931,W,000.00,287.3,190513,016.6,E,D*28
$PGRME,2.4,M,2.4,M,3.4,M*29
$HCHDG,266.6,0.0,E,,*2D
$HCHDG,266.6,0.0,E,,*2D
$GPRMC,020055.6,A,4740.81548,N,12224.43931,W,000.00,287.3,190513,016.6,E,D*2A
$PGRME,2.4,M,2.4,M,3.4,M*29
$HCHDG,266.6,0.0,E,,*2D
$HCHDG,266.6,0.0,E,,*2D
$GPRMC,020055.8,A,4740.81548,N,12224.43931,W,000.00,287.3,190513,016.6,E,D*24
$PGRME,2.4,M,2.4,M,3.4,M*29
$YXXDR,A,5.6,D,PTCH,A,3.6,D,ROLL*5B
$PTAK,FFD1,3.6*50
$HCHDG,266.6,0.0,E,,*2D
$HCHDG,266.6,0.0,E,,*2D
$GPRMC,020056.0,A,4740.81548,N,12224.43931,W,000.00,287.3,190513,016.6,E,D*2F
$PGRME,2.4,M,2.4,M,3.4,M*29
$HCHDG,266.6,0.0,E,,*2D
$HCHDG,266.6,0.0,E,,*2D
$GPRMC,020056.2,A,4740.81548,N,12224.43931,W,000.00,287.3,190513,016.6,E,D*2D
$GPRMB,A,0.11,L,,N,4741.0622,N,12224.6030,W,0.3,336,0.00,V*43
$PGRME,2.4,M,2.4,M,3.4,M*29
$HCHDG,266.6,0.0,E,,*2D
$YXXDR,A,5.6,D,PTCH,A,3.6,D,ROLL*5B
$HCHDG,266.5,0.0,E,,*2E
$GPRMC,020056.4,A,4740.81548,N,12224.43931,W,000.00,287.3,190513,016.6,E,D*2B
$PGRME,2.4,M,2.4,M,3.4,M*29
$HCHDG,266.5,0.0,E,,*2E
$HCHDG,266.5,0.0,E,,*2E
$GPRMC,020056.6,A,4740.81548,N,12224.43931,W,000.01,287.3,190513,016.6,E,D*28
$PGRME,2.4,M,2.4,M,3.4,M*29
$HCHDG,266.5,0.0,E,,*2E
$HCHDG,266.5,0.0,E,,*2E
$GPRMC,020056.8,A,4740.81549,N,12224.43931,W,000.00,287.3,190513,016.6,E,D*26
$PGRME,2.4,M,2.4,M,3.4,M*29
$YXXDR,A,5.6,D,PTCH,A,3.6,D,ROLL*5B
$PTAK,FFD1,3.6*50
$HCHDG,266.5,0.0,E,,*2E
$HCHDG,266.5,0.0,E,,*2E
$GPRMC,020057.0,A,4740.81549,N,12224.43931,W,000.00,287.3,190513,016.6,E,D*2F
$PGRME,2.4,M,2.4,M,3.4,M*29
$HCHDG,266.5,0.0,E,,*2E
$HCHDG,266.5,0.0,E,,*2E
$GPRMC,020057.2,A,4740.81549,N,12224.43931,W,000.00,287.3,190513,016.6,E,D*2D
$GPRMB,A,0.11,L,,N,4741.0622,N,12224.6030,W,0.3,336,0.00,V*43
$PGRME,2.4,M,2.4,M,3.4,M*29
$HCHDG,266.5,0.0,E,,*2E
$YXXDR,A,5.5,D,PTCH,A,3.7,D,ROLL*59
$HCHDG,266.5,0.0,E,,*2E
$GPRMC,020057.4,A,4740.81549,N,12224.43931,W,000.00,287.3,190513,016.6,E,D*2B
$PGRME,2.4,M,2.4,M,3.4,M*29
$HCHDG,266.5,0.0,E,,*2E
$HCHDG,266.5,0.0,E,,*2E
$GPRMC,020057.6,A,4740.81549,N,12224.43931,W,000.00,287.3,190513,016.6,E,D*29
$PGRME,2.4,M,2.4,M,3.4,M*29
$HCHDG,266.5,0.0,E,,*2E
$HCHDG,266.5,0.0,E,,*2E
$GPRMC,020057.8,A,4740.81549,N,12224.43931,W,000.00,287.3,190513,016.6,E,D*27
$PGRME,2.4,M,2.4,M,3.4,M*29
$YXXDR,A,5.6,D,PTCH,A,3.6,D,ROLL*5B
$HCHDG,266.5,0.0,E,,*2E
$HCHDG,266.5,0.0,E,,*2E
$GPRMC,020058.0,A,4740.81549,N,12224.43931,W,000.00,287.3,190513,016.6,E,D*20
$PGRME,2.4,M,2.4,M,3.4,M*29
$HCHDG,266.5,0.0,E,,*2E
$HCHDG,266.5,0.0,E,,*2E
$GPRMC,020058.2,A,4740.81549,N,12224.43931,W,000.00,287.3,190513,016.6,E,D*22
$PGRME,2.4,M,2.4,M,3.4,M*29
$HCHDG,266.5,0.0,E,,*2E
$YXXDR,A,5.6,D,PTCH,A,3.6,D,ROLL*5B
$PTAK,FFD1,3.6*50
$HCHDG,266.5,0.0,E,,*2E
$GPRMC,020058.4,A,4740.81549,N,12224.43931,W,000.00,287.3,190513,016.6,E,D*24
$GPRMB,A,0.11,L,,N,4741.0622,N,12224.6030,W,0.3,336,0.00,V*43
$PGRME,2.4,M,2.4,M,3.4,M*29
$HCHDG,266.5,0.0,E,,*2E
$HCHDG,266.5,0.0,E,,*2E
$GPRMC,020058.6,A,4740.81549,N,12224.43930,W,000.00,287.3,190513,016.6,E,D*27
$PGRME,2.4,M,2.4,M,3.4,M*29
$HCHDG,266.5,0.0,E,,*2E
$HCHDG,266.5,0.0,E,,*2E
$GPRMC,020058.8,A,4740.81549,N,12224.43930,W,000.00,287.3,190513,016.6,E,D*29
$PGRME,2.4,M,2.4,M,3.4,M*29
$YXXDR,A,5.5,D,PTCH,A,3.7,D,ROLL*59
$HCHDG,266.5,0.0,E,,*2E
$HCHDG,266.5,0.0,E,,*2E
$GPRMC,020059.0,A,4740.81549,N,12224.43930,W,000.01,287.3,190513,016.6,E,D*21
$PGRME,2.4,M,2.4,M,3.4,M*29
$HCHDG,266.5,0.0,E,,*2E
$HCHDG,266.5,0.0,E,,*2E
$GPRMC,020059.2,A,4740.81549,N,12224.43930,W,000.00,287.3,190513,016.6,E,D*22
$PGRME,2.4,M,2.4,M,3.4,M*29
$HCHDG,266.5,0.0,E,,*2E
$YXXDR,A,5.5,D,PTCH,A,3.7,D,ROLL*59
$PTAK,FFD1,3.7*51
$HCHDG,266.5,0.0,E,,*2E
$GPRMC,020059.4,A,4740.81549,N,12224.43930,W,000.00,287.3,190513,016.6,E,D*24
$GPRMB,A,0.11,L,,N,4741.0622,N,12224.6030,W,0.3,336,0.00,V*43
$PTAK,FFP1,HEEL,@*07
$PGRME,2.4,M,2.4,M,3.4,M*29
$HCHDG,266.5,0.0,E,,*2E
$HCHDG,266.5,0.0,E,,*2E
$GPRMC,020059.6,A,4740.81549,N,12224.43930,W,000.00,287.3,190513,016.6,E,D*26
$PGRME,2.4,M,2.4,M,3.4,M*29
$HCHDG,266.5,0.0,E,,*2E
$HCHDG,266.5,0.0,E,,*2E
$GPRMC,020059.8,A,4740.81549,N,12224.43930,W,000.00,287.3,190513,016.6,E,D*28
$PGRME,2.4,M,2.4,M,3.4,M*29
$YXXDR,A,5.6,D,PTCH,A,3.6,D,ROLL*5B
$HCHDG,266.5,0.0,E,,*2E
$HCHDG,266.5,0.0,E,,*2E
$GPRMC,020100.0,A,4740.81549,N,12224.43930,W,000.00,287.3,190513,016.6,E,D*2D
$PGRME,2.4,M,2.4,M,3.4,M*29
$HCHDG,266.5,0.0,E,,*2E
$HCHDG,266.5,0.0,E,,*2E
$GPRMC,020100.2,A,4740.81549,N,12224.43930,W,000.00,287.3,190513,016.6,E,D*2F
$PGRME,2.4,M,2.4,M,3.4,M*29
$HCHDG,266.5,0.0,E,,*2E
$YXXDR,A,5.6,D,PTCH,A,3.6,D,ROLL*5B
$HCHDG,266.5,0.0,E,,*2E
$GPRMC,020100.4,A,4740.81550,N,12224.43930,W,000.00,287.3,190513,016.6,E,D*21
$PGRME,2.4,M,2.4,M,3.4,M*29
$HCHDG,266.5,0.0,E,,*2E
$HCHDG,266.5,0.0,E,,*2E
$GPRMC,020100.6,A,4740.81550,N,12224.43930,W,000.00,287.3,190513,016.6,E,D*23
$GPRMB,A,0.11,L,,N,4741.0622,N,12224.6030,W,0.3,336,0.00,V*43
$PGRME,2.4,M,2.4,M,3.4,M*29
$HCHDG,266.5,0.0,E,,*2E
$HCHDG,266.5,0.0,E,,*2E
$GPRMC,020100.8,A,4740.81550,N,12224.43930,W,000.00,287.3,190513,016.6,E,D*2D
$PGRME,2.4,M,2.4,M,3.4,M*29
$YXXDR,A,5.5,D,PTCH,A,3.7,D,ROLL*59
$PTAK,FFD1,3.7*51
$HCHDG,266.5,0.0,E,,*2E
$HCHDG,266.5,0.0,E,,*2E
$GPRMC,020101.0,A,4740.81550,N,12224.43930,W,000.00,287.3,190513,016.6,E,D*24
$PGRME,2.4,M,2.4,M,3.4,M*29
$HCHDG,266.5,0.0,E,,*2E
$HCHDG,266.5,0.0,E,,*2E
$GPRMC,020101.2,A,4740.81550,N,12224.43930,W,000.00,287.3,190513,016.6,E,D*26
$PGRME,2.4,M,2.4,M,3.4,M*29
$HCHDG,266.6,0.0,E,,*2D
$YXXDR,A,5.5,D,PTCH,A,3.7,D,ROLL*59
$HCHDG,266.6,0.0,E,,*2D
$GPRMC,020101.4,A,4740.81550,N,12224.43930,W,000.00,287.3,190513,016.6,E,D*20
$PGRME,2.4,M,2.4,M,3.4,M*29
$HCHDG,266.6,0.0,E,,*2D
$HCHDG,266.6,0.0,E,,*2D
$GPRMC,020101.6,A,4740.81550,N,12224.43930,W,000.00,287.3,190513,016.6,E,D*22
$PGRME,2.4,M,2.4,M,3.4,M*29
$HCHDG,266.6,0.0,E,,*2D
$HCHDG,266.6,0.0,E,,*2D
$GPRMC,020101.8,A,4740.81550,N,12224.43930,W,000.00,287.3,190513,016.6,E,D*2C
$GPRMB,A,0.11,L,,N,4741.0622,N,12224.6030,W,0.3,336,0.00,V*43
$PGRME,2.4,M,2.4,M,3.4,M*29
$YXXDR,A,5.5,D,PTCH,A,3.7,D,ROLL*59
$PTAK,FFD1,3.7*51
$HCHDG,266.6,0.0,E,,*2D
$HCHDG,266.6,0.0,E,,*2D
$GPRMC,020102.0,A,4740.81550,N,12224.43930,W,000.01,287.3,190513,016.6,E,D*26
$PGRME,2.4,M,2.4,M,3.4,M*29
$HCHDG,266.6,0.0,E,,*2D
$HCHDG,266.6,0.0,E,,*2D
$GPRMC,020102.2,A,4740.81550,N,12224.43930,W,000.00,287.3,190513,016.6,E,D*25
$PGRME,2.4,M,2.4,M,3.4,M*29
$HCHDG,266.6,0.0,E,,*2D
$YXXDR,A,5.6,D,PTCH,A,3.6,D,ROLL*5B
$HCHDG,266.6,0.0,E,,*2D
$GPRMC,020102.4,A,4740.81550,N,12224.43930,W,000.00,287.3,190513,016.6,E,D*23
$PGRME,2.4,M,2.4,M,3.4,M*29
$HCHDG,266.6,0.0,E,,*2D
$HCHDG,266.6,0.0,E,,*2D
$GPRMC,020102.6,A,4740.81550,N,12224.43929,W,000.00,287.3,190513,016.6,E,D*29
$PGRME,2.4,M,2.4,M,3.4,M*29
$HCHDG,266.6,0.0,E,,*2D
$HCHDG,266.6,0.0,E,,*2D
$GPRMC,020102.8,A,4740.81550,N,12224.43929,W,000.00,287.3,190513,016.6,E,D*27
$GPRMB,A,0.11,L,,N,4741.0622,N,12224.6030,W,0.3,336,0.00,V*43
$PGRME,2.4,M,2.4,M,3.4,M*29
$YXXDR,A,5.5,D,PTCH,A,3.7,D,ROLL*59
$HCHDG,266.6,0.0,E,,*2D
$HCHDG,266.6,0.0,E,,*2D
$GPRMC,020103.0,A,4740.81550,N,12224.43929,W,000.00,287.3,190513,016.6,E,D*2E
$PGRME,2.4,M,2.4,M,3.4,M*29
$HCHDG,266.6,0.0,E,,*2D
$HCHDG,266.6,0.0,E,,*2D
$GPRMC,020103.2,A,4740.81550,N,12224.43929,W,000.00,287.3,190513,016.6,E,D*2C
$PGRME,2.4,M,2.4,M,3.4,M*29
$HCHDG,266.6,0.0,E,,*2D
$YXXDR,A,5.6,D,PTCH,A,3.6,D,ROLL*5B
$PTAK,FFD1,3.6*50
$HCHDG,266.6,0.0,E,,*2D
$GPRMC,020103.4,A,4740.81550,N,12224.43929,W,000.00,287.3,190513,016.6,E,D*2A
$PGRME,2.4,M,2.4,M,3.4,M*29
$HCHDG,266.6,0.0,E,,*2D
$PTAK,FFP1,HEEL,@*07
$HCHDG,266.6,0.0,E,,*2D
$GPRMC,020103.6,A,4740.81550,N,12224.43929,W,000.00,287.3,190513,016.6,E,D*28
$PGRME,2.4,M,2.4,M,3.4,M*29
$HCHDG,266.6,0.0,E,,*2D
$HCHDG,266.6,0.0,E,,*2D
