$GPRMC,210000.8,A,4741.20096,N,12224.26304,W,000.01,129.2,050513,016.6,E,D*2C
$PGRME,2.4,M,4.6,M,5.2,M*2D
$HCHDG,267.4,0.0,E,,*2E
$HCHDG,267.5,0.0,E,,*2F
$IIRMC,210000,A,4741.200,N,12224.263,W,00.0,129,050513,16,E,A*16
$GPRMC,210001.0,A,4741.20096,N,12224.26304,W,000.01,129.2,050513,016.6,E,D*25
$PGRME,2.4,M,4.6,M,5.2,M*2D
$IIVHW,,,,,00.0,N,,*19
$HCHDG,267.5,0.0,E,,*2F
$IIVLW,06236,N,000.0,N*52
$IIDPT,007.1,-1.0,*46
$HCHDG,267.2,0.0,E,,*28
$PTAK,FFP1,HEEL,@*07
$GPRMC,210001.2,A,4741.20096,N,12224.26304,W,000.00,129.2,050513,016.6,E,D*26
$PGRME,2.4,M,4.6,M,5.2,M*2D
$IIGLL,4741.200,N,12224.263,W,210000,A,A*45
$YXXDR,A,4.4,D,PTCH,A,-2.0,D,ROLL*72
$IIMTW,+09.0,C*31
$HCHDG,267.2,0.0,E,,*28
$HCHDG,267.3,0.0,E,,*29
$IIRMB,A,0.00,L,,N   ,,,,,000.3,255,,V,A*28
$GPRMC,210001.4,A,4741.20096,N,12224.26304,W,000.00,129.2,050513,016.6,E,D*20
$GPRMB,A,0.00,L,N,N,4741.0622,N,12224.6030,W,0.3,255,-0.00,V*24
$PGRME,2.4,M,4.6,M,5.2,M*2D
$HCHDG,267.3,0.0,E,,*29
$HCHDG,267.5,0.0,E,,*2F
$GPRMC,210001.6,A,4741.20096,N,12224.26304,W,000.01,129.2,050513,016.6,E,D*23
$PGRME,2.4,M,4.6,M,5.2,M*2D
$HCHDG,267.6,0.0,E,,*2C
$YXXDR,A,4.7,D,PTCH,A,-2.2,D,ROLL*73
$PTAK,FFD1,2.2*55
$HCHDG,267.6,0.0,E,,*2C
$GPRMC,210001.8,A,4741.20096,N,12224.26304,W,000.01,129.2,050513,016.6,E,D*2D
$PGRME,2.4,M,4.6,M,5.2,M*2D
$HCHDG,267.7,0.0,E,,*2D
$HCHDG,267.6,0.0,E,,*2C
$IIRMC,210000,A,4741.200,N,12224.263,W,00.0,129,050513,16,E,A*16
$GPRMC,210002.0,A,4741.20097,N,12224.26304,W,000.01,129.2,050513,016.6,E,D*27
$PGRME,2.4,M,4.6,M,5.2,M*2D
$IIVHW,,,,,00.0,N,,*19
$HCHDG,267.7,0.0,E,,*2D
$IIVLW,06236,N,000.0,N*52
$IIDPT,007.1,-1.0,*46
$HCHDG,267.7,0.0,E,,*2D
$GPRMC,210002.2,A,4741.20097,N,12224.26304,W,000.00,129.2,050513,016.6,E,D*24
$PGRME,2.4,M,4.6,M,5.2,M*2D
$IIGLL,4741.200,N,12224.263,W,210000,A,A*45
$YXXDR,A,4.3,D,PTCH,A,-1.8,D,ROLL*7E
$IIMTW,+09.0,C*31
$HCHDG,267.4,0.0,E,,*2E
$HCHDG,267.5,0.0,E,,*2F
$IIRMB,A,0.00,L,,N   ,,,,,000.3,255,,V,A*28
$GPRMC,210002.4,A,4741.20097,N,12224.26304,W,000.01,129.2,050513,016.6,E,D*23
$GPRMB,A,0.00,L,N,N,4741.0622,N,12224.6030,W,0.3,255,-0.01,V*25
$PGRME,2.4,M,4.6,M,5.2,M*2D
$HCHDG,267.6,0.0,E,,*2C
$HCHDG,267.7,0.0,E,,*2D
$GPRMC,210002.6,A,4741.20097,N,12224.26304,W,000.01,129.2,050513,016.6,E,D*21
$PGRME,2.4,M,4.6,M,5.2,M*2D
$HCHDG,267.7,0.0,E,,*2D
$YXXDR,A,4.4,D,PTCH,A,-2.0,D,ROLL*72
$HCHDG,267.6,0.0,E,,*2C
$GPRMC,210002.8,A,4741.20097,N,12224.26304,W,000.00,129.2,050513,016.6,E,D*2E
$PGRME,2.4,M,4.6,M,5.2,M*2D
$HCHDG,267.6,0.0,E,,*2C
$HCHDG,267.7,0.0,E,,*2D
$IIRMC,210000,A,4741.200,N,12224.263,W,00.0,129,050513,16,E,A*16
$GPRMC,210003.0,A,4741.20097,N,12224.26304,W,000.00,129.2,050513,016.6,E,D*27
$PGRME,2.4,M,4.6,M,5.2,M*2D
$IIVHW,,,,,00.0,N,,*19
$HCHDG,267.7,0.0,E,,*2D
$IIVLW,06236,N,000.0,N*52
$IIDPT,007.1,-1.0,*46
$HCHDG,267.7,0.0,E,,*2D
$GPRMC,210003.2,A,4741.20097,N,12224.26304,W,000.00,129.2,050513,016.6,E,D*25
$PGRME,2.4,M,4.6,M,5.2,M*2D
$IIGLL,4741.200,N,12224.263,W,210000,A,A*45
$YXXDR,A,4.5,D,PTCH,A,-2.2,D,ROLL*71
$PTAK,FFD1,2.2*55
$IIMTW,+09.0,C*31
$HCHDG,267.8,0.0,E,,*22
$HCHDG,267.8,0.0,E,,*22
$IIRMB,A,0.00,L,,N   ,,,,,000.3,255,,V,A*28
$GPRMC,210003.4,A,4741.20097,N,12224.26304,W,000.00,129.2,050513,016.6,E,D*23
$PGRME,2.4,M,4.6,M,5.2,M*2D
$HCHDG,267.8,0.0,E,,*22
$HCHDG,267.8,0.0,E,,*22
$GPRMC,210003.6,A,4741.20097,N,12224.26304,W,000.01,129.2,050513,016.6,E,D*20
$GPRMB,A,0.00,L,N,N,4741.0622,N,12224.6030,W,0.3,255,-0.01,V*25
$PGRME,2.4,M,4.6,M,5.2,M*2D
$HCHDG,267.8,0.0,E,,*22
$YXXDR,A,4.4,D,PTCH,A,-2.2,D,ROLL*70
$HCHDG,267.9,0.0,E,,*23
$GPRMC,210003.8,A,4741.20097,N,12224.26304,W,000.01,129.2,050513,016.6,E,D*2E
$PGRME,2.4,M,4.6,M,5.3,M*2C
$HCHDG,268.1,0.0,E,,*24
$HCHDG,268.1,0.0,E,,*24
$IIRMC,210000,A,4741.200,N,12224.263,W,00.0,129,050513,16,E,A*16
$GPRMC,210004.0,A,4741.20097,N,12224.26304,W,000.00,129.2,050513,016.6,E,D*20
$PGRME,2.4,M,4.7,M,5.3,M*2D
$IIVHW,,,,,00.0,N,,*19
$HCHDG,268.1,0.0,E,,*24
$IIVLW,06236,N,000.0,N*52
$IIDPT,007.1,-1.0,*46
$HCHDG,268.1,0.0,E,,*24
$GPRMC,210004.2,A,4741.20097,N,12224.26304,W,000.00,129.2,050513,016.6,E,D*22
$PGRME,2.4,M,4.7,M,5.3,M*2D
$IIGLL,4741.200,N,12224.263,W,210000,A,A*45
$YXXDR,A,4.7,D,PTCH,A,-2.4,D,ROLL*75
$PTAK,FFD1,2.4*53
$IIMTW,+09.0,C*31
$HCHDG,268.2,0.0,E,,*27
$HCHDG,268.3,0.0,E,,*26
$IIRMB,A,0.00,L,,N   ,,,,,000.3,255,,V,A*28
$GPRMC,210004.4,A,4741.20097,N,12224.26304,W,000.00,129.2,050513,016.6,E,D*24
$PGRME,2.4,M,4.7,M,5.3,M*2D
$HCHDG,268.3,0.0,E,,*26
$HCHDG,268.4,0.0,E,,*21
$GPRMC,210004.6,A,4741.20097,N,12224.26304,W,000.00,129.2,050513,016.6,E,D*26
$GPRMB,A,0.00,L,N,N,4741.0622,N,12224.6030,W,0.3,255,-0.00,V*24
$PGRME,2.5,M,4.6,M,5.3,M*2D
$HCHDG,268.5,0.0,E,,*20
$YXXDR,A,4.6,D,PTCH,A,-2.5,D,ROLL*75
$HCHDG,268.5,0.0,E,,*20
$GPRMC,210004.8,A,4741.20097,N,12224.26304,W,000.01,129.2,050513,016.6,E,D*29
$PGRME,2.5,M,4.6,M,5.3,M*2D
$HCHDG,268.3,0.0,E,,*26
$HCHDG,268.4,0.0,E,,*21
$IIRMC,210000,A,4741.200,N,12224.263,W,00.0,129,050513,16,E,A*16
$GPRMC,210005.0,A,4741.20097,N,12224.26304,W,000.01,129.2,050513,016.6,E,D*20
$PGRME,2.5,M,4.6,M,5.2,M*2C
$IIVHW,,,,,00.0,N,,*19
$HCHDG,268.4,0.0,E,,*21
$IIVLW,06236,N,000.0,N*52
$IIDPT,007.1,-1.0,*46
$HCHDG,268.4,0.0,E,,*21
$PTAK,FFP1,HEEL,@*07
$GPRMC,210005.2,A,4741.20098,N,12224.26304,W,000.01,129.2,050513,016.6,E,D*2D
$PGRME,2.5,M,4.6,M,5.2,M*2C
$IIGLL,4741.200,N,12224.263,W,210000,A,A*45
$YXXDR,A,4.5,D,PTCH,A,-2.2,D,ROLL*71
$IIMTW,+09.0,C*31
$HCHDG,268.4,0.0,E,,*21
$HCHDG,268.3,0.0,E,,*26
$IIRMB,A,0.00,L,,N   ,,,,,000.3,255,,V,A*28
$GPRMC,210005.4,A,4741.20098,N,12224.26304,W,000.01,129.2,050513,016.6,E,D*2B
$PGRME,2.5,M,4.6,M,5.2,M*2C
$HCHDG,268.2,0.0,E,,*27
$HCHDG,268.1,0.0,E,,*24
$GPRMC,210005.6,A,4741.20098,N,12224.26304,W,000.00,129.2,050513,016.6,E,D*28
$GPRMB,A,0.00,L,N,N,4741.0622,N,12224.6030,W,0.3,255,-0.00,V*24
$PGRME,2.5,M,4.6,M,5.2,M*2C
$HCHDG,268.0,0.0,E,,*25
$YXXDR,A,4.5,D,PTCH,A,-2.2,D,ROLL*71
$PTAK,FFD1,2.2*55
$HCHDG,267.9,0.0,E,,*23
$GPRMC,210005.8,A,4741.20098,N,12224.26304,W,000.00,129.2,050513,016.6,E,D*26
$PGRME,2.5,M,4.6,M,5.2,M*2C
$HCHDG,267.9,0.0,E,,*23
$HCHDG,267.9,0.0,E,,*23
$IIRMC,210000,A,4741.200,N,12224.263,W,00.0,129,050513,16,E,A*16
$GPRMC,210006.0,A,4741.20098,N,12224.26304,W,000.01,129.2,050513,016.6,E,D*2C
$PGRME,2.5,M,4.6,M,5.2,M*2C
$IIVHW,,,,,00.0,N,,*19
$HCHDG,267.8,0.0,E,,*22
$IIVLW,06236,N,000.0,N*52
$IIDPT,007.1,-1.0,*46
$HCHDG,267.7,0.0,E,,*2D
$GPRMC,210006.2,A,4741.20098,N,12224.26304,W,000.00,129.2,050513,016.6,E,D*2F
$PGRME,2.5,M,4.6,M,5.2,M*2C
$IIGLL,4741.200,N,12224.263,W,210000,A,A*45
$YXXDR,A,4.6,D,PTCH,A,-1.3,D,ROLL*70
$IIMTW,+09.0,C*31
$HCHDG,267.7,0.0,E,,*2D
$HCHDG,267.6,0.0,E,,*2C
$IIRMB,A,0.00,L,,N   ,,,,,000.3,255,,V,A*28
$GPRMC,210006.4,A,4741.20098,N,12224.26305,W,000.01,129.2,050513,016.6,E,D*29
$PGRME,2.5,M,4.6,M,5.2,M*2C
$HCHDG,267.6,0.0,E,,*2C
$HCHDG,267.7,0.0,E,,*2D
$GPRMC,210006.6,A,4741.20098,N,12224.26305,W,000.00,129.2,050513,016.6,E,D*2A
$PGRME,2.5,M,4.6,M,5.2,M*2C
$HCHDG,267.7,0.0,E,,*2D
$YXXDR,A,4.4,D,PTCH,A,-1.4,D,ROLL*75
$HCHDG,267.7,0.0,E,,*2D
$GPRMC,210006.8,A,4741.20098,N,12224.26305,W,000.01,129.2,050513,016.6,E,D*25
$GPRMB,A,0.00,L,N,N,4741.0622,N,12224.6030,W,0.3,255,-0.01,V*25
$PGRME,2.5,M,4.6,M,5.2,M*2C
$HCHDG,267.6,0.0,E,,*2C
$HCHDG,267.6,0.0,E,,*2C
$IIRMC,210000,A,4741.200,N,12224.263,W,00.0,129,050513,16,E,A*16
$GPRMC,210007.0,A,4741.20098,N,12224.26305,W,000.00,129.2,050513,016.6,E,D*2D
$PGRME,2.5,M,4.6,M,5.2,M*2C
$IIVHW,,,,,00.0,N,,*19
$HCHDG,267.6,0.0,E,,*2C
$IIVLW,06236,N,000.0,N*52
$IIDPT,007.1,-1.0,*46
$HCHDG,267.6,0.0,E,,*2C
$GPRMC,210007.2,A,4741.20098,N,12224.26305,W,000.01,129.2,050513,016.6,E,D*2E
$PGRME,2.5,M,4.5,M,5.2,M*2F
$IIGLL,4741.200,N,12224.263,W,210000,A,A*45
$YXXDR,A,4.3,D,PTCH,A,-1.8,D,ROLL*7E
$PTAK,FFD1,1.8*5C
$IIMTW,+09.0,C*31
$HCHDG,267.5,0.0,E,,*2F
$HCHDG,267.6,0.0,E,,*2C
$IIRMB,A,0.00,L,,N   ,,,,,000.3,255,,V,A*28
$GPRMC,210007.4,A,4741.20098,N,12224.26304,W,000.01,129.2,050513,016.6,E,D*29
$PGRME,2.5,M,4.5,M,5.2,M*2F
$HCHDG,267.5,0.0,E,,*2F
$HCHDG,267.5,0.0,E,,*2F
$GPRMC,210007.6,A,4741.20098,N,12224.26304,W,000.00,129.2,050513,016.6,E,D*2A
$PGRME,2.5,M,4.5,M,5.2,M*2F
$HCHDG,267.5,0.0,E,,*2F
$YXXDR,A,4.4,D,PTCH,A,-2.0,D,ROLL*72
$HCHDG,267.4,0.0,E,,*2E
$GPRMC,210007.8,A,4741.20098,N,12224.26304,W,000.00,129.2,050513,016.6,E,D*24
$GPRMB,A,0.00,L,N,N,4741.0622,N,12224.6030,W,0.3,255,-0.00,V*24
$PGRME,2.5,M,4.5,M,5.2,M*2F
$HCHDG,267.4,0.0,E,,*2E
$HCHDG,267.4,0.0,E,,*2E
$IIRMC,210000,A,4741.200,N,12224.263,W,00.0,129,050513,16,E,A*16
$GPRMC,210008.0,A,4741.20098,N,12224.26304,W,000.01,129.2,050513,016.6,E,D*22
$PGRME,2.5,M,4.5,M,5.1,M*2C
$IIVHW,,,,,00.0,N,,*19
$HCHDG,267.4,0.0,E,,*2E
$IIVLW,06236,N,000.0,N*52
$IIDPT,007.1,-1.0,*46
$HCHDG,267.3,0.0,E,,*29
$GPRMC,210008.2,A,4741.20098,N,12224.26305,W,000.00,129.2,050513,016.6,E,D*20
$PGRME,2.5,M,4.5,M,5.1,M*2C
$IIGLL,4741.200,N,12224.263,W,210000,A,A*45
$YXXDR,A,4.5,D,PTCH,A,-1.7,D,ROLL*77
$PTAK,FFD1,1.7*53
$IIMTW,+09.0,C*31
$HCHDG,267.2,0.0,E,,*28
$HCHDG,267.1,0.0,E,,*2B
$IIRMB,A,0.00,L,,N   ,,,,,000.3,255,,V,A*28
$GPRMC,210008.4,A,4741.20098,N,12224.26305,W,000.01,129.2,050513,016.6,E,D*27
$PGRME,2.5,M,4.5,M,5.1,M*2C
$HCHDG,267.0,0.0,E,,*2A
$HCHDG,266.9,0.0,E,,*22
$GPRMC,210008.6,A,4741.20098,N,12224.26305,W,000.00,129.2,050513,016.6,E,D*24
$PGRME,2.5,M,4.5,M,5.1,M*2C
$HCHDG,266.9,0.0,E,,*22
$YXXDR,A,4.5,D,PTCH,A,-1.7,D,ROLL*77
$HCHDG,266.7,0.0,E,,*2C
$GPRMC,210008.8,A,4741.20098,N,12224.26305,W,000.01,129.2,050513,016.6,E,D*2B
$GPRMB,A,0.00,L,N,N,4741.0622,N,12224.6030,W,0.3,255,-0.01,V*25
$PGRME,2.5,M,4.5,M,5.1,M*2C
$HCHDG,266.8,0.0,E,,*23
$HCHDG,266.6,0.0,E,,*2D
$IIRMC,210000,A,4741.200,N,12224.263,W,00.0,129,050513,16,E,A*16
$GPRMC,210009.0,A,4741.20098,N,12224.26305,W,000.01,129.2,050513,016.6,E,D*22
$PGRME,2.5,M,4.5,M,5.1,M*2C
$IIVHW,,,,,00.0,N,,*19
$HCHDG,266.6,0.0,E,,*2D
$IIVLW,06236,N,000.0,N*52
$IIDPT,007.1,-1.0,*46
$HCHDG,266.4,0.0,E,,*2F
$PTAK,FFP1,HEEL,@*07
$GPRMC,210009.2,A,4741.20099,N,12224.26305,W,000.00,129.2,050513,016.6,E,D*20
$PGRME,2.5,M,4.4,M,5.1,M*2D
$IIGLL,4741.200,N,12224.263,W,210000,A,A*45
$YXXDR,A,4.6,D,PTCH,A,-2.0,D,ROLL*70
$PTAK,FFD1,2.0*57
$IIMTW,+09.0,C*31
$HCHDG,266.3,0.0,E,,*28
$HCHDG,266.5,0.0,E,,*2E
$IIRMB,A,0.00,L,,N   ,,,,,000.3,255,,V,A*28
$GPRMC,210009.4,A,4741.20099,N,12224.26306,W,000.00,129.2,050513,016.6,E,D*25
$PGRME,2.5,M,4.4,M,5.0,M*2C
$HCHDG,266.5,0.0,E,,*2E
$HCHDG,266.4,0.0,E,,*2F
$GPRMC,210009.6,A,4741.20099,N,12224.26306,W,000.00,129.2,050513,016.6,E,D*27
$PGRME,2.5,M,4.4,M,5.0,M*2C
$HCHDG,266.3,0.0,E,,*28
$YXXDR,A,4.8,D,PTCH,A,-1.8,D,ROLL*75
$HCHDG,266.4,0.0,E,,*2F
$GPRMC,210009.8,A,4741.20099,N,12224.26306,W,000.00,129.2,050513,016.6,E,D*29
$PGRME,2.5,M,4.3,M,5.0,M*2B
$HCHDG,266.4,0.0,E,,*2F
$HCHDG,266.4,0.0,E,,*2F
$IIRMC,210000,A,4741.200,N,12224.263,W,00.0,129,050513,16,E,A*16
$GPRMC,210010.0,A,4741.20099,N,12224.26306,W,000.00,129.2,050513,016.6,E,D*29
$GPRMB,A,0.00,L,N,N,4741.0622,N,12224.6030,W,0.3,255,-0.00,V*24
$PGRME,2.5,M,4.3,M,4.9,M*23
$IIVHW,,,,,00.0,N,,*19
$HCHDG,266.3,0.0,E,,*28
$IIVLW,06236,N,000.0,N*52
$IIDPT,007.1,-1.0,*46
$HCHDG,266.4,0.0,E,,*2F
$GPRMC,210010.2,A,4741.20099,N,12224.26306,W,000.01,129.2,050513,016.6,E,D*2A
$PGRME,2.5,M,4.3,M,4.9,M*23
$IIGLL,4741.200,N,12224.263,W,210000,A,A*45
$YXXDR,A,4.7,D,PTCH,A,-2.3,D,ROLL*72
$PTAK,FFD1,2.3*54
$IIMTW,+09.0,C*31
$HCHDG,266.4,0.0,E,,*2F
$HCHDG,266.4,0.0,E,,*2F
$IIRMB,A,0.00,L,,N   ,,,,,000.3,255,,V,A*28
$GPRMC,210010.4,A,4741.20099,N,12224.26306,W,000.01,129.2,050513,016.6,E,D*2C
$PGRME,2.5,M,4.2,M,4.9,M*22
$HCHDG,266.4,0.0,E,,*2F
$HCHDG,266.5,0.0,E,,*2E
$GPRMC,210010.6,A,4741.20099,N,12224.26306,W,000.01,129.2,050513,016.6,E,D*2E
$PGRME,2.5,M,4.2,M,4.9,M*22
$HCHDG,266.4,0.0,E,,*2F
$YXXDR,A,4.7,D,PTCH,A,-2.4,D,ROLL*75
$HCHDG,266.4,0.0,E,,*2F
$GPRMC,210010.8,A,4741.20099,N,12224.26307,W,000.01,129.2,050513,016.6,E,D*21
$PGRME,2.5,M,4.1,M,4.8,M*20
$HCHDG,266.4,0.0,E,,*2F
$HCHDG,266.4,0.0,E,,*2F
$IIRMC,210000,A,4741.200,N,12224.263,W,00.0,129,050513,16,E,A*16
$GPRMC,210011.0,A,4741.20100,N,12224.26307,W,000.01,129.2,050513,016.6,E,D*29
$GPRMB,A,0.00,L,N,N,4741.0622,N,12224.6030,W,0.3,255,-0.01,V*25
$PGRME,2.5,M,4.1,M,4.8,M*20
$IIVHW,,,,,00.0,N,,*19
$HCHDG,266.3,0.0,E,,*28
$IIVLW,06236,N,000.0,N*52
$IIDPT,007.1,-1.0,*46
$HCHDG,266.3,0.0,E,,*28
$GPRMC,210011.2,A,4741.20100,N,12224.26307,W,000.01,129.2,050513,016.6,E,D*2B
$PGRME,2.5,M,4.0,M,4.7,M*2E
$IIGLL,4741.200,N,12224.263,W,210000,A,A*45
$YXXDR,A,4.6,D,PTCH,A,-2.3,D,ROLL*73
$IIMTW,+09.0,C*31
$HCHDG,266.4,0.0,E,,*2F
$HCHDG,266.4,0.0,E,,*2F
$IIRMB,A,0.00,L,,N   ,,,,,000.3,255,,V,A*28
$GPRMC,210011.4,A,4741.20100,N,12224.26307,W,000.01,129.2,050513,016.6,E,D*2D
$PGRME,2.5,M,4.0,M,4.7,M*2E
$HCHDG,266.4,0.0,E,,*2F
$HCHDG,266.4,0.0,E,,*2F
$GPRMC,210011.6,A,4741.20100,N,12224.26307,W,000.01,129.2,050513,016.6,E,D*2F
$PGRME,2.5,M,4.0,M,4.7,M*2E
$HCHDG,266.3,0.0,E,,*28
$YXXDR,A,4.5,D,PTCH,A,-1.9,D,ROLL*79
$PTAK,FFD1,1.9*5D
$HCHDG,266.3,0.0,E,,*28
$GPRMC,210011.8,A,4741.20100,N,12224.26307,W,000.00,129.2,050513,016.6,E,D*20
$PGRME,2.5,M,4.0,M,4.7,M*2E
$HCHDG,266.3,0.0,E,,*28
$HCHDG,266.3,0.0,E,,*28
$IIRMC,210000,A,4741.200,N,12224.263,W,00.0,129,050513,16,E,A*16
$GPRMC,210012.0,A,4741.20100,N,12224.26307,W,000.00,129.2,050513,016.6,E,D*2B
$GPRMB,A,0.00,L,N,N,4741.0622,N,12224.6030,W,0.3,255,-0.00,V*24
$PGRME,2.5,M,3.9,M,4.7,M*20
$IIVHW,,,,,00.0,N,,*19
$HCHDG,266.3,0.0,E,,*28
$IIVLW,06236,N,000.0,N*52
$IIDPT,007.1,-1.0,*46
$HCHDG,266.4,0.0,E,,*2F
$GPRMC,210012.2,A,4741.20100,N,12224.26307,W,000.00,129.2,050513,016.6,E,D*29
$PGRME,2.5,M,3.9,M,4.6,M*21
$IIGLL,4741.200,N,12224.263,W,210000,A,A*45
$YXXDR,A,4.5,D,PTCH,A,-1.7,D,ROLL*77
$IIMTW,+09.0,C*31
$HCHDG,266.4,0.0,E,,*2F
$HCHDG,266.5,0.0,E,,*2E
$IIRMB,A,0.00,L,,N   ,,,,,000.3,255,,V,A*28
$GPRMC,210012.4,A,4741.20100,N,12224.26307,W,000.00,129.2,050513,016.6,E,D*2F
$PGRME,2.5,M,3.9,M,4.6,M*21
$HCHDG,266.5,0.0,E,,*2E
$HCHDG,266.5,0.0,E,,*2E
$GPRMC,210012.6,A,4741.20100,N,12224.26307,W,000.00,129.2,050513,016.6,E,D*2D
$PGRME,2.5,M,3.8,M,4.6,M*20
$HCHDG,266.6,0.0,E,,*2D
$YXXDR,A,4.5,D,PTCH,A,-1.9,D,ROLL*79
$HCHDG,266.6,0.0,E,,*2D
$GPRMC,210012.8,A,4741.20100,N,12224.26307,W,000.00,129.2,050513,016.6,E,D*23
$PGRME,2.5,M,3.8,M,4.6,M*20
$HCHDG,266.4,0.0,E,,*2F
$HCHDG,266.4,0.0,E,,*2F
$IIRMC,210000,A,4741.201,N,12224.263,W,00.0,129,050513,16,E,A*17
$GPRMC,210013.0,A,4741.20100,N,12224.26307,W,000.01,129.2,050513,016.6,E,D*2B
$GPRMB,A,0.00,L,N,N,4741.0622,N,12224.6030,W,0.3,255,-0.01,V*25
$PGRME,2.5,M,3.8,M,4.6,M*20
$IIVHW,,,,,00.0,N,,*19
$PTAK,FFP1,HEEL,@*07
$HCHDG,266.4,0.0,E,,*2F
$IIVLW,06236,N,000.0,N*52
$IIDPT,007.3,-1.0,*44
$HCHDG,266.5,0.0,E,,*2E
$GPRMC,210013.2,A,4741.20100,N,12224.26307,W,000.00,129.2,050513,016.6,E,D*28
$PGRME,2.5,M,3.8,M,4.5,M*23
$IIGLL,4741.201,N,12224.263,W,210000,A,A*44
$YXXDR,A,4.6,D,PTCH,A,-2.0,D,ROLL*70
$PTAK,FFD1,2.0*57
$IIMTW,+09.0,C*31
$HCHDG,266.5,0.0,E,,*2E
$HCHDG,266.5,0.0,E,,*2E
$IIRMB,A,0.00,L,,N   ,,,,,000.3,255,,V,A*28
$GPRMC,210013.4,A,4741.20100,N,12224.26307,W,000.00,129.2,050513,016.6,E,D*2E
$PGRME,2.5,M,3.8,M,4.5,M*23
$HCHDG,266.5,0.0,E,,*2E
$HCHDG,266.4,0.0,E,,*2F
$GPRMC,210013.6,A,4741.20100,N,12224.26307,W,000.01,129.2,050513,016.6,E,D*2D
$PGRME,2.5,M,3.7,M,4.5,M*2C
$HCHDG,266.4,0.0,E,,*2F
$YXXDR,A,4.5,D,PTCH,A,-2.0,D,ROLL*73
$HCHDG,266.4,0.0,E,,*2F
$GPRMC,210013.8,A,4741.20100,N,12224.26307,W,000.00,129.2,050513,016.6,E,D*22
$PGRME,2.5,M,3.7,M,4.5,M*2C
$HCHDG,266.4,0.0,E,,*2F
$HCHDG,266.3,0.0,E,,*28
$IIRMC,210000,A,4741.201,N,12224.263,W,00.0,129,050513,16,E,A*17
$GPRMC,210014.0,A,4741.20100,N,12224.26307,W,000.00,129.2,050513,016.6,E,D*2D
$PGRME,2.5,M,3.7,M,4.5,M*2C
$IIVHW,,,,,00.0,N,,*19
$HCHDG,266.3,0.0,E,,*28
$IIVLW,06236,N,000.0,N*52
$IIDPT,007.3,-1.0,*44
$HCHDG,266.3,0.0,E,,*28
$GPRMC,210014.2,A,4741.20100,N,12224.26307,W,000.01,129.2,050513,016.6,E,D*2E
$GPRMB,A,0.00,L,N,N,4741.0622,N,12224.6030,W,0.3,255,-0.01,V*25
$PGRME,2.5,M,3.7,M,4.4,M*2D
$IIGLL,4741.201,N,12224.263,W,210000,A,A*44
$YXXDR,A,4.4,D,PTCH,A,-2.3,D,ROLL*71
$PTAK,FFD1,2.3*54
$IIMTW,+09.0,C*31
$HCHDG,266.2,0.0,E,,*29
$HCHDG,266.3,0.0,E,,*28
$IIRMB,A,0.00,L,,N   ,,,,,000.3,255,,V,A*28
$GPRMC,210014.4,A,4741.20100,N,12224.26307,W,000.01,129.2,050513,016.6,E,D*28
$PGRME,2.5,M,3.7,M,4.4,M*2D
$HCHDG,266.2,0.0,E,,*29
$HCHDG,266.2,0.0,E,,*29
$GPRMC,210014.6,A,4741.20099,N,12224.26307,W,000.01,129.2,050513,016.6,E,D*2B
$PGRME,2.5,M,3.7,M,4.4,M*2D
$HCHDG,266.2,0.0,E,,*29
$YXXDR,A,4.4,D,PTCH,A,-2.2,D,ROLL*70
$HCHDG,266.2,0.0,E,,*29
$GPRMC,210014.8,A,4741.20099,N,12224.26307,W,000.01,129.2,050513,016.6,E,D*25
$PGRME,2.5,M,3.6,M,4.4,M*2C
$HCHDG,266.3,0.0,E,,*28
$HCHDG,266.2,0.0,E,,*29
$IIRMC,210000,A,4741.201,N,12224.263,W,00.0,129,050513,16,E,A*17
$GPRMC,210015.0,A,4741.20099,N,12224.26307,W,000.01,129.2,050513,016.6,E,D*2C
$PGRME,2.5,M,3.6,M,4.4,M*2C
$IIVHW,,,,,00.0,N,,*19
$HCHDG,266.2,0.0,E,,*29
$IIVLW,06236,N,000.0,N*52
$IIDPT,007.3,-1.0,*44
$HCHDG,266.2,0.0,E,,*29
$GPRMC,210015.2,A,4741.20099,N,12224.26307,W,000.00,129.2,050513,016.6,E,D*2F
$PGRME,2.5,M,3.6,M,4.4,M*2C
$IIGLL,4741.201,N,12224.263,W,210000,A,A*44
$YXXDR,A,4.5,D,PTCH,A,-1.7,D,ROLL*77
$IIMTW,+09.0,C*31
$HCHDG,266.4,0.0,E,,*2F
$HCHDG,266.4,0.0,E,,*2F
$IIRMB,A,0.00,L,,N   ,,,,,000.3,255,,V,A*28
$GPRMC,210015.4,A,4741.20099,N,12224.26307,W,000.00,129.2,050513,016.6,E,D*29
$GPRMB,A,0.00,L,N,N,4741.0622,N,12224.6030,W,0.3,255,-0.00,V*24
$PGRME,2.5,M,3.6,M,4.3,M*2B
$HCHDG,266.4,0.0,E,,*2F
$HCHDG,266.4,0.0,E,,*2F
$GPRMC,210015.6,A,4741.20099,N,12224.26307,W,000.00,129.2,050513,016.6,E,D*2B
$PGRME,2.5,M,3.6,M,4.3,M*2B
$HCHDG,266.4,0.0,E,,*2F
$YXXDR,A,4.5,D,PTCH,A,-2.2,D,ROLL*71
$PTAK,FFD1,2.2*55
$HCHDG,266.5,0.0,E,,*2E
$GPRMC,210015.8,A,4741.20099,N,12224.26307,W,000.00,129.2,050513,016.6,E,D*25
$PGRME,2.5,M,3.5,M,4.3,M*28
$HCHDG,266.5,0.0,E,,*2E
$HCHDG,266.5,0.0,E,,*2E
$IIRMC,210000,A,4741.200,N,12224.263,W,00.0,129,050513,16,E,A*16
$GPRMC,210016.0,A,4741.20099,N,12224.26307,W,000.00,129.2,050513,016.6,E,D*2E
$PGRME,2.5,M,3.5,M,4.3,M*28
$IIVHW,,,,,00.0,N,,*19
$HCHDG,266.6,0.0,E,,*2D
$IIVLW,06236,N,000.0,N*52
$IIDPT,007.1,-1.0,*46
$HCHDG,266.8,0.0,E,,*23
$GPRMC,210016.2,A,4741.20099,N,12224.26307,W,000.01,129.2,050513,016.6,E,D*2D
$PGRME,2.5,M,3.5,M,4.3,M*28
$IIGLL,4741.200,N,12224.263,W,210000,A,A*45
$YXXDR,A,4.6,D,PTCH,A,-1.8,D,ROLL*7B
$IIMTW,+09.0,C*31
$HCHDG,266.8,0.0,E,,*23
$HCHDG,266.8,0.0,E,,*23
$IIRMB,A,0.00,L,,N   ,,,,,000.3,255,,V,A*28
$GPRMC,210016.4,A,4741.20099,N,12224.26307,W,000.01,129.2,050513,016.6,E,D*2B
$PGRME,2.5,M,3.5,M,4.3,M*28
$HCHDG,266.8,0.0,E,,*23
$HCHDG,266.8,0.0,E,,*23
$GPRMC,210016.6,A,4741.20099,N,12224.26306,W,000.01,129.2,050513,016.6,E,D*28
$GPRMB,A,0.00,L,N,N,4741.0622,N,12224.6030,W,0.3,255,-0.01,V*25
$PGRME,2.4,M,3.5,M,4.3,M*29
$HCHDG,266.8,0.0,E,,*23
$YXXDR,A,4.6,D,PTCH,A,-1.8,D,ROLL*7B
$PTAK,FFD1,1.8*5C
$HCHDG,266.8,0.0,E,,*23
$GPRMC,210016.8,A,4741.20099,N,12224.26306,W,000.01,129.2,050513,016.6,E,D*26
$PGRME,2.4,M,3.5,M,4.2,M*28
$HCHDG,266.8,0.0,E,,*23
$HCHDG,266.8,0.0,E,,*23
$IIRMC,210000,A,4741.200,N,12224.263,W,00.0,129,050513,16,E,A*16
$GPRMC,210017.0,A,4741.20099,N,12224.26306,W,000.00,129.2,050513,016.6,E,D*2E
$PGRME,2.4,M,3.5,M,4.2,M*28
$IIVHW,,,,,00.0,N,,*19
$HCHDG,266.8,0.0,E,,*23
$IIVLW,06236,N,000.0,N*52
$IIDPT,007.3,-1.0,*44
$HCHDG,266.7,0.0,E,,*2C
$GPRMC,210017.2,A,4741.20099,N,12224.26306,W,000.00,129.2,050513,016.6,E,D*2C
$PGRME,2.4,M,3.4,M,4.2,M*29
$IIGLL,4741.200,N,12224.263,W,210000,A,A*45
$YXXDR,A,4.5,D,PTCH,A,-1.9,D,ROLL*79
$PTAK,FFP1,HEEL,@*07
$IIMTW,+09.0,C*31
$HCHDG,266.7,0.0,E,,*2C
$HCHDG,266.7,0.0,E,,*2C
$IIRMB,A,0.00,L,,N   ,,,,,000.3,255,,V,A*28
$GPRMC,210017.4,A,4741.20099,N,12224.26306,W,000.01,129.2,050513,016.6,E,D*2B
$PGRME,2.4,M,3.4,M,4.2,M*29
$HCHDG,266.7,0.0,E,,*2C
$HCHDG,266.7,0.0,E,,*2C
$GPRMC,210017.6,A,4741.20099,N,12224.26306,W,000.01,129.2,050513,016.6,E,D*29
$PGRME,2.4,M,3.4,M,4.2,M*29
$HCHDG,266.7,0.0,E,,*2C
$YXXDR,A,4.5,D,PTCH,A,-1.5,D,ROLL*75
$HCHDG,266.7,0.0,E,,*2C
$GPRMC,210017.8,A,4741.20099,N,12224.26306,W,000.01,129.2,050513,016.6,E,D*27
$GPRMB,A,0.00,L,N,N,4741.0622,N,12224.6030,W,0.3,255,-0.01,V*25
$PGRME,2.4,M,3.4,M,4.2,M*29
$HCHDG,266.5,0.0,E,,*2E
$HCHDG,266.5,0.0,E,,*2E
$IIRMC,210000,A,4741.200,N,12224.263,W,00.0,129,050513,16,E,A*16
$GPRMC,210018.0,A,4741.20099,N,12224.26306,W,000.01,129.2,050513,016.6,E,D*20
$PGRME,2.4,M,3.4,M,4.2,M*29
$IIVHW,,,,,00.0,N,,*19
$HCHDG,266.6,0.0,E,,*2D
$IIVLW,06236,N,000.0,N*52
$IIDPT,007.1,-1.0,*46
$HCHDG,266.6,0.0,E,,*2D
$GPRMC,210018.2,A,4741.20099,N,12224.26306,W,000.01,129.2,050513,016.6,E,D*22
$PGRME,2.4,M,3.4,M,4.2,M*29
$IIGLL,4741.200,N,12224.263,W,210000,A,A*45
$YXXDR,A,4.5,D,PTCH,A,-1.7,D,ROLL*77
$PTAK,FFD1,1.7*53
$IIMTW,+09.0,C*31
$HCHDG,266.6,0.0,E,,*2D
$HCHDG,266.6,0.0,E,,*2D
$IIRMB,A,0.00,L,,N   ,,,,,000.3,255,,V,A*28
$GPRMC,210018.4,A,4741.20099,N,12224.26306,W,000.01,129.2,050513,016.6,E,D*24
$PGRME,2.4,M,3.4,M,4.1,M*2A
$HCHDG,266.6,0.0,E,,*2D
$HCHDG,266.7,0.0,E,,*2C
$GPRMC,210018.6,A,4741.20099,N,12224.26306,W,000.00,129.2,050513,016.6,E,D*27
$PGRME,2.4,M,3.3,M,4.1,M*2D
$HCHDG,266.7,0.0,E,,*2C
$YXXDR,A,4.5,D,PTCH,A,-1.5,D,ROLL*75
$HCHDG,266.7,0.0,E,,*2C
$GPRMC,210018.8,A,4741.20099,N,12224.26306,W,000.01,129.2,050513,016.6,E,D*28
$GPRMB,A,0.00,L,N,N,4741.0622,N,12224.6030,W,0.3,255,-0.01,V*25
$PGRME,2.4,M,3.3,M,4.1,M*2D
$HCHDG,266.7,0.0,E,,*2C
$HCHDG,266.6,0.0,E,,*2D
$GPRMC,210019.0,A,4741.20099,N,12224.26306,W,000.00,129.2,050513,016.6,E,D*20
$PGRME,2.4,M,3.3,M,4.1,M*2D
$HCHDG,266.6,0.0,E,,*2D
$HCHDG,266.8,0.0,E,,*23
$GPRMC,210019.2,A,4741.20099,N,12224.26306,W,000.01,129.2,050513,016.6,E,D*23
$PGRME,2.4,M,3.3,M,4.1,M*2D
$YXXDR,A,4.7,D,PTCH,A,-1.1,D,ROLL*73
$HCHDG,266.9,0.0,E,,*22
$HCHDG,266.9,0.0,E,,*22
$GPRMC,210019.4,A,4741.20099,N,12224.26306,W,000.00,129.2,050513,016.6,E,D*24
$PGRME,2.4,M,3.3,M,4.1,M*2D
$HCHDG,266.8,0.0,E,,*23
$HCHDG,266.9,0.0,E,,*22
$GPRMC,210019.6,A,4741.20099,N,12224.26306,W,000.01,129.2,050513,016.6,E,D*27
$PGRME,2.4,M,3.3,M,4.1,M*2D
$HCHDG,266.9,0.0,E,,*22
$YXXDR,A,4.8,D,PTCH,A,-1.0,D,ROLL*7D
$PTAK,FFD1,1.0*54
$HCHDG,267.1,0.0,E,,*2B
$GPRMC,210019.8,A,4741.20099,N,12224.26306,W,000.01,129.2,050513,016.6,E,D*29
$GPRMB,A,0.00,L,N,N,4741.0622,N,12224.6030,W,0.3,255,-0.01,V*25
$PGRME,2.4,M,3.3,M,4.1,M*2D
$HCHDG,267.2,0.0,E,,*28
$HCHDG,267.2,0.0,E,,*28
$GPRMC,210020.0,A,4741.20099,N,12224.26306,W,000.01,129.2,050513,016.6,E,D*2B
$PGRME,2.4,M,3.3,M,4.1,M*2D
$HCHDG,267.2,0.0,E,,*28
$HCHDG,267.4,0.0,E,,*2E
$GPRMC,210020.2,A,4741.20099,N,12224.26307,W,000.01,129.2,050513,016.6,E,D*28
$PGRME,2.4,M,3.3,M,4.1,M*2D
$YXXDR,A,4.5,D,PTCH,A,-2.0,D,ROLL*73
$HCHDG,267.4,0.0,E,,*2E
$HCHDG,267.5,0.0,E,,*2F
$GPRMC,210020.4,A,4741.20099,N,12224.26307,W,000.00,129.2,050513,016.6,E,D*2F
$PGRME,2.4,M,3.3,M,4.1,M*2D
$HCHDG,267.6,0.0,E,,*2C
$HCHDG,267.7,0.0,E,,*2D
$GPRMC,210020.6,A,4741.20099,N,12224.26307,W,000.00,129.2,050513,016.6,E,D*2D
$PGRME,2.4,M,3.2,M,4.1,M*2C
$HCHDG,267.6,0.0,E,,*2C
$YXXDR,A,4.5,D,PTCH,A,-1.5,D,ROLL*75
$PTAK,FFD1,1.5*51
$HCHDG,267.6,0.0,E,,*2C
$GPRMC,210020.8,A,4741.20099,N,12224.26307,W,000.00,129.2,050513,016.6,E,D*23
$GPRMB,A,0.00,L,N,N,4741.0622,N,12224.6030,W,0.3,255,-0.00,V*24
$PGRME,2.4,M,3.2,M,4.0,M*2D
$HCHDG,267.8,0.0,E,,*22
$HCHDG,267.8,0.0,E,,*22
$IIRMC,210000,A,4741.200,N,12224.263,W,00.0,129,050513,16,E,A*16
$GPRMC,210021.0,A,4741.20099,N,12224.26307,W,000.01,129.2,050513,016.6,E,D*2B
$PGRME,2.4,M,3.2,M,4.0,M*2D
$IIVHW,,,,,00.0,N,,*19
$HCHDG,267.7,0.0,E,,*2D
$IIVLW,06236,N,000.0,N*52
$IIDPT,007.1,-1.0,*46
$HCHDG,267.9,0.0,E,,*23
$GPRMC,210021.2,A,4741.20099,N,12224.26307,W,000.00,129.2,050513,016.6,E,D*28
$PGRME,2.4,M,3.2,M,4.0,M*2D
$IIGLL,4741.200,N,12224.263,W,210000,A,A*45
$YXXDR,A,4.5,D,PTCH,A,-1.1,D,ROLL*71
$IIMTW,+09.0,C*31
$HCHDG,267.9,0.0,E,,*23
$PTAK,FFP1,HEEL,@*07
$HCHDG,267.9,0.0,E,,*23
$IIRMB,A,0.00,L,,N   ,,,,,000.3,255,,V,A*28
$GPRMC,210021.4,A,4741.20099,N,12224.26307,W,000.00,129.2,050513,016.6,E,D*2E
$PGRME,2.4,M,3.2,M,4.0,M*2D
$HCHDG,268.0,0.0,E,,*25
$HCHDG,268.1,0.0,E,,*24
$GPRMC,210021.6,A,4741.20099,N,12224.26307,W,000.01,129.2,050513,016.6,E,D*2D
$PGRME,2.4,M,3.2,M,4.0,M*2D
$HCHDG,268.1,0.0,E,,*24
$YXXDR,A,4.5,D,PTCH,A,-1.5,D,ROLL*75
$PTAK,FFD1,1.5*51
$HCHDG,268.3,0.0,E,,*26
$GPRMC,210021.8,A,4741.20099,N,12224.26307,W,000.01,129.2,050513,016.6,E,D*23
$PGRME,2.4,M,3.2,M,4.0,M*2D
$HCHDG,268.4,0.0,E,,*21
$HCHDG,268.3,0.0,E,,*26
$IIRMC,210000,A,4741.200,N,12224.263,W,00.0,129,050513,16,E,A*16
$GPRMC,210022.0,A,4741.20099,N,12224.26307,W,000.01,129.2,050513,016.6,E,D*28
$GPRMB,A,0.00,L,N,N,4741.0622,N,12224.6030,W,0.3,255,-0.01,V*25
$PGRME,2.4,M,3.2,M,4.0,M*2D
$IIVHW,,,,,00.0,N,,*19
$HCHDG,268.2,0.0,E,,*27
$IIVLW,06236,N,000.0,N*52
$IIDPT,007.1,-1.0,*46
$HCHDG,268.4,0.0,E,,*21
$GPRMC,210022.2,A,4741.20099,N,12224.26307,W,000.00,129.2,050513,016.6,E,D*2B
$PGRME,2.4,M,3.2,M,4.0,M*2D
$IIGLL,4741.200,N,12224.263,W,210000,A,A*45
$YXXDR,A,4.5,D,PTCH,A,-2.1,D,ROLL*72
$IIMTW,+09.0,C*31
$HCHDG,268.4,0.0,E,,*21
$HCHDG,268.6,0.0,E,,*23
$IIRMB,A,0.00,L,,N   ,,,,,000.3,255,,V,A*28
$GPRMC,210022.4,A,4741.20099,N,12224.26306,W,000.00,129.2,050513,016.6,E,D*2C
$PGRME,2.4,M,3.2,M,4.0,M*2D
$HCHDG,268.6,0.0,E,,*23
$HCHDG,268.7,0.0,E,,*22
$GPRMC,210022.6,A,4741.20100,N,12224.26307,W,000.00,129.2,050513,016.6,E,D*2E
$PGRME,2.4,M,3.2,M,4.0,M*2D
$HCHDG,268.6,0.0,E,,*23
$YXXDR,A,4.5,D,PTCH,A,-1.9,D,ROLL*79
$HCHDG,268.7,0.0,E,,*22
$GPRMC,210022.8,A,4741.20100,N,12224.26307,W,000.00,129.2,050513,016.6,E,D*20
$PGRME,2.4,M,3.2,M,4.0,M*2D
$HCHDG,268.8,0.0,E,,*2D
$HCHDG,268.8,0.0,E,,*2D
$IIRMC,210000,A,4741.200,N,12224.263,W,00.0,129,050513,16,E,A*16
$GPRMC,210023.0,A,4741.20100,N,12224.26307,W,000.00,129.2,050513,016.6,E,D*29
$GPRMB,A,0.00,L,N,N,4741.0622,N,12224.6030,W,0.3,255,-0.00,V*24
$PGRME,2.4,M,3.2,M,4.0,M*2D
$IIVHW,,,,,00.0,N,,*19
$HCHDG,268.7,0.0,E,,*22
$IIVLW,06236,N,000.0,N*52
$IIDPT,007.1,-1.0,*46
$HCHDG,268.8,0.0,E,,*2D
$GPRMC,210023.2,A,4741.20100,N,12224.26306,W,000.01,129.2,050513,016.6,E,D*2B
$PGRME,2.4,M,3.2,M,4.0,M*2D
$IIGLL,4741.200,N,12224.263,W,210000,A,A*45
$YXXDR,A,4.7,D,PTCH,A,-1.3,D,ROLL*71
$PTAK,FFD1,1.3*57
$IIMTW,+09.0,C*31
$HCHDG,268.9,0.0,E,,*2C
$HCHDG,268.9,0.0,E,,*2C
$IIRMB,A,0.00,L,,N   ,,,,,000.3,255,,V,A*28
$GPRMC,210023.4,A,4741.20100,N,12224.26306,W,000.01,129.2,050513,016.6,E,D*2D
$PGRME,2.4,M,3.2,M,4.0,M*2D
$HCHDG,268.9,0.0,E,,*2C
$HCHDG,268.9,0.0,E,,*2C
$GPRMC,210023.6,A,4741.20100,N,12224.26306,W,000.01,129.2,050513,016.6,E,D*2F
$PGRME,2.4,M,3.1,M,4.0,M*2E
$HCHDG,268.9,0.0,E,,*2C
$YXXDR,A,4.7,D,PTCH,A,-1.3,D,ROLL*71
$HCHDG,268.9,0.0,E,,*2C
$GPRMC,210023.8,A,4741.20100,N,12224.26306,W,000.01,129.2,050513,016.6,E,D*21
$PGRME,2.4,M,3.1,M,4.0,M*2E
$HCHDG,268.9,0.0,E,,*2C
$HCHDG,268.9,0.0,E,,*2C
$IIRMC,210000,A,4741.200,N,12224.263,W,00.0,129,050513,16,E,A*16
$GPRMC,210024.0,A,4741.20100,N,12224.26306,W,000.01,129.2,050513,016.6,E,D*2E
$GPRMB,A,0.00,L,N,N,4741.0622,N,12224.6030,W,0.3,255,-0.01,V*25
$PGRME,2.4,M,3.1,M,4.0,M*2E
$IIVHW,,,,,00.0,N,,*19
$HCHDG,268.9,0.0,E,,*2C
$IIVLW,06236,N,000.0,N*52
$IIDPT,007.1,-1.0,*46
$HCHDG,268.8,0.0,E,,*2D
$GPRMC,210024.2,A,4741.20100,N,12224.26306,W,000.01,129.2,050513,016.6,E,D*2C
$PGRME,2.4,M,3.1,M,4.0,M*2E
$IIGLL,4741.200,N,12224.263,W,210000,A,A*45
$YXXDR,A,4.4,D,PTCH,A,-2.0,D,ROLL*72
$PTAK,FFD1,2.0*57
$IIMTW,+09.0,C*31
$HCHDG,268.8,0.0,E,,*2D
$HCHDG,268.9,0.0,E,,*2C
$IIRMB,A,0.00,L,,N   ,,,,,000.3,255,,V,A*28
$GPRMC,210024.4,A,4741.20100,N,12224.26306,W,000.00,129.2,050513,016.6,E,D*2B
$PGRME,2.4,M,3.1,M,3.9,M*20
$HCHDG,268.9,0.0,E,,*2C
$HCHDG,269.0,0.0,E,,*24
$GPRMC,210024.6,A,4741.20100,N,12224.26306,W,000.01,129.2,050513,016.6,E,D*28
$PGRME,2.4,M,3.1,M,3.9,M*20
$HCHDG,269.0,0.0,E,,*24
$YXXDR,A,4.5,D,PTCH,A,-1.9,D,ROLL*79
$HCHDG,268.8,0.0,E,,*2D
$GPRMC,210024.8,A,4741.20100,N,12224.26306,W,000.01,129.2,050513,016.6,E,D*26
$PGRME,2.4,M,3.1,M,3.9,M*20
$HCHDG,268.9,0.0,E,,*2C
$HCHDG,268.9,0.0,E,,*2C
$IIRMC,210000,A,4741.201,N,12224.263,W,00.0,129,050513,16,E,A*17
$GPRMC,210025.0,A,4741.20100,N,12224.26306,W,000.01,129.2,050513,016.6,E,D*2F
$GPRMB,A,0.00,L,N,N,4741.0622,N,12224.6030,W,0.3,255,-0.01,V*25
$PGRME,2.4,M,3.1,M,3.9,M*20
$IIVHW,,,,,00.0,N,,*19
$HCHDG,268.9,0.0,E,,*2C
$IIVLW,06236,N,000.0,N*52
$IIDPT,007.1,-1.0,*46
$HCHDG,269.1,0.0,E,,*25
$GPRMC,210025.2,A,4741.20100,N,12224.26306,W,000.01,129.2,050513,016.6,E,D*2D
$PGRME,2.4,M,3.1,M,3.9,M*20
$IIGLL,4741.201,N,12224.263,W,210000,A,A*44
$YXXDR,A,4.7,D,PTCH,A,-1.1,D,ROLL*73
$PTAK,FFD1,1.1*55
$PTAK,FFP1,HEEL,@*07
$IIMTW,+09.0,C*31
$HCHDG,269.0,0.0,E,,*24
$HCHDG,269.0,0.0,E,,*24
$IIRMB,A,0.00,L,,N   ,,,,,000.3,255,,V,A*28
$GPRMC,210025.4,A,4741.20100,N,12224.26306,W,000.01,129.2,050513,016.6,E,D*2B
$PGRME,2.4,M,3.1,M,3.9,M*20
$HCHDG,268.8,0.0,E,,*2D
$HCHDG,268.8,0.0,E,,*2D
$GPRMC,210025.6,A,4741.20100,N,12224.26306,W,000.02,129.2,050513,016.6,E,D*2A
$PGRME,2.4,M,3.0,M,3.9,M*21
$HCHDG,268.7,0.0,E,,*22
$YXXDR,A,4.8,D,PTCH,A,-1.0,D,ROLL*7D
$HCHDG,268.7,0.0,E,,*22
$GPRMC,210025.8,A,4741.20100,N,12224.26306,W,000.04,129.2,050513,016.6,E,D*22
$PGRME,2.4,M,3.0,M,3.9,M*21
$HCHDG,268.7,0.0,E,,*22
$HCHDG,268.7,0.0,E,,*22
$IIRMC,210000,A,4741.201,N,12224.263,W,00.0,129,050513,16,E,A*17
$GPRMC,210026.0,A,4741.20100,N,12224.26305,W,000.02,129.2,050513,016.6,E,D*2C
$PGRME,2.4,M,3.0,M,3.9,M*21
$IIVHW,,,,,00.0,N,,*19
$HCHDG,268.7,0.0,E,,*22
$IIVLW,06236,N,000.0,N*52
$IIDPT,007.1,-1.0,*46
$HCHDG,268.7,0.0,E,,*22
$GPRMC,210026.2,A,4741.20100,N,12224.26305,W,000.00,129.2,050513,016.6,E,D*2C
$GPRMB,A,0.00,L,N,N,4741.0622,N,12224.6030,W,0.3,255,-0.00,V*24
$PGRME,2.4,M,3.0,M,3.9,M*21
$IIGLL,4741.201,N,12224.263,W,210000,A,A*44
$YXXDR,A,4.4,D,PTCH,A,-1.4,D,ROLL*75
$PTAK,FFD1,1.4*50
$IIMTW,+09.0,C*31
$HCHDG,268.8,0.0,E,,*2D
$HCHDG,268.8,0.0,E,,*2D
$IIRMB,A,0.00,L,,N   ,,,,,000.3,255,,V,A*28
$GPRMC,210026.4,A,4741.20100,N,12224.26305,W,000.01,129.2,050513,016.6,E,D*2B
$PGRME,2.4,M,3.0,M,3.9,M*21
$HCHDG,268.9,0.0,E,,*2C
$HCHDG,268.7,0.0,E,,*22
$GPRMC,210026.6,A,4741.20100,N,12224.26305,W,000.01,129.2,050513,016.6,E,D*29
$PGRME,2.4,M,3.0,M,3.9,M*21
$HCHDG,268.8,0.0,E,,*2D
$YXXDR,A,4.3,D,PTCH,A,-2.3,D,ROLL*76
$HCHDG,268.8,0.0,E,,*2D
$GPRMC,210026.8,A,4741.20100,N,12224.26305,W,000.01,129.2,050513,016.6,E,D*27
$PGRME,2.4,M,3.0,M,3.8,M*20
$HCHDG,268.9,0.0,E,,*2C
$HCHDG,268.9,0.0,E,,*2C
$IIRMC,210000,A,4741.201,N,12224.263,W,00.0,129,050513,16,E,A*17
$GPRMC,210027.0,A,4741.20099,N,12224.26305,W,000.01,129.2,050513,016.6,E,D*2F
$PGRME,2.4,M,3.0,M,3.8,M*20
$IIVHW,,,,,00.0,N,,*19
$HCHDG,268.9,0.0,E,,*2C
$IIVLW,06236,N,000.0,N*52
$IIDPT,007.1,-1.0,*46
$HCHDG,268.9,0.0,E,,*2C
$GPRMC,210027.2,A,4741.20099,N,12224.26305,W,000.02,129.2,050513,016.6,E,D*2E
$PGRME,2.4,M,3.0,M,3.8,M*20
$IIGLL,4741.201,N,12224.263,W,210000,A,A*44
$YXXDR,A,4.4,D,PTCH,A,-1.9,D,ROLL*78
$IIMTW,+09.0,C*31
$HCHDG,268.9,0.0,E,,*2C
$HCHDG,268.9,0.0,E,,*2C
$IIRMB,A,0.00,L,,N   ,,,,,000.3,255,,V,A*28
$GPRMC,210027.4,A,4741.20099,N,12224.26305,W,000.01,129.2,050513,016.6,E,D*2B
$GPRMB,A,0.00,L,N,N,4741.0622,N,12224.6030,W,0.3,255,-0.01,V*25
$PGRME,2.4,M,3.0,M,3.8,M*20
$HCHDG,268.9,0.0,E,,*2C
$HCHDG,268.9,0.0,E,,*2C
$GPRMC,210027.6,A,4741.20099,N,12224.26305,W,000.01,129.2,050513,016.6,E,D*29
$PGRME,2.4,M,3.0,M,3.8,M*20
$HCHDG,268.8,0.0,E,,*2D
$YXXDR,A,4.5,D,PTCH,A,-2.2,D,ROLL*71
$PTAK,FFD1,2.2*55
$HCHDG,268.8,0.0,E,,*2D
$GPRMC,210027.8,A,4741.20099,N,12224.26305,W,000.01,129.2,050513,016.6,E,D*27
$PGRME,2.4,M,3.0,M,3.8,M*20
$HCHDG,268.8,0.0,E,,*2D
$HCHDG,268.8,0.0,E,,*2D
$IIRMC,210000,A,4741.201,N,12224.263,W,00.0,129,050513,16,E,A*17
$GPRMC,210028.0,A,4741.20099,N,12224.26305,W,000.01,129.2,050513,016.6,E,D*20
$PGRME,2.4,M,3.0,M,3.8,M*20
$IIVHW,,,,,00.0,N,,*19
$HCHDG,268.8,0.0,E,,*2D
$IIVLW,06236,N,000.0,N*52
$IIDPT,007.1,-1.0,*46
$HCHDG,268.8,0.0,E,,*2D
$GPRMC,210028.2,A,4741.20099,N,12224.26305,W,000.01,129.2,050513,016.6,E,D*22
$PGRME,2.4,M,2.9,M,3.8,M*28
$IIGLL,4741.201,N,12224.263,W,210000,A,A*44
$YXXDR,A,4.4,D,PTCH,A,-2.2,D,ROLL*70
$IIMTW,+09.0,C*31
$HCHDG,268.6,0.0,E,,*23
$HCHDG,268.6,0.0,E,,*23
$IIRMB,A,0.00,L,,N   ,,,,,000.3,255,,V,A*28
$GPRMC,210028.4,A,4741.20099,N,12224.26305,W,000.00,129.2,050513,016.6,E,D*25
$PGRME,2.4,M,2.9,M,3.8,M*28
$HCHDG,268.7,0.0,E,,*22
$HCHDG,268.7,0.0,E,,*22
$GPRMC,210028.6,A,4741.20099,N,12224.26305,W,000.00,129.2,050513,016.6,E,D*27
$GPRMB,A,0.00,L,N,N,4741.0622,N,12224.6030,W,0.3,255,-0.00,V*24
$PGRME,2.4,M,2.9,M,3.8,M*28
$HCHDG,268.7,0.0,E,,*22
$YXXDR,A,4.5,D,PTCH,A,-2.0,D,ROLL*73
$PTAK,FFD1,2.0*57
$HCHDG,268.5,0.0,E,,*20
$GPRMC,210028.8,A,4741.20099,N,12224.26305,W,000.00,129.2,050513,016.6,E,D*29
$PGRME,2.4,M,2.9,M,3.8,M*28
$HCHDG,268.5,0.0,E,,*20
$HCHDG,268.5,0.0,E,,*20
$IIRMC,210000,A,4741.200,N,12224.263,W,00.0,129,050513,16,E,A*16
$GPRMC,210029.0,A,4741.20099,N,12224.26305,W,000.00,129.2,050513,016.6,E,D*20
$PGRME,2.4,M,2.9,M,3.8,M*28
$IIVHW,,,,,00.0,N,,*19
$HCHDG,268.4,0.0,E,,*21
$IIVLW,06236,N,000.0,N*52
$IIDPT,007.1,-1.0,*46
$HCHDG,268.3,0.0,E,,*26
$GPRMC,210029.2,A,4741.20099,N,12224.26305,W,000.01,129.2,050513,016.6,E,D*23
$PGRME,2.4,M,2.9,M,3.8,M*28
$IIGLL,4741.200,N,12224.263,W,210000,A,A*45
$YXXDR,A,4.4,D,PTCH,A,-2.2,D,ROLL*70
$IIMTW,+09.0,C*31
$HCHDG,268.3,0.0,E,,*26
$HCHDG,268.2,0.0,E,,*27
$IIRMB,A,0.00,L,,N   ,,,,,000.3,255,,V,A*28
$GPRMC,210029.4,A,4741.20099,N,12224.26305,W,000.00,129.2,050513,016.6,E,D*24
$PTAK,FFP1,HEEL,@*07
$PGRME,2.4,M,2.9,M,3.8,M*28
$HCHDG,268.1,0.0,E,,*24
$HCHDG,268.2,0.0,E,,*27
$GPRMC,210029.6,A,4741.20099,N,12224.26305,W,000.00,129.2,050513,016.6,E,D*26
$PGRME,2.4,M,2.9,M,3.8,M*28
$HCHDG,268.1,0.0,E,,*24
$YXXDR,A,4.9,D,PTCH,A,-1.2,D,ROLL*7E
$HCHDG,267.9,0.0,E,,*23
$GPRMC,210029.8,A,4741.20099,N,12224.26306,W,000.00,129.2,050513,016.6,E,D*2B
$GPRMB,A,0.00,L,N,N,4741.0622,N,12224.6030,W,0.3,255,-0.00,V*24
$PGRME,2.4,M,2.9,M,3.8,M*28
$HCHDG,267.6,0.0,E,,*2C
$HCHDG,267.5,0.0,E,,*2F
$IIRMC,210000,A,4741.200,N,12224.263,W,00.0,129,050513,16,E,A*16
$GPRMC,210030.0,A,4741.20099,N,12224.26306,W,000.01,129.2,050513,016.6,E,D*2A
$PGRME,2.4,M,2.9,M,3.8,M*28
$IIVHW,,,,,00.0,N,,*19
$HCHDG,267.3,0.0,E,,*29
$IIVLW,06236,N,000.0,N*52
$IIDPT,007.1,-1.0,*46
$HCHDG,267.2,0.0,E,,*28
$GPRMC,210030.2,A,4741.20099,N,12224.26306,W,000.01,129.2,050513,016.6,E,D*28
$PGRME,2.4,M,2.9,M,3.8,M*28
$IIGLL,4741.200,N,12224.263,W,210000,A,A*45
$YXXDR,A,4.6,D,PTCH,A,-1.0,D,ROLL*73
$PTAK,FFD1,1.0*54
$IIMTW,+09.0,C*31
$HCHDG,267.2,0.0,E,,*28
$HCHDG,267.1,0.0,E,,*2B
$IIRMB,A,0.00,L,,N   ,,,,,000.3,255,,V,A*28
$GPRMC,210030.4,A,4741.20099,N,12224.26306,W,000.00,129.2,050513,016.6,E,D*2F
$PGRME,2.4,M,2.9,M,3.8,M*28
$HCHDG,267.1,0.0,E,,*2B
$HCHDG,267.1,0.0,E,,*2B
$GPRMC,210030.6,A,4741.20099,N,12224.26306,W,000.01,129.2,050513,016.6,E,D*2C
$PGRME,2.4,M,2.9,M,3.8,M*28
$HCHDG,267.1,0.0,E,,*2B
$YXXDR,A,4.5,D,PTCH,A,-1.5,D,ROLL*75
$HCHDG,267.1,0.0,E,,*2B
$GPRMC,210030.8,A,4741.20099,N,12224.26305,W,000.01,129.2,050513,016.6,E,D*21
$GPRMB,A,0.00,L,N,N,4741.0622,N,12224.6030,W,0.3,255,-0.01,V*25
$PGRME,2.4,M,2.9,M,3.8,M*28
$HCHDG,267.1,0.0,E,,*2B
$HCHDG,267.2,0.0,E,,*28
$IIRMC,210000,A,4741.200,N,12224.263,W,00.0,129,050513,16,E,A*16
$GPRMC,210031.0,A,4741.20099,N,12224.26305,W,000.01,129.2,050513,016.6,E,D*28
$PGRME,2.4,M,2.9,M,3.8,M*28
$IIVHW,,,,,00.0,N,,*19
$HCHDG,267.3,0.0,E,,*29
$IIVLW,06236,N,000.0,N*52
$IIDPT,007.1,-1.0,*46
$HCHDG,267.1,0.0,E,,*2B
$GPRMC,210031.2,A,4741.20099,N,12224.26305,W,000.01,129.2,050513,016.6,E,D*2A
$PGRME,2.4,M,2.9,M,3.8,M*28
$IIGLL,4741.200,N,12224.263,W,210000,A,A*45
$YXXDR,A,4.3,D,PTCH,A,-1.7,D,ROLL*71
$IIMTW,+09.0,C*31
$HCHDG,267.1,0.0,E,,*2B
$HCHDG,267.3,0.0,E,,*29
$IIRMB,A,0.00,L,,N   ,,,,,000.3,255,,V,A*28
$GPRMC,210031.4,A,4741.20100,N,12224.26305,W,000.00,129.2,050513,016.6,E,D*2C
$PGRME,2.4,M,2.9,M,3.8,M*28
$HCHDG,267.3,0.0,E,,*29
$HCHDG,267.3,0.0,E,,*29
$GPRMC,210031.6,A,4741.20100,N,12224.26306,W,000.01,129.2,050513,016.6,E,D*2C
$PGRME,2.4,M,2.9,M,3.8,M*28
$HCHDG,267.3,0.0,E,,*29
$YXXDR,A,4.9,D,PTCH,A,-0.9,D,ROLL*74
$PTAK,FFD1,0.9*5C
$HCHDG,267.5,0.0,E,,*2F
$GPRMC,210031.8,A,4741.20100,N,12224.26306,W,000.00,129.2,050513,016.6,E,D*23
$PGRME,2.4,M,2.9,M,3.8,M*28
$HCHDG,267.6,0.0,E,,*2C
$HCHDG,267.5,0.0,E,,*2F
$IIRMC,210000,A,4741.200,N,12224.263,W,00.0,129,050513,16,E,A*16
$GPRMC,210032.0,A,4741.20100,N,12224.26306,W,000.00,129.2,050513,016.6,E,D*28
$GPRMB,A,0.00,L,N,N,4741.0622,N,12224.6030,W,0.3,255,-0.00,V*24
$PGRME,2.4,M,2.9,M,3.8,M*28
$IIVHW,,,,,00.0,N,,*19
$HCHDG,267.5,0.0,E,,*2F
$IIVLW,06236,N,000.0,N*52
$IIDPT,007.1,-1.0,*46
$HCHDG,267.7,0.0,E,,*2D
$GPRMC,210032.2,A,4741.20100,N,12224.26306,W,000.00,129.2,050513,016.6,E,D*2A
$PGRME,2.4,M,2.9,M,3.8,M*28
$IIGLL,4741.200,N,12224.263,W,210000,A,A*45
$YXXDR,A,5.1,D,PTCH,A,-1.3,D,ROLL*76
$IIMTW,+09.0,C*31
$HCHDG,267.7,0.0,E,,*2D
$HCHDG,267.6,0.0,E,,*2C
$IIRMB,A,0.00,L,,N   ,,,,,000.3,255,,V,A*28
$GPRMC,210032.4,A,4741.20100,N,12224.26306,W,000.01,129.2,050513,016.6,E,D*2D
$PGRME,2.4,M,2.9,M,3.8,M*28
$HCHDG,267.7,0.0,E,,*2D
$HCHDG,267.8,0.0,E,,*22
$GPRMC,210032.6,A,4741.20100,N,12224.26306,W,000.01,129.2,050513,016.6,E,D*2F
$PGRME,2.4,M,2.9,M,3.8,M*28
$HCHDG,267.8,0.0,E,,*22
$YXXDR,A,4.5,D,PTCH,A,-1.5,D,ROLL*75
$HCHDG,267.9,0.0,E,,*23
$GPRMC,210032.8,A,4741.20100,N,12224.26306,W,000.00,129.2,050513,016.6,E,D*20
$PGRME,2.4,M,2.9,M,3.8,M*28
$HCHDG,267.8,0.0,E,,*22
$HCHDG,267.7,0.0,E,,*2D
$IIRMC,210000,A,4741.201,N,12224.263,W,00.0,129,050513,16,E,A*17
$GPRMC,210033.0,A,4741.20100,N,12224.26306,W,000.00,129.2,050513,016.6,E,D*29
$PGRME,2.4,M,2.9,M,3.8,M*28
$IIVHW,,,,,00.0,N,,*19
$HCHDG,267.8,0.0,E,,*22
$IIVLW,06236,N,000.0,N*52
$IIDPT,007.1,-1.0,*46
$HCHDG,267.9,0.0,E,,*23
$GPRMC,210033.2,A,4741.20100,N,12224.26306,W,000.01,129.2,050513,016.6,E,D*2A
$GPRMB,A,0.00,L,N,N,4741.0622,N,12224.6030,W,0.3,255,-0.01,V*25
$PGRME,2.4,M,2.8,M,3.8,M*29
$IIGLL,4741.201,N,12224.263,W,210000,A,A*44
$YXXDR,A,4.4,D,PTCH,A,-2.0,D,ROLL*72
$PTAK,FFD1,2.0*57
$PTAK,FFP1,HEEL,@*07
$IIMTW,+09.0,C*31
$HCHDG,267.9,0.0,E,,*23
$HCHDG,268.0,0.0,E,,*25
$IIRMB,A,0.00,L,,N   ,,,,,000.3,255,,V,A*28
$GPRMC,210033.4,A,4741.20100,N,12224.26306,W,000.00,129.2,050513,016.6,E,D*2D
$PGRME,2.4,M,2.8,M,3.7,M*26
$HCHDG,268.0,0.0,E,,*25
$HCHDG,268.0,0.0,E,,*25
$GPRMC,210033.6,A,4741.20100,N,12224.26306,W,000.01,129.2,050513,016.6,E,D*2E
$PGRME,2.4,M,2.8,M,3.7,M*26
$HCHDG,268.1,0.0,E,,*24
$YXXDR,A,4.5,D,PTCH,A,-1.1,D,ROLL*71
$HCHDG,268.1,0.0,E,,*24
$GPRMC,210033.8,A,4741.20100,N,12224.26307,W,000.01,129.2,050513,016.6,E,D*21
$GPRMB,A,0.00,L,N,N,4741.0622,N,12224.6030,W,0.3,255,-0.01,V*25
$PGRME,2.4,M,2.8,M,3.7,M*26
$HCHDG,268.1,0.0,E,,*24
$HCHDG,268.0,0.0,E,,*25
$IIRMC,210000,A,4741.201,N,12224.263,W,00.0,129,050513,16,E,A*17
$GPRMC,210034.0,A,4741.20100,N,12224.26307,W,000.01,129.2,050513,016.6,E,D*2E
$PGRME,2.4,M,2.8,M,3.7,M*26
$IIVHW,,,,,00.0,N,,*19
$HCHDG,268.0,0.0,E,,*25
$IIVLW,06236,N,000.0,N*52
$IIDPT,007.1,-1.0,*46
$HCHDG,268.0,0.0,E,,*25
$GPRMC,210034.2,A,4741.20100,N,12224.26307,W,000.01,129.2,050513,016.6,E,D*2C
$PGRME,2.4,M,2.8,M,3.7,M*26
$IIGLL,4741.201,N,12224.263,W,210000,A,A*44
$YXXDR,A,4.8,D,PTCH,A,-1.0,D,ROLL*7D
$PTAK,FFD1,1.0*54
$IIMTW,+09.0,C*31
$HCHDG,268.0,0.0,E,,*25
$HCHDG,268.0,0.0,E,,*25
$IIRMB,A,0.00,L,,N   ,,,,,000.3,255,,V,A*28
$GPRMC,210034.4,A,4741.20100,N,12224.26307,W,000.01,129.2,050513,016.6,E,D*2A
$PGRME,2.4,M,2.8,M,3.7,M*26
$HCHDG,267.9,0.0,E,,*23
$HCHDG,267.8,0.0,E,,*22
$GPRMC,210034.6,A,4741.20100,N,12224.26307,W,000.00,129.2,050513,016.6,E,D*29
$PGRME,2.4,M,2.8,M,3.7,M*26
$HCHDG,267.8,0.0,E,,*22
$YXXDR,A,4.5,D,PTCH,A,-1.4,D,ROLL*74
$HCHDG,267.8,0.0,E,,*22
$GPRMC,210034.8,A,4741.20100,N,12224.26307,W,000.00,129.2,050513,016.6,E,D*27
$PGRME,2.4,M,2.8,M,3.7,M*26
$HCHDG,267.8,0.0,E,,*22
$HCHDG,267.8,0.0,E,,*22
$IIRMC,210000,A,4741.201,N,12224.263,W,00.0,129,050513,16,E,A*17
$GPRMC,210035.0,A,4741.20101,N,12224.26307,W,000.01,129.2,050513,016.6,E,D*2E
$PGRME,2.4,M,2.8,M,3.7,M*26
$IIVHW,,,,,00.0,N,,*19
$HCHDG,267.8,0.0,E,,*22
$IIVLW,06236,N,000.0,N*52
$IIDPT,007.1,-1.0,*46
$HCHDG,267.7,0.0,E,,*2D
$GPRMC,210035.2,A,4741.20100,N,12224.26307,W,000.00,129.2,050513,016.6,E,D*2C
$PGRME,2.4,M,2.8,M,3.7,M*26
$IIGLL,4741.201,N,12224.263,W,210000,A,A*44
$YXXDR,A,4.4,D,PTCH,A,-1.9,D,ROLL*78
$IIMTW,+09.0,C*31
$HCHDG,267.7,0.0,E,,*2D
$HCHDG,267.7,0.0,E,,*2D
$IIRMB,A,0.00,L,,N   ,,,,,000.3,255,,V,A*28
$GPRMC,210035.4,A,4741.20100,N,12224.26307,W,000.01,129.2,050513,016.6,E,D*2B
$GPRMB,A,0.00,L,N,N,4741.0622,N,12224.6030,W,0.3,255,-0.01,V*25
$PGRME,2.4,M,2.8,M,3.7,M*26
$HCHDG,267.7,0.0,E,,*2D
$HCHDG,267.7,0.0,E,,*2D
$GPRMC,210035.6,A,4741.20100,N,12224.26307,W,000.00,129.2,050513,016.6,E,D*28
$PGRME,2.4,M,2.8,M,3.7,M*26
$HCHDG,267.6,0.0,E,,*2C
$YXXDR,A,4.5,D,PTCH,A,-0.8,D,ROLL*79
$PTAK,FFD1,0.8*5D
$HCHDG,267.7,0.0,E,,*2D
$GPRMC,210035.8,A,4741.20100,N,12224.26307,W,000.00,129.2,050513,016.6,E,D*26
$PGRME,2.4,M,2.8,M,3.7,M*26
$HCHDG,267.7,0.0,E,,*2D
$HCHDG,267.7,0.0,E,,*2D
$IIRMC,210000,A,4741.201,N,12224.263,W,00.0,129,050513,16,E,A*17
$GPRMC,210036.0,A,4741.20100,N,12224.26307,W,000.02,129.2,050513,016.6,E,D*2F
$PGRME,2.4,M,2.8,M,3.7,M*26
$IIVHW,,,,,00.0,N,,*19
$HCHDG,267.8,0.0,E,,*22
$IIVLW,06236,N,000.0,N*52
$IIDPT,007.1,-1.0,*46
$HCHDG,267.7,0.0,E,,*2D
$GPRMC,210036.2,A,4741.20100,N,12224.26307,W,000.01,129.2,050513,016.6,E,D*2E
$PGRME,2.4,M,2.8,M,3.7,M*26
$IIGLL,4741.201,N,12224.263,W,210000,A,A*44
$YXXDR,A,4.7,D,PTCH,A,-0.4,D,ROLL*77
$IIMTW,+09.0,C*31
$HCHDG,267.8,0.0,E,,*22
$HCHDG,267.7,0.0,E,,*2D
$IIRMB,A,0.00,L,,N   ,,,,,000.3,255,,V,A*28
$GPRMC,210036.4,A,4741.20100,N,12224.26307,W,000.01,129.2,050513,016.6,E,D*28
$PGRME,2.4,M,2.8,M,3.7,M*26
$HCHDG,267.8,0.0,E,,*22
$HCHDG,267.8,0.0,E,,*22
$GPRMC,210036.6,A,4741.20100,N,12224.26307,W,000.01,129.2,050513,016.6,E,D*2A
$GPRMB,A,0.00,L,N,N,4741.0622,N,12224.6030,W,0.3,255,-0.01,V*25
$PGRME,2.4,M,2.8,M,3.7,M*26
$HCHDG,267.9,0.0,E,,*23
$YXXDR,A,4.5,D,PTCH,A,-0.8,D,ROLL*79
$PTAK,FFD1,0.8*5D
$HCHDG,268.0,0.0,E,,*25
$GPRMC,210036.8,A,4741.20100,N,12224.26307,W,000.00,129.2,050513,016.6,E,D*25
$PGRME,2.4,M,2.8,M,3.7,M*26
$HCHDG,268.0,0.0,E,,*25
$HCHDG,268.0,0.0,E,,*25
$IIRMC,210000,A,4741.201,N,12224.263,W,00.0,129,050513,16,E,A*17
$GPRMC,210037.0,A,4741.20100,N,12224.26307,W,000.01,129.2,050513,016.6,E,D*2D
$PGRME,2.4,M,2.8,M,3.7,M*26
$IIVHW,,,,,00.0,N,,*19
$HCHDG,268.1,0.0,E,,*24
$IIVLW,06236,N,000.0,N*52
$IIDPT,007.1,-1.0,*46
$HCHDG,268.0,0.0,E,,*25
$GPRMC,210037.2,A,4741.20100,N,12224.26307,W,000.01,129.2,050513,016.6,E,D*2F
$PGRME,2.4,M,2.8,M,3.7,M*26
$IIGLL,4741.201,N,12224.263,W,210000,A,A*44
$YXXDR,A,4.5,D,PTCH,A,-1.3,D,ROLL*73
$IIMTW,+09.0,C*31
$HCHDG,268.0,0.0,E,,*25
$HCHDG,268.2,0.0,E,,*27
$IIRMB,A,0.00,L,,N   ,,,,,000.3,255,,V,A*28
$GPRMC,210037.4,A,4741.20100,N,12224.26307,W,000.00,129.2,050513,016.6,E,D*28
$PGRME,2.4,M,2.8,M,3.7,M*26
$HCHDG,268.2,0.0,E,,*27
$PTAK,FFP1,HEEL,@*07
$HCHDG,268.3,0.0,E,,*26
$GPRMC,210037.6,A,4741.20100,N,12224.26307,W,000.01,129.2,050513,016.6,E,D*2B
$PGRME,2.4,M,2.8,M,3.7,M*26
$HCHDG,268.2,0.0,E,,*27
$YXXDR,A,4.5,D,PTCH,A,-1.5,D,ROLL*75
$HCHDG,268.0,0.0,E,,*25
$GPRMC,210037.8,A,4741.20100,N,12224.26306,W,000.00,129.2,050513,016.6,E,D*25
$GPRMB,A,0.00,L,N,N,4741.0622,N,12224.6030,W,0.3,255,-0.00,V*24
$PGRME,2.4,M,2.8,M,3.7,M*26
$HCHDG,267.9,0.0,E,,*23
$HCHDG,267.9,0.0,E,,*23
$IIRMC,210000,A,4741.201,N,12224.263,W,00.0,129,050513,16,E,A*17
$GPRMC,210038.0,A,4741.20100,N,12224.26306,W,000.00,129.2,050513,016.6,E,D*22
$PGRME,2.4,M,2.8,M,3.7,M*26
$IIVHW,,,,,00.0,N,,*19
$HCHDG,267.9,0.0,E,,*23
$IIVLW,06236,N,000.0,N*52
$IIDPT,007.1,-1.0,*46
$HCHDG,267.9,0.0,E,,*23
$GPRMC,210038.2,A,4741.20100,N,12224.26306,W,000.01,129.2,050513,016.6,E,D*21
$PGRME,2.4,M,2.8,M,3.7,M*26
$IIGLL,4741.201,N,12224.263,W,210000,A,A*44
$YXXDR,A,4.4,D,PTCH,A,-1.2,D,ROLL*73
$PTAK,FFD1,1.2*56
$IIMTW,+09.0,C*31
$HCHDG,267.9,0.0,E,,*23
$HCHDG,267.9,0.0,E,,*23
$IIRMB,A,0.00,L,,N   ,,,,,000.3,255,,V,A*28
$GPRMC,210038.4,A,4741.20100,N,12224.26306,W,000.01,129.2,050513,016.6,E,D*27
$PGRME,2.4,M,2.7,M,3.7,M*29
$HCHDG,267.9,0.0,E,,*23
$HCHDG,267.9,0.0,E,,*23
$GPRMC,210038.6,A,4741.20100,N,12224.26306,W,000.01,129.2,050513,016.6,E,D*25
$PGRME,2.4,M,2.7,M,3.7,M*29
$HCHDG,267.9,0.0,E,,*23
$YXXDR,A,4.5,D,PTCH,A,-1.7,D,ROLL*77
$HCHDG,267.9,0.0,E,,*23
$GPRMC,210038.8,A,4741.20100,N,12224.26306,W,000.01,129.2,050513,016.6,E,D*2B
$GPRMB,A,0.00,L,N,N,4741.0622,N,12224.6030,W,0.3,255,-0.01,V*25
$PGRME,2.4,M,2.7,M,3.7,M*29
$HCHDG,268.0,0.0,E,,*25
$HCHDG,267.9,0.0,E,,*23
$IIRMC,210000,A,4741.201,N,12224.263,W,00.0,129,050513,16,E,A*17
$GPRMC,210039.0,A,4741.20100,N,12224.26305,W,000.01,129.2,050513,016.6,E,D*21
$PGRME,2.4,M,2.7,M,3.7,M*29
$IIVHW,,,,,00.0,N,,*19
$HCHDG,267.9,0.0,E,,*23
$IIVLW,06236,N,000.0,N*52
$IIDPT,007.1,-1.0,*46
$HCHDG,267.9,0.0,E,,*23
$GPRMC,210039.2,A,4741.20100,N,12224.26305,W,000.01,129.2,050513,016.6,E,D*23
$PGRME,2.4,M,2.7,M,3.6,M*28
$IIGLL,4741.201,N,12224.263,W,210000,A,A*44
$YXXDR,A,4.5,D,PTCH,A,-1.8,D,ROLL*78
$IIMTW,+09.0,C*31
$HCHDG,267.8,0.0,E,,*22
$HCHDG,267.8,0.0,E,,*22
$IIRMB,A,0.00,L,,N   ,,,,,000.3,255,,V,A*28
$GPRMC,210039.4,A,4741.20100,N,12224.26305,W,000.01,129.2,050513,016.6,E,D*25
$PGRME,2.4,M,2.7,M,3.6,M*28
$HCHDG,267.7,0.0,E,,*2D
$HCHDG,267.6,0.0,E,,*2C
$GPRMC,210039.6,A,4741.20100,N,12224.26305,W,000.01,129.2,050513,016.6,E,D*27
$PGRME,2.4,M,2.7,M,3.6,M*28
$HCHDG,267.5,0.0,E,,*2F
$YXXDR,A,4.3,D,PTCH,A,-1.7,D,ROLL*71
$PTAK,FFD1,1.7*53
$HCHDG,267.5,0.0,E,,*2F
$GPRMC,210039.8,A,4741.20099,N,12224.26305,W,000.01,129.2,050513,016.6,E,D*28
$PGRME,2.4,M,2.7,M,3.6,M*28
$HCHDG,267.4,0.0,E,,*2E
$HCHDG,267.4,0.0,E,,*2E
$IIRMC,210000,A,4741.201,N,12224.263,W,00.0,129,050513,16,E,A*17
$GPRMC,210040.0,A,4741.20100,N,12224.26304,W,000.01,129.2,050513,016.6,E,D*2E
$GPRMB,A,0.00,L,N,N,4741.0622,N,12224.6030,W,0.3,255,-0.01,V*25
$PGRME,2.4,M,2.7,M,3.6,M*28
$IIVHW,,,,,00.0,N,,*19
$HCHDG,267.3,0.0,E,,*29
$IIVLW,06236,N,000.0,N*52
$IIDPT,007.1,-1.0,*46
$HCHDG,267.1,0.0,E,,*2B
$GPRMC,210040.2,A,4741.20100,N,12224.26304,W,000.01,129.2,050513,016.6,E,D*2C
$PGRME,2.4,M,2.7,M,3.6,M*28
$IIGLL,4741.201,N,12224.263,W,210000,A,A*44
$YXXDR,A,4.4,D,PTCH,A,-1.6,D,ROLL*77
$IIMTW,+09.0,C*31
$HCHDG,267.1,0.0,E,,*2B
$HCHDG,267.0,0.0,E,,*2A
$IIRMB,A,0.00,L,,N   ,,,,,000.3,255,,V,A*28
$GPRMC,210040.4,A,4741.20099,N,12224.26304,W,000.01,129.2,050513,016.6,E,D*2B
$PGRME,2.4,M,2.7,M,3.6,M*28
$HCHDG,266.9,0.0,E,,*22
$HCHDG,266.8,0.0,E,,*23
$GPRMC,210040.6,A,4741.20100,N,12224.26304,W,000.00,129.2,050513,016.6,E,D*29
$PGRME,2.4,M,2.7,M,3.6,M*28
$HCHDG,266.9,0.0,E,,*22
$YXXDR,A,4.7,D,PTCH,A,-1.3,D,ROLL*71
$PTAK,FFD1,1.3*57
$HCHDG,266.8,0.0,E,,*23
$GPRMC,210040.8,A,4741.20100,N,12224.26304,W,000.02,129.2,050513,016.6,E,D*25
$PGRME,2.4,M,2.7,M,3.6,M*28
$HCHDG,266.9,0.0,E,,*22
$HCHDG,266.8,0.0,E,,*23
$IIRMC,210000,A,4741.201,N,12224.263,W,00.0,129,050513,16,E,A*17
$GPRMC,210041.0,A,4741.20100,N,12224.26304,W,000.01,129.2,050513,016.6,E,D*2F
$PGRME,2.4,M,2.6,M,3.6,M*29
$IIVHW,,,,,00.0,N,,*19
$HCHDG,266.7,0.0,E,,*2C
$IIVLW,06236,N,000.0,N*52
$IIDPT,007.1,-1.0,*46
$HCHDG,266.8,0.0,E,,*23
$GPRMC,210041.2,A,4741.20100,N,12224.26304,W,000.01,129.2,050513,016.6,E,D*2D
$GPRMB,A,0.00,L,N,N,4741.0622,N,12224.6030,W,0.3,255,-0.01,V*25
$PGRME,2.4,M,2.6,M,3.6,M*29
$IIGLL,4741.201,N,12224.263,W,210000,A,A*44
$YXXDR,A,4.4,D,PTCH,A,-1.9,D,ROLL*78
$IIMTW,+09.0,C*31
$HCHDG,266.5,0.0,E,,*2E
$HCHDG,266.5,0.0,E,,*2E
$IIRMB,A,0.00,L,,N   ,,,,,000.3,255,,V,A*28
$GPRMC,210041.4,A,4741.20100,N,12224.26304,W,000.00,129.2,050513,016.6,E,D*2A
$PGRME,2.5,M,2.8,M,3.7,M*27
$HCHDG,266.5,0.0,E,,*2E
$PTAK,FFP1,HEEL,@*07
$HCHDG,266.7,0.0,E,,*2C
$GPRMC,210041.6,A,4741.20100,N,12224.26304,W,000.01,129.2,050513,016.6,E,D*29
$PGRME,2.5,M,2.8,M,3.7,M*27
$HCHDG,266.7,0.0,E,,*2C
$YXXDR,A,4.5,D,PTCH,A,-1.9,D,ROLL*79
$PTAK,FFD1,1.9*5D
$HCHDG,266.7,0.0,E,,*2C
$GPRMC,210041.8,A,4741.20100,N,12224.26304,W,000.00,129.2,050513,016.6,E,D*26
$PGRME,2.5,M,2.8,M,3.8,M*28
$HCHDG,266.7,0.0,E,,*2C
$HCHDG,266.7,0.0,E,,*2C
$IIRMC,210000,A,4741.201,N,12224.263,W,00.0,129,050513,16,E,A*17
$GPRMC,210042.0,A,4741.20100,N,12224.26304,W,000.01,129.2,050513,016.6,E,D*2C
$PGRME,2.5,M,2.8,M,3.8,M*28
$IIVHW,,,,,00.0,N,,*19
$HCHDG,267.1,0.0,E,,*2B
$IIVLW,06236,N,000.0,N*52
$IIDPT,007.1,-1.0,*46
$HCHDG,267.2,0.0,E,,*28
$GPRMC,210042.2,A,4741.20101,N,12224.26305,W,000.00,129.2,050513,016.6,E,D*2F
$GPRMB,A,0.00,L,N,N,4741.0622,N,12224.6030,W,0.3,255,-0.00,V*24
$PGRME,2.5,M,2.8,M,3.8,M*28
$IIGLL,4741.201,N,12224.263,W,210000,A,A*44
$YXXDR,A,4.6,D,PTCH,A,-1.5,D,ROLL*76
$IIMTW,+09.0,C*31
$HCHDG,267.2,0.0,E,,*28
$HCHDG,267.2,0.0,E,,*28
$IIRMB,A,0.00,L,,N   ,,,,,000.3,255,,V,A*28
$GPRMC,210042.4,A,4741.20101,N,12224.26305,W,000.01,129.2,050513,016.6,E,D*28
$PGRME,2.5,M,2.8,M,3.8,M*28
$HCHDG,267.2,0.0,E,,*28
$HCHDG,267.2,0.0,E,,*28
$GPRMC,210042.6,A,4741.20102,N,12224.26305,W,000.01,129.2,050513,016.6,E,D*29
$PGRME,2.6,M,2.8,M,3.8,M*2B
$HCHDG,267.1,0.0,E,,*2B
$YXXDR,A,4.7,D,PTCH,A,-1.4,D,ROLL*76
$HCHDG,267.1,0.0,E,,*2B
$GPRMC,210042.8,A,4741.20102,N,12224.26305,W,000.01,129.2,050513,016.6,E,D*27
$PGRME,2.6,M,2.8,M,3.8,M*2B
$HCHDG,267.0,0.0,E,,*2A
$HCHDG,267.2,0.0,E,,*28
$IIRMC,210000,A,4741.201,N,12224.263,W,00.0,129,050513,16,E,A*17
$GPRMC,210043.0,A,4741.20102,N,12224.26305,W,000.00,129.2,050513,016.6,E,D*2F
$PGRME,2.6,M,2.8,M,3.8,M*2B
$IIVHW,,,,,00.0,N,,*19
$HCHDG,267.2,0.0,E,,*28
$IIVLW,06236,N,000.0,N*52
$IIDPT,007.1,-1.0,*46
$HCHDG,267.2,0.0,E,,*28
$GPRMC,210043.2,A,4741.20102,N,12224.26305,W,000.01,129.2,050513,016.6,E,D*2C
$PGRME,2.6,M,2.8,M,3.8,M*2B
$IIGLL,4741.201,N,12224.263,W,210000,A,A*44
$YXXDR,A,4.6,D,PTCH,A,-1.5,D,ROLL*76
$PTAK,FFD1,1.5*51
$IIMTW,+09.0,C*31
$HCHDG,267.1,0.0,E,,*2B
$HCHDG,267.1,0.0,E,,*2B
$IIRMB,A,0.00,L,,N   ,,,,,000.3,255,,V,A*28
$GPRMC,210043.4,A,4741.20102,N,12224.26305,W,000.01,129.2,050513,016.6,E,D*2A
$GPRMB,A,0.00,L,N,N,4741.0622,N,12224.6030,W,0.3,255,-0.01,V*25
$PGRME,2.6,M,2.8,M,3.9,M*2A
$HCHDG,267.1,0.0,E,,*2B
$HCHDG,266.9,0.0,E,,*22
$GPRMC,210043.6,A,4741.20102,N,12224.26305,W,000.00,129.2,050513,016.6,E,D*29
$PGRME,2.6,M,2.8,M,3.9,M*2A
$HCHDG,266.9,0.0,E,,*22
$YXXDR,A,4.4,D,PTCH,A,-2.4,D,ROLL*76
$HCHDG,266.9,0.0,E,,*22
$GPRMC,210043.8,A,4741.20102,N,12224.26306,W,000.01,129.2,050513,016.6,E,D*25
$PGRME,2.6,M,2.9,M,3.9,M*2B
$HCHDG,266.9,0.0,E,,*22
$HCHDG,266.9,0.0,E,,*22
$IIRMC,210000,A,4741.201,N,12224.263,W,00.0,129,050513,16,E,A*17
$GPRMC,210044.0,A,4741.20102,N,12224.26306,W,000.00,129.2,050513,016.6,E,D*2B
$PGRME,2.7,M,2.9,M,3.9,M*2A
$IIVHW,,,,,00.0,N,,*19
$PGRMT,GPS 18x-5Hz software ver. 3.20,,,,,,,,*30
$HCHDG,266.9,0.0,E,,*22
$IIVLW,06236,N,000.0,N*52
$IIDPT,007.1,-1.0,*46
$HCHDG,267.0,0.0,E,,*2A
$GPRMC,210044.2,A,4741.20102,N,12224.26305,W,000.01,129.2,050513,016.6,E,D*2B
$PGRME,2.7,M,2.9,M,3.9,M*2A
$IIGLL,4741.201,N,12224.263,W,210000,A,A*44
$YXXDR,A,4.5,D,PTCH,A,-2.0,D,ROLL*73
$IIMTW,+09.0,C*31
$HCHDG,266.8,0.0,E,,*23
$HCHDG,266.8,0.0,E,,*23
$IIRMB,A,0.00,L,,N   ,,,,,000.3,255,,V,A*28
$GPRMC,210044.4,A,4741.20102,N,12224.26305,W,000.00,129.2,050513,016.6,E,D*2C
$GPRMB,A,0.00,L,N,N,4741.0622,N,12224.6030,W,0.3,255,-0.00,V*24
$PGRME,2.7,M,2.9,M,3.9,M*2A
$HCHDG,266.8,0.0,E,,*23
$HCHDG,266.8,0.0,E,,*23
$GPRMC,210044.6,A,4741.20102,N,12224.26305,W,000.01,129.2,050513,016.6,E,D*2F
$PGRME,2.7,M,2.9,M,3.9,M*2A
$HCHDG,266.8,0.0,E,,*23
$YXXDR,A,4.6,D,PTCH,A,-1.0,D,ROLL*73
$PTAK,FFD1,1.0*54
$HCHDG,267.1,0.0,E,,*2B
$GPRMC,210044.8,A,4741.20102,N,12224.26305,W,000.00,129.2,050513,016.6,E,D*20
$PGRME,2.7,M,2.9,M,3.9,M*2A
$HCHDG,267.1,0.0,E,,*2B
$HCHDG,267.1,0.0,E,,*2B
$IIRMC,210000,A,4741.201,N,12224.263,W,00.0,129,050513,16,E,A*17
$GPRMC,210045.0,A,4741.20102,N,12224.26306,W,000.01,129.2,050513,016.6,E,D*2B
$PGRME,2.7,M,2.9,M,4.0,M*24
$IIVHW,,,,,00.0,N,,*19
$HCHDG,267.2,0.0,E,,*28
$IIVLW,06236,N,000.0,N*52
$IIDPT,007.1,-1.0,*46
$HCHDG,267.2,0.0,E,,*28
$GPRMC,210045.2,A,4741.20103,N,12224.26306,W,000.01,129.2,050513,016.6,E,D*28
$PGRME,2.7,M,2.9,M,4.0,M*24
$IIGLL,4741.201,N,12224.263,W,210000,A,A*44
$YXXDR,A,4.7,D,PTCH,A,-1.6,D,ROLL*74
$IIMTW,+09.0,C*31
$HCHDG,267.2,0.0,E,,*28
$HCHDG,267.2,0.0,E,,*28
$IIRMB,A,0.00,L,,N   ,,,,,000.3,255,,V,A*28
$GPRMC,210045.4,A,4741.20103,N,12224.26306,W,000.00,129.2,050513,016.6,E,D*2F
$PGRME,2.7,M,2.9,M,4.0,M*24
$HCHDG,267.3,0.0,E,,*29
$HCHDG,267.3,0.0,E,,*29
$GPRMC,210045.6,A,4741.20102,N,12224.26306,W,000.00,129.2,050513,016.6,E,D*2C
$GPRMB,A,0.00,L,N,N,4741.0622,N,12224.6030,W,0.3,255,-0.00,V*24
$PTAK,FFP1,HEEL,@*07
$PGRME,2.7,M,2.9,M,4.0,M*24
$HCHDG,267.4,0.0,E,,*2E
$YXXDR,A,4.7,D,PTCH,A,-1.6,D,ROLL*74
$PTAK,FFD1,1.6*52
$HCHDG,267.5,0.0,E,,*2F
$GPRMC,210045.8,A,4741.20102,N,12224.26306,W,000.00,129.2,050513,016.6,E,D*22
$PGRME,2.7,M,2.9,M,4.0,M*24
$HCHDG,267.5,0.0,E,,*2F
$HCHDG,267.6,0.0,E,,*2C
$IIRMC,210000,A,4741.201,N,12224.263,W,00.0,129,050513,16,E,A*17
$GPRMC,210046.0,A,4741.20102,N,12224.26306,W,000.01,129.2,050513,016.6,E,D*28
$PGRME,2.7,M,2.9,M,4.0,M*24
$IIVHW,,,,,00.0,N,,*19
$HCHDG,267.7,0.0,E,,*2D
$IIVLW,06236,N,000.0,N*52
$IIDPT,007.1,-1.0,*46
$HCHDG,267.9,0.0,E,,*23
$GPRMC,210046.2,A,4741.20102,N,12224.26306,W,000.00,129.2,050513,016.6,E,D*2B
$PGRME,2.8,M,2.9,M,4.0,M*2B
$IIGLL,4741.201,N,12224.263,W,210000,A,A*44
$YXXDR,A,4.5,D,PTCH,A,-1.5,D,ROLL*75
$IIMTW,+09.0,C*31
$HCHDG,267.9,0.0,E,,*23
$HCHDG,267.9,0.0,E,,*23
$IIRMB,A,0.00,L,,N   ,,,,,000.3,255,,V,A*28
$GPRMC,210046.4,A,4741.20102,N,12224.26305,W,000.00,129.2,050513,016.6,E,D*2E
$PGRME,2.8,M,2.9,M,4.0,M*2B
$HCHDG,268.1,0.0,E,,*24
$HCHDG,268.1,0.0,E,,*24
$GPRMC,210046.6,A,4741.20102,N,12224.26305,W,000.01,129.2,050513,016.6,E,D*2D
$PGRME,2.8,M,2.9,M,4.0,M*2B
$HCHDG,268.1,0.0,E,,*24
$YXXDR,A,4.6,D,PTCH,A,-1.3,D,ROLL*70
$HCHDG,268.0,0.0,E,,*25
$GPRMC,210046.8,A,4741.20102,N,12224.26305,W,000.01,129.2,050513,016.6,E,D*23
$GPRMB,A,0.00,L,N,N,4741.0622,N,12224.6030,W,0.3,255,-0.01,V*25
$PGRME,2.8,M,2.9,M,4.0,M*2B
$HCHDG,268.1,0.0,E,,*24
$HCHDG,268.3,0.0,E,,*26
$IIRMC,210000,A,4741.201,N,12224.263,W,00.0,129,050513,16,E,A*17
$GPRMC,210047.0,A,4741.20102,N,12224.26306,W,000.01,129.2,050513,016.6,E,D*29
$PGRME,2.8,M,2.9,M,4.0,M*2B
$IIVHW,,,,,00.0,N,,*19
$HCHDG,268.2,0.0,E,,*27
$IIVLW,06236,N,000.0,N*52
$IIDPT,007.1,-1.0,*46
$HCHDG,268.3,0.0,E,,*26
$GPRMC,210047.2,A,4741.20103,N,12224.26306,W,000.00,129.2,050513,016.6,E,D*2B
$PGRME,2.8,M,2.9,M,4.0,M*2B
$IIGLL,4741.201,N,12224.263,W,210000,A,A*44
$YXXDR,A,4.5,D,PTCH,A,-0.8,D,ROLL*79
$PTAK,FFD1,0.8*5D
$IIMTW,+09.0,C*31
$HCHDG,268.3,0.0,E,,*26
$HCHDG,268.2,0.0,E,,*27
$IIRMB,A,0.00,L,,N   ,,,,,000.3,255,,V,A*28
$GPRMC,210047.4,A,4741.20103,N,12224.26305,W,000.00,129.2,050513,016.6,E,D*2E
$PGRME,2.8,M,2.9,M,4.0,M*2B
$HCHDG,268.4,0.0,E,,*21
$HCHDG,268.4,0.0,E,,*21
$GPRMC,210047.6,A,4741.20103,N,12224.26305,W,000.00,129.2,050513,016.6,E,D*2C
$PGRME,2.8,M,2.9,M,4.0,M*2B
$HCHDG,268.5,0.0,E,,*20
$YXXDR,A,4.5,D,PTCH,A,-0.8,D,ROLL*79
$HCHDG,268.4,0.0,E,,*21
$GPRMC,210047.8,A,4741.20103,N,12224.26305,W,000.00,129.2,050513,016.6,E,D*22
$GPRMB,A,0.00,L,N,N,4741.0622,N,12224.6030,W,0.3,255,-0.00,V*24
$PGRME,2.8,M,2.9,M,4.0,M*2B
$HCHDG,268.5,0.0,E,,*20
$HCHDG,268.7,0.0,E,,*22
$IIRMC,210000,A,4741.201,N,12224.263,W,00.0,129,050513,16,E,A*17
$GPRMC,210048.0,A,4741.20103,N,12224.26305,W,000.00,129.2,050513,016.6,E,D*25
$PGRME,2.8,M,2.9,M,4.0,M*2B
$IIVHW,,,,,00.0,N,,*19
$HCHDG,268.7,0.0,E,,*22
$IIVLW,06236,N,000.0,N*52
$IIDPT,007.1,-1.0,*46
$HCHDG,268.8,0.0,E,,*2D
$GPRMC,210048.2,A,4741.20103,N,12224.26305,W,000.00,129.2,050513,016.6,E,D*27
$PGRME,2.8,M,2.9,M,4.0,M*2B
$IIGLL,4741.201,N,12224.263,W,210000,A,A*44
$YXXDR,A,4.4,D,PTCH,A,-1.4,D,ROLL*75
$IIMTW,+09.0,C*31
$HCHDG,268.9,0.0,E,,*2C
$HCHDG,269.0,0.0,E,,*24
$IIRMB,A,0.00,L,,N   ,,,,,000.3,255,,V,A*28
$GPRMC,210048.4,A,4741.20103,N,12224.26305,W,000.00,129.2,050513,016.6,E,D*21
$PGRME,2.8,M,2.9,M,4.0,M*2B
$HCHDG,269.0,0.0,E,,*24
$HCHDG,268.8,0.0,E,,*2D
$GPRMC,210048.6,A,4741.20103,N,12224.26305,W,000.01,129.2,050513,016.6,E,D*22
$PGRME,2.8,M,2.8,M,4.0,M*2A
$HCHDG,269.0,0.0,E,,*24
$YXXDR,A,4.5,D,PTCH,A,-1.7,D,ROLL*77
$PTAK,FFD1,1.7*53
$HCHDG,269.0,0.0,E,,*24
$GPRMC,210048.8,A,4741.20103,N,12224.26305,W,000.00,129.2,050513,016.6,E,D*2D
$GPRMB,A,0.00,L,N,N,4741.0622,N,12224.6030,W,0.3,255,-0.00,V*24
$PGRME,2.8,M,2.8,M,4.0,M*2A
$HCHDG,269.1,0.0,E,,*25
$HCHDG,269.0,0.0,E,,*24
$IIRMC,210000,A,4741.201,N,12224.263,W,00.0,129,050513,16,E,A*17
$GPRMC,210049.0,A,4741.20103,N,12224.26305,W,000.00,129.2,050513,016.6,E,D*24
$PGRME,2.8,M,2.8,M,4.0,M*2A
$IIVHW,,,,,00.0,N,,*19
$HCHDG,269.1,0.0,E,,*25
$IIVLW,06236,N,000.0,N*52
$IIDPT,007.1,-1.0,*46
$HCHDG,269.0,0.0,E,,*24
$GPRMC,210049.2,A,4741.20103,N,12224.26305,W,000.00,129.2,050513,016.6,E,D*26
$PGRME,2.8,M,2.8,M,4.0,M*2A
$IIGLL,4741.201,N,12224.263,W,210000,A,A*44
$YXXDR,A,4.5,D,PTCH,A,-1.4,D,ROLL*74
$IIMTW,+09.0,C*31
$HCHDG,269.0,0.0,E,,*24
$HCHDG,269.2,0.0,E,,*26
$IIRMB,A,0.00,L,,N   ,,,,,000.3,255,,V,A*28
$GPRMC,210049.4,A,4741.20103,N,12224.26305,W,000.00,129.2,050513,016.6,E,D*20
$PGRME,2.8,M,2.8,M,4.0,M*2A
$HCHDG,269.2,0.0,E,,*26
$HCHDG,269.3,0.0,E,,*27
$GPRMC,210049.6,A,4741.20103,N,12224.26305,W,000.00,129.2,050513,016.6,E,D*22
$PTAK,FFP1,HEEL,@*07
$PGRME,2.8,M,2.8,M,4.0,M*2A
$HCHDG,269.2,0.0,E,,*26
$YXXDR,A,4.6,D,PTCH,A,-1.3,D,ROLL*70
$HCHDG,269.1,0.0,E,,*25
$GPRMC,210049.8,A,4741.20103,N,12224.26304,W,000.01,129.2,050513,016.6,E,D*2C
$PGRME,2.8,M,2.8,M,4.0,M*2A
$HCHDG,268.9,0.0,E,,*2C
$HCHDG,268.9,0.0,E,,*2C
$IIRMC,210000,A,4741.201,N,12224.263,W,00.0,129,050513,16,E,A*17
$GPRMC,210050.0,A,4741.20103,N,12224.26304,W,000.00,129.2,050513,016.6,E,D*2D
$GPRMB,A,0.00,L,N,N,4741.0622,N,12224.6030,W,0.3,255,-0.00,V*24
$PGRME,2.8,M,2.8,M,4.0,M*2A
$IIVHW,,,,,00.0,N,,*19
$HCHDG,268.8,0.0,E,,*2D
$IIVLW,06236,N,000.0,N*52
$IIDPT,007.1,-1.0,*46
$HCHDG,268.7,0.0,E,,*22
$GPRMC,210050.2,A,4741.20103,N,12224.26304,W,000.01,129.2,050513,016.6,E,D*2E
$PGRME,2.8,M,2.8,M,4.0,M*2A
$IIGLL,4741.201,N,12224.263,W,210000,A,A*44
$YXXDR,A,4.4,D,PTCH,A,-1.7,D,ROLL*76
$PTAK,FFD1,1.7*53
$IIMTW,+09.0,C*31
$HCHDG,268.7,0.0,E,,*22
$HCHDG,268.6,0.0,E,,*23
$IIRMB,A,0.00,L,,N   ,,,,,000.3,255,,V,A*28
$GPRMC,210050.4,A,4741.20103,N,12224.26304,W,000.00,129.2,050513,016.6,E,D*29
$PGRME,2.8,M,2.8,M,4.0,M*2A
$HCHDG,268.5,0.0,E,,*20
$HCHDG,268.4,0.0,E,,*21
$GPRMC,210050.6,A,4741.20103,N,12224.26304,W,000.01,129.2,050513,016.6,E,D*2A
$PGRME,2.8,M,2.8,M,4.0,M*2A
$HCHDG,268.2,0.0,E,,*27
$YXXDR,A,4.5,D,PTCH,A,-2.2,D,ROLL*71
$HCHDG,268.3,0.0,E,,*26
$GPRMC,210050.8,A,4741.20103,N,12224.26304,W,000.01,129.2,050513,016.6,E,D*24
$PGRME,2.8,M,2.8,M,4.0,M*2A
$HCHDG,268.1,0.0,E,,*24
$HCHDG,267.9,0.0,E,,*23
$IIRMC,210000,A,4741.201,N,12224.263,W,00.0,129,050513,16,E,A*17
$GPRMC,210051.0,A,4741.20103,N,12224.26304,W,000.01,129.2,050513,016.6,E,D*2D
$GPRMB,A,0.00,L,N,N,4741.0622,N,12224.6030,W,0.3,255,-0.01,V*25
$PGRME,2.8,M,2.8,M,4.0,M*2A
$IIVHW,,,,,00.0,N,,*19
$HCHDG,267.8,0.0,E,,*22
$IIVLW,06236,N,000.0,N*52
$IIDPT,007.1,-1.0,*46
$HCHDG,267.7,0.0,E,,*2D
$GPRMC,210051.2,A,4741.20103,N,12224.26304,W,000.02,129.2,050513,016.6,E,D*2C
$PGRME,2.8,M,2.8,M,4.0,M*2A
$IIGLL,4741.201,N,12224.263,W,210000,A,A*44
$YXXDR,A,4.8,D,PTCH,A,-2.2,D,ROLL*7C
$PTAK,FFD1,2.2*55
