$YXXDR*4F
$PGRME,2.4,M,2.4,M,3.4,M*29
$HCHDG,319.6,0.0,E,,*24
$HCHDG,319.7,0.0,E,,*25
$GPRMC,030000.6,A,4742.39458,N,12225.26098,W,005.75,170.0,170513,016.6,E,D*23
$GPRMB,A,-0.44,L,,N,4741.0622,N,12224.6030,W,1.4,162,5.69,V*61
$PGRME,2.4,M,2.4,M,3.4,M*29
$IIVHW,,,,,00.0,N,,*19
$HCHDG,320.0,0.0,E,,*28
$IIVLW,06236,N,000.0,N*52
$HCHDG,320.1,0.0,E,,*29
$GPRMC,030000.8,A,4742.39422,N,12225.26096,W,005.71,168.9,170513,016.6,E,D*2A
$PGRME,2.4,M,2.4,M,3.4,M*29
$IIGLL,4742.396,N,12225.261,W,025900,A,A*46
$IIMTW,+09.0,C*31
$HCHDG,320.5,0.0,E,,*2D
$YXXDR*4F
$IIRMB,A,,,,N   ,,,,,001.4,162,,V,A*7B
$HCHDG,320.8,0.0,E,,*20
$GPRMC,030001.0,A,4742.39387,N,12225.26092,W,005.63,166.9,170513,016.6,E,D*22
$PGRME,2.4,M,2.4,M,3.4,M*29
$IIRMC,025900,A,4742.396,N,12225.261,W,05.4,168,160513,16,E,A*13
$HCHDG,321.2,0.0,E,,*2B
$HCHDG,321.4,0.0,E,,*2D
$GPRMC,030001.2,A,4742.39357,N,12225.26077,W,005.83,168.5,170513,016.6,E,D*2A
$PGRME,2.4,M,2.4,M,3.4,M*29
$HCHDG,321.8,0.0,E,,*21
$PTAK,FFP1,HEEL,@*07
$HCHDG,322.1,0.0,E,,*2B
$GPRMC,030001.4,A,4742.39328,N,12225.26055,W,005.78,166.6,170513,016.6,E,D*2D
$PGRME,2.4,M,2.4,M,3.4,M*29
$YXXDR*4F
$HCHDG,322.4,0.0,E,,*2E
$HCHDG,322.7,0.0,E,,*2D
$GPRMC,030001.6,A,4742.39300,N,12225.26039,W,005.74,166.5,170513,016.6,E,D*20
$PGRME,2.4,M,2.4,M,3.4,M*29
$IIVHW,,,,,00.0,N,,*19
$HCHDG,322.9,0.0,E,,*23
$IIVLW,06236,N,000.0,N*52
$HCHDG,323.2,0.0,E,,*29
$GPRMC,030001.8,A,4742.39261,N,12225.26026,W,005.77,167.0,170513,016.6,E,D*21
$GPRMB,A,-0.44,L,,N,4741.0622,N,12224.6030,W,1.4,162,5.74,V*6D
$PGRME,2.4,M,2.4,M,3.4,M*29
$IIGLL,4742.394,N,12225.260,W,030000,A,A*48
$IIMTW,+09.0,C*31
$HCHDG,323.3,0.0,E,,*28
$YXXDR*4F
$IIRMB,A,,,,N   ,,,,,001.4,162,,V,A*7B
$HCHDG,323.4,0.0,E,,*2F
$GPRMC,030002.0,A,4742.39220,N,12225.26007,W,005.73,165.1,170513,016.6,E,D*2B
$PGRME,2.4,M,2.4,M,3.4,M*29
$IIRMC,030000,A,4742.394,N,12225.260,W,05.7,171,160513,16,E,A*16
$HCHDG,323.5,0.0,E,,*2E
$HCHDG,323.7,0.0,E,,*2C
$GPRMC,030002.2,A,4742.39184,N,12225.25990,W,005.70,165.0,170513,016.6,E,D*22
$PGRME,2.4,M,2.4,M,3.4,M*29
$HCHDG,323.7,0.0,E,,*2C
$HCHDG,323.7,0.0,E,,*2C
$GPRMC,030002.4,A,4742.39151,N,12225.25979,W,005.69,164.2,170513,016.6,E,D*20
$PGRME,2.4,M,2.4,M,3.4,M*29
$YXXDR*4F
$HCHDG,323.9,0.0,E,,*22
$HCHDG,323.8,0.0,E,,*23
$GPRMC,030002.6,A,4742.39111,N,12225.25967,W,005.68,164.3,170513,016.6,E,D*29
$PGRME,2.4,M,2.4,M,3.4,M*29
$IIVHW,,,,,00.0,N,,*19
$HCHDG,323.8,0.0,E,,*23
$IIVLW,06236,N,000.0,N*52
$HCHDG,323.8,0.0,E,,*23
$GPRMC,030002.8,A,4742.39082,N,12225.25948,W,005.64,165.8,170513,016.6,E,D*27
$GPRMB,A,-0.44,L,,N,4741.0622,N,12224.6030,W,1.4,162,5.62,V*6A
$PGRME,2.4,M,2.4,M,3.4,M*29
$IIGLL,4742.393,N,12225.260,W,030000,A,A*4F
$IIMTW,+09.0,C*31
$HCHDG,323.7,0.0,E,,*2C
$YXXDR*4F
$IIRMB,A,,,,N   ,,,,,001.4,162,,V,A*7B
$HCHDG,323.7,0.0,E,,*2C
$GPRMC,030003.0,A,4742.39043,N,12225.25933,W,005.62,166.5,170513,016.6,E,D*27
$PGRME,2.4,M,2.4,M,3.4,M*29
$IIRMC,030000,A,4742.393,N,12225.260,W,05.7,166,160513,16,E,A*17
$HCHDG,323.6,0.0,E,,*2D
$HCHDG,323.5,0.0,E,,*2E
$GPRMC,030003.2,A,4742.39011,N,12225.25924,W,005.63,166.3,170513,016.6,E,D*23
$PGRME,2.4,M,2.4,M,3.4,M*29
$HCHDG,323.3,0.0,E,,*28
$HCHDG,323.1,0.0,E,,*2A
$GPRMC,030003.4,A,4742.38981,N,12225.25915,W,005.63,166.6,170513,016.6,E,D*23
$YXXDR*4F
$PGRME,2.4,M,2.4,M,3.4,M*29
$HCHDG,322.9,0.0,E,,*23
$HCHDG,322.6,0.0,E,,*2C
$GPRMC,030003.6,A,4742.38945,N,12225.25902,W,005.62,166.7,170513,016.6,E,D*2F
$PGRME,2.4,M,2.4,M,3.4,M*29
$IIVHW,,,,,00.0,N,,*19
$HCHDG,322.4,0.0,E,,*2E
$IIVLW,06236,N,000.0,N*52
$HCHDG,322.1,0.0,E,,*2B
$GPRMC,030003.8,A,4742.38920,N,12225.25895,W,005.64,168.2,170513,016.6,E,D*20
$PGRME,2.4,M,2.4,M,3.4,M*29
$IIGLL,4742.391,N,12225.259,W,030000,A,A*47
$IIMTW,+09.0,C*31
$HCHDG,322.0,0.0,E,,*2A
$YXXDR*4F
$IIRMB,A,,,,N   ,,,,,001.4,162,,V,A*7B
$HCHDG,321.7,0.0,E,,*2E
$GPRMC,030004.0,A,4742.38894,N,12225.25894,W,005.65,167.9,170513,016.6,E,D*25
$GPRMB,A,-0.44,L,,N,4741.0622,N,12224.6030,W,1.4,162,5.62,V*6A
$PGRME,2.4,M,2.4,M,3.4,M*29
$IIRMC,030000,A,4742.391,N,12225.259,W,05.6,164,160513,16,E,A*1C
$HCHDG,321.6,0.0,E,,*2F
$HCHDG,321.4,0.0,E,,*2D
$GPRMC,030004.2,A,4742.38858,N,12225.25896,W,005.67,168.4,170513,016.6,E,D*25
$PGRME,2.4,M,2.4,M,3.4,M*29
$HCHDG,321.2,0.0,E,,*2B
$HCHDG,321.1,0.0,E,,*28
$YXXDR*4F
$GPRMC,030004.4,A,4742.38822,N,12225.25882,W,005.70,169.4,170513,016.6,E,D*2C
$PGRME,2.4,M,2.4,M,3.4,M*29
$HCHDG,320.9,0.0,E,,*21
$HCHDG,320.8,0.0,E,,*20
$GPRMC,030004.6,A,4742.38789,N,12225.25869,W,005.72,168.7,170513,016.6,E,D*25
$PGRME,2.4,M,2.4,M,3.4,M*29
$IIVHW,,,,,00.0,N,,*19
$HCHDG,320.6,0.0,E,,*2E
$IIVLW,06236,N,000.0,N*52
$HCHDG,320.6,0.0,E,,*2E
$GPRMC,030004.8,A,4742.38757,N,12225.25855,W,005.75,167.2,170513,016.6,E,D*2A
$PGRME,2.4,M,2.4,M,3.4,M*29
$IIGLL,4742.389,N,12225.259,W,030000,A,A*4E
$IIMTW,+09.0,C*31
$HCHDG,320.5,0.0,E,,*2D
$YXXDR*4F
$IIRMB,A,,,,N   ,,,,,001.4,162,,V,A*7B
$HCHDG,320.6,0.0,E,,*2E
$GPRMC,030005.0,A,4742.38725,N,12225.25846,W,005.75,166.5,170513,016.6,E,D*22
$GPRMB,A,-0.44,L,,N,4741.0622,N,12224.6030,W,1.4,162,5.73,V*6A
$PGRME,2.4,M,2.4,M,3.4,M*29
$IIRMC,030000,A,4742.389,N,12225.259,W,05.6,166,160513,16,E,A*17
$HCHDG,320.6,0.0,E,,*2E
$HCHDG,320.9,0.0,E,,*21
$GPRMC,030005.2,A,4742.38695,N,12225.25835,W,005.75,164.9,170513,016.6,E,D*20
$PGRME,2.4,M,2.4,M,3.4,M*29
$HCHDG,321.0,0.0,E,,*29
$PTAK,FFP1,HEEL,@*07
$HCHDG,321.2,0.0,E,,*2B
$GPRMC,030005.4,A,4742.38665,N,12225.25828,W,005.75,165.3,170513,016.6,E,D*2E
$YXXDR*4F
$PGRME,2.4,M,2.4,M,3.4,M*29
$HCHDG,321.5,0.0,E,,*2C
$HCHDG,321.7,0.0,E,,*2E
$GPRMC,030005.6,A,4742.38632,N,12225.25828,W,005.73,164.5,170513,016.6,E,D*2F
$PGRME,2.4,M,2.4,M,3.4,M*29
$IIVHW,,,,,00.0,N,,*19
$HCHDG,322.1,0.0,E,,*2B
$IIVLW,06236,N,000.0,N*52
$HCHDG,322.3,0.0,E,,*29
$GPRMC,030005.8,A,4742.38595,N,12225.25823,W,005.72,164.4,170513,016.6,E,D*24
$PGRME,2.4,M,2.4,M,3.4,M*29
$IIGLL,4742.388,N,12225.258,W,030000,A,A*4E
$IIMTW,+09.0,C*31
$HCHDG,322.6,0.0,E,,*2C
$YXXDR*4F
$IIRMB,A,,,,N   ,,,,,001.4,162,,V,A*7B
$HCHDG,322.7,0.0,E,,*2D
$GPRMC,030006.0,A,4742.38569,N,12225.25816,W,005.76,163.8,170513,016.6,E,D*25
$PGRME,2.4,M,2.4,M,3.4,M*29
$IIRMC,030000,A,4742.388,N,12225.258,W,05.7,169,160513,16,E,A*19
$HCHDG,322.9,0.0,E,,*23
$HCHDG,322.9,0.0,E,,*23
$GPRMC,030006.2,A,4742.38538,N,12225.25806,W,005.73,163.8,170513,016.6,E,D*27
$GPRMB,A,-0.44,L,,N,4741.0622,N,12224.6030,W,1.4,162,5.73,V*6A
$PGRME,2.4,M,2.4,M,3.4,M*29
$HCHDG,323.0,0.0,E,,*2B
$HCHDG,323.1,0.0,E,,*2A
$GPRMC,030006.4,A,4742.38510,N,12225.25799,W,005.69,163.1,170513,016.6,E,D*20
$YXXDR*4F
$PGRME,2.4,M,2.4,M,3.4,M*29
$HCHDG,323.2,0.0,E,,*29
$HCHDG,323.3,0.0,E,,*28
$GPRMC,030006.6,A,4742.38482,N,12225.25786,W,005.65,163.9,170513,016.6,E,D*22
$PGRME,2.4,M,2.4,M,3.4,M*29
$IIVHW,,,,,00.0,N,,*19
$HCHDG,323.3,0.0,E,,*28
$IIVLW,06236,N,000.0,N*52
$HCHDG,323.2,0.0,E,,*29
$GPRMC,030006.8,A,4742.38451,N,12225.25770,W,005.59,163.3,170513,016.6,E,D*2E
$PGRME,2.4,M,2.4,M,3.4,M*29
$IIGLL,4742.388,N,12225.258,W,030000,A,A*4E
$IIMTW,+09.0,C*31
$HCHDG,323.2,0.0,E,,*29
$YXXDR*4F
$IIRMB,A,,,,N   ,,,,,001.4,162,,V,A*7B
$HCHDG,323.1,0.0,E,,*2A
$GPRMC,030007.0,A,4742.38413,N,12225.25751,W,005.55,164.6,170513,016.6,E,D*2C
$PGRME,2.4,M,2.4,M,3.4,M*29
$IIRMC,030000,A,4742.388,N,12225.258,W,05.7,169,160513,16,E,A*19
$HCHDG,322.9,0.0,E,,*23
$HCHDG,322.8,0.0,E,,*22
$GPRMC,030007.2,A,4742.38374,N,12225.25739,W,005.54,165.5,170513,016.6,E,D*25
$GPRMB,A,-0.44,L,,N,4741.0622,N,12224.6030,W,1.4,162,5.53,V*68
$PGRME,2.4,M,2.4,M,3.4,M*29
$HCHDG,322.7,0.0,E,,*2D
$HCHDG,322.5,0.0,E,,*2F
$GPRMC,030007.4,A,4742.38331,N,12225.25731,W,005.55,165.4,170513,016.6,E,D*2A
$PGRME,2.4,M,2.4,M,3.4,M*29
$YXXDR*4F
$HCHDG,322.1,0.0,E,,*2B
$HCHDG,321.7,0.0,E,,*2E
$GPRMC,030007.6,A,4742.38298,N,12225.25716,W,005.54,165.7,170513,016.6,E,D*2D
$PGRME,2.4,M,2.4,M,3.4,M*29
$IIVHW,,,,,00.0,N,,*19
$HCHDG,321.3,0.0,E,,*2A
$IIVLW,06236,N,000.0,N*52
$HCHDG,320.9,0.0,E,,*21
$GPRMC,030007.8,A,4742.38271,N,12225.25701,W,005.51,165.8,170513,016.6,E,D*28
$PGRME,2.4,M,2.4,M,3.4,M*29
$IIGLL,4742.384,N,12225.257,W,030000,A,A*4D
$IIMTW,+09.0,C*31
$HCHDG,320.6,0.0,E,,*2E
$YXXDR*4F
$IIRMB,A,,,,N   ,,,,,001.4,162,,V,A*7B
$HCHDG,320.1,0.0,E,,*29
$GPRMC,030008.0,A,4742.38246,N,12225.25688,W,005.52,167.2,170513,016.6,E,D*20
$PGRME,2.4,M,2.4,M,3.4,M*29
$IIRMC,030000,A,4742.384,N,12225.257,W,05.6,163,160513,16,E,A*11
$HCHDG,319.5,0.0,E,,*27
$HCHDG,319.1,0.0,E,,*23
$GPRMC,030008.2,A,4742.38223,N,12225.25676,W,005.52,167.0,170513,016.6,E,D*22
$GPRMB,A,-0.44,L,,N,4741.0622,N,12224.6030,W,1.4,162,5.50,V*6B
$PGRME,2.4,M,2.4,M,3.4,M*29
$HCHDG,318.6,0.0,E,,*25
$HCHDG,318.4,0.0,E,,*27
$GPRMC,030008.4,A,4742.38197,N,12225.25668,W,005.52,166.9,170513,016.6,E,D*2F
$YXXDR*4F
$PGRME,2.4,M,2.4,M,3.4,M*29
$HCHDG,318.0,0.0,E,,*23
$HCHDG,317.7,0.0,E,,*2B
$GPRMC,030008.6,A,4742.38173,N,12225.25652,W,005.55,167.6,170513,016.6,E,D*27
$PGRME,2.4,M,2.4,M,3.4,M*29
$IIVHW,,,,,00.0,N,,*19
$HCHDG,317.5,0.0,E,,*29
$IIVLW,06236,N,000.0,N*52
$HCHDG,317.5,0.0,E,,*29
$GPRMC,030008.8,A,4742.38147,N,12225.25645,W,005.57,168.2,170513,016.6,E,D*21
$PGRME,2.4,M,2.4,M,3.4,M*29
$IIGLL,4742.382,N,12225.257,W,030000,A,A*4B
$IIMTW,+09.0,C*31
$HCHDG,317.4,0.0,E,,*28
$YXXDR*4F
$IIRMB,A,,,,N   ,,,,,001.4,162,,V,A*7B
$HCHDG,317.5,0.0,E,,*29
$GPRMC,030009.0,A,4742.38116,N,12225.25638,W,005.58,169.6,170513,016.6,E,D*2C
$PGRME,2.4,M,2.4,M,3.4,M*29
$IIRMC,030000,A,4742.382,N,12225.257,W,05.5,165,160513,16,E,A*12
$HCHDG,317.6,0.0,E,,*2A
$HCHDG,317.8,0.0,E,,*24
$GPRMC,030009.2,A,4742.38083,N,12225.25624,W,005.77,171.1,170513,016.6,E,D*2D
$GPRMB,A,-0.44,L,,N,4741.0622,N,12224.6030,W,1.4,162,5.69,V*61
$PGRME,2.4,M,2.4,M,3.4,M*29
$HCHDG,318.1,0.0,E,,*22
$PTAK,FFP1,HEEL,@*07
$HCHDG,318.4,0.0,E,,*27
$GPRMC,030009.4,A,4742.38046,N,12225.25613,W,005.71,170.5,170513,016.6,E,D*25
$PGRME,2.4,M,2.4,M,3.4,M*29
$YXXDR*4F
$HCHDG,318.9,0.0,E,,*2A
$HCHDG,319.4,0.0,E,,*26
$GPRMC,030009.6,A,4742.38014,N,12225.25603,W,005.76,170.8,170513,016.6,E,D*2B
$PGRME,2.4,M,2.4,M,3.4,M*29
$IIVHW,,,,,00.0,N,,*19
$HCHDG,319.9,0.0,E,,*2B
$IIVLW,06236,N,000.0,N*52
$HCHDG,320.5,0.0,E,,*2D
$GPRMC,030009.8,A,4742.37984,N,12225.25594,W,005.71,170.0,170513,016.6,E,D*28
$PGRME,2.4,M,2.4,M,3.4,M*29
$IIGLL,4742.381,N,12225.256,W,030000,A,A*49
$IIMTW,+09.0,C*31
$HCHDG,321.1,0.0,E,,*28
$YXXDR*4F
$IIRMB,A,,,,N   ,,,,,001.4,162,,V,A*7B
$HCHDG,321.8,0.0,E,,*21
$GPRMC,030010.0,A,4742.37958,N,12225.25586,W,005.72,171.1,170513,016.6,E,D*29
$PGRME,2.4,M,2.4,M,3.4,M*29
$IIRMC,030000,A,4742.381,N,12225.256,W,05.5,167,160513,16,E,A*12
$HCHDG,322.2,0.0,E,,*28
$HCHDG,322.9,0.0,E,,*23
$GPRMC,030010.2,A,4742.37927,N,12225.25578,W,005.71,170.0,170513,016.6,E,D*21
$GPRMB,A,-0.44,L,,N,4741.0622,N,12224.6030,W,1.4,162,5.65,V*6D
$PGRME,2.4,M,2.4,M,3.4,M*29
$HCHDG,323.5,0.0,E,,*2E
$HCHDG,324.0,0.0,E,,*2C
$GPRMC,030010.4,A,4742.37894,N,12225.25576,W,006.02,170.5,170513,016.6,E,D*22
$YXXDR*4F
$PGRME,2.4,M,2.4,M,3.4,M*29
$HCHDG,324.6,0.0,E,,*2A
$HCHDG,325.2,0.0,E,,*2F
$GPRMC,030010.6,A,4742.37863,N,12225.25568,W,006.08,170.4,170513,016.6,E,D*2C
$PGRME,2.4,M,2.4,M,3.4,M*29
$IIVHW,,,,,00.0,N,,*19
$HCHDG,325.7,0.0,E,,*2A
$IIVLW,06236,N,000.0,N*52
$HCHDG,326.4,0.0,E,,*2A
$GPRMC,030010.8,A,4742.37829,N,12225.25545,W,005.77,167.5,170513,016.6,E,D*2F
$PGRME,2.4,M,2.4,M,3.4,M*29
$IIGLL,4742.381,N,12225.256,W,030000,A,A*49
$IIMTW,+09.0,C*31
$HCHDG,326.9,0.0,E,,*27
$YXXDR*4F
$IIRMB,A,,,,N   ,,,,,001.4,162,,V,A*7B
$HCHDG,327.5,0.0,E,,*2A
$GPRMC,030011.0,A,4742.37800,N,12225.25534,W,005.80,168.2,170513,016.6,E,D*2B
$PGRME,2.4,M,2.4,M,3.4,M*29
$IIRMC,030000,A,4742.381,N,12225.256,W,05.5,167,160513,16,E,A*12
$HCHDG,327.9,0.0,E,,*26
$HCHDG,328.4,0.0,E,,*24
$GPRMC,030011.2,A,4742.37769,N,12225.25527,W,005.74,166.1,170513,016.6,E,D*2D
$PGRME,2.4,M,2.4,M,3.4,M*29
$HCHDG,328.8,0.0,E,,*28
$HCHDG,329.1,0.0,E,,*20
$GPRMC,030011.4,A,4742.37740,N,12225.25510,W,005.75,165.0,170513,016.6,E,D*27
$GPRMB,A,-0.44,L,,N,4741.0622,N,12224.6030,W,1.4,162,5.74,V*6D
$YXXDR*4F
$PGRME,2.4,M,2.4,M,3.4,M*29
$HCHDG,329.2,0.0,E,,*23
$HCHDG,329.4,0.0,E,,*25
$GPRMC,030011.6,A,4742.37713,N,12225.25502,W,005.81,163.9,170513,016.6,E,D*24
$PGRME,2.4,M,2.4,M,3.4,M*29
$IIVHW,,,,,00.0,N,,*19
$HCHDG,329.3,0.0,E,,*22
$IIVLW,06236,N,000.0,N*52
$HCHDG,329.2,0.0,E,,*23
$GPRMC,030011.8,A,4742.37680,N,12225.25498,W,005.85,162.2,170513,016.6,E,D*2D
$PGRME,2.4,M,2.4,M,3.4,M*29
$IIGLL,4742.378,N,12225.255,W,030000,A,A*4C
$IIMTW,+09.0,C*31
$HCHDG,329.1,0.0,E,,*20
$YXXDR*4F
$IIRMB,A,,,,N   ,,,,,001.4,162,,V,A*7B
$HCHDG,328.9,0.0,E,,*29
$GPRMC,030012.0,A,4742.37643,N,12225.25493,W,005.85,161.4,170513,016.6,E,D*27
$PGRME,2.4,M,2.4,M,3.4,M*29
$IIRMC,030000,A,4742.378,N,12225.255,W,06.0,170,160513,16,E,A*17
$HCHDG,328.6,0.0,E,,*26
$HCHDG,328.3,0.0,E,,*23
$GPRMC,030012.2,A,4742.37608,N,12225.25485,W,005.86,160.5,170513,016.6,E,D*2E
$PGRME,2.4,M,2.4,M,3.4,M*29
$HCHDG,328.0,0.0,E,,*20
$HCHDG,327.4,0.0,E,,*2B
$GPRMC,030012.4,A,4742.37576,N,12225.25465,W,005.85,160.3,170513,016.6,E,D*29
$YXXDR*4F
$PGRME,2.4,M,2.4,M,3.4,M*29
$HCHDG,326.9,0.0,E,,*27
$HCHDG,326.4,0.0,E,,*2A
$GPRMC,030012.6,A,4742.37545,N,12225.25458,W,005.84,159.2,170513,016.6,E,D*2F
$GPRMB,A,-0.44,L,,N,4741.0622,N,12224.6030,W,1.4,162,5.84,V*62
$PGRME,2.4,M,2.4,M,3.4,M*29
$HCHDG,325.9,0.0,E,,*24
$HCHDG,325.2,0.0,E,,*2F
$GPRMC,030012.8,A,4742.37518,N,12225.25443,W,005.81,158.3,170513,016.6,E,D*26
$PGRME,2.4,M,2.4,M,3.4,M*29
$HCHDG,324.6,0.0,E,,*2A
$YXXDR*4F
$HCHDG,323.9,0.0,E,,*22
$GPRMC,030013.0,A,4742.37493,N,12225.25429,W,005.78,157.6,170513,016.6,E,D*2D
$PGRME,2.4,M,2.4,M,3.4,M*29
$HCHDG,323.2,0.0,E,,*29
$HCHDG,322.4,0.0,E,,*2E
$GPRMC,030013.2,A,4742.37468,N,12225.25415,W,005.75,157.5,170513,016.6,E,D*2A
$PGRME,2.4,M,2.4,M,3.4,M*29
$HCHDG,321.7,0.0,E,,*2E
$HCHDG,320.9,0.0,E,,*21
$GPRMC,030013.4,A,4742.37440,N,12225.25399,W,005.70,157.2,170513,016.6,E,D*27
$PTAK,FFP1,HEEL,@*07
$YXXDR*4F
$PGRME,2.4,M,2.4,M,3.4,M*29
$HCHDG,320.4,0.0,E,,*2C
$HCHDG,319.8,0.0,E,,*2A
$GPRMC,030013.6,A,4742.37416,N,12225.25377,W,005.66,157.3,170513,016.6,E,D*20
$PGRME,2.4,M,2.4,M,3.4,M*29
$IIVHW,,,,,00.0,N,,*19
$HCHDG,319.3,0.0,E,,*21
$IIVLW,06236,N,000.0,N*52
$HCHDG,318.7,0.0,E,,*24
$GPRMC,030013.8,A,4742.37389,N,12225.25355,W,005.63,159.8,170513,016.6,E,D*2F
$GPRMB,A,-0.44,L,,N,4741.0622,N,12224.6030,W,1.4,162,5.63,V*6B
$IIGLL,4742.377,N,12225.255,W,030000,A,A*43
$PGRME,2.4,M,2.4,M,3.4,M*29
$IIMTW,+09.5,C*34
$HCHDG,318.4,0.0,E,,*27
$YXXDR*4F
$IIRMB,A,,,,N   ,,,,,001.4,162,,V,A*7B
$HCHDG,317.9,0.0,E,,*25
$GPRMC,030014.0,A,4742.37361,N,12225.25341,W,005.59,159.5,170513,016.6,E,D*27
$PGRME,2.4,M,2.4,M,3.4,M*29
$IIRMC,030000,A,4742.377,N,12225.255,W,05.8,163,160513,16,E,A*11
$HCHDG,317.7,0.0,E,,*2B
$IIVHW,,,,,00.0,N,,*19
$IIVLW,06236,N,000.0,N*52
$HCHDG,317.4,0.0,E,,*28
$GPRMC,030014.2,A,4742.37329,N,12225.25321,W,005.55,160.5,170513,016.6,E,D*29
$PGRME,2.4,M,2.4,M,3.4,M*29
$HCHDG,317.2,0.0,E,,*2E
$HCHDG,317.1,0.0,E,,*2D
$GPRMC,030014.4,A,4742.37301,N,12225.25303,W,005.53,160.6,170513,016.6,E,D*20
$PGRME,2.4,M,2.4,M,3.4,M*29
$YXXDR*4F
$HCHDG,316.9,0.0,E,,*24
$HCHDG,317.0,0.0,E,,*2C
$GPRMC,030014.6,A,4742.37273,N,12225.25275,W,005.50,162.4,170513,016.6,E,D*25
$PGRME,2.4,M,2.4,M,3.4,M*29
$HCHDG,317.1,0.0,E,,*2D
$IIGLL,4742.374,N,12225.253,W,030000,A,A*46
$IIMTW,+09.5,C*34
$HCHDG,317.4,0.0,E,,*28
$GPRMC,030014.8,A,4742.37248,N,12225.25258,W,005.48,162.4,170513,016.6,E,D*25
$GPRMB,A,-0.44,L,,N,4741.0622,N,12224.6030,W,1.4,162,5.48,V*62
$PGRME,2.4,M,2.4,M,3.4,M*29
$IIRMB,A,,,,N   ,,,,,001.4,162,,V,A*7B
$HCHDG,317.7,0.0,E,,*2B
$YXXDR*4F
$IIRMC,030000,A,4742.374,N,12225.253,W,05.6,157,160513,16,E,A*1D
$HCHDG,318.1,0.0,E,,*22
$GPRMC,030015.0,A,4742.37223,N,12225.25241,W,005.32,163.4,170513,016.6,E,D*25
$PGRME,2.4,M,2.4,M,3.4,M*29
$IIVHW,,,,,00.0,N,,*19
$IIVLW,06236,N,000.0,N*52
$HCHDG,318.3,0.0,E,,*20
$HCHDG,318.8,0.0,E,,*2B
$GPRMC,030015.2,A,4742.37196,N,12225.25227,W,005.27,162.9,170513,016.6,E,D*22
$PGRME,2.4,M,2.4,M,3.4,M*29
$HCHDG,319.2,0.0,E,,*20
$HCHDG,319.7,0.0,E,,*25
$GPRMC,030015.4,A,4742.37173,N,12225.25207,W,005.30,164.1,170513,016.6,E,D*25
$PGRME,2.4,M,2.4,M,3.4,M*29
$YXXDR*4F
$HCHDG,320.2,0.0,E,,*2A
$HCHDG,320.6,0.0,E,,*2E
$GPRMC,030015.6,A,4742.37147,N,12225.25188,W,005.33,164.8,170513,016.6,E,D*2E
$PGRME,2.4,M,2.4,M,3.4,M*29
$HCHDG,321.1,0.0,E,,*28
$IIGLL,4742.372,N,12225.252,W,030000,A,A*41
$IIMTW,+09.5,C*34
$HCHDG,321.4,0.0,E,,*2D
$GPRMC,030015.8,A,4742.37117,N,12225.25186,W,005.60,165.8,170513,016.6,E,D*2C
$PGRME,2.4,M,2.4,M,3.4,M*29
$IIRMB,A,,,,N   ,,,,,001.4,162,,V,A*7B
$HCHDG,321.8,0.0,E,,*21
$YXXDR*4F
$IIRMC,030000,A,4742.372,N,12225.252,W,05.5,162,160513,16,E,A*1F
$HCHDG,322.3,0.0,E,,*29
$GPRMC,030016.0,A,4742.37085,N,12225.25175,W,005.55,165.4,170513,016.6,E,D*2B
$GPRMB,A,-0.44,L,,N,4741.0622,N,12224.6030,W,1.4,162,5.54,V*6F
$PGRME,2.4,M,2.4,M,3.4,M*29
$IIVHW,,,,,00.0,N,,*19
$IIVLW,06236,N,000.0,N*52
$HCHDG,322.6,0.0,E,,*2C
$HCHDG,322.9,0.0,E,,*23
$GPRMC,030016.2,A,4742.37059,N,12225.25161,W,005.57,165.5,170513,016.6,E,D*2E
$PGRME,2.4,M,2.4,M,3.4,M*29
$HCHDG,323.2,0.0,E,,*29
$HCHDG,323.5,0.0,E,,*2E
$GPRMC,030016.4,A,4742.37030,N,12225.25157,W,005.61,166.8,170513,016.6,E,D*29
$PGRME,2.4,M,2.4,M,3.4,M*29
$YXXDR*4F
$HCHDG,324.0,0.0,E,,*2C
$HCHDG,324.4,0.0,E,,*28
$GPRMC,030016.6,A,4742.36998,N,12225.25146,W,005.66,165.3,170513,016.6,E,D*2E
$PGRME,2.4,M,2.4,M,3.4,M*29
$HCHDG,324.8,0.0,E,,*24
$IIGLL,4742.371,N,12225.251,W,030000,A,A*41
$IIMTW,+09.5,C*34
$HCHDG,325.4,0.0,E,,*29
$GPRMC,030016.8,A,4742.36967,N,12225.25142,W,005.72,164.4,170513,016.6,E,D*27
$PGRME,2.4,M,2.4,M,3.4,M*29
$IIRMB,A,,,,N   ,,,,,001.4,162,,V,A*7B
$HCHDG,325.7,0.0,E,,*2A
$YXXDR*4F
$IIRMC,030000,A,4742.371,N,12225.251,W,05.6,165,160513,16,E,A*1B
$HCHDG,326.3,0.0,E,,*2D
$GPRMC,030017.0,A,4742.36942,N,12225.25137,W,005.76,163.3,170513,016.6,E,D*2F
$GPRMB,A,-0.44,L,,N,4741.0622,N,12224.6030,W,1.4,162,5.76,V*6F
$PGRME,2.4,M,2.4,M,3.4,M*29
$IIVHW,,,,,00.0,N,,*19
$IIVLW,06236,N,000.0,N*52
$HCHDG,326.7,0.0,E,,*29
$HCHDG,327.1,0.0,E,,*2E
$GPRMC,030017.2,A,4742.36915,N,12225.25127,W,005.80,161.7,170513,016.6,E,D*21
$PGRME,2.4,M,2.4,M,3.4,M*29
$HCHDG,327.4,0.0,E,,*2B
$HCHDG,327.7,0.0,E,,*28
$GPRMC,030017.4,A,4742.36885,N,12225.25115,W,005.81,160.4,170513,016.6,E,D*2D
$PTAK,FFP1,HEEL,@*07
$PGRME,2.4,M,2.4,M,3.4,M*29
$YXXDR*4F
$HCHDG,328.0,0.0,E,,*20
$HCHDG,328.3,0.0,E,,*23
$GPRMC,030017.6,A,4742.36854,N,12225.25098,W,005.99,159.0,170513,016.6,E,D*20
$PGRME,2.4,M,2.4,M,3.4,M*29
$HCHDG,328.4,0.0,E,,*24
$IIGLL,4742.369,N,12225.251,W,030000,A,A*48
$IIMTW,+09.0,C*31
$HCHDG,328.5,0.0,E,,*25
$GPRMC,030017.8,A,4742.36824,N,12225.25084,W,006.03,159.5,170513,016.6,E,D*21
$PGRME,2.4,M,2.4,M,3.4,M*29
$IIRMB,A,,,,N   ,,,,,001.4,162,,V,A*7B
$HCHDG,328.5,0.0,E,,*25
$YXXDR*4F
$IIRMC,030000,A,4742.369,N,12225.251,W,05.7,164,160513,16,E,A*12
$HCHDG,328.5,0.0,E,,*25
$GPRMC,030018.0,A,4742.36792,N,12225.25070,W,006.08,159.5,170513,016.6,E,D*24
$PGRME,2.4,M,2.4,M,3.4,M*29
$IIVHW,,,,,00.0,N,,*19
$IIVLW,06236,N,000.0,N*52
$HCHDG,328.3,0.0,E,,*23
$HCHDG,328.2,0.0,E,,*22
$GPRMC,030018.2,A,4742.36754,N,12225.25059,W,006.28,159.5,170513,016.6,E,D*25
$GPRMB,A,-0.44,L,,N,4741.0622,N,12224.6030,W,1.4,162,6.28,V*67
$PGRME,2.4,M,2.4,M,3.4,M*29
$HCHDG,328.2,0.0,E,,*22
$HCHDG,328.0,0.0,E,,*20
$GPRMC,030018.4,A,4742.36715,N,12225.25048,W,006.26,160.1,170513,016.6,E,D*26
$YXXDR*4F
$PGRME,2.4,M,2.4,M,3.4,M*29
$HCHDG,327.8,0.0,E,,*27
$HCHDG,327.5,0.0,E,,*2A
$GPRMC,030018.6,A,4742.36678,N,12225.25035,W,006.27,161.1,170513,016.6,E,D*24
$PGRME,2.4,M,2.4,M,3.4,M*29
$HCHDG,327.2,0.0,E,,*2D
$IIGLL,4742.368,N,12225.250,W,030000,A,A*48
$IIMTW,+09.0,C*31
$HCHDG,327.0,0.0,E,,*2F
$GPRMC,030018.8,A,4742.36642,N,12225.25022,W,006.20,160.0,170513,016.6,E,D*22
$PGRME,2.4,M,2.4,M,3.4,M*29
$IIRMB,A,,,,N   ,,,,,001.4,162,,V,A*7B
$HCHDG,326.9,0.0,E,,*27
$YXXDR*4F
$IIRMC,030000,A,4742.368,N,12225.250,W,06.0,159,160513,16,E,A*18
$HCHDG,326.5,0.0,E,,*2B
$GPRMC,030019.0,A,4742.36608,N,12225.25008,W,006.20,160.3,170513,016.6,E,D*2E
$PGRME,2.4,M,2.4,M,3.4,M*29
$IIVHW,,,,,00.0,N,,*19
$IIVLW,06236,N,000.0,N*52
$HCHDG,326.3,0.0,E,,*2D
$HCHDG,325.5,0.0,E,,*28
$GPRMC,030019.2,A,4742.36565,N,12225.24992,W,006.16,160.1,170513,016.6,E,D*28
$GPRMB,A,-0.44,L,,N,4741.0622,N,12224.6030,W,1.4,162,6.16,V*6A
$PGRME,2.4,M,2.4,M,3.4,M*29
$HCHDG,324.7,0.0,E,,*2B
$HCHDG,324.1,0.0,E,,*2D
$GPRMC,030019.4,A,4742.36521,N,12225.24966,W,006.13,159.3,170513,016.6,E,D*28
$PGRME,2.4,M,2.4,M,3.4,M*29
$YXXDR*4F
$HCHDG,323.3,0.0,E,,*28
$HCHDG,322.4,0.0,E,,*2E
$GPRMC,030019.6,A,4742.36487,N,12225.24945,W,006.08,159.8,170513,016.6,E,D*27
$PGRME,2.4,M,2.4,M,3.4,M*29
$HCHDG,321.8,0.0,E,,*21
$IIGLL,4742.366,N,12225.250,W,030000,A,A*46
$IIMTW,+09.0,C*31
$HCHDG,321.1,0.0,E,,*28
$GPRMC,030019.8,A,4742.36460,N,12225.24917,W,005.92,159.1,170513,016.6,E,D*2E
$PGRME,2.4,M,2.4,M,3.4,M*29
$IIRMB,A,,,,N   ,,,,,001.4,162,,V,A*7B
$HCHDG,320.3,0.0,E,,*2B
$YXXDR*4F
$IIRMC,030000,A,4742.366,N,12225.250,W,06.2,160,160513,16,E,A*1E
$HCHDG,319.7,0.0,E,,*25
$GPRMC,030020.0,A,4742.36431,N,12225.24896,W,005.87,160.9,170513,016.6,E,D*26
$PGRME,2.4,M,2.4,M,3.4,M*29
$IIVHW,,,,,00.0,N,,*19
$IIVLW,06236,N,000.0,N*52
$HCHDG,319.1,0.0,E,,*23
$HCHDG,318.7,0.0,E,,*24
$GPRMC,030020.2,A,4742.36404,N,12225.24874,W,005.84,161.7,170513,016.6,E,D*22
$GPRMB,A,-0.44,L,,N,4741.0622,N,12224.6030,W,1.4,162,5.84,V*62
$PGRME,2.4,M,2.4,M,3.4,M*29
$HCHDG,318.2,0.0,E,,*21
$HCHDG,317.6,0.0,E,,*2A
$GPRMC,030020.4,A,4742.36378,N,12225.24856,W,005.83,163.8,170513,016.6,E,D*22
$PGRME,2.4,M,2.4,M,3.4,M*29
$YXXDR*4F
$HCHDG,317.3,0.0,E,,*2F
$HCHDG,317.1,0.0,E,,*2D
$GPRMC,030020.6,A,4742.36348,N,12225.24854,W,005.59,163.5,170513,016.6,E,D*2B
$PGRME,2.4,M,2.4,M,3.4,M*29
$HCHDG,316.7,0.0,E,,*2A
$IIGLL,4742.364,N,12225.249,W,030000,A,A*4C
$IIMTW,+09.0,C*31
$HCHDG,316.5,0.0,E,,*28
$GPRMC,030020.8,A,4742.36317,N,12225.24852,W,005.63,164.1,170513,016.6,E,D*23
$PGRME,2.4,M,2.4,M,3.4,M*29
$IIRMB,A,,,,N   ,,,,,001.4,162,,V,A*7B
$HCHDG,316.4,0.0,E,,*29
$YXXDR*4F
$IIRMC,030000,A,4742.364,N,12225.249,W,05.9,159,160513,16,E,A*16
$HCHDG,316.2,0.0,E,,*2F
$GPRMC,030021.0,A,4742.36286,N,12225.24835,W,005.56,163.0,170513,016.6,E,D*22
$PGRME,2.4,M,2.4,M,3.4,M*29
$IIVHW,,,,,00.0,N,,*19
$IIVLW,06236,N,000.0,N*52
$HCHDG,316.1,0.0,E,,*2C
$HCHDG,316.0,0.0,E,,*2D
$GPRMC,030021.2,A,4742.36251,N,12225.24819,W,005.40,163.1,170513,016.6,E,D*22
$GPRMB,A,-0.43,L,,N,4741.0622,N,12224.6030,W,1.4,162,5.40,V*6D
$PGRME,2.4,M,2.4,M,3.4,M*29
$HCHDG,316.1,0.0,E,,*2C
$HCHDG,316.1,0.0,E,,*2C
$GPRMC,030021.4,A,4742.36219,N,12225.24804,W,005.38,163.1,170513,016.6,E,D*2B
$PTAK,FFP1,HEEL,@*07
$PGRME,2.4,M,2.4,M,3.4,M*29
$YXXDR*4F
$HCHDG,316.2,0.0,E,,*2F
$HCHDG,316.2,0.0,E,,*2F
$GPRMC,030021.6,A,4742.36179,N,12225.24786,W,005.31,164.0,170513,016.6,E,D*26
$PGRME,2.4,M,2.4,M,3.4,M*29
$HCHDG,316.5,0.0,E,,*28
$IIGLL,4742.363,N,12225.248,W,030000,A,A*4A
$IIMTW,+09.0,C*31
$HCHDG,316.6,0.0,E,,*2B
$GPRMC,030021.8,A,4742.36146,N,12225.24770,W,005.29,162.9,170513,016.6,E,D*2B
$PGRME,2.4,M,2.4,M,3.4,M*29
$IIRMB,A,,,,N   ,,,,,001.4,162,,V,A*7B
$HCHDG,316.9,0.0,E,,*24
$YXXDR*4F
$IIRMC,030000,A,4742.363,N,12225.248,W,05.6,164,160513,16,E,A*11
$HCHDG,317.2,0.0,E,,*2E
$GPRMC,030022.0,A,4742.36118,N,12225.24758,W,005.24,163.2,170513,016.6,E,D*26
$PGRME,2.4,M,2.4,M,3.4,M*29
$IIVHW,,,,,00.0,N,,*19
$IIVLW,06236,N,000.0,N*52
$HCHDG,317.4,0.0,E,,*28
$HCHDG,317.9,0.0,E,,*25
$GPRMC,030022.2,A,4742.36092,N,12225.24741,W,005.21,164.4,170513,016.6,E,D*2B
$PGRME,2.4,M,2.4,M,3.4,M*29
$HCHDG,318.1,0.0,E,,*22
$HCHDG,318.4,0.0,E,,*27
$GPRMC,030022.4,A,4742.36065,N,12225.24727,W,005.16,165.8,170513,016.6,E,D*2C
$GPRMB,A,-0.43,L,,N,4741.0622,N,12224.6030,W,1.4,162,5.15,V*6D
$PGRME,2.4,M,2.4,M,3.4,M*29
$YXXDR*4F
$HCHDG,318.7,0.0,E,,*24
$HCHDG,318.9,0.0,E,,*2A
$GPRMC,030022.6,A,4742.36039,N,12225.24718,W,005.11,165.0,170513,016.6,E,D*24
$PGRME,2.4,M,2.4,M,3.4,M*29
$HCHDG,319.2,0.0,E,,*20
$IIGLL,4742.361,N,12225.247,W,030000,A,A*47
$IIMTW,+09.0,C*31
$HCHDG,319.5,0.0,E,,*27
$GPRMC,030022.8,A,4742.36016,N,12225.24705,W,005.10,167.7,170513,016.6,E,D*2F
$PGRME,2.4,M,2.4,M,3.4,M*29
$IIRMB,A,,,,N   ,,,,,001.4,162,,V,A*7B
$HCHDG,319.6,0.0,E,,*24
$YXXDR*4F
$IIRMC,030000,A,4742.361,N,12225.247,W,05.2,162,160513,16,E,A*1E
$HCHDG,320.0,0.0,E,,*28
$GPRMC,030023.0,A,4742.35995,N,12225.24699,W,005.10,166.8,170513,016.6,E,D*2D
$PGRME,2.4,M,2.4,M,3.4,M*29
$IIVHW,,,,,00.0,N,,*19
$IIVLW,06236,N,000.0,N*52
$HCHDG,320.0,0.0,E,,*28
$HCHDG,320.3,0.0,E,,*2B
$GPRMC,030023.2,A,4742.35970,N,12225.24692,W,005.42,168.7,170513,016.6,E,D*29
$PGRME,2.4,M,2.4,M,3.4,M*29
$HCHDG,320.4,0.0,E,,*2C
$HCHDG,320.5,0.0,E,,*2D
$GPRMC,030023.4,A,4742.35943,N,12225.24684,W,005.45,168.2,170513,016.6,E,D*2A
$PGRME,2.4,M,2.4,M,3.4,M*29
$YXXDR*4F
$HCHDG,320.6,0.0,E,,*2E
$HCHDG,320.7,0.0,E,,*2F
$GPRMC,030023.6,A,4742.35917,N,12225.24684,W,005.67,170.8,170513,016.6,E,D*2A
$GPRMB,A,-0.43,L,,N,4741.0622,N,12224.6030,W,1.4,162,5.60,V*6F
$PGRME,2.4,M,2.4,M,3.4,M*29
$HCHDG,320.8,0.0,E,,*20
$IIGLL,4742.361,N,12225.247,W,030000,A,A*47
$IIMTW,+09.0,C*31
$HCHDG,321.0,0.0,E,,*29
$GPRMC,030023.8,A,4742.35888,N,12225.24681,W,005.67,171.0,170513,016.6,E,D*2F
$PGRME,2.4,M,2.4,M,3.4,M*29
$IIRMB,A,,,,N   ,,,,,001.4,162,,V,A*7B
$HCHDG,321.0,0.0,E,,*29
$YXXDR*4F
$IIRMC,030000,A,4742.361,N,12225.247,W,05.2,162,160513,16,E,A*1E
$HCHDG,321.1,0.0,E,,*28
$GPRMC,030024.0,A,4742.35858,N,12225.24671,W,005.69,171.7,170513,016.6,E,D*2B
$PGRME,2.4,M,2.4,M,3.4,M*29
$IIVHW,,,,,00.0,N,,*19
$IIVLW,06236,N,000.0,N*52
$HCHDG,321.1,0.0,E,,*28
$HCHDG,321.2,0.0,E,,*2B
$GPRMC,030024.2,A,4742.35827,N,12225.24669,W,005.76,171.8,170513,016.6,E,D*29
$PGRME,2.4,M,2.4,M,3.4,M*29
$HCHDG,321.3,0.0,E,,*2A
$HCHDG,321.3,0.0,E,,*2A
$GPRMC,030024.4,A,4742.35791,N,12225.24674,W,005.80,171.0,170513,016.6,E,D*20
$PGRME,2.4,M,2.4,M,3.4,M*29
$YXXDR*4F
$HCHDG,321.3,0.0,E,,*2A
$HCHDG,321.4,0.0,E,,*2D
$GPRMC,030024.6,A,4742.35754,N,12225.24673,W,006.01,170.7,170513,016.6,E,D*20
$PGRME,2.4,M,2.4,M,3.4,M*29
$HCHDG,321.5,0.0,E,,*2C
$IIGLL,4742.358,N,12225.246,W,030000,A,A*4C
$IIMTW,+09.0,C*31
$HCHDG,321.6,0.0,E,,*2F
$GPRMC,030024.8,A,4742.35719,N,12225.24666,W,006.05,170.2,170513,016.6,E,D*22
$GPRMB,A,-0.43,L,,N,4741.0622,N,12224.6030,W,1.4,161,5.98,V*6B
$PGRME,2.4,M,2.4,M,3.4,M*29
$IIRMB,A,,,,N   ,,,,,001.4,162,,V,A*7B
$HCHDG,321.7,0.0,E,,*2E
$YXXDR*4F
$IIRMC,030000,A,4742.358,N,12225.246,W,05.6,171,160513,16,E,A*13
$HCHDG,321.8,0.0,E,,*21
$GPRMC,030025.0,A,4742.35684,N,12225.24654,W,006.11,169.3,170513,016.6,E,D*23
$PGRME,2.4,M,2.4,M,3.4,M*29
$IIVHW,,,,,00.0,N,,*19
$IIVLW,06236,N,000.0,N*52
$HCHDG,321.8,0.0,E,,*21
$HCHDG,321.9,0.0,E,,*20
$GPRMC,030025.2,A,4742.35648,N,12225.24644,W,006.18,168.6,170513,016.6,E,D*2D
$PGRME,2.4,M,2.4,M,3.4,M*29
$HCHDG,321.9,0.0,E,,*20
$HCHDG,321.9,0.0,E,,*20
$GPRMC,030025.4,A,4742.35612,N,12225.24628,W,006.21,166.9,170513,016.6,E,D*25
$PGRME,2.4,M,2.4,M,3.4,M*29
$YXXDR*4F
$HCHDG,321.9,0.0,E,,*20
$PTAK,FFP1,HEEL,@*07
$HCHDG,321.9,0.0,E,,*20
$GPRMC,030025.6,A,4742.35574,N,12225.24609,W,006.18,166.2,170513,016.6,E,D*26
$PGRME,2.4,M,2.4,M,3.4,M*29
$HCHDG,321.9,0.0,E,,*20
$IIGLL,4742.357,N,12225.246,W,030000,A,A*43
$IIMTW,+09.0,C*31
$HCHDG,321.8,0.0,E,,*21
$GPRMC,030025.8,A,4742.35539,N,12225.24596,W,006.24,165.7,170513,016.6,E,D*2D
$PGRME,2.4,M,2.4,M,3.4,M*29
$IIRMB,A,,,,N   ,,,,,001.4,161,,V,A*78
$HCHDG,321.7,0.0,E,,*2E
$YXXDR*4F
$IIRMC,030000,A,4742.357,N,12225.246,W,06.0,170,160513,16,E,A*18
$HCHDG,321.7,0.0,E,,*2E
$GPRMC,030026.0,A,4742.35504,N,12225.24575,W,006.20,165.4,170513,016.6,E,D*22
$GPRMB,A,-0.43,L,,N,4741.0622,N,12224.6030,W,1.4,161,6.19,V*61
$PGRME,2.4,M,2.4,M,3.4,M*29
$IIVHW,,,,,00.0,N,,*19
$IIVLW,06236,N,000.0,N*52
$HCHDG,321.7,0.0,E,,*2E
$HCHDG,321.5,0.0,E,,*2C
$GPRMC,030026.2,A,4742.35472,N,12225.24560,W,006.16,165.4,170513,016.6,E,D*21
$PGRME,2.4,M,2.4,M,3.4,M*29
$HCHDG,321.5,0.0,E,,*2C
$HCHDG,321.5,0.0,E,,*2C
$GPRMC,030026.4,A,4742.35441,N,12225.24547,W,006.12,164.4,170513,016.6,E,D*27
$PGRME,2.4,M,2.4,M,3.4,M*29
$YXXDR*4F
$HCHDG,321.2,0.0,E,,*2B
$HCHDG,321.1,0.0,E,,*28
$GPRMC,030026.6,A,4742.35407,N,12225.24529,W,006.09,164.3,170513,016.6,E,D*22
$PGRME,2.4,M,2.4,M,3.4,M*29
$HCHDG,320.9,0.0,E,,*21
$IIGLL,4742.355,N,12225.245,W,030000,A,A*42
$IIMTW,+09.0,C*31
$HCHDG,320.7,0.0,E,,*2F
$GPRMC,030026.8,A,4742.35372,N,12225.24508,W,006.05,164.8,170513,016.6,E,D*2D
$PGRME,2.4,M,2.4,M,3.4,M*29
$IIRMB,A,,,,N   ,,,,,001.4,161,,V,A*78
$HCHDG,320.4,0.0,E,,*2C
$YXXDR*4F
$IIRMC,030000,A,4742.355,N,12225.245,W,06.2,165,160513,16,E,A*1F
$HCHDG,320.0,0.0,E,,*28
$GPRMC,030027.0,A,4742.35344,N,12225.24483,W,006.00,166.0,170513,016.6,E,D*2C
$PGRME,2.4,M,2.4,M,3.4,M*29
$IIVHW,,,,,00.0,N,,*19
$IIVLW,06236,N,000.0,N*52
$HCHDG,319.7,0.0,E,,*25
$HCHDG,319.3,0.0,E,,*21
$GPRMC,030027.2,A,4742.35313,N,12225.24453,W,006.00,167.9,170513,016.6,E,D*29
$GPRMB,A,-0.43,L,,N,4741.0622,N,12224.6030,W,1.4,162,5.96,V*66
$PGRME,2.4,M,2.4,M,3.4,M*29
$HCHDG,318.9,0.0,E,,*2A
$HCHDG,318.4,0.0,E,,*27
$GPRMC,030027.4,A,4742.35282,N,12225.24437,W,005.76,166.7,170513,016.6,E,D*29
$PGRME,2.4,M,2.4,M,3.4,M*29
$YXXDR*4F
$HCHDG,317.9,0.0,E,,*25
$HCHDG,317.5,0.0,E,,*29
$GPRMC,030027.6,A,4742.35251,N,12225.24424,W,005.77,168.3,170513,016.6,E,D*2C
$PGRME,2.4,M,2.4,M,3.4,M*29
$HCHDG,317.2,0.0,E,,*2E
$IIGLL,4742.353,N,12225.245,W,030000,A,A*44
$IIMTW,+09.0,C*31
$HCHDG,316.9,0.0,E,,*24
$GPRMC,030027.8,A,4742.35220,N,12225.24407,W,005.56,168.0,170513,016.6,E,D*25
$PGRME,2.4,M,2.4,M,3.4,M*29
$IIRMB,A,,,,N   ,,,,,001.4,162,,V,A*7B
$HCHDG,316.6,0.0,E,,*2B
$YXXDR*4F
$IIRMC,030000,A,4742.353,N,12225.245,W,06.0,164,160513,16,E,A*1A
$HCHDG,316.3,0.0,E,,*2E
$GPRMC,030028.0,A,4742.35192,N,12225.24397,W,005.60,169.1,170513,016.6,E,D*23
$PGRME,2.4,M,2.4,M,3.4,M*29
$IIVHW,,,,,00.0,N,,*19
$IIVLW,06236,N,000.0,N*52
$HCHDG,316.1,0.0,E,,*2C
$HCHDG,315.9,0.0,E,,*27
$GPRMC,030028.2,A,4742.35167,N,12225.24397,W,005.59,169.6,170513,016.6,E,D*26
$GPRMB,A,-0.43,L,,N,4741.0622,N,12224.6030,W,1.4,161,5.53,V*6C
$PGRME,2.4,M,2.4,M,3.4,M*29
$HCHDG,315.8,0.0,E,,*26
$HCHDG,315.9,0.0,E,,*27
$GPRMC,030028.4,A,4742.35139,N,12225.24393,W,005.41,169.0,170513,016.6,E,D*20
$PGRME,2.4,M,2.4,M,3.4,M*29
$YXXDR*4F
$HCHDG,315.8,0.0,E,,*26
$HCHDG,315.8,0.0,E,,*26
$GPRMC,030028.6,A,4742.35112,N,12225.24392,W,005.40,169.7,170513,016.6,E,D*2C
$PGRME,2.4,M,2.4,M,3.4,M*29
$HCHDG,315.8,0.0,E,,*26
$IIGLL,4742.351,N,12225.243,W,030000,A,A*40
$IIMTW,+09.0,C*31
$HCHDG,315.7,0.0,E,,*29
$GPRMC,030028.8,A,4742.35079,N,12225.24390,W,005.38,168.8,170513,016.6,E,D*2D
$PGRME,2.4,M,2.4,M,3.4,M*29
$IIRMB,A,,,,N   ,,,,,001.4,161,,V,A*78
$HCHDG,315.8,0.0,E,,*26
$YXXDR*4F
$IIRMC,030000,A,4742.351,N,12225.243,W,05.6,169,160513,16,E,A*16
$HCHDG,315.8,0.0,E,,*26
$GPRMC,030029.0,A,4742.35048,N,12225.24384,W,005.36,169.0,170513,016.6,E,D*24
$PGRME,2.4,M,2.4,M,3.4,M*29
$IIVHW,,,,,00.0,N,,*19
$IIVLW,06236,N,000.0,N*52
$HCHDG,315.8,0.0,E,,*26
$HCHDG,315.8,0.0,E,,*26
$GPRMC,030029.2,A,4742.35017,N,12225.24372,W,005.29,167.7,170513,016.6,E,D*22
$PGRME,2.4,M,2.4,M,3.4,M*29
$HCHDG,315.9,0.0,E,,*27
$HCHDG,316.0,0.0,E,,*2D
$GPRMC,030029.4,A,4742.34987,N,12225.24357,W,005.26,168.9,170513,016.6,E,D*2C
$GPRMB,A,-0.43,L,,N,4741.0622,N,12224.6030,W,1.4,161,5.22,V*6A
$PGRME,2.4,M,2.4,M,3.4,M*29
$YXXDR*4F
$HCHDG,316.1,0.0,E,,*2C
$PTAK,FFP1,HEEL,@*07
$HCHDG,316.1,0.0,E,,*2C
$GPRMC,030029.6,A,4742.34959,N,12225.24343,W,005.25,170.2,170513,016.6,E,D*29
$PGRME,2.4,M,2.4,M,3.4,M*29
$HCHDG,316.3,0.0,E,,*2E
$IIGLL,4742.350,N,12225.243,W,030000,A,A*41
$IIMTW,+09.0,C*31
$HCHDG,316.5,0.0,E,,*28
$GPRMC,030029.8,A,4742.34928,N,12225.24330,W,005.45,170.8,170513,016.6,E,D*29
$PGRME,2.4,M,2.4,M,3.4,M*29
$IIRMB,A,,,,N   ,,,,,001.4,161,,V,A*78
$HCHDG,316.7,0.0,E,,*2A
$YXXDR*4F
$IIRMC,030000,A,4742.350,N,12225.243,W,05.3,169,160513,16,E,A*12
$HCHDG,317.1,0.0,E,,*2D
$GPRMC,030030.0,A,4742.34900,N,12225.24325,W,005.40,171.0,170513,016.6,E,D*2B
$PGRME,2.4,M,2.4,M,3.4,M*29
$IIVHW,,,,,00.0,N,,*19
$IIVLW,06236,N,000.0,N*52
$HCHDG,317.3,0.0,E,,*2F
$HCHDG,317.6,0.0,E,,*2A
$GPRMC,030030.2,A,4742.34877,N,12225.24319,W,005.35,170.3,170513,016.6,E,D*27
$PGRME,2.4,M,2.4,M,3.4,M*29
$HCHDG,317.8,0.0,E,,*24
$HCHDG,318.6,0.0,E,,*25
$GPRMC,030030.4,A,4742.34852,N,12225.24312,W,005.31,170.0,170513,016.6,E,D*2A
$PGRME,2.4,M,2.4,M,3.4,M*29
$YXXDR*4F
$HCHDG,319.3,0.0,E,,*21
$HCHDG,319.9,0.0,E,,*2B
$GPRMC,030030.6,A,4742.34827,N,12225.24306,W,005.32,170.4,170513,016.6,E,D*28
$GPRMB,A,-0.43,L,,N,4741.0622,N,12224.6030,W,1.4,161,5.26,V*6E
$PGRME,2.4,M,2.4,M,3.4,M*29
$HCHDG,320.6,0.0,E,,*2E
$IIGLL,4742.349,N,12225.243,W,030000,A,A*49
$IIMTW,+09.0,C*31
$HCHDG,321.3,0.0,E,,*2A
$GPRMC,030030.8,A,4742.34802,N,12225.24293,W,005.28,168.6,170513,016.6,E,D*2C
$PGRME,2.4,M,2.4,M,3.4,M*29
$IIRMB,A,,,,N   ,,,,,001.4,161,,V,A*78
$HCHDG,321.8,0.0,E,,*21
$YXXDR*4F
$IIRMC,030000,A,4742.349,N,12225.243,W,05.4,171,160513,16,E,A*14
$HCHDG,322.2,0.0,E,,*28
$GPRMC,030031.0,A,4742.34775,N,12225.24274,W,005.28,168.7,170513,016.6,E,D*22
$PGRME,2.4,M,2.4,M,3.4,M*29
$IIVHW,,,,,00.0,N,,*19
$IIVLW,06236,N,000.0,N*52
$HCHDG,322.6,0.0,E,,*2C
$HCHDG,323.0,0.0,E,,*2B
$GPRMC,030031.2,A,4742.34752,N,12225.24264,W,005.55,170.0,170513,016.6,E,D*20
$PGRME,2.4,M,2.4,M,3.4,M*29
$HCHDG,323.2,0.0,E,,*29
$HCHDG,323.4,0.0,E,,*2F
$GPRMC,030031.4,A,4742.34722,N,12225.24251,W,005.55,169.1,170513,016.6,E,D*2E
$YXXDR*4F
$PGRME,2.4,M,2.4,M,3.4,M*29
$HCHDG,323.5,0.0,E,,*2E
$HCHDG,323.5,0.0,E,,*2E
$GPRMC,030031.6,A,4742.34690,N,12225.24240,W,005.58,168.2,170513,016.6,E,D*2B
$PGRME,2.4,M,2.4,M,3.4,M*29
$HCHDG,323.4,0.0,E,,*2F
$IIGLL,4742.347,N,12225.242,W,030000,A,A*46
$IIMTW,+09.0,C*31
$HCHDG,323.2,0.0,E,,*29
$GPRMC,030031.8,A,4742.34657,N,12225.24241,W,005.61,167.9,170513,016.6,E,D*21
$GPRMB,A,-0.43,L,,N,4741.0622,N,12224.6030,W,1.4,161,5.57,V*68
$PGRME,2.4,M,2.4,M,3.4,M*29
$IIRMB,A,,,,N   ,,,,,001.4,161,,V,A*78
$HCHDG,323.0,0.0,E,,*2B
$YXXDR*4F
$IIRMC,030000,A,4742.347,N,12225.242,W,05.2,168,160513,16,E,A*15
$HCHDG,322.8,0.0,E,,*22
$GPRMC,030032.0,A,4742.34624,N,12225.24241,W,005.67,167.4,170513,016.6,E,D*25
$PGRME,2.4,M,2.4,M,3.4,M*29
$IIVHW,,,,,00.0,N,,*19
$IIVLW,06236,N,000.0,N*52
$HCHDG,322.5,0.0,E,,*2F
$HCHDG,322.2,0.0,E,,*28
$GPRMC,030032.2,A,4742.34589,N,12225.24245,W,005.84,166.8,170513,016.6,E,D*27
$PGRME,2.4,M,2.4,M,3.4,M*29
$HCHDG,321.9,0.0,E,,*20
$HCHDG,321.6,0.0,E,,*2F
$GPRMC,030032.4,A,4742.34556,N,12225.24242,W,005.83,165.4,170513,016.6,E,D*2C
$PGRME,2.4,M,2.4,M,3.4,M*29
$YXXDR*4F
$HCHDG,321.2,0.0,E,,*2B
$HCHDG,320.9,0.0,E,,*21
$GPRMC,030032.6,A,4742.34526,N,12225.24230,W,005.78,165.4,170513,016.6,E,D*28
$PGRME,2.4,M,2.4,M,3.4,M*29
$HCHDG,320.4,0.0,E,,*2C
$IIGLL,4742.346,N,12225.242,W,030000,A,A*47
$IIMTW,+09.0,C*31
$HCHDG,319.9,0.0,E,,*2B
$GPRMC,030032.8,A,4742.34494,N,12225.24216,W,005.79,165.4,170513,016.6,E,D*2B
$GPRMB,A,-0.43,L,,N,4741.0622,N,12224.6030,W,1.4,161,5.78,V*65
$PGRME,2.4,M,2.4,M,3.4,M*29
$IIRMB,A,,,,N   ,,,,,001.4,161,,V,A*78
$HCHDG,319.5,0.0,E,,*27
$YXXDR*4F
$IIRMC,030000,A,4742.346,N,12225.242,W,05.6,167,160513,16,E,A*1F
$HCHDG,318.9,0.0,E,,*2A
$GPRMC,030033.0,A,4742.34462,N,12225.24199,W,005.78,164.7,170513,016.6,E,D*2C
$PGRME,2.4,M,2.4,M,3.4,M*29
$IIVHW,,,,,00.0,N,,*19
$IIVLW,06236,N,000.0,N*52
$HCHDG,318.3,0.0,E,,*20
$HCHDG,317.8,0.0,E,,*24
$GPRMC,030033.2,A,4742.34430,N,12225.24181,W,005.74,165.1,170513,016.6,E,D*2B
$PGRME,2.4,M,2.4,M,3.4,M*29
$HCHDG,317.3,0.0,E,,*2F
$HCHDG,316.9,0.0,E,,*24
$GPRMC,030033.4,A,4742.34403,N,12225.24168,W,005.76,166.0,170513,016.6,E,D*2A
$PGRME,2.4,M,2.4,M,3.4,M*29
$YXXDR*4F
$HCHDG,316.5,0.0,E,,*28
$HCHDG,316.2,0.0,E,,*2F
$GPRMC,030033.6,A,4742.34374,N,12225.24155,W,005.56,165.2,170513,016.6,E,D*22
$PTAK,FFP1,HEEL,@*07
$PGRME,2.4,M,2.4,M,3.4,M*29
$HCHDG,316.0,0.0,E,,*2D
$IIGLL,4742.344,N,12225.241,W,030000,A,A*46
$IIMTW,+09.0,C*31
$HCHDG,315.9,0.0,E,,*27
$GPRMC,030033.8,A,4742.34343,N,12225.24148,W,005.61,165.8,170513,016.6,E,D*2A
$PGRME,2.4,M,2.4,M,3.4,M*29
$IIRMB,A,,,,N   ,,,,,001.4,161,,V,A*78
$HCHDG,315.8,0.0,E,,*26
$YXXDR*4F
$IIRMC,030000,A,4742.344,N,12225.241,W,05.7,164,160513,16,E,A*1C
$HCHDG,315.9,0.0,E,,*27
$GPRMC,030034.0,A,4742.34314,N,12225.24140,W,005.66,167.4,170513,016.6,E,D*26
$GPRMB,A,-0.43,L,,N,4741.0622,N,12224.6030,W,1.4,161,5.63,V*6F
$PGRME,2.4,M,2.4,M,3.4,M*29
$IIVHW,,,,,00.0,N,,*19
$IIVLW,06236,N,000.0,N*52
$HCHDG,316.0,0.0,E,,*2D
$HCHDG,316.1,0.0,E,,*2C
$GPRMC,030034.2,A,4742.34287,N,12225.24131,W,005.59,167.3,170513,016.6,E,D*22
$PGRME,2.4,M,2.4,M,3.4,M*29
$HCHDG,316.1,0.0,E,,*2C
$HCHDG,316.2,0.0,E,,*2F
$GPRMC,030034.4,A,4742.34257,N,12225.24114,W,005.59,168.4,170513,016.6,E,D*26
$PGRME,2.4,M,2.4,M,3.4,M*29
$YXXDR*4F
$HCHDG,316.2,0.0,E,,*2F
$HCHDG,316.1,0.0,E,,*2C
$GPRMC,030034.6,A,4742.34225,N,12225.24104,W,005.34,169.2,170513,016.6,E,D*2C
$PGRME,2.4,M,2.4,M,3.4,M*29
$HCHDG,316.3,0.0,E,,*2E
$IIGLL,4742.343,N,12225.241,W,030000,A,A*41
$IIMTW,+09.0,C*31
$HCHDG,316.3,0.0,E,,*2E
$GPRMC,030034.8,A,4742.34194,N,12225.24094,W,005.39,170.5,170513,016.6,E,D*21
$PGRME,2.4,M,2.4,M,3.4,M*29
$IIRMB,A,,,,N   ,,,,,001.4,161,,V,A*78
$HCHDG,316.1,0.0,E,,*2C
$YXXDR*4F
$IIRMC,030000,A,4742.343,N,12225.241,W,05.6,167,160513,16,E,A*19
$HCHDG,315.9,0.0,E,,*27
$GPRMC,030035.0,A,4742.34170,N,12225.24080,W,005.33,170.7,170513,016.6,E,D*2F
$GPRMB,A,-0.43,L,,N,4741.0622,N,12224.6030,W,1.4,161,5.26,V*6E
$PGRME,2.4,M,2.4,M,3.4,M*29
$IIVHW,,,,,00.0,N,,*19
$IIVLW,06236,N,000.0,N*52
$HCHDG,316.0,0.0,E,,*2D
$HCHDG,315.8,0.0,E,,*26
$GPRMC,030035.2,A,4742.34137,N,12225.24064,W,005.28,170.9,170513,016.6,E,D*20
$PGRME,2.4,M,2.4,M,3.4,M*29
$HCHDG,315.8,0.0,E,,*26
$HCHDG,315.9,0.0,E,,*27
$GPRMC,030035.4,A,4742.34106,N,12225.24065,W,005.05,170.7,170513,016.6,E,D*24
$PGRME,2.4,M,2.4,M,3.4,M*29
$YXXDR*4F
$HCHDG,315.9,0.0,E,,*27
$HCHDG,316.0,0.0,E,,*2D
$GPRMC,030035.6,A,4742.34082,N,12225.24057,W,005.09,170.8,170513,016.6,E,D*29
$PGRME,2.4,M,2.4,M,3.4,M*29
$HCHDG,315.9,0.0,E,,*27
$IIGLL,4742.341,N,12225.240,W,030000,A,A*42
$IIMTW,+09.0,C*31
$HCHDG,315.9,0.0,E,,*27
$GPRMC,030035.8,A,4742.34056,N,12225.24048,W,005.08,170.3,170513,016.6,E,D*2A
$PGRME,2.4,M,2.4,M,3.4,M*29
$IIRMB,A,,,,N   ,,,,,001.4,161,,V,A*78
$HCHDG,315.8,0.0,E,,*26
$YXXDR*4F
$IIRMC,030000,A,4742.341,N,12225.240,W,05.3,170,160513,16,E,A*19
$HCHDG,315.8,0.0,E,,*26
$GPRMC,030036.0,A,4742.34030,N,12225.24052,W,005.13,171.0,170513,016.6,E,D*22
$PGRME,2.4,M,2.4,M,3.4,M*29
$IIVHW,,,,,00.0,N,,*19
$IIVLW,06236,N,000.0,N*52
$HCHDG,315.9,0.0,E,,*27
$HCHDG,315.9,0.0,E,,*27
$GPRMC,030036.2,A,4742.34004,N,12225.24051,W,005.14,171.0,170513,016.6,E,D*23
$GPRMB,A,-0.43,L,,N,4741.0622,N,12224.6030,W,1.3,161,5.07,V*6A
$PGRME,2.4,M,2.4,M,3.4,M*29
$HCHDG,315.9,0.0,E,,*27
$HCHDG,315.8,0.0,E,,*26
$GPRMC,030036.4,A,4742.33979,N,12225.24043,W,005.34,171.5,170513,016.6,E,D*25
$PGRME,2.4,M,2.4,M,3.4,M*29
$YXXDR*4F
$HCHDG,315.9,0.0,E,,*27
$HCHDG,315.9,0.0,E,,*27
$GPRMC,030036.6,A,4742.33960,N,12225.24046,W,005.35,172.4,170513,016.6,E,D*29
$PGRME,2.4,M,2.4,M,3.4,M*29
$HCHDG,315.8,0.0,E,,*26
$IIGLL,4742.340,N,12225.240,W,030000,A,A*43
$IIMTW,+09.0,C*31
$HCHDG,315.9,0.0,E,,*27
$GPRMC,030036.8,A,4742.33935,N,12225.24043,W,005.34,172.6,170513,016.6,E,D*21
$PGRME,2.4,M,2.4,M,3.4,M*29
$IIRMB,A,,,,N   ,,,,,001.3,161,,V,A*7F
$HCHDG,316.1,0.0,E,,*2C
$YXXDR*4F
$IIRMC,030000,A,4742.340,N,12225.240,W,05.1,171,160513,16,E,A*1B
$HCHDG,316.3,0.0,E,,*2E
$GPRMC,030037.0,A,4742.33907,N,12225.24039,W,005.35,173.0,170513,016.6,E,D*22
$PGRME,2.4,M,2.4,M,3.4,M*29
$IIVHW,,,,,00.0,N,,*19
$IIVLW,06236,N,000.0,N*52
$HCHDG,316.4,0.0,E,,*29
$HCHDG,316.3,0.0,E,,*2E
$GPRMC,030037.2,A,4742.33884,N,12225.24031,W,005.54,172.1,170513,016.6,E,D*25
$PGRME,2.4,M,2.4,M,3.4,M*29
$HCHDG,316.5,0.0,E,,*28
$HCHDG,316.7,0.0,E,,*2A
$GPRMC,030037.4,A,4742.33859,N,12225.24021,W,005.54,172.1,170513,016.6,E,D*22
$PGRME,2.4,M,2.4,M,3.4,M*29
$YXXDR*4F
$HCHDG,316.7,0.0,E,,*2A
$HCHDG,316.9,0.0,E,,*24
$GPRMC,030037.6,A,4742.33829,N,12225.24012,W,005.57,172.3,170513,016.6,E,D*26
$GPRMB,A,-0.43,L,,N,4741.0622,N,12224.6030,W,1.3,161,5.47,V*6E
$PGRME,2.4,M,2.4,M,3.4,M*29
$HCHDG,316.8,0.0,E,,*25
$IIGLL,4742.339,N,12225.240,W,030000,A,A*4D
$IIMTW,+09.0,C*31
$HCHDG,316.9,0.0,E,,*24
$GPRMC,030037.8,A,4742.33795,N,12225.24005,W,005.58,172.1,170513,016.6,E,D*2B
$PGRME,2.4,M,2.4,M,3.4,M*29
$IIRMB,A,,,,N   ,,,,,001.3,161,,V,A*7F
$HCHDG,316.9,0.0,E,,*24
$PTAK,FFP1,HEEL,@*07
$YXXDR*4F
$IIRMC,030000,A,4742.339,N,12225.240,W,05.3,173,160513,16,E,A*15
$HCHDG,317.1,0.0,E,,*2D
$GPRMC,030038.0,A,4742.33761,N,12225.23997,W,005.58,173.6,170513,016.6,E,D*24
$PGRME,2.4,M,2.4,M,3.4,M*29
$IIVHW,,,,,00.0,N,,*19
$IIVLW,06236,N,000.0,N*52
$HCHDG,317.1,0.0,E,,*2D
$HCHDG,317.1,0.0,E,,*2D
$GPRMC,030038.2,A,4742.33729,N,12225.23985,W,005.57,173.6,170513,016.6,E,D*26
$PGRME,2.4,M,2.4,M,3.4,M*29
$HCHDG,317.1,0.0,E,,*2D
$HCHDG,317.2,0.0,E,,*2E
$GPRMC,030038.4,A,4742.33698,N,12225.23972,W,005.88,174.9,170513,016.6,E,D*29
$PGRME,2.4,M,2.4,M,3.4,M*29
$YXXDR*4F
$HCHDG,317.1,0.0,E,,*2D
$HCHDG,317.2,0.0,E,,*2E
$GPRMC,030038.6,A,4742.33659,N,12225.23956,W,005.87,174.6,170513,016.6,E,D*20
$PGRME,2.4,M,2.4,M,3.4,M*29
$HCHDG,317.2,0.0,E,,*2E
$IIGLL,4742.337,N,12225.239,W,030000,A,A*4D
$IIMTW,+09.0,C*31
$HCHDG,317.0,0.0,E,,*2C
$GPRMC,030038.8,A,4742.33628,N,12225.23949,W,005.83,173.6,170513,016.6,E,D*25
$GPRMB,A,-0.43,L,,N,4741.0622,N,12224.6030,W,1.3,161,5.70,V*6A
$PGRME,2.4,M,2.4,M,3.4,M*29
$IIRMB,A,,,,N   ,,,,,001.3,161,,V,A*7F
$HCHDG,316.8,0.0,E,,*25
$YXXDR*4F
$IIRMC,030000,A,4742.337,N,12225.239,W,05.5,173,160513,16,E,A*13
$HCHDG,316.7,0.0,E,,*2A
$GPRMC,030039.0,A,4742.33591,N,12225.23942,W,005.82,173.3,170513,016.6,E,D*22
$PGRME,2.4,M,2.4,M,3.4,M*29
$IIVHW,,,,,00.0,N,,*19
$IIVLW,06236,N,000.0,N*52
$HCHDG,316.5,0.0,E,,*28
$HCHDG,316.5,0.0,E,,*28
$GPRMC,030039.2,A,4742.33557,N,12225.23942,W,005.75,172.5,170513,016.6,E,D*25
$PGRME,2.4,M,2.4,M,3.4,M*29
$HCHDG,316.3,0.0,E,,*2E
$HCHDG,316.2,0.0,E,,*2F
$GPRMC,030039.4,A,4742.33523,N,12225.23935,W,005.76,171.9,170513,016.6,E,D*2C
$PGRME,2.4,M,2.4,M,3.4,M*29
$YXXDR*4F
$HCHDG,316.2,0.0,E,,*2F
$HCHDG,316.1,0.0,E,,*2C
$GPRMC,030039.6,A,4742.33493,N,12225.23925,W,005.73,171.2,170513,016.6,E,D*2B
$PGRME,2.4,M,2.4,M,3.4,M*29
$HCHDG,316.1,0.0,E,,*2C
$IIGLL,4742.335,N,12225.239,W,030000,A,A*4F
$IIMTW,+09.0,C*31
$HCHDG,316.1,0.0,E,,*2C
$GPRMC,030039.8,A,4742.33463,N,12225.23914,W,005.69,170.8,170513,016.6,E,D*28
$GPRMB,A,-0.43,L,,N,4741.0622,N,12224.6030,W,1.3,161,5.61,V*6A
$PGRME,2.4,M,2.4,M,3.4,M*29
$IIRMB,A,,,,N   ,,,,,001.3,161,,V,A*7F
$HCHDG,316.2,0.0,E,,*2F
$YXXDR*4F
$IIRMC,030000,A,4742.335,N,12225.239,W,05.7,172,160513,16,E,A*12
$HCHDG,316.2,0.0,E,,*2F
$GPRMC,030040.0,A,4742.33433,N,12225.23902,W,005.65,170.3,170513,016.6,E,D*2B
$PGRME,2.4,M,2.4,M,3.4,M*29
$IIVHW,,,,,00.0,N,,*19
$IIVLW,06236,N,000.0,N*52
$HCHDG,316.3,0.0,E,,*2E
$HCHDG,316.3,0.0,E,,*2E
$GPRMC,030040.2,A,4742.33401,N,12225.23893,W,005.60,169.9,170513,016.6,E,D*26
$PGRME,2.4,M,2.4,M,3.4,M*29
$HCHDG,316.5,0.0,E,,*28
$HCHDG,316.6,0.0,E,,*2B
$GPRMC,030040.4,A,4742.33369,N,12225.23883,W,005.55,170.4,170513,016.6,E,D*2B
$PGRME,2.4,M,2.4,M,3.4,M*29
$YXXDR*4F
$HCHDG,316.7,0.0,E,,*2A
$HCHDG,316.7,0.0,E,,*2A
$GPRMC,030040.6,A,4742.33335,N,12225.23880,W,005.52,170.8,170513,016.6,E,D*28
$PGRME,2.4,M,2.4,M,3.4,M*29
$HCHDG,317.0,0.0,E,,*2C
$IIGLL,4742.334,N,12225.238,W,030000,A,A*4F
$IIMTW,+09.0,C*31
$HCHDG,317.1,0.0,E,,*2D
$GPRMC,030040.8,A,4742.33304,N,12225.23884,W,005.49,172.1,170513,016.6,E,D*21
$PGRME,2.4,M,2.4,M,3.4,M*29
$IIRMB,A,,,,N   ,,,,,001.3,161,,V,A*7F
$HCHDG,317.3,0.0,E,,*2F
$YXXDR*4F
$IIRMC,030000,A,4742.334,N,12225.238,W,05.6,169,160513,16,E,A*19
$HCHDG,317.4,0.0,E,,*28
$GPRMC,030041.0,A,4742.33272,N,12225.23887,W,005.49,171.9,170513,016.6,E,D*20
$GPRMB,A,-0.43,L,,N,4741.0622,N,12224.6030,W,1.3,161,5.40,V*69
$PGRME,2.4,M,2.4,M,3.4,M*29
$IIVHW,,,,,00.0,N,,*19
$IIVLW,06236,N,000.0,N*52
$HCHDG,317.6,0.0,E,,*2A
$HCHDG,317.9,0.0,E,,*25
$GPRMC,030041.2,A,4742.33237,N,12225.23878,W,005.45,172.1,170513,016.6,E,D*24
$PGRME,2.4,M,2.4,M,3.4,M*29
$HCHDG,318.1,0.0,E,,*22
$HCHDG,318.3,0.0,E,,*20
$GPRMC,030041.4,A,4742.33208,N,12225.23871,W,005.42,171.5,170513,016.6,E,D*27
$PGRME,2.4,M,2.4,M,3.4,M*29
$YXXDR*4F
$HCHDG,318.7,0.0,E,,*24
$HCHDG,318.8,0.0,E,,*2B
$GPRMC,030041.6,A,4742.33181,N,12225.23867,W,005.40,171.3,170513,016.6,E,D*24
$PGRME,2.4,M,2.4,M,3.4,M*29
$HCHDG,319.1,0.0,E,,*23
$IIGLL,4742.334,N,12225.238,W,030000,A,A*4F
$IIMTW,+09.0,C*31
$HCHDG,319.4,0.0,E,,*26
$GPRMC,030041.8,A,4742.33149,N,12225.23862,W,005.39,172.0,170513,016.6,E,D*25
$PGRME,2.4,M,2.4,M,3.4,M*29
$IIRMB,A,,,,N   ,,,,,001.3,161,,V,A*7F
$HCHDG,319.6,0.0,E,,*24
$YXXDR*4F
$IIRMC,030000,A,4742.334,N,12225.238,W,05.6,169,160513,16,E,A*19
$HCHDG,320.0,0.0,E,,*28
$PTAK,FFP1,HEEL,@*07
$GPRMC,030042.0,A,4742.33121,N,12225.23859,W,005.38,171.5,170513,016.6,E,D*2F
$GPRMB,A,-0.43,L,,N,4741.0622,N,12224.6030,W,1.3,161,5.30,V*6E
$PGRME,2.4,M,2.4,M,3.4,M*29
$IIVHW,,,,,00.0,N,,*19
$IIVLW,06236,N,000.0,N*52
$HCHDG,320.1,0.0,E,,*29
$HCHDG,320.5,0.0,E,,*2D
$GPRMC,030042.2,A,4742.33095,N,12225.23849,W,005.35,170.9,170513,016.6,E,D*22
$PGRME,2.4,M,2.4,M,3.4,M*29
$HCHDG,320.8,0.0,E,,*20
$HCHDG,321.0,0.0,E,,*29
$GPRMC,030042.4,A,4742.33059,N,12225.23838,W,005.31,169.0,170513,016.6,E,D*27
$PGRME,2.4,M,2.4,M,3.4,M*29
$YXXDR*4F
$HCHDG,321.4,0.0,E,,*2D
$HCHDG,321.7,0.0,E,,*2E
$GPRMC,030042.6,A,4742.33034,N,12225.23820,W,005.27,167.6,170513,016.6,E,D*28
$PGRME,2.4,M,2.4,M,3.4,M*29
$HCHDG,322.0,0.0,E,,*2A
$IIGLL,4742.332,N,12225.238,W,030000,A,A*49
$IIMTW,+09.0,C*31
$HCHDG,322.1,0.0,E,,*2B
$GPRMC,030042.8,A,4742.33011,N,12225.23809,W,005.26,167.8,170513,016.6,E,D*25
$PGRME,2.4,M,2.4,M,3.4,M*29
$IIRMB,A,,,,N   ,,,,,001.3,161,,V,A*7F
$HCHDG,322.4,0.0,E,,*2E
$YXXDR*4F
$IIRMC,030000,A,4742.332,N,12225.238,W,05.4,171,160513,16,E,A*14
$HCHDG,322.4,0.0,E,,*2E
$GPRMC,030043.0,A,4742.32979,N,12225.23809,W,005.25,166.3,170513,016.6,E,D*23
$GPRMB,A,-0.43,L,,N,4741.0622,N,12224.6030,W,1.3,161,5.23,V*6C
$PGRME,2.4,M,2.4,M,3.4,M*29
$IIVHW,,,,,00.0,N,,*19
$IIVLW,06236,N,000.0,N*52
$HCHDG,322.4,0.0,E,,*2E
$HCHDG,322.4,0.0,E,,*2E
$GPRMC,030043.2,A,4742.32950,N,12225.23803,W,005.29,166.0,170513,016.6,E,D*2F
$PGRME,2.4,M,2.4,M,3.4,M*29
$HCHDG,322.4,0.0,E,,*2E
$HCHDG,322.1,0.0,E,,*2B
$GPRMC,030043.4,A,4742.32916,N,12225.23802,W,005.33,165.2,170513,016.6,E,D*20
$PGRME,2.4,M,2.4,M,3.4,M*29
$YXXDR*4F
$HCHDG,322.0,0.0,E,,*2A
$HCHDG,321.7,0.0,E,,*2E
$GPRMC,030043.6,A,4742.32882,N,12225.23798,W,005.35,165.4,170513,016.6,E,D*22
$PGRME,2.4,M,2.4,M,3.4,M*29
$HCHDG,321.4,0.0,E,,*2D
$IIGLL,4742.330,N,12225.238,W,030000,A,A*4B
$IIMTW,+09.0,C*31
$HCHDG,321.1,0.0,E,,*28
$GPRMC,030043.8,A,4742.32850,N,12225.23791,W,005.38,164.9,170513,016.6,E,D*2B
$PGRME,2.4,M,2.4,M,3.4,M*29
$IIRMB,A,,,,N   ,,,,,001.3,161,,V,A*7F
$HCHDG,320.8,0.0,E,,*20
$YXXDR*4F
$IIRMC,030000,A,4742.330,N,12225.238,W,05.3,169,160513,16,E,A*18
$HCHDG,320.3,0.0,E,,*2B
$GPRMC,030044.0,A,4742.32819,N,12225.23777,W,005.38,162.4,170513,016.6,E,D*2A
$PGRME,2.4,M,2.4,M,3.4,M*29
$IIVHW,,,,,00.0,N,,*19
$PGRMT,GPS 18x-5Hz software ver. 3.20,,,,,,,,*30
$IIVLW,06236,N,000.0,N*52
$HCHDG,319.9,0.0,E,,*2B
$HCHDG,319.6,0.0,E,,*24
$GPRMC,030044.2,A,4742.32794,N,12225.23753,W,005.39,164.7,170513,016.6,E,D*20
$GPRMB,A,-0.43,L,,N,4741.0622,N,12224.6030,W,1.3,161,5.38,V*66
$PGRME,2.4,M,2.4,M,3.4,M*29
$HCHDG,319.2,0.0,E,,*20
$HCHDG,318.8,0.0,E,,*2B
$GPRMC,030044.4,A,4742.32761,N,12225.23737,W,005.37,164.0,170513,016.6,E,D*27
$PGRME,2.4,M,2.4,M,3.4,M*29
$YXXDR*4F
$HCHDG,318.7,0.0,E,,*24
$HCHDG,318.3,0.0,E,,*20
$GPRMC,030044.6,A,4742.32732,N,12225.23731,W,005.34,165.6,170513,016.6,E,D*21
$PGRME,2.4,M,2.4,M,3.4,M*29
$HCHDG,318.0,0.0,E,,*23
$IIGLL,4742.329,N,12225.238,W,030000,A,A*43
$IIMTW,+09.0,C*31
$HCHDG,317.8,0.0,E,,*24
$GPRMC,030044.8,A,4742.32705,N,12225.23720,W,005.34,165.9,170513,016.6,E,D*24
$PGRME,2.4,M,2.4,M,3.4,M*29
$IIRMB,A,,,,N   ,,,,,001.3,161,,V,A*7F
$HCHDG,317.6,0.0,E,,*2A
$YXXDR*4F
$IIRMC,030000,A,4742.329,N,12225.238,W,05.3,165,160513,16,E,A*1C
$HCHDG,317.2,0.0,E,,*2E
$GPRMC,030045.0,A,4742.32677,N,12225.23708,W,005.35,165.7,170513,016.6,E,D*2C
$PGRME,2.4,M,2.4,M,3.4,M*29
$IIVHW,,,,,00.0,N,,*19
$IIVLW,06236,N,000.0,N*52
$HCHDG,317.0,0.0,E,,*2C
$HCHDG,316.8,0.0,E,,*25
$GPRMC,030045.2,A,4742.32655,N,12225.23694,W,005.36,166.6,170513,016.6,E,D*2B
$PGRME,2.4,M,2.4,M,3.4,M*29
$HCHDG,316.5,0.0,E,,*28
$HCHDG,316.5,0.0,E,,*28
$GPRMC,030045.4,A,4742.32628,N,12225.23677,W,005.37,167.0,170513,016.6,E,D*2C
$GPRMB,A,-0.43,L,,N,4741.0622,N,12224.6030,W,1.3,161,5.34,V*6A
$PGRME,2.4,M,2.4,M,3.4,M*29
$YXXDR*4F
$HCHDG,316.5,0.0,E,,*28
$HCHDG,316.6,0.0,E,,*2B
$GPRMC,030045.6,A,4742.32596,N,12225.23668,W,005.38,167.8,170513,016.6,E,D*21
$PGRME,2.4,M,2.4,M,3.4,M*29
$HCHDG,316.8,0.0,E,,*25
$IIGLL,4742.329,N,12225.238,W,030000,A,A*43
$IIMTW,+09.0,C*31
$HCHDG,317.0,0.0,E,,*2C
$GPRMC,030045.8,A,4742.32571,N,12225.23662,W,005.40,167.9,170513,016.6,E,D*22
$PGRME,2.4,M,2.4,M,3.4,M*29
$IIRMB,A,,,,N   ,,,,,001.3,161,,V,A*7F
$HCHDG,317.4,0.0,E,,*28
$YXXDR*4F
$IIRMC,030000,A,4742.329,N,12225.238,W,05.3,165,160513,16,E,A*1C
$HCHDG,317.8,0.0,E,,*24
$PTAK,FFP1,HEEL,@*07
$GPRMC,030046.0,A,4742.32543,N,12225.23648,W,005.38,167.7,170513,016.6,E,D*21
$PGRME,2.4,M,2.4,M,3.4,M*29
$IIVHW,,,,,00.0,N,,*19
$IIVLW,06236,N,000.0,N*52
$HCHDG,318.2,0.0,E,,*21
$HCHDG,318.7,0.0,E,,*24
$GPRMC,030046.2,A,4742.32516,N,12225.23636,W,005.38,167.5,170513,016.6,E,D*28
$PGRME,2.4,M,2.4,M,3.4,M*29
$HCHDG,319.1,0.0,E,,*23
$HCHDG,319.6,0.0,E,,*24
$GPRMC,030046.4,A,4742.32493,N,12225.23624,W,005.39,168.5,170513,016.6,E,D*2F
$PGRME,2.4,M,2.4,M,3.4,M*29
$YXXDR*4F
$HCHDG,320.1,0.0,E,,*29
$HCHDG,320.5,0.0,E,,*2D
$GPRMC,030046.6,A,4742.32466,N,12225.23616,W,005.41,169.0,170513,016.6,E,D*2D
$GPRMB,A,-0.43,L,,N,4741.0622,N,12224.6030,W,1.3,161,5.36,V*68
$PGRME,2.4,M,2.4,M,3.4,M*29
$HCHDG,320.8,0.0,E,,*20
$IIGLL,4742.325,N,12225.236,W,030000,A,A*41
$IIMTW,+09.0,C*31
$HCHDG,321.0,0.0,E,,*29
$GPRMC,030046.8,A,4742.32439,N,12225.23610,W,005.45,170.0,170513,016.6,E,D*23
$PGRME,2.4,M,2.4,M,3.4,M*29
$IIRMB,A,,,,N   ,,,,,001.3,161,,V,A*7F
$HCHDG,321.2,0.0,E,,*2B
$YXXDR*4F
$IIRMC,030000,A,4742.325,N,12225.236,W,05.3,167,160513,16,E,A*1C
$HCHDG,321.3,0.0,E,,*2A
$GPRMC,030047.0,A,4742.32411,N,12225.23599,W,005.50,168.9,170513,016.6,E,D*26
$PGRME,2.4,M,2.4,M,3.4,M*29
$IIVHW,,,,,00.0,N,,*19
$IIVLW,06236,N,000.0,N*52
$HCHDG,321.4,0.0,E,,*2D
$HCHDG,321.5,0.0,E,,*2C
$GPRMC,030047.2,A,4742.32377,N,12225.23590,W,005.54,169.0,170513,016.6,E,D*26
$PGRME,2.4,M,2.4,M,3.4,M*29
$HCHDG,321.6,0.0,E,,*2F
$HCHDG,321.7,0.0,E,,*2E
$GPRMC,030047.4,A,4742.32348,N,12225.23578,W,005.57,167.0,170513,016.6,E,D*27
$PGRME,2.4,M,2.4,M,3.4,M*29
$YXXDR*4F
$HCHDG,321.8,0.0,E,,*21
$HCHDG,321.9,0.0,E,,*20
$GPRMC,030047.6,A,4742.32314,N,12225.23565,W,005.58,169.8,170513,016.6,E,D*29
$PGRME,2.4,M,2.4,M,3.4,M*29
$HCHDG,322.1,0.0,E,,*2B
$IIGLL,4742.324,N,12225.236,W,030000,A,A*40
$IIMTW,+09.0,C*31
$HCHDG,322.3,0.0,E,,*29
$GPRMC,030047.8,A,4742.32282,N,12225.23558,W,005.59,169.2,170513,016.6,E,D*2C
$GPRMB,A,-0.43,L,,N,4741.0622,N,12224.6030,W,1.3,161,5.54,V*6C
$PGRME,2.4,M,2.4,M,3.4,M*29
$IIRMB,A,,,,N   ,,,,,001.3,161,,V,A*7F
$HCHDG,322.5,0.0,E,,*2F
$YXXDR*4F
$IIRMC,030000,A,4742.324,N,12225.236,W,05.4,169,160513,16,E,A*14
$HCHDG,322.7,0.0,E,,*2D
$GPRMC,030048.0,A,4742.32252,N,12225.23548,W,005.59,168.0,170513,016.6,E,D*24
$PGRME,2.4,M,2.4,M,3.4,M*29
$IIVHW,,,,,00.0,N,,*19
$IIVLW,06236,N,000.0,N*52
$HCHDG,323.0,0.0,E,,*2B
$HCHDG,323.0,0.0,E,,*2B
$GPRMC,030048.2,A,4742.32218,N,12225.23539,W,005.40,166.8,170513,016.6,E,D*20
$PGRME,2.4,M,2.4,M,3.4,M*29
$HCHDG,323.3,0.0,E,,*28
$HCHDG,323.3,0.0,E,,*28
$GPRMC,030048.4,A,4742.32191,N,12225.23530,W,005.60,166.1,170513,016.6,E,D*26
$PGRME,2.4,M,2.4,M,3.4,M*29
$YXXDR*4F
$HCHDG,323.4,0.0,E,,*2F
$HCHDG,323.3,0.0,E,,*28
$GPRMC,030048.6,A,4742.32166,N,12225.23525,W,005.41,165.6,170513,016.6,E,D*2F
$PGRME,2.4,M,2.4,M,3.4,M*29
$HCHDG,323.2,0.0,E,,*29
$IIGLL,4742.323,N,12225.235,W,030000,A,A*44
$IIMTW,+09.0,C*31
$HCHDG,323.2,0.0,E,,*29
$GPRMC,030048.8,A,4742.32135,N,12225.23521,W,005.44,164.5,170513,016.6,E,D*24
$PGRME,2.4,M,2.4,M,3.4,M*29
$IIRMB,A,,,,N   ,,,,,001.3,161,,V,A*7F
$HCHDG,322.9,0.0,E,,*23
$YXXDR*4F
$IIRMC,030000,A,4742.323,N,12225.235,W,05.5,169,160513,16,E,A*11
$HCHDG,322.7,0.0,E,,*2D
$GPRMC,030049.0,A,4742.32107,N,12225.23512,W,005.29,164.2,170513,016.6,E,D*20
$GPRMB,A,-0.43,L,,N,4741.0622,N,12224.6030,W,1.3,161,5.28,V*67
$PGRME,2.4,M,2.4,M,3.4,M*29
$IIVHW,,,,,00.0,N,,*19
$IIVLW,06236,N,000.0,N*52
$HCHDG,322.4,0.0,E,,*2E
$HCHDG,322.1,0.0,E,,*2B
$GPRMC,030049.2,A,4742.32078,N,12225.23504,W,005.29,163.9,170513,016.6,E,D*20
$PGRME,2.4,M,2.4,M,3.4,M*29
$HCHDG,321.7,0.0,E,,*2E
$HCHDG,321.4,0.0,E,,*2D
$GPRMC,030049.4,A,4742.32042,N,12225.23493,W,005.31,165.3,170513,016.6,E,D*25
$PGRME,2.4,M,2.4,M,3.4,M*29
$YXXDR*4F
$HCHDG,321.0,0.0,E,,*29
$HCHDG,320.8,0.0,E,,*20
$GPRMC,030049.6,A,4742.32012,N,12225.23474,W,005.26,164.8,170513,016.6,E,D*27
$PGRME,2.4,M,2.4,M,3.4,M*29
$HCHDG,320.4,0.0,E,,*2C
$IIGLL,4742.321,N,12225.235,W,030000,A,A*46
$IIMTW,+09.0,C*31
$HCHDG,320.1,0.0,E,,*29
$GPRMC,030049.8,A,4742.31982,N,12225.23461,W,005.22,165.7,170513,016.6,E,D*24
$PGRME,2.4,M,2.4,M,3.4,M*29
$IIRMB,A,,,,N   ,,,,,001.3,161,,V,A*7F
$HCHDG,319.7,0.0,E,,*25
$YXXDR*4F
$IIRMC,030000,A,4742.321,N,12225.235,W,05.4,165,160513,16,E,A*1E
$HCHDG,319.4,0.0,E,,*26
$GPRMC,030050.0,A,4742.31955,N,12225.23450,W,005.16,165.0,170513,016.6,E,D*2C
$PTAK,FFP1,HEEL,@*07
$PGRME,2.4,M,2.4,M,3.4,M*29
$IIVHW,,,,,00.0,N,,*19
$IIVLW,06236,N,000.0,N*52
$HCHDG,319.3,0.0,E,,*21
$HCHDG,319.2,0.0,E,,*20
$GPRMC,030050.2,A,4742.31927,N,12225.23448,W,005.11,164.2,170513,016.6,E,D*26
$GPRMB,A,-0.43,L,,N,4741.0622,N,12224.6030,W,1.3,161,5.10,V*6C
$PGRME,2.4,M,2.4,M,3.4,M*29
$HCHDG,319.0,0.0,E,,*22
$HCHDG,318.8,0.0,E,,*2B
$GPRMC,030050.4,A,4742.31899,N,12225.23446,W,005.06,165.1,170513,016.6,E,D*2E
$YXXDR*4F
$PGRME,2.4,M,2.4,M,3.4,M*29
$HCHDG,318.7,0.0,E,,*24
$HCHDG,318.7,0.0,E,,*24
$GPRMC,030050.6,A,4742.31873,N,12225.23435,W,005.02,165.4,170513,016.6,E,D*2D
$PGRME,2.4,M,2.4,M,3.4,M*29
$HCHDG,318.6,0.0,E,,*25
$IIGLL,4742.320,N,12225.234,W,030000,A,A*46
$IIMTW,+09.0,C*31
$HCHDG,318.7,0.0,E,,*24
$GPRMC,030050.8,A,4742.31842,N,12225.23419,W,004.99,165.3,170513,016.6,E,D*2B
$PGRME,2.4,M,2.4,M,3.4,M*29
$IIRMB,A,,,,N   ,,,,,001.3,161,,V,A*7F
$HCHDG,318.6,0.0,E,,*25
$YXXDR*4F
$IIRMC,030000,A,4742.320,N,12225.234,W,05.2,164,160513,16,E,A*19
$HCHDG,318.8,0.0,E,,*2B
$GPRMC,030051.0,A,4742.31812,N,12225.23410,W,004.97,165.2,170513,016.6,E,D*21
$PGRME,2.4,M,2.4,M,3.4,M*29
$IIVHW,,,,,00.0,N,,*19
$IIVLW,06236,N,000.0,N*52
$HCHDG,318.8,0.0,E,,*2B
$HCHDG,318.8,0.0,E,,*2B
$GPRMC,030051.2,A,4742.31785,N,12225.23396,W,004.99,165.7,170513,016.6,E,D*20
$PGRME,2.4,M,2.4,M,3.4,M*29
$HCHDG,319.0,0.0,E,,*22
$HCHDG,319.1,0.0,E,,*23
$GPRMC,030051.4,A,4742.31755,N,12225.23389,W,005.00,165.9,170513,016.6,E,D*2A
$GPRMB,A,-0.43,L,,N,4741.0622,N,12224.6030,W,1.3,161,4.98,V*6D
$PGRME,2.4,M,2.4,M,3.4,M*29
$YXXDR*4F
$HCHDG,319.3,0.0,E,,*21
$HCHDG,319.5,0.0,E,,*27
$GPRMC,030051.6,A,4742.31723,N,12225.23379,W,005.01,166.5,170513,016.6,E,D*28
$PGRME,2.4,M,2.4,M,3.4,M*29
$HCHDG,319.7,0.0,E,,*25
$IIGLL,4742.318,N,12225.234,W,030000,A,A*4D
$IIMTW,+09.0,C*31
$HCHDG,320.0,0.0,E,,*28
$GPRMC,030051.8,A,4742.31697,N,12225.23376,W,005.24,167.7,170513,016.6,E,D*23
$PGRME,2.4,M,2.4,M,3.4,M*29
$IIRMB,A,,,,N   ,,,,,001.3,161,,V,A*7F
$HCHDG,320.3,0.0,E,,*2B
$YXXDR*4F
$IIRMC,030000,A,4742.318,N,12225.234,W,05.0,165,160513,16,E,A*11
$HCHDG,320.6,0.0,E,,*2E
$GPRMC,030052.0,A,4742.31672,N,12225.23377,W,005.23,167.3,170513,016.6,E,D*21
$PGRME,2.4,M,2.4,M,3.4,M*29
$IIVHW,,,,,00.0,N,,*19
$IIVLW,06236,N,000.0,N*52
$HCHDG,321.0,0.0,E,,*29
$HCHDG,321.2,0.0,E,,*2B
$GPRMC,030052.2,A,4742.31651,N,12225.23376,W,005.22,166.7,170513,016.6,E,D*27
$PGRME,2.4,M,2.4,M,3.4,M*29
$HCHDG,321.7,0.0,E,,*2E
$HCHDG,322.1,0.0,E,,*2B
$GPRMC,030052.4,A,4742.31630,N,12225.23372,W,005.39,166.6,170513,016.6,E,D*29
$PGRME,2.4,M,2.4,M,3.4,M*29
$YXXDR*4F
$HCHDG,322.4,0.0,E,,*2E
$HCHDG,322.7,0.0,E,,*2D
$GPRMC,030052.6,A,4742.31603,N,12225.23372,W,005.39,165.4,170513,016.6,E,D*2A
$GPRMB,A,-0.42,L,,N,4741.0622,N,12224.6030,W,1.3,161,5.38,V*67
$PGRME,2.4,M,2.4,M,3.4,M*29
$HCHDG,322.9,0.0,E,,*23
$IIGLL,4742.317,N,12225.233,W,030000,A,A*45
$IIMTW,+09.0,C*31
$HCHDG,323.1,0.0,E,,*2A
$GPRMC,030052.8,A,4742.31579,N,12225.23357,W,005.56,166.6,170513,016.6,E,D*25
$PGRME,2.4,M,2.4,M,3.4,M*29
$IIRMB,A,,,,N   ,,,,,001.3,161,,V,A*7F
$HCHDG,323.3,0.0,E,,*28
$YXXDR*4F
$IIRMC,030000,A,4742.317,N,12225.233,W,05.0,166,160513,16,E,A*1A
$HCHDG,323.4,0.0,E,,*2F
$GPRMC,030053.0,A,4742.31557,N,12225.23348,W,005.53,167.1,170513,016.6,E,D*2D
$PGRME,2.4,M,2.4,M,3.4,M*29
$IIVHW,,,,,00.0,N,,*19
$IIVLW,06236,N,000.0,N*52
$HCHDG,323.4,0.0,E,,*2F
$HCHDG,323.5,0.0,E,,*2E
$GPRMC,030053.2,A,4742.31527,N,12225.23342,W,005.58,167.3,170513,016.6,E,D*2B
$PGRME,2.4,M,2.4,M,3.4,M*29
$HCHDG,323.5,0.0,E,,*2E
$HCHDG,323.5,0.0,E,,*2E
$GPRMC,030053.4,A,4742.31497,N,12225.23338,W,005.62,167.0,170513,016.6,E,D*20
$PGRME,2.4,M,2.4,M,3.4,M*29
$YXXDR*4F
$HCHDG,323.6,0.0,E,,*2D
$HCHDG,323.6,0.0,E,,*2D
$GPRMC,030053.6,A,4742.31465,N,12225.23334,W,005.63,166.6,170513,016.6,E,D*25
$PGRME,2.4,M,2.4,M,3.4,M*29
$HCHDG,323.6,0.0,E,,*2D
$IIGLL,4742.317,N,12225.233,W,030000,A,A*45
$IIMTW,+09.0,C*31
$HCHDG,323.6,0.0,E,,*2D
$GPRMC,030053.8,A,4742.31433,N,12225.23321,W,005.83,166.6,170513,016.6,E,D*22
$GPRMB,A,-0.42,L,,N,4741.0622,N,12224.6030,W,1.3,161,5.80,V*64
$PGRME,2.4,M,2.4,M,3.4,M*29
$IIRMB,A,,,,N   ,,,,,001.3,161,,V,A*7F
$HCHDG,323.6,0.0,E,,*2D
$YXXDR*4F
$IIRMC,030000,A,4742.317,N,12225.233,W,05.0,166,160513,16,E,A*1A
$HCHDG,323.6,0.0,E,,*2D
$PTAK,FFP1,HEEL,@*07
$GPRMC,030054.0,A,4742.31399,N,12225.23313,W,005.77,166.5,170513,016.6,E,D*23
$PGRME,2.4,M,2.4,M,3.4,M*29
$IIVHW,,,,,00.0,N,,*19
$IIVLW,06236,N,000.0,N*52
$HCHDG,323.5,0.0,E,,*2E
$HCHDG,323.4,0.0,E,,*2F
$GPRMC,030054.2,A,4742.31364,N,12225.23308,W,005.77,165.1,170513,016.6,E,D*2E
$PGRME,2.4,M,2.4,M,3.4,M*29
$HCHDG,323.2,0.0,E,,*29
$HCHDG,323.1,0.0,E,,*2A
$GPRMC,030054.4,A,4742.31333,N,12225.23297,W,005.73,164.6,170513,016.6,E,D*2F
$PGRME,2.4,M,2.4,M,3.4,M*29
$YXXDR*4F
$HCHDG,322.8,0.0,E,,*22
$HCHDG,322.6,0.0,E,,*2C
$GPRMC,030054.6,A,4742.31301,N,12225.23286,W,005.72,163.5,170513,016.6,E,D*29
$PGRME,2.4,M,2.4,M,3.4,M*29
$HCHDG,322.2,0.0,E,,*28
$IIGLL,4742.314,N,12225.233,W,030000,A,A*46
$IIMTW,+09.0,C*31
$HCHDG,322.1,0.0,E,,*2B
$GPRMC,030054.8,A,4742.31268,N,12225.23259,W,005.56,161.9,170513,016.6,E,D*23
$GPRMB,A,-0.42,L,,N,4741.0622,N,12224.6030,W,1.3,161,5.56,V*6F
$PGRME,2.4,M,2.4,M,3.4,M*29
$IIRMB,A,,,,N   ,,,,,001.3,161,,V,A*7F
$HCHDG,321.7,0.0,E,,*2E
$YXXDR*4F
$IIRMC,030000,A,4742.314,N,12225.233,W,05.8,166,160513,16,E,A*11
$HCHDG,321.6,0.0,E,,*2F
$GPRMC,030055.0,A,4742.31243,N,12225.23239,W,005.62,162.2,170513,016.6,E,D*2A
$PGRME,2.4,M,2.4,M,3.4,M*29
$IIVHW,,,,,00.0,N,,*19
$IIVLW,06236,N,000.0,N*52
$HCHDG,321.3,0.0,E,,*2A
$HCHDG,321.1,0.0,E,,*28
$GPRMC,030055.2,A,4742.31218,N,12225.23214,W,005.37,159.8,170513,016.6,E,D*2B
