$PGRME,2.4,M,2.4,M,3.4,M*29
$HCHDG,266.7,0.0,E,,*2C
$YXXDR,A,5.4,D,PTCH,A,3.6,D,ROLL*59
$HCHDG,266.7,0.0,E,,*2C
$GPRMC,040001.0,A,4740.81406,N,12224.43878,W,000.00,287.3,190513,016.6,E,D*2C
$PTAK,FFP1,HEEL,@*07
$PGRME,2.4,M,2.4,M,3.4,M*29
$HCHDG,266.7,0.0,E,,*2C
$HCHDG,266.7,0.0,E,,*2C
$GPRMC,040001.2,A,4740.81406,N,12224.43878,W,000.00,287.3,190513,016.6,E,D*2E
$PGRME,2.4,M,2.4,M,3.4,M*29
$HCHDG,266.6,0.0,E,,*2D
$HCHDG,266.6,0.0,E,,*2D
$GPRMC,040001.4,A,4740.81406,N,12224.43878,W,000.00,287.3,190513,016.6,E,D*28
$PGRME,2.4,M,2.4,M,3.4,M*29
$YXXDR,A,5.5,D,PTCH,A,3.7,D,ROLL*59
$HCHDG,266.6,0.0,E,,*2D
$HCHDG,266.6,0.0,E,,*2D
$GPRMC,040001.6,A,4740.81406,N,12224.43878,W,000.01,287.3,190513,016.6,E,D*2B
$GPRMB,A,0.11,L,,N,4741.0622,N,12224.6030,W,0.3,336,0.01,V*42
$PGRME,2.4,M,2.4,M,3.4,M*29
$HCHDG,266.6,0.0,E,,*2D
$HCHDG,266.6,0.0,E,,*2D
$GPRMC,040001.8,A,4740.81406,N,12224.43878,W,000.00,287.3,190513,016.6,E,D*24
$PGRME,2.4,M,2.4,M,3.4,M*29
$HCHDG,266.6,0.0,E,,*2D
$YXXDR,A,5.5,D,PTCH,A,3.7,D,ROLL*59
$PTAK,FFD1,3.7*51
$HCHDG,266.6,0.0,E,,*2D
$GPRMC,040002.0,A,4740.81406,N,12224.43879,W,000.00,287.3,190513,016.6,E,D*2E
$PGRME,2.4,M,2.4,M,3.4,M*29
$HCHDG,266.6,0.0,E,,*2D
$HCHDG,266.6,0.0,E,,*2D
$GPRMC,040002.2,A,4740.81406,N,12224.43879,W,000.00,287.3,190513,016.6,E,D*2C
$PGRME,2.4,M,2.4,M,3.4,M*29
$HCHDG,266.6,0.0,E,,*2D
$HCHDG,266.6,0.0,E,,*2D
$GPRMC,040002.4,A,4740.81406,N,12224.43879,W,000.00,287.3,190513,016.6,E,D*2A
$PGRME,2.4,M,2.4,M,3.4,M*29
$YXXDR,A,5.5,D,PTCH,A,3.7,D,ROLL*59
$HCHDG,266.6,0.0,E,,*2D
$HCHDG,266.6,0.0,E,,*2D
$GPRMC,040002.6,A,4740.81405,N,12224.43879,W,000.00,287.3,190513,016.6,E,D*2B
$PGRME,2.4,M,2.4,M,3.4,M*29
$HCHDG,266.6,0.0,E,,*2D
$HCHDG,266.5,0.0,E,,*2E
$GPRMC,040002.8,A,4740.81405,N,12224.43879,W,000.00,287.3,190513,016.6,E,D*25
$GPRMB,A,0.11,L,,N,4741.0622,N,12224.6030,W,0.3,336,0.00,V*43
$PGRME,2.4,M,2.4,M,3.4,M*29
$HCHDG,266.6,0.0,E,,*2D
$YXXDR,A,5.5,D,PTCH,A,3.7,D,ROLL*59
$PTAK,FFD1,3.7*51
$HCHDG,266.7,0.0,E,,*2C
$GPRMC,040003.0,A,4740.81405,N,12224.43879,W,000.00,287.3,190513,016.6,E,D*2C
$PGRME,2.4,M,2.4,M,3.4,M*29
$HCHDG,266.6,0.0,E,,*2D
$HCHDG,266.6,0.0,E,,*2D
$GPRMC,040003.2,A,4740.81405,N,12224.43879,W,000.00,287.3,190513,016.6,E,D*2E
$PGRME,2.4,M,2.4,M,3.4,M*29
$HCHDG,266.7,0.0,E,,*2C
$HCHDG,266.7,0.0,E,,*2C
$GPRMC,040003.4,A,4740.81405,N,12224.43879,W,000.00,287.3,190513,016.6,E,D*28
$PGRME,2.4,M,2.4,M,3.4,M*29
$YXXDR,A,5.5,D,PTCH,A,3.7,D,ROLL*59
$HCHDG,266.7,0.0,E,,*2C
$HCHDG,266.6,0.0,E,,*2D
$GPRMC,040003.6,A,4740.81405,N,12224.43879,W,000.00,287.3,190513,016.6,E,D*2A
$PGRME,2.4,M,2.4,M,3.4,M*29
$HCHDG,266.6,0.0,E,,*2D
$HCHDG,266.6,0.0,E,,*2D
$GPRMC,040003.8,A,4740.81405,N,12224.43879,W,000.00,287.3,190513,016.6,E,D*24
$PGRME,2.4,M,2.4,M,3.4,M*29
$HCHDG,266.6,0.0,E,,*2D
$YXXDR,A,5.4,D,PTCH,A,3.6,D,ROLL*59
$HCHDG,266.6,0.0,E,,*2D
$GPRMC,040004.0,A,4740.81405,N,12224.43879,W,000.00,287.3,190513,016.6,E,D*2B
$GPRMB,A,0.11,L,,N,4741.0622,N,12224.6030,W,0.3,336,0.00,V*43
$PGRME,2.4,M,2.4,M,3.4,M*29
$HCHDG,266.6,0.0,E,,*2D
$HCHDG,266.6,0.0,E,,*2D
$GPRMC,040004.2,A,4740.81405,N,12224.43880,W,000.00,287.3,190513,016.6,E,D*2F
$PGRME,2.4,M,2.4,M,3.4,M*29
$HCHDG,266.6,0.0,E,,*2D
$HCHDG,266.6,0.0,E,,*2D
$GPRMC,040004.4,A,4740.81405,N,12224.43880,W,000.00,287.3,190513,016.6,E,D*29
$PGRME,2.4,M,2.4,M,3.4,M*29
$YXXDR,A,5.4,D,PTCH,A,3.5,D,ROLL*5A
$PTAK,FFD1,3.5*53
$HCHDG,266.7,0.0,E,,*2C
$HCHDG,266.7,0.0,E,,*2C
$GPRMC,040004.6,A,4740.81405,N,12224.43880,W,000.00,287.3,190513,016.6,E,D*2B
$PGRME,2.4,M,2.4,M,3.4,M*29
$HCHDG,266.7,0.0,E,,*2C
$HCHDG,266.7,0.0,E,,*2C
$GPRMC,040004.8,A,4740.81405,N,12224.43880,W,000.00,287.3,190513,016.6,E,D*25
$PGRME,2.4,M,2.4,M,3.4,M*29
$HCHDG,266.7,0.0,E,,*2C
$YXXDR,A,5.5,D,PTCH,A,3.7,D,ROLL*59
$HCHDG,266.7,0.0,E,,*2C
$GPRMC,040005.0,A,4740.81405,N,12224.43880,W,000.00,287.3,190513,016.6,E,D*2C
$GPRMB,A,0.11,L,,N,4741.0622,N,12224.6030,W,0.3,336,0.00,V*43
$PTAK,FFP1,HEEL,@*07
$PGRME,2.4,M,2.4,M,3.4,M*29
$HCHDG,266.7,0.0,E,,*2C
$HCHDG,266.7,0.0,E,,*2C
$GPRMC,040005.2,A,4740.81405,N,12224.43880,W,000.00,287.3,190513,016.6,E,D*2E
$PGRME,2.4,M,2.4,M,3.4,M*29
$HCHDG,266.7,0.0,E,,*2C
$HCHDG,266.7,0.0,E,,*2C
$GPRMC,040005.4,A,4740.81405,N,12224.43880,W,000.01,287.3,190513,016.6,E,D*29
$PGRME,2.4,M,2.4,M,3.4,M*29
$YXXDR,A,5.5,D,PTCH,A,3.7,D,ROLL*59
$PTAK,FFD1,3.7*51
$HCHDG,266.7,0.0,E,,*2C
$HCHDG,266.7,0.0,E,,*2C
$GPRMC,040005.6,A,4740.81405,N,12224.43880,W,000.00,287.3,190513,016.6,E,D*2A
$PGRME,2.4,M,2.4,M,3.4,M*29
$HCHDG,266.7,0.0,E,,*2C
$HCHDG,266.7,0.0,E,,*2C
$GPRMC,040005.8,A,4740.81405,N,12224.43880,W,000.01,287.3,190513,016.6,E,D*25
$PGRME,2.4,M,2.4,M,3.4,M*29
$HCHDG,266.7,0.0,E,,*2C
$YXXDR,A,5.4,D,PTCH,A,3.6,D,ROLL*59
$HCHDG,266.7,0.0,E,,*2C
$GPRMC,040006.0,A,4740.81405,N,12224.43880,W,000.00,287.3,190513,016.6,E,D*2F
$PGRME,2.4,M,2.4,M,3.4,M*29
$HCHDG,266.6,0.0,E,,*2D
$HCHDG,266.6,0.0,E,,*2D
$GPRMC,040006.2,A,4740.81405,N,12224.43881,W,000.01,287.3,190513,016.6,E,D*2D
$GPRMB,A,0.11,L,,N,4741.0622,N,12224.6030,W,0.3,336,0.01,V*42
$PGRME,2.4,M,2.4,M,3.4,M*29
$HCHDG,266.6,0.0,E,,*2D
$HCHDG,266.6,0.0,E,,*2D
$GPRMC,040006.4,A,4740.81405,N,12224.43881,W,000.01,287.3,190513,016.6,E,D*2B
$PGRME,2.4,M,2.4,M,3.4,M*29
$YXXDR,A,5.4,D,PTCH,A,3.6,D,ROLL*59
$HCHDG,266.6,0.0,E,,*2D
$HCHDG,266.6,0.0,E,,*2D
$GPRMC,040006.6,A,4740.81405,N,12224.43881,W,000.01,287.3,190513,016.6,E,D*29
$PGRME,2.4,M,2.4,M,3.4,M*29
$HCHDG,266.6,0.0,E,,*2D
$HCHDG,266.6,0.0,E,,*2D
$GPRMC,040006.8,A,4740.81405,N,12224.43881,W,000.00,287.3,190513,016.6,E,D*26
$PGRME,2.4,M,2.4,M,3.4,M*29
$HCHDG,266.7,0.0,E,,*2C
$YXXDR,A,5.5,D,PTCH,A,3.7,D,ROLL*59
$PTAK,FFD1,3.7*51
$HCHDG,266.7,0.0,E,,*2C
$GPRMC,040007.0,A,4740.81405,N,12224.43881,W,000.01,287.3,190513,016.6,E,D*2E
$PGRME,2.4,M,2.4,M,3.4,M*29
$HCHDG,266.7,0.0,E,,*2C
$HCHDG,266.7,0.0,E,,*2C
$GPRMC,040007.2,A,4740.81405,N,12224.43881,W,000.00,287.3,190513,016.6,E,D*2D
$PGRME,2.4,M,2.4,M,3.4,M*29
$HCHDG,266.7,0.0,E,,*2C
$HCHDG,266.7,0.0,E,,*2C
$GPRMC,040007.4,A,4740.81405,N,12224.43881,W,000.00,287.3,190513,016.6,E,D*2B
$GPRMB,A,0.11,L,,N,4741.0622,N,12224.6030,W,0.3,336,0.00,V*43
$PGRME,2.4,M,2.4,M,3.4,M*29
$YXXDR,A,5.4,D,PTCH,A,3.6,D,ROLL*59
$HCHDG,266.7,0.0,E,,*2C
$HCHDG,266.7,0.0,E,,*2C
$GPRMC,040007.6,A,4740.81405,N,12224.43881,W,000.00,287.3,190513,016.6,E,D*29
$PGRME,2.4,M,2.4,M,3.4,M*29
$HCHDG,266.7,0.0,E,,*2C
$HCHDG,266.7,0.0,E,,*2C
$GPRMC,040007.8,A,4740.81405,N,12224.43882,W,000.00,287.3,190513,016.6,E,D*24
$PGRME,2.4,M,2.4,M,3.4,M*29
$HCHDG,266.7,0.0,E,,*2C
$YXXDR,A,5.4,D,PTCH,A,3.6,D,ROLL*59
$HCHDG,266.7,0.0,E,,*2C
$GPRMC,040008.0,A,4740.81405,N,12224.43882,W,000.01,287.3,190513,016.6,E,D*22
$PGRME,2.4,M,2.4,M,3.4,M*29
$HCHDG,266.7,0.0,E,,*2C
$HCHDG,266.7,0.0,E,,*2C
$GPRMC,040008.2,A,4740.81405,N,12224.43882,W,000.00,287.3,190513,016.6,E,D*21
$PGRME,2.4,M,2.4,M,3.4,M*29
$HCHDG,266.7,0.0,E,,*2C
$HCHDG,266.7,0.0,E,,*2C
$GPRMC,040008.4,A,4740.81405,N,12224.43882,W,000.00,287.3,190513,016.6,E,D*27
$PGRME,2.4,M,2.4,M,3.4,M*29
$YXXDR,A,5.4,D,PTCH,A,3.6,D,ROLL*59
$PTAK,FFD1,3.6*50
$HCHDG,266.7,0.0,E,,*2C
$HCHDG,266.7,0.0,E,,*2C
$GPRMC,040008.6,A,4740.81405,N,12224.43882,W,000.00,287.3,190513,016.6,E,D*25
$GPRMB,A,0.11,L,,N,4741.0622,N,12224.6030,W,0.3,336,0.00,V*43
$PGRME,2.4,M,2.4,M,3.4,M*29
$HCHDG,266.7,0.0,E,,*2C
$HCHDG,266.7,0.0,E,,*2C
$GPRMC,040008.8,A,4740.81405,N,12224.43882,W,000.01,287.3,190513,016.6,E,D*2A
$PGRME,2.4,M,2.4,M,3.4,M*29
$HCHDG,266.7,0.0,E,,*2C
$YXXDR,A,5.6,D,PTCH,A,3.6,D,ROLL*5B
$HCHDG,266.7,0.0,E,,*2C
$GPRMC,040009.0,A,4740.81405,N,12224.43882,W,000.00,287.3,190513,016.6,E,D*22
$PGRME,2.4,M,2.4,M,3.4,M*29
$HCHDG,266.7,0.0,E,,*2C
$HCHDG,266.7,0.0,E,,*2C
$GPRMC,040009.2,A,4740.81405,N,12224.43882,W,000.00,287.3,190513,016.6,E,D*20
$PTAK,FFP1,HEEL,@*07
$PGRME,2.4,M,2.4,M,3.4,M*29
$HCHDG,266.7,0.0,E,,*2C
$HCHDG,266.7,0.0,E,,*2C
$GPRMC,040009.4,A,4740.81405,N,12224.43882,W,000.00,287.3,190513,016.6,E,D*26
$PGRME,2.4,M,2.4,M,3.4,M*29
$YXXDR,A,5.5,D,PTCH,A,3.8,D,ROLL*56
$PTAK,FFD1,3.8*5E
$HCHDG,266.7,0.0,E,,*2C
$HCHDG,266.6,0.0,E,,*2D
$GPRMC,040009.6,A,4740.81405,N,12224.43882,W,000.01,287.3,190513,016.6,E,D*25
$GPRMB,A,0.11,L,,N,4741.0622,N,12224.6030,W,0.3,336,0.01,V*42
$PGRME,2.4,M,2.4,M,3.4,M*29
$HCHDG,266.6,0.0,E,,*2D
$HCHDG,266.6,0.0,E,,*2D
$GPRMC,040009.8,A,4740.81405,N,12224.43882,W,000.01,287.3,190513,016.6,E,D*2B
$PGRME,2.4,M,2.4,M,3.4,M*29
$HCHDG,266.6,0.0,E,,*2D
$YXXDR,A,5.4,D,PTCH,A,3.6,D,ROLL*59
$HCHDG,266.6,0.0,E,,*2D
$GPRMC,040010.0,A,4740.81405,N,12224.43882,W,000.01,287.3,190513,016.6,E,D*2B
$PGRME,2.4,M,2.4,M,3.4,M*29
$HCHDG,266.6,0.0,E,,*2D
$HCHDG,266.6,0.0,E,,*2D
$GPRMC,040010.2,A,4740.81405,N,12224.43883,W,000.01,287.3,190513,016.6,E,D*28
$PGRME,2.4,M,2.4,M,3.4,M*29
$HCHDG,266.6,0.0,E,,*2D
$HCHDG,266.6,0.0,E,,*2D
$GPRMC,040010.4,A,4740.81405,N,12224.43883,W,000.00,287.3,190513,016.6,E,D*2F
$PGRME,2.4,M,2.4,M,3.4,M*29
$YXXDR,A,5.4,D,PTCH,A,3.6,D,ROLL*59
$PTAK,FFD1,3.6*50
$HCHDG,266.6,0.0,E,,*2D
$HCHDG,266.6,0.0,E,,*2D
$GPRMC,040010.6,A,4740.81405,N,12224.43883,W,000.00,287.3,190513,016.6,E,D*2D
$GPRMB,A,0.11,L,,N,4741.0622,N,12224.6030,W,0.3,336,0.00,V*43
$PGRME,2.4,M,2.4,M,3.4,M*29
$HCHDG,266.6,0.0,E,,*2D
$HCHDG,266.6,0.0,E,,*2D
$GPRMC,040010.8,A,4740.81405,N,12224.43883,W,000.01,287.3,190513,016.6,E,D*22
$PGRME,2.4,M,2.4,M,3.4,M*29
$HCHDG,266.6,0.0,E,,*2D
$YXXDR,A,5.4,D,PTCH,A,3.6,D,ROLL*59
$HCHDG,266.6,0.0,E,,*2D
$GPRMC,040011.0,A,4740.81405,N,12224.43883,W,000.00,287.3,190513,016.6,E,D*2A
$PGRME,2.4,M,2.4,M,3.4,M*29
$HCHDG,266.6,0.0,E,,*2D
$HCHDG,266.6,0.0,E,,*2D
$GPRMC,040011.2,A,4740.81405,N,12224.43883,W,000.00,287.3,190513,016.6,E,D*28
$PGRME,2.4,M,2.4,M,3.4,M*29
$HCHDG,266.6,0.0,E,,*2D
$HCHDG,266.7,0.0,E,,*2C
$GPRMC,040011.4,A,4740.81405,N,12224.43883,W,000.01,287.3,190513,016.6,E,D*2F
$PGRME,2.4,M,2.4,M,3.4,M*29
$YXXDR,A,5.5,D,PTCH,A,3.7,D,ROLL*59
$PTAK,FFD1,3.7*51
$HCHDG,266.7,0.0,E,,*2C
$HCHDG,266.7,0.0,E,,*2C
$GPRMC,040011.6,A,4740.81405,N,12224.43883,W,000.01,287.3,190513,016.6,E,D*2D
$GPRMB,A,0.11,L,,N,4741.0622,N,12224.6030,W,0.3,336,0.01,V*42
$PGRME,2.4,M,2.4,M,3.4,M*29
$HCHDG,266.7,0.0,E,,*2C
$HCHDG,266.7,0.0,E,,*2C
$GPRMC,040011.8,A,4740.81405,N,12224.43883,W,000.01,287.3,190513,016.6,E,D*23
$PGRME,2.4,M,2.4,M,3.4,M*29
$HCHDG,266.7,0.0,E,,*2C
$YXXDR,A,5.5,D,PTCH,A,3.7,D,ROLL*59
$HCHDG,266.7,0.0,E,,*2C
$GPRMC,040012.0,A,4740.81406,N,12224.43883,W,000.00,287.3,190513,016.6,E,D*2A
$PGRME,2.4,M,2.4,M,3.4,M*29
$HCHDG,266.7,0.0,E,,*2C
$HCHDG,266.7,0.0,E,,*2C
$GPRMC,040012.2,A,4740.81406,N,12224.43883,W,000.01,287.3,190513,016.6,E,D*29
$PGRME,2.4,M,2.4,M,3.4,M*29
$HCHDG,266.8,0.0,E,,*23
$HCHDG,266.8,0.0,E,,*23
$GPRMC,040012.4,A,4740.81406,N,12224.43883,W,000.00,287.3,190513,016.6,E,D*2E
$PGRME,2.4,M,2.4,M,3.4,M*29
$YXXDR,A,5.5,D,PTCH,A,3.7,D,ROLL*59
$PTAK,FFD1,3.7*51
$HCHDG,266.8,0.0,E,,*23
$HCHDG,266.8,0.0,E,,*23
$GPRMC,040012.6,A,4740.81406,N,12224.43884,W,000.00,287.3,190513,016.6,E,D*2B
$GPRMB,A,0.11,L,,N,4741.0622,N,12224.6030,W,0.3,336,0.00,V*43
$PGRME,2.4,M,2.4,M,3.4,M*29
$HCHDG,266.8,0.0,E,,*23
$HCHDG,266.8,0.0,E,,*23
$GPRMC,040012.8,A,4740.81406,N,12224.43884,W,000.00,287.3,190513,016.6,E,D*25
$PGRME,2.4,M,2.4,M,3.4,M*29
$HCHDG,266.8,0.0,E,,*23
$YXXDR,A,5.4,D,PTCH,A,3.6,D,ROLL*59
$HCHDG,266.7,0.0,E,,*2C
$GPRMC,040013.0,A,4740.81406,N,12224.43884,W,000.01,287.3,190513,016.6,E,D*2D
$PGRME,2.4,M,2.4,M,3.4,M*29
$HCHDG,266.7,0.0,E,,*2C
$HCHDG,266.7,0.0,E,,*2C
$GPRMC,040013.2,A,4740.81406,N,12224.43884,W,000.01,287.3,190513,016.6,E,D*2F
$PTAK,FFP1,HEEL,@*07
$PGRME,2.4,M,2.4,M,3.4,M*29
$HCHDG,266.7,0.0,E,,*2C
$HCHDG,266.7,0.0,E,,*2C
$GPRMC,040013.4,A,4740.81406,N,12224.43884,W,000.00,287.3,190513,016.6,E,D*28
$PGRME,2.4,M,2.4,M,3.4,M*29
$YXXDR,A,5.4,D,PTCH,A,3.6,D,ROLL*59
$HCHDG,266.7,0.0,E,,*2C
$HCHDG,266.7,0.0,E,,*2C
$GPRMC,040013.6,A,4740.81406,N,12224.43884,W,000.00,287.3,190513,016.6,E,D*2A
$PGRME,2.4,M,2.4,M,3.4,M*29
$HCHDG,266.7,0.0,E,,*2C
$HCHDG,266.7,0.0,E,,*2C
$GPRMC,040013.8,A,4740.81406,N,12224.43884,W,000.00,287.3,190513,016.6,E,D*24
$GPRMB,A,0.11,L,,N,4741.0622,N,12224.6030,W,0.3,336,0.00,V*43
$PGRME,2.4,M,2.4,M,3.4,M*29
$HCHDG,266.7,0.0,E,,*2C
$YXXDR,A,5.5,D,PTCH,A,3.7,D,ROLL*59
$PTAK,FFD1,3.7*51
$HCHDG,266.7,0.0,E,,*2C
$GPRMC,040014.0,A,4740.81406,N,12224.43884,W,000.00,287.3,190513,016.6,E,D*2B
$PGRME,2.4,M,2.4,M,3.4,M*29
$HCHDG,266.7,0.0,E,,*2C
$HCHDG,266.7,0.0,E,,*2C
$GPRMC,040014.2,A,4740.81406,N,12224.43884,W,000.01,287.3,190513,016.6,E,D*28
$PGRME,2.4,M,2.4,M,3.4,M*29
$HCHDG,266.7,0.0,E,,*2C
$HCHDG,266.7,0.0,E,,*2C
$GPRMC,040014.4,A,4740.81406,N,12224.43884,W,000.00,287.3,190513,016.6,E,D*2F
$PGRME,2.4,M,2.4,M,3.4,M*29
$YXXDR,A,5.5,D,PTCH,A,3.7,D,ROLL*59
$HCHDG,266.7,0.0,E,,*2C
$HCHDG,266.7,0.0,E,,*2C
$GPRMC,040014.6,A,4740.81406,N,12224.43884,W,000.01,287.3,190513,016.6,E,D*2C
$PGRME,2.4,M,2.4,M,3.4,M*29
$HCHDG,266.7,0.0,E,,*2C
$HCHDG,266.7,0.0,E,,*2C
$GPRMC,040014.8,A,4740.81406,N,12224.43884,W,000.00,287.3,190513,016.6,E,D*23
$PGRME,2.4,M,2.4,M,3.4,M*29
$HCHDG,266.8,0.0,E,,*23
$YXXDR,A,5.5,D,PTCH,A,3.7,D,ROLL*59
$HCHDG,266.8,0.0,E,,*23
$GPRMC,040015.0,A,4740.81406,N,12224.43884,W,000.00,287.3,190513,016.6,E,D*2A
$GPRMB,A,0.11,L,,N,4741.0622,N,12224.6030,W,0.3,336,0.00,V*43
$PGRME,2.4,M,2.4,M,3.4,M*29
$HCHDG,266.8,0.0,E,,*23
$HCHDG,266.8,0.0,E,,*23
$GPRMC,040015.2,A,4740.81406,N,12224.43884,W,000.00,287.3,190513,016.6,E,D*28
$PGRME,2.4,M,2.4,M,3.4,M*29
$HCHDG,266.8,0.0,E,,*23
$HCHDG,266.8,0.0,E,,*23
$GPRMC,040015.4,A,4740.81406,N,12224.43884,W,000.01,287.3,190513,016.6,E,D*2F
$PGRME,2.4,M,2.4,M,3.4,M*29
$YXXDR,A,5.5,D,PTCH,A,3.7,D,ROLL*59
$PTAK,FFD1,3.7*51
$HCHDG,266.8,0.0,E,,*23
$HCHDG,266.8,0.0,E,,*23
$GPRMC,040015.6,A,4740.81406,N,12224.43884,W,000.00,287.3,190513,016.6,E,D*2C
$PGRME,2.4,M,2.4,M,3.4,M*29
$HCHDG,266.8,0.0,E,,*23
$HCHDG,266.8,0.0,E,,*23
$GPRMC,040015.8,A,4740.81406,N,12224.43884,W,000.01,287.3,190513,016.6,E,D*23
$PGRME,2.4,M,2.4,M,3.4,M*29
$HCHDG,266.8,0.0,E,,*23
$YXXDR,A,5.5,D,PTCH,A,3.7,D,ROLL*59
$HCHDG,266.8,0.0,E,,*23
$GPRMC,040016.0,A,4740.81406,N,12224.43884,W,000.00,287.3,190513,016.6,E,D*29
$PGRME,2.4,M,2.4,M,3.4,M*29
$HCHDG,266.8,0.0,E,,*23
$HCHDG,266.8,0.0,E,,*23
$GPRMC,040016.2,A,4740.81406,N,12224.43884,W,000.01,287.3,190513,016.6,E,D*2A
$GPRMB,A,0.11,L,,N,4741.0622,N,12224.6030,W,0.3,336,0.01,V*42
$PGRME,2.4,M,2.4,M,3.4,M*29
$HCHDG,266.8,0.0,E,,*23
$HCHDG,266.8,0.0,E,,*23
$GPRMC,040016.4,A,4740.81406,N,12224.43884,W,000.00,287.3,190513,016.6,E,D*2D
$PGRME,2.4,M,2.4,M,3.4,M*29
$YXXDR,A,5.5,D,PTCH,A,3.7,D,ROLL*59
$HCHDG,266.8,0.0,E,,*23
$HCHDG,266.8,0.0,E,,*23
$GPRMC,040016.6,A,4740.81406,N,12224.43885,W,000.00,287.3,190513,016.6,E,D*2E
$PGRME,2.4,M,2.4,M,3.4,M*29
$HCHDG,266.8,0.0,E,,*23
$HCHDG,266.8,0.0,E,,*23
$GPRMC,040016.8,A,4740.81406,N,12224.43885,W,000.00,287.3,190513,016.6,E,D*20
$PGRME,2.4,M,2.4,M,3.4,M*29
$HCHDG,266.8,0.0,E,,*23
$YXXDR,A,5.5,D,PTCH,A,3.7,D,ROLL*59
$PTAK,FFD1,3.7*51
$HCHDG,266.8,0.0,E,,*23
$GPRMC,040017.0,A,4740.81406,N,12224.43885,W,000.01,287.3,190513,016.6,E,D*28
$PGRME,2.4,M,2.4,M,3.4,M*29
$HCHDG,266.8,0.0,E,,*23
$HCHDG,266.8,0.0,E,,*23
$GPRMC,040017.2,A,4740.81406,N,12224.43885,W,000.01,287.3,190513,016.6,E,D*2A
$PTAK,FFP1,HEEL,@*07
$PGRME,2.4,M,2.4,M,3.4,M*29
$HCHDG,266.8,0.0,E,,*23
$HCHDG,266.8,0.0,E,,*23
$GPRMC,040017.4,A,4740.81406,N,12224.43885,W,000.00,287.3,190513,016.6,E,D*2D
$GPRMB,A,0.11,L,,N,4741.0622,N,12224.6030,W,0.3,336,0.00,V*43
$PGRME,2.4,M,2.4,M,3.4,M*29
$YXXDR,A,5.5,D,PTCH,A,3.7,D,ROLL*59
$HCHDG,266.8,0.0,E,,*23
$HCHDG,266.8,0.0,E,,*23
$GPRMC,040017.6,A,4740.81406,N,12224.43885,W,000.00,287.3,190513,016.6,E,D*2F
$PGRME,2.4,M,2.4,M,3.4,M*29
$HCHDG,266.8,0.0,E,,*23
$HCHDG,266.9,0.0,E,,*22
$GPRMC,040017.8,A,4740.81406,N,12224.43885,W,000.00,287.3,190513,016.6,E,D*21
$PGRME,2.4,M,2.4,M,3.4,M*29
$HCHDG,266.9,0.0,E,,*22
$YXXDR,A,5.5,D,PTCH,A,3.7,D,ROLL*59
$HCHDG,266.9,0.0,E,,*22
$GPRMC,040018.0,A,4740.81406,N,12224.43885,W,000.00,287.3,190513,016.6,E,D*26
$PGRME,2.4,M,2.4,M,3.4,M*29
$HCHDG,266.9,0.0,E,,*22
$HCHDG,266.9,0.0,E,,*22
$GPRMC,040018.2,A,4740.81406,N,12224.43885,W,000.00,287.3,190513,016.6,E,D*24
$PGRME,2.4,M,2.4,M,3.4,M*29
$HCHDG,266.9,0.0,E,,*22
$HCHDG,266.9,0.0,E,,*22
$GPRMC,040018.4,A,4740.81406,N,12224.43885,W,000.01,287.3,190513,016.6,E,D*23
$PGRME,2.4,M,2.4,M,3.4,M*29
$YXXDR,A,5.5,D,PTCH,A,3.7,D,ROLL*59
$PTAK,FFD1,3.7*51
$HCHDG,266.9,0.0,E,,*22
$HCHDG,266.9,0.0,E,,*22
$GPRMC,040018.6,A,4740.81406,N,12224.43885,W,000.00,287.3,190513,016.6,E,D*20
$GPRMB,A,0.11,L,,N,4741.0622,N,12224.6030,W,0.3,336,0.00,V*43
$PGRME,2.4,M,2.4,M,3.4,M*29
$HCHDG,266.9,0.0,E,,*22
$HCHDG,266.9,0.0,E,,*22
$GPRMC,040018.8,A,4740.81406,N,12224.43885,W,000.00,287.3,190513,016.6,E,D*2E
$PGRME,2.4,M,2.4,M,3.4,M*29
$HCHDG,266.9,0.0,E,,*22
$YXXDR,A,5.5,D,PTCH,A,3.7,D,ROLL*59
$HCHDG,266.9,0.0,E,,*22
$GPRMC,040019.0,A,4740.81406,N,12224.43885,W,000.00,287.3,190513,016.6,E,D*27
$PGRME,2.4,M,2.4,M,3.4,M*29
$HCHDG,266.9,0.0,E,,*22
$HCHDG,266.8,0.0,E,,*23
$GPRMC,040019.2,A,4740.81406,N,12224.43885,W,000.00,287.3,190513,016.6,E,D*25
$PGRME,2.4,M,2.4,M,3.4,M*29
$HCHDG,266.8,0.0,E,,*23
$HCHDG,266.8,0.0,E,,*23
$GPRMC,040019.4,A,4740.81406,N,12224.43886,W,000.00,287.3,190513,016.6,E,D*20
$PGRME,2.4,M,2.4,M,3.4,M*29
$YXXDR,A,5.5,D,PTCH,A,3.7,D,ROLL*59
$PTAK,FFD1,3.7*51
$HCHDG,266.8,0.0,E,,*23
$HCHDG,266.8,0.0,E,,*23
$GPRMC,040019.6,A,4740.81406,N,12224.43886,W,000.01,287.3,190513,016.6,E,D*23
$PGRME,2.4,M,2.4,M,3.4,M*29
$HCHDG,266.8,0.0,E,,*23
$HCHDG,266.8,0.0,E,,*23
$GPRMC,040019.8,A,4740.81406,N,12224.43886,W,000.00,287.3,190513,016.6,E,D*2C
$GPRMB,A,0.11,L,,N,4741.0622,N,12224.6030,W,0.3,336,0.00,V*43
$PGRME,2.4,M,2.4,M,3.4,M*29
$HCHDG,266.8,0.0,E,,*23
$YXXDR,A,5.5,D,PTCH,A,3.7,D,ROLL*59
$HCHDG,266.8,0.0,E,,*23
$GPRMC,040020.0,A,4740.81406,N,12224.43886,W,000.00,287.3,190513,016.6,E,D*2E
$PGRME,2.4,M,2.4,M,3.4,M*29
$HCHDG,266.8,0.0,E,,*23
$HCHDG,266.8,0.0,E,,*23
$GPRMC,040020.2,A,4740.81406,N,12224.43886,W,000.00,287.3,190513,016.6,E,D*2C
$PGRME,2.4,M,2.4,M,3.4,M*29
$HCHDG,266.8,0.0,E,,*23
$HCHDG,266.8,0.0,E,,*23
$GPRMC,040020.4,A,4740.81406,N,12224.43887,W,000.00,287.3,190513,016.6,E,D*2B
$PGRME,2.4,M,2.4,M,3.4,M*29
$YXXDR,A,5.5,D,PTCH,A,3.7,D,ROLL*59
$PTAK,FFD1,3.7*51
$HCHDG,266.8,0.0,E,,*23
$HCHDG,266.8,0.0,E,,*23
$GPRMC,040020.6,A,4740.81406,N,12224.43887,W,000.00,287.3,190513,016.6,E,D*29
$PGRME,2.4,M,2.4,M,3.4,M*29
$HCHDG,266.8,0.0,E,,*23
$HCHDG,266.8,0.0,E,,*23
$GPRMC,040020.8,A,4740.81406,N,12224.43887,W,000.00,287.3,190513,016.6,E,D*27
$PGRME,2.4,M,2.4,M,3.4,M*29
$HCHDG,266.8,0.0,E,,*23
$YXXDR,A,5.5,D,PTCH,A,3.7,D,ROLL*59
$HCHDG,266.8,0.0,E,,*23
$GPRMC,040021.0,A,4740.81406,N,12224.43887,W,000.00,287.3,190513,016.6,E,D*2E
$GPRMB,A,0.11,L,,N,4741.0622,N,12224.6030,W,0.3,336,0.00,V*43
$PGRME,2.4,M,2.4,M,3.4,M*29
$HCHDG,266.8,0.0,E,,*23
$PTAK,FFP1,HEEL,@*07
$HCHDG,266.8,0.0,E,,*23
$GPRMC,040021.2,A,4740.81406,N,12224.43887,W,000.00,287.3,190513,016.6,E,D*2C
$PGRME,2.4,M,2.4,M,3.4,M*29
$HCHDG,266.8,0.0,E,,*23
$HCHDG,266.8,0.0,E,,*23
$GPRMC,040021.4,A,4740.81406,N,12224.43888,W,000.00,287.3,190513,016.6,E,D*25
$PGRME,2.4,M,2.4,M,3.4,M*29
$YXXDR,A,5.5,D,PTCH,A,3.7,D,ROLL*59
$HCHDG,266.8,0.0,E,,*23
$HCHDG,266.8,0.0,E,,*23
$GPRMC,040021.6,A,4740.81406,N,12224.43888,W,000.00,287.3,190513,016.6,E,D*27
$PGRME,2.4,M,2.4,M,3.4,M*29
$HCHDG,266.8,0.0,E,,*23
$HCHDG,266.8,0.0,E,,*23
$GPRMC,040021.8,A,4740.81406,N,12224.43888,W,000.00,287.3,190513,016.6,E,D*29
$PGRME,2.4,M,2.4,M,3.4,M*29
$HCHDG,266.8,0.0,E,,*23
$YXXDR,A,5.5,D,PTCH,A,3.7,D,ROLL*59
$PTAK,FFD1,3.7*51
$HCHDG,266.8,0.0,E,,*23
$GPRMC,040022.0,A,4740.81406,N,12224.43888,W,000.00,287.3,190513,016.6,E,D*22
$GPRMB,A,0.11,L,,N,4741.0622,N,12224.6030,W,0.3,336,0.00,V*43
$PGRME,2.4,M,2.4,M,3.4,M*29
$HCHDG,266.8,0.0,E,,*23
$HCHDG,266.8,0.0,E,,*23
$GPRMC,040022.2,A,4740.81406,N,12224.43888,W,000.01,287.3,190513,016.6,E,D*21
$PGRME,2.4,M,2.4,M,3.4,M*29
$HCHDG,266.8,0.0,E,,*23
$HCHDG,266.8,0.0,E,,*23
$GPRMC,040022.4,A,4740.81406,N,12224.43888,W,000.00,287.3,190513,016.6,E,D*26
$PGRME,2.4,M,2.4,M,3.4,M*29
$YXXDR,A,5.5,D,PTCH,A,3.7,D,ROLL*59
$HCHDG,266.8,0.0,E,,*23
$HCHDG,266.8,0.0,E,,*23
$GPRMC,040022.6,A,4740.81406,N,12224.43889,W,000.00,287.3,190513,016.6,E,D*25
$PGRME,2.4,M,2.4,M,3.4,M*29
$HCHDG,266.8,0.0,E,,*23
$HCHDG,266.8,0.0,E,,*23
$GPRMC,040022.8,A,4740.81406,N,12224.43889,W,000.00,287.3,190513,016.6,E,D*2B
$PGRME,2.4,M,2.4,M,3.4,M*29
$HCHDG,266.8,0.0,E,,*23
$YXXDR,A,5.5,D,PTCH,A,3.7,D,ROLL*59
$HCHDG,266.9,0.0,E,,*22
$GPRMC,040023.0,A,4740.81406,N,12224.43889,W,000.00,287.3,190513,016.6,E,D*22
$PGRME,2.4,M,2.4,M,3.4,M*29
$HCHDG,266.9,0.0,E,,*22
$HCHDG,266.9,0.0,E,,*22
$GPRMC,040023.2,A,4740.81406,N,12224.43889,W,000.00,287.3,190513,016.6,E,D*20
$GPRMB,A,0.11,L,,N,4741.0622,N,12224.6030,W,0.3,336,0.00,V*43
$PGRME,2.4,M,2.4,M,3.4,M*29
$HCHDG,266.9,0.0,E,,*22
$HCHDG,266.8,0.0,E,,*23
$GPRMC,040023.4,A,4740.81406,N,12224.43889,W,000.00,287.3,190513,016.6,E,D*26
$PGRME,2.4,M,2.4,M,3.4,M*29
$YXXDR,A,5.5,D,PTCH,A,3.7,D,ROLL*59
$PTAK,FFD1,3.7*51
$HCHDG,266.9,0.0,E,,*22
$HCHDG,266.9,0.0,E,,*22
$GPRMC,040023.6,A,4740.81406,N,12224.43890,W,000.00,287.3,190513,016.6,E,D*2C
$PGRME,2.4,M,2.4,M,3.4,M*29
$HCHDG,266.9,0.0,E,,*22
$HCHDG,266.9,0.0,E,,*22
$GPRMC,040023.8,A,4740.81406,N,12224.43890,W,000.00,287.3,190513,016.6,E,D*22
$PGRME,2.4,M,2.4,M,3.4,M*29
$HCHDG,266.9,0.0,E,,*22
$YXXDR,A,5.5,D,PTCH,A,3.7,D,ROLL*59
$HCHDG,266.9,0.0,E,,*22
$GPRMC,040024.0,A,4740.81406,N,12224.43890,W,000.01,287.3,190513,016.6,E,D*2C
$PGRME,2.4,M,2.4,M,3.4,M*29
$HCHDG,266.9,0.0,E,,*22
$HCHDG,266.9,0.0,E,,*22
$GPRMC,040024.2,A,4740.81406,N,12224.43890,W,000.00,287.3,190513,016.6,E,D*2F
$PGRME,2.4,M,2.4,M,3.4,M*29
$HCHDG,266.9,0.0,E,,*22
$HCHDG,266.9,0.0,E,,*22
$GPRMC,040024.4,A,4740.81406,N,12224.43890,W,000.00,287.3,190513,016.6,E,D*29
$GPRMB,A,0.11,L,,N,4741.0622,N,12224.6030,W,0.3,336,0.00,V*43
$PGRME,2.4,M,2.4,M,3.4,M*29
$YXXDR,A,5.5,D,PTCH,A,3.7,D,ROLL*59
$PTAK,FFD1,3.7*51
$HCHDG,266.9,0.0,E,,*22
$HCHDG,266.9,0.0,E,,*22
$GPRMC,040024.6,A,4740.81406,N,12224.43891,W,000.00,287.3,190513,016.6,E,D*2A
$PGRME,2.4,M,2.4,M,3.4,M*29
$HCHDG,266.9,0.0,E,,*22
$HCHDG,266.9,0.0,E,,*22
$GPRMC,040024.8,A,4740.81406,N,12224.43891,W,000.00,287.3,190513,016.6,E,D*24
$PGRME,2.4,M,2.4,M,3.4,M*29
$HCHDG,266.9,0.0,E,,*22
$YXXDR,A,5.5,D,PTCH,A,3.7,D,ROLL*59
$HCHDG,266.9,0.0,E,,*22
$GPRMC,040025.0,A,4740.81406,N,12224.43891,W,000.00,287.3,190513,016.6,E,D*2D
$PGRME,2.4,M,2.4,M,3.4,M*29
$HCHDG,266.9,0.0,E,,*22
$HCHDG,266.9,0.0,E,,*22
$GPRMC,040025.2,A,4740.81406,N,12224.43891,W,000.01,287.3,190513,016.6,E,D*2E
$PGRME,2.4,M,2.4,M,3.4,M*29
$HCHDG,266.9,0.0,E,,*22
$PTAK,FFP1,HEEL,@*07
$HCHDG,266.9,0.0,E,,*22
$GPRMC,040025.4,A,4740.81406,N,12224.43891,W,000.00,287.3,190513,016.6,E,D*29
$GPRMB,A,0.11,L,,N,4741.0622,N,12224.6030,W,0.3,336,0.00,V*43
$PGRME,2.4,M,2.4,M,3.4,M*29
$YXXDR,A,5.4,D,PTCH,A,3.8,D,ROLL*57
$PTAK,FFD1,3.8*5E
$HCHDG,266.9,0.0,E,,*22
$HCHDG,266.9,0.0,E,,*22
$GPRMC,040025.6,A,4740.81406,N,12224.43891,W,000.00,287.3,190513,016.6,E,D*2B
$PGRME,2.4,M,2.4,M,3.4,M*29
$HCHDG,266.9,0.0,E,,*22
$HCHDG,266.9,0.0,E,,*22
$GPRMC,040025.8,A,4740.81406,N,12224.43891,W,000.00,287.3,190513,016.6,E,D*25
$PGRME,2.4,M,2.4,M,3.4,M*29
$HCHDG,266.9,0.0,E,,*22
$YXXDR,A,5.5,D,PTCH,A,3.8,D,ROLL*56
$HCHDG,266.9,0.0,E,,*22
$GPRMC,040026.0,A,4740.81406,N,12224.43892,W,000.00,287.3,190513,016.6,E,D*2D
$PGRME,2.4,M,2.4,M,3.4,M*29
$HCHDG,266.8,0.0,E,,*23
$HCHDG,266.8,0.0,E,,*23
$GPRMC,040026.2,A,4740.81406,N,12224.43892,W,000.00,287.3,190513,016.6,E,D*2F
$PGRME,2.4,M,2.4,M,3.4,M*29
$HCHDG,266.8,0.0,E,,*23
$HCHDG,266.8,0.0,E,,*23
$GPRMC,040026.4,A,4740.81406,N,12224.43892,W,000.00,287.3,190513,016.6,E,D*29
$GPRMB,A,0.11,L,,N,4741.0622,N,12224.6030,W,0.3,336,0.00,V*43
$PGRME,2.4,M,2.4,M,3.4,M*29
$YXXDR,A,5.4,D,PTCH,A,3.8,D,ROLL*57
$PTAK,FFD1,3.8*5E
$HCHDG,266.8,0.0,E,,*23
$HCHDG,266.8,0.0,E,,*23
$GPRMC,040026.6,A,4740.81406,N,12224.43892,W,000.00,287.3,190513,016.6,E,D*2B
$PGRME,2.4,M,2.4,M,3.4,M*29
$HCHDG,266.8,0.0,E,,*23
$HCHDG,266.8,0.0,E,,*23
$GPRMC,040026.8,A,4740.81406,N,12224.43892,W,000.00,287.3,190513,016.6,E,D*25
$PGRME,2.4,M,2.4,M,3.4,M*29
$HCHDG,266.8,0.0,E,,*23
$YXXDR,A,5.4,D,PTCH,A,3.8,D,ROLL*57
$HCHDG,266.8,0.0,E,,*23
$GPRMC,040027.0,A,4740.81406,N,12224.43892,W,000.00,287.3,190513,016.6,E,D*2C
$PGRME,2.4,M,2.4,M,3.4,M*29
$HCHDG,266.8,0.0,E,,*23
$HCHDG,266.8,0.0,E,,*23
$GPRMC,040027.2,A,4740.81406,N,12224.43892,W,000.00,287.3,190513,016.6,E,D*2E
$PGRME,2.4,M,2.4,M,3.4,M*29
$HCHDG,266.8,0.0,E,,*23
$HCHDG,266.8,0.0,E,,*23
$GPRMC,040027.4,A,4740.81406,N,12224.43892,W,000.01,287.3,190513,016.6,E,D*29
$GPRMB,A,0.11,L,,N,4741.0622,N,12224.6030,W,0.3,336,0.01,V*42
$PGRME,2.4,M,2.4,M,3.4,M*29
$YXXDR,A,5.4,D,PTCH,A,3.8,D,ROLL*57
$PTAK,FFD1,3.8*5E
$HCHDG,266.8,0.0,E,,*23
$HCHDG,266.8,0.0,E,,*23
$GPRMC,040027.6,A,4740.81406,N,12224.43892,W,000.00,287.3,190513,016.6,E,D*2A
$PGRME,2.4,M,2.4,M,3.4,M*29
$HCHDG,266.8,0.0,E,,*23
$HCHDG,266.8,0.0,E,,*23
$GPRMC,040027.8,A,4740.81406,N,12224.43892,W,000.00,287.3,190513,016.6,E,D*24
$PGRME,2.4,M,2.4,M,3.4,M*29
$HCHDG,266.8,0.0,E,,*23
$YXXDR,A,5.5,D,PTCH,A,3.7,D,ROLL*59
$HCHDG,266.8,0.0,E,,*23
$GPRMC,040028.0,A,4740.81406,N,12224.43892,W,000.00,287.3,190513,016.6,E,D*23
$PGRME,2.4,M,2.4,M,3.4,M*29
$HCHDG,266.8,0.0,E,,*23
$HCHDG,266.8,0.0,E,,*23
$GPRMC,040028.2,A,4740.81406,N,12224.43892,W,000.00,287.3,190513,016.6,E,D*21
$PGRME,2.4,M,2.4,M,3.4,M*29
$HCHDG,266.8,0.0,E,,*23
$HCHDG,266.8,0.0,E,,*23
$GPRMC,040028.4,A,4740.81406,N,12224.43892,W,000.00,287.3,190513,016.6,E,D*27
$GPRMB,A,0.11,L,,N,4741.0622,N,12224.6030,W,0.3,336,0.00,V*43
$PGRME,2.4,M,2.4,M,3.4,M*29
$YXXDR,A,5.5,D,PTCH,A,3.7,D,ROLL*59
$HCHDG,266.8,0.0,E,,*23
$HCHDG,266.8,0.0,E,,*23
$GPRMC,040028.6,A,4740.81406,N,12224.43892,W,000.00,287.3,190513,016.6,E,D*25
$PGRME,2.4,M,2.4,M,3.4,M*29
$HCHDG,266.8,0.0,E,,*23
$HCHDG,266.9,0.0,E,,*22
$GPRMC,040028.8,A,4740.81407,N,12224.43892,W,000.00,287.3,190513,016.6,E,D*2A
$PGRME,2.4,M,2.4,M,3.4,M*29
$HCHDG,266.9,0.0,E,,*22
$YXXDR,A,5.5,D,PTCH,A,3.7,D,ROLL*59
$PTAK,FFD1,3.7*51
$HCHDG,266.9,0.0,E,,*22
$GPRMC,040029.0,A,4740.81407,N,12224.43892,W,000.00,287.3,190513,016.6,E,D*23
$PGRME,2.4,M,2.4,M,3.4,M*29
$HCHDG,266.9,0.0,E,,*22
$HCHDG,266.8,0.0,E,,*23
$GPRMC,040029.2,A,4740.81407,N,12224.43892,W,000.01,287.3,190513,016.6,E,D*20
$PGRME,2.4,M,2.4,M,3.4,M*29
$HCHDG,266.8,0.0,E,,*23
$PTAK,FFP1,HEEL,@*07
$HCHDG,266.8,0.0,E,,*23
$GPRMC,040029.4,A,4740.81407,N,12224.43892,W,000.00,287.3,190513,016.6,E,D*27
$PGRME,2.4,M,2.4,M,3.4,M*29
$YXXDR,A,5.5,D,PTCH,A,3.7,D,ROLL*59
$HCHDG,266.8,0.0,E,,*23
$HCHDG,266.8,0.0,E,,*23
$GPRMC,040029.6,A,4740.81407,N,12224.43892,W,000.00,287.3,190513,016.6,E,D*25
$GPRMB,A,0.11,L,,N,4741.0622,N,12224.6030,W,0.3,336,0.00,V*43
$PGRME,2.4,M,2.4,M,3.4,M*29
$HCHDG,266.8,0.0,E,,*23
$HCHDG,266.8,0.0,E,,*23
$GPRMC,040029.8,A,4740.81407,N,12224.43892,W,000.00,287.3,190513,016.6,E,D*2B
$PGRME,2.4,M,2.4,M,3.4,M*29
$HCHDG,266.8,0.0,E,,*23
$YXXDR,A,5.5,D,PTCH,A,3.7,D,ROLL*59
$HCHDG,266.8,0.0,E,,*23
$GPRMC,040030.0,A,4740.81407,N,12224.43892,W,000.00,287.3,190513,016.6,E,D*2B
$PGRME,2.4,M,2.4,M,3.4,M*29
$HCHDG,266.8,0.0,E,,*23
$HCHDG,266.8,0.0,E,,*23
$GPRMC,040030.2,A,4740.81407,N,12224.43891,W,000.00,287.3,190513,016.6,E,D*2A
$PGRME,2.4,M,2.4,M,3.4,M*29
$HCHDG,266.8,0.0,E,,*23
$HCHDG,266.8,0.0,E,,*23
$GPRMC,040030.4,A,4740.81407,N,12224.43891,W,000.00,287.3,190513,016.6,E,D*2C
$PGRME,2.4,M,2.4,M,3.4,M*29
$YXXDR,A,5.5,D,PTCH,A,3.7,D,ROLL*59
$PTAK,FFD1,3.7*51
$HCHDG,266.8,0.0,E,,*23
$HCHDG,266.8,0.0,E,,*23
$GPRMC,040030.6,A,4740.81407,N,12224.43891,W,000.00,287.3,190513,016.6,E,D*2E
$PGRME,2.4,M,2.4,M,3.4,M*29
$HCHDG,266.9,0.0,E,,*22
$HCHDG,266.9,0.0,E,,*22
$GPRMC,040030.8,A,4740.81407,N,12224.43891,W,000.00,287.3,190513,016.6,E,D*20
$GPRMB,A,0.11,L,,N,4741.0622,N,12224.6030,W,0.3,336,0.00,V*43
$PGRME,2.4,M,2.4,M,3.4,M*29
$HCHDG,266.9,0.0,E,,*22
$YXXDR,A,5.5,D,PTCH,A,3.7,D,ROLL*59
$HCHDG,266.9,0.0,E,,*22
$GPRMC,040031.0,A,4740.81407,N,12224.43891,W,000.00,287.3,190513,016.6,E,D*29
$PGRME,2.4,M,2.4,M,3.4,M*29
$HCHDG,266.9,0.0,E,,*22
$HCHDG,266.9,0.0,E,,*22
$GPRMC,040031.2,A,4740.81407,N,12224.43891,W,000.00,287.3,190513,016.6,E,D*2B
$PGRME,2.4,M,2.4,M,3.4,M*29
$HCHDG,266.9,0.0,E,,*22
$HCHDG,266.9,0.0,E,,*22
$GPRMC,040031.4,A,4740.81407,N,12224.43890,W,000.00,287.3,190513,016.6,E,D*2C
$PGRME,2.4,M,2.4,M,3.4,M*29
$YXXDR,A,5.5,D,PTCH,A,3.7,D,ROLL*59
$HCHDG,266.9,0.0,E,,*22
$HCHDG,266.9,0.0,E,,*22
$GPRMC,040031.6,A,4740.81407,N,12224.43890,W,000.00,287.3,190513,016.6,E,D*2E
$PGRME,2.4,M,2.4,M,3.4,M*29
$HCHDG,266.8,0.0,E,,*23
$HCHDG,266.8,0.0,E,,*23
$GPRMC,040031.8,A,4740.81407,N,12224.43890,W,000.00,287.3,190513,016.6,E,D*20
$PGRME,2.4,M,2.4,M,3.4,M*29
$HCHDG,266.8,0.0,E,,*23
$YXXDR,A,5.5,D,PTCH,A,3.7,D,ROLL*59
$PTAK,FFD1,3.7*51
$HCHDG,266.8,0.0,E,,*23
$GPRMC,040032.0,A,4740.81407,N,12224.43890,W,000.00,287.3,190513,016.6,E,D*2B
$GPRMB,A,0.11,L,,N,4741.0622,N,12224.6030,W,0.3,336,0.00,V*43
$PGRME,2.4,M,2.4,M,3.4,M*29
$HCHDG,266.8,0.0,E,,*23
$HCHDG,266.8,0.0,E,,*23
$GPRMC,040032.2,A,4740.81407,N,12224.43890,W,000.00,287.3,190513,016.6,E,D*29
$PGRME,2.4,M,2.4,M,3.4,M*29
$HCHDG,266.8,0.0,E,,*23
$HCHDG,266.8,0.0,E,,*23
$GPRMC,040032.4,A,4740.81407,N,12224.43889,W,000.00,287.3,190513,016.6,E,D*27
$PGRME,2.4,M,2.4,M,3.4,M*29
$YXXDR,A,5.5,D,PTCH,A,3.7,D,ROLL*59
$HCHDG,266.8,0.0,E,,*23
$HCHDG,266.8,0.0,E,,*23
$GPRMC,040032.6,A,4740.81407,N,12224.43889,W,000.00,287.3,190513,016.6,E,D*25
$PGRME,2.4,M,2.4,M,3.4,M*29
$HCHDG,266.8,0.0,E,,*23
$HCHDG,266.8,0.0,E,,*23
$GPRMC,040032.8,A,4740.81407,N,12224.43889,W,000.00,287.3,190513,016.6,E,D*2B
$PGRME,2.4,M,2.4,M,3.4,M*29
$HCHDG,266.8,0.0,E,,*23
$YXXDR,A,5.5,D,PTCH,A,3.7,D,ROLL*59
$PTAK,FFD1,3.7*51
$HCHDG,266.8,0.0,E,,*23
$GPRMC,040033.0,A,4740.81407,N,12224.43889,W,000.00,287.3,190513,016.6,E,D*22
$PGRME,2.4,M,2.4,M,3.4,M*29
$HCHDG,266.8,0.0,E,,*23
$HCHDG,266.8,0.0,E,,*23
$GPRMC,040033.2,A,4740.81407,N,12224.43889,W,000.00,287.3,190513,016.6,E,D*20
$GPRMB,A,0.11,L,,N,4741.0622,N,12224.6030,W,0.3,336,0.00,V*43
$PGRME,2.4,M,2.4,M,3.4,M*29
$HCHDG,266.8,0.0,E,,*23
$PTAK,FFP1,HEEL,@*07
$HCHDG,266.8,0.0,E,,*23
$GPRMC,040033.4,A,4740.81407,N,12224.43889,W,000.00,287.3,190513,016.6,E,D*26
$PGRME,2.4,M,2.4,M,3.4,M*29
$YXXDR,A,5.5,D,PTCH,A,3.7,D,ROLL*59
$HCHDG,266.8,0.0,E,,*23
$HCHDG,266.8,0.0,E,,*23
$GPRMC,040033.6,A,4740.81407,N,12224.43889,W,000.00,287.3,190513,016.6,E,D*24
$PGRME,2.4,M,2.4,M,3.4,M*29
$HCHDG,266.8,0.0,E,,*23
$HCHDG,266.8,0.0,E,,*23
$GPRMC,040033.8,A,4740.81407,N,12224.43889,W,000.00,287.3,190513,016.6,E,D*2A
$PGRME,2.4,M,2.4,M,3.4,M*29
$HCHDG,266.8,0.0,E,,*23
$YXXDR,A,5.5,D,PTCH,A,3.7,D,ROLL*59
$PTAK,FFD1,3.7*51
$HCHDG,266.8,0.0,E,,*23
$GPRMC,040034.0,A,4740.81407,N,12224.43889,W,000.00,287.3,190513,016.6,E,D*25
$PGRME,2.4,M,2.4,M,3.4,M*29
$HCHDG,266.8,0.0,E,,*23
$HCHDG,266.8,0.0,E,,*23
$GPRMC,040034.2,A,4740.81407,N,12224.43889,W,000.00,287.3,190513,016.6,E,D*27
$GPRMB,A,0.11,L,,N,4741.0622,N,12224.6030,W,0.3,336,0.00,V*43
$PGRME,2.4,M,2.4,M,3.4,M*29
$HCHDG,266.8,0.0,E,,*23
$HCHDG,266.8,0.0,E,,*23
$GPRMC,040034.4,A,4740.81407,N,12224.43889,W,000.00,287.3,190513,016.6,E,D*21
$PGRME,2.4,M,2.4,M,3.4,M*29
$YXXDR,A,5.5,D,PTCH,A,3.7,D,ROLL*59
$HCHDG,266.8,0.0,E,,*23
$HCHDG,266.8,0.0,E,,*23
$GPRMC,040034.6,A,4740.81407,N,12224.43889,W,000.00,287.3,190513,016.6,E,D*23
$PGRME,2.4,M,2.4,M,3.4,M*29
$HCHDG,266.8,0.0,E,,*23
$HCHDG,266.8,0.0,E,,*23
$GPRMC,040034.8,A,4740.81407,N,12224.43889,W,000.00,287.3,190513,016.6,E,D*2D
$PGRME,2.4,M,2.4,M,3.4,M*29
$HCHDG,266.8,0.0,E,,*23
$YXXDR,A,5.5,D,PTCH,A,3.7,D,ROLL*59
$HCHDG,266.8,0.0,E,,*23
$GPRMC,040035.0,A,4740.81407,N,12224.43889,W,000.00,287.3,190513,016.6,E,D*24
$PGRME,2.4,M,2.4,M,3.4,M*29
$HCHDG,266.8,0.0,E,,*23
$HCHDG,266.8,0.0,E,,*23
$GPRMC,040035.2,A,4740.81407,N,12224.43889,W,000.00,287.3,190513,016.6,E,D*26
$PGRME,2.4,M,2.4,M,3.4,M*29
$HCHDG,266.8,0.0,E,,*23
$HCHDG,266.8,0.0,E,,*23
$GPRMC,040035.4,A,4740.81407,N,12224.43889,W,000.00,287.3,190513,016.6,E,D*20
$GPRMB,A,0.11,L,,N,4741.0622,N,12224.6030,W,0.3,336,0.00,V*43
$PGRME,2.4,M,2.4,M,3.4,M*29
$YXXDR,A,5.5,D,PTCH,A,3.7,D,ROLL*59
$PTAK,FFD1,3.7*51
$HCHDG,266.8,0.0,E,,*23
$HCHDG,266.8,0.0,E,,*23
$GPRMC,040035.6,A,4740.81407,N,12224.43889,W,000.00,287.3,190513,016.6,E,D*22
$PGRME,2.4,M,2.4,M,3.4,M*29
$HCHDG,266.8,0.0,E,,*23
$HCHDG,266.8,0.0,E,,*23
$GPRMC,040035.8,A,4740.81407,N,12224.43889,W,000.00,287.3,190513,016.6,E,D*2C
$PGRME,2.4,M,2.4,M,3.4,M*29
$HCHDG,266.8,0.0,E,,*23
$YXXDR,A,5.5,D,PTCH,A,3.7,D,ROLL*59
$HCHDG,266.8,0.0,E,,*23
$GPRMC,040036.0,A,4740.81407,N,12224.43889,W,000.00,287.3,190513,016.6,E,D*27
$PGRME,2.4,M,2.4,M,3.4,M*29
$HCHDG,266.8,0.0,E,,*23
$HCHDG,266.8,0.0,E,,*23
$GPRMC,040036.2,A,4740.81407,N,12224.43889,W,000.00,287.3,190513,016.6,E,D*25
$PGRME,2.4,M,2.4,M,3.4,M*29
$HCHDG,266.8,0.0,E,,*23
$HCHDG,266.8,0.0,E,,*23
$GPRMC,040036.4,A,4740.81407,N,12224.43889,W,000.00,287.3,190513,016.6,E,D*23
$PGRME,2.4,M,2.4,M,3.4,M*29
$YXXDR,A,5.5,D,PTCH,A,3.7,D,ROLL*59
$HCHDG,266.8,0.0,E,,*23
$HCHDG,266.8,0.0,E,,*23
$GPRMC,040036.6,A,4740.81407,N,12224.43889,W,000.00,287.3,190513,016.6,E,D*21
$GPRMB,A,0.11,L,,N,4741.0622,N,12224.6030,W,0.3,336,0.00,V*43
$PGRME,2.4,M,2.4,M,3.4,M*29
$HCHDG,266.8,0.0,E,,*23
$HCHDG,266.8,0.0,E,,*23
$GPRMC,040036.8,A,4740.81407,N,12224.43889,W,000.00,287.3,190513,016.6,E,D*2F
$PGRME,2.4,M,2.4,M,3.4,M*29
$HCHDG,266.8,0.0,E,,*23
$YXXDR,A,5.5,D,PTCH,A,3.7,D,ROLL*59
$PTAK,FFD1,3.7*51
$HCHDG,266.8,0.0,E,,*23
$GPRMC,040037.0,A,4740.81407,N,12224.43889,W,000.00,287.3,190513,016.6,E,D*26
$PGRME,2.4,M,2.4,M,3.4,M*29
$HCHDG,266.8,0.0,E,,*23
$HCHDG,266.8,0.0,E,,*23
$GPRMC,040037.2,A,4740.81407,N,12224.43889,W,000.00,287.3,190513,016.6,E,D*24
$PGRME,2.4,M,2.4,M,3.4,M*29
$HCHDG,266.8,0.0,E,,*23
$HCHDG,266.8,0.0,E,,*23
$GPRMC,040037.4,A,4740.81407,N,12224.43889,W,000.00,287.3,190513,016.6,E,D*22
$PGRME,2.4,M,2.4,M,3.4,M*29
$YXXDR,A,5.5,D,PTCH,A,3.7,D,ROLL*59
$PTAK,FFP1,HEEL,@*07
$HCHDG,266.8,0.0,E,,*23
$HCHDG,266.8,0.0,E,,*23
$GPRMC,040037.6,A,4740.81408,N,12224.43889,W,000.00,287.3,190513,016.6,E,D*2F
$PGRME,2.4,M,2.4,M,3.4,M*29
$HCHDG,266.8,0.0,E,,*23
$HCHDG,266.8,0.0,E,,*23
$GPRMC,040037.8,A,4740.81408,N,12224.43889,W,000.00,287.3,190513,016.6,E,D*21
$GPRMB,A,0.11,L,,N,4741.0622,N,12224.6030,W,0.3,336,0.00,V*43
$PGRME,2.4,M,2.4,M,3.4,M*29
$HCHDG,266.8,0.0,E,,*23
$YXXDR,A,5.5,D,PTCH,A,3.7,D,ROLL*59
$PTAK,FFD1,3.7*51
$HCHDG,266.8,0.0,E,,*23
$GPRMC,040038.0,A,4740.81408,N,12224.43889,W,000.00,287.3,190513,016.6,E,D*26
$PGRME,2.4,M,2.4,M,3.4,M*29
$HCHDG,266.8,0.0,E,,*23
$HCHDG,266.7,0.0,E,,*2C
$GPRMC,040038.2,A,4740.81408,N,12224.43889,W,000.00,287.3,190513,016.6,E,D*24
$PGRME,2.4,M,2.4,M,3.4,M*29
$HCHDG,266.7,0.0,E,,*2C
$HCHDG,266.8,0.0,E,,*23
$GPRMC,040038.4,A,4740.81408,N,12224.43889,W,000.00,287.3,190513,016.6,E,D*22
$PGRME,2.4,M,2.4,M,3.4,M*29
$YXXDR,A,5.5,D,PTCH,A,3.7,D,ROLL*59
$HCHDG,266.8,0.0,E,,*23
$HCHDG,266.8,0.0,E,,*23
$GPRMC,040038.6,A,4740.81408,N,12224.43889,W,000.00,287.3,190513,016.6,E,D*20
$PGRME,2.4,M,2.4,M,3.4,M*29
$HCHDG,266.8,0.0,E,,*23
$HCHDG,266.8,0.0,E,,*23
$GPRMC,040038.8,A,4740.81408,N,12224.43889,W,000.00,287.3,190513,016.6,E,D*2E
$PGRME,2.4,M,2.4,M,3.4,M*29
$HCHDG,266.8,0.0,E,,*23
$YXXDR,A,5.5,D,PTCH,A,3.7,D,ROLL*59
$HCHDG,266.8,0.0,E,,*23
$GPRMC,040039.0,A,4740.81408,N,12224.43889,W,000.00,287.3,190513,016.6,E,D*27
$GPRMB,A,0.11,L,,N,4741.0622,N,12224.6030,W,0.3,336,0.00,V*43
$PGRME,2.4,M,2.4,M,3.4,M*29
$HCHDG,266.8,0.0,E,,*23
$HCHDG,266.8,0.0,E,,*23
$GPRMC,040039.2,A,4740.81408,N,12224.43888,W,000.00,287.3,190513,016.6,E,D*24
$PGRME,2.4,M,2.4,M,3.4,M*29
$HCHDG,266.8,0.0,E,,*23
$HCHDG,266.8,0.0,E,,*23
$GPRMC,040039.4,A,4740.81408,N,12224.43888,W,000.00,287.3,190513,016.6,E,D*22
$PGRME,2.4,M,2.4,M,3.4,M*29
$YXXDR,A,5.5,D,PTCH,A,3.7,D,ROLL*59
$PTAK,FFD1,3.7*51
$HCHDG,266.8,0.0,E,,*23
$HCHDG,266.8,0.0,E,,*23
$GPRMC,040039.6,A,4740.81408,N,12224.43888,W,000.00,287.3,190513,016.6,E,D*20
$PGRME,2.4,M,2.4,M,3.4,M*29
$HCHDG,266.8,0.0,E,,*23
$HCHDG,266.8,0.0,E,,*23
$GPRMC,040039.8,A,4740.81408,N,12224.43888,W,000.01,287.3,190513,016.6,E,D*2F
$PGRME,2.4,M,2.4,M,3.4,M*29
$HCHDG,266.8,0.0,E,,*23
$YXXDR,A,5.6,D,PTCH,A,3.6,D,ROLL*5B
$HCHDG,266.8,0.0,E,,*23
$GPRMC,040040.0,A,4740.81408,N,12224.43887,W,000.00,287.3,190513,016.6,E,D*27
$GPRMB,A,0.11,L,,N,4741.0622,N,12224.6030,W,0.3,336,0.00,V*43
$PGRME,2.4,M,2.4,M,3.4,M*29
$HCHDG,266.8,0.0,E,,*23
$HCHDG,266.8,0.0,E,,*23
$GPRMC,040040.2,A,4740.81408,N,12224.43887,W,000.00,287.3,190513,016.6,E,D*25
$PGRME,2.4,M,2.4,M,3.4,M*29
$HCHDG,266.8,0.0,E,,*23
$HCHDG,266.8,0.0,E,,*23
$GPRMC,040040.4,A,4740.81409,N,12224.43887,W,000.00,287.3,190513,016.6,E,D*22
$PGRME,2.4,M,2.4,M,3.4,M*29
$YXXDR,A,5.5,D,PTCH,A,3.7,D,ROLL*59
$HCHDG,266.8,0.0,E,,*23
$HCHDG,266.8,0.0,E,,*23
$GPRMC,040040.6,A,4740.81408,N,12224.43887,W,000.00,287.3,190513,016.6,E,D*21
$PGRME,2.4,M,2.4,M,3.4,M*29
$HCHDG,266.8,0.0,E,,*23
$HCHDG,266.8,0.0,E,,*23
$GPRMC,040040.8,A,4740.81408,N,12224.43887,W,000.00,287.3,190513,016.6,E,D*2F
$PGRME,2.4,M,2.4,M,3.4,M*29
$HCHDG,266.8,0.0,E,,*23
$YXXDR,A,5.5,D,PTCH,A,3.7,D,ROLL*59
$PTAK,FFD1,3.7*51
$HCHDG,266.8,0.0,E,,*23
$GPRMC,040041.0,A,4740.81409,N,12224.43887,W,000.00,287.3,190513,016.6,E,D*27
$PGRME,2.4,M,2.4,M,3.4,M*29
$HCHDG,266.8,0.0,E,,*23
$HCHDG,266.8,0.0,E,,*23
$GPRMC,040041.2,A,4740.81409,N,12224.43886,W,000.00,287.3,190513,016.6,E,D*24
$GPRMB,A,0.11,L,,N,4741.0622,N,12224.6030,W,0.3,336,0.00,V*43
$PGRME,2.4,M,2.4,M,3.4,M*29
$HCHDG,266.8,0.0,E,,*23
$HCHDG,266.8,0.0,E,,*23
$GPRMC,040041.4,A,4740.81409,N,12224.43886,W,000.01,287.3,190513,016.6,E,D*23
$PGRME,2.4,M,2.4,M,3.4,M*29
$YXXDR,A,5.5,D,PTCH,A,3.8,D,ROLL*56
$PTAK,FFP1,HEEL,@*07
$HCHDG,266.8,0.0,E,,*23
$HCHDG,266.8,0.0,E,,*23
$GPRMC,040041.6,A,4740.81409,N,12224.43886,W,000.00,287.3,190513,016.6,E,D*20
$PGRME,2.4,M,2.4,M,3.4,M*29
$HCHDG,266.8,0.0,E,,*23
$HCHDG,266.8,0.0,E,,*23
$GPRMC,040041.8,A,4740.81409,N,12224.43886,W,000.00,287.3,190513,016.6,E,D*2E
$PGRME,2.4,M,2.4,M,3.4,M*29
$HCHDG,266.8,0.0,E,,*23
$YXXDR,A,5.5,D,PTCH,A,3.8,D,ROLL*56
$HCHDG,266.7,0.0,E,,*2C
$GPRMC,040042.0,A,4740.81409,N,12224.43886,W,000.00,287.3,190513,016.6,E,D*25
$PGRME,2.4,M,2.4,M,3.4,M*29
$HCHDG,266.6,0.0,E,,*2D
$HCHDG,266.6,0.0,E,,*2D
$GPRMC,040042.2,A,4740.81409,N,12224.43886,W,000.00,287.3,190513,016.6,E,D*27
$PGRME,2.4,M,2.4,M,3.4,M*29
$HCHDG,266.8,0.0,E,,*23
$HCHDG,266.8,0.0,E,,*23
$GPRMC,040042.4,A,4740.81409,N,12224.43886,W,000.01,287.3,190513,016.6,E,D*20
$GPRMB,A,0.11,L,,N,4741.0622,N,12224.6030,W,0.3,336,0.01,V*42
$PGRME,2.4,M,2.4,M,3.4,M*29
$YXXDR,A,5.6,D,PTCH,A,3.6,D,ROLL*5B
$PTAK,FFD1,3.6*50
$HCHDG,266.7,0.0,E,,*2C
$HCHDG,266.7,0.0,E,,*2C
$GPRMC,040042.6,A,4740.81409,N,12224.43886,W,000.00,287.3,190513,016.6,E,D*23
$PGRME,2.4,M,2.4,M,3.4,M*29
$HCHDG,266.7,0.0,E,,*2C
$HCHDG,266.7,0.0,E,,*2C
$GPRMC,040042.8,A,4740.81409,N,12224.43886,W,000.00,287.3,190513,016.6,E,D*2D
$PGRME,2.4,M,2.4,M,3.4,M*29
$HCHDG,266.7,0.0,E,,*2C
$YXXDR,A,5.5,D,PTCH,A,3.7,D,ROLL*59
$HCHDG,266.7,0.0,E,,*2C
$GPRMC,040043.0,A,4740.81409,N,12224.43886,W,000.00,287.3,190513,016.6,E,D*24
$PGRME,2.4,M,2.4,M,3.4,M*29
$HCHDG,266.7,0.0,E,,*2C
$HCHDG,266.7,0.0,E,,*2C
$GPRMC,040043.2,A,4740.81409,N,12224.43886,W,000.01,287.3,190513,016.6,E,D*27
$PGRME,2.4,M,2.4,M,3.4,M*29
$HCHDG,266.7,0.0,E,,*2C
$HCHDG,266.8,0.0,E,,*23
$GPRMC,040043.4,A,4740.81409,N,12224.43886,W,000.00,287.3,190513,016.6,E,D*20
$PGRME,2.4,M,2.4,M,3.4,M*29
$YXXDR,A,5.6,D,PTCH,A,3.6,D,ROLL*5B
$HCHDG,266.8,0.0,E,,*23
$HCHDG,266.8,0.0,E,,*23
$GPRMC,040043.6,A,4740.81409,N,12224.43886,W,000.00,287.3,190513,016.6,E,D*22
$GPRMB,A,0.11,L,,N,4741.0622,N,12224.6030,W,0.3,336,0.00,V*43
$PGRME,2.4,M,2.4,M,3.4,M*29
$HCHDG,266.8,0.0,E,,*23
$HCHDG,266.8,0.0,E,,*23
$GPRMC,040043.8,A,4740.81409,N,12224.43886,W,000.01,287.3,190513,016.6,E,D*2D
$PGRME,2.4,M,2.4,M,3.4,M*29
$HCHDG,266.8,0.0,E,,*23
$YXXDR,A,5.5,D,PTCH,A,3.7,D,ROLL*59
$PTAK,FFD1,3.7*51
$HCHDG,266.8,0.0,E,,*23
$GPRMC,040044.0,A,4740.81409,N,12224.43886,W,000.00,287.3,190513,016.6,E,D*23
$PGRME,2.4,M,2.4,M,3.4,M*29
$PGRMT,GPS 18x-5Hz software ver. 3.20,,,,,,,,*30
$HCHDG,266.8,0.0,E,,*23
$HCHDG,266.8,0.0,E,,*23
$GPRMC,040044.2,A,4740.81409,N,12224.43886,W,000.00,287.3,190513,016.6,E,D*21
$PGRME,2.4,M,2.4,M,3.4,M*29
$HCHDG,266.8,0.0,E,,*23
$HCHDG,266.8,0.0,E,,*23
$GPRMC,040044.4,A,4740.81410,N,12224.43886,W,000.00,287.3,190513,016.6,E,D*2F
$PGRME,2.4,M,2.4,M,3.4,M*29
$YXXDR,A,5.5,D,PTCH,A,3.7,D,ROLL*59
$HCHDG,266.8,0.0,E,,*23
$HCHDG,266.8,0.0,E,,*23
$GPRMC,040044.6,A,4740.81410,N,12224.43886,W,000.00,287.3,190513,016.6,E,D*2D
$PGRME,2.4,M,2.4,M,3.4,M*29
$HCHDG,266.8,0.0,E,,*23
$HCHDG,266.8,0.0,E,,*23
$GPRMC,040044.8,A,4740.81410,N,12224.43886,W,000.00,287.3,190513,016.6,E,D*23
$GPRMB,A,0.11,L,,N,4741.0622,N,12224.6030,W,0.3,336,0.00,V*43
$PGRME,2.4,M,2.4,M,3.4,M*29
$HCHDG,266.8,0.0,E,,*23
$YXXDR,A,5.6,D,PTCH,A,3.6,D,ROLL*5B
$PTAK,FFD1,3.6*50
$HCHDG,266.8,0.0,E,,*23
$GPRMC,040045.0,A,4740.81410,N,12224.43886,W,000.00,287.3,190513,016.6,E,D*2A
$PGRME,2.4,M,2.4,M,3.4,M*29
$HCHDG,266.8,0.0,E,,*23
$HCHDG,266.8,0.0,E,,*23
$GPRMC,040045.2,A,4740.81410,N,12224.43886,W,000.00,287.3,190513,016.6,E,D*28
$PGRME,2.4,M,2.4,M,3.4,M*29
$HCHDG,266.7,0.0,E,,*2C
$HCHDG,266.7,0.0,E,,*2C
$GPRMC,040045.4,A,4740.81410,N,12224.43886,W,000.00,287.3,190513,016.6,E,D*2E
$PGRME,2.4,M,2.4,M,3.4,M*29
$YXXDR,A,5.5,D,PTCH,A,3.7,D,ROLL*59
$HCHDG,266.7,0.0,E,,*2C
$HCHDG,266.7,0.0,E,,*2C
$GPRMC,040045.6,A,4740.81410,N,12224.43886,W,000.00,287.3,190513,016.6,E,D*2C
$PTAK,FFP1,HEEL,@*07
$PGRME,2.4,M,2.4,M,3.4,M*29
$HCHDG,266.7,0.0,E,,*2C
$HCHDG,266.7,0.0,E,,*2C
$GPRMC,040045.8,A,4740.81410,N,12224.43886,W,000.00,287.3,190513,016.6,E,D*22
$PGRME,2.4,M,2.4,M,3.4,M*29
$HCHDG,266.8,0.0,E,,*23
$YXXDR,A,5.5,D,PTCH,A,3.8,D,ROLL*56
$HCHDG,266.8,0.0,E,,*23
$GPRMC,040046.0,A,4740.81410,N,12224.43887,W,000.00,287.3,190513,016.6,E,D*28
$GPRMB,A,0.11,L,,N,4741.0622,N,12224.6030,W,0.3,336,0.00,V*43
$PGRME,2.4,M,2.4,M,3.4,M*29
$HCHDG,266.8,0.0,E,,*23
$HCHDG,266.8,0.0,E,,*23
$GPRMC,040046.2,A,4740.81410,N,12224.43887,W,000.00,287.3,190513,016.6,E,D*2A
$PGRME,2.4,M,2.4,M,3.4,M*29
$HCHDG,266.8,0.0,E,,*23
$HCHDG,266.8,0.0,E,,*23
$GPRMC,040046.4,A,4740.81410,N,12224.43887,W,000.00,287.3,190513,016.6,E,D*2C
$PGRME,2.4,M,2.4,M,3.4,M*29
$YXXDR,A,5.5,D,PTCH,A,3.7,D,ROLL*59
$PTAK,FFD1,3.7*51
$HCHDG,266.8,0.0,E,,*23
$HCHDG,266.8,0.0,E,,*23
$GPRMC,040046.6,A,4740.81410,N,12224.43887,W,000.00,287.3,190513,016.6,E,D*2E
$PGRME,2.4,M,2.4,M,3.4,M*29
$HCHDG,266.7,0.0,E,,*2C
$HCHDG,266.7,0.0,E,,*2C
$GPRMC,040046.8,A,4740.81410,N,12224.43887,W,000.00,287.3,190513,016.6,E,D*20
$PGRME,2.4,M,2.4,M,3.4,M*29
$HCHDG,266.7,0.0,E,,*2C
$YXXDR,A,5.5,D,PTCH,A,3.7,D,ROLL*59
$HCHDG,266.7,0.0,E,,*2C
$GPRMC,040047.0,A,4740.81410,N,12224.43887,W,000.00,287.3,190513,016.6,E,D*29
$GPRMB,A,0.11,L,,N,4741.0622,N,12224.6030,W,0.3,336,0.00,V*43
$PGRME,2.4,M,2.4,M,3.4,M*29
$HCHDG,266.7,0.0,E,,*2C
$HCHDG,266.7,0.0,E,,*2C
$GPRMC,040047.2,A,4740.81411,N,12224.43888,W,000.00,287.3,190513,016.6,E,D*25
$PGRME,2.4,M,2.4,M,3.4,M*29
$HCHDG,266.7,0.0,E,,*2C
$HCHDG,266.7,0.0,E,,*2C
$GPRMC,040047.4,A,4740.81411,N,12224.43888,W,000.00,287.3,190513,016.6,E,D*23
$PGRME,2.4,M,2.4,M,3.4,M*29
$YXXDR,A,5.5,D,PTCH,A,3.7,D,ROLL*59
$PTAK,FFD1,3.7*51
$HCHDG,266.7,0.0,E,,*2C
$HCHDG,266.7,0.0,E,,*2C
$GPRMC,040047.6,A,4740.81411,N,12224.43888,W,000.00,287.3,190513,016.6,E,D*21
$PGRME,2.4,M,2.4,M,3.4,M*29
$HCHDG,266.7,0.0,E,,*2C
$HCHDG,266.7,0.0,E,,*2C
$GPRMC,040047.8,A,4740.81411,N,12224.43888,W,000.00,287.3,190513,016.6,E,D*2F
$PGRME,2.4,M,2.4,M,3.4,M*29
$HCHDG,266.7,0.0,E,,*2C
$YXXDR,A,5.5,D,PTCH,A,3.7,D,ROLL*59
$HCHDG,266.7,0.0,E,,*2C
$GPRMC,040048.0,A,4740.81411,N,12224.43888,W,000.00,287.3,190513,016.6,E,D*28
$PGRME,2.4,M,2.4,M,3.4,M*29
$HCHDG,266.7,0.0,E,,*2C
$HCHDG,266.7,0.0,E,,*2C
$GPRMC,040048.2,A,4740.81411,N,12224.43888,W,000.00,287.3,190513,016.6,E,D*2A
$GPRMB,A,0.11,L,,N,4741.0622,N,12224.6030,W,0.3,336,0.00,V*43
$PGRME,2.4,M,2.4,M,3.4,M*29
$HCHDG,266.7,0.0,E,,*2C
$HCHDG,266.7,0.0,E,,*2C
$GPRMC,040048.4,A,4740.81411,N,12224.43888,W,000.00,287.3,190513,016.6,E,D*2C
$PGRME,2.4,M,2.4,M,3.4,M*29
$YXXDR,A,5.5,D,PTCH,A,3.7,D,ROLL*59
$HCHDG,266.7,0.0,E,,*2C
$HCHDG,266.7,0.0,E,,*2C
$GPRMC,040048.6,A,4740.81411,N,12224.43888,W,000.01,287.3,190513,016.6,E,D*2F
$PGRME,2.4,M,2.4,M,3.4,M*29
$HCHDG,266.7,0.0,E,,*2C
$HCHDG,266.7,0.0,E,,*2C
$GPRMC,040048.8,A,4740.81411,N,12224.43888,W,000.00,287.3,190513,016.6,E,D*20
$PGRME,2.4,M,2.4,M,3.4,M*29
$HCHDG,266.7,0.0,E,,*2C
$YXXDR,A,5.5,D,PTCH,A,3.8,D,ROLL*56
$PTAK,FFD1,3.8*5E
$HCHDG,266.7,0.0,E,,*2C
$GPRMC,040049.0,A,4740.81411,N,12224.43888,W,000.00,287.3,190513,016.6,E,D*29
$PGRME,2.4,M,2.4,M,3.4,M*29
$HCHDG,266.7,0.0,E,,*2C
$HCHDG,266.7,0.0,E,,*2C
$GPRMC,040049.2,A,4740.81411,N,12224.43888,W,000.00,287.3,190513,016.6,E,D*2B
$GPRMB,A,0.11,L,,N,4741.0622,N,12224.6030,W,0.3,336,0.00,V*43
$PGRME,2.4,M,2.4,M,3.4,M*29
$HCHDG,266.7,0.0,E,,*2C
$HCHDG,266.7,0.0,E,,*2C
$GPRMC,040049.4,A,4740.81411,N,12224.43888,W,000.00,287.3,190513,016.6,E,D*2D
$PGRME,2.4,M,2.4,M,3.4,M*29
$YXXDR,A,5.5,D,PTCH,A,3.7,D,ROLL*59
$HCHDG,266.8,0.0,E,,*23
$HCHDG,266.8,0.0,E,,*23
$GPRMC,040049.6,A,4740.81411,N,12224.43888,W,000.00,287.3,190513,016.6,E,D*2F
$PTAK,FFP1,HEEL,@*07
$PGRME,2.4,M,2.4,M,3.4,M*29
$HCHDG,266.8,0.0,E,,*23
$HCHDG,266.8,0.0,E,,*23
$GPRMC,040049.8,A,4740.81411,N,12224.43888,W,000.00,287.3,190513,016.6,E,D*21
$PGRME,2.4,M,2.4,M,3.4,M*29
$HCHDG,266.8,0.0,E,,*23
$YXXDR,A,5.5,D,PTCH,A,3.7,D,ROLL*59
$PTAK,FFD1,3.7*51
$HCHDG,266.8,0.0,E,,*23
$GPRMC,040050.0,A,4740.81412,N,12224.43889,W,000.00,287.3,190513,016.6,E,D*23
$PGRME,2.4,M,2.4,M,3.4,M*29
$HCHDG,266.8,0.0,E,,*23
$HCHDG,266.8,0.0,E,,*23
$GPRMC,040050.2,A,4740.81412,N,12224.43889,W,000.00,287.3,190513,016.6,E,D*21
$GPRMB,A,0.11,L,,N,4741.0622,N,12224.6030,W,0.3,336,0.00,V*43
$PGRME,2.4,M,2.4,M,3.4,M*29
$HCHDG,266.8,0.0,E,,*23
$HCHDG,266.8,0.0,E,,*23
$GPRMC,040050.4,A,4740.81412,N,12224.43889,W,000.00,287.3,190513,016.6,E,D*27
$PGRME,2.4,M,2.4,M,3.4,M*29
$YXXDR,A,5.6,D,PTCH,A,3.6,D,ROLL*5B
$HCHDG,266.8,0.0,E,,*23
$HCHDG,266.8,0.0,E,,*23
$GPRMC,040050.6,A,4740.81412,N,12224.43889,W,000.00,287.3,190513,016.6,E,D*25
$PGRME,2.4,M,2.4,M,3.4,M*29
$HCHDG,266.8,0.0,E,,*23
$HCHDG,266.8,0.0,E,,*23
$GPRMC,040050.8,A,4740.81412,N,12224.43889,W,000.00,287.3,190513,016.6,E,D*2B
$PGRME,2.4,M,2.4,M,3.4,M*29
$HCHDG,266.8,0.0,E,,*23
$YXXDR,A,5.5,D,PTCH,A,3.7,D,ROLL*59
$PTAK,FFD1,3.7*51
$HCHDG,266.8,0.0,E,,*23
$GPRMC,040051.0,A,4740.81412,N,12224.43889,W,000.00,287.3,190513,016.6,E,D*22
$PGRME,2.4,M,2.4,M,3.4,M*29
$HCHDG,266.7,0.0,E,,*2C
$HCHDG,266.7,0.0,E,,*2C
$GPRMC,040051.2,A,4740.81412,N,12224.43889,W,000.00,287.3,190513,016.6,E,D*20
$PGRME,2.4,M,2.4,M,3.4,M*29
$HCHDG,266.7,0.0,E,,*2C
$HCHDG,266.7,0.0,E,,*2C
$GPRMC,040051.4,A,4740.81412,N,12224.43889,W,000.00,287.3,190513,016.6,E,D*26
$GPRMB,A,0.11,L,,N,4741.0622,N,12224.6030,W,0.3,336,0.00,V*43
$PGRME,2.4,M,2.4,M,3.4,M*29
$YXXDR,A,5.6,D,PTCH,A,3.6,D,ROLL*5B
$HCHDG,266.7,0.0,E,,*2C
$HCHDG,266.7,0.0,E,,*2C
$GPRMC,040051.6,A,4740.81412,N,12224.43889,W,000.00,287.3,190513,016.6,E,D*24
$PGRME,2.4,M,2.4,M,3.4,M*29
$HCHDG,266.7,0.0,E,,*2C
$HCHDG,266.7,0.0,E,,*2C
$GPRMC,040051.8,A,4740.81412,N,12224.43889,W,000.00,287.3,190513,016.6,E,D*2A
$PGRME,2.4,M,2.4,M,3.4,M*29
$HCHDG,266.7,0.0,E,,*2C
$YXXDR,A,5.5,D,PTCH,A,3.7,D,ROLL*59
$PTAK,FFD1,3.7*51
$HCHDG,266.7,0.0,E,,*2C
$GPRMC,040052.0,A,4740.81412,N,12224.43889,W,000.00,287.3,190513,016.6,E,D*21
$PGRME,2.4,M,2.4,M,3.4,M*29
$HCHDG,266.7,0.0,E,,*2C
$HCHDG,266.7,0.0,E,,*2C
$GPRMC,040052.2,A,4740.81412,N,12224.43889,W,000.00,287.3,190513,016.6,E,D*23
$PGRME,2.4,M,2.4,M,3.4,M*29
$HCHDG,266.7,0.0,E,,*2C
$HCHDG,266.7,0.0,E,,*2C
$GPRMC,040052.4,A,4740.81412,N,12224.43889,W,000.00,287.3,190513,016.6,E,D*25
$PGRME,2.4,M,2.4,M,3.4,M*29
$YXXDR,A,5.5,D,PTCH,A,3.7,D,ROLL*59
$HCHDG,266.7,0.0,E,,*2C
$HCHDG,266.7,0.0,E,,*2C
$GPRMC,040052.6,A,4740.81412,N,12224.43890,W,000.00,287.3,190513,016.6,E,D*2F
$GPRMB,A,0.11,L,,N,4741.0622,N,12224.6030,W,0.3,336,0.00,V*43
$PGRME,2.4,M,2.4,M,3.4,M*29
$HCHDG,266.7,0.0,E,,*2C
$HCHDG,266.7,0.0,E,,*2C
$GPRMC,040052.8,A,4740.81412,N,12224.43890,W,000.00,287.3,190513,016.6,E,D*21
$PGRME,2.4,M,2.4,M,3.4,M*29
$HCHDG,266.7,0.0,E,,*2C
$YXXDR,A,5.5,D,PTCH,A,3.7,D,ROLL*59
$HCHDG,266.7,0.0,E,,*2C
$GPRMC,040053.0,A,4740.81412,N,12224.43890,W,000.00,287.3,190513,016.6,E,D*28
$PGRME,2.4,M,2.4,M,3.4,M*29
$HCHDG,266.7,0.0,E,,*2C
$HCHDG,266.6,0.0,E,,*2D
$GPRMC,040053.2,A,4740.81412,N,12224.43890,W,000.00,287.3,190513,016.6,E,D*2A
$PGRME,2.4,M,2.4,M,3.4,M*29
$HCHDG,266.7,0.0,E,,*2C
$HCHDG,266.7,0.0,E,,*2C
$GPRMC,040053.4,A,4740.81412,N,12224.43890,W,000.00,287.3,190513,016.6,E,D*2C
$PGRME,2.4,M,2.4,M,3.4,M*29
$YXXDR,A,5.6,D,PTCH,A,3.6,D,ROLL*5B
$PTAK,FFD1,3.6*50
$HCHDG,266.7,0.0,E,,*2C
$HCHDG,266.7,0.0,E,,*2C
$GPRMC,040053.6,A,4740.81413,N,12224.43890,W,000.00,287.3,190513,016.6,E,D*2F
$PTAK,FFP1,HEEL,@*07
$PGRME,2.4,M,2.4,M,3.4,M*29
$HCHDG,266.7,0.0,E,,*2C
$HCHDG,266.7,0.0,E,,*2C
$GPRMC,040053.8,A,4740.81413,N,12224.43890,W,000.00,287.3,190513,016.6,E,D*21
$GPRMB,A,0.11,L,,N,4741.0622,N,12224.6030,W,0.3,336,0.00,V*43
$PGRME,2.4,M,2.4,M,3.4,M*29
$HCHDG,266.7,0.0,E,,*2C
$YXXDR,A,5.5,D,PTCH,A,3.7,D,ROLL*59
$HCHDG,266.7,0.0,E,,*2C
$GPRMC,040054.0,A,4740.81413,N,12224.43891,W,000.00,287.3,190513,016.6,E,D*2F
$PGRME,2.4,M,2.4,M,3.4,M*29
$HCHDG,266.7,0.0,E,,*2C
$HCHDG,266.7,0.0,E,,*2C
$GPRMC,040054.2,A,4740.81413,N,12224.43891,W,000.00,287.3,190513,016.6,E,D*2D
$PGRME,2.4,M,2.4,M,3.4,M*29
$HCHDG,266.7,0.0,E,,*2C
$HCHDG,266.6,0.0,E,,*2D
$GPRMC,040054.4,A,4740.81413,N,12224.43891,W,000.00,287.3,190513,016.6,E,D*2B
$PGRME,2.4,M,2.4,M,3.4,M*29
$YXXDR,A,5.5,D,PTCH,A,3.7,D,ROLL*59
$PTAK,FFD1,3.7*51
$HCHDG,266.6,0.0,E,,*2D
$HCHDG,266.7,0.0,E,,*2C
$GPRMC,040054.6,A,4740.81413,N,12224.43891,W,000.00,287.3,190513,016.6,E,D*29
$PGRME,2.4,M,2.4,M,3.4,M*29
$HCHDG,266.7,0.0,E,,*2C
$HCHDG,266.7,0.0,E,,*2C
$GPRMC,040054.8,A,4740.81413,N,12224.43892,W,000.01,287.3,190513,016.6,E,D*25
$PGRME,2.4,M,2.4,M,3.4,M*29
$HCHDG,266.7,0.0,E,,*2C
$YXXDR,A,5.5,D,PTCH,A,3.7,D,ROLL*59
$HCHDG,266.8,0.0,E,,*23
$GPRMC,040055.0,A,4740.81413,N,12224.43892,W,000.00,287.3,190513,016.6,E,D*2D
$GPRMB,A,0.11,L,,N,4741.0622,N,12224.6030,W,0.3,336,0.00,V*43
$PGRME,2.4,M,2.4,M,3.4,M*29
$HCHDG,266.8,0.0,E,,*23
$HCHDG,266.8,0.0,E,,*23
$GPRMC,040055.2,A,4740.81413,N,12224.43892,W,000.00,287.3,190513,016.6,E,D*2F
$PGRME,2.4,M,2.4,M,3.4,M*29
$HCHDG,266.8,0.0,E,,*23
$HCHDG,266.8,0.0,E,,*23
$GPRMC,040055.4,A,4740.81413,N,12224.43892,W,000.00,287.3,190513,016.6,E,D*29
$PGRME,2.4,M,2.4,M,3.4,M*29
$YXXDR,A,5.5,D,PTCH,A,3.7,D,ROLL*59
$HCHDG,266.7,0.0,E,,*2C
$HCHDG,266.7,0.0,E,,*2C
$GPRMC,040055.6,A,4740.81413,N,12224.43892,W,000.00,287.3,190513,016.6,E,D*2B
$PGRME,2.4,M,2.4,M,3.4,M*29
$HCHDG,266.7,0.0,E,,*2C
$HCHDG,266.7,0.0,E,,*2C
$GPRMC,040055.8,A,4740.81413,N,12224.43893,W,000.00,287.3,190513,016.6,E,D*24
$PGRME,2.4,M,2.4,M,3.4,M*29
$HCHDG,266.7,0.0,E,,*2C
$YXXDR,A,5.5,D,PTCH,A,3.7,D,ROLL*59
$PTAK,FFD1,3.7*51
$HCHDG,266.7,0.0,E,,*2C
$GPRMC,040056.0,A,4740.81413,N,12224.43893,W,000.00,287.3,190513,016.6,E,D*2F
$PGRME,2.4,M,2.4,M,3.4,M*29
$HCHDG,266.7,0.0,E,,*2C
$HCHDG,266.7,0.0,E,,*2C
$GPRMC,040056.2,A,4740.81413,N,12224.43893,W,000.00,287.3,190513,016.6,E,D*2D
$GPRMB,A,0.11,L,,N,4741.0622,N,12224.6030,W,0.3,336,0.00,V*43
$PGRME,2.4,M,2.4,M,3.4,M*29
$HCHDG,266.7,0.0,E,,*2C
$HCHDG,266.7,0.0,E,,*2C
$GPRMC,040056.4,A,4740.81413,N,12224.43893,W,000.00,287.3,190513,016.6,E,D*2B
$PGRME,2.4,M,2.4,M,3.4,M*29
$YXXDR,A,5.4,D,PTCH,A,3.8,D,ROLL*57
$HCHDG,266.7,0.0,E,,*2C
$HCHDG,266.7,0.0,E,,*2C
$GPRMC,040056.6,A,4740.81413,N,12224.43893,W,000.00,287.3,190513,016.6,E,D*29
$PGRME,2.4,M,2.4,M,3.4,M*29
$HCHDG,266.7,0.0,E,,*2C
$HCHDG,266.7,0.0,E,,*2C
$GPRMC,040056.8,A,4740.81414,N,12224.43893,W,000.00,287.3,190513,016.6,E,D*20
$PGRME,2.4,M,2.4,M,3.4,M*29
$HCHDG,266.7,0.0,E,,*2C
$YXXDR,A,5.5,D,PTCH,A,3.7,D,ROLL*59
$HCHDG,266.7,0.0,E,,*2C
$GPRMC,040057.0,A,4740.81414,N,12224.43893,W,000.01,287.3,190513,016.6,E,D*28
$PGRME,2.4,M,2.4,M,3.4,M*29
$HCHDG,266.7,0.0,E,,*2C
$HCHDG,266.7,0.0,E,,*2C
$GPRMC,040057.2,A,4740.81414,N,12224.43893,W,000.00,287.3,190513,016.6,E,D*2B
$PGRME,2.4,M,2.4,M,3.4,M*29
$HCHDG,266.7,0.0,E,,*2C
$HCHDG,266.7,0.0,E,,*2C
$GPRMC,040057.4,A,4740.81414,N,12224.43893,W,000.00,287.3,190513,016.6,E,D*2D
$GPRMB,A,0.11,L,,N,4741.0622,N,12224.6030,W,0.3,336,0.00,V*43
$PGRME,2.4,M,2.4,M,3.4,M*29
$YXXDR,A,5.6,D,PTCH,A,3.6,D,ROLL*5B
$PTAK,FFD1,3.6*50
$PTAK,FFP1,HEEL,@*07
$HCHDG,266.7,0.0,E,,*2C
$HCHDG,266.7,0.0,E,,*2C
$GPRMC,040057.6,A,4740.81414,N,12224.43894,W,000.00,287.3,190513,016.6,E,D*28
$PGRME,2.4,M,2.4,M,3.4,M*29
$HCHDG,266.8,0.0,E,,*23
$HCHDG,266.8,0.0,E,,*23
$GPRMC,040057.8,A,4740.81414,N,12224.43894,W,000.00,287.3,190513,016.6,E,D*26
$PGRME,2.4,M,2.4,M,3.4,M*29
$HCHDG,266.8,0.0,E,,*23
$YXXDR,A,5.5,D,PTCH,A,3.7,D,ROLL*59
$HCHDG,266.8,0.0,E,,*23
$GPRMC,040058.0,A,4740.81414,N,12224.43894,W,000.01,287.3,190513,016.6,E,D*20
$PGRME,2.4,M,2.4,M,3.4,M*29
$HCHDG,266.8,0.0,E,,*23
$HCHDG,266.8,0.0,E,,*23
$GPRMC,040058.2,A,4740.81414,N,12224.43894,W,000.00,287.3,190513,016.6,E,D*23
$PGRME,2.4,M,2.4,M,3.4,M*29
$HCHDG,266.8,0.0,E,,*23
$HCHDG,266.8,0.0,E,,*23
$GPRMC,040058.4,A,4740.81414,N,12224.43894,W,000.00,287.3,190513,016.6,E,D*25
$PGRME,2.4,M,2.4,M,3.4,M*29
$YXXDR,A,5.4,D,PTCH,A,3.6,D,ROLL*59
$HCHDG,266.8,0.0,E,,*23
$HCHDG,266.8,0.0,E,,*23
$GPRMC,040058.6,A,4740.81415,N,12224.43894,W,000.00,287.3,190513,016.6,E,D*26
$GPRMB,A,0.11,L,,N,4741.0622,N,12224.6030,W,0.3,336,0.00,V*43
$PGRME,2.4,M,2.4,M,3.4,M*29
$HCHDG,266.9,0.0,E,,*22
$HCHDG,266.9,0.0,E,,*22
$GPRMC,040058.8,A,4740.81415,N,12224.43894,W,000.00,287.3,190513,016.6,E,D*28
$PGRME,2.4,M,2.4,M,3.4,M*29
$HCHDG,266.9,0.0,E,,*22
$YXXDR,A,5.5,D,PTCH,A,3.7,D,ROLL*59
$PTAK,FFD1,3.7*51
$HCHDG,266.9,0.0,E,,*22
$GPRMC,040059.0,A,4740.81415,N,12224.43894,W,000.00,287.3,190513,016.6,E,D*21
$PGRME,2.4,M,2.4,M,3.4,M*29
$HCHDG,266.9,0.0,E,,*22
$HCHDG,266.9,0.0,E,,*22
$GPRMC,040059.2,A,4740.81415,N,12224.43894,W,000.00,287.3,190513,016.6,E,D*23
$PGRME,2.4,M,2.4,M,3.4,M*29
$HCHDG,266.9,0.0,E,,*22
$HCHDG,266.9,0.0,E,,*22
$GPRMC,040059.4,A,4740.81415,N,12224.43895,W,000.00,287.3,190513,016.6,E,D*24
$PGRME,2.4,M,2.4,M,3.4,M*29
$YXXDR,A,5.5,D,PTCH,A,3.7,D,ROLL*59
$HCHDG,266.9,0.0,E,,*22
$HCHDG,266.9,0.0,E,,*22
$GPRMC,040059.6,A,4740.81415,N,12224.43895,W,000.00,287.3,190513,016.6,E,D*26
$PGRME,2.4,M,2.4,M,3.4,M*29
$HCHDG,266.9,0.0,E,,*22
$HCHDG,266.9,0.0,E,,*22
$GPRMC,040059.8,A,4740.81415,N,12224.43895,W,000.00,287.3,190513,016.6,E,D*28
$GPRMB,A,0.11,L,,N,4741.0622,N,12224.6030,W,0.3,336,0.00,V*43
$PGRME,2.4,M,2.4,M,3.4,M*29
$HCHDG,266.9,0.0,E,,*22
$YXXDR,A,5.6,D,PTCH,A,3.6,D,ROLL*5B
$PTAK,FFD1,3.6*50
$HCHDG,266.9,0.0,E,,*22
$GPRMC,040100.0,A,4740.81415,N,12224.43895,W,000.00,287.3,190513,016.6,E,D*2D
$PGRME,2.4,M,2.4,M,3.4,M*29
$HCHDG,267.0,0.0,E,,*2A
$HCHDG,267.0,0.0,E,,*2A
$GPRMC,040100.2,A,4740.81415,N,12224.43895,W,000.01,287.3,190513,016.6,E,D*2E
$PGRME,2.4,M,2.4,M,3.4,M*29
$HCHDG,266.9,0.0,E,,*22
$HCHDG,266.9,0.0,E,,*22
$GPRMC,040100.4,A,4740.81415,N,12224.43895,W,000.00,287.3,190513,016.6,E,D*29
$PGRME,2.4,M,2.4,M,3.4,M*29
$YXXDR,A,5.5,D,PTCH,A,3.7,D,ROLL*59
$HCHDG,266.9,0.0,E,,*22
$HCHDG,266.9,0.0,E,,*22
$GPRMC,040100.6,A,4740.81415,N,12224.43895,W,000.00,287.3,190513,016.6,E,D*2B
$PGRME,2.4,M,2.4,M,3.4,M*29
$HCHDG,266.9,0.0,E,,*22
$HCHDG,266.9,0.0,E,,*22
$GPRMC,040100.8,A,4740.81415,N,12224.43895,W,000.00,287.3,190513,016.6,E,D*25
$PGRME,2.4,M,2.4,M,3.4,M*29
$HCHDG,266.9,0.0,E,,*22
$YXXDR,A,5.5,D,PTCH,A,3.7,D,ROLL*59
$HCHDG,266.9,0.0,E,,*22
$GPRMC,040101.0,A,4740.81415,N,12224.43895,W,000.00,287.3,190513,016.6,E,D*2C
$GPRMB,A,0.11,L,,N,4741.0622,N,12224.6030,W,0.3,336,0.00,V*43
$PGRME,2.4,M,2.4,M,3.4,M*29
$HCHDG,266.9,0.0,E,,*22
$HCHDG,266.9,0.0,E,,*22
$GPRMC,040101.2,A,4740.81415,N,12224.43895,W,000.00,287.3,190513,016.6,E,D*2E
$PGRME,2.4,M,2.4,M,3.4,M*29
$HCHDG,266.9,0.0,E,,*22
$HCHDG,266.8,0.0,E,,*23
$GPRMC,040101.4,A,4740.81415,N,12224.43895,W,000.00,287.3,190513,016.6,E,D*28
$PGRME,2.4,M,2.4,M,3.4,M*29
$YXXDR,A,5.4,D,PTCH,A,3.6,D,ROLL*59
$PTAK,FFD1,3.6*50
$HCHDG,266.8,0.0,E,,*23
$HCHDG,266.8,0.0,E,,*23
$GPRMC,040101.6,A,4740.81415,N,12224.43895,W,000.00,287.3,190513,016.6,E,D*2A
$PGRME,2.4,M,2.4,M,3.4,M*29
$HCHDG,266.8,0.0,E,,*23
$PTAK,FFP1,HEEL,@*07
$HCHDG,266.8,0.0,E,,*23
$GPRMC,040101.8,A,4740.81415,N,12224.43895,W,000.00,287.3,190513,016.6,E,D*24
$PGRME,2.4,M,2.4,M,3.4,M*29
$HCHDG,266.8,0.0,E,,*23
$YXXDR,A,5.5,D,PTCH,A,3.7,D,ROLL*59
$HCHDG,266.8,0.0,E,,*23
$GPRMC,040102.0,A,4740.81415,N,12224.43895,W,000.00,287.3,190513,016.6,E,D*2F
$PGRME,2.4,M,2.4,M,3.4,M*29
$HCHDG,266.8,0.0,E,,*23
$HCHDG,266.8,0.0,E,,*23
$GPRMC,040102.2,A,4740.81415,N,12224.43895,W,000.00,287.3,190513,016.6,E,D*2D
$GPRMB,A,0.11,L,,N,4741.0622,N,12224.6030,W,0.3,336,0.00,V*43
$PGRME,2.4,M,2.4,M,3.4,M*29
$HCHDG,266.8,0.0,E,,*23
$HCHDG,266.8,0.0,E,,*23
$GPRMC,040102.4,A,4740.81416,N,12224.43895,W,000.00,287.3,190513,016.6,E,D*28
$PGRME,2.4,M,2.4,M,3.4,M*29
$YXXDR,A,5.5,D,PTCH,A,3.7,D,ROLL*59
$PTAK,FFD1,3.7*51
$HCHDG,266.8,0.0,E,,*23
$HCHDG,266.8,0.0,E,,*23
$GPRMC,040102.6,A,4740.81416,N,12224.43895,W,000.00,287.3,190513,016.6,E,D*2A
$PGRME,2.4,M,2.4,M,3.4,M*29
$HCHDG,266.8,0.0,E,,*23
$HCHDG,266.8,0.0,E,,*23
$GPRMC,040102.8,A,4740.81416,N,12224.43895,W,000.00,287.3,190513,016.6,E,D*24
$PGRME,2.4,M,2.4,M,3.4,M*29
$HCHDG,266.8,0.0,E,,*23
$YXXDR,A,5.5,D,PTCH,A,3.7,D,ROLL*59
$HCHDG,266.8,0.0,E,,*23
$GPRMC,040103.0,A,4740.81416,N,12224.43895,W,000.00,287.3,190513,016.6,E,D*2D
$PGRME,2.4,M,2.4,M,3.4,M*29
$HCHDG,266.8,0.0,E,,*23
$HCHDG,266.8,0.0,E,,*23
$GPRMC,040103.2,A,4740.81416,N,12224.43895,W,000.00,287.3,190513,016.6,E,D*2F
$PGRME,2.4,M,2.4,M,3.4,M*29
$HCHDG,266.8,0.0,E,,*23
$HCHDG,266.8,0.0,E,,*23
$GPRMC,040103.4,A,4740.81416,N,12224.43895,W,000.00,287.3,190513,016.6,E,D*29
$GPRMB,A,0.11,L,,N,4741.0622,N,12224.6030,W,0.3,336,0.00,V*43
$PGRME,2.4,M,2.4,M,3.4,M*29
$YXXDR,A,5.4,D,PTCH,A,3.8,D,ROLL*57
$PTAK,FFD1,3.8*5E
$HCHDG,266.8,0.0,E,,*23
$HCHDG,266.8,0.0,E,,*23
$GPRMC,040103.6,A,4740.81416,N,12224.43895,W,000.01,287.3,190513,016.6,E,D*2A
$PGRME,2.4,M,2.4,M,3.4,M*29
$HCHDG,266.8,0.0,E,,*23
$HCHDG,266.8,0.0,E,,*23
$GPRMC,040103.8,A,4740.81416,N,12224.43895,W,000.00,287.3,190513,016.6,E,D*25
$PGRME,2.4,M,2.4,M,3.4,M*29
$HCHDG,266.8,0.0,E,,*23
$YXXDR,A,5.5,D,PTCH,A,3.7,D,ROLL*59
$HCHDG,266.8,0.0,E,,*23
$GPRMC,040104.0,A,4740.81416,N,12224.43895,W,000.00,287.3,190513,016.6,E,D*2A
$PGRME,2.4,M,2.4,M,3.4,M*29
$HCHDG,266.8,0.0,E,,*23
$HCHDG,266.8,0.0,E,,*23
$GPRMC,040104.2,A,4740.81416,N,12224.43895,W,000.00,287.3,190513,016.6,E,D*28
$PGRME,2.4,M,2.4,M,3.4,M*29
$HCHDG,266.8,0.0,E,,*23
$HCHDG,266.8,0.0,E,,*23
$GPRMC,040104.4,A,4740.81416,N,12224.43895,W,000.00,287.3,190513,016.6,E,D*2E
$PGRME,2.4,M,2.4,M,3.4,M*29
$YXXDR,A,5.5,D,PTCH,A,3.7,D,ROLL*59
$HCHDG,266.7,0.0,E,,*2C
$HCHDG,266.7,0.0,E,,*2C
$GPRMC,040104.6,A,4740.81416,N,12224.43895,W,000.00,287.3,190513,016.6,E,D*2C
