$GPRMB,A,0.10,L,,N,4741.0622,N,12224.6030,W,0.3,337,0.17,V*45
$PTAK,FFP1,HEEL,@*07
$PGRME,5.6,M,13.0,M,14.2,M*28
$YXXDR,A,5.0,D,PTCH,A,5.5,D,ROLL*58
$PTAK,FFD1,5.5*55
$PTAK,FFP1,HEEL,@*07
$HCHDG,267.0,0.0,E,,*2A
$HCHDG,267.1,0.0,E,,*2B
$GPRMC,163325.2,A,4740.82036,N,12224.44736,W,000.19,000.0,170513,016.6,E,A*20
$GPRMB,A,0.10,L,,N,4741.0622,N,12224.6030,W,0.3,337,0.17,V*45
$PGRME,5.4,M,12.0,M,13.2,M*2C
$HCHDG,267.3,0.0,E,,*29
$HCHDG,267.3,0.0,E,,*29
$GPRMC,163325.4,A,4740.82000,N,12224.44719,W,000.16,000.0,170513,016.6,E,A*21
$PGRME,5.2,M,11.2,M,12.3,M*2B
$HCHDG,267.3,0.0,E,,*29
$YXXDR,A,5.0,D,PTCH,A,5.5,D,ROLL*58
$HCHDG,267.5,0.0,E,,*2F
$GPRMC,163325.6,A,4740.81970,N,12224.44708,W,000.09,000.0,170513,016.6,E,A*20
$PGRME,5.0,M,10.5,M,11.6,M*29
$HCHDG,267.4,0.0,E,,*2E
$HCHDG,267.5,0.0,E,,*2F
$GPRMC,163325.8,A,4740.81984,N,12224.44726,W,000.05,000.0,170513,016.6,E,A*25
$PGRME,4.8,M,9.9,M,11.0,M*12
$HCHDG,267.4,0.0,E,,*2E
$HCHDG,267.5,0.0,E,,*2F
$GPRMC,163326.0,A,4740.81998,N,12224.44722,W,000.04,000.0,170513,016.6,E,A*26
$PGRME,4.7,M,9.4,M,10.5,M*14
$YXXDR,A,4.8,D,PTCH,A,5.4,D,ROLL*50
$HCHDG,267.5,0.0,E,,*2F
$HCHDG,267.4,0.0,E,,*2E
$GPRMC,163326.2,A,4740.82020,N,12224.44741,W,000.06,000.0,170513,016.6,E,A*2A
$PGRME,4.6,M,9.0,M,10.1,M*15
$HCHDG,267.4,0.0,E,,*2E
$HCHDG,267.5,0.0,E,,*2F
$GPRMC,163326.4,A,4740.82004,N,12224.44736,W,000.05,000.0,170513,016.6,E,A*29
$PGRME,4.5,M,8.7,M,9.8,M*21
$HCHDG,267.5,0.0,E,,*2F
$YXXDR,A,5.0,D,PTCH,A,5.4,D,ROLL*59
$PTAK,FFD1,5.4*54
$HCHDG,267.5,0.0,E,,*2F
$GPRMC,163326.6,A,4740.81986,N,12224.44744,W,000.06,000.0,170513,016.6,E,A*2D
$GPRMB,A,0.10,L,,N,4741.0622,N,12224.6030,W,0.3,337,0.06,V*45
$PGRME,4.4,M,8.4,M,9.5,M*2E
$HCHDG,267.5,0.0,E,,*2F
$HCHDG,267.5,0.0,E,,*2F
$GPRMC,163326.8,A,4740.81964,N,12224.44743,W,000.02,000.0,170513,016.6,E,A*2C
$PGRME,4.2,M,8.1,M,9.1,M*29
$HCHDG,267.5,0.0,E,,*2F
$HCHDG,267.6,0.0,E,,*2C
$GPRMC,163327.0,A,4740.81959,N,12224.44743,W,000.02,000.0,170513,016.6,E,A*2B
$PGRME,4.1,M,7.8,M,8.8,M*24
$YXXDR,A,5.1,D,PTCH,A,5.5,D,ROLL*59
$HCHDG,267.6,0.0,E,,*2C
$HCHDG,267.6,0.0,E,,*2C
$GPRMC,163327.2,A,4740.81959,N,12224.44748,W,000.02,000.0,170513,016.6,E,A*22
$PGRME,4.0,M,7.5,M,8.5,M*25
$HCHDG,267.6,0.0,E,,*2C
$HCHDG,267.5,0.0,E,,*2F
$GPRMC,163327.4,A,4740.81961,N,12224.44739,W,000.06,000.0,170513,016.6,E,A*2D
$PGRME,3.9,M,7.2,M,8.2,M*2B
$HCHDG,267.5,0.0,E,,*2F
$YXXDR,A,5.1,D,PTCH,A,4.7,D,ROLL*5A
$HCHDG,267.5,0.0,E,,*2F
$GPRMC,163327.6,A,4740.81973,N,12224.44742,W,000.12,000.0,170513,016.6,E,A*25
$PGRME,3.8,M,7.0,M,7.9,M*2C
$HCHDG,267.4,0.0,E,,*2E
$HCHDG,267.4,0.0,E,,*2E
$GPRMC,163327.8,A,4740.81984,N,12224.44738,W,000.14,000.0,170513,016.6,E,A*28
$GPRMB,A,0.10,L,,N,4741.0622,N,12224.6030,W,0.3,337,0.13,V*41
$PGRME,3.7,M,6.8,M,7.7,M*24
$HCHDG,267.2,0.0,E,,*28
$HCHDG,267.1,0.0,E,,*2B
$GPRMC,163328.0,A,4740.81989,N,12224.44753,W,000.11,000.0,170513,016.6,E,A*2A
$PGRME,3.7,M,6.6,M,7.6,M*2B
$YXXDR,A,5.2,D,PTCH,A,4.4,D,ROLL*5A
$PTAK,FFD1,4.4*55
$HCHDG,267.1,0.0,E,,*2B
$HCHDG,267.1,0.0,E,,*2B
$GPRMC,163328.2,A,4740.81992,N,12224.44760,W,000.04,000.0,170513,016.6,E,A*26
$PGRME,3.6,M,6.4,M,7.4,M*2A
$HCHDG,267.0,0.0,E,,*2A
$HCHDG,266.9,0.0,E,,*22
$GPRMC,163328.4,A,4740.81996,N,12224.44771,W,000.03,000.0,170513,016.6,E,A*23
$PGRME,3.5,M,6.3,M,7.2,M*28
$HCHDG,266.9,0.0,E,,*22
$YXXDR,A,5.1,D,PTCH,A,4.9,D,ROLL*54
$HCHDG,266.8,0.0,E,,*23
$GPRMC,163328.6,A,4740.82016,N,12224.44774,W,000.04,000.0,170513,016.6,E,A*21
$PGRME,3.5,M,6.2,M,7.1,M*2A
$HCHDG,266.7,0.0,E,,*2C
$HCHDG,266.9,0.0,E,,*22
$GPRMC,163328.8,A,4740.82018,N,12224.44769,W,000.02,000.0,170513,016.6,E,A*2B
$PGRME,3.4,M,6.0,M,6.9,M*20
$HCHDG,266.8,0.0,E,,*23
$HCHDG,266.9,0.0,E,,*22
$GPRMC,163329.0,A,4740.82050,N,12224.44781,W,000.02,000.0,170513,016.6,E,A*28
$GPRMB,A,0.10,L,,N,4741.0622,N,12224.6030,W,0.3,337,0.02,V*41
$PGRME,3.3,M,5.9,M,6.7,M*23
$YXXDR,A,5.0,D,PTCH,A,4.4,D,ROLL*58
$PTAK,FFD1,4.4*55
$HCHDG,266.7,0.0,E,,*2C
$HCHDG,266.7,0.0,E,,*2C
$GPRMC,163329.2,A,4740.82062,N,12224.44780,W,000.04,000.0,170513,016.6,E,A*2C
$PGRME,3.2,M,5.7,M,6.6,M*2D
$HCHDG,266.7,0.0,E,,*2C
$HCHDG,266.4,0.0,E,,*2F
$GPRMC,163329.4,A,4740.82032,N,12224.44793,W,000.05,000.0,170513,016.6,E,A*2C
$PGRME,3.2,M,5.6,M,6.4,M*2E
$HCHDG,266.3,0.0,E,,*28
$YXXDR,A,5.0,D,PTCH,A,4.7,D,ROLL*5B
$PTAK,FFP1,HEEL,@*07
$HCHDG,266.3,0.0,E,,*28
$GPRMC,163329.6,A,4740.82023,N,12224.44795,W,000.06,000.0,170513,016.6,E,A*2B
$PGRME,3.1,M,5.5,M,6.3,M*29
$HCHDG,266.2,0.0,E,,*29
$HCHDG,266.3,0.0,E,,*28
$GPRMC,163329.8,A,4740.82017,N,12224.44801,W,000.05,000.0,170513,016.6,E,A*23
$PGRME,3.1,M,5.4,M,6.2,M*29
$HCHDG,266.3,0.0,E,,*28
$HCHDG,266.2,0.0,E,,*29
$GPRMC,163330.0,A,4740.82031,N,12224.44798,W,000.06,000.0,170513,016.6,E,A*2B
$PGRME,3.0,M,5.2,M,6.1,M*2D
$YXXDR,A,5.1,D,PTCH,A,5.0,D,ROLL*5C
$HCHDG,266.2,0.0,E,,*29
$HCHDG,266.1,0.0,E,,*2A
$GPRMC,163330.2,A,4740.82038,N,12224.44800,W,000.08,000.0,170513,016.6,E,A*20
$GPRMB,A,0.10,L,,N,4741.0622,N,12224.6030,W,0.3,337,0.07,V*44
$PGRME,3.0,M,5.1,M,6.0,M*2F
$HCHDG,266.1,0.0,E,,*2A
$HCHDG,265.9,0.0,E,,*21
$GPRMC,163330.4,A,4740.82036,N,12224.44802,W,000.04,000.0,170513,016.6,E,A*26
$PGRME,3.0,M,5.0,M,5.8,M*25
$HCHDG,265.8,0.0,E,,*20
$YXXDR,A,4.8,D,PTCH,A,5.1,D,ROLL*55
$PTAK,FFD1,5.1*51
$HCHDG,265.7,0.0,E,,*2F
$GPRMC,163330.6,A,4740.82021,N,12224.44792,W,000.06,000.0,170513,016.6,E,A*26
$PGRME,3.0,M,4.9,M,5.8,M*2D
$HCHDG,265.7,0.0,E,,*2F
$HCHDG,265.7,0.0,E,,*2F
$GPRMC,163330.8,A,4740.82000,N,12224.44795,W,000.08,000.0,170513,016.6,E,A*22
$PGRME,3.0,M,4.8,M,5.7,M*23
$HCHDG,265.6,0.0,E,,*2E
$HCHDG,265.6,0.0,E,,*2E
$GPRMC,163331.0,A,4740.81990,N,12224.44794,W,000.04,000.0,170513,016.6,E,A*25
$PGRME,3.0,M,4.7,M,5.6,M*2D
$YXXDR,A,4.8,D,PTCH,A,5.3,D,ROLL*57
$HCHDG,265.5,0.0,E,,*2D
$HCHDG,265.5,0.0,E,,*2D
$GPRMC,163331.2,A,4740.81974,N,12224.44796,W,000.06,000.0,170513,016.6,E,A*2D
$GPRMB,A,0.10,L,,N,4741.0622,N,12224.6030,W,0.3,337,0.06,V*45
$PGRME,3.0,M,4.6,M,5.5,M*2F
$HCHDG,265.4,0.0,E,,*2C
$HCHDG,265.5,0.0,E,,*2D
$GPRMC,163331.4,A,4740.81973,N,12224.44795,W,000.06,000.0,170513,016.6,E,A*2F
$PGRME,3.0,M,4.5,M,5.5,M*2C
$HCHDG,265.4,0.0,E,,*2C
$YXXDR,A,4.9,D,PTCH,A,5.4,D,ROLL*51
$HCHDG,265.4,0.0,E,,*2C
$GPRMC,163331.6,A,4740.81970,N,12224.44790,W,000.04,000.0,170513,016.6,E,A*29
$PGRME,3.0,M,4.5,M,5.4,M*2D
$HCHDG,265.2,0.0,E,,*2A
$HCHDG,265.1,0.0,E,,*29
$GPRMC,163331.8,A,4740.81972,N,12224.44786,W,000.05,000.0,170513,016.6,E,A*23
$PGRME,3.0,M,4.4,M,5.4,M*2C
$HCHDG,265.1,0.0,E,,*29
$HCHDG,265.0,0.0,E,,*28
$GPRMC,163332.0,A,4740.81977,N,12224.44790,W,000.02,000.0,170513,016.6,E,A*2D
$PGRME,3.0,M,4.3,M,5.3,M*2C
$YXXDR,A,5.0,D,PTCH,A,5.1,D,ROLL*5C
$PTAK,FFD1,5.1*51
$HCHDG,265.0,0.0,E,,*28
$HCHDG,264.8,0.0,E,,*21
$GPRMC,163332.2,A,4740.81957,N,12224.44806,W,000.04,000.0,170513,016.6,E,A*2B
$PGRME,3.0,M,4.1,M,5.1,M*2C
$HCHDG,264.8,0.0,E,,*21
$HCHDG,264.8,0.0,E,,*21
$GPRMC,163332.4,A,4740.81945,N,12224.44806,W,000.02,000.0,170513,016.6,E,A*28
$GPRMB,A,0.10,L,,N,4741.0622,N,12224.6030,W,0.3,337,0.02,V*41
$PGRME,3.0,M,3.9,M,4.9,M*2A
$HCHDG,264.8,0.0,E,,*21
$YXXDR,A,4.9,D,PTCH,A,5.1,D,ROLL*54
$HCHDG,264.7,0.0,E,,*2E
$GPRMC,163332.6,A,4740.81923,N,12224.44822,W,000.04,000.0,170513,016.6,E,A*2A
$PGRME,3.0,M,3.7,M,4.8,M*25
$HCHDG,264.7,0.0,E,,*2E
$HCHDG,264.5,0.0,E,,*2C
$GPRMC,163332.8,A,4740.81899,N,12224.44828,W,000.06,000.0,170513,016.6,E,A*2C
$PGRME,3.0,M,3.5,M,4.7,M*28
$HCHDG,264.4,0.0,E,,*2D
$HCHDG,264.3,0.0,E,,*2A
$GPRMC,163333.0,A,4740.81877,N,12224.44829,W,000.03,000.0,170513,016.6,E,A*21
$PGRME,3.0,M,3.4,M,4.5,M*2B
$YXXDR,A,5.0,D,PTCH,A,5.2,D,ROLL*5F
$PTAK,FFD1,5.2*52
$HCHDG,264.3,0.0,E,,*2A
$HCHDG,264.3,0.0,E,,*2A
$GPRMC,163333.2,A,4740.81870,N,12224.44836,W,000.04,000.0,170513,016.6,E,A*2D
$PGRME,3.0,M,3.2,M,4.5,M*2D
$HCHDG,264.2,0.0,E,,*2B
$HCHDG,264.1,0.0,E,,*28
$GPRMC,163333.4,A,4740.81860,N,12224.44849,W,000.02,000.0,170513,016.6,E,A*24
$PGRME,3.0,M,3.1,M,4.4,M*2F
$HCHDG,264.1,0.0,E,,*28
$YXXDR,A,4.9,D,PTCH,A,5.5,D,ROLL*50
$HCHDG,264.0,0.0,E,,*29
$PTAK,FFP1,HEEL,@*07
$GPRMC,163333.6,A,4740.81841,N,12224.44860,W,000.01,000.0,170513,016.6,E,A*2D
$GPRMB,A,0.10,L,,N,4741.0622,N,12224.6030,W,0.3,337,0.01,V*42
$PGRME,3.0,M,3.0,M,4.3,M*29
$HCHDG,264.0,0.0,E,,*29
$HCHDG,263.9,0.0,E,,*27
$GPRMC,163333.8,A,4740.81833,N,12224.44871,W,000.02,000.0,170513,016.6,E,A*25
$PGRME,3.0,M,3.0,M,4.3,M*29
$HCHDG,263.8,0.0,E,,*26
$HCHDG,263.8,0.0,E,,*26
$GPRMC,163334.0,A,4740.81824,N,12224.44884,W,000.05,000.0,170513,016.6,E,A*21
$PGRME,3.0,M,3.0,M,4.3,M*29
$YXXDR,A,4.8,D,PTCH,A,5.8,D,ROLL*5C
$PTAK,FFD1,5.8*58
$HCHDG,263.7,0.0,E,,*29
$HCHDG,263.7,0.0,E,,*29
$GPRMC,163334.2,A,4740.81823,N,12224.44891,W,000.02,000.0,170513,016.6,E,A*27
$PGRME,3.0,M,3.0,M,4.3,M*29
$HCHDG,263.7,0.0,E,,*29
$HCHDG,263.7,0.0,E,,*29
$GPRMC,163334.4,A,4740.81822,N,12224.44903,W,000.01,000.0,170513,016.6,E,A*29
$PGRME,3.0,M,3.0,M,4.3,M*29
$HCHDG,263.7,0.0,E,,*29
$YXXDR,A,5.0,D,PTCH,A,5.3,D,ROLL*5E
$HCHDG,263.7,0.0,E,,*29
$GPRMC,163334.6,A,4740.81812,N,12224.44909,W,000.03,000.0,170513,016.6,E,A*20
$PGRME,3.0,M,3.0,M,4.3,M*29
$HCHDG,263.7,0.0,E,,*29
$HCHDG,263.7,0.0,E,,*29
$GPRMC,163334.8,A,4740.81804,N,12224.44911,W,000.04,000.0,170513,016.6,E,A*27
$GPRMB,A,0.10,L,,N,4741.0622,N,12224.6030,W,0.3,337,0.04,V*47
$PGRME,3.0,M,3.0,M,4.3,M*29
$HCHDG,263.7,0.0,E,,*29
$HCHDG,263.7,0.0,E,,*29
$GPRMC,163335.0,A,4740.81799,N,12224.44908,W,000.04,000.0,170513,016.6,E,A*2D
$PGRME,3.0,M,3.0,M,4.3,M*29
$YXXDR,A,5.0,D,PTCH,A,5.1,D,ROLL*5C
$PTAK,FFD1,5.1*51
$HCHDG,263.8,0.0,E,,*26
$HCHDG,263.8,0.0,E,,*26
$GPRMC,163335.2,A,4740.81796,N,12224.44908,W,000.08,000.0,170513,016.6,E,A*2C
$PGRME,3.0,M,3.0,M,4.3,M*29
$HCHDG,263.8,0.0,E,,*26
$HCHDG,263.7,0.0,E,,*29
$GPRMC,163335.4,A,4740.81789,N,12224.44906,W,000.04,000.0,170513,016.6,E,A*26
$PGRME,3.0,M,3.0,M,4.3,M*29
$HCHDG,263.7,0.0,E,,*29
$YXXDR,A,4.9,D,PTCH,A,5.1,D,ROLL*54
$HCHDG,263.7,0.0,E,,*29
$GPRMC,163335.6,A,4740.81781,N,12224.44900,W,000.05,000.0,170513,016.6,E,A*2B
$PGRME,3.0,M,3.0,M,4.3,M*29
$HCHDG,263.6,0.0,E,,*28
$HCHDG,263.6,0.0,E,,*28
$GPRMC,163335.8,A,4740.81781,N,12224.44905,W,000.05,000.0,170513,016.6,E,A*20
$GPRMB,A,0.10,L,,N,4741.0622,N,12224.6030,W,0.3,337,0.05,V*46
$PGRME,3.0,M,3.0,M,4.3,M*29
$HCHDG,263.6,0.0,E,,*28
$HCHDG,263.6,0.0,E,,*28
$GPRMC,163336.0,A,4740.81781,N,12224.44905,W,000.07,000.0,170513,016.6,E,A*29
$PGRME,3.0,M,3.0,M,4.3,M*29
$YXXDR,A,4.8,D,PTCH,A,5.3,D,ROLL*57
$PTAK,FFD1,5.3*53
$HCHDG,263.6,0.0,E,,*28
$HCHDG,263.6,0.0,E,,*28
$GPRMC,163336.2,A,4740.81783,N,12224.44909,W,000.03,000.0,170513,016.6,E,A*21
$PGRME,3.0,M,3.0,M,4.3,M*29
$HCHDG,263.6,0.0,E,,*28
$HCHDG,263.5,0.0,E,,*2B
$GPRMC,163336.4,A,4740.81776,N,12224.44903,W,000.05,000.0,170513,016.6,E,A*21
$PGRME,3.0,M,3.0,M,4.3,M*29
$HCHDG,263.4,0.0,E,,*2A
$YXXDR,A,4.8,D,PTCH,A,5.0,D,ROLL*54
$HCHDG,263.4,0.0,E,,*2A
$GPRMC,163336.6,A,4740.81771,N,12224.44907,W,000.07,000.0,170513,016.6,E,A*22
$PGRME,3.0,M,3.0,M,4.3,M*29
$HCHDG,263.4,0.0,E,,*2A
$HCHDG,263.4,0.0,E,,*2A
$GPRMC,163336.8,A,4740.81768,N,12224.44909,W,000.08,000.0,170513,016.6,E,A*25
$PGRME,3.0,M,3.0,M,4.3,M*29
$HCHDG,263.4,0.0,E,,*2A
$HCHDG,263.4,0.0,E,,*2A
$GPRMC,163337.0,A,4740.81767,N,12224.44907,W,000.07,000.0,170513,016.6,E,A*22
$PGRME,3.0,M,3.0,M,4.3,M*29
$YXXDR,A,4.9,D,PTCH,A,4.7,D,ROLL*53
$HCHDG,263.4,0.0,E,,*2A
$HCHDG,263.2,0.0,E,,*2C
$GPRMC,163337.2,A,4740.81775,N,12224.44913,W,000.06,000.0,170513,016.6,E,A*27
$PGRME,3.0,M,3.0,M,4.3,M*29
$HCHDG,262.9,0.0,E,,*26
$HCHDG,262.9,0.0,E,,*26
$GPRMC,163337.4,A,4740.81782,N,12224.44910,W,000.07,000.0,170513,016.6,E,A*2B
$PGRME,3.0,M,3.0,M,4.3,M*29
$HCHDG,262.8,0.0,E,,*27
$YXXDR,A,4.8,D,PTCH,A,5.0,D,ROLL*54
$HCHDG,262.8,0.0,E,,*27
$PTAK,FFP1,HEEL,@*07
$GPRMC,163337.6,A,4740.81791,N,12224.44918,W,000.08,000.0,170513,016.6,E,A*2C
$GPRMB,A,0.10,L,,N,4741.0622,N,12224.6030,W,0.3,337,0.07,V*44
$PGRME,3.0,M,3.0,M,4.3,M*29
$HCHDG,262.7,0.0,E,,*28
$HCHDG,262.6,0.0,E,,*29
$GPRMC,163337.8,A,4740.81792,N,12224.44913,W,000.07,000.0,170513,016.6,E,A*25
$PGRME,3.0,M,3.0,M,4.3,M*29
$HCHDG,262.6,0.0,E,,*29
$HCHDG,262.6,0.0,E,,*29
$GPRMC,163338.0,A,4740.81803,N,12224.44921,W,000.05,000.0,170513,016.6,E,A*26
$PGRME,3.0,M,3.0,M,4.3,M*29
$YXXDR,A,4.8,D,PTCH,A,5.0,D,ROLL*54
$PTAK,FFD1,5.0*50
$HCHDG,262.5,0.0,E,,*2A
$HCHDG,262.5,0.0,E,,*2A
$GPRMC,163338.2,A,4740.81813,N,12224.44924,W,000.07,000.0,170513,016.6,E,A*22
$PGRME,3.0,M,3.0,M,4.3,M*29
$HCHDG,262.4,0.0,E,,*2B
$HCHDG,262.4,0.0,E,,*2B
$GPRMC,163338.4,A,4740.81820,N,12224.44926,W,000.13,000.0,170513,016.6,E,A*23
$PGRME,3.0,M,3.0,M,4.3,M*29
$HCHDG,262.3,0.0,E,,*2C
$YXXDR,A,4.8,D,PTCH,A,5.1,D,ROLL*55
$HCHDG,262.4,0.0,E,,*2B
$GPRMC,163338.6,A,4740.81825,N,12224.44929,W,000.11,000.0,170513,016.6,E,A*29
$PGRME,3.0,M,3.0,M,4.3,M*29
$HCHDG,262.4,0.0,E,,*2B
$HCHDG,262.4,0.0,E,,*2B
$GPRMC,163338.8,A,4740.81828,N,12224.44923,W,000.14,000.0,170513,016.6,E,A*25
$GPRMB,A,0.10,L,,N,4741.0622,N,12224.6030,W,0.3,337,0.13,V*41
$PGRME,3.0,M,3.0,M,4.3,M*29
$HCHDG,262.4,0.0,E,,*2B
$HCHDG,262.3,0.0,E,,*2C
$GPRMC,163339.0,A,4740.81839,N,12224.44930,W,000.14,000.0,170513,016.6,E,A*2E
$PGRME,3.0,M,3.0,M,4.3,M*29
$YXXDR,A,4.8,D,PTCH,A,5.1,D,ROLL*55
$PTAK,FFD1,5.1*51
$HCHDG,262.4,0.0,E,,*2B
$HCHDG,262.5,0.0,E,,*2A
$GPRMC,163339.2,A,4740.81849,N,12224.44926,W,000.15,000.0,170513,016.6,E,A*2D
$PGRME,3.0,M,3.0,M,4.3,M*29
$HCHDG,262.5,0.0,E,,*2A
$HCHDG,262.4,0.0,E,,*2B
$GPRMC,163339.4,A,4740.81856,N,12224.44930,W,000.12,000.0,170513,016.6,E,A*25
$PGRME,3.0,M,3.0,M,4.3,M*29
$HCHDG,262.4,0.0,E,,*2B
$YXXDR,A,4.8,D,PTCH,A,5.1,D,ROLL*55
$HCHDG,262.5,0.0,E,,*2A
$GPRMC,163339.6,A,4740.81854,N,12224.44930,W,000.11,000.0,170513,016.6,E,A*26
$PGRME,3.0,M,3.0,M,4.3,M*29
$HCHDG,262.5,0.0,E,,*2A
$HCHDG,262.5,0.0,E,,*2A
$GPRMC,163339.8,A,4740.81854,N,12224.44935,W,000.12,000.0,170513,016.6,E,A*2E
$GPRMB,A,0.10,L,,N,4741.0622,N,12224.6030,W,0.3,337,0.11,V*43
$PGRME,3.0,M,3.0,M,4.3,M*29
$HCHDG,262.5,0.0,E,,*2A
$HCHDG,262.5,0.0,E,,*2A
$GPRMC,163340.0,A,4740.81860,N,12224.44941,W,000.11,000.0,170513,016.6,E,A*2F
$PGRME,3.0,M,3.0,M,4.3,M*29
$YXXDR,A,5.0,D,PTCH,A,5.2,D,ROLL*5F
$IIRMC,163300,A,4740.818,N,12224.449,W,00.1,000,170513,16,E,A*16
$IIVHW,,,,,00.2,N,,*1B
$HCHDG,262.6,0.0,E,,*29
$IIVLW,06236,N,000.0,N*52
$HCHDG,262.6,0.0,E,,*29
$GPRMC,163340.2,A,4740.81873,N,12224.44937,W,000.10,000.0,170513,016.6,E,A*2F
$PGRME,3.0,M,3.0,M,4.3,M*29
$IIGLL,4740.818,N,12224.449,W,163300,A,A*4D
$HCHDG,262.7,0.0,E,,*28
$IIRMB,A,0.10,L,,N   ,,,,,000.3,337,,V,A*2C
$HCHDG,262.7,0.0,E,,*28
$GPRMC,163340.4,A,4740.81882,N,12224.44942,W,000.09,000.0,170513,016.6,E,A*2D
$PGRME,3.0,M,3.0,M,4.3,M*29
$HCHDG,262.8,0.0,E,,*27
$YXXDR,A,5.0,D,PTCH,A,5.1,D,ROLL*5C
$PTAK,FFD1,5.1*51
$HCHDG,262.8,0.0,E,,*27
$GPRMC,163340.6,A,4740.81882,N,12224.44939,W,000.05,000.0,170513,016.6,E,A*2F
$PGRME,3.0,M,3.0,M,4.3,M*29
$HCHDG,262.8,0.0,E,,*27
$HCHDG,262.7,0.0,E,,*28
$GPRMC,163340.8,A,4740.81883,N,12224.44945,W,000.05,000.0,170513,016.6,E,A*2B
$GPRMB,A,0.10,L,,N,4741.0622,N,12224.6030,W,0.3,337,0.05,V*46
$PGRME,3.0,M,3.0,M,4.3,M*29
$HCHDG,262.7,0.0,E,,*28
$HCHDG,262.7,0.0,E,,*28
$GPRMC,163341.0,A,4740.81882,N,12224.44940,W,000.07,000.0,170513,016.6,E,A*24
$PGRME,3.0,M,3.0,M,4.3,M*29
$IIRMC,163300,A,4740.818,N,12224.449,W,00.1,000,170513,16,E,A*16
$YXXDR,A,5.1,D,PTCH,A,4.6,D,ROLL*5B
$IIVHW,,,,,00.1,N,,*18
$HCHDG,262.7,0.0,E,,*28
$IIVLW,06236,N,000.0,N*52
$HCHDG,262.7,0.0,E,,*28
$GPRMC,163341.2,A,4740.81884,N,12224.44940,W,000.06,000.0,170513,016.6,E,A*21
$PGRME,3.0,M,3.0,M,4.3,M*29
$IIGLL,4740.818,N,12224.449,W,163300,A,A*4D
$HCHDG,262.6,0.0,E,,*29
$IIRMB,A,0.10,L,,N   ,,,,,000.3,337,,V,A*2C
$HCHDG,262.6,0.0,E,,*29
$GPRMC,163341.4,A,4740.81887,N,12224.44941,W,000.06,000.0,170513,016.6,E,A*25
$PGRME,3.0,M,3.0,M,4.3,M*29
$HCHDG,262.6,0.0,E,,*29
$YXXDR,A,4.9,D,PTCH,A,4.7,D,ROLL*53
$PTAK,FFD1,4.7*56
$HCHDG,262.7,0.0,E,,*28
$PTAK,FFP1,HEEL,@*07
$GPRMC,163341.6,A,4740.81890,N,12224.44929,W,000.10,000.0,170513,016.6,E,A*28
$PGRME,3.0,M,3.0,M,4.3,M*29
$HCHDG,262.9,0.0,E,,*26
$HCHDG,262.9,0.0,E,,*26
$GPRMC,163341.8,A,4740.81891,N,12224.44933,W,000.09,000.0,170513,016.6,E,A*24
$PGRME,3.0,M,3.0,M,4.3,M*29
$HCHDG,263.0,0.0,E,,*2E
$HCHDG,263.0,0.0,E,,*2E
$GPRMC,163342.0,A,4740.81885,N,12224.44931,W,000.08,000.0,170513,016.6,E,A*29
$GPRMB,A,0.10,L,,N,4741.0622,N,12224.6030,W,0.3,337,0.07,V*44
$PGRME,3.0,M,3.0,M,4.3,M*29
$YXXDR,A,5.0,D,PTCH,A,5.0,D,ROLL*5D
$IIRMC,163300,A,4740.818,N,12224.449,W,00.0,000,170513,16,E,A*17
$IIVHW,,,,,00.1,N,,*18
$HCHDG,263.0,0.0,E,,*2E
$IIVLW,06236,N,000.0,N*52
$HCHDG,263.0,0.0,E,,*2E
$GPRMC,163342.2,A,4740.81883,N,12224.44941,W,000.08,000.0,170513,016.6,E,A*2A
$PGRME,3.0,M,3.0,M,4.3,M*29
$IIGLL,4740.818,N,12224.449,W,163300,A,A*4D
$HCHDG,263.0,0.0,E,,*2E
$IIRMB,A,0.10,L,,N   ,,,,,000.3,337,,V,A*2C
$HCHDG,263.1,0.0,E,,*2F
$GPRMC,163342.4,A,4740.81883,N,12224.44941,W,000.03,000.0,170513,016.6,E,A*27
$PGRME,3.0,M,3.0,M,4.3,M*29
$HCHDG,263.2,0.0,E,,*2C
$YXXDR,A,5.0,D,PTCH,A,5.1,D,ROLL*5C
$PTAK,FFD1,5.1*51
$HCHDG,263.2,0.0,E,,*2C
$GPRMC,163342.6,A,4740.81883,N,12224.44939,W,000.08,000.0,170513,016.6,E,A*21
$PGRME,3.0,M,3.0,M,4.3,M*29
$HCHDG,263.2,0.0,E,,*2C
$HCHDG,263.2,0.0,E,,*2C
$GPRMC,163342.8,A,4740.81880,N,12224.44931,W,000.06,000.0,170513,016.6,E,A*2A
$PGRME,3.0,M,3.0,M,4.3,M*29
$HCHDG,263.3,0.0,E,,*2D
$HCHDG,263.3,0.0,E,,*2D
$GPRMC,163343.0,A,4740.81875,N,12224.44927,W,000.03,000.0,170513,016.6,E,A*2B
$PGRME,3.0,M,3.0,M,4.3,M*29
$YXXDR,A,5.0,D,PTCH,A,5.1,D,ROLL*5C
$IIRMC,163300,A,4740.818,N,12224.449,W,00.0,000,170513,16,E,A*17
$IIVHW,,,,,00.1,N,,*18
$HCHDG,263.2,0.0,E,,*2C
$IIVLW,06236,N,000.0,N*52
$HCHDG,263.2,0.0,E,,*2C
$IIVWR,110,L,08.3,N,,,,*74
$GPRMC,163343.2,A,4740.81884,N,12224.44921,W,000.04,000.0,170513,016.6,E,A*26
$GPRMB,A,0.10,L,,N,4741.0622,N,12224.6030,W,0.3,337,0.04,V*47
$PGRME,3.0,M,3.0,M,4.3,M*29
$HCHDG,263.2,0.0,E,,*2C
$IIGLL,4740.818,N,12224.449,W,163300,A,A*4D
$IIMWV,250,R,08.3,N,A*1F
$HCHDG,263.2,0.0,E,,*2C
$GPRMC,163343.4,A,4740.81886,N,12224.44911,W,000.09,000.0,170513,016.6,E,A*2C
$PGRME,3.0,M,3.0,M,4.3,M*29
$IIRMB,A,0.10,L,,N   ,,,,,000.3,337,,V,A*2C
$HCHDG,263.2,0.0,E,,*2C
$YXXDR,A,5.3,D,PTCH,A,4.8,D,ROLL*57
$PTAK,FFD1,4.8*59
$HCHDG,263.1,0.0,E,,*2F
$GPRMC,163343.6,A,4740.81880,N,12224.44911,W,000.07,000.0,170513,016.6,E,A*26
$PGRME,3.0,M,3.0,M,4.3,M*29
$HCHDG,263.0,0.0,E,,*2E
$HCHDG,262.9,0.0,E,,*26
$GPRMC,163343.8,A,4740.81875,N,12224.44909,W,000.06,000.0,170513,016.6,E,A*2A
$PGRME,3.0,M,3.0,M,4.3,M*29
$HCHDG,263.0,0.0,E,,*2E
$HCHDG,262.9,0.0,E,,*26
$GPRMC,163344.0,A,4740.81871,N,12224.44914,W,000.05,000.0,170513,016.6,E,A*2E
$PGRME,3.0,M,3.0,M,4.3,M*29
$PGRMT,GPS 18x-5Hz software ver. 3.20,,,,,,,,*30
$YXXDR,A,5.3,D,PTCH,A,5.6,D,ROLL*58
$IIRMC,163300,A,4740.818,N,12224.449,W,00.0,000,170513,16,E,A*17
$IIVHW,,,,,00.1,N,,*18
$HCHDG,262.8,0.0,E,,*27
$IIVLW,06236,N,000.0,N*52
$HCHDG,262.6,0.0,E,,*29
$IIVWR,104,L,08.5,N,,,,*77
$GPRMC,163344.2,A,4740.81868,N,12224.44913,W,000.06,000.0,170513,016.6,E,A*20
$GPRMB,A,0.10,L,,N,4741.0622,N,12224.6030,W,0.3,337,0.06,V*45
$PGRME,3.0,M,3.0,M,4.3,M*29
$HCHDG,262.6,0.0,E,,*29
$IIGLL,4740.818,N,12224.449,W,163300,A,A*4D
$IIMWV,256,R,08.5,N,A*1F
$HCHDG,262.2,0.0,E,,*2D
$IIMWV,249,T,08.3,N,A*11
$GPRMC,163344.4,A,4740.81866,N,12224.44911,W,000.02,000.0,170513,016.6,E,A*2E
$PGRME,3.0,M,3.0,M,4.3,M*29
$HCHDG,262.3,0.0,E,,*2C
$IIRMB,A,0.10,L,,N   ,,,,,000.3,337,,V,A*2C
$YXXDR,A,5.0,D,PTCH,A,5.1,D,ROLL*5C
$PTAK,FFD1,5.1*51
$HCHDG,262.1,0.0,E,,*2E
$GPRMC,163344.6,A,4740.81862,N,12224.44911,W,000.03,000.0,170513,016.6,E,A*29
$PGRME,3.0,M,3.0,M,4.3,M*29
$HCHDG,262.1,0.0,E,,*2E
$HCHDG,262.1,0.0,E,,*2E
$GPRMC,163344.8,A,4740.81851,N,12224.44910,W,000.08,000.0,170513,016.6,E,A*2D
$PGRME,3.0,M,3.0,M,4.3,M*29
$HCHDG,262.0,0.0,E,,*2F
$HCHDG,261.9,0.0,E,,*25
$GPRMC,163345.0,A,4740.81837,N,12224.44913,W,000.03,000.0,170513,016.6,E,A*2C
$PGRME,3.0,M,3.0,M,4.3,M*29
$IIRMC,163300,A,4740.818,N,12224.449,W,00.0,000,170513,16,E,A*17
$YXXDR,A,5.0,D,PTCH,A,5.0,D,ROLL*5D
$IIVHW,,,,,00.2,N,,*1B
$HCHDG,261.9,0.0,E,,*25
$IIVLW,06236,N,000.0,N*52
$HCHDG,261.9,0.0,E,,*25
$IIVWR,101,L,09.0,N,,,,*76
$GPRMC,163345.2,A,4740.81827,N,12224.44917,W,000.06,000.0,170513,016.6,E,A*2E
$GPRMB,A,0.10,L,,N,4741.0622,N,12224.6030,W,0.3,337,0.06,V*45
$PGRME,3.0,M,3.0,M,4.3,M*29
$HCHDG,261.8,0.0,E,,*24
$IIGLL,4740.818,N,12224.449,W,163300,A,A*4D
$IIMWV,259,R,09.0,N,A*14
$HCHDG,261.9,0.0,E,,*25
$IIMWV,255,T,08.4,N,A*1B
$GPRMC,163345.4,A,4740.81820,N,12224.44918,W,000.10,000.0,170513,016.6,E,A*27
$PGRME,3.0,M,3.0,M,4.3,M*29
$HCHDG,261.9,0.0,E,,*25
$IIRMB,A,0.10,L,,N   ,,,,,000.3,337,,V,A*2C
$YXXDR,A,4.8,D,PTCH,A,5.3,D,ROLL*57
$HCHDG,261.9,0.0,E,,*25
$GPRMC,163345.6,A,4740.81818,N,12224.44918,W,000.13,000.0,170513,016.6,E,A*2D
$PTAK,FFP1,HEEL,@*07
$PGRME,3.0,M,3.0,M,4.3,M*29
$HCHDG,261.9,0.0,E,,*25
$HCHDG,261.8,0.0,E,,*24
$GPRMC,163345.8,A,4740.81815,N,12224.44918,W,000.15,000.0,170513,016.6,E,A*28
$PGRME,3.0,M,3.0,M,4.3,M*29
$HCHDG,261.9,0.0,E,,*25
$HCHDG,261.9,0.0,E,,*25
$GPRMC,163346.0,A,4740.81809,N,12224.44916,W,000.09,000.0,170513,016.6,E,A*2D
$PGRME,3.0,M,3.0,M,4.3,M*29
$IIRMC,163300,A,4740.818,N,12224.449,W,00.0,000,170513,16,E,A*17
$YXXDR,A,4.7,D,PTCH,A,5.4,D,ROLL*5F
$PTAK,FFD1,5.4*54
$IIVHW,,,,,00.1,N,,*18
$HCHDG,262.0,0.0,E,,*2F
$IIVLW,06236,N,000.0,N*52
$HCHDG,262.0,0.0,E,,*2F
$IIVWR,099,L,09.3,N,,,,*75
$GPRMC,163346.2,A,4740.81810,N,12224.44916,W,000.07,000.0,170513,016.6,E,A*29
$GPRMB,A,0.10,L,,N,4741.0622,N,12224.6030,W,0.3,337,0.06,V*45
$PGRME,3.0,M,3.0,M,4.3,M*29
$HCHDG,262.0,0.0,E,,*2F
$IIGLL,4740.818,N,12224.449,W,163300,A,A*4D
$IIMWV,261,R,09.3,N,A*1C
$HCHDG,262.1,0.0,E,,*2E
$IIMWV,258,T,09.0,N,A*13
$GPRMC,163346.4,A,4740.81810,N,12224.44918,W,000.05,000.0,170513,016.6,E,A*23
$PGRME,3.0,M,3.0,M,4.3,M*29
$HCHDG,262.1,0.0,E,,*2E
$IIRMB,A,0.10,L,,N   ,,,,,000.3,337,,V,A*2C
$YXXDR,A,5.1,D,PTCH,A,5.5,D,ROLL*59
$HCHDG,262.2,0.0,E,,*2D
$GPRMC,163346.6,A,4740.81807,N,12224.44914,W,000.03,000.0,170513,016.6,E,A*2D
$PGRME,3.0,M,3.0,M,4.3,M*29
$HCHDG,262.1,0.0,E,,*2E
$HCHDG,262.1,0.0,E,,*2E
$GPRMC,163346.8,A,4740.81804,N,12224.44908,W,000.04,000.0,170513,016.6,E,A*2A
$PGRME,3.0,M,3.0,M,4.3,M*29
$HCHDG,262.2,0.0,E,,*2D
$HCHDG,262.2,0.0,E,,*2D
$GPRMC,163347.0,A,4740.81802,N,12224.44898,W,000.06,000.0,170513,016.6,E,A*2F
$PGRME,3.0,M,3.0,M,4.3,M*29
$YXXDR,A,5.2,D,PTCH,A,5.3,D,ROLL*5C
$IIRMC,163300,A,4740.818,N,12224.449,W,00.0,000,170513,16,E,A*17
$IIVHW,,,,,00.1,N,,*18
$HCHDG,262.2,0.0,E,,*2D
$IIVLW,06236,N,000.0,N*52
$HCHDG,262.1,0.0,E,,*2E
$IIVWR,099,L,09.4,N,,,,*72
$GPRMC,163347.2,A,4740.81804,N,12224.44903,W,000.05,000.0,170513,016.6,E,A*2B
$GPRMB,A,0.10,L,,N,4741.0622,N,12224.6030,W,0.3,337,0.05,V*46
$PGRME,3.0,M,3.0,M,4.3,M*29
$IIDPT,007.8,-1.0,*4F
$HCHDG,262.1,0.0,E,,*2E
$IIGLL,4740.818,N,12224.449,W,163300,A,A*4D
$HCHDG,262.1,0.0,E,,*2E
$IIMWV,261,R,09.4,N,A*1B
$GPRMC,163347.4,A,4740.81804,N,12224.44897,W,000.01,000.0,170513,016.6,E,A*25
$PGRME,3.0,M,3.0,M,4.3,M*29
$IIMWV,260,T,09.3,N,A*1B
$HCHDG,262.1,0.0,E,,*2E
$YXXDR,A,5.0,D,PTCH,A,5.0,D,ROLL*5D
$PTAK,FFD1,5.0*50
$HCHDG,262.1,0.0,E,,*2E
$GPRMC,163347.6,A,4740.81801,N,12224.44896,W,000.03,000.0,170513,016.6,E,A*21
$PGRME,3.0,M,3.0,M,4.3,M*29
$HCHDG,262.2,0.0,E,,*2D
$HCHDG,262.2,0.0,E,,*2D
$GPRMC,163347.8,A,4740.81788,N,12224.44889,W,000.02,000.0,170513,016.6,E,A*2E
$PGRME,3.0,M,3.0,M,4.3,M*29
$HCHDG,262.1,0.0,E,,*2E
$HCHDG,262.1,0.0,E,,*2E
$IIRMB,A,0.10,L,,N   ,,,,,000.3,337,,V,A*2C
$GPRMC,163348.0,A,4740.81780,N,12224.44887,W,000.07,000.0,170513,016.6,E,A*2A
$PGRME,3.0,M,3.0,M,4.3,M*29
$YXXDR,A,5.1,D,PTCH,A,4.9,D,ROLL*54
$HCHDG,262.2,0.0,E,,*2D
$IIRMC,163300,A,4740.818,N,12224.448,W,00.0,000,170513,16,E,A*16
$HCHDG,262.2,0.0,E,,*2D
$IIVHW,,,,,00.1,N,,*18
$GPRMC,163348.2,A,4740.81779,N,12224.44886,W,000.05,000.0,170513,016.6,E,A*2D
$PGRME,3.0,M,3.0,M,4.3,M*29
$IIVLW,06236,N,000.0,N*52
$HCHDG,262.3,0.0,E,,*2C
$IIVWR,094,L,09.0,N,,,,*7B
$IIDPT,007.8,-1.0,*4F
$HCHDG,262.3,0.0,E,,*2C
$GPRMC,163348.4,A,4740.81776,N,12224.44884,W,000.07,000.0,170513,016.6,E,A*24
$GPRMB,A,0.10,L,,N,4741.0622,N,12224.6030,W,0.3,337,0.06,V*45
$PGRME,3.0,M,3.0,M,4.3,M*29
$IIGLL,4740.818,N,12224.448,W,163300,A,A*4C
$HCHDG,262.3,0.0,E,,*2C
$IIMWV,266,R,09.0,N,A*18
$YXXDR,A,5.0,D,PTCH,A,4.7,D,ROLL*5B
$PTAK,FFD1,4.7*56
$HCHDG,262.2,0.0,E,,*2D
$GPRMC,163348.6,A,4740.81777,N,12224.44887,W,000.03,000.0,170513,016.6,E,A*20
$PGRME,3.0,M,3.0,M,4.3,M*29
$HCHDG,262.4,0.0,E,,*2B
$HCHDG,262.4,0.0,E,,*2B
$GPRMC,163348.8,A,4740.81774,N,12224.44886,W,000.07,000.0,170513,016.6,E,A*28
$PGRME,3.0,M,3.0,M,4.3,M*29
$HCHDG,262.4,0.0,E,,*2B
$IIMWV,265,T,09.0,N,A*1D
$HCHDG,262.3,0.0,E,,*2C
$GPRMC,163349.0,A,4740.81771,N,12224.44884,W,000.03,000.0,170513,016.6,E,A*22
$PGRME,3.0,M,3.0,M,4.3,M*29
$YXXDR,A,5.0,D,PTCH,A,4.7,D,ROLL*5B
$IIRMB,A,0.10,L,,N   ,,,,,000.3,337,,V,A*2C
$HCHDG,262.4,0.0,E,,*2B
$HCHDG,262.3,0.0,E,,*2C
$IIRMC,163300,A,4740.817,N,12224.448,W,00.0,000,170513,16,E,A*19
$GPRMC,163349.2,A,4740.81766,N,12224.44875,W,000.07,000.0,170513,016.6,E,A*2C
$PGRME,3.0,M,3.0,M,4.3,M*29
$IIVHW,,,,,00.1,N,,*18
$HCHDG,262.4,0.0,E,,*2B
$IIVLW,06236,N,000.0,N*52
$IIVWR,094,L,08.8,N,,,,*72
$HCHDG,262.4,0.0,E,,*2B
$IIDPT,007.8,-1.0,*4F
$GPRMC,163349.4,A,4740.81763,N,12224.44874,W,000.06,000.0,170513,016.6,E,A*2F
$GPRMB,A,0.10,L,,N,4741.0622,N,12224.6030,W,0.3,337,0.06,V*45
$PGRME,3.0,M,3.0,M,4.3,M*29
$HCHDG,262.4,0.0,E,,*2B
$IIGLL,4740.817,N,12224.448,W,163300,A,A*43
$YXXDR,A,4.8,D,PTCH,A,4.8,D,ROLL*5D
$PTAK,FFP1,HEEL,@*07
$HCHDG,262.4,0.0,E,,*2B
$GPRMC,163349.6,A,4740.81761,N,12224.44872,W,000.03,000.0,170513,016.6,E,A*2C
$PGRME,3.0,M,3.0,M,4.3,M*29
$HCHDG,262.3,0.0,E,,*2C
$HCHDG,262.4,0.0,E,,*2B
$GPRMC,163349.8,A,4740.81762,N,12224.44867,W,000.06,000.0,170513,016.6,E,A*20
$PGRME,3.0,M,3.0,M,4.3,M*29
$HCHDG,262.4,0.0,E,,*2B
$IIMTW,+09.0,C*31
$HCHDG,262.4,0.0,E,,*2B
$IIMWV,262,R,07.6,N,A*14
$GPRMC,163350.0,A,4740.81760,N,12224.44868,W,000.06,000.0,170513,016.6,E,A*2D
$PGRME,3.0,M,3.0,M,4.3,M*29
$YXXDR,A,4.8,D,PTCH,A,4.8,D,ROLL*5D
$PTAK,FFD1,4.8*59
$IIMWV,265,T,08.8,N,A*14
$HCHDG,262.3,0.0,E,,*2C
$IIRMB,A,0.10,L,,N   ,,,,,000.3,337,,V,A*2C
$HCHDG,262.3,0.0,E,,*2C
$GPRMC,163350.2,A,4740.81759,N,12224.44859,W,000.03,000.0,170513,016.6,E,A*22
$PGRME,3.0,M,3.0,M,4.3,M*29
$HCHDG,262.3,0.0,E,,*2C
$IIRMC,163300,A,4740.817,N,12224.448,W,00.0,000,170513,16,E,A*19
$IIVHW,,,,,00.0,N,,*19
$HCHDG,262.3,0.0,E,,*2C
$IIVLW,06236,N,000.0,N*52
$GPRMC,163350.4,A,4740.81766,N,12224.44870,W,000.01,000.0,170513,016.6,E,A*21
$PGRME,3.0,M,3.0,M,4.3,M*29
$IIVWR,098,L,07.6,N,,,,*7F
$HCHDG,262.3,0.0,E,,*2C
$IIDPT,007.8,-1.0,*4F
$YXXDR,A,4.8,D,PTCH,A,4.8,D,ROLL*5D
$HCHDG,262.4,0.0,E,,*2B
$GPRMC,163350.6,A,4740.81764,N,12224.44871,W,000.04,000.0,170513,016.6,E,A*25
$GPRMB,A,0.10,L,,N,4741.0622,N,12224.6030,W,0.3,337,0.04,V*47
$PGRME,3.0,M,3.0,M,4.3,M*29
$HCHDG,262.1,0.0,E,,*2E
$HCHDG,262.2,0.0,E,,*2D
$GPRMC,163350.8,A,4740.81762,N,12224.44874,W,000.04,000.0,170513,016.6,E,A*28
$PGRME,3.0,M,3.0,M,4.3,M*29
$HCHDG,262.2,0.0,E,,*2D
$HCHDG,262.2,0.0,E,,*2D
$IIGLL,4740.817,N,12224.448,W,163300,A,A*43
$GPRMC,163351.0,A,4740.81759,N,12224.44878,W,000.03,000.0,170513,016.6,E,A*22
$PGRME,3.0,M,3.0,M,4.3,M*29
$IIMTW,+09.0,C*31
$YXXDR,A,4.8,D,PTCH,A,5.0,D,ROLL*54
$PTAK,FFD1,5.0*50
$IIMWV,265,R,07.5,N,A*10
$HCHDG,262.2,0.0,E,,*2D
$IIMWV,261,T,07.5,N,A*12
$HCHDG,262.2,0.0,E,,*2D
$GPRMC,163351.2,A,4740.81759,N,12224.44877,W,000.04,000.0,170513,016.6,E,A*28
$PGRME,3.0,M,3.0,M,4.3,M*29
$IIRMB,A,0.10,L,,N   ,,,,,000.3,337,,V,A*2C
$HCHDG,262.1,0.0,E,,*2E
$HCHDG,262.1,0.0,E,,*2E
$IIRMC,163300,A,4740.817,N,12224.448,W,00.0,000,170513,16,E,A*19
$GPRMC,163351.4,A,4740.81760,N,12224.44877,W,000.06,000.0,170513,016.6,E,A*26
$PGRME,3.0,M,3.0,M,4.3,M*29
$IIVHW,,,,,00.0,N,,*19
$HCHDG,262.0,0.0,E,,*2F
$IIVLW,06236,N,000.0,N*52
$YXXDR,A,4.9,D,PTCH,A,5.1,D,ROLL*54
$HCHDG,262.0,0.0,E,,*2F
$GPRMC,163351.6,A,4740.81763,N,12224.44874,W,000.06,000.0,170513,016.6,E,A*24
$PGRME,3.0,M,3.0,M,4.3,M*29
$HCHDG,262.0,0.0,E,,*2F
$HCHDG,262.0,0.0,E,,*2F
$GPRMC,163351.8,A,4740.81766,N,12224.44884,W,000.07,000.0,170513,016.6,E,A*21
$GPRMB,A,0.10,L,,N,4741.0622,N,12224.6030,W,0.3,337,0.06,V*45
$PGRME,3.0,M,3.0,M,4.3,M*29
$HCHDG,262.0,0.0,E,,*2F
$IIVWR,099,L,07.7,N,,,,*7F
$HCHDG,262.0,0.0,E,,*2F
$IIDPT,007.8,-1.0,*4F
$GPRMC,163352.0,A,4740.81765,N,12224.44882,W,000.07,000.0,170513,016.6,E,A*2F
$PGRME,3.0,M,3.0,M,4.3,M*29
$YXXDR,A,4.8,D,PTCH,A,5.0,D,ROLL*54
$PTAK,FFD1,5.0*50
$HCHDG,262.0,0.0,E,,*2F
$IIGLL,4740.817,N,12224.448,W,163300,A,A*43
$IIMTW,+09.0,C*31
$HCHDG,262.1,0.0,E,,*2E
$IIMWV,261,R,07.7,N,A*16
$GPRMC,163352.2,A,4740.81766,N,12224.44887,W,000.07,000.0,170513,016.6,E,A*2B
$PGRME,3.0,M,3.0,M,4.3,M*29
$IIMWV,265,T,07.5,N,A*16
$HCHDG,262.1,0.0,E,,*2E
$IIRMB,A,0.10,L,,N   ,,,,,000.3,337,,V,A*2C
$HCHDG,262.2,0.0,E,,*2D
$GPRMC,163352.4,A,4740.81767,N,12224.44891,W,000.07,000.0,170513,016.6,E,A*2B
$PGRME,3.0,M,3.0,M,4.3,M*29
$HCHDG,262.2,0.0,E,,*2D
$IIRMC,163300,A,4740.817,N,12224.448,W,00.0,000,170513,16,E,A*19
$YXXDR,A,4.9,D,PTCH,A,5.1,D,ROLL*54
$HCHDG,262.2,0.0,E,,*2D
$GPRMC,163352.6,A,4740.81770,N,12224.44894,W,000.08,000.0,170513,016.6,E,A*25
$PGRME,3.0,M,3.0,M,4.3,M*29
$HCHDG,262.2,0.0,E,,*2D
$HCHDG,262.3,0.0,E,,*2C
$GPRMC,163352.8,A,4740.81774,N,12224.44906,W,000.07,000.0,170513,016.6,E,A*2A
$PGRME,3.0,M,3.0,M,4.3,M*29
$HCHDG,262.3,0.0,E,,*2C
$IIVHW,,,,,00.0,N,,*19
$HCHDG,262.3,0.0,E,,*2C
$IIVLW,06236,N,000.0,N*52
$GPRMC,163353.0,A,4740.81774,N,12224.44911,W,000.07,000.0,170513,016.6,E,A*25
$GPRMB,A,0.10,L,,N,4741.0622,N,12224.6030,W,0.3,337,0.06,V*45
$PGRME,3.0,M,3.0,M,4.3,M*29
$YXXDR,A,4.8,D,PTCH,A,5.3,D,ROLL*57
$PTAK,FFD1,5.3*53
$IIVWR,102,L,07.7,N,,,,*7C
$HCHDG,262.4,0.0,E,,*2B
$IIDPT,007.8,-1.0,*4F
$HCHDG,262.4,0.0,E,,*2B
$IIGLL,4740.817,N,12224.448,W,163300,A,A*43
$GPRMC,163353.2,A,4740.81778,N,12224.44921,W,000.07,000.0,170513,016.6,E,A*28
$PGRME,3.0,M,3.0,M,4.3,M*29
$IIMTW,+09.0,C*31
$HCHDG,262.4,0.0,E,,*2B
$IIMWV,258,R,07.7,N,A*1C
$IIMWV,260,T,07.7,N,A*11
$HCHDG,262.3,0.0,E,,*2C
$GPRMC,163353.4,A,4740.81786,N,12224.44923,W,000.06,000.0,170513,016.6,E,A*2C
$PGRME,3.0,M,3.0,M,4.3,M*29
$IIRMB,A,0.10,L,,N   ,,,,,000.3,337,,V,A*2C
$HCHDG,262.3,0.0,E,,*2C
$YXXDR,A,4.7,D,PTCH,A,5.4,D,ROLL*5F
$HCHDG,262.2,0.0,E,,*2D
$GPRMC,163353.6,A,4740.81792,N,12224.44934,W,000.06,000.0,170513,016.6,E,A*2D
$PGRME,3.0,M,3.0,M,4.3,M*29
$HCHDG,262.3,0.0,E,,*2C
$PTAK,FFP1,HEEL,@*07
$HCHDG,262.3,0.0,E,,*2C
$GPRMC,163353.8,A,4740.81793,N,12224.44940,W,000.05,000.0,170513,016.6,E,A*22
$PGRME,3.0,M,3.0,M,4.3,M*29
$HCHDG,262.4,0.0,E,,*2B
$HCHDG,262.4,0.0,E,,*2B
$GPRMC,163354.0,A,4740.81795,N,12224.44945,W,000.05,000.0,170513,016.6,E,A*2E
$PGRME,3.0,M,3.0,M,4.3,M*29
$IIRMC,163300,A,4740.817,N,12224.449,W,00.0,000,170513,16,E,A*18
$YXXDR,A,4.8,D,PTCH,A,5.0,D,ROLL*54
$IIVHW,,,,,00.0,N,,*19
$HCHDG,262.3,0.0,E,,*2C
$IIVLW,06236,N,000.0,N*52
$HCHDG,262.3,0.0,E,,*2C
$IIVWR,102,L,07.2,N,,,,*79
$GPRMC,163354.2,A,4740.81802,N,12224.44951,W,000.06,000.0,170513,016.6,E,A*2B
$GPRMB,A,0.10,L,,N,4741.0622,N,12224.6030,W,0.3,337,0.06,V*45
$PGRME,3.0,M,3.0,M,4.3,M*29
$IIDPT,007.8,-1.0,*4F
$HCHDG,262.3,0.0,E,,*2C
$IIGLL,4740.817,N,12224.449,W,163300,A,A*42
$HCHDG,262.3,0.0,E,,*2C
$IIMTW,+09.0,C*31
$GPRMC,163354.4,A,4740.81804,N,12224.44944,W,000.12,000.0,170513,016.6,E,A*2A
$PGRME,3.0,M,3.0,M,4.3,M*29
$IIMWV,258,R,07.2,N,A*19
$HCHDG,262.3,0.0,E,,*2C
$IIMWV,258,T,07.7,N,A*1A
$YXXDR,A,5.1,D,PTCH,A,4.9,D,ROLL*54
$PTAK,FFD1,4.9*58
$HCHDG,262.3,0.0,E,,*2C
$GPRMC,163354.6,A,4740.81804,N,12224.44943,W,000.09,000.0,170513,016.6,E,A*25
$PGRME,3.0,M,3.0,M,4.3,M*29
$HCHDG,262.3,0.0,E,,*2C
$HCHDG,262.3,0.0,E,,*2C
$GPRMC,163354.8,A,4740.81803,N,12224.44943,W,000.07,000.0,170513,016.6,E,A*22
$PGRME,3.0,M,3.0,M,4.3,M*29
$HCHDG,262.3,0.0,E,,*2C
$HCHDG,262.5,0.0,E,,*2A
$IIRMB,A,0.10,L,,N   ,,,,,000.3,337,,V,A*2C
$GPRMC,163355.0,A,4740.81803,N,12224.44943,W,000.06,000.0,170513,016.6,E,A*2A
$PGRME,3.0,M,3.0,M,4.3,M*29
$YXXDR,A,4.8,D,PTCH,A,5.0,D,ROLL*54
$HCHDG,262.5,0.0,E,,*2A
$IIRMC,163300,A,4740.818,N,12224.449,W,00.0,000,170513,16,E,A*17
$HCHDG,262.5,0.0,E,,*2A
$IIVHW,,,,,00.0,N,,*19
$GPRMC,163355.2,A,4740.81803,N,12224.44944,W,000.03,000.0,170513,016.6,E,A*2A
$PGRME,3.0,M,3.0,M,4.3,M*29
$IIVLW,06236,N,000.0,N*52
$HCHDG,262.5,0.0,E,,*2A
$IIVWR,104,L,07.0,N,,,,*7D
$IIDPT,007.8,-1.0,*4F
$HCHDG,262.6,0.0,E,,*29
$GPRMC,163355.4,A,4740.81803,N,12224.44944,W,000.04,000.0,170513,016.6,E,A*2B
$GPRMB,A,0.10,L,,N,4741.0622,N,12224.6030,W,0.3,337,0.04,V*47
$PGRME,3.0,M,3.0,M,4.3,M*29
$IIGLL,4740.818,N,12224.449,W,163300,A,A*4D
$HCHDG,262.7,0.0,E,,*28
$IIMTW,+09.0,C*31
$YXXDR,A,4.9,D,PTCH,A,4.3,D,ROLL*57
$PTAK,FFD1,4.3*52
$HCHDG,262.6,0.0,E,,*29
$GPRMC,163355.6,A,4740.81803,N,12224.44944,W,000.08,000.0,170513,016.6,E,A*25
$PGRME,3.0,M,3.0,M,4.3,M*29
$HCHDG,262.5,0.0,E,,*2A
$HCHDG,262.4,0.0,E,,*2B
$GPRMC,163355.8,A,4740.81803,N,12224.44943,W,000.24,000.0,170513,016.6,E,A*22
$PGRME,3.0,M,3.0,M,4.3,M*29
$HCHDG,262.5,0.0,E,,*2A
$IIMWV,261,R,06.8,N,A*18
$HCHDG,262.5,0.0,E,,*2A
$IIMWV,256,T,07.0,N,A*13
$GPRMC,163356.0,A,4740.81803,N,12224.44942,W,000.16,000.0,170513,016.6,E,A*29
$PGRME,3.0,M,3.0,M,4.3,M*29
$YXXDR,A,4.9,D,PTCH,A,4.3,D,ROLL*57
$HCHDG,262.5,0.0,E,,*2A
$IIRMB,A,0.10,L,,N   ,,,,,000.3,337,,V,A*2C
$HCHDG,262.5,0.0,E,,*2A
$GPRMC,163356.2,A,4740.81802,N,12224.44941,W,000.08,000.0,170513,016.6,E,A*26
$PGRME,3.0,M,3.0,M,4.3,M*29
$IIRMC,163300,A,4740.818,N,12224.449,W,00.0,000,170513,16,E,A*17
$HCHDG,262.5,0.0,E,,*2A
$IIVHW,,,,,00.0,N,,*19
$IIVLW,06236,N,000.0,N*52
$HCHDG,262.4,0.0,E,,*2B
$IIVWR,099,L,06.8,N,,,,*71
$GPRMC,163356.4,A,4740.81802,N,12224.44940,W,000.04,000.0,170513,016.6,E,A*2D
$GPRMB,A,0.10,L,,N,4741.0622,N,12224.6030,W,0.3,337,0.04,V*47
$PGRME,3.0,M,3.0,M,4.3,M*29
$IIDPT,007.8,-1.0,*4F
$HCHDG,262.7,0.0,E,,*28
$YXXDR,A,4.8,D,PTCH,A,4.6,D,ROLL*53
$HCHDG,262.7,0.0,E,,*28
$GPRMC,163356.6,A,4740.81802,N,12224.44940,W,000.07,000.0,170513,016.6,E,A*2C
$PGRME,3.0,M,3.0,M,4.3,M*29
$HCHDG,262.7,0.0,E,,*28
$HCHDG,262.7,0.0,E,,*28
$GPRMC,163356.8,A,4740.81802,N,12224.44941,W,000.03,000.0,170513,016.6,E,A*27
$PGRME,3.0,M,3.0,M,4.3,M*29
$HCHDG,262.4,0.0,E,,*2B
$HCHDG,262.5,0.0,E,,*2A
$IIGLL,4740.818,N,12224.449,W,163300,A,A*4D
$GPRMC,163357.0,A,4740.81802,N,12224.44941,W,000.03,000.0,170513,016.6,E,A*2E
$PGRME,3.0,M,3.0,M,4.3,M*29
$IIMTW,+09.0,C*31
$YXXDR,A,4.9,D,PTCH,A,4.4,D,ROLL*50
$PTAK,FFD1,4.4*55
$IIMWV,263,R,06.7,N,A*15
$HCHDG,262.4,0.0,E,,*2B
$IIMWV,261,T,06.8,N,A*1E
$HCHDG,262.4,0.0,E,,*2B
$GPRMC,163357.2,A,4740.81802,N,12224.44941,W,000.10,000.0,170513,016.6,E,A*2E
$PGRME,3.0,M,3.0,M,4.3,M*29
$IIRMB,A,0.10,L,,N   ,,,,,000.3,337,,V,A*2C
$HCHDG,262.5,0.0,E,,*2A
$HCHDG,262.5,0.0,E,,*2A
$IIRMC,163300,A,4740.818,N,12224.449,W,00.0,000,170513,16,E,A*17
$GPRMC,163357.4,A,4740.81802,N,12224.44940,W,000.08,000.0,170513,016.6,E,A*20
$PGRME,3.0,M,3.0,M,4.3,M*29
$IIVHW,,,,,00.0,N,,*19
$HCHDG,262.5,0.0,E,,*2A
$IIVLW,06236,N,000.0,N*52
$YXXDR,A,5.0,D,PTCH,A,4.3,D,ROLL*5F
$HCHDG,262.5,0.0,E,,*2A
$GPRMC,163357.6,A,4740.81803,N,12224.44939,W,000.02,000.0,170513,016.6,E,A*27
$GPRMB,A,0.10,L,,N,4741.0622,N,12224.6030,W,0.3,337,0.02,V*41
$PGRME,3.0,M,3.0,M,4.3,M*29
$HCHDG,262.5,0.0,E,,*2A
$PTAK,FFP1,HEEL,@*07
$HCHDG,262.5,0.0,E,,*2A
$GPRMC,163357.8,A,4740.81802,N,12224.44939,W,000.05,000.0,170513,016.6,E,A*2F
$PGRME,3.0,M,3.0,M,4.3,M*29
$HCHDG,262.5,0.0,E,,*2A
$HCHDG,262.5,0.0,E,,*2A
$IIVWR,100,L,06.2,N,,,,*7A
$IIDPT,007.8,-1.0,*4F
$GPRMC,163358.0,A,4740.81802,N,12224.44939,W,000.04,000.0,170513,016.6,E,A*29
$PGRME,3.0,M,3.0,M,4.3,M*29
$YXXDR,A,4.8,D,PTCH,A,4.8,D,ROLL*5D
$HCHDG,262.5,0.0,E,,*2A
$IIGLL,4740.818,N,12224.449,W,163300,A,A*4D
$IIMTW,+09.0,C*31
$HCHDG,262.5,0.0,E,,*2A
$IIMWV,260,R,06.2,N,A*13
$GPRMC,163358.2,A,4740.81802,N,12224.44940,W,000.07,000.0,170513,016.6,E,A*26
$PGRME,3.0,M,3.0,M,4.3,M*29
$IIMWV,263,T,06.7,N,A*13
$HCHDG,262.5,0.0,E,,*2A
$IIRMB,A,0.10,L,,N   ,,,,,000.3,337,,V,A*2C
$HCHDG,262.5,0.0,E,,*2A
$GPRMC,163358.4,A,4740.81802,N,12224.44940,W,000.04,000.0,170513,016.6,E,A*23
$PGRME,3.0,M,3.0,M,4.3,M*29
$HCHDG,262.5,0.0,E,,*2A
$IIRMC,163300,A,4740.818,N,12224.449,W,00.1,000,170513,16,E,A*16
$YXXDR,A,4.8,D,PTCH,A,4.7,D,ROLL*52
$PTAK,FFD1,4.7*56
$HCHDG,262.6,0.0,E,,*29
$GPRMC,163358.6,A,4740.81802,N,12224.44940,W,000.05,000.0,170513,016.6,E,A*20
$GPRMB,A,0.10,L,,N,4741.0622,N,12224.6030,W,0.3,337,0.05,V*46
$PGRME,3.0,M,3.0,M,4.3,M*29
$HCHDG,262.6,0.0,E,,*29
$HCHDG,262.5,0.0,E,,*2A
$GPRMC,163358.8,A,4740.81802,N,12224.44940,W,000.15,000.0,170513,016.6,E,A*2F
$PGRME,3.0,M,3.0,M,4.3,M*29
$HCHDG,262.5,0.0,E,,*2A
$IIVHW,,,,,00.0,N,,*19
$HCHDG,262.5,0.0,E,,*2A
$IIVLW,06236,N,000.0,N*52
$GPRMC,163359.0,A,4740.81802,N,12224.44939,W,000.10,000.0,170513,016.6,E,A*2D
$PGRME,3.0,M,3.0,M,4.3,M*29
$YXXDR,A,5.1,D,PTCH,A,4.3,D,ROLL*5E
$IIVWR,103,L,06.0,N,,,,*7B
$HCHDG,262.6,0.0,E,,*29
$IIDPT,007.8,-1.0,*4F
$HCHDG,262.6,0.0,E,,*29
$IIGLL,4740.818,N,12224.449,W,163300,A,A*4D
$GPRMC,163359.2,A,4740.81802,N,12224.44938,W,000.03,000.0,170513,016.6,E,A*2C
$PGRME,3.0,M,3.0,M,4.3,M*29
$IIMTW,+09.0,C*31
$HCHDG,262.6,0.0,E,,*29
$IIMWV,257,R,06.0,N,A*15
$IIMWV,260,T,06.2,N,A*15
$HCHDG,262.5,0.0,E,,*2A
$GPRMC,163359.4,A,4740.81802,N,12224.44938,W,000.07,000.0,170513,016.6,E,A*2E
$PGRME,3.0,M,3.0,M,4.3,M*29
$IIRMB,A,0.10,L,,N   ,,,,,000.3,337,,V,A*2C
$HCHDG,262.8,0.0,E,,*27
$YXXDR,A,5.1,D,PTCH,A,4.2,D,ROLL*5F
$PTAK,FFD1,4.2*53
$HCHDG,262.7,0.0,E,,*28
$GPRMC,163359.6,A,4740.81802,N,12224.44938,W,000.11,000.0,170513,016.6,E,A*2B
$PGRME,3.0,M,3.0,M,4.3,M*29
$HCHDG,262.6,0.0,E,,*29
$HCHDG,262.6,0.0,E,,*29
$GPRMC,163359.8,A,4740.81803,N,12224.44939,W,000.09,000.0,170513,016.6,E,A*2C
$PGRME,3.0,M,3.0,M,4.3,M*29
$HCHDG,262.6,0.0,E,,*29
$HCHDG,262.6,0.0,E,,*29
$GPRMC,163400.0,A,4740.81803,N,12224.44940,W,000.02,000.0,170513,016.6,E,A*2A
$PGRME,3.0,M,3.0,M,4.3,M*29
$IIRMC,163300,A,4740.818,N,12224.449,W,00.0,000,170513,16,E,A*17
$YXXDR,A,5.0,D,PTCH,A,4.3,D,ROLL*5F
$IIVHW,,,,,00.0,N,,*19
$HCHDG,262.5,0.0,E,,*2A
$IIVLW,06236,N,000.0,N*52
$HCHDG,262.3,0.0,E,,*2C
$IIVWR,106,L,05.9,N,,,,*74
$GPRMC,163400.2,A,4740.81803,N,12224.44939,W,000.09,000.0,170513,016.6,E,A*2D
$GPRMB,A,0.10,L,,N,4741.0622,N,12224.6030,W,0.3,337,0.08,V*4B
$PGRME,3.0,M,3.0,M,4.3,M*29
$IIDPT,007.8,-1.0,*4F
$HCHDG,262.2,0.0,E,,*2D
$IIGLL,4740.818,N,12224.449,W,163300,A,A*4D
$HCHDG,262.2,0.0,E,,*2D
$IIMTW,+09.0,C*31
$GPRMC,163400.4,A,4740.81802,N,12224.44939,W,000.07,000.0,170513,016.6,E,A*24
$PGRME,3.0,M,3.0,M,4.3,M*29
$IIMWV,254,R,05.9,N,A*1C
$HCHDG,262.2,0.0,E,,*2D
$IIMWV,257,T,06.0,N,A*13
$YXXDR,A,4.9,D,PTCH,A,4.6,D,ROLL*52
$HCHDG,262.2,0.0,E,,*2D
$GPRMC,163400.6,A,4740.81802,N,12224.44939,W,000.08,000.0,170513,016.6,E,A*29
$PGRME,3.0,M,3.0,M,4.3,M*29
$HCHDG,262.1,0.0,E,,*2E
$HCHDG,262.4,0.0,E,,*2B
$GPRMC,163400.8,A,4740.81802,N,12224.44939,W,000.07,000.0,170513,016.6,E,A*28
$PGRME,3.0,M,3.0,M,4.3,M*29
$HCHDG,262.3,0.0,E,,*2C
$HCHDG,262.3,0.0,E,,*2C
$IIRMB,A,0.10,L,,N   ,,,,,000.3,337,,V,A*2C
$GPRMC,163401.0,A,4740.81801,N,12224.44940,W,000.04,000.0,170513,016.6,E,A*2F
$PGRME,3.0,M,3.0,M,4.3,M*29
$YXXDR,A,4.9,D,PTCH,A,4.4,D,ROLL*50
$PTAK,FFD1,4.4*55
$HCHDG,262.3,0.0,E,,*2C
$IIRMC,163400,A,4740.818,N,12224.449,W,00.0,000,170513,16,E,A*10
$HCHDG,262.3,0.0,E,,*2C
$IIVHW,,,,,00.0,N,,*19
$GPRMC,163401.2,A,4740.81801,N,12224.44939,W,000.04,000.0,170513,016.6,E,A*23
$PGRME,3.0,M,3.0,M,4.3,M*29
$IIVLW,06236,N,000.0,N*52
$HCHDG,262.4,0.0,E,,*2B
$IIVWR,111,L,06.1,N,,,,*79
$IIDPT,007.8,-1.0,*4F
$HCHDG,262.4,0.0,E,,*2B
$GPRMC,163401.4,A,4740.81801,N,12224.44939,W,000.09,000.0,170513,016.6,E,A*28
$GPRMB,A,0.10,L,,N,4741.0622,N,12224.6030,W,0.3,337,0.08,V*4B
$PGRME,3.0,M,3.0,M,4.3,M*29
$IIGLL,4740.818,N,12224.449,W,163400,A,A*4A
$HCHDG,262.4,0.0,E,,*2B
$IIMTW,+09.0,C*31
$YXXDR,A,4.8,D,PTCH,A,4.2,D,ROLL*57
$HCHDG,262.1,0.0,E,,*2E
$GPRMC,163401.6,A,4740.81802,N,12224.44939,W,000.06,000.0,170513,016.6,E,A*26
$PGRME,3.0,M,3.0,M,4.3,M*29
$HCHDG,262.1,0.0,E,,*2E
$HCHDG,262.0,0.0,E,,*2F
$GPRMC,163401.8,A,4740.81802,N,12224.44939,W,000.03,000.0,170513,016.6,E,A*2D
$PGRME,3.0,M,3.0,M,4.3,M*29
$HCHDG,262.0,0.0,E,,*2F
$PTAK,FFP1,HEEL,@*07
$IIMWV,244,R,06.3,N,A*14
$HCHDG,262.0,0.0,E,,*2F
$IIMWV,249,T,06.1,N,A*1D
$GPRMC,163402.0,A,4740.81802,N,12224.44940,W,000.09,000.0,170513,016.6,E,A*22
$PGRME,3.0,M,3.0,M,4.3,M*29
$YXXDR,A,4.8,D,PTCH,A,4.8,D,ROLL*5D
$PTAK,FFD1,4.8*59
$HCHDG,262.1,0.0,E,,*2E
$IIRMB,A,0.10,L,,N   ,,,,,000.3,337,,V,A*2C
$HCHDG,262.1,0.0,E,,*2E
$GPRMC,163402.2,A,4740.81801,N,12224.44940,W,000.09,000.0,170513,016.6,E,A*23
$PGRME,3.0,M,3.0,M,4.3,M*29
$IIRMC,163400,A,4740.818,N,12224.449,W,00.0,000,170513,16,E,A*10
$HCHDG,262.1,0.0,E,,*2E
$IIVHW,,,,,00.0,N,,*19
$IIVLW,06236,N,000.0,N*52
$HCHDG,262.0,0.0,E,,*2F
$IIVWR,116,L,06.3,N,,,,*7C
$GPRMC,163402.4,A,4740.81801,N,12224.44941,W,000.11,000.0,170513,016.6,E,A*2D
$GPRMB,A,0.10,L,,N,4741.0622,N,12224.6030,W,0.3,337,0.10,V*42
$PGRME,3.0,M,3.0,M,4.3,M*29
$IIDPT,007.8,-1.0,*4F
$HCHDG,262.0,0.0,E,,*2F
$YXXDR,A,4.8,D,PTCH,A,4.8,D,ROLL*5D
$HCHDG,262.0,0.0,E,,*2F
$GPRMC,163402.6,A,4740.81801,N,12224.44941,W,000.08,000.0,170513,016.6,E,A*27
$PGRME,3.0,M,3.0,M,4.3,M*29
$HCHDG,262.0,0.0,E,,*2F
$HCHDG,261.8,0.0,E,,*24
$GPRMC,163402.8,A,4740.81801,N,12224.44942,W,000.01,000.0,170513,016.6,E,A*23
$PGRME,3.0,M,3.0,M,4.3,M*29
$HCHDG,261.8,0.0,E,,*24
$HCHDG,261.8,0.0,E,,*24
$IIGLL,4740.818,N,12224.449,W,163400,A,A*4A
$GPRMC,163403.0,A,4740.81801,N,12224.44942,W,000.13,000.0,170513,016.6,E,A*29
$PGRME,3.0,M,3.0,M,4.3,M*29
$IIMTW,+09.0,C*31
$YXXDR,A,4.7,D,PTCH,A,4.6,D,ROLL*5C
$PTAK,FFD1,4.6*57
$IIMWV,243,R,06.5,N,A*15
$HCHDG,261.8,0.0,E,,*24
$IIMWV,244,T,06.3,N,A*12
$HCHDG,261.8,0.0,E,,*24
$GPRMC,163403.2,A,4740.81800,N,12224.44941,W,000.09,000.0,170513,016.6,E,A*22
$PGRME,3.0,M,3.0,M,4.3,M*29
$IIRMB,A,0.10,L,,N   ,,,,,000.3,337,,V,A*2C
$HCHDG,261.7,0.0,E,,*2B
$HCHDG,261.7,0.0,E,,*2B
$IIRMC,163400,A,4740.818,N,12224.449,W,00.1,000,170513,16,E,A*11
$GPRMC,163403.4,A,4740.81800,N,12224.44941,W,000.02,000.0,170513,016.6,E,A*2F
$IIVHW,,,,,00.0,N,,*19
$PGRME,3.0,M,3.0,M,4.3,M*29
$HCHDG,261.7,0.0,E,,*2B
$IIVLW,06236,N,000.0,N*52
$YXXDR,A,4.7,D,PTCH,A,5.1,D,ROLL*5A
$HCHDG,261.8,0.0,E,,*24
$GPRMC,163403.6,A,4740.81800,N,12224.44941,W,000.03,000.0,170513,016.6,E,A*2C
$GPRMB,A,0.10,L,,N,4741.0622,N,12224.6030,W,0.3,337,0.03,V*40
$PGRME,3.0,M,3.0,M,4.3,M*29
$HCHDG,261.7,0.0,E,,*2B
$HCHDG,261.7,0.0,E,,*2B
$GPRMC,163403.8,A,4740.81800,N,12224.44942,W,000.03,000.0,170513,016.6,E,A*21
$PGRME,3.0,M,3.0,M,4.3,M*29
$HCHDG,261.7,0.0,E,,*2B
$IIVWR,122,L,06.8,N,,,,*70
$HCHDG,261.7,0.0,E,,*2B
$IIDPT,007.8,-1.0,*4F
$GPRMC,163404.0,A,4740.81800,N,12224.44942,W,000.01,000.0,170513,016.6,E,A*2C
$PGRME,3.0,M,3.0,M,4.3,M*29
$YXXDR,A,4.7,D,PTCH,A,4.8,D,ROLL*52
$HCHDG,261.7,0.0,E,,*2B
$IIGLL,4740.818,N,12224.449,W,163400,A,A*4A
$IIMTW,+09.0,C*31
$HCHDG,261.5,0.0,E,,*29
$IIMWV,238,R,06.8,N,A*14
$GPRMC,163404.2,A,4740.81800,N,12224.44942,W,000.02,000.0,170513,016.6,E,A*2D
$PGRME,3.0,M,3.0,M,4.3,M*29
$IIMWV,243,T,06.5,N,A*13
$HCHDG,261.6,0.0,E,,*2A
$IIRMB,A,0.10,L,,N   ,,,,,000.3,337,,V,A*2C
$HCHDG,261.6,0.0,E,,*2A
$GPRMC,163404.4,A,4740.81800,N,12224.44942,W,000.02,000.0,170513,016.6,E,A*2B
$PGRME,3.0,M,3.0,M,4.3,M*29
$HCHDG,261.7,0.0,E,,*2B
$IIRMC,163400,A,4740.818,N,12224.449,W,00.0,000,170513,16,E,A*10
$YXXDR,A,4.6,D,PTCH,A,4.8,D,ROLL*53
$PTAK,FFD1,4.8*59
$HCHDG,261.7,0.0,E,,*2B
$GPRMC,163404.6,A,4740.81800,N,12224.44942,W,000.01,000.0,170513,016.6,E,A*2A
$PGRME,3.0,M,3.0,M,4.3,M*29
$HCHDG,261.7,0.0,E,,*2B
$HCHDG,261.7,0.0,E,,*2B
$GPRMC,163404.8,A,4740.81800,N,12224.44942,W,000.02,000.0,170513,016.6,E,A*27
$GPRMB,A,0.10,L,,N,4741.0622,N,12224.6030,W,0.3,337,0.02,V*41
$PGRME,3.0,M,3.0,M,4.3,M*29
$HCHDG,261.8,0.0,E,,*24
$IIVHW,,,,,00.0,N,,*19
$HCHDG,261.7,0.0,E,,*2B
$IIVLW,06236,N,000.0,N*52
$GPRMC,163405.0,A,4740.81800,N,12224.44943,W,000.01,000.0,170513,016.6,E,A*2C
$PGRME,3.0,M,3.0,M,4.3,M*29
$YXXDR,A,4.7,D,PTCH,A,5.0,D,ROLL*5B
$IIVWR,123,L,06.8,N,,,,*71
$HCHDG,261.8,0.0,E,,*24
$IIDPT,007.8,-1.0,*4F
$HCHDG,261.8,0.0,E,,*24
$IIGLL,4740.818,N,12224.449,W,163400,A,A*4A
$GPRMC,163405.2,A,4740.81800,N,12224.44943,W,000.01,000.0,170513,016.6,E,A*2E
$PGRME,3.0,M,3.0,M,4.3,M*29
$IIMTW,+09.0,C*31
$HCHDG,261.9,0.0,E,,*25
$IIMWV,237,R,06.8,N,A*1B
$IIMWV,238,T,06.8,N,A*12
$HCHDG,261.9,0.0,E,,*25
$GPRMC,163405.4,A,4740.81800,N,12224.44943,W,000.01,000.0,170513,016.6,E,A*28
$PGRME,3.0,M,3.0,M,4.3,M*29
$IIRMB,A,0.10,L,,N   ,,,,,000.3,337,,V,A*2C
$HCHDG,261.9,0.0,E,,*25
$YXXDR,A,4.9,D,PTCH,A,4.3,D,ROLL*57
$HCHDG,262.0,0.0,E,,*2F
$GPRMC,163405.6,A,4740.81800,N,12224.44943,W,000.03,000.0,170513,016.6,E,A*28
$PGRME,3.0,M,3.0,M,4.3,M*29
$HCHDG,262.0,0.0,E,,*2F
$HCHDG,262.0,0.0,E,,*2F
$GPRMC,163405.8,A,4740.81800,N,12224.44943,W,000.02,000.0,170513,016.6,E,A*27
$GPRMB,A,0.10,L,,N,4741.0622,N,12224.6030,W,0.3,337,0.02,V*41
$PGRME,3.0,M,3.0,M,4.3,M*29
$HCHDG,262.0,0.0,E,,*2F
$PTAK,FFP1,HEEL,@*07
$HCHDG,262.0,0.0,E,,*2F
$GPRMC,163406.0,A,4740.81800,N,12224.44944,W,000.01,000.0,170513,016.6,E,A*28
$PGRME,3.0,M,3.0,M,4.3,M*29
$IIRMC,163400,A,4740.818,N,12224.449,W,00.0,000,170513,16,E,A*10
$YXXDR,A,4.6,D,PTCH,A,4.8,D,ROLL*53
$PTAK,FFD1,4.8*59
$IIVHW,,,,,00.0,N,,*19
$HCHDG,262.0,0.0,E,,*2F
$IIVLW,06236,N,000.0,N*52
$HCHDG,262.0,0.0,E,,*2F
$IIVWR,124,L,06.7,N,,,,*79
$GPRMC,163406.2,A,4740.81800,N,12224.44944,W,000.01,000.0,170513,016.6,E,A*2A
$PGRME,3.0,M,3.0,M,4.3,M*29
$IIDPT,007.8,-1.0,*4F
$HCHDG,262.0,0.0,E,,*2F
$IIGLL,4740.818,N,12224.449,W,163400,A,A*4A
$HCHDG,261.9,0.0,E,,*25
$IIMTW,+09.0,C*31
$GPRMC,163406.4,A,4740.81800,N,12224.44944,W,000.01,000.0,170513,016.6,E,A*2C
$PGRME,3.0,M,3.0,M,4.3,M*29
$IIMWV,236,R,06.7,N,A*15
$HCHDG,261.9,0.0,E,,*25
$IIMWV,237,T,06.8,N,A*1D
$YXXDR,A,4.8,D,PTCH,A,4.6,D,ROLL*53
$HCHDG,261.9,0.0,E,,*25
$GPRMC,163406.6,A,4740.81800,N,12224.44944,W,000.01,000.0,170513,016.6,E,A*2E
$PGRME,3.0,M,3.0,M,4.3,M*29
$HCHDG,262.1,0.0,E,,*2E
$HCHDG,262.2,0.0,E,,*2D
$GPRMC,163406.8,A,4740.81800,N,12224.44944,W,000.02,000.0,170513,016.6,E,A*23
$PGRME,3.0,M,3.0,M,4.3,M*29
$HCHDG,262.0,0.0,E,,*2F
$HCHDG,262.0,0.0,E,,*2F
$IIRMB,A,0.10,L,,N   ,,,,,000.3,337,,V,A*2C
$GPRMC,163407.0,A,4740.81801,N,12224.44945,W,000.01,000.0,170513,016.6,E,A*29
$GPRMB,A,0.10,L,,N,4741.0622,N,12224.6030,W,0.3,337,0.01,V*42
$PGRME,3.0,M,3.0,M,4.3,M*29
$YXXDR,A,4.8,D,PTCH,A,4.6,D,ROLL*53
$PTAK,FFD1,4.6*57
$HCHDG,262.0,0.0,E,,*2F
$IIRMC,163400,A,4740.818,N,12224.449,W,00.0,000,170513,16,E,A*10
$HCHDG,262.0,0.0,E,,*2F
$IIVHW,,,,,00.0,N,,*19
$GPRMC,163407.2,A,4740.81801,N,12224.44945,W,000.01,000.0,170513,016.6,E,A*2B
$PGRME,3.0,M,3.0,M,4.3,M*29
$IIVLW,06236,N,000.0,N*52
$HCHDG,262.0,0.0,E,,*2F
$IIVWR,122,L,07.1,N,,,,*78
$IIDPT,007.8,-1.0,*4F
$HCHDG,262.0,0.0,E,,*2F
$GPRMC,163407.4,A,4740.81801,N,12224.44945,W,000.01,000.0,170513,016.6,E,A*2D
$PGRME,3.0,M,3.0,M,4.3,M*29
$IIGLL,4740.818,N,12224.449,W,163400,A,A*4A
$HCHDG,262.0,0.0,E,,*2F
$IIMTW,+09.0,C*31
$YXXDR,A,4.8,D,PTCH,A,5.2,D,ROLL*56
$HCHDG,262.2,0.0,E,,*2D
$GPRMC,163407.6,A,4740.81801,N,12224.44945,W,000.02,000.0,170513,016.6,E,A*2C
$PGRME,3.0,M,3.0,M,4.3,M*29
$HCHDG,262.2,0.0,E,,*2D
$HCHDG,262.4,0.0,E,,*2B
$GPRMC,163407.8,A,4740.81801,N,12224.44945,W,000.01,000.0,170513,016.6,E,A*21
$PGRME,3.0,M,3.0,M,4.3,M*29
$HCHDG,262.4,0.0,E,,*2B
$IIMWV,236,R,07.3,N,A*10
$HCHDG,262.5,0.0,E,,*2A
$IIMWV,238,T,07.1,N,A*1A
$GPRMC,163408.0,A,4740.81801,N,12224.44945,W,000.01,000.0,170513,016.6,E,A*26
$GPRMB,A,0.10,L,,N,4741.0622,N,12224.6030,W,0.3,337,0.01,V*42
$PGRME,3.0,M,3.0,M,4.3,M*29
$YXXDR,A,4.8,D,PTCH,A,5.1,D,ROLL*55
$PTAK,FFD1,5.1*51
$HCHDG,262.5,0.0,E,,*2A
$IIRMB,A,0.10,L,,N   ,,,,,000.3,337,,V,A*2C
$HCHDG,262.5,0.0,E,,*2A
$GPRMC,163408.2,A,4740.81801,N,12224.44945,W,000.01,000.0,170513,016.6,E,A*24
$PGRME,3.0,M,3.0,M,4.3,M*29
$IIRMC,163400,A,4740.818,N,12224.449,W,00.0,000,170513,16,E,A*10
$HCHDG,262.7,0.0,E,,*28
$IIVHW,,,,,00.0,N,,*19
$IIVLW,06236,N,000.0,N*52
$HCHDG,262.7,0.0,E,,*28
$IIVWR,124,L,07.3,N,,,,*7C
$GPRMC,163408.4,A,4740.81801,N,12224.44945,W,000.01,000.0,170513,016.6,E,A*22
$PGRME,3.0,M,3.0,M,4.3,M*29
$IIDPT,007.8,-1.0,*4F
$HCHDG,262.7,0.0,E,,*28
$YXXDR,A,5.0,D,PTCH,A,5.1,D,ROLL*5C
$HCHDG,262.6,0.0,E,,*29
$GPRMC,163408.6,A,4740.81801,N,12224.44945,W,000.01,000.0,170513,016.6,E,A*20
$PGRME,3.0,M,3.0,M,4.3,M*29
$HCHDG,262.7,0.0,E,,*28
$HCHDG,262.7,0.0,E,,*28
$GPRMC,163408.8,A,4740.81801,N,12224.44945,W,000.01,000.0,170513,016.6,E,A*2E
$PGRME,3.0,M,3.0,M,4.3,M*29
$HCHDG,262.7,0.0,E,,*28
$HCHDG,262.8,0.0,E,,*27
$IIGLL,4740.818,N,12224.449,W,163400,A,A*4A
$GPRMC,163409.0,A,4740.81801,N,12224.44946,W,000.01,000.0,170513,016.6,E,A*24
$PGRME,3.0,M,3.0,M,4.3,M*29
$IIMTW,+09.0,C*31
$YXXDR,A,5.1,D,PTCH,A,5.1,D,ROLL*5D
$IIMWV,236,R,07.4,N,A*17
$HCHDG,263.0,0.0,E,,*2E
$IIMWV,236,T,07.3,N,A*16
$HCHDG,262.9,0.0,E,,*26
$GPRMC,163409.2,A,4740.81801,N,12224.44946,W,000.01,000.0,170513,016.6,E,A*26
$GPRMB,A,0.10,L,,N,4741.0622,N,12224.6030,W,0.3,337,0.01,V*42
$PGRME,3.0,M,3.0,M,4.3,M*29
$IIRMB,A,0.10,L,,N   ,,,,,000.3,337,,V,A*2C
$HCHDG,262.9,0.0,E,,*26
$HCHDG,262.9,0.0,E,,*26
$IIRMC,163400,A,4740.818,N,12224.449,W,00.0,000,170513,16,E,A*10
$GPRMC,163409.4,A,4740.81801,N,12224.44946,W,000.01,000.0,170513,016.6,E,A*20
$PGRME,3.0,M,3.0,M,4.3,M*29
$IIVHW,,,,,00.0,N,,*19
$HCHDG,262.9,0.0,E,,*26
$IIVLW,06236,N,000.0,N*52
$YXXDR,A,5.2,D,PTCH,A,5.2,D,ROLL*5D
$PTAK,FFD1,5.2*52
$HCHDG,262.9,0.0,E,,*26
$GPRMC,163409.6,A,4740.81801,N,12224.44946,W,000.01,000.0,170513,016.6,E,A*22
$PGRME,3.0,M,3.0,M,4.3,M*29
$HCHDG,262.8,0.0,E,,*27
$HCHDG,262.6,0.0,E,,*29
$GPRMC,163409.8,A,4740.81801,N,12224.44946,W,000.01,000.0,170513,016.6,E,A*2C
$PGRME,3.0,M,3.0,M,4.3,M*29
$HCHDG,262.6,0.0,E,,*29
$IIVWR,121,L,07.5,N,,,,*7F
$HCHDG,262.5,0.0,E,,*2A
$IIDPT,007.8,-1.0,*4F
$GPRMC,163410.0,A,4740.81801,N,12224.44946,W,000.01,000.0,170513,016.6,E,A*2C
$PTAK,FFP1,HEEL,@*07
$PGRME,3.0,M,3.0,M,4.3,M*29
$YXXDR,A,5.2,D,PTCH,A,5.3,D,ROLL*5C
$HCHDG,262.6,0.0,E,,*29
$IIGLL,4740.818,N,12224.449,W,163400,A,A*4A
$IIMTW,+09.0,C*31
$HCHDG,262.5,0.0,E,,*2A
$IIMWV,239,R,07.5,N,A*19
$GPRMC,163410.2,A,4740.81802,N,12224.44946,W,000.01,000.0,170513,016.6,E,A*2D
$GPRMB,A,0.10,L,,N,4741.0622,N,12224.6030,W,0.3,337,0.01,V*42
$PGRME,3.0,M,3.0,M,4.3,M*29
$IIMWV,236,T,07.4,N,A*11
$HCHDG,262.5,0.0,E,,*2A
$IIRMB,A,0.10,L,,N   ,,,,,000.3,337,,V,A*2C
$HCHDG,262.4,0.0,E,,*2B
$GPRMC,163410.4,A,4740.81802,N,12224.44946,W,000.02,000.0,170513,016.6,E,A*28
$PGRME,3.0,M,3.0,M,4.3,M*29
$HCHDG,262.3,0.0,E,,*2C
$IIRMC,163400,A,4740.818,N,12224.449,W,00.0,000,170513,16,E,A*10
$YXXDR,A,5.1,D,PTCH,A,4.9,D,ROLL*54
$HCHDG,262.3,0.0,E,,*2C
$GPRMC,163410.6,A,4740.81802,N,12224.44947,W,000.01,000.0,170513,016.6,E,A*28
$PGRME,3.0,M,3.0,M,4.3,M*29
$HCHDG,262.3,0.0,E,,*2C
$HCHDG,262.2,0.0,E,,*2D
$GPRMC,163410.8,A,4740.81802,N,12224.44947,W,000.02,000.0,170513,016.6,E,A*25
$PGRME,3.0,M,3.0,M,4.3,M*29
$HCHDG,262.2,0.0,E,,*2D
$IIVHW,,,,,00.0,N,,*19
$HCHDG,262.4,0.0,E,,*2B
$GPRMC,163411.0,A,4740.81802,N,12224.44947,W,000.02,000.0,170513,016.6,E,A*2C
$IIVLW,06236,N,000.0,N*52
$PGRME,3.0,M,3.0,M,4.3,M*29
$YXXDR,A,4.9,D,PTCH,A,5.4,D,ROLL*51
$PTAK,FFD1,5.4*54
$IIVWR,117,L,07.5,N,,,,*7A
$HCHDG,262.3,0.0,E,,*2C
$IIDPT,007.8,-1.0,*4F
$HCHDG,262.1,0.0,E,,*2E
$IIGLL,4740.818,N,12224.449,W,163400,A,A*4A
$GPRMC,163411.2,A,4740.81802,N,12224.44947,W,000.00,000.0,170513,016.6,E,A*2C
$GPRMB,A,0.10,L,,N,4741.0622,N,12224.6030,W,0.3,337,0.00,V*43
$PGRME,3.0,M,3.0,M,4.3,M*29
$IIMTW,+09.0,C*31
$HCHDG,262.2,0.0,E,,*2D
$IIMWV,243,R,07.5,N,A*14
$IIMWV,239,T,07.5,N,A*1F
$HCHDG,262.2,0.0,E,,*2D
$GPRMC,163411.4,A,4740.81802,N,12224.44948,W,000.01,000.0,170513,016.6,E,A*24
$PGRME,3.0,M,3.0,M,4.3,M*29
$IIRMB,A,0.10,L,,N   ,,,,,000.3,337,,V,A*2C
$HCHDG,262.2,0.0,E,,*2D
$YXXDR,A,5.0,D,PTCH,A,5.1,D,ROLL*5C
$HCHDG,262.2,0.0,E,,*2D
$GPRMC,163411.6,A,4740.81802,N,12224.44948,W,000.01,000.0,170513,016.6,E,A*26
$PGRME,3.0,M,3.0,M,4.3,M*29
$HCHDG,262.1,0.0,E,,*2E
$HCHDG,262.1,0.0,E,,*2E
$GPRMC,163411.8,A,4740.81802,N,12224.44948,W,000.02,000.0,170513,016.6,E,A*2B
$PGRME,3.0,M,3.0,M,4.3,M*29
$HCHDG,262.1,0.0,E,,*2E
$HCHDG,262.1,0.0,E,,*2E
$GPRMC,163412.0,A,4740.81802,N,12224.44948,W,000.02,000.0,170513,016.6,E,A*20
$PGRME,3.0,M,3.0,M,4.3,M*29
$IIRMC,163400,A,4740.818,N,12224.449,W,00.0,000,170513,16,E,A*10
$YXXDR,A,5.1,D,PTCH,A,5.8,D,ROLL*54
$PTAK,FFD1,5.8*58
$IIVHW,,,,,00.0,N,,*19
$HCHDG,262.0,0.0,E,,*2F
$IIVLW,06236,N,000.0,N*52
$HCHDG,262.0,0.0,E,,*2F
$IIVWR,116,L,07.2,N,,,,*7C
$GPRMC,163412.2,A,4740.81802,N,12224.44948,W,000.02,000.0,170513,016.6,E,A*22
$PGRME,3.0,M,3.0,M,4.3,M*29
$IIDPT,007.8,-1.0,*4F
$HCHDG,262.1,0.0,E,,*2E
$IIGLL,4740.818,N,12224.449,W,163400,A,A*4A
$HCHDG,262.1,0.0,E,,*2E
$IIMTW,+09.0,C*31
$GPRMC,163412.4,A,4740.81802,N,12224.44948,W,000.02,000.0,170513,016.6,E,A*24
$GPRMB,A,0.10,L,,N,4741.0622,N,12224.6030,W,0.3,337,0.02,V*41
$PGRME,3.0,M,3.0,M,4.3,M*29
$IIMWV,244,R,07.2,N,A*14
$HCHDG,262.1,0.0,E,,*2E
$IIMWV,243,T,07.5,N,A*12
$YXXDR,A,4.8,D,PTCH,A,6.1,D,ROLL*56
$HCHDG,262.1,0.0,E,,*2E
$GPRMC,163412.6,A,4740.81802,N,12224.44948,W,000.02,000.0,170513,016.6,E,A*26
$PGRME,3.0,M,3.0,M,4.3,M*29
$HCHDG,262.0,0.0,E,,*2F
$HCHDG,262.1,0.0,E,,*2E
$GPRMC,163412.8,A,4740.81802,N,12224.44948,W,000.02,000.0,170513,016.6,E,A*28
$PGRME,3.0,M,3.0,M,4.3,M*29
$HCHDG,262.1,0.0,E,,*2E
$HCHDG,262.1,0.0,E,,*2E
$IIRMB,A,0.10,L,,N   ,,,,,000.3,337,,V,A*2C
$GPRMC,163413.0,A,4740.81802,N,12224.44948,W,000.01,000.0,170513,016.6,E,A*22
$PGRME,3.0,M,3.0,M,4.3,M*29
$YXXDR,A,5.1,D,PTCH,A,5.8,D,ROLL*54
$HCHDG,262.1,0.0,E,,*2E
$IIRMC,163400,A,4740.818,N,12224.449,W,00.0,000,170513,16,E,A*10
$HCHDG,262.1,0.0,E,,*2E
$IIVHW,,,,,00.0,N,,*19
$GPRMC,163413.2,A,4740.81802,N,12224.44948,W,000.00,000.0,170513,016.6,E,A*21
$PGRME,3.0,M,3.0,M,4.3,M*29
$IIVLW,06236,N,000.0,N*52
$HCHDG,262.1,0.0,E,,*2E
$IIVWR,114,L,06.8,N,,,,*75
$IIDPT,007.8,-1.0,*4F
$HCHDG,262.1,0.0,E,,*2E
$GPRMC,163413.4,A,4740.81802,N,12224.44948,W,000.01,000.0,170513,016.6,E,A*26
$PGRME,3.0,M,3.0,M,4.3,M*29
$IIGLL,4740.818,N,12224.449,W,163400,A,A*4A
$HCHDG,262.0,0.0,E,,*2F
$IIMTW,+09.0,C*31
$YXXDR,A,5.0,D,PTCH,A,5.5,D,ROLL*58
$PTAK,FFD1,5.5*55
$HCHDG,262.0,0.0,E,,*2F
$GPRMC,163413.6,A,4740.81802,N,12224.44948,W,000.00,000.0,170513,016.6,E,A*25
$GPRMB,A,0.10,L,,N,4741.0622,N,12224.6030,W,0.3,337,0.00,V*43
$PGRME,3.0,M,3.0,M,4.3,M*29
$HCHDG,262.1,0.0,E,,*2E
$HCHDG,262.1,0.0,E,,*2E
$GPRMC,163413.8,A,4740.81802,N,12224.44948,W,000.00,000.0,170513,016.6,E,A*2B
$PGRME,3.0,M,3.0,M,4.3,M*29
$HCHDG,262.0,0.0,E,,*2F
$IIMWV,246,R,06.4,N,A*11
$HCHDG,262.0,0.0,E,,*2F
$IIMWV,246,T,06.8,N,A*1B
$GPRMC,163414.0,A,4740.81802,N,12224.44948,W,000.01,000.0,170513,016.6,E,A*25
$PTAK,FFP1,HEEL,@*07
$PGRME,3.0,M,3.0,M,4.3,M*29
$YXXDR,A,4.7,D,PTCH,A,5.7,D,ROLL*5C
$HCHDG,261.9,0.0,E,,*25
$IIRMB,A,0.10,L,,N   ,,,,,000.3,337,,V,A*2C
$HCHDG,261.9,0.0,E,,*25
$GPRMC,163414.2,A,4740.81802,N,12224.44948,W,000.01,000.0,170513,016.6,E,A*27
$PGRME,3.0,M,3.0,M,4.3,M*29
$IIRMC,163400,A,4740.818,N,12224.449,W,00.0,000,170513,16,E,A*10
$HCHDG,261.7,0.0,E,,*2B
$IIVHW,,,,,00.0,N,,*19
$IIVLW,06236,N,000.0,N*52
$HCHDG,261.6,0.0,E,,*2A
$IIVWR,114,L,06.4,N,,,,*79
$GPRMC,163414.4,A,4740.81802,N,12224.44948,W,000.01,000.0,170513,016.6,E,A*21
$PGRME,3.0,M,3.0,M,4.3,M*29
$IIDPT,007.8,-1.0,*4F
$HCHDG,261.6,0.0,E,,*2A
$YXXDR,A,4.8,D,PTCH,A,6.0,D,ROLL*57
$HCHDG,261.6,0.0,E,,*2A
$GPRMC,163414.6,A,4740.81802,N,12224.44948,W,000.02,000.0,170513,016.6,E,A*20
$PGRME,3.0,M,3.0,M,4.3,M*29
$HCHDG,261.7,0.0,E,,*2B
$HCHDG,261.7,0.0,E,,*2B
$GPRMC,163414.8,A,4740.81802,N,12224.44948,W,000.01,000.0,170513,016.6,E,A*2D
$GPRMB,A,0.10,L,,N,4741.0622,N,12224.6030,W,0.3,337,0.01,V*42
$PGRME,3.0,M,3.0,M,4.3,M*29
$HCHDG,261.7,0.0,E,,*2B
$HCHDG,261.7,0.0,E,,*2B
$IIGLL,4740.818,N,12224.449,W,163400,A,A*4A
$GPRMC,163415.0,A,4740.81802,N,12224.44948,W,000.01,000.0,170513,016.6,E,A*24
$PGRME,3.0,M,3.0,M,4.3,M*29
$IIMTW,+09.0,C*31
$YXXDR,A,4.7,D,PTCH,A,5.4,D,ROLL*5F
$PTAK,FFD1,5.4*54
$IIMWV,247,R,06.5,N,A*11
$HCHDG,261.8,0.0,E,,*24
$IIMWV,246,T,06.4,N,A*17
$HCHDG,261.8,0.0,E,,*24
$GPRMC,163415.2,A,4740.81802,N,12224.44949,W,000.00,000.0,170513,016.6,E,A*26
$PGRME,3.0,M,3.0,M,4.3,M*29
$IIRMB,A,0.10,L,,N   ,,,,,000.3,337,,V,A*2C
$HCHDG,261.8,0.0,E,,*24
$HCHDG,261.8,0.0,E,,*24
$IIRMC,163400,A,4740.818,N,12224.449,W,00.0,000,170513,16,E,A*10
$GPRMC,163415.4,A,4740.81802,N,12224.44949,W,000.01,000.0,170513,016.6,E,A*21
$PGRME,3.0,M,3.0,M,4.3,M*29
$IIVHW,,,,,00.0,N,,*19
$HCHDG,261.8,0.0,E,,*24
$IIVLW,06236,N,000.0,N*52
$YXXDR,A,4.7,D,PTCH,A,5.4,D,ROLL*5F
$HCHDG,261.9,0.0,E,,*25
$GPRMC,163415.6,A,4740.81802,N,12224.44949,W,000.01,000.0,170513,016.6,E,A*23
$PGRME,3.0,M,3.0,M,4.3,M*29
$HCHDG,261.9,0.0,E,,*25
$HCHDG,261.9,0.0,E,,*25
$GPRMC,163415.8,A,4740.81802,N,12224.44949,W,000.01,000.0,170513,016.6,E,A*2D
$GPRMB,A,0.10,L,,N,4741.0622,N,12224.6030,W,0.3,337,0.01,V*42
$PGRME,3.0,M,3.0,M,4.3,M*29
$HCHDG,261.9,0.0,E,,*25
$IIVWR,112,L,06.7,N,,,,*7C
$HCHDG,261.9,0.0,E,,*25
$IIDPT,007.8,-1.0,*4F
$GPRMC,163416.0,A,4740.81802,N,12224.44949,W,000.01,000.0,170513,016.6,E,A*26
$PGRME,3.0,M,3.0,M,4.3,M*29
$YXXDR,A,4.7,D,PTCH,A,5.4,D,ROLL*5F
$HCHDG,261.9,0.0,E,,*25
$IIGLL,4740.818,N,12224.449,W,163400,A,A*4A
$IIMTW,+09.0,C*31
$HCHDG,262.1,0.0,E,,*2E
$IIMWV,248,R,06.7,N,A*1C
$GPRMC,163416.2,A,4740.81802,N,12224.44949,W,000.01,000.0,170513,016.6,E,A*24
$PGRME,3.0,M,3.0,M,4.3,M*29
$IIMWV,247,T,06.5,N,A*17
$HCHDG,262.1,0.0,E,,*2E
$IIRMB,A,0.10,L,,N   ,,,,,000.3,337,,V,A*2C
$HCHDG,262.1,0.0,E,,*2E
$GPRMC,163416.4,A,4740.81802,N,12224.44949,W,000.01,000.0,170513,016.6,E,A*22
$PGRME,3.0,M,3.0,M,4.3,M*29
$HCHDG,262.1,0.0,E,,*2E
$IIRMC,163400,A,4740.818,N,12224.449,W,00.0,000,170513,16,E,A*10
$YXXDR,A,4.8,D,PTCH,A,5.4,D,ROLL*50
$PTAK,FFD1,5.4*54
$HCHDG,262.1,0.0,E,,*2E
$GPRMC,163416.6,A,4740.81801,N,12224.44949,W,000.01,000.0,170513,016.6,E,A*23
$PGRME,3.0,M,3.0,M,4.3,M*29
$HCHDG,262.1,0.0,E,,*2E
$HCHDG,262.1,0.0,E,,*2E
$GPRMC,163416.8,A,4740.81801,N,12224.44949,W,000.01,000.0,170513,016.6,E,A*2D
$PGRME,3.0,M,3.0,M,4.3,M*29
$HCHDG,262.1,0.0,E,,*2E
$IIVHW,,,,,00.0,N,,*19
$HCHDG,262.1,0.0,E,,*2E
$IIVLW,06236,N,000.0,N*52
$GPRMC,163417.0,A,4740.81802,N,12224.44949,W,000.01,000.0,170513,016.6,E,A*27
$GPRMB,A,0.10,L,,N,4741.0622,N,12224.6030,W,0.3,337,0.01,V*42
$PGRME,3.0,M,3.0,M,4.3,M*29
$YXXDR,A,5.0,D,PTCH,A,5.5,D,ROLL*58
$IIVWR,111,L,07.0,N,,,,*79
$HCHDG,262.2,0.0,E,,*2D
$IIDPT,007.8,-1.0,*4F
$HCHDG,262.2,0.0,E,,*2D
$IIGLL,4740.818,N,12224.449,W,163400,A,A*4A
$GPRMC,163417.2,A,4740.81802,N,12224.44949,W,000.01,000.0,170513,016.6,E,A*25
$PGRME,3.0,M,3.0,M,4.3,M*29
$IIMTW,+09.0,C*31
$HCHDG,262.2,0.0,E,,*2D
$IIMWV,249,R,07.0,N,A*1B
$IIMWV,248,T,06.7,N,A*1A
$HCHDG,262.2,0.0,E,,*2D
$GPRMC,163417.4,A,4740.81802,N,12224.44949,W,000.00,000.0,170513,016.6,E,A*22
$PGRME,3.0,M,3.0,M,4.3,M*29
$IIRMB,A,0.10,L,,N   ,,,,,000.3,337,,V,A*2C
$HCHDG,262.2,0.0,E,,*2D
$YXXDR,A,5.1,D,PTCH,A,5.4,D,ROLL*58
$HCHDG,262.2,0.0,E,,*2D
$GPRMC,163417.6,A,4740.81802,N,12224.44949,W,000.00,000.0,170513,016.6,E,A*20
$PGRME,3.0,M,3.0,M,4.3,M*29
$HCHDG,262.2,0.0,E,,*2D
$HCHDG,262.2,0.0,E,,*2D
