$GPRMB,A,0.24,L,,N,4741.0622,N,12224.6030,W,0.3,241,-0.01,V*68
$PGRME,3.8,M,22.2,M,22.6,M*21
$HCHDG,186.7,0.0,E,,*21
$PTAK,FFP1,HEEL,@*07
$HCHDG,186.8,0.0,E,,*2E
$GPRMC,012231.4,A,4741.19589,N,12224.24175,W,000.06,000.0,170513,016.6,E,A*2E
$GPRMB,A,0.24,L,,N,4741.0622,N,12224.6030,W,0.3,241,-0.03,V*6A
$PGRME,3.8,M,21.4,M,21.7,M*26
$HCHDG,186.8,0.0,E,,*2E
$YXXDR*4F
$HCHDG,186.8,0.0,E,,*2E
$GPRMC,012231.6,A,4741.19585,N,12224.24180,W,000.11,000.0,170513,016.6,E,A*2C
$PGRME,3.7,M,20.5,M,20.9,M*26
$HCHDG,186.9,0.0,E,,*2F
$HCHDG,186.9,0.0,E,,*2F
$GPRMC,012231.8,A,4741.19580,N,12224.24189,W,000.03,000.0,170513,016.6,E,A*2D
$PGRME,3.6,M,19.8,M,20.1,M*28
$HCHDG,186.9,0.0,E,,*2F
$HCHDG,186.9,0.0,E,,*2F
$YXXDR*4F
$GPRMC,012232.0,A,4741.19582,N,12224.24198,W,000.09,000.0,170513,016.6,E,A*2E
$PGRME,3.6,M,19.1,M,19.4,M*2E
$HCHDG,186.9,0.0,E,,*2F
$HCHDG,186.9,0.0,E,,*2F
$GPRMC,012232.2,A,4741.19570,N,12224.24196,W,000.10,000.0,170513,016.6,E,A*27
$PGRME,3.6,M,18.4,M,18.8,M*27
$HCHDG,187.0,0.0,E,,*27
$HCHDG,187.0,0.0,E,,*27
$GPRMC,012232.4,A,4741.19568,N,12224.24190,W,000.08,000.0,170513,016.6,E,A*27
$PGRME,3.5,M,17.9,M,18.2,M*2C
$HCHDG,186.9,0.0,E,,*2F
$YXXDR*4F
$HCHDG,186.9,0.0,E,,*2F
$GPRMC,012232.6,A,4741.19586,N,12224.24180,W,000.05,000.0,170513,016.6,E,A*29
$PGRME,3.5,M,17.3,M,17.7,M*2C
$HCHDG,186.9,0.0,E,,*2F
$HCHDG,186.9,0.0,E,,*2F
$GPRMC,012232.8,A,4741.19607,N,12224.24168,W,000.13,000.0,170513,016.6,E,A*2C
$GPRMB,A,0.24,L,,N,4741.0622,N,12224.6030,W,0.3,241,-0.06,V*6F
$PGRME,3.4,M,16.7,M,17.1,M*2E
$HCHDG,186.8,0.0,E,,*2E
$HCHDG,186.8,0.0,E,,*2E
$YXXDR*4F
$GPRMC,012233.0,A,4741.19613,N,12224.24167,W,000.12,000.0,170513,016.6,E,A*2E
$PGRME,3.4,M,16.2,M,16.6,M*2D
$HCHDG,186.8,0.0,E,,*2E
$HCHDG,186.7,0.0,E,,*21
$GPRMC,012233.2,A,4741.19599,N,12224.24161,W,000.16,000.0,170513,016.6,E,A*2F
$PGRME,3.4,M,15.7,M,16.1,M*2C
$HCHDG,186.7,0.0,E,,*21
$HCHDG,186.7,0.0,E,,*21
$GPRMC,012233.4,A,4741.19577,N,12224.24157,W,000.22,000.0,170513,016.6,E,A*2B
$PGRME,3.3,M,15.3,M,15.6,M*2B
$HCHDG,186.6,0.0,E,,*20
$YXXDR*4F
$HCHDG,186.5,0.0,E,,*23
$GPRMC,012233.6,A,4741.19595,N,12224.24148,W,000.18,000.0,170513,016.6,E,A*22
$PGRME,3.3,M,14.9,M,15.2,M*24
$HCHDG,186.5,0.0,E,,*23
$HCHDG,186.4,0.0,E,,*22
$GPRMC,012233.8,A,4741.19613,N,12224.24147,W,000.17,000.0,170513,016.6,E,A*21
$GPRMB,A,0.24,L,,N,4741.0622,N,12224.6030,W,0.3,241,-0.08,V*61
$PGRME,3.3,M,14.5,M,14.8,M*23
$HCHDG,186.3,0.0,E,,*25
$HCHDG,186.3,0.0,E,,*25
$YXXDR*4F
$GPRMC,012234.0,A,4741.19614,N,12224.24151,W,000.14,000.0,170513,016.6,E,A*2D
$PGRME,3.2,M,14.1,M,14.4,M*2A
$HCHDG,186.2,0.0,E,,*24
$HCHDG,186.2,0.0,E,,*24
$GPRMC,012234.2,A,4741.19603,N,12224.24171,W,000.11,000.0,170513,016.6,E,A*2E
$PGRME,3.2,M,13.7,M,14.1,M*2E
$HCHDG,186.2,0.0,E,,*24
$HCHDG,186.1,0.0,E,,*27
$GPRMC,012234.4,A,4741.19582,N,12224.24181,W,000.13,000.0,170513,016.6,E,A*2F
$PGRME,3.1,M,13.4,M,13.7,M*2F
$HCHDG,186.1,0.0,E,,*27
$YXXDR*4F
$HCHDG,186.0,0.0,E,,*26
$GPRMC,012234.6,A,4741.19588,N,12224.24208,W,000.08,000.0,170513,016.6,E,A*2F
$PGRME,3.1,M,13.0,M,13.4,M*28
$HCHDG,186.0,0.0,E,,*26
$HCHDG,185.9,0.0,E,,*2C
$GPRMC,012234.8,A,4741.19597,N,12224.24228,W,000.09,000.0,170513,016.6,E,A*2C
$PGRME,3.1,M,12.7,M,13.0,M*2A
$HCHDG,185.9,0.0,E,,*2C
$HCHDG,185.7,0.0,E,,*22
$YXXDR*4F
$GPRMC,012235.0,A,4741.19599,N,12224.24234,W,000.08,000.0,170513,016.6,E,A*27
$GPRMB,A,0.24,L,,N,4741.0622,N,12224.6030,W,0.3,241,-0.04,V*6D
$PGRME,3.0,M,12.3,M,12.7,M*29
$HCHDG,185.6,0.0,E,,*23
$HCHDG,185.6,0.0,E,,*23
$GPRMC,012235.2,A,4741.19602,N,12224.24238,W,000.09,000.0,170513,016.6,E,A*29
$PGRME,3.0,M,12.0,M,12.4,M*29
$HCHDG,185.4,0.0,E,,*21
$PTAK,FFP1,HEEL,@*07
$HCHDG,185.4,0.0,E,,*21
$GPRMC,012235.4,A,4741.19597,N,12224.24243,W,000.07,000.0,170513,016.6,E,A*22
$PGRME,3.0,M,11.7,M,12.1,M*28
$HCHDG,185.2,0.0,E,,*27
$YXXDR*4F
$HCHDG,185.1,0.0,E,,*24
$GPRMC,012235.6,A,4741.19595,N,12224.24256,W,000.02,000.0,170513,016.6,E,A*23
$PGRME,3.0,M,11.5,M,11.9,M*21
$HCHDG,185.0,0.0,E,,*25
$HCHDG,184.9,0.0,E,,*2D
$GPRMC,012235.8,A,4741.19598,N,12224.24259,W,000.05,000.0,170513,016.6,E,A*28
$PGRME,3.0,M,11.2,M,11.6,M*29
$HCHDG,184.8,0.0,E,,*2C
$HCHDG,184.7,0.0,E,,*23
$YXXDR*4F
$GPRMC,012236.0,A,4741.19598,N,12224.24249,W,000.00,000.0,170513,016.6,E,A*27
$PGRME,3.0,M,11.0,M,11.4,M*29
$HCHDG,184.6,0.0,E,,*22
$HCHDG,184.6,0.0,E,,*22
$GPRMC,012236.2,A,4741.19607,N,12224.24246,W,000.06,000.0,170513,016.6,E,A*29
$PGRME,3.0,M,10.8,M,11.2,M*26
$HCHDG,184.6,0.0,E,,*22
$HCHDG,184.5,0.0,E,,*21
$GPRMC,012236.4,A,4741.19624,N,12224.24241,W,000.09,000.0,170513,016.6,E,A*26
$PGRME,3.0,M,10.6,M,11.0,M*2A
$HCHDG,184.5,0.0,E,,*21
$YXXDR*4F
$HCHDG,184.8,0.0,E,,*2C
$GPRMC,012236.6,A,4741.19627,N,12224.24243,W,000.03,000.0,170513,016.6,E,A*2F
$GPRMB,A,0.24,L,,N,4741.0622,N,12224.6030,W,0.3,241,-0.01,V*68
$PGRME,3.0,M,10.4,M,10.8,M*21
$HCHDG,184.7,0.0,E,,*23
$HCHDG,184.8,0.0,E,,*2C
$GPRMC,012236.8,A,4741.19627,N,12224.24242,W,000.08,000.0,170513,016.6,E,A*2B
$PGRME,3.0,M,10.2,M,10.6,M*29
$HCHDG,184.9,0.0,E,,*2D
$HCHDG,184.9,0.0,E,,*2D
$YXXDR*4F
$GPRMC,012237.0,A,4741.19616,N,12224.24244,W,000.02,000.0,170513,016.6,E,A*2C
$PGRME,3.0,M,10.0,M,10.4,M*29
$HCHDG,184.9,0.0,E,,*2D
$HCHDG,185.0,0.0,E,,*25
$GPRMC,012237.2,A,4741.19609,N,12224.24228,W,000.05,000.0,170513,016.6,E,A*2D
$PGRME,3.0,M,9.8,M,10.2,M*1F
$HCHDG,185.0,0.0,E,,*25
$HCHDG,185.1,0.0,E,,*24
$GPRMC,012237.4,A,4741.19619,N,12224.24224,W,000.11,000.0,170513,016.6,E,A*23
$PGRME,3.0,M,9.6,M,10.1,M*12
$HCHDG,185.1,0.0,E,,*24
$YXXDR*4F
$HCHDG,185.1,0.0,E,,*24
$GPRMC,012237.6,A,4741.19625,N,12224.24214,W,000.11,000.0,170513,016.6,E,A*2D
$PGRME,3.0,M,9.4,M,9.9,M*20
$HCHDG,185.1,0.0,E,,*24
$HCHDG,185.2,0.0,E,,*27
$GPRMC,012237.8,A,4741.19626,N,12224.24211,W,000.07,000.0,170513,016.6,E,A*22
$GPRMB,A,0.24,L,,N,4741.0622,N,12224.6030,W,0.3,241,-0.03,V*6A
$PGRME,3.0,M,9.2,M,9.7,M*28
$HCHDG,185.2,0.0,E,,*27
$HCHDG,185.1,0.0,E,,*24
$YXXDR*4F
$GPRMC,012238.0,A,4741.19622,N,12224.24199,W,000.09,000.0,170513,016.6,E,A*2C
$PGRME,3.0,M,9.1,M,9.6,M*2A
$HCHDG,185.0,0.0,E,,*25
$HCHDG,185.1,0.0,E,,*24
$GPRMC,012238.2,A,4741.19621,N,12224.24203,W,000.09,000.0,170513,016.6,E,A*2D
$PGRME,3.0,M,8.9,M,9.4,M*21
$HCHDG,185.0,0.0,E,,*25
$HCHDG,184.9,0.0,E,,*2D
$GPRMC,012238.4,A,4741.19625,N,12224.24200,W,000.03,000.0,170513,016.6,E,A*26
$PGRME,3.0,M,8.8,M,9.3,M*27
$HCHDG,184.9,0.0,E,,*2D
$YXXDR*4F
$HCHDG,184.8,0.0,E,,*2C
$GPRMC,012238.6,A,4741.19624,N,12224.24204,W,000.01,000.0,170513,016.6,E,A*23
$PGRME,3.0,M,8.6,M,9.2,M*28
$HCHDG,184.7,0.0,E,,*23
$HCHDG,184.7,0.0,E,,*23
$GPRMC,012238.8,A,4741.19620,N,12224.24206,W,000.17,000.0,170513,016.6,E,A*2C
$PGRME,3.0,M,8.5,M,9.0,M*29
$HCHDG,184.6,0.0,E,,*22
$HCHDG,184.6,0.0,E,,*22
$YXXDR*4F
$GPRMC,012239.0,A,4741.19616,N,12224.24203,W,000.02,000.0,170513,016.6,E,A*21
$GPRMB,A,0.24,L,,N,4741.0622,N,12224.6030,W,0.3,241,-0.01,V*68
$PGRME,3.0,M,8.4,M,8.9,M*20
$HCHDG,184.6,0.0,E,,*22
$HCHDG,184.7,0.0,E,,*23
$GPRMC,012239.2,A,4741.19609,N,12224.24203,W,000.03,000.0,170513,016.6,E,A*2C
$PGRME,3.0,M,8.2,M,8.8,M*27
$HCHDG,184.7,0.0,E,,*23
$HCHDG,184.8,0.0,E,,*2C
$GPRMC,012239.4,A,4741.19604,N,12224.24205,W,000.12,000.0,170513,016.6,E,A*21
$PGRME,3.0,M,8.1,M,8.7,M*2B
$HCHDG,184.8,0.0,E,,*2C
$YXXDR*4F
$HCHDG,184.9,0.0,E,,*2D
$GPRMC,012239.6,A,4741.19604,N,12224.24210,W,000.21,000.0,170513,016.6,E,A*27
$PGRME,3.0,M,8.0,M,8.6,M*2B
$HCHDG,185.0,0.0,E,,*25
$PTAK,FFP1,HEEL,@*07
$HCHDG,184.9,0.0,E,,*2D
$GPRMC,012239.8,A,4741.19606,N,12224.24208,W,000.19,000.0,170513,016.6,E,A*29
$PGRME,3.0,M,8.0,M,8.5,M*28
$HCHDG,185.0,0.0,E,,*25
$HCHDG,185.0,0.0,E,,*25
$YXXDR*4F
$GPRMC,012240.0,A,4741.19614,N,12224.24200,W,000.20,000.0,170513,016.6,E,A*2E
$GPRMB,A,0.24,L,,N,4741.0622,N,12224.6030,W,0.3,241,-0.10,V*68
$PGRME,3.0,M,7.9,M,8.5,M*2E
$HCHDG,185.0,0.0,E,,*25
$HCHDG,185.1,0.0,E,,*24
$GPRMC,012240.2,A,4741.19618,N,12224.24194,W,000.26,000.0,170513,016.6,E,A*28
$PGRME,3.0,M,7.8,M,8.3,M*29
$HCHDG,185.1,0.0,E,,*24
$HCHDG,185.1,0.0,E,,*24
$GPRMC,012240.4,A,4741.19616,N,12224.24191,W,000.27,000.0,170513,016.6,E,A*24
$PGRME,3.0,M,7.6,M,8.2,M*26
$HCHDG,185.0,0.0,E,,*25
$YXXDR*4F
$HCHDG,185.0,0.0,E,,*25
$GPRMC,012240.6,A,4741.19614,N,12224.24194,W,000.25,000.0,170513,016.6,E,A*23
$PGRME,3.0,M,7.5,M,8.1,M*26
$HCHDG,185.0,0.0,E,,*25
$HCHDG,185.0,0.0,E,,*25
$GPRMC,012240.8,A,4741.19603,N,12224.24200,W,000.15,000.0,170513,016.6,E,A*26
$PGRME,3.0,M,7.4,M,8.0,M*26
$HCHDG,184.9,0.0,E,,*2D
$HCHDG,184.9,0.0,E,,*2D
$YXXDR*4F
$GPRMC,012241.0,A,4741.19603,N,12224.24209,W,000.06,000.0,170513,016.6,E,A*24
$PGRME,3.0,M,7.3,M,7.9,M*27
$HCHDG,184.7,0.0,E,,*23
$HCHDG,184.8,0.0,E,,*2C
$GPRMC,012241.2,A,4741.19610,N,12224.24210,W,000.05,000.0,170513,016.6,E,A*2F
$GPRMB,A,0.24,L,,N,4741.0622,N,12224.6030,W,0.3,241,-0.02,V*6B
$PGRME,3.0,M,7.3,M,7.9,M*27
$HCHDG,184.7,0.0,E,,*23
$HCHDG,184.6,0.0,E,,*22
$GPRMC,012241.4,A,4741.19615,N,12224.24206,W,000.02,000.0,170513,016.6,E,A*2C
$PGRME,3.0,M,7.2,M,7.8,M*27
$HCHDG,184.5,0.0,E,,*21
$YXXDR*4F
$HCHDG,184.4,0.0,E,,*20
$GPRMC,012241.6,A,4741.19614,N,12224.24203,W,000.05,000.0,170513,016.6,E,A*2D
$PGRME,3.0,M,7.2,M,7.8,M*27
$HCHDG,184.4,0.0,E,,*20
$HCHDG,184.3,0.0,E,,*27
$GPRMC,012241.8,A,4741.19614,N,12224.24195,W,000.12,000.0,170513,016.6,E,A*29
$PGRME,3.0,M,7.1,M,7.7,M*2B
$HCHDG,184.3,0.0,E,,*27
$HCHDG,184.3,0.0,E,,*27
$YXXDR*4F
$GPRMC,012242.0,A,4741.19618,N,12224.24188,W,000.21,000.0,170513,016.6,E,A*22
$PGRME,3.0,M,7.0,M,7.7,M*2A
$HCHDG,184.3,0.0,E,,*27
$HCHDG,184.3,0.0,E,,*27
$GPRMC,012242.2,A,4741.19621,N,12224.24183,W,000.14,000.0,170513,016.6,E,A*27
$GPRMB,A,0.24,L,,N,4741.0622,N,12224.6030,W,0.3,241,-0.07,V*6E
$PGRME,3.0,M,6.9,M,7.6,M*23
$HCHDG,184.4,0.0,E,,*20
$HCHDG,184.5,0.0,E,,*21
$GPRMC,012242.4,A,4741.19617,N,12224.24181,W,000.12,000.0,170513,016.6,E,A*20
$PGRME,3.0,M,6.8,M,7.5,M*21
$HCHDG,184.6,0.0,E,,*22
$YXXDR*4F
$HCHDG,184.6,0.0,E,,*22
$GPRMC,012242.6,A,4741.19607,N,12224.24184,W,000.09,000.0,170513,016.6,E,A*2C
$PGRME,3.0,M,6.7,M,7.4,M*2F
$HCHDG,184.8,0.0,E,,*2C
$HCHDG,185.0,0.0,E,,*25
$GPRMC,012242.8,A,4741.19599,N,12224.24191,W,000.09,000.0,170513,016.6,E,A*22
$PGRME,3.0,M,6.7,M,7.3,M*28
$HCHDG,185.1,0.0,E,,*24
$HCHDG,185.2,0.0,E,,*27
$YXXDR*4F
$GPRMC,012243.0,A,4741.19595,N,12224.24193,W,000.10,000.0,170513,016.6,E,A*2D
$PGRME,3.0,M,6.6,M,7.2,M*28
$HCHDG,185.4,0.0,E,,*21
$HCHDG,185.4,0.0,E,,*21
$GPRMC,012243.2,A,4741.19598,N,12224.24193,W,000.09,000.0,170513,016.6,E,A*2A
$PGRME,3.0,M,6.5,M,7.2,M*2B
$HCHDG,185.7,0.0,E,,*22
$HCHDG,185.7,0.0,E,,*22
$GPRMC,012243.4,A,4741.19603,N,12224.24196,W,000.00,000.0,170513,016.6,E,A*21
$GPRMB,A,0.24,L,,N,4741.0622,N,12224.6030,W,0.3,241,-0.00,V*69
$PGRME,3.0,M,6.5,M,7.1,M*28
$HCHDG,185.7,0.0,E,,*22
$YXXDR*4F
$HCHDG,185.8,0.0,E,,*2D
$GPRMC,012243.6,A,4741.19604,N,12224.24193,W,000.14,000.0,170513,016.6,E,A*24
$PGRME,3.0,M,6.4,M,7.1,M*29
$HCHDG,185.9,0.0,E,,*2C
$PTAK,FFP1,HEEL,@*07
$HCHDG,186.1,0.0,E,,*27
$GPRMC,012243.8,A,4741.19610,N,12224.24185,W,000.14,000.0,170513,016.6,E,A*28
$PGRME,3.0,M,6.4,M,7.1,M*29
$HCHDG,186.0,0.0,E,,*26
$HCHDG,186.2,0.0,E,,*24
$YXXDR*4F
$GPRMC,012244.0,A,4741.19618,N,12224.24185,W,000.15,000.0,170513,016.6,E,A*2E
$PGRME,3.0,M,6.3,M,7.0,M*2F
$PGRMT,GPS 18x-5Hz software ver. 3.20,,,,,,,,*30
$HCHDG,186.2,0.0,E,,*24
$HCHDG,186.3,0.0,E,,*25
$GPRMC,012244.2,A,4741.19618,N,12224.24183,W,000.24,000.0,170513,016.6,E,A*28
$PGRME,3.0,M,6.3,M,7.0,M*2F
$HCHDG,186.4,0.0,E,,*22
$HCHDG,186.4,0.0,E,,*22
$GPRMC,012244.4,A,4741.19613,N,12224.24180,W,000.29,000.0,170513,016.6,E,A*2B
$GPRMB,A,0.24,L,,N,4741.0622,N,12224.6030,W,0.3,241,-0.14,V*6C
$PGRME,3.0,M,6.3,M,7.0,M*2F
$HCHDG,186.3,0.0,E,,*25
$YXXDR*4F
$HCHDG,186.3,0.0,E,,*25
$GPRMC,012244.6,A,4741.19613,N,12224.24182,W,000.18,000.0,170513,016.6,E,A*29
$PGRME,3.0,M,6.2,M,6.9,M*26
$HCHDG,186.3,0.0,E,,*25
$HCHDG,186.3,0.0,E,,*25
$GPRMC,012244.8,A,4741.19617,N,12224.24183,W,000.16,000.0,170513,016.6,E,A*2C
$PGRME,3.0,M,6.2,M,6.9,M*26
$HCHDG,186.3,0.0,E,,*25
$HCHDG,186.4,0.0,E,,*22
$YXXDR*4F
$GPRMC,012245.0,A,4741.19619,N,12224.24186,W,000.12,000.0,170513,016.6,E,A*2A
$PGRME,3.0,M,6.2,M,6.9,M*26
$HCHDG,186.5,0.0,E,,*23
$HCHDG,186.5,0.0,E,,*23
$GPRMC,012245.2,A,4741.19613,N,12224.24187,W,000.13,000.0,170513,016.6,E,A*22
$PGRME,3.0,M,6.1,M,6.8,M*24
$HCHDG,186.6,0.0,E,,*20
$HCHDG,186.7,0.0,E,,*21
$GPRMC,012245.4,A,4741.19611,N,12224.24188,W,000.13,000.0,170513,016.6,E,A*29
$GPRMB,A,0.24,L,,N,4741.0622,N,12224.6030,W,0.3,241,-0.06,V*6F
$PGRME,3.0,M,6.1,M,6.8,M*24
$HCHDG,186.7,0.0,E,,*21
$YXXDR*4F
$HCHDG,186.7,0.0,E,,*21
$GPRMC,012245.6,A,4741.19615,N,12224.24185,W,000.11,000.0,170513,016.6,E,A*20
$PGRME,3.0,M,6.0,M,6.8,M*25
$HCHDG,186.7,0.0,E,,*21
$HCHDG,186.8,0.0,E,,*2E
$GPRMC,012245.8,A,4741.19618,N,12224.24180,W,000.16,000.0,170513,016.6,E,A*21
$PGRME,3.0,M,6.0,M,6.7,M*2A
$HCHDG,186.7,0.0,E,,*21
$HCHDG,186.8,0.0,E,,*2E
$YXXDR*4F
$GPRMC,012246.0,A,4741.19618,N,12224.24177,W,000.16,000.0,170513,016.6,E,A*22
$PGRME,3.0,M,5.9,M,6.6,M*21
$HCHDG,186.8,0.0,E,,*2E
$HCHDG,186.9,0.0,E,,*2F
$GPRMC,012246.2,A,4741.19610,N,12224.24178,W,000.18,000.0,170513,016.6,E,A*29
$PGRME,3.0,M,5.8,M,6.6,M*20
$HCHDG,186.8,0.0,E,,*2E
$HCHDG,186.8,0.0,E,,*2E
$GPRMC,012246.4,A,4741.19607,N,12224.24182,W,000.08,000.0,170513,016.6,E,A*2D
$PGRME,3.0,M,5.8,M,6.5,M*23
$HCHDG,186.8,0.0,E,,*2E
$YXXDR*4F
$HCHDG,186.8,0.0,E,,*2E
$GPRMC,012246.6,A,4741.19612,N,12224.24179,W,000.04,000.0,170513,016.6,E,A*23
$GPRMB,A,0.24,L,,N,4741.0622,N,12224.6030,W,0.3,241,-0.02,V*6B
$PGRME,3.0,M,5.7,M,6.5,M*2C
$HCHDG,186.7,0.0,E,,*21
$HCHDG,186.7,0.0,E,,*21
$GPRMC,012246.8,A,4741.19615,N,12224.24178,W,000.05,000.0,170513,016.6,E,A*2A
$PGRME,3.0,M,5.7,M,6.4,M*2D
$HCHDG,186.6,0.0,E,,*20
$HCHDG,186.6,0.0,E,,*20
$YXXDR*4F
$GPRMC,012247.0,A,4741.19617,N,12224.24177,W,000.06,000.0,170513,016.6,E,A*2D
$PGRME,3.0,M,5.6,M,6.4,M*2C
$HCHDG,186.5,0.0,E,,*23
$HCHDG,186.5,0.0,E,,*23
$GPRMC,012247.2,A,4741.19615,N,12224.24183,W,000.03,000.0,170513,016.6,E,A*23
$PGRME,3.0,M,5.5,M,6.3,M*28
$HCHDG,186.5,0.0,E,,*23
$HCHDG,186.5,0.0,E,,*23
$GPRMC,012247.4,A,4741.19615,N,12224.24186,W,000.13,000.0,170513,016.6,E,A*21
$PGRME,3.0,M,5.5,M,6.3,M*28
$HCHDG,186.4,0.0,E,,*22
$YXXDR*4F
$HCHDG,186.4,0.0,E,,*22
$GPRMC,012247.6,A,4741.19620,N,12224.24190,W,000.15,000.0,170513,016.6,E,A*24
$PGRME,3.0,M,5.4,M,6.2,M*28
$HCHDG,186.4,0.0,E,,*22
$HCHDG,186.4,0.0,E,,*22
$PTAK,FFP1,HEEL,@*07
$GPRMC,012247.8,A,4741.19622,N,12224.24191,W,000.11,000.0,170513,016.6,E,A*2D
$GPRMB,A,0.24,L,,N,4741.0622,N,12224.6030,W,0.3,241,-0.05,V*6C
$PGRME,3.0,M,5.4,M,6.2,M*28
$HCHDG,186.5,0.0,E,,*23
$HCHDG,186.6,0.0,E,,*20
$YXXDR*4F
$GPRMC,012248.0,A,4741.19624,N,12224.24181,W,000.08,000.0,170513,016.6,E,A*25
$PGRME,3.0,M,5.3,M,6.2,M*2F
$HCHDG,186.5,0.0,E,,*23
$HCHDG,186.6,0.0,E,,*20
$GPRMC,012248.2,A,4741.19626,N,12224.24177,W,000.12,000.0,170513,016.6,E,A*27
$PGRME,3.0,M,5.3,M,6.1,M*2C
$HCHDG,186.6,0.0,E,,*20
$HCHDG,186.7,0.0,E,,*21
$GPRMC,012248.4,A,4741.19625,N,12224.24170,W,000.05,000.0,170513,016.6,E,A*23
$PGRME,3.0,M,5.3,M,6.1,M*2C
$HCHDG,186.6,0.0,E,,*20
$YXXDR*4F
$HCHDG,186.7,0.0,E,,*21
$GPRMC,012248.6,A,4741.19628,N,12224.24163,W,000.09,000.0,170513,016.6,E,A*22
$PGRME,3.0,M,5.2,M,6.0,M*2C
$HCHDG,186.7,0.0,E,,*21
$HCHDG,186.6,0.0,E,,*20
$GPRMC,012248.8,A,4741.19626,N,12224.24151,W,000.13,000.0,170513,016.6,E,A*28
$PGRME,3.0,M,5.2,M,6.0,M*2C
$HCHDG,186.7,0.0,E,,*21
$HCHDG,186.6,0.0,E,,*20
$YXXDR*4F
$GPRMC,012249.0,A,4741.19621,N,12224.24144,W,000.14,000.0,170513,016.6,E,A*25
$GPRMB,A,0.24,L,,N,4741.0622,N,12224.6030,W,0.3,241,-0.07,V*6E
$PGRME,3.0,M,5.1,M,6.0,M*2F
$HCHDG,186.6,0.0,E,,*20
$HCHDG,186.6,0.0,E,,*20
$GPRMC,012249.2,A,4741.19622,N,12224.24139,W,000.17,000.0,170513,016.6,E,A*2D
$PGRME,3.0,M,5.1,M,5.9,M*25
$HCHDG,186.5,0.0,E,,*23
$HCHDG,186.6,0.0,E,,*20
$GPRMC,012249.4,A,4741.19628,N,12224.24135,W,000.18,000.0,170513,016.6,E,A*22
$PGRME,3.0,M,5.0,M,5.9,M*24
$HCHDG,186.4,0.0,E,,*22
$YXXDR*4F
$HCHDG,186.3,0.0,E,,*25
$GPRMC,012249.6,A,4741.19635,N,12224.24144,W,000.20,000.0,170513,016.6,E,A*21
$PGRME,3.0,M,5.0,M,5.8,M*25
$HCHDG,186.1,0.0,E,,*27
$HCHDG,186.0,0.0,E,,*26
$GPRMC,012249.8,A,4741.19636,N,12224.24145,W,000.22,000.0,170513,016.6,E,A*2F
$PGRME,3.0,M,4.9,M,5.8,M*2D
$HCHDG,185.9,0.0,E,,*2C
$HCHDG,185.8,0.0,E,,*2D
$YXXDR*4F
$GPRMC,012250.0,A,4741.19625,N,12224.24156,W,000.23,000.0,170513,016.6,E,A*2E
$GPRMB,A,0.24,L,,N,4741.0622,N,12224.6030,W,0.3,241,-0.11,V*69
$PGRME,3.0,M,4.9,M,5.8,M*2D
$HCHDG,185.6,0.0,E,,*23
$HCHDG,185.5,0.0,E,,*20
$GPRMC,012250.2,A,4741.19601,N,12224.24202,W,000.23,000.0,170513,016.6,E,A*28
$PGRME,3.0,M,4.8,M,5.7,M*23
$HCHDG,185.3,0.0,E,,*26
$HCHDG,185.1,0.0,E,,*24
$GPRMC,012250.4,A,4741.19586,N,12224.24246,W,000.19,000.0,170513,016.6,E,A*2B
$PGRME,3.0,M,4.7,M,5.6,M*2D
$HCHDG,184.9,0.0,E,,*2D
$YXXDR*4F
$HCHDG,184.8,0.0,E,,*2C
$GPRMC,012250.6,A,4741.19573,N,12224.24282,W,000.21,000.0,170513,016.6,E,A*20
$PGRME,3.0,M,4.6,M,5.5,M*2F
$HCHDG,184.7,0.0,E,,*23
$HCHDG,184.5,0.0,E,,*21
$GPRMC,012250.8,A,4741.19560,N,12224.24311,W,000.20,000.0,170513,016.6,E,A*26
$PGRME,3.0,M,4.5,M,5.5,M*2C
$HCHDG,184.5,0.0,E,,*21
$HCHDG,184.3,0.0,E,,*27
$YXXDR*4F
$GPRMC,012251.0,A,4741.19546,N,12224.24324,W,000.16,000.0,170513,016.6,E,A*28
$PGRME,3.0,M,4.5,M,5.4,M*2D
$HCHDG,184.3,0.0,E,,*27
$HCHDG,184.2,0.0,E,,*26
$GPRMC,012251.2,A,4741.19534,N,12224.24338,W,000.17,000.0,170513,016.6,E,A*23
$GPRMB,A,0.24,L,,N,4741.0622,N,12224.6030,W,0.3,241,-0.08,V*61
$PGRME,3.0,M,4.4,M,5.4,M*2C
$HCHDG,184.2,0.0,E,,*26
$HCHDG,184.1,0.0,E,,*25
$GPRMC,012251.4,A,4741.19538,N,12224.24339,W,000.12,000.0,170513,016.6,E,A*2D
$PGRME,3.0,M,4.3,M,5.3,M*2C
$HCHDG,184.0,0.0,E,,*24
$YXXDR*4F
$HCHDG,183.9,0.0,E,,*2A
$GPRMC,012251.6,A,4741.19541,N,12224.24332,W,000.13,000.0,170513,016.6,E,A*2B
$PGRME,3.0,M,4.3,M,5.2,M*2D
$HCHDG,183.8,0.0,E,,*2B
$HCHDG,183.8,0.0,E,,*2B
$GPRMC,012251.8,A,4741.19546,N,12224.24326,W,000.11,000.0,170513,016.6,E,A*25
$PTAK,FFP1,HEEL,@*07
$PGRME,3.0,M,4.2,M,5.2,M*2C
$HCHDG,183.6,0.0,E,,*25
$HCHDG,183.5,0.0,E,,*26
$YXXDR*4F
$GPRMC,012252.0,A,4741.19549,N,12224.24327,W,000.10,000.0,170513,016.6,E,A*21
$PGRME,3.0,M,4.1,M,5.1,M*2C
$HCHDG,183.5,0.0,E,,*26
$HCHDG,183.4,0.0,E,,*27
$GPRMC,012252.2,A,4741.19554,N,12224.24322,W,000.09,000.0,170513,016.6,E,A*22
$GPRMB,A,0.24,L,,N,4741.0622,N,12224.6030,W,0.3,241,-0.04,V*6D
$PGRME,3.0,M,4.1,M,5.1,M*2C
$HCHDG,183.4,0.0,E,,*27
$HCHDG,183.3,0.0,E,,*20
$GPRMC,012252.4,A,4741.19557,N,12224.24326,W,000.08,000.0,170513,016.6,E,A*22
$PGRME,3.0,M,4.0,M,5.0,M*2C
$HCHDG,183.2,0.0,E,,*21
$YXXDR*4F
$HCHDG,183.2,0.0,E,,*21
$GPRMC,012252.6,A,4741.19554,N,12224.24319,W,000.04,000.0,170513,016.6,E,A*23
$PGRME,3.0,M,4.0,M,5.0,M*2C
$HCHDG,183.2,0.0,E,,*21
$HCHDG,183.1,0.0,E,,*22
$GPRMC,012252.8,A,4741.19556,N,12224.24304,W,000.04,000.0,170513,016.6,E,A*23
$PGRME,3.0,M,3.9,M,5.0,M*22
$HCHDG,183.0,0.0,E,,*23
$HCHDG,183.0,0.0,E,,*23
$YXXDR*4F
$GPRMC,012253.0,A,4741.19568,N,12224.24274,W,000.07,000.0,170513,016.6,E,A*22
$PGRME,3.0,M,3.9,M,4.9,M*2A
$HCHDG,183.0,0.0,E,,*23
$HCHDG,182.9,0.0,E,,*2B
$GPRMC,012253.2,A,4741.19582,N,12224.24252,W,000.04,000.0,170513,016.6,E,A*23
$PGRME,3.0,M,3.8,M,4.9,M*2B
$HCHDG,182.9,0.0,E,,*2B
$HCHDG,182.8,0.0,E,,*2A
$GPRMC,012253.4,A,4741.19591,N,12224.24233,W,000.04,000.0,170513,016.6,E,A*20
$GPRMB,A,0.24,L,,N,4741.0622,N,12224.6030,W,0.3,241,-0.02,V*6B
$PGRME,3.0,M,3.8,M,4.9,M*2B
$HCHDG,182.8,0.0,E,,*2A
$YXXDR*4F
$HCHDG,182.8,0.0,E,,*2A
$GPRMC,012253.6,A,4741.19591,N,12224.24226,W,000.04,000.0,170513,016.6,E,A*26
$PGRME,3.0,M,3.8,M,4.8,M*2A
$HCHDG,182.8,0.0,E,,*2A
$HCHDG,182.8,0.0,E,,*2A
$GPRMC,012253.8,A,4741.19581,N,12224.24215,W,000.06,000.0,170513,016.6,E,A*2B
$PGRME,3.0,M,3.7,M,4.8,M*25
$HCHDG,182.9,0.0,E,,*2B
$HCHDG,182.9,0.0,E,,*2B
$YXXDR*4F
$GPRMC,012254.0,A,4741.19582,N,12224.24220,W,000.09,000.0,170513,016.6,E,A*2E
$PGRME,3.0,M,3.7,M,4.8,M*25
$HCHDG,182.9,0.0,E,,*2B
$HCHDG,182.9,0.0,E,,*2B
$GPRMC,012254.2,A,4741.19585,N,12224.24224,W,000.05,000.0,170513,016.6,E,A*23
$PGRME,3.0,M,3.6,M,4.7,M*2B
$HCHDG,182.9,0.0,E,,*2B
$HCHDG,182.8,0.0,E,,*2A
$GPRMC,012254.4,A,4741.19583,N,12224.24226,W,000.07,000.0,170513,016.6,E,A*23
$GPRMB,A,0.24,L,,N,4741.0622,N,12224.6030,W,0.3,241,-0.03,V*6A
$PGRME,3.0,M,3.6,M,4.7,M*2B
$HCHDG,183.0,0.0,E,,*23
$YXXDR*4F
$HCHDG,183.0,0.0,E,,*23
$GPRMC,012254.6,A,4741.19579,N,12224.24229,W,000.07,000.0,170513,016.6,E,A*2B
$PGRME,3.0,M,3.5,M,4.7,M*28
$HCHDG,183.0,0.0,E,,*23
$HCHDG,182.9,0.0,E,,*2B
$GPRMC,012254.8,A,4741.19569,N,12224.24239,W,000.09,000.0,170513,016.6,E,A*2B
$PGRME,3.0,M,3.5,M,4.6,M*29
$HCHDG,182.9,0.0,E,,*2B
$HCHDG,182.9,0.0,E,,*2B
$YXXDR*4F
$GPRMC,012255.0,A,4741.19562,N,12224.24258,W,000.10,000.0,170513,016.6,E,A*26
$PGRME,3.0,M,3.5,M,4.6,M*29
$HCHDG,182.9,0.0,E,,*2B
$HCHDG,182.9,0.0,E,,*2B
$GPRMC,012255.2,A,4741.19563,N,12224.24272,W,000.10,000.0,170513,016.6,E,A*2D
$PGRME,3.0,M,3.4,M,4.6,M*28
$HCHDG,182.8,0.0,E,,*2A
$HCHDG,182.8,0.0,E,,*2A
$GPRMC,012255.4,A,4741.19563,N,12224.24279,W,000.12,000.0,170513,016.6,E,A*22
$GPRMB,A,0.24,L,,N,4741.0622,N,12224.6030,W,0.3,241,-0.06,V*6F
$PGRME,3.0,M,3.4,M,4.6,M*28
$HCHDG,182.8,0.0,E,,*2A
$YXXDR*4F
$HCHDG,182.8,0.0,E,,*2A
$GPRMC,012255.6,A,4741.19566,N,12224.24284,W,000.08,000.0,170513,016.6,E,A*2C
$PGRME,3.0,M,3.4,M,4.5,M*2B
$HCHDG,182.8,0.0,E,,*2A
$HCHDG,182.8,0.0,E,,*2A
$GPRMC,012255.8,A,4741.19566,N,12224.24290,W,000.12,000.0,170513,016.6,E,A*2C
$PTAK,FFP1,HEEL,@*07
$PGRME,3.0,M,3.3,M,4.5,M*2C
$HCHDG,182.9,0.0,E,,*2B
$HCHDG,182.8,0.0,E,,*2A
$YXXDR*4F
$GPRMC,012256.0,A,4741.19565,N,12224.24295,W,000.09,000.0,170513,016.6,E,A*2B
$PGRME,3.0,M,3.3,M,4.5,M*2C
$HCHDG,182.8,0.0,E,,*2A
$HCHDG,182.8,0.0,E,,*2A
$GPRMC,012256.2,A,4741.19566,N,12224.24298,W,000.10,000.0,170513,016.6,E,A*2F
$PGRME,3.0,M,3.3,M,4.5,M*2C
$HCHDG,182.8,0.0,E,,*2A
$HCHDG,182.8,0.0,E,,*2A
$GPRMC,012256.4,A,4741.19564,N,12224.24299,W,000.02,000.0,170513,016.6,E,A*29
$PGRME,3.0,M,3.3,M,4.5,M*2C
$HCHDG,182.8,0.0,E,,*2A
$YXXDR*4F
$HCHDG,182.9,0.0,E,,*2B
$GPRMC,012256.6,A,4741.19562,N,12224.24296,W,000.13,000.0,170513,016.6,E,A*22
$GPRMB,A,0.24,L,,N,4741.0622,N,12224.6030,W,0.3,241,-0.06,V*6F
$PGRME,3.0,M,3.2,M,4.4,M*2C
$HCHDG,182.9,0.0,E,,*2B
$HCHDG,182.9,0.0,E,,*2B
$GPRMC,012256.8,A,4741.19568,N,12224.24297,W,000.09,000.0,170513,016.6,E,A*2C
$PGRME,3.0,M,3.2,M,4.4,M*2C
$HCHDG,182.9,0.0,E,,*2B
$HCHDG,183.0,0.0,E,,*23
$YXXDR*4F
$GPRMC,012257.0,A,4741.19569,N,12224.24294,W,000.11,000.0,170513,016.6,E,A*2E
$PGRME,3.0,M,3.2,M,4.4,M*2C
$HCHDG,183.0,0.0,E,,*23
$HCHDG,183.0,0.0,E,,*23
$GPRMC,012257.2,A,4741.19571,N,12224.24292,W,000.11,000.0,170513,016.6,E,A*23
$PGRME,3.0,M,3.2,M,4.4,M*2C
$HCHDG,183.0,0.0,E,,*23
$HCHDG,183.0,0.0,E,,*23
$GPRMC,012257.4,A,4741.19569,N,12224.24287,W,000.09,000.0,170513,016.6,E,A*21
$PGRME,3.0,M,3.1,M,4.4,M*2F
$HCHDG,183.1,0.0,E,,*22
$YXXDR*4F
$HCHDG,183.2,0.0,E,,*21
$GPRMC,012257.6,A,4741.19568,N,12224.24276,W,000.10,000.0,170513,016.6,E,A*24
$GPRMB,A,0.24,L,,N,4741.0622,N,12224.6030,W,0.3,241,-0.05,V*6C
$PGRME,3.0,M,3.1,M,4.3,M*28
$HCHDG,183.2,0.0,E,,*21
$HCHDG,183.2,0.0,E,,*21
$GPRMC,012257.8,A,4741.19576,N,12224.24266,W,000.12,000.0,170513,016.6,E,A*26
$PGRME,3.0,M,3.1,M,4.3,M*28
$HCHDG,183.2,0.0,E,,*21
$HCHDG,183.3,0.0,E,,*20
$YXXDR*4F
$GPRMC,012258.0,A,4741.19581,N,12224.24263,W,000.11,000.0,170513,016.6,E,A*2F
$PGRME,3.0,M,3.1,M,4.3,M*28
$HCHDG,183.3,0.0,E,,*20
$HCHDG,183.3,0.0,E,,*20
$GPRMC,012258.2,A,4741.19581,N,12224.24264,W,000.11,000.0,170513,016.6,E,A*2A
$PGRME,3.0,M,3.0,M,4.3,M*29
$HCHDG,183.2,0.0,E,,*21
$HCHDG,183.2,0.0,E,,*21
$GPRMC,012258.4,A,4741.19576,N,12224.24268,W,000.11,000.0,170513,016.6,E,A*28
$PGRME,3.0,M,3.0,M,4.3,M*29
$HCHDG,183.3,0.0,E,,*20
$YXXDR*4F
$HCHDG,183.3,0.0,E,,*20
$GPRMC,012258.6,A,4741.19569,N,12224.24273,W,000.12,000.0,170513,016.6,E,A*2D
$GPRMB,A,0.24,L,,N,4741.0622,N,12224.6030,W,0.3,241,-0.06,V*6F
$PGRME,3.0,M,3.0,M,4.3,M*29
$HCHDG,183.2,0.0,E,,*21
$HCHDG,183.3,0.0,E,,*20
$GPRMC,012258.8,A,4741.19569,N,12224.24276,W,000.11,000.0,170513,016.6,E,A*25
$PGRME,3.0,M,3.0,M,4.3,M*29
$HCHDG,183.3,0.0,E,,*20
$HCHDG,183.4,0.0,E,,*27
$YXXDR*4F
$GPRMC,012259.0,A,4741.19569,N,12224.24282,W,000.11,000.0,170513,016.6,E,A*27
$PGRME,3.0,M,3.0,M,4.3,M*29
$HCHDG,183.3,0.0,E,,*20
$HCHDG,183.3,0.0,E,,*20
$GPRMC,012259.2,A,4741.19567,N,12224.24284,W,000.13,000.0,170513,016.6,E,A*2F
$PGRME,3.0,M,3.0,M,4.3,M*29
$HCHDG,183.3,0.0,E,,*20
$HCHDG,183.2,0.0,E,,*21
$GPRMC,012259.4,A,4741.19569,N,12224.24280,W,000.12,000.0,170513,016.6,E,A*22
$PGRME,3.0,M,3.0,M,4.3,M*29
$HCHDG,183.3,0.0,E,,*20
$YXXDR*4F
$HCHDG,183.3,0.0,E,,*20
$GPRMC,012259.6,A,4741.19580,N,12224.24281,W,000.11,000.0,170513,016.6,E,A*25
$PGRME,3.0,M,3.0,M,4.3,M*29
$HCHDG,183.3,0.0,E,,*20
$HCHDG,183.4,0.0,E,,*27
$GPRMC,012259.8,A,4741.19588,N,12224.24287,W,000.11,000.0,170513,016.6,E,A*25
$GPRMB,A,0.24,L,,N,4741.0622,N,12224.6030,W,0.3,241,-0.05,V*6C
$PGRME,3.0,M,3.0,M,4.3,M*29
$HCHDG,183.5,0.0,E,,*26
$PTAK,FFP1,HEEL,@*07
$HCHDG,183.5,0.0,E,,*26
$YXXDR*4F
$GPRMC,012300.0,A,4741.19592,N,12224.24291,W,000.11,000.0,170513,016.6,E,A*2C
$PGRME,3.0,M,3.0,M,4.3,M*29
$HCHDG,183.7,0.0,E,,*24
$HCHDG,183.7,0.0,E,,*24
$GPRMC,012300.2,A,4741.19592,N,12224.24292,W,000.13,000.0,170513,016.6,E,A*2F
$PGRME,3.0,M,3.0,M,4.3,M*29
$HCHDG,183.8,0.0,E,,*2B
$HCHDG,184.0,0.0,E,,*24
$GPRMC,012300.4,A,4741.19593,N,12224.24291,W,000.12,000.0,170513,016.6,E,A*2A
$PGRME,3.0,M,3.0,M,4.3,M*29
$HCHDG,184.1,0.0,E,,*25
$YXXDR*4F
$HCHDG,184.2,0.0,E,,*26
$GPRMC,012300.6,A,4741.19593,N,12224.24290,W,000.12,000.0,170513,016.6,E,A*29
$PGRME,3.0,M,3.0,M,4.3,M*29
$HCHDG,184.2,0.0,E,,*26
$HCHDG,184.3,0.0,E,,*27
$GPRMC,012300.8,A,4741.19593,N,12224.24289,W,000.15,000.0,170513,016.6,E,A*28
$GPRMB,A,0.24,L,,N,4741.0622,N,12224.6030,W,0.3,241,-0.07,V*6E
$PGRME,3.0,M,3.0,M,4.3,M*29
$HCHDG,184.4,0.0,E,,*20
$HCHDG,184.4,0.0,E,,*20
$YXXDR*4F
$GPRMC,012301.0,A,4741.19593,N,12224.24288,W,000.07,000.0,170513,016.6,E,A*23
$PGRME,3.0,M,3.0,M,4.3,M*29
$HCHDG,184.5,0.0,E,,*21
$HCHDG,184.6,0.0,E,,*22
$GPRMC,012301.2,A,4741.19593,N,12224.24288,W,000.07,000.0,170513,016.6,E,A*21
$PGRME,3.0,M,3.0,M,4.3,M*29
$HCHDG,184.6,0.0,E,,*22
$HCHDG,184.5,0.0,E,,*21
$GPRMC,012301.4,A,4741.19593,N,12224.24288,W,000.11,000.0,170513,016.6,E,A*20
$PGRME,3.0,M,3.0,M,4.3,M*29
$HCHDG,184.7,0.0,E,,*23
$YXXDR*4F
$HCHDG,184.6,0.0,E,,*22
$GPRMC,012301.6,A,4741.19594,N,12224.24288,W,000.12,000.0,170513,016.6,E,A*26
$PGRME,3.0,M,3.0,M,4.3,M*29
$HCHDG,184.8,0.0,E,,*2C
$HCHDG,184.8,0.0,E,,*2C
$GPRMC,012301.8,A,4741.19594,N,12224.24287,W,000.13,000.0,170513,016.6,E,A*26
$GPRMB,A,0.24,L,,N,4741.0622,N,12224.6030,W,0.3,241,-0.06,V*6F
$PGRME,3.0,M,3.0,M,4.3,M*29
$HCHDG,184.9,0.0,E,,*2D
$HCHDG,185.0,0.0,E,,*25
$YXXDR*4F
$GPRMC,012302.0,A,4741.19594,N,12224.24286,W,000.07,000.0,170513,016.6,E,A*29
$PGRME,3.0,M,3.0,M,4.3,M*29
$HCHDG,185.0,0.0,E,,*25
$HCHDG,185.1,0.0,E,,*24
$GPRMC,012302.2,A,4741.19594,N,12224.24285,W,000.11,000.0,170513,016.6,E,A*2F
$PGRME,3.0,M,3.0,M,4.3,M*29
$HCHDG,185.2,0.0,E,,*27
$HCHDG,185.3,0.0,E,,*26
$GPRMC,012302.4,A,4741.19594,N,12224.24284,W,000.16,000.0,170513,016.6,E,A*2F
$PGRME,3.0,M,3.0,M,4.3,M*29
$HCHDG,185.3,0.0,E,,*26
$YXXDR*4F
$HCHDG,185.4,0.0,E,,*21
$GPRMC,012302.6,A,4741.19595,N,12224.24283,W,000.16,000.0,170513,016.6,E,A*2B
$PGRME,3.0,M,3.0,M,4.3,M*29
$HCHDG,185.5,0.0,E,,*20
$HCHDG,185.6,0.0,E,,*23
$GPRMC,012302.8,A,4741.19595,N,12224.24282,W,000.16,000.0,170513,016.6,E,A*24
$GPRMB,A,0.24,L,,N,4741.0622,N,12224.6030,W,0.3,241,-0.08,V*61
$PGRME,3.0,M,3.0,M,4.3,M*29
$HCHDG,185.8,0.0,E,,*2D
$HCHDG,185.9,0.0,E,,*2C
$YXXDR*4F
$GPRMC,012303.0,A,4741.19596,N,12224.24281,W,000.09,000.0,170513,016.6,E,A*23
$PGRME,3.0,M,3.0,M,4.3,M*29
$HCHDG,186.1,0.0,E,,*27
$HCHDG,186.2,0.0,E,,*24
$GPRMC,012303.2,A,4741.19596,N,12224.24281,W,000.07,000.0,170513,016.6,E,A*2F
$PGRME,3.0,M,3.0,M,4.3,M*29
$HCHDG,186.5,0.0,E,,*23
$PTAK,FFP1,HEEL,@*07
$HCHDG,186.6,0.0,E,,*20
$GPRMC,012303.4,A,4741.19596,N,12224.24280,W,000.07,000.0,170513,016.6,E,A*28
$PGRME,3.0,M,3.0,M,4.3,M*29
$HCHDG,186.7,0.0,E,,*21
$YXXDR*4F
$HCHDG,186.8,0.0,E,,*2E
$GPRMC,012303.6,A,4741.19596,N,12224.24280,W,000.04,000.0,170513,016.6,E,A*29
$PGRME,3.0,M,3.0,M,4.3,M*29
$HCHDG,187.1,0.0,E,,*26
$HCHDG,187.1,0.0,E,,*26
$GPRMC,012303.8,A,4741.19596,N,12224.24280,W,000.03,000.0,170513,016.6,E,A*20
$PGRME,3.0,M,3.0,M,4.3,M*29
$HCHDG,187.1,0.0,E,,*26
$HCHDG,187.3,0.0,E,,*24
$YXXDR*4F
$GPRMC,012304.0,A,4741.19596,N,12224.24280,W,000.04,000.0,170513,016.6,E,A*28
$PGRME,3.0,M,3.0,M,4.3,M*29
$HCHDG,187.4,0.0,E,,*23
$HCHDG,187.6,0.0,E,,*21
$GPRMC,012304.2,A,4741.19596,N,12224.24280,W,000.09,000.0,170513,016.6,E,A*27
$PGRME,3.0,M,3.0,M,4.3,M*29
$HCHDG,187.6,0.0,E,,*21
$HCHDG,187.7,0.0,E,,*20
$GPRMC,012304.4,A,4741.19595,N,12224.24280,W,000.14,000.0,170513,016.6,E,A*2E
$PGRME,3.0,M,3.0,M,4.3,M*29
$HCHDG,187.7,0.0,E,,*20
$YXXDR*4F
$HCHDG,187.8,0.0,E,,*2F
$GPRMC,012304.6,A,4741.19595,N,12224.24280,W,000.18,000.0,170513,016.6,E,A*20
$PGRME,3.0,M,3.0,M,4.3,M*29
$HCHDG,187.8,0.0,E,,*2F
$HCHDG,187.8,0.0,E,,*2F
$GPRMC,012304.8,A,4741.19594,N,12224.24280,W,000.25,000.0,170513,016.6,E,A*21
$GPRMB,A,0.24,L,,N,4741.0622,N,12224.6030,W,0.3,241,-0.12,V*6A
$PGRME,3.0,M,3.0,M,4.3,M*29
$HCHDG,187.8,0.0,E,,*2F
$HCHDG,187.9,0.0,E,,*2E
$YXXDR*4F
$GPRMC,012305.0,A,4741.19592,N,12224.24280,W,000.31,000.0,170513,016.6,E,A*2B
$PGRME,3.0,M,3.0,M,4.3,M*29
$HCHDG,187.7,0.0,E,,*20
$HCHDG,187.6,0.0,E,,*21
$GPRMC,012305.2,A,4741.19591,N,12224.24281,W,000.33,000.0,170513,016.6,E,A*29
$PGRME,3.0,M,3.0,M,4.3,M*29
$HCHDG,187.5,0.0,E,,*22
$HCHDG,187.5,0.0,E,,*22
$GPRMC,012305.4,A,4741.19589,N,12224.24280,W,000.19,000.0,170513,016.6,E,A*2F
$PGRME,3.0,M,3.0,M,4.3,M*29
$HCHDG,187.4,0.0,E,,*23
$YXXDR*4F
$HCHDG,187.3,0.0,E,,*24
$GPRMC,012305.6,A,4741.19588,N,12224.24282,W,000.20,000.0,170513,016.6,E,A*24
$PGRME,3.0,M,3.0,M,4.3,M*29
$HCHDG,187.1,0.0,E,,*26
$HCHDG,187.0,0.0,E,,*27
$GPRMC,012305.8,A,4741.19587,N,12224.24283,W,000.15,000.0,170513,016.6,E,A*22
$GPRMB,A,0.24,L,,N,4741.0622,N,12224.6030,W,0.3,241,-0.07,V*6E
$PGRME,3.0,M,3.0,M,4.3,M*29
$HCHDG,186.9,0.0,E,,*2F
$HCHDG,186.9,0.0,E,,*2F
$YXXDR*4F
$GPRMC,012306.0,A,4741.19586,N,12224.24284,W,000.16,000.0,170513,016.6,E,A*2C
$PGRME,3.0,M,3.0,M,4.3,M*29
$HCHDG,186.7,0.0,E,,*21
$HCHDG,186.6,0.0,E,,*20
$GPRMC,012306.2,A,4741.19586,N,12224.24284,W,000.16,000.0,170513,016.6,E,A*2E
$PGRME,3.0,M,3.0,M,4.3,M*29
$HCHDG,186.5,0.0,E,,*23
$HCHDG,186.4,0.0,E,,*22
$GPRMC,012306.4,A,4741.19585,N,12224.24285,W,000.19,000.0,170513,016.6,E,A*25
$PGRME,3.0,M,3.0,M,4.3,M*29
$HCHDG,186.4,0.0,E,,*22
$YXXDR*4F
$HCHDG,186.2,0.0,E,,*24
$GPRMC,012306.6,A,4741.19584,N,12224.24286,W,000.22,000.0,170513,016.6,E,A*2D
$PGRME,3.0,M,3.0,M,4.3,M*29
$HCHDG,186.2,0.0,E,,*24
$HCHDG,186.2,0.0,E,,*24
$GPRMC,012306.8,A,4741.19583,N,12224.24287,W,000.27,000.0,170513,016.6,E,A*20
$GPRMB,A,0.24,L,,N,4741.0622,N,12224.6030,W,0.3,241,-0.13,V*6B
$PGRME,3.0,M,3.0,M,4.3,M*29
$HCHDG,186.0,0.0,E,,*26
$HCHDG,185.9,0.0,E,,*2C
$YXXDR*4F
$GPRMC,012307.0,A,4741.19581,N,12224.24288,W,000.23,000.0,170513,016.6,E,A*20
$PGRME,3.0,M,3.0,M,4.3,M*29
$HCHDG,185.7,0.0,E,,*22
$HCHDG,185.6,0.0,E,,*23
$GPRMC,012307.2,A,4741.19580,N,12224.24289,W,000.25,000.0,170513,016.6,E,A*24
$PGRME,3.0,M,3.0,M,4.3,M*29
$HCHDG,185.4,0.0,E,,*21
$HCHDG,185.3,0.0,E,,*26
$GPRMC,012307.4,A,4741.19579,N,12224.24290,W,000.23,000.0,170513,016.6,E,A*2A
$PGRME,3.0,M,3.0,M,4.3,M*29
$HCHDG,185.2,0.0,E,,*27
$YXXDR*4F
$HCHDG,185.1,0.0,E,,*24
$GPRMC,012307.6,A,4741.19578,N,12224.24291,W,000.29,000.0,170513,016.6,E,A*22
$PGRME,3.0,M,3.0,M,4.3,M*29
$HCHDG,185.0,0.0,E,,*25
$HCHDG,184.9,0.0,E,,*2D
$GPRMC,012307.8,A,4741.19577,N,12224.24292,W,000.16,000.0,170513,016.6,E,A*2C
$GPRMB,A,0.24,L,,N,4741.0622,N,12224.6030,W,0.3,241,-0.08,V*61
$PGRME,3.0,M,3.0,M,4.3,M*29
$HCHDG,184.8,0.0,E,,*2C
$HCHDG,184.7,0.0,E,,*23
$YXXDR*4F
$GPRMC,012308.0,A,4741.19576,N,12224.24292,W,000.31,000.0,170513,016.6,E,A*2F
$PTAK,FFP1,HEEL,@*07
$PGRME,3.0,M,3.0,M,4.3,M*29
$HCHDG,184.6,0.0,E,,*22
$HCHDG,184.4,0.0,E,,*20
$GPRMC,012308.2,A,4741.19574,N,12224.24293,W,000.39,000.0,170513,016.6,E,A*26
$PGRME,3.0,M,3.0,M,4.3,M*29
$HCHDG,184.4,0.0,E,,*20
$HCHDG,184.2,0.0,E,,*26
$GPRMC,012308.4,A,4741.19572,N,12224.24294,W,000.12,000.0,170513,016.6,E,A*28
$PGRME,3.0,M,3.0,M,4.3,M*29
$HCHDG,184.0,0.0,E,,*24
$YXXDR*4F
$HCHDG,183.9,0.0,E,,*2A
$GPRMC,012308.6,A,4741.19571,N,12224.24294,W,000.07,000.0,170513,016.6,E,A*2D
$PGRME,3.0,M,3.0,M,4.3,M*29
$HCHDG,183.8,0.0,E,,*2B
$HCHDG,183.7,0.0,E,,*24
$GPRMC,012308.8,A,4741.19571,N,12224.24294,W,000.09,000.0,170513,016.6,E,A*2D
$PGRME,3.0,M,3.0,M,4.3,M*29
$HCHDG,183.4,0.0,E,,*27
$HCHDG,183.4,0.0,E,,*27
$YXXDR*4F
$GPRMC,012309.0,A,4741.19571,N,12224.24295,W,000.11,000.0,170513,016.6,E,A*2C
$GPRMB,A,0.24,L,,N,4741.0622,N,12224.6030,W,0.3,241,-0.05,V*6C
$PGRME,3.0,M,3.0,M,4.3,M*29
$HCHDG,183.3,0.0,E,,*20
$HCHDG,183.2,0.0,E,,*21
$GPRMC,012309.2,A,4741.19570,N,12224.24294,W,000.08,000.0,170513,016.6,E,A*26
$PGRME,3.0,M,3.0,M,4.3,M*29
$HCHDG,183.1,0.0,E,,*22
$HCHDG,183.0,0.0,E,,*23
$GPRMC,012309.4,A,4741.19570,N,12224.24294,W,000.07,000.0,170513,016.6,E,A*2F
$PGRME,3.0,M,3.0,M,4.3,M*29
$HCHDG,182.9,0.0,E,,*2B
$YXXDR*4F
$HCHDG,182.9,0.0,E,,*2B
$GPRMC,012309.6,A,4741.19570,N,12224.24294,W,000.09,000.0,170513,016.6,E,A*23
$PGRME,3.0,M,3.0,M,4.3,M*29
$HCHDG,182.8,0.0,E,,*2A
$HCHDG,182.7,0.0,E,,*25
$GPRMC,012309.8,A,4741.19570,N,12224.24295,W,000.02,000.0,170513,016.6,E,A*27
$PGRME,3.0,M,3.0,M,4.3,M*29
$HCHDG,182.7,0.0,E,,*25
$HCHDG,182.6,0.0,E,,*24
$YXXDR*4F
$GPRMC,012310.0,A,4741.19570,N,12224.24295,W,000.05,000.0,170513,016.6,E,A*20
$PGRME,3.0,M,3.0,M,4.3,M*29
$HCHDG,182.6,0.0,E,,*24
$HCHDG,182.6,0.0,E,,*24
$GPRMC,012310.2,A,4741.19570,N,12224.24295,W,000.02,000.0,170513,016.6,E,A*25
$GPRMB,A,0.24,L,,N,4741.0622,N,12224.6030,W,0.3,241,-0.01,V*68
$PGRME,3.0,M,3.0,M,4.3,M*29
$HCHDG,182.7,0.0,E,,*25
$HCHDG,182.8,0.0,E,,*2A
$GPRMC,012310.4,A,4741.19570,N,12224.24296,W,000.01,000.0,170513,016.6,E,A*23
$PGRME,3.0,M,3.0,M,4.3,M*29
$HCHDG,182.8,0.0,E,,*2A
$YXXDR*4F
$HCHDG,182.9,0.0,E,,*2B
$GPRMC,012310.6,A,4741.19570,N,12224.24296,W,000.01,000.0,170513,016.6,E,A*21
$PGRME,3.0,M,3.0,M,4.3,M*29
$HCHDG,182.9,0.0,E,,*2B
$HCHDG,183.0,0.0,E,,*23
$GPRMC,012310.8,A,4741.19570,N,12224.24296,W,000.01,000.0,170513,016.6,E,A*2F
$PGRME,3.0,M,3.0,M,4.3,M*29
$HCHDG,183.1,0.0,E,,*22
$HCHDG,183.1,0.0,E,,*22
$YXXDR*4F
$GPRMC,012311.0,A,4741.19570,N,12224.24296,W,000.02,000.0,170513,016.6,E,A*25
$PGRME,3.0,M,3.0,M,4.3,M*29
$HCHDG,183.2,0.0,E,,*21
$HCHDG,183.2,0.0,E,,*21
$GPRMC,012311.2,A,4741.19570,N,12224.24296,W,000.02,000.0,170513,016.6,E,A*27
$GPRMB,A,0.24,L,,N,4741.0622,N,12224.6030,W,0.3,241,-0.01,V*68
$PGRME,3.0,M,3.0,M,4.3,M*29
$HCHDG,183.2,0.0,E,,*21
$HCHDG,183.3,0.0,E,,*20
$GPRMC,012311.4,A,4741.19570,N,12224.24296,W,000.02,000.0,170513,016.6,E,A*21
$PGRME,3.0,M,3.0,M,4.3,M*29
$HCHDG,183.3,0.0,E,,*20
$YXXDR*4F
$HCHDG,183.2,0.0,E,,*21
$GPRMC,012311.6,A,4741.19570,N,12224.24295,W,000.06,000.0,170513,016.6,E,A*24
$PGRME,3.0,M,3.0,M,4.3,M*29
$HCHDG,183.1,0.0,E,,*22
$HCHDG,183.0,0.0,E,,*23
$GPRMC,012311.8,A,4741.19569,N,12224.24295,W,000.07,000.0,170513,016.6,E,A*23
$PGRME,3.0,M,3.0,M,4.3,M*29
$HCHDG,183.0,0.0,E,,*23
$HCHDG,182.8,0.0,E,,*2A
$YXXDR*4F
$GPRMC,012312.0,A,4741.19569,N,12224.24295,W,000.06,000.0,170513,016.6,E,A*29
$PGRME,3.0,M,3.0,M,4.3,M*29
$HCHDG,182.8,0.0,E,,*2A
$PTAK,FFP1,HEEL,@*07
$HCHDG,182.7,0.0,E,,*25
$GPRMC,012312.2,A,4741.19569,N,12224.24295,W,000.04,000.0,170513,016.6,E,A*29
$PGRME,3.0,M,3.0,M,4.3,M*29
$HCHDG,182.8,0.0,E,,*2A
$HCHDG,182.7,0.0,E,,*25
$GPRMC,012312.4,A,4741.19568,N,12224.24295,W,000.03,000.0,170513,016.6,E,A*29
$GPRMB,A,0.24,L,,N,4741.0622,N,12224.6030,W,0.3,241,-0.01,V*68
$PGRME,3.0,M,3.0,M,4.3,M*29
$HCHDG,182.6,0.0,E,,*24
$YXXDR*4F
$HCHDG,182.5,0.0,E,,*27
$GPRMC,012312.6,A,4741.19568,N,12224.24295,W,000.03,000.0,170513,016.6,E,A*2B
$PGRME,3.0,M,3.0,M,4.3,M*29
$HCHDG,182.5,0.0,E,,*27
$HCHDG,182.4,0.0,E,,*26
$GPRMC,012312.8,A,4741.19568,N,12224.24294,W,000.03,000.0,170513,016.6,E,A*24
$PGRME,3.0,M,3.0,M,4.3,M*29
$HCHDG,182.4,0.0,E,,*26
$HCHDG,182.5,0.0,E,,*27
$YXXDR*4F
$GPRMC,012313.0,A,4741.19568,N,12224.24294,W,000.01,000.0,170513,016.6,E,A*2F
$PGRME,3.0,M,3.0,M,4.3,M*29
$HCHDG,182.4,0.0,E,,*26
$HCHDG,182.4,0.0,E,,*26
$GPRMC,012313.2,A,4741.19568,N,12224.24294,W,000.02,000.0,170513,016.6,E,A*2E
$PGRME,3.0,M,3.0,M,4.3,M*29
$HCHDG,182.4,0.0,E,,*26
$HCHDG,182.4,0.0,E,,*26
$GPRMC,012313.4,A,4741.19568,N,12224.24293,W,000.02,000.0,170513,016.6,E,A*2F
$GPRMB,A,0.24,L,,N,4741.0622,N,12224.6030,W,0.3,241,-0.01,V*68
$PGRME,3.0,M,3.0,M,4.3,M*29
$HCHDG,182.4,0.0,E,,*26
$YXXDR*4F
$HCHDG,182.4,0.0,E,,*26
$GPRMC,012313.6,A,4741.19568,N,12224.24293,W,000.02,000.0,170513,016.6,E,A*2D
$PGRME,3.0,M,3.0,M,4.3,M*29
$HCHDG,182.5,0.0,E,,*27
$HCHDG,182.8,0.0,E,,*2A
$GPRMC,012313.8,A,4741.19568,N,12224.24293,W,000.01,000.0,170513,016.6,E,A*20
$PGRME,3.0,M,3.0,M,4.3,M*29
$HCHDG,182.9,0.0,E,,*2B
$HCHDG,183.0,0.0,E,,*23
$YXXDR*4F
$GPRMC,012314.0,A,4741.19568,N,12224.24293,W,000.01,000.0,170513,016.6,E,A*2F
$PGRME,3.0,M,3.0,M,4.3,M*29
$HCHDG,183.1,0.0,E,,*22
$HCHDG,183.2,0.0,E,,*21
$GPRMC,012314.2,A,4741.19568,N,12224.24293,W,000.01,000.0,170513,016.6,E,A*2D
$PGRME,3.0,M,3.0,M,4.3,M*29
$HCHDG,183.3,0.0,E,,*20
$HCHDG,183.3,0.0,E,,*20
$GPRMC,012314.4,A,4741.19568,N,12224.24293,W,000.01,000.0,170513,016.6,E,A*2B
$GPRMB,A,0.24,L,,N,4741.0622,N,12224.6030,W,0.3,241,-0.00,V*69
$PGRME,3.0,M,3.0,M,4.3,M*29
$HCHDG,183.4,0.0,E,,*27
$YXXDR*4F
$HCHDG,183.3,0.0,E,,*20
$GPRMC,012314.6,A,4741.19568,N,12224.24294,W,000.02,000.0,170513,016.6,E,A*2D
$PGRME,3.0,M,3.0,M,4.3,M*29
$HCHDG,183.3,0.0,E,,*20
$HCHDG,183.4,0.0,E,,*27
$GPRMC,012314.8,A,4741.19568,N,12224.24294,W,000.02,000.0,170513,016.6,E,A*23
$PGRME,3.0,M,3.0,M,4.3,M*29
$HCHDG,183.4,0.0,E,,*27
$HCHDG,183.4,0.0,E,,*27
$YXXDR*4F
$GPRMC,012315.0,A,4741.19568,N,12224.24293,W,000.02,000.0,170513,016.6,E,A*2D
$PGRME,3.0,M,3.0,M,4.3,M*29
$HCHDG,183.4,0.0,E,,*27
$HCHDG,183.2,0.0,E,,*21
$GPRMC,012315.2,A,4741.19568,N,12224.24293,W,000.01,000.0,170513,016.6,E,A*2C
$PGRME,3.0,M,3.0,M,4.3,M*29
$HCHDG,183.2,0.0,E,,*21
$HCHDG,183.2,0.0,E,,*21
$GPRMC,012315.4,A,4741.19568,N,12224.24293,W,000.01,000.0,170513,016.6,E,A*2A
$GPRMB,A,0.24,L,,N,4741.0622,N,12224.6030,W,0.3,241,-0.00,V*69
$PGRME,3.0,M,3.0,M,4.3,M*29
$HCHDG,183.1,0.0,E,,*22
$YXXDR*4F
$HCHDG,183.1,0.0,E,,*22
$GPRMC,012315.6,A,4741.19568,N,12224.24293,W,000.01,000.0,170513,016.6,E,A*28
$PGRME,3.0,M,3.0,M,4.3,M*29
$HCHDG,183.1,0.0,E,,*22
$HCHDG,183.1,0.0,E,,*22
$GPRMC,012315.8,A,4741.19568,N,12224.24292,W,000.01,000.0,170513,016.6,E,A*27
$PGRME,3.0,M,3.0,M,4.3,M*29
$HCHDG,183.2,0.0,E,,*21
$HCHDG,183.1,0.0,E,,*22
$YXXDR*4F
$GPRMC,012316.0,A,4741.19568,N,12224.24292,W,000.02,000.0,170513,016.6,E,A*2F
$PGRME,3.0,M,3.0,M,4.3,M*29
$HCHDG,183.2,0.0,E,,*21
$HCHDG,183.2,0.0,E,,*21
$PTAK,FFP1,HEEL,@*07
$GPRMC,012316.2,A,4741.19567,N,12224.24292,W,000.03,000.0,170513,016.6,E,A*23
$PGRME,3.0,M,3.0,M,4.3,M*29
$HCHDG,183.3,0.0,E,,*20
$HCHDG,183.3,0.0,E,,*20
$GPRMC,012316.4,A,4741.19567,N,12224.24292,W,000.04,000.0,170513,016.6,E,A*22
$GPRMB,A,0.24,L,,N,4741.0622,N,12224.6030,W,0.3,241,-0.02,V*6B
$PGRME,3.0,M,3.0,M,4.3,M*29
$HCHDG,183.4,0.0,E,,*27
$YXXDR*4F
$HCHDG,183.4,0.0,E,,*27
$GPRMC,012316.6,A,4741.19567,N,12224.24292,W,000.05,000.0,170513,016.6,E,A*21
$PGRME,3.0,M,3.0,M,4.3,M*29
$HCHDG,183.5,0.0,E,,*26
$HCHDG,183.5,0.0,E,,*26
$GPRMC,012316.8,A,4741.19567,N,12224.24291,W,000.06,000.0,170513,016.6,E,A*2F
$PGRME,3.0,M,3.0,M,4.3,M*29
$HCHDG,183.5,0.0,E,,*26
$HCHDG,183.5,0.0,E,,*26
$YXXDR*4F
$GPRMC,012317.0,A,4741.19567,N,12224.24291,W,000.07,000.0,170513,016.6,E,A*27
$PGRME,3.0,M,3.0,M,4.3,M*29
$HCHDG,183.5,0.0,E,,*26
$HCHDG,183.4,0.0,E,,*27
$GPRMC,012317.2,A,4741.19567,N,12224.24291,W,000.08,000.0,170513,016.6,E,A*2A
$PGRME,3.0,M,3.0,M,4.3,M*29
$HCHDG,183.4,0.0,E,,*27
$HCHDG,183.4,0.0,E,,*27
$GPRMC,012317.4,A,4741.19566,N,12224.24291,W,000.08,000.0,170513,016.6,E,A*2D
$GPRMB,A,0.24,L,,N,4741.0622,N,12224.6030,W,0.3,241,-0.04,V*6D
$PGRME,3.1,M,3.0,M,4.3,M*28
$HCHDG,183.3,0.0,E,,*20
$YXXDR*4F
$HCHDG,183.2,0.0,E,,*21
$GPRMC,012317.6,A,4741.19566,N,12224.24290,W,000.07,000.0,170513,016.6,E,A*21
$PGRME,3.1,M,3.0,M,4.3,M*28
$HCHDG,183.2,0.0,E,,*21
$HCHDG,183.1,0.0,E,,*22
$GPRMC,012317.8,A,4741.19565,N,12224.24290,W,000.07,000.0,170513,016.6,E,A*2C
$PGRME,3.0,M,3.0,M,4.3,M*29
$HCHDG,183.1,0.0,E,,*22
$HCHDG,183.0,0.0,E,,*23
$YXXDR*4F
$GPRMC,012318.0,A,4741.19565,N,12224.24290,W,000.08,000.0,170513,016.6,E,A*24
$PGRME,3.0,M,3.0,M,4.3,M*29
$HCHDG,182.9,0.0,E,,*2B
$HCHDG,182.8,0.0,E,,*2A
$GPRMC,012318.2,A,4741.19564,N,12224.24290,W,000.09,000.0,170513,016.6,E,A*26
$PGRME,3.0,M,3.0,M,4.3,M*29
$HCHDG,182.7,0.0,E,,*25
$HCHDG,182.7,0.0,E,,*25
$GPRMC,012318.4,A,4741.19564,N,12224.24291,W,000.08,000.0,170513,016.6,E,A*20
$PGRME,3.0,M,3.0,M,4.3,M*29
$HCHDG,182.6,0.0,E,,*24
$YXXDR*4F
$HCHDG,182.6,0.0,E,,*24
$GPRMC,012318.6,A,4741.19563,N,12224.24290,W,000.08,000.0,170513,016.6,E,A*24
$GPRMB,A,0.24,L,,N,4741.0622,N,12224.6030,W,0.3,241,-0.04,V*6D
$PGRME,3.0,M,3.0,M,4.3,M*29
$HCHDG,182.5,0.0,E,,*27
$HCHDG,182.5,0.0,E,,*27
$GPRMC,012318.8,A,4741.19563,N,12224.24290,W,000.08,000.0,170513,016.6,E,A*2A
$PGRME,3.0,M,3.0,M,4.3,M*29
$HCHDG,182.5,0.0,E,,*27
$HCHDG,182.4,0.0,E,,*26
$YXXDR*4F
$GPRMC,012319.0,A,4741.19563,N,12224.24290,W,000.08,000.0,170513,016.6,E,A*23
$PGRME,3.0,M,3.0,M,4.3,M*29
$HCHDG,182.3,0.0,E,,*21
$HCHDG,182.3,0.0,E,,*21
$GPRMC,012319.2,A,4741.19562,N,12224.24290,W,000.08,000.0,170513,016.6,E,A*20
$PGRME,3.0,M,3.0,M,4.3,M*29
$HCHDG,182.3,0.0,E,,*21
$HCHDG,182.3,0.0,E,,*21
$GPRMC,012319.4,A,4741.19562,N,12224.24289,W,000.08,000.0,170513,016.6,E,A*2E
$PGRME,3.0,M,3.0,M,4.3,M*29
$HCHDG,182.3,0.0,E,,*21
$YXXDR*4F
$HCHDG,182.3,0.0,E,,*21
$GPRMC,012319.6,A,4741.19562,N,12224.24289,W,000.08,000.0,170513,016.6,E,A*2C
$PGRME,3.0,M,3.0,M,4.3,M*29
$HCHDG,182.2,0.0,E,,*20
$HCHDG,182.2,0.0,E,,*20
$GPRMC,012319.8,A,4741.19561,N,12224.24288,W,000.08,000.0,170513,016.6,E,A*20
$GPRMB,A,0.24,L,,N,4741.0622,N,12224.6030,W,0.3,241,-0.04,V*6D
$PGRME,3.0,M,3.0,M,4.3,M*29
$HCHDG,182.2,0.0,E,,*20
$HCHDG,182.2,0.0,E,,*20
$YXXDR*4F
$GPRMC,012320.0,A,4741.19561,N,12224.24287,W,000.08,000.0,170513,016.6,E,A*2D
$PGRME,3.0,M,3.0,M,4.3,M*29
$HCHDG,182.2,0.0,E,,*20
$PTAK,FFP1,HEEL,@*07
$HCHDG,182.3,0.0,E,,*21
$GPRMC,012320.2,A,4741.19561,N,12224.24287,W,000.08,000.0,170513,016.6,E,A*2F
$PGRME,3.0,M,3.0,M,4.3,M*29
$HCHDG,182.3,0.0,E,,*21
$HCHDG,182.2,0.0,E,,*20
$GPRMC,012320.4,A,4741.19561,N,12224.24286,W,000.08,000.0,170513,016.6,E,A*28
$PGRME,3.0,M,3.0,M,4.3,M*29
$HCHDG,182.2,0.0,E,,*20
$YXXDR*4F
$HCHDG,182.2,0.0,E,,*20
$GPRMC,012320.6,A,4741.19560,N,12224.24285,W,000.07,000.0,170513,016.6,E,A*27
$PGRME,3.0,M,3.0,M,4.3,M*29
$HCHDG,182.1,0.0,E,,*23
$HCHDG,182.2,0.0,E,,*20
$GPRMC,012320.8,A,4741.19560,N,12224.24285,W,000.07,000.0,170513,016.6,E,A*29
$GPRMB,A,0.24,L,,N,4741.0622,N,12224.6030,W,0.3,241,-0.03,V*6A
$PGRME,3.0,M,3.0,M,4.3,M*29
$HCHDG,182.1,0.0,E,,*23
$HCHDG,182.0,0.0,E,,*22
$YXXDR*4F
$GPRMC,012321.0,A,4741.19560,N,12224.24285,W,000.06,000.0,170513,016.6,E,A*21
$PGRME,3.0,M,3.0,M,4.3,M*29
$HCHDG,181.9,0.0,E,,*28
$HCHDG,182.0,0.0,E,,*22
$GPRMC,012321.2,A,4741.19560,N,12224.24284,W,000.05,000.0,170513,016.6,E,A*21
$PGRME,3.0,M,3.0,M,4.3,M*29
$HCHDG,182.0,0.0,E,,*22
$HCHDG,181.9,0.0,E,,*28
$GPRMC,012321.4,A,4741.19559,N,12224.24284,W,000.03,000.0,170513,016.6,E,A*2B
$PGRME,3.0,M,3.0,M,4.3,M*29
$HCHDG,181.9,0.0,E,,*28
$YXXDR*4F
$HCHDG,181.9,0.0,E,,*28
$GPRMC,012321.6,A,4741.19559,N,12224.24284,W,000.01,000.0,170513,016.6,E,A*2B
$PGRME,3.0,M,3.0,M,4.3,M*29
$HCHDG,181.9,0.0,E,,*28
$HCHDG,181.9,0.0,E,,*28
$GPRMC,012321.8,A,4741.19559,N,12224.24284,W,000.01,000.0,170513,016.6,E,A*25
$PGRME,3.0,M,3.0,M,4.3,M*29
$HCHDG,181.9,0.0,E,,*28
$HCHDG,182.0,0.0,E,,*22
$YXXDR*4F
$GPRMC,012322.0,A,4741.19559,N,12224.24284,W,000.01,000.0,170513,016.6,E,A*2E
$GPRMB,A,0.24,L,,N,4741.0622,N,12224.6030,W,0.3,241,-0.00,V*69
$PGRME,3.0,M,3.0,M,4.3,M*29
$HCHDG,182.1,0.0,E,,*23
$HCHDG,182.1,0.0,E,,*23
$GPRMC,012322.2,A,4741.19559,N,12224.24284,W,000.01,000.0,170513,016.6,E,A*2C
$PGRME,3.0,M,3.0,M,4.3,M*29
$HCHDG,182.2,0.0,E,,*20
$HCHDG,182.3,0.0,E,,*21
$GPRMC,012322.4,A,4741.19559,N,12224.24284,W,000.01,000.0,170513,016.6,E,A*2A
$PGRME,3.0,M,3.0,M,4.3,M*29
$HCHDG,182.3,0.0,E,,*21
$YXXDR*4F
$HCHDG,182.5,0.0,E,,*27
$GPRMC,012322.6,A,4741.19559,N,12224.24284,W,000.01,000.0,170513,016.6,E,A*28
$PGRME,3.0,M,3.0,M,4.3,M*29
$HCHDG,182.5,0.0,E,,*27
$HCHDG,182.5,0.0,E,,*27
$GPRMC,012322.8,A,4741.19559,N,12224.24284,W,000.02,000.0,170513,016.6,E,A*25
$PGRME,3.0,M,3.0,M,4.3,M*29
$HCHDG,182.5,0.0,E,,*27
$HCHDG,182.6,0.0,E,,*24
$YXXDR*4F
$GPRMC,012323.0,A,4741.19559,N,12224.24284,W,000.02,000.0,170513,016.6,E,A*2C
$GPRMB,A,0.24,L,,N,4741.0622,N,12224.6030,W,0.3,241,-0.01,V*68
$PGRME,3.0,M,3.0,M,4.3,M*29
$HCHDG,182.5,0.0,E,,*27
$HCHDG,182.6,0.0,E,,*24
$GPRMC,012323.2,A,4741.19559,N,12224.24283,W,000.02,000.0,170513,016.6,E,A*29
$PGRME,3.0,M,3.0,M,4.3,M*29
$HCHDG,182.5,0.0,E,,*27
$HCHDG,182.5,0.0,E,,*27
$GPRMC,012323.4,A,4741.19559,N,12224.24283,W,000.02,000.0,170513,016.6,E,A*2F
$PGRME,3.0,M,3.0,M,4.3,M*29
$HCHDG,182.4,0.0,E,,*26
$YXXDR*4F
$HCHDG,182.4,0.0,E,,*26
$GPRMC,012323.6,A,4741.19559,N,12224.24283,W,000.02,000.0,170513,016.6,E,A*2D
$PGRME,3.0,M,3.0,M,4.3,M*29
$HCHDG,182.2,0.0,E,,*20
$HCHDG,182.1,0.0,E,,*23
$GPRMC,012323.8,A,4741.19560,N,12224.24283,W,000.04,000.0,170513,016.6,E,A*2F
$PGRME,3.0,M,3.0,M,4.3,M*29
$HCHDG,182.1,0.0,E,,*23
$HCHDG,181.9,0.0,E,,*28
$YXXDR*4F
$GPRMC,012324.0,A,4741.19560,N,12224.24283,W,000.04,000.0,170513,016.6,E,A*20
$PGRME,3.0,M,3.0,M,4.3,M*29
$HCHDG,181.7,0.0,E,,*26
$HCHDG,181.5,0.0,E,,*24
$PTAK,FFP1,HEEL,@*07
$GPRMC,012324.2,A,4741.19560,N,12224.24282,W,000.05,000.0,170513,016.6,E,A*22
$GPRMB,A,0.24,L,,N,4741.0622,N,12224.6030,W,0.3,241,-0.02,V*6B
$PGRME,3.0,M,3.0,M,4.3,M*29
$HCHDG,181.3,0.0,E,,*22
$HCHDG,181.3,0.0,E,,*22
$GPRMC,012324.4,A,4741.19559,N,12224.24282,W,000.06,000.0,170513,016.6,E,A*2D
$PGRME,3.0,M,3.0,M,4.3,M*29
$HCHDG,181.1,0.0,E,,*20
$YXXDR*4F
$HCHDG,181.0,0.0,E,,*21
$GPRMC,012324.6,A,4741.19559,N,12224.24283,W,000.07,000.0,170513,016.6,E,A*2F
$PGRME,3.0,M,3.0,M,4.3,M*29
$HCHDG,180.9,0.0,E,,*29
$HCHDG,180.7,0.0,E,,*27
$GPRMC,012324.8,A,4741.19558,N,12224.24283,W,000.07,000.0,170513,016.6,E,A*20
$PGRME,3.0,M,3.0,M,4.3,M*29
$HCHDG,180.6,0.0,E,,*26
$HCHDG,180.5,0.0,E,,*25
$YXXDR*4F
$GPRMC,012325.0,A,4741.19558,N,12224.24283,W,000.08,000.0,170513,016.6,E,A*26
$PGRME,3.0,M,3.0,M,4.3,M*29
$HCHDG,180.3,0.0,E,,*23
$HCHDG,180.2,0.0,E,,*22
$GPRMC,012325.2,A,4741.19557,N,12224.24283,W,000.09,000.0,170513,016.6,E,A*2A
$PGRME,3.0,M,3.0,M,4.3,M*29
$HCHDG,180.1,0.0,E,,*21
$HCHDG,179.9,0.0,E,,*2F
$GPRMC,012325.4,A,4741.19557,N,12224.24283,W,000.13,000.0,170513,016.6,E,A*27
$GPRMB,A,0.24,L,,N,4741.0622,N,12224.6030,W,0.3,241,-0.06,V*6F
$PGRME,3.0,M,3.0,M,4.3,M*29
$HCHDG,180.0,0.0,E,,*20
$YXXDR*4F
$HCHDG,179.8,0.0,E,,*2E
$GPRMC,012325.6,A,4741.19556,N,12224.24283,W,000.14,000.0,170513,016.6,E,A*23
$PGRME,3.0,M,3.0,M,4.3,M*29
$HCHDG,179.7,0.0,E,,*21
$HCHDG,179.6,0.0,E,,*20
$GPRMC,012325.8,A,4741.19555,N,12224.24282,W,000.14,000.0,170513,016.6,E,A*2F
$PGRME,3.0,M,3.0,M,4.3,M*29
$HCHDG,179.5,0.0,E,,*23
$HCHDG,179.5,0.0,E,,*23
$YXXDR*4F
$GPRMC,012326.0,A,4741.19555,N,12224.24282,W,000.14,000.0,170513,016.6,E,A*24
$PGRME,3.0,M,3.0,M,4.3,M*29
$HCHDG,179.3,0.0,E,,*25
$HCHDG,179.3,0.0,E,,*25
$GPRMC,012326.2,A,4741.19554,N,12224.24282,W,000.15,000.0,170513,016.6,E,A*26
$PGRME,3.0,M,3.0,M,4.3,M*29
$HCHDG,179.2,0.0,E,,*24
$HCHDG,179.1,0.0,E,,*27
$GPRMC,012326.4,A,4741.19553,N,12224.24282,W,000.15,000.0,170513,016.6,E,A*27
$GPRMB,A,0.24,L,,N,4741.0622,N,12224.6030,W,0.3,241,-0.07,V*6E
$PGRME,3.0,M,3.0,M,4.3,M*29
$HCHDG,179.0,0.0,E,,*26
$YXXDR*4F
$HCHDG,179.1,0.0,E,,*27
$GPRMC,012326.6,A,4741.19552,N,12224.24282,W,000.14,000.0,170513,016.6,E,A*25
$PGRME,3.0,M,3.0,M,4.3,M*29
$HCHDG,179.0,0.0,E,,*26
$HCHDG,178.9,0.0,E,,*2E
$GPRMC,012326.8,A,4741.19552,N,12224.24282,W,000.13,000.0,170513,016.6,E,A*2C
$PGRME,3.0,M,3.0,M,4.3,M*29
$HCHDG,178.9,0.0,E,,*2E
$HCHDG,178.8,0.0,E,,*2F
$YXXDR*4F
$GPRMC,012327.0,A,4741.19551,N,12224.24282,W,000.14,000.0,170513,016.6,E,A*21
$PGRME,3.0,M,3.0,M,4.3,M*29
$HCHDG,178.7,0.0,E,,*20
$HCHDG,178.5,0.0,E,,*22
$GPRMC,012327.2,A,4741.19550,N,12224.24282,W,000.14,000.0,170513,016.6,E,A*22
$PGRME,3.0,M,3.0,M,4.3,M*29
$HCHDG,178.5,0.0,E,,*22
$HCHDG,178.5,0.0,E,,*22
$GPRMC,012327.4,A,4741.19550,N,12224.24282,W,000.13,000.0,170513,016.6,E,A*23
$PGRME,3.0,M,3.0,M,4.3,M*29
$HCHDG,178.2,0.0,E,,*25
$YXXDR*4F
$HCHDG,178.1,0.0,E,,*26
$GPRMC,012327.6,A,4741.19549,N,12224.24282,W,000.12,000.0,170513,016.6,E,A*28
$GPRMB,A,0.24,L,,N,4741.0622,N,12224.6030,W,0.3,241,-0.06,V*6F
$PGRME,3.0,M,3.0,M,4.3,M*29
$HCHDG,177.8,0.0,E,,*20
$HCHDG,177.7,0.0,E,,*2F
$GPRMC,012327.8,A,4741.19548,N,12224.24282,W,000.12,000.0,170513,016.6,E,A*27
$PGRME,3.0,M,3.0,M,4.3,M*29
$HCHDG,177.5,0.0,E,,*2D
$HCHDG,177.2,0.0,E,,*2A
$YXXDR*4F
$GPRMC,012328.0,A,4741.19548,N,12224.24282,W,000.11,000.0,170513,016.6,E,A*23
$PGRME,3.0,M,3.0,M,4.3,M*29
$HCHDG,177.0,0.0,E,,*28
$HCHDG,176.9,0.0,E,,*20
$PTAK,FFP1,HEEL,@*07
$GPRMC,012328.2,A,4741.19547,N,12224.24282,W,000.11,000.0,170513,016.6,E,A*2E
$PGRME,3.0,M,3.0,M,4.3,M*29
$HCHDG,176.8,0.0,E,,*21
$HCHDG,176.7,0.0,E,,*2E
$GPRMC,012328.4,A,4741.19547,N,12224.24282,W,000.13,000.0,170513,016.6,E,A*2A
$PGRME,3.0,M,3.0,M,4.3,M*29
$HCHDG,176.5,0.0,E,,*2C
$YXXDR*4F
$HCHDG,176.3,0.0,E,,*2A
$GPRMC,012328.6,A,4741.19546,N,12224.24282,W,000.14,000.0,170513,016.6,E,A*2E
$GPRMB,A,0.24,L,,N,4741.0622,N,12224.6030,W,0.3,241,-0.07,V*6E
$PGRME,3.0,M,3.0,M,4.3,M*29
$HCHDG,176.3,0.0,E,,*2A
$HCHDG,176.1,0.0,E,,*28
$GPRMC,012328.8,A,4741.19546,N,12224.24282,W,000.14,000.0,170513,016.6,E,A*20
$PGRME,3.0,M,3.0,M,4.3,M*29
$HCHDG,176.0,0.0,E,,*29
$HCHDG,176.0,0.0,E,,*29
$YXXDR*4F
$GPRMC,012329.0,A,4741.19545,N,12224.24282,W,000.12,000.0,170513,016.6,E,A*2C
$PGRME,3.0,M,3.0,M,4.3,M*29
$HCHDG,176.0,0.0,E,,*29
$HCHDG,175.9,0.0,E,,*23
$GPRMC,012329.2,A,4741.19544,N,12224.24283,W,000.08,000.0,170513,016.6,E,A*25
$PGRME,3.0,M,3.0,M,4.3,M*29
$HCHDG,175.9,0.0,E,,*23
$HCHDG,175.8,0.0,E,,*22
$GPRMC,012329.4,A,4741.19544,N,12224.24283,W,000.04,000.0,170513,016.6,E,A*2F
$PGRME,3.0,M,3.0,M,4.3,M*29
$HCHDG,176.0,0.0,E,,*29
$YXXDR*4F
$HCHDG,175.9,0.0,E,,*23
$GPRMC,012329.6,A,4741.19544,N,12224.24283,W,000.04,000.0,170513,016.6,E,A*2D
$PGRME,3.0,M,3.0,M,4.3,M*29
$HCHDG,176.0,0.0,E,,*29
$HCHDG,176.0,0.0,E,,*29
$GPRMC,012329.8,A,4741.19544,N,12224.24283,W,000.03,000.0,170513,016.6,E,A*24
$GPRMB,A,0.24,L,,N,4741.0622,N,12224.6030,W,0.3,241,-0.01,V*68
$PGRME,3.0,M,3.0,M,4.3,M*29
$HCHDG,176.1,0.0,E,,*28
$HCHDG,176.2,0.0,E,,*2B
$YXXDR*4F
$GPRMC,012330.0,A,4741.19543,N,12224.24283,W,000.04,000.0,170513,016.6,E,A*24
$PGRME,3.0,M,3.0,M,4.3,M*29
$HCHDG,176.1,0.0,E,,*28
$HCHDG,176.1,0.0,E,,*28
$GPRMC,012330.2,A,4741.19543,N,12224.24283,W,000.05,000.0,170513,016.6,E,A*27
$PGRME,3.0,M,3.0,M,4.3,M*29
$HCHDG,176.0,0.0,E,,*29
$HCHDG,176.0,0.0,E,,*29
$GPRMC,012330.4,A,4741.19543,N,12224.24284,W,000.06,000.0,170513,016.6,E,A*25
$PGRME,3.0,M,3.0,M,4.3,M*29
$HCHDG,175.9,0.0,E,,*23
$YXXDR*4F
$HCHDG,175.8,0.0,E,,*22
$GPRMC,012330.6,A,4741.19543,N,12224.24284,W,000.06,000.0,170513,016.6,E,A*27
$PGRME,3.0,M,3.0,M,4.3,M*29
$HCHDG,175.7,0.0,E,,*2D
$HCHDG,175.7,0.0,E,,*2D
$GPRMC,012330.8,A,4741.19543,N,12224.24285,W,000.06,000.0,170513,016.6,E,A*28
$GPRMB,A,0.24,L,,N,4741.0622,N,12224.6030,W,0.3,241,-0.03,V*6A
$PGRME,3.0,M,3.0,M,4.3,M*29
$HCHDG,175.6,0.0,E,,*2C
$HCHDG,175.4,0.0,E,,*2E
$YXXDR*4F
$GPRMC,012331.0,A,4741.19543,N,12224.24285,W,000.07,000.0,170513,016.6,E,A*20
$PGRME,3.0,M,3.0,M,4.3,M*29
$HCHDG,175.4,0.0,E,,*2E
$HCHDG,175.4,0.0,E,,*2E
$GPRMC,012331.2,A,4741.19543,N,12224.24286,W,000.07,000.0,170513,016.6,E,A*21
$PGRME,3.0,M,3.0,M,4.3,M*29
$HCHDG,175.4,0.0,E,,*2E
$HCHDG,175.4,0.0,E,,*2E
$GPRMC,012331.4,A,4741.19543,N,12224.24286,W,000.06,000.0,170513,016.6,E,A*26
$PGRME,3.0,M,3.0,M,4.3,M*29
$HCHDG,175.3,0.0,E,,*29
$YXXDR*4F
$HCHDG,175.5,0.0,E,,*2F
$GPRMC,012331.6,A,4741.19543,N,12224.24286,W,000.07,000.0,170513,016.6,E,A*25
$PGRME,3.0,M,3.0,M,4.3,M*29
$HCHDG,175.5,0.0,E,,*2F
$HCHDG,175.7,0.0,E,,*2D
$GPRMC,012331.8,A,4741.19544,N,12224.24286,W,000.08,000.0,170513,016.6,E,A*23
$PGRME,3.0,M,3.0,M,4.3,M*29
$HCHDG,175.7,0.0,E,,*2D
$HCHDG,175.7,0.0,E,,*2D
$YXXDR*4F
$GPRMC,012332.0,A,4741.19544,N,12224.24286,W,000.08,000.0,170513,016.6,E,A*28
$GPRMB,A,0.24,L,,N,4741.0622,N,12224.6030,W,0.3,241,-0.04,V*6D
$PGRME,3.0,M,3.0,M,4.3,M*29
$HCHDG,175.9,0.0,E,,*23
$PTAK,FFP1,HEEL,@*07
$HCHDG,176.0,0.0,E,,*29
$GPRMC,012332.2,A,4741.19545,N,12224.24286,W,000.08,000.0,170513,016.6,E,A*2B
$PGRME,3.0,M,3.0,M,4.3,M*29
$HCHDG,176.0,0.0,E,,*29
$HCHDG,176.2,0.0,E,,*2B
$GPRMC,012332.4,A,4741.19545,N,12224.24287,W,000.05,000.0,170513,016.6,E,A*21
$PGRME,3.0,M,3.0,M,4.3,M*29
$HCHDG,176.3,0.0,E,,*2A
$YXXDR*4F
$HCHDG,176.4,0.0,E,,*2D
$GPRMC,012332.6,A,4741.19545,N,12224.24287,W,000.03,000.0,170513,016.6,E,A*25
$PGRME,3.0,M,3.0,M,4.3,M*29
$HCHDG,176.6,0.0,E,,*2F
$HCHDG,176.6,0.0,E,,*2F
$GPRMC,012332.8,A,4741.19545,N,12224.24288,W,000.04,000.0,170513,016.6,E,A*23
$PGRME,3.0,M,3.0,M,4.3,M*29
$HCHDG,176.6,0.0,E,,*2F
$HCHDG,176.6,0.0,E,,*2F
$YXXDR*4F
$GPRMC,012333.0,A,4741.19545,N,12224.24288,W,000.04,000.0,170513,016.6,E,A*2A
$PGRME,3.0,M,3.0,M,4.3,M*29
$HCHDG,176.6,0.0,E,,*2F
$HCHDG,176.6,0.0,E,,*2F
$GPRMC,012333.2,A,4741.19545,N,12224.24288,W,000.05,000.0,170513,016.6,E,A*29
$GPRMB,A,0.24,L,,N,4741.0622,N,12224.6030,W,0.3,241,-0.02,V*6B
$PGRME,3.0,M,3.0,M,4.3,M*29
$HCHDG,176.6,0.0,E,,*2F
$HCHDG,176.5,0.0,E,,*2C
$GPRMC,012333.4,A,4741.19545,N,12224.24289,W,000.06,000.0,170513,016.6,E,A*2D
$PGRME,3.0,M,3.0,M,4.3,M*29
$HCHDG,176.4,0.0,E,,*2D
$YXXDR*4F
$HCHDG,176.4,0.0,E,,*2D
$GPRMC,012333.6,A,4741.19544,N,12224.24289,W,000.07,000.0,170513,016.6,E,A*2F
$PGRME,3.0,M,3.0,M,4.3,M*29
$HCHDG,176.3,0.0,E,,*2A
$HCHDG,176.1,0.0,E,,*28
$GPRMC,012333.8,A,4741.19544,N,12224.24289,W,000.03,000.0,170513,016.6,E,A*25
$PGRME,3.0,M,3.0,M,4.3,M*29
$HCHDG,176.0,0.0,E,,*29
$HCHDG,175.9,0.0,E,,*23
$YXXDR*4F
$GPRMC,012334.0,A,4741.19544,N,12224.24289,W,000.03,000.0,170513,016.6,E,A*2A
$PGRME,3.0,M,3.0,M,4.3,M*29
$HCHDG,175.7,0.0,E,,*2D
$HCHDG,175.5,0.0,E,,*2F
$GPRMC,012334.2,A,4741.19544,N,12224.24290,W,000.02,000.0,170513,016.6,E,A*21
$PGRME,3.0,M,3.0,M,4.3,M*29
$HCHDG,175.3,0.0,E,,*29
$HCHDG,175.0,0.0,E,,*2A
$GPRMC,012334.4,A,4741.19544,N,12224.24290,W,000.02,000.0,170513,016.6,E,A*27
$GPRMB,A,0.24,L,,N,4741.0622,N,12224.6030,W,0.3,241,-0.01,V*68
$PGRME,3.0,M,3.0,M,4.3,M*29
$HCHDG,174.8,0.0,E,,*23
$YXXDR*4F
$HCHDG,174.4,0.0,E,,*2F
$GPRMC,012334.6,A,4741.19544,N,12224.24290,W,000.04,000.0,170513,016.6,E,A*23
$PGRME,3.0,M,3.0,M,4.3,M*29
$HCHDG,174.1,0.0,E,,*2A
$HCHDG,173.8,0.0,E,,*24
$GPRMC,012334.8,A,4741.19544,N,12224.24290,W,000.04,000.0,170513,016.6,E,A*2D
$PGRME,3.0,M,3.0,M,4.3,M*29
$HCHDG,173.5,0.0,E,,*29
$HCHDG,173.3,0.0,E,,*2F
$YXXDR*4F
$GPRMC,012335.0,A,4741.19544,N,12224.24290,W,000.02,000.0,170513,016.6,E,A*22
$PGRME,3.0,M,3.0,M,4.3,M*29
$HCHDG,172.9,0.0,E,,*24
$HCHDG,172.7,0.0,E,,*2A
$GPRMC,012335.2,A,4741.19544,N,12224.24290,W,000.00,000.0,170513,016.6,E,A*22
$PGRME,3.0,M,3.0,M,4.3,M*29
$HCHDG,172.5,0.0,E,,*28
$HCHDG,172.2,0.0,E,,*2F
$GPRMC,012335.4,A,4741.19544,N,12224.24289,W,000.01,000.0,170513,016.6,E,A*2D
$GPRMB,A,0.24,L,,N,4741.0622,N,12224.6030,W,0.3,241,-0.00,V*69
$PGRME,3.0,M,3.0,M,4.3,M*29
$HCHDG,172.1,0.0,E,,*2C
$YXXDR*4F
$HCHDG,171.9,0.0,E,,*27
$GPRMC,012335.6,A,4741.19544,N,12224.24289,W,000.01,000.0,170513,016.6,E,A*2F
$PGRME,3.0,M,3.0,M,4.3,M*29
$HCHDG,171.6,0.0,E,,*28
$HCHDG,171.5,0.0,E,,*2B
$GPRMC,012335.8,A,4741.19544,N,12224.24289,W,000.01,000.0,170513,016.6,E,A*21
$PGRME,3.0,M,3.0,M,4.3,M*29
$HCHDG,171.4,0.0,E,,*2A
$HCHDG,171.2,0.0,E,,*2C
$YXXDR*4F
$GPRMC,012336.0,A,4741.19544,N,12224.24289,W,000.00,000.0,170513,016.6,E,A*2B
$PGRME,3.0,M,3.0,M,4.3,M*29
$HCHDG,171.1,0.0,E,,*2F
$HCHDG,171.1,0.0,E,,*2F
$GPRMC,012336.2,A,4741.19544,N,12224.24289,W,000.01,000.0,170513,016.6,E,A*28
$PGRME,3.0,M,3.0,M,4.3,M*29
$HCHDG,171.0,0.0,E,,*2E
$PTAK,FFP1,HEEL,@*07
$HCHDG,170.9,0.0,E,,*26
$GPRMC,012336.4,A,4741.19544,N,12224.24290,W,000.01,000.0,170513,016.6,E,A*26
$PGRME,3.0,M,3.0,M,4.3,M*29
$HCHDG,170.9,0.0,E,,*26
$YXXDR*4F
$HCHDG,170.9,0.0,E,,*26
$GPRMC,012336.6,A,4741.19544,N,12224.24290,W,000.02,000.0,170513,016.6,E,A*27
$GPRMB,A,0.24,L,,N,4741.0622,N,12224.6030,W,0.3,241,-0.01,V*68
$PGRME,3.1,M,3.0,M,4.3,M*28
$HCHDG,170.7,0.0,E,,*28
$HCHDG,170.7,0.0,E,,*28
$GPRMC,012336.8,A,4741.19544,N,12224.24291,W,000.03,000.0,170513,016.6,E,A*29
$PGRME,3.1,M,3.0,M,4.3,M*28
$HCHDG,170.6,0.0,E,,*29
$HCHDG,170.5,0.0,E,,*2A
$YXXDR*4F
$GPRMC,012337.0,A,4741.19544,N,12224.24292,W,000.03,000.0,170513,016.6,E,A*23
$PGRME,3.1,M,3.0,M,4.3,M*28
$HCHDG,170.5,0.0,E,,*2A
$HCHDG,170.4,0.0,E,,*2B
$GPRMC,012337.2,A,4741.19543,N,12224.24293,W,000.03,000.0,170513,016.6,E,A*27
$PGRME,3.0,M,3.0,M,4.3,M*29
$HCHDG,170.3,0.0,E,,*2C
$HCHDG,170.1,0.0,E,,*2E
$GPRMC,012337.4,A,4741.19543,N,12224.24293,W,000.05,000.0,170513,016.6,E,A*27
$PGRME,3.0,M,3.0,M,4.3,M*29
$HCHDG,170.0,0.0,E,,*2F
$YXXDR*4F
$HCHDG,169.8,0.0,E,,*2F
$GPRMC,012337.6,A,4741.19543,N,12224.24293,W,000.04,000.0,170513,016.6,E,A*24
$GPRMB,A,0.24,L,,N,4741.0622,N,12224.6030,W,0.3,241,-0.02,V*6B
$PGRME,3.0,M,3.0,M,4.3,M*29
$HCHDG,169.7,0.0,E,,*20
$HCHDG,169.5,0.0,E,,*22
$GPRMC,012337.8,A,4741.19542,N,12224.24293,W,000.03,000.0,170513,016.6,E,A*2C
$PGRME,3.0,M,3.0,M,4.3,M*29
$HCHDG,169.3,0.0,E,,*24
$HCHDG,169.1,0.0,E,,*26
$YXXDR*4F
$GPRMC,012338.0,A,4741.19542,N,12224.24293,W,000.02,000.0,170513,016.6,E,A*2A
$PGRME,3.0,M,3.0,M,4.3,M*29
$HCHDG,168.9,0.0,E,,*2F
$HCHDG,168.6,0.0,E,,*20
$GPRMC,012338.2,A,4741.19542,N,12224.24293,W,000.02,000.0,170513,016.6,E,A*28
$PGRME,3.0,M,3.0,M,4.3,M*29
$HCHDG,168.5,0.0,E,,*23
$HCHDG,168.3,0.0,E,,*25
$GPRMC,012338.4,A,4741.19542,N,12224.24294,W,000.02,000.0,170513,016.6,E,A*29
$PGRME,3.0,M,3.0,M,4.3,M*29
$HCHDG,168.0,0.0,E,,*26
$YXXDR*4F
$HCHDG,167.8,0.0,E,,*21
$GPRMC,012338.6,A,4741.19542,N,12224.24294,W,000.01,000.0,170513,016.6,E,A*28
$PGRME,3.0,M,3.0,M,4.3,M*29
$HCHDG,167.7,0.0,E,,*2E
$HCHDG,167.5,0.0,E,,*2C
$GPRMC,012338.8,A,4741.19542,N,12224.24296,W,000.01,000.0,170513,016.6,E,A*24
$GPRMB,A,0.24,L,,N,4741.0622,N,12224.6030,W,0.3,241,-0.00,V*69
$PGRME,3.0,M,3.0,M,4.3,M*29
$HCHDG,167.4,0.0,E,,*2D
$HCHDG,167.3,0.0,E,,*2A
$YXXDR*4F
$GPRMC,012339.0,A,4741.19542,N,12224.24296,W,000.01,000.0,170513,016.6,E,A*2D
$PGRME,3.0,M,3.0,M,4.3,M*29
$HCHDG,167.3,0.0,E,,*2A
$HCHDG,167.3,0.0,E,,*2A
$GPRMC,012339.2,A,4741.19542,N,12224.24296,W,000.01,000.0,170513,016.6,E,A*2F
$PGRME,3.0,M,3.0,M,4.3,M*29
$HCHDG,167.3,0.0,E,,*2A
$HCHDG,167.3,0.0,E,,*2A
$GPRMC,012339.4,A,4741.19542,N,12224.24296,W,000.02,000.0,170513,016.6,E,A*2A
$PGRME,3.0,M,3.0,M,4.3,M*29
$HCHDG,167.3,0.0,E,,*2A
$YXXDR*4F
$HCHDG,167.3,0.0,E,,*2A
$GPRMC,012339.6,A,4741.19542,N,12224.24295,W,000.02,000.0,170513,016.6,E,A*2B
