$PGRME,2.4,M,2.5,M,3.5,M*29
$HCHDG,228.1,0.0,E,,*20
$HCHDG,228.1,0.0,E,,*20
$GPRMC,230000.2,A,4807.57032,N,12244.54139,W,006.95,259.7,040513,016.8,E,D*2D
$PGRME,2.4,M,2.5,M,3.5,M*29
$HCHDG,227.8,0.0,E,,*26
$YXXDR,A,0.3,D,PTCH,A,-34.4,D,ROLL*40
$HCHDG,227.7,0.0,E,,*29
$IIRMB,A,0.00,L,,Ptm ,,,,,000.6,224,,V,A*2C
$GPRMC,230000.4,A,4807.57025,N,12244.54200,W,006.93,258.7,040513,016.8,E,D*23
$PGRME,2.4,M,2.6,M,3.5,M*2A
$HCHDG,227.4,0.0,E,,*2A
$IIRMC,230000,A,4807.570,N,12244.540,W,06.9,258,040513,16,E,A*12
$HCHDG,227.0,0.0,E,,*2E
$IIVHW,,,,,00.0,N,,*19
$GPRMC,230000.6,A,4807.57021,N,12244.54261,W,006.89,258.2,040513,016.8,E,D*2C
$GPRMB,A,0.00,L,Ptm,Ptm,4807.0330,N,12244.9520,W,0.6,224,6.56,V*09
$PGRME,2.4,M,2.6,M,3.5,M*2A
$IIVLW,06236,N,000.0,N*52
$HCHDG,226.8,0.0,E,,*27
$IIGLL,4807.570,N,12244.540,W,230000,A,A*4A
$HCHDG,226.6,0.0,E,,*29
$IIMTW,+09.0,C*31
$GPRMC,230000.8,A,4807.57017,N,12244.54320,W,006.60,256.3,040513,016.8,E,D*2B
$YXXDR,A,0.4,D,PTCH,A,-33.3,D,ROLL*47
$PTAK,FFD1,33.3*66
$PGRME,2.4,M,2.6,M,3.6,M*29
$HCHDG,226.3,0.0,E,,*2C
$HCHDG,226.3,0.0,E,,*2C
$GPRMC,230001.0,A,4807.57010,N,12244.54374,W,006.63,255.2,040513,016.8,E,D*25
$PGRME,2.4,M,2.6,M,3.6,M*29
$HCHDG,226.0,0.0,E,,*2F
$HCHDG,225.8,0.0,E,,*24
$GPRMC,230001.2,A,4807.57002,N,12244.54424,W,006.90,253.5,040513,016.8,E,D*2B
$PGRME,2.4,M,2.6,M,3.6,M*29
$HCHDG,225.9,0.0,E,,*25
$YXXDR,A,0.0,D,PTCH,A,-32.0,D,ROLL*41
$HCHDG,225.9,0.0,E,,*25
$IIRMB,A,0.00,L,,Ptm ,,,,,000.6,224,,V,A*2C
$GPRMC,230001.4,A,4807.56994,N,12244.54481,W,007.20,253.3,040513,016.8,E,D*29
$PGRME,2.4,M,2.6,M,3.6,M*29
$HCHDG,226.0,0.0,E,,*2F
$IIRMC,230000,A,4807.570,N,12244.543,W,06.6,255,040513,16,E,A*13
$HCHDG,226.1,0.0,E,,*2E
$IIVHW,,,,,00.0,N,,*19
$GPRMC,230001.6,A,4807.56982,N,12244.54534,W,006.92,255.3,040513,016.8,E,D*2D
$GPRMB,A,0.00,L,Ptm,Ptm,4807.0330,N,12244.9520,W,0.6,223,6.68,V*03
$PGRME,2.4,M,2.6,M,3.6,M*29
$IIVLW,06236,N,000.0,N*52
$HCHDG,226.4,0.0,E,,*2B
$IIGLL,4807.570,N,12244.543,W,230000,A,A*49
$HCHDG,226.7,0.0,E,,*28
$IIMTW,+09.0,C*31
$GPRMC,230001.8,A,4807.56972,N,12244.54585,W,007.13,255.8,040513,016.8,E,D*25
$YXXDR,A,0.3,D,PTCH,A,-35.4,D,ROLL*41
$PGRME,2.4,M,2.7,M,3.6,M*28
$HCHDG,227.3,0.0,E,,*2D
$HCHDG,227.5,0.0,E,,*2B
$GPRMC,230002.0,A,4807.56968,N,12244.54644,W,007.05,256.6,040513,016.8,E,D*21
$PGRME,2.4,M,2.7,M,3.6,M*28
$HCHDG,228.0,0.0,E,,*21
$HCHDG,228.4,0.0,E,,*25
$GPRMC,230002.2,A,4807.56962,N,12244.54706,W,007.08,256.9,040513,016.8,E,D*2C
$PGRME,2.4,M,2.7,M,3.6,M*28
$HCHDG,228.8,0.0,E,,*29
$YXXDR,A,0.0,D,PTCH,A,-36.9,D,ROLL*4C
$PTAK,FFD1,36.9*69
$HCHDG,229.2,0.0,E,,*22
$IIRMB,A,0.00,L,,Ptm ,,,,,000.6,223,,V,A*2B
$GPRMC,230002.4,A,4807.56955,N,12244.54763,W,007.12,256.9,040513,016.8,E,D*26
$PGRME,2.4,M,2.7,M,3.6,M*28
$HCHDG,229.4,0.0,E,,*24
$IIRMC,230000,A,4807.569,N,12244.546,W,07.0,256,040513,16,E,A*1A
$HCHDG,229.9,0.0,E,,*29
$IIVHW,,,,,00.0,N,,*19
$GPRMC,230002.6,A,4807.56946,N,12244.54821,W,007.12,256.9,040513,016.8,E,D*2F
$PGRME,2.4,M,2.7,M,3.6,M*28
$IIVLW,06236,N,000.0,N*52
$HCHDG,230.2,0.0,E,,*2A
$IIGLL,4807.569,N,12244.546,W,230000,A,A*44
$HCHDG,230.4,0.0,E,,*2C
$IIMTW,+09.0,C*31
$GPRMC,230002.8,A,4807.56937,N,12244.54905,W,007.18,257.6,040513,016.8,E,D*24
$GPRMB,A,0.00,L,Ptm,Ptm,4807.0330,N,12244.9520,W,0.6,223,6.85,V*00
$YXXDR,A,0.6,D,PTCH,A,-35.3,D,ROLL*43
$PTAK,FFP1,HEEL,@*07
$PGRME,2.4,M,2.7,M,3.6,M*28
$HCHDG,230.7,0.0,E,,*2F
$HCHDG,230.9,0.0,E,,*21
$GPRMC,230003.0,A,4807.56928,N,12244.54963,W,007.21,258.8,040513,016.8,E,D*28
$PGRME,2.4,M,2.7,M,3.6,M*28
$HCHDG,231.1,0.0,E,,*28
$HCHDG,231.2,0.0,E,,*2B
$GPRMC,230003.2,A,4807.56921,N,12244.55028,W,007.24,259.4,040513,016.8,E,D*2C
$PGRME,2.4,M,2.7,M,3.6,M*28
$HCHDG,231.5,0.0,E,,*2C
$YXXDR,A,0.5,D,PTCH,A,-36.5,D,ROLL*45
$HCHDG,231.6,0.0,E,,*2F
$IIRMB,A,0.00,L,,Ptm ,,,,,000.6,223,,V,A*2B
$GPRMC,230003.4,A,4807.56915,N,12244.55095,W,007.25,260.0,040513,016.8,E,D*24
$PGRME,2.4,M,2.7,M,3.6,M*28
$HCHDG,232.0,0.0,E,,*2A
$IIRMC,230000,A,4807.569,N,12244.546,W,07.0,256,040513,16,E,A*1A
$HCHDG,232.2,0.0,E,,*28
$IIVHW,,,,,00.0,N,,*19
$GPRMC,230003.6,A,4807.56901,N,12244.55163,W,007.27,260.9,040513,016.8,E,D*20
$PGRME,2.4,M,2.6,M,3.6,M*29
$IIVLW,06236,N,000.0,N*52
$HCHDG,232.5,0.0,E,,*2F
$IIGLL,4807.569,N,12244.546,W,230000,A,A*44
$HCHDG,232.6,0.0,E,,*2C
$IIMTW,+09.0,C*31
$GPRMC,230003.8,A,4807.56890,N,12244.55236,W,007.45,259.2,040513,016.8,E,D*21
$YXXDR,A,0.0,D,PTCH,A,-37.1,D,ROLL*45
$PTAK,FFD1,37.1*60
$PGRME,2.4,M,2.6,M,3.6,M*29
$HCHDG,232.6,0.0,E,,*2C
$HCHDG,232.7,0.0,E,,*2D
$GPRMC,230004.0,A,4807.56885,N,12244.55310,W,007.46,261.5,040513,016.8,E,D*20
$GPRMB,A,0.00,L,Ptm,Ptm,4807.0330,N,12244.9520,W,0.6,223,6.93,V*07
$PGRME,2.4,M,2.6,M,3.6,M*29
$HCHDG,233.0,0.0,E,,*2B
$HCHDG,233.1,0.0,E,,*2A
$GPRMC,230004.2,A,4807.56876,N,12244.55378,W,007.49,261.9,040513,016.8,E,D*23
$PGRME,2.4,M,2.6,M,3.5,M*2A
$HCHDG,233.1,0.0,E,,*2A
$YXXDR,A,0.0,D,PTCH,A,-37.0,D,ROLL*44
$HCHDG,233.4,0.0,E,,*2F
$IIRMB,A,0.00,L,,Ptm ,,,,,000.6,223,,V,A*2B
$GPRMC,230004.4,A,4807.56869,N,12244.55442,W,007.47,264.5,040513,016.8,E,D*22
$PGRME,2.4,M,2.5,M,3.5,M*29
$HCHDG,233.4,0.0,E,,*2F
$IIRMC,230000,A,4807.568,N,12244.553,W,07.4,261,040513,16,E,A*1F
$HCHDG,233.5,0.0,E,,*2E
$IIVHW,,,,,00.0,N,,*19
$GPRMC,230004.6,A,4807.56865,N,12244.55501,W,007.42,265.1,040513,016.8,E,D*2A
$PGRME,2.4,M,2.5,M,3.5,M*29
$IIVLW,06236,N,000.0,N*52
$HCHDG,233.5,0.0,E,,*2E
$IIGLL,4807.568,N,12244.553,W,230000,A,A*41
$HCHDG,233.4,0.0,E,,*2F
$IIMTW,+09.0,C*31
$GPRMC,230004.8,A,4807.56857,N,12244.55564,W,007.35,264.5,040513,016.8,E,D*23
$PGRME,2.4,M,2.5,M,3.5,M*29
$YXXDR,A,0.2,D,PTCH,A,-38.4,D,ROLL*4D
$PTAK,FFD1,38.4*6A
$HCHDG,233.0,0.0,E,,*2B
$HCHDG,232.8,0.0,E,,*22
$GPRMC,230005.0,A,4807.56862,N,12244.55607,W,007.32,262.9,040513,016.8,E,D*27
$GPRMB,A,0.00,L,Ptm,Ptm,4807.0330,N,12244.9520,W,0.6,223,6.73,V*09
$PGRME,2.4,M,2.5,M,3.5,M*29
$HCHDG,232.3,0.0,E,,*29
$HCHDG,232.1,0.0,E,,*2B
$GPRMC,230005.2,A,4807.56855,N,12244.55665,W,007.25,260.6,040513,016.8,E,D*2E
$PGRME,2.4,M,2.5,M,3.5,M*29
$HCHDG,231.5,0.0,E,,*2C
$YXXDR,A,0.1,D,PTCH,A,-34.7,D,ROLL*41
$HCHDG,231.0,0.0,E,,*29
$IIRMB,A,0.00,L,,Ptm ,,,,,000.6,223,,V,A*2B
$GPRMC,230005.4,A,4807.56846,N,12244.55728,W,007.23,259.5,040513,016.8,E,D*2D
$PGRME,2.4,M,2.5,M,3.5,M*29
$HCHDG,230.4,0.0,E,,*2C
$IIRMC,230000,A,4807.568,N,12244.556,W,07.3,262,040513,16,E,A*1E
$HCHDG,229.8,0.0,E,,*28
$IIVHW,,,,,00.0,N,,*19
$GPRMC,230005.6,A,4807.56839,N,12244.55790,W,007.39,259.1,040513,016.8,E,D*2B
$PGRME,2.4,M,2.5,M,3.5,M*29
$IIVLW,06236,N,000.0,N*52
$HCHDG,229.6,0.0,E,,*26
$IIGLL,4807.568,N,12244.556,W,230000,A,A*44
$HCHDG,229.1,0.0,E,,*21
$IIMTW,+09.0,C*31
$GPRMC,230005.8,A,4807.56833,N,12244.55854,W,007.35,258.7,040513,016.8,E,D*23
$PGRME,2.4,M,2.5,M,3.5,M*29
$YXXDR,A,0.2,D,PTCH,A,-33.8,D,ROLL*4A
$HCHDG,228.9,0.0,E,,*28
$HCHDG,228.8,0.0,E,,*29
$GPRMC,230006.0,A,4807.56831,N,12244.55921,W,007.41,259.3,040513,016.8,E,D*2F
$GPRMB,A,0.00,L,Ptm,Ptm,4807.0330,N,12244.9520,W,0.6,223,6.97,V*03
$PGRME,2.4,M,2.5,M,3.5,M*29
$HCHDG,228.7,0.0,E,,*26
$HCHDG,228.6,0.0,E,,*27
$GPRMC,230006.2,A,4807.56830,N,12244.55984,W,007.35,261.0,040513,016.8,E,D*28
$PGRME,2.4,M,2.4,M,3.5,M*28
$HCHDG,228.5,0.0,E,,*24
$YXXDR,A,-0.1,D,PTCH,A,-36.7,D,ROLL*6E
$PTAK,FFD1,36.7*67
$HCHDG,228.4,0.0,E,,*25
$IIRMB,A,0.00,L,,Ptm ,,,,,000.6,223,,V,A*2B
$GPRMC,230006.4,A,4807.56824,N,12244.56041,W,007.29,261.5,040513,016.8,E,D*20
$PGRME,2.4,M,2.4,M,3.5,M*28
$HCHDG,228.4,0.0,E,,*25
$IIRMC,230000,A,4807.568,N,12244.559,W,07.4,259,040513,16,E,A*1E
$HCHDG,228.3,0.0,E,,*22
$IIVHW,,,,,00.0,N,,*19
$GPRMC,230006.6,A,4807.56814,N,12244.56101,W,007.32,259.3,040513,016.8,E,D*23
$PGRME,2.4,M,2.5,M,3.5,M*29
$IIVLW,06236,N,000.0,N*52
$HCHDG,228.0,0.0,E,,*21
$IIDPT,046.9,-1.0,*4B
$HCHDG,227.5,0.0,E,,*2B
$IIGLL,4807.568,N,12244.559,W,230000,A,A*4B
$IIMTW,+09.0,C*31
$GPRMC,230006.8,A,4807.56805,N,12244.56162,W,007.11,259.3,040513,016.8,E,D*29
$PGRME,2.4,M,2.5,M,3.5,M*29
$YXXDR,A,0.0,D,PTCH,A,-35.5,D,ROLL*43
$HCHDG,226.8,0.0,E,,*27
$HCHDG,226.4,0.0,E,,*2B
$GPRMC,230007.0,A,4807.56800,N,12244.56216,W,007.07,257.3,040513,016.8,E,D*2C
$PGRME,2.4,M,2.5,M,3.5,M*29
$HCHDG,225.9,0.0,E,,*25
$PTAK,FFP1,HEEL,@*07
$HCHDG,225.3,0.0,E,,*2F
$GPRMC,230007.2,A,4807.56794,N,12244.56270,W,007.09,256.5,040513,016.8,E,D*25
$GPRMB,A,0.00,L,Ptm,Ptm,4807.0330,N,12244.9520,W,0.6,223,6.77,V*0D
$PGRME,2.4,M,2.4,M,3.5,M*28
$HCHDG,224.6,0.0,E,,*2B
$YXXDR,A,-0.2,D,PTCH,A,-34.9,D,ROLL*61
$PTAK,FFD1,34.9*6B
$HCHDG,224.1,0.0,E,,*2C
$IIRMB,A,0.00,L,,Ptm ,,,,,000.6,223,,V,A*2B
$GPRMC,230007.4,A,4807.56780,N,12244.56329,W,007.12,257.3,040513,016.8,E,D*26
$PGRME,2.4,M,2.4,M,3.4,M*29
$HCHDG,223.8,0.0,E,,*22
$IIRMC,230000,A,4807.568,N,12244.562,W,07.0,257,040513,16,E,A*1C
$HCHDG,223.5,0.0,E,,*2F
$IIVHW,,,,,00.0,N,,*19
$GPRMC,230007.6,A,4807.56764,N,12244.56378,W,007.17,255.2,040513,016.8,E,D*2C
$PGRME,2.4,M,2.4,M,3.4,M*29
$IIVLW,06236,N,000.0,N*52
$HCHDG,223.2,0.0,E,,*28
$IIDPT,047.7,-1.0,*44
$HCHDG,223.0,0.0,E,,*2A
$IIGLL,4807.568,N,12244.562,W,230000,A,A*43
$IIMTW,+09.0,C*31
$GPRMC,230007.8,A,4807.56752,N,12244.56430,W,007.16,257.1,040513,016.8,E,D*2C
$PGRME,2.4,M,2.4,M,3.4,M*29
$YXXDR,A,-0.1,D,PTCH,A,-35.0,D,ROLL*6A
$HCHDG,222.7,0.0,E,,*2C
$HCHDG,222.6,0.0,E,,*2D
$GPRMC,230008.0,A,4807.56737,N,12244.56482,W,007.15,257.0,040513,016.8,E,D*23
$PGRME,2.4,M,2.4,M,3.4,M*29
$HCHDG,222.8,0.0,E,,*23
$HCHDG,222.2,0.0,E,,*29
$GPRMC,230008.2,A,4807.56720,N,12244.56536,W,007.12,254.3,040513,016.8,E,D*2E
$PGRME,2.4,M,2.4,M,3.4,M*29
$HCHDG,222.1,0.0,E,,*2A
$YXXDR,A,-0.2,D,PTCH,A,-36.2,D,ROLL*68
$HCHDG,222.0,0.0,E,,*2B
$IIRMB,A,0.00,L,,Ptm ,,,,,000.6,223,,V,A*2B
$GPRMC,230008.4,A,4807.56705,N,12244.56593,W,007.10,250.8,040513,016.8,E,D*2D
$GPRMB,A,0.00,L,Ptm,Ptm,4807.0330,N,12244.9520,W,0.6,222,6.95,V*00
$PGRME,2.4,M,2.4,M,3.4,M*29
$HCHDG,221.6,0.0,E,,*2E
$IIRMC,230000,A,4807.567,N,12244.564,W,07.1,257,040513,16,E,A*14
$HCHDG,221.1,0.0,E,,*29
$IIVHW,,,,,00.0,N,,*19
$GPRMC,230008.6,A,4807.56689,N,12244.56642,W,007.08,250.3,040513,016.8,E,D*27
$PGRME,2.4,M,2.4,M,3.4,M*29
$IIVLW,06236,N,000.0,N*52
$HCHDG,220.7,0.0,E,,*2E
$IIDPT,047.7,-1.0,*44
$HCHDG,220.1,0.0,E,,*28
$IIGLL,4807.567,N,12244.564,W,230000,A,A*4A
$IIMTW,+09.0,C*31
$GPRMC,230008.8,A,4807.56673,N,12244.56682,W,007.08,248.2,040513,016.8,E,D*28
$PGRME,2.4,M,2.4,M,3.4,M*29
$YXXDR,A,0.0,D,PTCH,A,-34.6,D,ROLL*41
$PTAK,FFD1,34.6*64
$HCHDG,219.9,0.0,E,,*2A
$HCHDG,219.4,0.0,E,,*27
$GPRMC,230009.0,A,4807.56652,N,12244.56732,W,007.07,250.9,040513,016.8,E,D*25
$PGRME,2.4,M,2.4,M,3.4,M*29
$HCHDG,219.4,0.0,E,,*27
$HCHDG,219.4,0.0,E,,*27
$GPRMC,230009.2,A,4807.56636,N,12244.56782,W,007.08,250.0,040513,016.8,E,D*28
$PGRME,2.4,M,2.4,M,3.4,M*29
$HCHDG,219.5,0.0,E,,*26
$YXXDR,A,0.0,D,PTCH,A,-37.4,D,ROLL*40
$HCHDG,219.6,0.0,E,,*25
$IIRMB,A,0.00,L,,Ptm ,,,,,000.6,222,,V,A*2A
$GPRMC,230009.4,A,4807.56621,N,12244.56835,W,007.11,249.9,040513,016.8,E,D*22
$PGRME,2.4,M,2.4,M,3.4,M*29
$HCHDG,220.0,0.0,E,,*29
$IIRMC,230000,A,4807.566,N,12244.567,W,07.0,250,040513,16,E,A*10
$HCHDG,220.1,0.0,E,,*28
$IIVHW,,,,,00.0,N,,*19
$GPRMC,230009.6,A,4807.56606,N,12244.56889,W,007.14,250.6,040513,016.8,E,D*20
$GPRMB,A,0.00,L,Ptm,Ptm,4807.0330,N,12244.9520,W,0.6,222,6.99,V*0C
$PGRME,2.4,M,2.4,M,3.4,M*29
$IIVLW,06236,N,000.0,N*52
$HCHDG,220.4,0.0,E,,*2D
$IIDPT,047.7,-1.0,*44
$HCHDG,220.7,0.0,E,,*2E
$IIGLL,4807.566,N,12244.567,W,230000,A,A*48
$IIMTW,+09.0,C*31
$GPRMC,230009.8,A,4807.56592,N,12244.56943,W,007.14,252.4,040513,016.8,E,D*27
$YXXDR,A,-0.1,D,PTCH,A,-39.4,D,ROLL*62
$PTAK,FFD1,39.4*6B
$PGRME,2.4,M,2.4,M,3.4,M*29
$HCHDG,220.7,0.0,E,,*2E
$HCHDG,220.6,0.0,E,,*2F
$GPRMC,230010.0,A,4807.56582,N,12244.56996,W,007.13,253.2,040513,016.8,E,D*2E
$PGRME,2.4,M,2.4,M,3.4,M*29
$HCHDG,220.9,0.0,E,,*20
$HCHDG,221.0,0.0,E,,*28
$GPRMC,230010.2,A,4807.56573,N,12244.57050,W,007.08,253.0,040513,016.8,E,D*28
$PGRME,2.4,M,2.4,M,3.4,M*29
$HCHDG,220.7,0.0,E,,*2E
$YXXDR,A,-0.5,D,PTCH,A,-40.3,D,ROLL*6F
$HCHDG,220.3,0.0,E,,*2A
$IIRMB,A,0.00,L,,Ptm ,,,,,000.6,222,,V,A*2A
$GPRMC,230010.4,A,4807.56565,N,12244.57110,W,007.05,252.2,040513,016.8,E,D*22
$PGRME,2.4,M,2.4,M,3.4,M*29
$HCHDG,220.2,0.0,E,,*2B
$IIRMC,230000,A,4807.566,N,12244.567,W,07.0,250,040513,16,E,A*10
$HCHDG,219.8,0.0,E,,*2B
$IIVHW,,,,,00.0,N,,*19
$GPRMC,230010.6,A,4807.56555,N,12244.57164,W,007.03,250.7,040513,016.8,E,D*21
$GPRMB,A,0.00,L,Ptm,Ptm,4807.0330,N,12244.9520,W,0.6,222,6.88,V*0C
$PGRME,2.4,M,2.4,M,3.4,M*29
$IIVLW,06236,N,000.0,N*52
$HCHDG,219.3,0.0,E,,*20
$IIDPT,047.7,-1.0,*44
$HCHDG,218.9,0.0,E,,*2B
$IIGLL,4807.566,N,12244.567,W,230000,A,A*48
$IIMTW,+09.0,C*31
$GPRMC,230010.8,A,4807.56543,N,12244.57226,W,006.98,249.4,040513,016.8,E,D*25
$PGRME,2.4,M,2.4,M,3.4,M*29
$YXXDR,A,-0.1,D,PTCH,A,-37.1,D,ROLL*69
$PTAK,FFD1,37.1*60
$HCHDG,218.6,0.0,E,,*24
$HCHDG,218.3,0.0,E,,*21
$GPRMC,230011.0,A,4807.56524,N,12244.57285,W,006.96,246.8,040513,016.8,E,D*29
$PGRME,2.4,M,2.4,M,3.4,M*29
$HCHDG,217.8,0.0,E,,*25
$PTAK,FFP1,HEEL,@*07
$HCHDG,217.3,0.0,E,,*2E
$GPRMC,230011.2,A,4807.56508,N,12244.57354,W,006.96,246.0,040513,016.8,E,D*20
$PGRME,2.4,M,2.4,M,3.5,M*28
$HCHDG,217.2,0.0,E,,*2F
$YXXDR,A,0.0,D,PTCH,A,-34.6,D,ROLL*41
$HCHDG,217.1,0.0,E,,*2C
$IIRMB,A,0.00,L,,Ptm ,,,,,000.6,222,,V,A*2A
$GPRMC,230011.4,A,4807.56492,N,12244.57416,W,006.96,246.1,040513,016.8,E,D*24
$PGRME,2.4,M,2.5,M,3.5,M*29
$HCHDG,217.2,0.0,E,,*2F
$IIRMC,230000,A,4807.565,N,12244.570,W,07.0,253,040513,16,E,A*16
$HCHDG,217.5,0.0,E,,*28
$IIVHW,,,,,00.0,N,,*19
$GPRMC,230011.6,A,4807.56471,N,12244.57470,W,006.99,247.0,040513,016.8,E,D*24
$PGRME,2.4,M,2.5,M,3.5,M*29
$IIVLW,06236,N,000.0,N*52
$HCHDG,218.0,0.0,E,,*22
$IIDPT,047.7,-1.0,*44
$HCHDG,218.4,0.0,E,,*26
$IIGLL,4807.565,N,12244.570,W,230000,A,A*4D
$IIMTW,+09.0,C*31
$GPRMC,230011.8,A,4807.56453,N,12244.57528,W,007.02,248.0,040513,016.8,E,D*2A
$GPRMB,A,0.00,L,Ptm,Ptm,4807.0330,N,12244.9520,W,0.6,222,6.93,V*06
$YXXDR,A,0.0,D,PTCH,A,-36.4,D,ROLL*41
$PTAK,FFD1,36.4*64
$PGRME,2.4,M,2.5,M,3.5,M*29
$HCHDG,218.8,0.0,E,,*2A
$HCHDG,219.2,0.0,E,,*21
$GPRMC,230012.0,A,4807.56434,N,12244.57572,W,007.04,248.6,040513,016.8,E,D*2F
$PGRME,2.4,M,2.5,M,3.5,M*29
$HCHDG,219.7,0.0,E,,*24
$HCHDG,220.4,0.0,E,,*2D
$GPRMC,230012.2,A,4807.56413,N,12244.57618,W,007.07,250.2,040513,016.8,E,D*29
$PGRME,2.4,M,2.5,M,3.5,M*29
$HCHDG,220.7,0.0,E,,*2E
$YXXDR,A,0.0,D,PTCH,A,-39.0,D,ROLL*4A
$HCHDG,221.1,0.0,E,,*29
$IIRMB,A,0.00,L,,Ptm ,,,,,000.6,222,,V,A*2A
$GPRMC,230012.4,A,4807.56394,N,12244.57669,W,007.08,250.3,040513,016.8,E,D*2F
$PGRME,2.4,M,2.5,M,3.5,M*29
$HCHDG,221.3,0.0,E,,*2B
$IIRMC,230000,A,4807.565,N,12244.573,W,06.9,246,040513,16,E,A*19
$HCHDG,221.4,0.0,E,,*2C
$IIVHW,,,,,00.0,N,,*19
$GPRMC,230012.6,A,4807.56379,N,12244.57718,W,007.05,249.7,040513,016.8,E,D*28
$PGRME,2.4,M,2.5,M,3.5,M*29
$IIVLW,06236,N,000.0,N*52
$HCHDG,221.3,0.0,E,,*2B
$IIDPT,047.7,-1.0,*44
$HCHDG,221.1,0.0,E,,*29
$IIGLL,4807.565,N,12244.573,W,230000,A,A*4E
$IIMTW,+09.0,C*31
$GPRMC,230012.8,A,4807.56367,N,12244.57772,W,007.06,249.4,040513,016.8,E,D*25
$GPRMB,A,0.00,L,Ptm,Ptm,4807.0330,N,12244.9520,W,0.6,222,6.94,V*01
$YXXDR,A,0.2,D,PTCH,A,-36.6,D,ROLL*41
$PTAK,FFD1,36.6*66
$PGRME,2.4,M,2.5,M,3.5,M*29
$HCHDG,221.0,0.0,E,,*28
$HCHDG,220.6,0.0,E,,*2F
$GPRMC,230013.0,A,4807.56348,N,12244.57823,W,007.04,247.3,040513,016.8,E,D*21
$PGRME,2.4,M,2.5,M,3.5,M*29
$HCHDG,220.5,0.0,E,,*2C
$HCHDG,220.5,0.0,E,,*2C
$GPRMC,230013.2,A,4807.56315,N,12244.57862,W,007.02,248.1,040513,016.8,E,D*25
$PGRME,2.4,M,2.5,M,3.5,M*29
$HCHDG,220.4,0.0,E,,*2D
$YXXDR,A,0.3,D,PTCH,A,-35.8,D,ROLL*4D
$HCHDG,220.4,0.0,E,,*2D
$IIRMB,A,0.00,L,,Ptm ,,,,,000.6,222,,V,A*2A
$GPRMC,230013.4,A,4807.56296,N,12244.57918,W,007.03,249.6,040513,016.8,E,D*22
$PGRME,2.4,M,2.5,M,3.5,M*29
$HCHDG,220.5,0.0,E,,*2C
$IIRMC,230000,A,4807.564,N,12244.576,W,07.0,250,040513,16,E,A*12
$HCHDG,220.6,0.0,E,,*2F
$IIVHW,,,,,00.0,N,,*19
$GPRMC,230013.6,A,4807.56275,N,12244.57976,W,007.06,248.4,040513,016.8,E,D*23
$PGRME,2.4,M,2.5,M,3.5,M*29
$IIVLW,06236,N,000.0,N*52
$HCHDG,220.6,0.0,E,,*2F
$IIDPT,046.5,-1.0,*47
$HCHDG,220.7,0.0,E,,*2E
$IIGLL,4807.564,N,12244.576,W,230000,A,A*4A
$IIMTW,+09.0,C*31
$GPRMC,230013.8,A,4807.56259,N,12244.58044,W,007.08,250.7,040513,016.8,E,D*20
$YXXDR,A,0.1,D,PTCH,A,-37.2,D,ROLL*47
$PGRME,2.4,M,2.5,M,3.5,M*29
$HCHDG,221.0,0.0,E,,*28
$HCHDG,221.0,0.0,E,,*28
$GPRMC,230014.0,A,4807.56243,N,12244.58095,W,007.07,249.6,040513,016.8,E,D*2E
$GPRMB,A,0.00,L,Ptm,Ptm,4807.0330,N,12244.9520,W,0.6,222,6.94,V*01
$PGRME,2.4,M,2.5,M,3.5,M*29
$HCHDG,220.9,0.0,E,,*20
$HCHDG,220.5,0.0,E,,*2C
$GPRMC,230014.2,A,4807.56230,N,12244.58155,W,006.90,250.6,040513,016.8,E,D*22
$PGRME,2.4,M,2.5,M,3.5,M*29
$HCHDG,220.3,0.0,E,,*2A
$YXXDR,A,0.2,D,PTCH,A,-36.6,D,ROLL*41
$PTAK,FFD1,36.6*66
$HCHDG,220.0,0.0,E,,*29
$IIRMB,A,0.00,L,,Ptm ,,,,,000.6,222,,V,A*2A
$GPRMC,230014.4,A,4807.56219,N,12244.58212,W,006.90,250.7,040513,016.8,E,D*2E
$PGRME,2.4,M,2.5,M,3.5,M*29
$HCHDG,219.7,0.0,E,,*24
$IIRMC,230000,A,4807.564,N,12244.576,W,07.0,250,040513,16,E,A*12
$HCHDG,219.3,0.0,E,,*20
$IIVHW,,,,,00.0,N,,*19
$GPRMC,230014.6,A,4807.56206,N,12244.58271,W,006.84,249.3,040513,016.8,E,D*2E
$PGRME,2.4,M,2.5,M,3.5,M*29
$IIVLW,06236,N,000.0,N*52
$HCHDG,219.0,0.0,E,,*23
$IIDPT,046.5,-1.0,*47
$HCHDG,218.6,0.0,E,,*24
$IIGLL,4807.564,N,12244.576,W,230000,A,A*4A
$IIMTW,+09.0,C*31
$GPRMC,230014.8,A,4807.56190,N,12244.58320,W,006.77,246.8,040513,016.8,E,D*21
$YXXDR,A,0.1,D,PTCH,A,-34.4,D,ROLL*42
$PGRME,2.4,M,2.5,M,3.5,M*29
$HCHDG,218.1,0.0,E,,*23
$HCHDG,217.4,0.0,E,,*29
$GPRMC,230015.0,A,4807.56175,N,12244.58363,W,006.77,245.8,040513,016.8,E,D*27
$GPRMB,A,0.00,L,Ptm,Ptm,4807.0330,N,12244.9520,W,0.6,222,6.71,V*0A
$PGRME,2.4,M,2.5,M,3.5,M*29
$HCHDG,217.3,0.0,E,,*2E
$PTAK,FFP1,HEEL,@*07
$HCHDG,217.0,0.0,E,,*2D
$GPRMC,230015.2,A,4807.56159,N,12244.58407,W,007.00,244.6,040513,016.8,E,D*20
$PGRME,2.4,M,2.5,M,3.5,M*29
$HCHDG,216.6,0.0,E,,*2A
$YXXDR,A,0.2,D,PTCH,A,-33.2,D,ROLL*40
$HCHDG,216.5,0.0,E,,*29
$IIRMB,A,0.00,L,,Ptm ,,,,,000.6,222,,V,A*2A
$GPRMC,230015.4,A,4807.56145,N,12244.58464,W,007.02,246.2,040513,016.8,E,D*2A
$PGRME,2.4,M,2.5,M,3.5,M*29
$HCHDG,216.2,0.0,E,,*2E
$IIRMC,230000,A,4807.562,N,12244.581,W,06.9,250,040513,16,E,A*14
$HCHDG,216.2,0.0,E,,*2E
$IIVHW,,,,,00.0,N,,*19
$GPRMC,230015.6,A,4807.56128,N,12244.58518,W,006.95,246.5,040513,016.8,E,D*21
$PGRME,2.4,M,2.5,M,3.5,M*29
$IIVLW,06236,N,000.0,N*52
$HCHDG,216.3,0.0,E,,*2F
$IIDPT,046.5,-1.0,*47
$HCHDG,216.3,0.0,E,,*2F
$IIGLL,4807.562,N,12244.581,W,230000,A,A*44
$IIMTW,+09.0,C*31
$GPRMC,230015.8,A,4807.56113,N,12244.58565,W,006.95,247.5,040513,016.8,E,D*2C
$YXXDR,A,0.0,D,PTCH,A,-35.5,D,ROLL*43
$PTAK,FFD1,35.5*66
$PGRME,2.4,M,2.5,M,3.5,M*29
$HCHDG,216.4,0.0,E,,*28
$HCHDG,216.5,0.0,E,,*29
$GPRMC,230016.0,A,4807.56104,N,12244.58621,W,006.92,248.5,040513,016.8,E,D*2A
$PGRME,2.4,M,2.5,M,3.5,M*29
$HCHDG,216.7,0.0,E,,*2B
$HCHDG,216.8,0.0,E,,*24
$GPRMC,230016.2,A,4807.56099,N,12244.58673,W,006.92,248.8,040513,016.8,E,D*27
$GPRMB,A,0.00,L,Ptm,Ptm,4807.0330,N,12244.9520,W,0.6,221,6.80,V*07
$PGRME,2.4,M,2.5,M,3.5,M*29
$HCHDG,216.8,0.0,E,,*24
$YXXDR,A,-0.1,D,PTCH,A,-36.3,D,ROLL*6A
$HCHDG,216.7,0.0,E,,*2B
$IIRMB,A,0.00,L,,Ptm ,,,,,000.6,222,,V,A*2A
$GPRMC,230016.4,A,4807.56088,N,12244.58723,W,006.90,246.7,040513,016.8,E,D*26
$PGRME,2.4,M,2.4,M,3.4,M*29
$HCHDG,216.4,0.0,E,,*28
$IIRMC,230000,A,4807.561,N,12244.584,W,07.0,244,040513,16,E,A*1F
$HCHDG,215.8,0.0,E,,*27
$IIVHW,,,,,00.0,N,,*19
$GPRMC,230016.6,A,4807.56072,N,12244.58789,W,006.91,243.9,040513,016.8,E,D*2B
$PGRME,2.4,M,2.4,M,3.4,M*29
$IIVLW,06236,N,000.0,N*52
$HCHDG,215.4,0.0,E,,*2B
$IIDPT,046.5,-1.0,*47
$HCHDG,214.7,0.0,E,,*29
$IIGLL,4807.561,N,12244.584,W,230000,A,A*42
$IIMTW,+09.0,C*31
$GPRMC,230016.8,A,4807.56055,N,12244.58834,W,006.92,242.8,040513,016.8,E,D*2A
$YXXDR,A,0.5,D,PTCH,A,-31.0,D,ROLL*47
$PTAK,FFD1,31.0*67
$PGRME,2.4,M,2.4,M,3.4,M*29
$HCHDG,214.2,0.0,E,,*2C
$HCHDG,214.0,0.0,E,,*2E
$GPRMC,230017.0,A,4807.56037,N,12244.58878,W,006.96,243.2,040513,016.8,E,D*20
$PGRME,2.4,M,2.4,M,3.4,M*29
$HCHDG,214.0,0.0,E,,*2E
$HCHDG,214.2,0.0,E,,*2C
$GPRMC,230017.2,A,4807.56027,N,12244.58925,W,006.99,243.1,040513,016.8,E,D*26
$PGRME,2.4,M,2.4,M,3.4,M*29
$HCHDG,214.1,0.0,E,,*2F
$YXXDR,A,0.3,D,PTCH,A,-34.9,D,ROLL*4D
$HCHDG,214.5,0.0,E,,*2B
$IIRMB,A,0.00,L,,Ptm ,,,,,000.6,221,,V,A*29
$GPRMC,230017.4,A,4807.56015,N,12244.58967,W,006.99,243.3,040513,016.8,E,D*25
$GPRMB,A,0.00,L,Ptm,Ptm,4807.0330,N,12244.9520,W,0.6,221,6.96,V*00
$PGRME,2.4,M,2.4,M,3.4,M*29
$HCHDG,214.6,0.0,E,,*28
$IIRMC,230000,A,4807.561,N,12244.584,W,07.0,244,040513,16,E,A*1F
$HCHDG,214.5,0.0,E,,*2B
$IIVHW,,,,,00.0,N,,*19
$GPRMC,230017.6,A,4807.55996,N,12244.59019,W,007.03,242.0,040513,016.8,E,D*27
$PGRME,2.4,M,2.4,M,3.4,M*29
$IIVLW,06236,N,000.0,N*52
$HCHDG,214.6,0.0,E,,*28
$IIDPT,046.5,-1.0,*47
$HCHDG,214.5,0.0,E,,*2B
$IIGLL,4807.561,N,12244.584,W,230000,A,A*42
$IIMTW,+09.0,C*31
$GPRMC,230017.8,A,4807.55986,N,12244.59075,W,007.05,241.7,040513,016.8,E,D*20
$YXXDR,A,0.0,D,PTCH,A,-34.4,D,ROLL*43
$PGRME,2.4,M,2.4,M,3.4,M*29
$HCHDG,214.5,0.0,E,,*2B
$HCHDG,214.4,0.0,E,,*2A
$GPRMC,230018.0,A,4807.55977,N,12244.59127,W,007.05,243.1,040513,016.8,E,D*2B
$PGRME,2.4,M,2.4,M,3.4,M*29
$HCHDG,214.6,0.0,E,,*28
$HCHDG,215.0,0.0,E,,*2F
$GPRMC,230018.2,A,4807.55963,N,12244.59175,W,007.08,242.6,040513,016.8,E,D*20
$PGRME,2.4,M,2.4,M,3.4,M*29
$HCHDG,215.6,0.0,E,,*29
$YXXDR,A,0.3,D,PTCH,A,-35.1,D,ROLL*44
$PTAK,FFD1,35.1*62
$HCHDG,215.8,0.0,E,,*27
$IIRMB,A,0.00,L,,Ptm ,,,,,000.6,221,,V,A*29
$GPRMC,230018.4,A,4807.55944,N,12244.59229,W,007.08,243.1,040513,016.8,E,D*2F
$PGRME,2.4,M,2.4,M,3.4,M*29
$HCHDG,216.2,0.0,E,,*2E
$IIRMC,230000,A,4807.560,N,12244.589,W,06.9,243,040513,16,E,A*1C
$HCHDG,216.3,0.0,E,,*2F
$IIVHW,,,,,00.0,N,,*19
$GPRMC,230018.6,A,4807.55926,N,12244.59275,W,007.04,243.0,040513,016.8,E,D*2D
$GPRMB,A,0.00,L,Ptm,Ptm,4807.0330,N,12244.9520,W,0.6,221,7.01,V*0F
$PGRME,2.4,M,2.4,M,3.4,M*29
$IIVLW,06236,N,000.0,N*52
$HCHDG,216.5,0.0,E,,*29
$IIDPT,046.5,-1.0,*47
$HCHDG,216.8,0.0,E,,*24
$IIGLL,4807.560,N,12244.589,W,230000,A,A*4E
$IIMTW,+09.0,C*31
$GPRMC,230018.8,A,4807.55909,N,12244.59332,W,007.01,245.1,040513,016.8,E,D*2E
$YXXDR,A,0.0,D,PTCH,A,-35.4,D,ROLL*42
$PGRME,2.4,M,2.4,M,3.4,M*29
$HCHDG,217.0,0.0,E,,*2D
$HCHDG,217.3,0.0,E,,*2E
$GPRMC,230019.0,A,4807.55900,N,12244.59387,W,006.84,244.8,040513,016.8,E,D*24
$PGRME,2.4,M,2.4,M,3.4,M*29
$HCHDG,217.8,0.0,E,,*25
$HCHDG,218.0,0.0,E,,*22
$GPRMC,230019.2,A,4807.55887,N,12244.59442,W,006.82,246.0,040513,016.8,E,D*2A
$PGRME,2.4,M,2.4,M,3.4,M*29
$HCHDG,218.1,0.0,E,,*23
$PTAK,FFP1,HEEL,@*07
$YXXDR,A,-0.3,D,PTCH,A,-34.9,D,ROLL*60
$PTAK,FFD1,34.9*6B
$HCHDG,218.2,0.0,E,,*20
$IIRMB,A,0.00,L,,Ptm ,,,,,000.6,221,,V,A*29
$GPRMC,230019.4,A,4807.55875,N,12244.59495,W,006.84,247.1,040513,016.8,E,D*2D
$PGRME,2.4,M,2.4,M,3.4,M*29
$HCHDG,218.5,0.0,E,,*27
$IIRMC,230000,A,4807.559,N,12244.591,W,07.0,242,040513,16,E,A*16
$HCHDG,218.7,0.0,E,,*25
$IIVHW,,,,,00.0,N,,*19
$GPRMC,230019.6,A,4807.55857,N,12244.59548,W,006.86,247.5,040513,016.8,E,D*28
$GPRMB,A,0.00,L,Ptm,Ptm,4807.0330,N,12244.9520,W,0.6,221,6.76,V*0E
$PGRME,2.4,M,2.4,M,3.4,M*29
$IIVLW,06236,N,000.0,N*52
$HCHDG,219.2,0.0,E,,*21
$IIDPT,046.5,-1.0,*47
$HCHDG,219.4,0.0,E,,*27
$IIGLL,4807.559,N,12244.591,W,230000,A,A*4D
$IIMTW,+09.0,C*31
$GPRMC,230019.8,A,4807.55839,N,12244.59604,W,006.83,250.2,040513,016.8,E,D*21
$YXXDR,A,0.2,D,PTCH,A,-34.8,D,ROLL*4D
$PGRME,2.4,M,2.4,M,3.4,M*29
$HCHDG,219.5,0.0,E,,*26
$HCHDG,219.8,0.0,E,,*2B
$GPRMC,230020.0,A,4807.55814,N,12244.59661,W,006.54,250.1,040513,016.8,E,D*26
$PGRME,2.4,M,2.4,M,3.4,M*29
$HCHDG,219.9,0.0,E,,*2A
$HCHDG,220.1,0.0,E,,*28
$GPRMC,230020.2,A,4807.55798,N,12244.59704,W,006.56,249.9,040513,016.8,E,D*2F
$PGRME,2.4,M,2.4,M,3.4,M*29
$HCHDG,220.4,0.0,E,,*2D
$YXXDR,A,0.0,D,PTCH,A,-34.9,D,ROLL*4E
$PTAK,FFD1,34.9*6B
$HCHDG,220.4,0.0,E,,*2D
$IIRMB,A,0.00,L,,Ptm ,,,,,000.6,221,,V,A*29
$GPRMC,230020.4,A,4807.55780,N,12244.59745,W,006.49,249.5,040513,016.8,E,D*27
$PGRME,2.4,M,2.4,M,3.4,M*29
$HCHDG,220.2,0.0,E,,*2B
$IIRMC,230000,A,4807.558,N,12244.594,W,06.8,246,040513,16,E,A*1F
$HCHDG,220.2,0.0,E,,*2B
$IIVHW,,,,,00.0,N,,*19
$GPRMC,230020.6,A,4807.55765,N,12244.59791,W,006.66,248.3,040513,016.8,E,D*2D
$GPRMB,A,0.00,L,Ptm,Ptm,4807.0330,N,12244.9520,W,0.6,221,6.55,V*0F
$PGRME,2.4,M,2.4,M,3.4,M*29
$IIVLW,06236,N,000.0,N*52
$HCHDG,220.0,0.0,E,,*29
$IIDPT,046.5,-1.0,*47
$HCHDG,220.0,0.0,E,,*29
$IIGLL,4807.558,N,12244.594,W,230000,A,A*49
$IIMTW,+09.0,C*31
$GPRMC,230020.8,A,4807.55752,N,12244.59842,W,006.65,249.0,040513,016.8,E,D*27
$YXXDR,A,0.1,D,PTCH,A,-32.3,D,ROLL*43
$PGRME,2.4,M,2.4,M,3.4,M*29
$HCHDG,220.0,0.0,E,,*29
$HCHDG,220.3,0.0,E,,*2A
$GPRMC,230021.0,A,4807.55740,N,12244.59901,W,006.65,249.4,040513,016.8,E,D*2F
$PGRME,2.4,M,2.4,M,3.4,M*29
$HCHDG,220.4,0.0,E,,*2D
$HCHDG,220.5,0.0,E,,*2C
$GPRMC,230021.2,A,4807.55727,N,12244.59953,W,006.63,250.2,040513,016.8,E,D*23
$PGRME,2.4,M,2.4,M,3.4,M*29
$HCHDG,220.7,0.0,E,,*2E
$YXXDR,A,0.2,D,PTCH,A,-33.1,D,ROLL*43
$HCHDG,220.8,0.0,E,,*21
$IIRMB,A,0.00,L,,Ptm ,,,,,000.6,221,,V,A*29
$GPRMC,230021.4,A,4807.55721,N,12244.60008,W,006.61,250.4,040513,016.8,E,D*2A
$PGRME,2.4,M,2.4,M,3.4,M*29
$HCHDG,221.2,0.0,E,,*2A
$IIRMC,230000,A,4807.557,N,12244.597,W,06.5,249,040513,16,E,A*11
$HCHDG,221.5,0.0,E,,*2D
$IIVHW,,,,,00.0,N,,*19
$GPRMC,230021.6,A,4807.55712,N,12244.60063,W,006.58,249.2,040513,016.8,E,D*21
$PGRME,2.4,M,2.4,M,3.4,M*29
$IIVLW,06236,N,000.0,N*52
$HCHDG,221.6,0.0,E,,*2E
$IIGLL,4807.557,N,12244.597,W,230000,A,A*45
$HCHDG,221.7,0.0,E,,*2F
$IIMTW,+09.0,C*31
$GPRMC,230021.8,A,4807.55699,N,12244.60114,W,006.59,248.5,040513,016.8,E,D*2B
$GPRMB,A,0.00,L,Ptm,Ptm,4807.0330,N,12244.9520,W,0.6,221,6.47,V*0C
$YXXDR,A,0.0,D,PTCH,A,-32.9,D,ROLL*48
$PTAK,FFD1,32.9*6D
$PGRME,2.4,M,2.4,M,3.4,M*29
$HCHDG,222.0,0.0,E,,*2B
$HCHDG,221.9,0.0,E,,*21
$GPRMC,230022.0,A,4807.55696,N,12244.60179,W,006.59,247.5,040513,016.8,E,D*2B
$PGRME,2.4,M,2.4,M,3.4,M*29
$HCHDG,221.8,0.0,E,,*20
$HCHDG,221.6,0.0,E,,*2E
$GPRMC,230022.2,A,4807.55686,N,12244.60238,W,006.58,249.0,040513,016.8,E,D*24
$PGRME,2.4,M,2.4,M,3.4,M*29
$HCHDG,221.7,0.0,E,,*2F
$YXXDR,A,0.2,D,PTCH,A,-32.1,D,ROLL*42
$HCHDG,221.7,0.0,E,,*2F
$IIRMB,A,0.00,L,,Ptm ,,,,,000.6,221,,V,A*29
$GPRMC,230022.4,A,4807.55674,N,12244.60295,W,006.74,247.7,040513,016.8,E,D*2F
$PGRME,2.4,M,2.4,M,3.4,M*29
$HCHDG,222.1,0.0,E,,*2A
$IIRMC,230000,A,4807.557,N,12244.599,W,06.6,250,040513,16,E,A*14
$HCHDG,222.4,0.0,E,,*2F
$IIVHW,,,,,00.0,N,,*19
$GPRMC,230022.6,A,4807.55668,N,12244.60357,W,006.76,250.3,040513,016.8,E,D*2F
$PGRME,2.4,M,2.4,M,3.4,M*29
$IIVLW,06236,N,000.0,N*52
$HCHDG,222.9,0.0,E,,*22
$IIDPT,039.0,-1.0,*4A
$HCHDG,223.1,0.0,E,,*2B
$IIGLL,4807.557,N,12244.599,W,230000,A,A*4B
$IIMTW,+09.0,C*31
$GPRMC,230022.8,A,4807.55656,N,12244.60408,W,006.79,251.5,040513,016.8,E,D*29
$GPRMB,A,0.00,L,Ptm,Ptm,4807.0330,N,12244.9520,W,0.6,221,6.58,V*02
$PGRME,2.4,M,2.4,M,3.4,M*29
$YXXDR,A,0.0,D,PTCH,A,-34.0,D,ROLL*47
$PTAK,FFD1,34.0*62
$HCHDG,223.4,0.0,E,,*2E
$HCHDG,224.0,0.0,E,,*2D
$GPRMC,230023.0,A,4807.55644,N,12244.60462,W,006.80,252.7,040513,016.8,E,D*28
$PGRME,2.4,M,2.4,M,3.4,M*29
$HCHDG,224.5,0.0,E,,*28
$HCHDG,225.1,0.0,E,,*2D
$GPRMC,230023.2,A,4807.55633,N,12244.60517,W,006.76,255.2,040513,016.8,E,D*22
$PGRME,2.4,M,2.4,M,3.4,M*29
$HCHDG,225.4,0.0,E,,*28
$PTAK,FFP1,HEEL,@*07
$YXXDR,A,0.0,D,PTCH,A,-34.8,D,ROLL*4F
$HCHDG,225.9,0.0,E,,*25
$IIRMB,A,0.00,L,,Ptm ,,,,,000.6,221,,V,A*29
$GPRMC,230023.4,A,4807.55624,N,12244.60561,W,006.74,256.0,040513,016.8,E,D*20
$PGRME,2.4,M,2.4,M,3.4,M*29
$HCHDG,226.2,0.0,E,,*2D
$IIRMC,230000,A,4807.556,N,12244.602,W,06.7,247,040513,16,E,A*13
$HCHDG,226.5,0.0,E,,*2A
$IIVHW,,,,,00.0,N,,*19
$GPRMC,230023.6,A,4807.55616,N,12244.60613,W,006.45,257.0,040513,016.8,E,D*26
$PGRME,2.4,M,2.4,M,3.4,M*29
$IIVLW,06236,N,000.0,N*52
$HCHDG,226.7,0.0,E,,*28
$IIDPT,039.1,-1.0,*4B
$HCHDG,226.4,0.0,E,,*2B
$IIGLL,4807.556,N,12244.602,W,230000,A,A*4B
$IIMTW,+09.0,C*31
$GPRMC,230023.8,A,4807.55608,N,12244.60673,W,006.48,257.2,040513,016.8,E,D*2E
$GPRMB,A,0.00,L,Ptm,Ptm,4807.0330,N,12244.9520,W,0.6,220,6.09,V*07
$YXXDR,A,0.0,D,PTCH,A,-33.3,D,ROLL*43
$PGRME,2.4,M,2.4,M,3.4,M*29
$HCHDG,226.5,0.0,E,,*2A
$HCHDG,226.7,0.0,E,,*28
$GPRMC,230024.0,A,4807.55600,N,12244.60738,W,006.48,256.7,040513,016.8,E,D*23
$PGRME,2.4,M,2.4,M,3.4,M*29
$HCHDG,226.7,0.0,E,,*28
$HCHDG,227.0,0.0,E,,*2E
$GPRMC,230024.2,A,4807.55600,N,12244.60784,W,006.54,255.3,040513,016.8,E,D*2C
$PGRME,2.4,M,2.4,M,3.4,M*29
$HCHDG,227.1,0.0,E,,*2F
$YXXDR,A,-0.2,D,PTCH,A,-30.4,D,ROLL*68
$PTAK,FFD1,30.4*62
$HCHDG,227.2,0.0,E,,*2C
$IIRMB,A,0.00,L,,Ptm ,,,,,000.6,220,,V,A*28
$GPRMC,230024.4,A,4807.55591,N,12244.60832,W,006.78,254.4,040513,016.8,E,D*2B
$PGRME,2.4,M,2.4,M,3.4,M*29
$HCHDG,227.4,0.0,E,,*2A
$IIRMC,230000,A,4807.556,N,12244.605,W,06.7,256,040513,16,E,A*14
$HCHDG,228.1,0.0,E,,*20
$IIVHW,,,,,00.0,N,,*19
$GPRMC,230024.6,A,4807.55588,N,12244.60890,W,006.79,259.2,040513,016.8,E,D*23
$PGRME,2.4,M,2.4,M,3.4,M*29
$IIVLW,06236,N,000.0,N*52
$HCHDG,228.8,0.0,E,,*29
$IIDPT,039.1,-1.0,*4B
$HCHDG,229.6,0.0,E,,*26
$IIGLL,4807.556,N,12244.605,W,230000,A,A*4C
$IIMTW,+09.0,C*31
$GPRMC,230024.8,A,4807.55584,N,12244.60949,W,006.74,263.0,040513,016.8,E,D*22
$YXXDR,A,2.0,D,PTCH,A,-32.0,D,ROLL*43
$PGRME,2.4,M,2.4,M,3.4,M*29
$HCHDG,230.1,0.0,E,,*29
$HCHDG,230.7,0.0,E,,*2F
$GPRMC,230025.0,A,4807.55580,N,12244.61007,W,006.54,263.7,040513,016.8,E,D*28
$GPRMB,A,0.00,L,Ptm,Ptm,4807.0330,N,12244.9520,W,0.6,220,5.84,V*01
$PGRME,2.4,M,2.4,M,3.4,M*29
$HCHDG,230.9,0.0,E,,*21
$HCHDG,230.7,0.0,E,,*2F
$GPRMC,230025.2,A,4807.55573,N,12244.61061,W,006.51,263.2,040513,016.8,E,D*26
$PGRME,2.4,M,2.4,M,3.4,M*29
$HCHDG,230.3,0.0,E,,*2B
$YXXDR,A,0.1,D,PTCH,A,-32.2,D,ROLL*42
$PTAK,FFD1,32.2*66
$HCHDG,230.4,0.0,E,,*2C
$GPRMC,230025.4,A,4807.55565,N,12244.61113,W,006.56,261.5,040513,016.8,E,D*21
$PGRME,2.4,M,2.4,M,3.4,M*29
$HCHDG,229.9,0.0,E,,*29
$HCHDG,229.6,0.0,E,,*26
$GPRMC,230025.6,A,4807.55558,N,12244.61165,W,006.62,261.9,040513,016.8,E,D*27
$PGRME,2.4,M,2.4,M,3.4,M*29
$HCHDG,229.5,0.0,E,,*25
$HCHDG,229.1,0.0,E,,*21
$GPRMC,230025.8,A,4807.55547,N,12244.61217,W,006.65,259.3,040513,016.8,E,D*27
$YXXDR,A,0.6,D,PTCH,A,-30.2,D,ROLL*47
$PGRME,2.4,M,2.4,M,3.4,M*29
$HCHDG,228.6,0.0,E,,*27
$HCHDG,228.2,0.0,E,,*23
$GPRMC,230026.0,A,4807.55538,N,12244.61273,W,006.67,259.9,040513,016.8,E,D*2E
$PGRME,2.4,M,2.4,M,3.4,M*29
$HCHDG,227.9,0.0,E,,*27
$HCHDG,227.8,0.0,E,,*26
$GPRMC,230026.2,A,4807.55531,N,12244.61322,W,006.66,261.6,040513,016.8,E,D*25
$GPRMB,A,0.00,L,Ptm,Ptm,4807.0330,N,12244.9520,W,0.6,220,6.05,V*0B
$PGRME,2.4,M,2.4,M,3.4,M*29
$HCHDG,227.3,0.0,E,,*2D
$YXXDR,A,0.5,D,PTCH,A,-30.9,D,ROLL*4F
$PTAK,FFD1,30.9*6F
$HCHDG,226.8,0.0,E,,*27
$IIRMB,A,0.00,L,,Ptm ,,,,,000.6,220,,V,A*28
$GPRMC,230026.4,A,4807.55522,N,12244.61380,W,006.62,261.6,040513,016.8,E,D*2D
$PGRME,2.4,M,2.4,M,3.4,M*29
$HCHDG,226.7,0.0,E,,*28
$IIRMC,230000,A,4807.555,N,12244.608,W,06.7,254,040513,16,E,A*18
$HCHDG,226.1,0.0,E,,*2E
$IIVHW,,,,,00.0,N,,*19
$GPRMC,230026.6,A,4807.55514,N,12244.61425,W,006.44,260.7,040513,016.8,E,D*26
$PGRME,2.4,M,2.4,M,3.4,M*29
$IIVLW,06236,N,000.0,N*52
$HCHDG,225.7,0.0,E,,*2B
$IIDPT,037.3,-1.0,*47
$HCHDG,225.1,0.0,E,,*2D
$IIGLL,4807.555,N,12244.608,W,230000,A,A*42
$IIMTW,+09.0,C*31
$GPRMC,230026.8,A,4807.55507,N,12244.61468,W,006.63,257.0,040513,016.8,E,D*25
$YXXDR,A,0.8,D,PTCH,A,-29.7,D,ROLL*44
$PGRME,2.4,M,2.4,M,3.4,M*29
$HCHDG,224.3,0.0,E,,*2E
$IIRMB,A,0.00,L,,Ptm ,,,,,000.6,220,,V,A*28
$HCHDG,223.8,0.0,E,,*22
$GPRMC,230027.0,A,4807.55499,N,12244.61516,W,006.62,255.2,040513,016.8,E,D*23
$PGRME,2.4,M,2.4,M,3.4,M*29
$HCHDG,222.9,0.0,E,,*22
$HCHDG,222.1,0.0,E,,*2A
$GPRMC,230027.2,A,4807.55489,N,12244.61564,W,006.70,253.6,040513,016.8,E,D*24
$PGRME,2.4,M,2.4,M,3.4,M*29
$HCHDG,221.4,0.0,E,,*2C
$YXXDR,A,2.1,D,PTCH,A,-25.4,D,ROLL*40
$PTAK,FFP1,HEEL,@*07
$HCHDG,220.8,0.0,E,,*21
$GPRMC,230027.4,A,4807.55485,N,12244.61618,W,006.72,254.7,040513,016.8,E,D*22
$GPRMB,A,0.00,L,Ptm,Ptm,4807.0330,N,12244.9520,W,0.6,220,6.39,V*04
$PGRME,2.4,M,2.4,M,3.4,M*29
$IIRMC,230000,A,4807.555,N,12244.613,W,06.6,261,040513,16,E,A*15
$HCHDG,220.6,0.0,E,,*2F
$IIVHW,,,,,00.0,N,,*19
$IIVLW,06236,N,000.0,N*52
$HCHDG,220.5,0.0,E,,*2C
$IIDPT,037.3,-1.0,*47
$GPRMC,230027.6,A,4807.55481,N,12244.61676,W,006.77,256.6,040513,016.8,E,D*2A
$PGRME,2.4,M,2.4,M,3.4,M*29
$HCHDG,220.6,0.0,E,,*2F
$IIGLL,4807.555,N,12244.613,W,230000,A,A*48
$IIMTW,+09.0,C*31
$HCHDG,220.4,0.0,E,,*2D
$IIRMB,A,0.00,L,,Ptm ,,,,,000.6,220,,V,A*28
$GPRMC,230027.8,A,4807.55477,N,12244.61728,W,006.84,256.4,040513,016.8,E,D*29
$YXXDR,A,1.3,D,PTCH,A,-29.4,D,ROLL*4D
$PTAK,FFD1,29.4*6A
$PGRME,2.4,M,2.4,M,3.4,M*29
$HCHDG,220.0,0.0,E,,*29
$HCHDG,219.8,0.0,E,,*2B
$GPRMC,230028.0,A,4807.55468,N,12244.61796,W,006.85,254.8,040513,016.8,E,D*2A
$PGRME,2.4,M,2.4,M,3.4,M*29
$HCHDG,219.6,0.0,E,,*25
$HCHDG,218.9,0.0,E,,*2B
$GPRMC,230028.2,A,4807.55459,N,12244.61852,W,006.84,252.5,040513,016.8,E,D*27
$PGRME,2.4,M,2.4,M,3.4,M*29
$HCHDG,218.7,0.0,E,,*25
$YXXDR,A,1.1,D,PTCH,A,-30.1,D,ROLL*42
$HCHDG,218.2,0.0,E,,*20
$GPRMC,230028.4,A,4807.55449,N,12244.61903,W,006.82,252.0,040513,016.8,E,D*26
$GPRMB,A,0.00,L,Ptm,Ptm,4807.0330,N,12244.9520,W,0.6,220,6.57,V*0C
$PGRME,2.4,M,2.4,M,3.4,M*29
$IIRMC,230000,A,4807.554,N,12244.616,W,06.7,254,040513,16,E,A*16
$HCHDG,217.2,0.0,E,,*2F
$IIVHW,,,,,00.0,N,,*19
$IIVLW,06236,N,000.0,N*52
$HCHDG,217.1,0.0,E,,*2C
$IIDPT,037.3,-1.0,*47
$GPRMC,230028.6,A,4807.55432,N,12244.61961,W,006.83,249.8,040513,016.8,E,D*2F
$PGRME,2.4,M,2.4,M,3.4,M*29
$HCHDG,216.2,0.0,E,,*2E
$IIGLL,4807.554,N,12244.616,W,230000,A,A*4C
$IIMTW,+09.0,C*31
$HCHDG,215.6,0.0,E,,*29
$IIRMB,A,0.00,L,,Ptm ,,,,,000.6,220,,V,A*28
$GPRMC,230028.8,A,4807.55414,N,12244.62022,W,006.84,247.3,040513,016.8,E,D*2A
$YXXDR,A,2.0,D,PTCH,A,-27.1,D,ROLL*46
$PGRME,2.4,M,2.4,M,3.4,M*29
$HCHDG,214.8,0.0,E,,*26
$HCHDG,214.3,0.0,E,,*2D
$GPRMC,230029.0,A,4807.55402,N,12244.62075,W,006.88,246.6,040513,016.8,E,D*2E
$PGRME,2.4,M,2.4,M,3.4,M*29
$HCHDG,213.6,0.0,E,,*2F
$HCHDG,213.4,0.0,E,,*2D
$GPRMC,230029.2,A,4807.55386,N,12244.62126,W,007.12,245.5,040513,016.8,E,D*22
$PGRME,2.4,M,2.4,M,3.4,M*29
$HCHDG,213.1,0.0,E,,*28
$YXXDR,A,1.4,D,PTCH,A,-27.9,D,ROLL*49
$PTAK,FFD1,27.9*69
$HCHDG,212.8,0.0,E,,*20
$GPRMC,230029.4,A,4807.55373,N,12244.62173,W,007.10,245.3,040513,016.8,E,D*2A
$PGRME,2.4,M,2.4,M,3.4,M*29
$IIRMC,230000,A,4807.554,N,12244.619,W,06.8,252,040513,16,E,A*10
$HCHDG,212.9,0.0,E,,*21
$IIVHW,,,,,00.0,N,,*19
$IIVLW,06236,N,000.0,N*52
$HCHDG,212.8,0.0,E,,*20
$IIDPT,034.3,-1.0,*44
$GPRMC,230029.6,A,4807.55356,N,12244.62221,W,007.16,245.7,040513,016.8,E,D*29
$GPRMB,A,0.00,L,Ptm,Ptm,4807.0330,N,12244.9520,W,0.6,220,7.06,V*09
$PGRME,2.4,M,2.4,M,3.4,M*29
$HCHDG,213.0,0.0,E,,*29
$IIGLL,4807.554,N,12244.619,W,230000,A,A*43
$IIMTW,+09.0,C*31
$HCHDG,213.4,0.0,E,,*2D
$IIRMB,A,0.00,L,,Ptm ,,,,,000.6,220,,V,A*28
$GPRMC,230029.8,A,4807.55338,N,12244.62280,W,007.20,246.0,040513,016.8,E,D*25
$YXXDR,A,1.4,D,PTCH,A,-29.5,D,ROLL*4B
$PGRME,2.4,M,2.4,M,3.4,M*29
$HCHDG,213.2,0.0,E,,*2B
$HCHDG,213.6,0.0,E,,*2F
$GPRMC,230030.0,A,4807.55318,N,12244.62328,W,007.17,246.5,040513,016.8,E,D*25
$PGRME,2.4,M,2.4,M,3.4,M*29
$HCHDG,213.9,0.0,E,,*20
$HCHDG,214.4,0.0,E,,*2A
$GPRMC,230030.2,A,4807.55302,N,12244.62385,W,007.20,245.8,040513,016.8,E,D*21
$PGRME,2.4,M,2.4,M,3.4,M*29
$HCHDG,214.5,0.0,E,,*2B
$YXXDR,A,1.1,D,PTCH,A,-31.8,D,ROLL*4A
$HCHDG,214.6,0.0,E,,*28
$GPRMC,230030.4,A,4807.55285,N,12244.62444,W,007.22,245.3,040513,016.8,E,D*2A
$PGRME,2.4,M,2.4,M,3.4,M*29
$IIRMC,230000,A,4807.553,N,12244.621,W,07.1,245,040513,16,E,A*12
$HCHDG,214.5,0.0,E,,*2B
$IIVHW,,,,,00.0,N,,*19
$IIVLW,06236,N,000.0,N*52
$HCHDG,214.5,0.0,E,,*2B
$IIDPT,034.3,-1.0,*44
$GPRMC,230030.6,A,4807.55267,N,12244.62497,W,007.21,244.6,040513,016.8,E,D*2D
$PGRME,2.4,M,2.4,M,3.4,M*29
$HCHDG,214.7,0.0,E,,*29
$IIGLL,4807.553,N,12244.621,W,230000,A,A*4F
$IIMTW,+09.0,C*31
$HCHDG,214.5,0.0,E,,*2B
$IIRMB,A,0.00,L,,Ptm ,,,,,000.6,220,,V,A*28
$GPRMC,230030.8,A,4807.55245,N,12244.62552,W,007.22,245.3,040513,016.8,E,D*2C
$GPRMB,A,0.00,L,Ptm,Ptm,4807.0330,N,12244.9520,W,0.6,219,7.13,V*07
$YXXDR,A,1.3,D,PTCH,A,-30.7,D,ROLL*46
$PTAK,FFD1,30.7*61
$PGRME,2.4,M,2.4,M,3.4,M*29
$HCHDG,214.5,0.0,E,,*2B
$HCHDG,214.6,0.0,E,,*28
$GPRMC,230031.0,A,4807.55222,N,12244.62616,W,007.20,246.2,040513,016.8,E,D*27
$PGRME,2.4,M,2.4,M,3.4,M*29
$HCHDG,214.7,0.0,E,,*29
$HCHDG,214.7,0.0,E,,*29
$GPRMC,230031.2,A,4807.55212,N,12244.62671,W,007.18,248.1,040513,016.8,E,D*21
$PGRME,2.4,M,2.4,M,3.4,M*29
$HCHDG,214.6,0.0,E,,*28
$YXXDR,A,0.6,D,PTCH,A,-32.8,D,ROLL*4F
$PTAK,FFP1,HEEL,@*07
$HCHDG,214.9,0.0,E,,*27
$GPRMC,230031.4,A,4807.55205,N,12244.62733,W,007.16,247.6,040513,016.8,E,D*20
$PGRME,2.4,M,2.4,M,3.4,M*29
$IIRMC,230000,A,4807.553,N,12244.621,W,07.1,245,040513,16,E,A*12
$HCHDG,214.9,0.0,E,,*27
$IIVHW,,,,,00.0,N,,*19
$IIVLW,06236,N,000.0,N*52
$HCHDG,215.1,0.0,E,,*2E
$IIDPT,034.3,-1.0,*44
$GPRMC,230031.6,A,4807.55194,N,12244.62798,W,007.16,247.2,040513,016.8,E,D*2C
$PGRME,2.4,M,2.4,M,3.4,M*29
$HCHDG,214.8,0.0,E,,*26
$IIGLL,4807.553,N,12244.621,W,230000,A,A*4F
$IIMTW,+09.0,C*31
$HCHDG,214.2,0.0,E,,*2C
$IIRMB,A,0.00,L,,Ptm ,,,,,000.6,219,,V,A*22
$GPRMC,230031.8,A,4807.55182,N,12244.62850,W,007.14,247.2,040513,016.8,E,D*2C
$GPRMB,A,0.00,L,Ptm,Ptm,4807.0330,N,12244.9520,W,0.6,219,7.00,V*05
$YXXDR,A,0.7,D,PTCH,A,-33.3,D,ROLL*44
$PTAK,FFD1,33.3*66
$PGRME,2.4,M,2.4,M,3.4,M*29
$HCHDG,213.7,0.0,E,,*2E
$HCHDG,213.1,0.0,E,,*28
$GPRMC,230032.0,A,4807.55168,N,12244.62901,W,007.10,245.6,040513,016.8,E,D*24
$PGRME,2.4,M,2.4,M,3.4,M*29
$HCHDG,212.5,0.0,E,,*2D
$HCHDG,211.8,0.0,E,,*23
$GPRMC,230032.2,A,4807.55155,N,12244.62949,W,006.92,243.6,040513,016.8,E,D*29
$PGRME,2.4,M,2.4,M,3.4,M*29
$HCHDG,211.3,0.0,E,,*28
$YXXDR,A,0.9,D,PTCH,A,-30.2,D,ROLL*48
$HCHDG,210.5,0.0,E,,*2F
$GPRMC,230032.4,A,4807.55138,N,12244.62993,W,006.92,242.3,040513,016.8,E,D*27
$PGRME,2.4,M,2.4,M,3.4,M*29
$IIRMC,230000,A,4807.552,N,12244.627,W,07.1,247,040513,16,E,A*17
$HCHDG,210.0,0.0,E,,*2A
$IIVHW,,,,,00.0,N,,*19
$IIVLW,06236,N,000.0,N*52
$HCHDG,209.6,0.0,E,,*24
$IIDPT,034.3,-1.0,*44
$GPRMC,230032.6,A,4807.55118,N,12244.63043,W,006.92,242.3,040513,016.8,E,D*22
$PGRME,2.4,M,2.4,M,3.4,M*29
$HCHDG,208.9,0.0,E,,*2A
$IIGLL,4807.552,N,12244.627,W,230000,A,A*48
$IIMTW,+09.0,C*31
$HCHDG,208.6,0.0,E,,*25
$IIRMB,A,0.00,L,,Ptm ,,,,,000.6,219,,V,A*22
$GPRMC,230032.8,A,4807.55102,N,12244.63087,W,006.94,241.5,040513,016.8,E,D*2C
$GPRMB,A,0.00,L,Ptm,Ptm,4807.0330,N,12244.9520,W,0.6,219,6.91,V*0C
$YXXDR,A,0.6,D,PTCH,A,-30.2,D,ROLL*47
$PTAK,FFD1,30.2*64
$PGRME,2.4,M,2.4,M,3.4,M*29
$HCHDG,208.4,0.0,E,,*27
$HCHDG,208.4,0.0,E,,*27
$GPRMC,230033.0,A,4807.55084,N,12244.63136,W,006.96,242.4,040513,016.8,E,D*21
$PGRME,2.4,M,2.4,M,3.4,M*29
$HCHDG,208.4,0.0,E,,*27
$HCHDG,208.4,0.0,E,,*27
$GPRMC,230033.2,A,4807.55065,N,12244.63186,W,006.98,242.0,040513,016.8,E,D*2D
$PGRME,2.4,M,2.4,M,3.4,M*29
$HCHDG,209.0,0.0,E,,*22
$YXXDR,A,0.3,D,PTCH,A,-32.2,D,ROLL*40
$HCHDG,209.1,0.0,E,,*23
$GPRMC,230033.4,A,4807.55042,N,12244.63236,W,007.02,240.4,040513,016.8,E,D*22
$PGRME,2.4,M,2.4,M,3.4,M*29
$IIRMC,230000,A,4807.551,N,12244.629,W,06.9,242,040513,16,E,A*16
$HCHDG,209.2,0.0,E,,*20
$IIVHW,,,,,00.0,N,,*19
$IIVLW,06236,N,000.0,N*52
$HCHDG,209.1,0.0,E,,*23
$IIDPT,031.1,-1.0,*43
$GPRMC,230033.6,A,4807.55021,N,12244.63288,W,007.05,239.7,040513,016.8,E,D*2A
$PGRME,2.4,M,2.4,M,3.4,M*29
$HCHDG,209.1,0.0,E,,*23
$IIGLL,4807.551,N,12244.629,W,230000,A,A*45
$IIMTW,+09.0,C*31
$HCHDG,209.0,0.0,E,,*22
$IIRMB,A,0.00,L,,Ptm ,,,,,000.6,219,,V,A*22
$GPRMC,230033.8,A,4807.55003,N,12244.63343,W,007.27,238.5,040513,016.8,E,D*21
$PGRME,2.4,M,2.4,M,3.4,M*29
$YXXDR,A,0.7,D,PTCH,A,-30.6,D,ROLL*42
$HCHDG,208.7,0.0,E,,*24
$HCHDG,209.2,0.0,E,,*20
$GPRMC,230034.0,A,4807.54983,N,12244.63392,W,007.26,238.7,040513,016.8,E,D*21
$GPRMB,A,0.00,L,Ptm,Ptm,4807.0330,N,12244.9520,W,0.6,219,7.25,V*02
$PGRME,2.4,M,2.4,M,3.4,M*29
$HCHDG,209.3,0.0,E,,*21
$HCHDG,209.8,0.0,E,,*2A
$GPRMC,230034.2,A,4807.54966,N,12244.63437,W,007.23,238.3,040513,016.8,E,D*21
$PGRME,2.4,M,2.4,M,3.4,M*29
$HCHDG,210.3,0.0,E,,*29
$YXXDR,A,1.0,D,PTCH,A,-31.9,D,ROLL*4A
$PTAK,FFD1,31.9*6E
$HCHDG,210.5,0.0,E,,*2F
$GPRMC,230034.4,A,4807.54950,N,12244.63492,W,007.23,239.8,040513,016.8,E,D*27
$GPRMB,A,0.00,L,Ptm,Ptm,4807.0330,N,12244.9520,W,0.6,219,7.21,V*06
$PGRME,2.4,M,2.4,M,3.4,M*29
$IIRMC,230000,A,4807.550,N,12244.632,W,07.0,240,040513,16,E,A*17
$HCHDG,211.2,0.0,E,,*29
$IIVHW,,,,,00.0,N,,*19
$IIVLW,06236,N,000.0,N*52
$HCHDG,211.6,0.0,E,,*2D
$IIDPT,030.6,-1.0,*45
$GPRMC,230034.6,A,4807.54934,N,12244.63546,W,007.27,241.1,040513,016.8,E,D*2D
$PGRME,2.4,M,2.4,M,3.4,M*29
$HCHDG,211.9,0.0,E,,*22
$IIGLL,4807.550,N,12244.632,W,230000,A,A*4E
$IIMTW,+09.0,C*31
$HCHDG,212.4,0.0,E,,*2C
$PTAK,FFP1,HEEL,@*07
$IIRMB,A,0.00,L,,Ptm ,,,,,000.6,219,,V,A*22
$GPRMC,230034.8,A,4807.54916,N,12244.63589,W,007.26,241.3,040513,016.8,E,D*23
$PGRME,2.4,M,2.4,M,3.4,M*29
$YXXDR,A,1.1,D,PTCH,A,-33.6,D,ROLL*46
$HCHDG,212.6,0.0,E,,*2E
$HCHDG,212.9,0.0,E,,*21
$GPRMC,230035.0,A,4807.54895,N,12244.63642,W,007.26,241.8,040513,016.8,E,D*2F
$PGRME,2.4,M,2.4,M,3.4,M*29
$HCHDG,213.1,0.0,E,,*28
$HCHDG,213.0,0.0,E,,*29
$GPRMC,230035.2,A,4807.54874,N,12244.63687,W,007.25,241.6,040513,016.8,E,D*26
$PGRME,2.4,M,2.4,M,3.4,M*29
$HCHDG,213.2,0.0,E,,*2B
$YXXDR,A,0.7,D,PTCH,A,-33.7,D,ROLL*40
$HCHDG,213.4,0.0,E,,*2D
$GPRMC,230035.4,A,4807.54859,N,12244.63748,W,007.27,242.2,040513,016.8,E,D*28
$PGRME,2.4,M,2.4,M,3.4,M*29
$IIRMC,230000,A,4807.549,N,12244.634,W,07.2,239,040513,16,E,A*15
$HCHDG,213.3,0.0,E,,*2A
$IIVHW,,,,,00.0,N,,*19
$IIVLW,06236,N,000.0,N*52
$HCHDG,213.3,0.0,E,,*2A
$IIDPT,030.2,-1.0,*41
$GPRMC,230035.6,A,4807.54845,N,12244.63808,W,007.26,242.4,040513,016.8,E,D*2B
$PGRME,2.4,M,2.4,M,3.4,M*29
$HCHDG,212.9,0.0,E,,*21
$IIGLL,4807.549,N,12244.634,W,230000,A,A*40
$IIMTW,+09.0,C*31
$HCHDG,212.9,0.0,E,,*21
$IIRMB,A,0.00,L,,Ptm ,,,,,000.6,219,,V,A*22
$GPRMC,230035.8,A,4807.54839,N,12244.63878,W,007.42,240.7,040513,016.8,E,D*2A
$YXXDR,A,0.7,D,PTCH,A,-32.2,D,ROLL*44
$PGRME,2.4,M,2.4,M,3.4,M*29
$HCHDG,212.6,0.0,E,,*2E
$HCHDG,212.1,0.0,E,,*29
$GPRMC,230036.0,A,4807.54819,N,12244.63938,W,007.36,240.4,040513,016.8,E,D*26
$PGRME,2.4,M,2.4,M,3.4,M*29
$HCHDG,211.9,0.0,E,,*22
$HCHDG,212.0,0.0,E,,*28
$GPRMC,230036.2,A,4807.54795,N,12244.63986,W,007.37,241.0,040513,016.8,E,D*2E
$GPRMB,A,0.00,L,Ptm,Ptm,4807.0330,N,12244.9520,W,0.6,219,7.34,V*02
$PGRME,2.4,M,2.4,M,3.4,M*29
$HCHDG,212.5,0.0,E,,*2D
$YXXDR,A,1.0,D,PTCH,A,-31.1,D,ROLL*42
$PTAK,FFD1,31.1*66
$HCHDG,212.9,0.0,E,,*21
$GPRMC,230036.4,A,4807.54780,N,12244.64036,W,007.38,241.6,040513,016.8,E,D*20
$PGRME,2.4,M,2.4,M,3.4,M*29
$IIRMC,230000,A,4807.548,N,12244.637,W,07.2,242,040513,16,E,A*1B
$HCHDG,213.2,0.0,E,,*2B
$IIVHW,,,,,00.0,N,,*19
$IIVLW,06236,N,000.0,N*52
$HCHDG,213.5,0.0,E,,*2C
$IIDPT,029.5,-1.0,*4E
$GPRMC,230036.6,A,4807.54757,N,12244.64093,W,007.37,241.3,040513,016.8,E,D*2D
$PGRME,2.4,M,2.4,M,3.4,M*29
$HCHDG,214.0,0.0,E,,*2E
$IIGLL,4807.548,N,12244.637,W,230000,A,A*42
$IIMTW,+09.0,C*31
$HCHDG,214.2,0.0,E,,*2C
$IIRMB,A,0.00,L,,Ptm ,,,,,000.6,219,,V,A*22
$GPRMC,230036.8,A,4807.54735,N,12244.64148,W,007.41,241.3,040513,016.8,E,D*21
$YXXDR,A,1.5,D,PTCH,A,-30.9,D,ROLL*4E
$PGRME,2.4,M,2.4,M,3.4,M*29
$HCHDG,214.7,0.0,E,,*29
$HCHDG,214.8,0.0,E,,*26
$GPRMC,230037.0,A,4807.54708,N,12244.64203,W,007.43,242.1,040513,016.8,E,D*29
$PGRME,2.4,M,2.4,M,3.4,M*29
$HCHDG,215.7,0.0,E,,*28
$HCHDG,216.3,0.0,E,,*2F
$GPRMC,230037.2,A,4807.54683,N,12244.64253,W,007.46,243.8,040513,016.8,E,D*21
$PGRME,2.4,M,2.4,M,3.4,M*29
$HCHDG,217.4,0.0,E,,*29
$YXXDR,A,1.5,D,PTCH,A,-32.3,D,ROLL*46
$HCHDG,218.1,0.0,E,,*23
$GPRMC,230037.4,A,4807.54657,N,12244.64306,W,007.66,244.0,040513,016.8,E,D*22
$GPRMB,A,0.00,L,Ptm,Ptm,4807.0330,N,12244.9520,W,0.6,218,7.57,V*06
$PGRME,2.4,M,2.4,M,3.4,M*29
$IIRMC,230000,A,4807.547,N,12244.640,W,07.3,241,040513,16,E,A*16
$HCHDG,218.8,0.0,E,,*2A
$IIVHW,,,,,00.0,N,,*19
$IIVLW,06236,N,000.0,N*52
$HCHDG,219.3,0.0,E,,*20
$IIDPT,029.5,-1.0,*4E
$GPRMC,230037.6,A,4807.54632,N,12244.64369,W,007.36,245.9,040513,016.8,E,D*27
$PGRME,2.4,M,2.4,M,3.4,M*29
$HCHDG,219.6,0.0,E,,*25
$IIGLL,4807.547,N,12244.640,W,230000,A,A*4D
$IIMTW,+09.0,C*31
$HCHDG,220.2,0.0,E,,*2B
$IIRMB,A,0.00,L,,Ptm ,,,,,000.6,219,,V,A*22
$GPRMC,230037.8,A,4807.54613,N,12244.64432,W,007.39,246.8,040513,016.8,E,D*2E
$YXXDR,A,1.5,D,PTCH,A,-33.7,D,ROLL*43
$PTAK,FFD1,33.7*62
$PGRME,2.4,M,2.4,M,3.4,M*29
$HCHDG,220.7,0.0,E,,*2E
$HCHDG,221.2,0.0,E,,*2A
$GPRMC,230038.0,A,4807.54598,N,12244.64491,W,007.41,248.5,040513,016.8,E,D*2C
$PGRME,2.4,M,2.4,M,3.4,M*29
$HCHDG,221.6,0.0,E,,*2E
$HCHDG,222.0,0.0,E,,*2B
$GPRMC,230038.2,A,4807.54575,N,12244.64557,W,007.42,249.3,040513,016.8,E,D*22
$PGRME,2.4,M,2.4,M,3.4,M*29
$HCHDG,222.5,0.0,E,,*2E
$YXXDR,A,1.1,D,PTCH,A,-34.6,D,ROLL*41
$HCHDG,222.9,0.0,E,,*22
$GPRMC,230038.4,A,4807.54558,N,12244.64613,W,007.39,251.2,040513,016.8,E,D*2C
$PGRME,2.4,M,2.4,M,3.4,M*29
$IIRMC,230000,A,4807.546,N,12244.643,W,07.6,244,040513,16,E,A*14
$HCHDG,223.3,0.0,E,,*29
$IIVHW,,,,,00.0,N,,*19
$IIVLW,06236,N,000.0,N*52
$HCHDG,223.6,0.0,E,,*2C
$IIDPT,028.4,-1.0,*4E
$GPRMC,230038.6,A,4807.54547,N,12244.64671,W,007.45,251.6,040513,016.8,E,D*2B
$GPRMB,A,0.00,L,Ptm,Ptm,4807.0330,N,12244.9520,W,0.6,218,7.14,V*01
$PGRME,2.4,M,2.4,M,3.4,M*29
$HCHDG,223.8,0.0,E,,*22
$IIGLL,4807.546,N,12244.643,W,230000,A,A*4F
$IIMTW,+09.0,C*31
$HCHDG,223.7,0.0,E,,*2D
$IIRMB,A,0.00,L,,Ptm ,,,,,000.6,218,,V,A*23
$GPRMC,230038.8,A,4807.54537,N,12244.64735,W,007.25,252.1,040513,016.8,E,D*21
$YXXDR,A,1.2,D,PTCH,A,-34.3,D,ROLL*47
$PTAK,FFD1,34.3*61
$PGRME,2.4,M,2.4,M,3.4,M*29
$HCHDG,223.8,0.0,E,,*22
$HCHDG,223.6,0.0,E,,*2C
$GPRMC,230039.0,A,4807.54528,N,12244.64785,W,007.24,253.3,040513,016.8,E,D*2F
$PGRME,2.4,M,2.4,M,3.4,M*29
$HCHDG,223.5,0.0,E,,*2F
$HCHDG,223.3,0.0,E,,*29
$GPRMC,230039.2,A,4807.54522,N,12244.64842,W,007.01,253.8,040513,016.8,E,D*2F
$PGRME,2.4,M,2.4,M,3.4,M*29
$HCHDG,223.4,0.0,E,,*2E
$YXXDR,A,0.9,D,PTCH,A,-34.0,D,ROLL*4E
$HCHDG,223.4,0.0,E,,*2E
$PTAK,FFP1,HEEL,@*07
$GPRMC,230039.4,A,4807.54516,N,12244.64903,W,006.97,253.2,040513,016.8,E,D*2E
$PGRME,2.4,M,2.4,M,3.4,M*29
$IIRMC,230000,A,4807.545,N,12244.646,W,07.3,251,040513,16,E,A*13
$HCHDG,223.3,0.0,E,,*29
$IIVHW,,,,,00.0,N,,*19
$IIVLW,06236,N,000.0,N*52
$HCHDG,223.0,0.0,E,,*2A
$IIDPT,028.4,-1.0,*4E
$GPRMC,230039.6,A,4807.54503,N,12244.64962,W,006.99,252.5,040513,016.8,E,D*27
$PGRME,2.4,M,2.4,M,3.4,M*29
$HCHDG,222.8,0.0,E,,*23
$IIGLL,4807.545,N,12244.646,W,230000,A,A*49
$IIMTW,+09.0,C*31
$HCHDG,223.1,0.0,E,,*2B
$IIRMB,A,0.00,L,,Ptm ,,,,,000.6,218,,V,A*23
$GPRMC,230039.8,A,4807.54485,N,12244.65016,W,007.27,251.7,040513,016.8,E,D*28
$GPRMB,A,0.00,L,Ptm,Ptm,4807.0330,N,12244.9520,W,0.6,218,6.96,V*0A
$YXXDR,A,0.5,D,PTCH,A,-32.3,D,ROLL*47
$PTAK,FFD1,32.3*67
$PGRME,2.4,M,2.4,M,3.4,M*29
$HCHDG,223.2,0.0,E,,*28
$HCHDG,223.1,0.0,E,,*2B
$GPRMC,230040.0,A,4807.54470,N,12244.65061,W,007.33,250.7,040513,016.8,E,D*20
$PGRME,2.4,M,2.4,M,3.4,M*29
$HCHDG,223.1,0.0,E,,*2B
$HCHDG,223.4,0.0,E,,*2E
$GPRMC,230040.2,A,4807.54458,N,12244.65106,W,007.30,252.3,040513,016.8,E,D*2D
$PGRME,2.4,M,2.4,M,3.4,M*29
$HCHDG,223.6,0.0,E,,*2C
$YXXDR,A,0.9,D,PTCH,A,-33.1,D,ROLL*48
$HCHDG,224.0,0.0,E,,*2D
$GPRMC,230040.4,A,4807.54442,N,12244.65164,W,007.32,254.8,040513,016.8,E,D*2B
$PGRME,2.4,M,2.4,M,3.4,M*29
$IIRMC,230000,A,4807.545,N,12244.649,W,06.9,253,040513,16,E,A*15
$HCHDG,224.6,0.0,E,,*2B
$IIVHW,,,,,00.0,N,,*19
$IIVLW,06236,N,000.0,N*52
$HCHDG,225.5,0.0,E,,*29
$IIDPT,028.4,-1.0,*4E
$GPRMC,230040.6,A,4807.54435,N,12244.65211,W,006.83,257.0,040513,016.8,E,D*28
$PGRME,2.4,M,2.4,M,3.4,M*29
$HCHDG,225.8,0.0,E,,*24
$IIGLL,4807.545,N,12244.649,W,230000,A,A*46
$IIMTW,+09.0,C*31
$HCHDG,226.4,0.0,E,,*2B
$IIRMB,A,0.00,L,,Ptm ,,,,,000.6,218,,V,A*23
$GPRMC,230040.8,A,4807.54420,N,12244.65263,W,006.88,257.7,040513,016.8,E,D*2B
$YXXDR,A,0.3,D,PTCH,A,-37.2,D,ROLL*45
$PGRME,2.4,M,2.4,M,3.4,M*29
$HCHDG,226.7,0.0,E,,*28
$HCHDG,226.7,0.0,E,,*28
$GPRMC,230041.0,A,4807.54412,N,12244.65321,W,006.87,256.4,040513,016.8,E,D*29
$GPRMB,A,0.00,L,Ptm,Ptm,4807.0330,N,12244.9520,W,0.5,218,6.38,V*0D
$PGRME,2.4,M,2.4,M,3.4,M*29
$HCHDG,226.7,0.0,E,,*28
$HCHDG,226.7,0.0,E,,*28
$GPRMC,230041.2,A,4807.54395,N,12244.65372,W,006.91,256.1,040513,016.8,E,D*27
$PGRME,2.4,M,2.4,M,3.4,M*29
$HCHDG,226.6,0.0,E,,*29
$YXXDR,A,0.5,D,PTCH,A,-33.6,D,ROLL*43
$PTAK,FFD1,33.6*63
$HCHDG,226.6,0.0,E,,*29
$GPRMC,230041.4,A,4807.54379,N,12244.65429,W,007.32,255.0,040513,016.8,E,D*20
$PGRME,2.4,M,2.4,M,3.4,M*29
$IIRMC,230000,A,4807.544,N,12244.651,W,07.3,254,040513,16,E,A*11
$HCHDG,227.1,0.0,E,,*2F
$IIVHW,,,,,00.0,N,,*19
$IIVLW,06236,N,000.0,N*52
$HCHDG,227.3,0.0,E,,*2D
$IIDPT,027.9,-1.0,*4C
$GPRMC,230041.6,A,4807.54369,N,12244.65491,W,007.37,255.2,040513,016.8,E,D*27
$PGRME,2.4,M,2.4,M,3.4,M*29
$HCHDG,227.6,0.0,E,,*28
$IIGLL,4807.544,N,12244.651,W,230000,A,A*4E
$IIMTW,+09.0,C*31
$HCHDG,227.9,0.0,E,,*27
$IIRMB,A,0.00,L,,Ptm ,,,,,000.6,218,,V,A*23
$GPRMC,230041.8,A,4807.54359,N,12244.65551,W,007.15,256.8,040513,016.8,E,D*2E
$YXXDR,A,0.6,D,PTCH,A,-34.4,D,ROLL*45
$PGRME,2.4,M,2.4,M,3.4,M*29
$HCHDG,228.4,0.0,E,,*25
$HCHDG,228.8,0.0,E,,*29
$GPRMC,230042.0,A,4807.54344,N,12244.65600,W,007.20,258.1,040513,016.8,E,D*2F
$GPRMB,A,0.00,L,Ptm,Ptm,4807.0330,N,12244.9520,W,0.5,218,6.60,V*00
$PGRME,2.4,M,2.4,M,3.4,M*29
$HCHDG,229.5,0.0,E,,*25
$HCHDG,230.4,0.0,E,,*2C
$GPRMC,230042.2,A,4807.54336,N,12244.65660,W,007.25,261.5,040513,016.8,E,D*25
$PGRME,2.4,M,2.4,M,3.4,M*29
$HCHDG,230.7,0.0,E,,*2F
$YXXDR,A,0.0,D,PTCH,A,-40.4,D,ROLL*40
$PTAK,FFD1,40.4*65
$HCHDG,231.6,0.0,E,,*2F
$GPRMC,230042.4,A,4807.54330,N,12244.65710,W,007.26,261.7,040513,016.8,E,D*22
$PGRME,2.4,M,2.4,M,3.4,M*29
$IIRMC,230000,A,4807.543,N,12244.654,W,07.3,255,040513,16,E,A*12
$HCHDG,232.5,0.0,E,,*2F
$IIVHW,,,,,00.0,N,,*19
$IIVLW,06236,N,000.0,N*52
$HCHDG,232.7,0.0,E,,*2D
$IIDPT,027.9,-1.0,*4C
$GPRMC,230042.6,A,4807.54326,N,12244.65774,W,007.28,263.2,040513,016.8,E,D*2C
$PGRME,2.4,M,2.4,M,3.4,M*29
$HCHDG,233.1,0.0,E,,*2A
$IIGLL,4807.543,N,12244.654,W,230000,A,A*4C
$IIMTW,+09.0,C*31
$HCHDG,233.4,0.0,E,,*2F
$IIRMB,A,0.00,L,,Ptm ,,,,,000.5,218,,V,A*20
$GPRMC,230042.8,A,4807.54326,N,12244.65841,W,007.31,262.0,040513,016.8,E,D*20
$YXXDR,A,0.3,D,PTCH,A,-38.1,D,ROLL*49
$PGRME,2.4,M,2.4,M,3.4,M*29
$HCHDG,233.5,0.0,E,,*2E
$HCHDG,233.6,0.0,E,,*2D
$GPRMC,230043.0,A,4807.54325,N,12244.65901,W,007.33,262.9,040513,016.8,E,D*24
$PGRME,2.4,M,2.4,M,3.4,M*29
$HCHDG,233.6,0.0,E,,*2D
$HCHDG,233.5,0.0,E,,*2E
$GPRMC,230043.2,A,4807.54322,N,12244.65964,W,007.34,263.3,040513,016.8,E,D*2E
$GPRMB,A,0.00,L,Ptm,Ptm,4807.0330,N,12244.9520,W,0.5,218,6.42,V*00
$PGRME,2.4,M,2.4,M,3.4,M*29
$HCHDG,233.7,0.0,E,,*2C
$PTAK,FFP1,HEEL,@*07
$YXXDR,A,0.1,D,PTCH,A,-35.6,D,ROLL*41
$PTAK,FFD1,35.6*65
$HCHDG,233.9,0.0,E,,*22
$GPRMC,230043.4,A,4807.54323,N,12244.66029,W,007.34,264.3,040513,016.8,E,D*2D
$PGRME,2.4,M,2.4,M,3.4,M*29
$IIRMC,230000,A,4807.543,N,12244.657,W,07.2,261,040513,16,E,A*17
$HCHDG,234.1,0.0,E,,*2D
$IIVHW,,,,,00.0,N,,*19
$IIVLW,06236,N,000.0,N*52
$HCHDG,234.2,0.0,E,,*2E
$IIDPT,027.9,-1.0,*4C
$GPRMC,230043.6,A,4807.54319,N,12244.66095,W,007.33,264.8,040513,016.8,E,D*2D
$PGRME,2.4,M,2.4,M,3.4,M*29
$HCHDG,234.2,0.0,E,,*2E
$IIGLL,4807.543,N,12244.657,W,230000,A,A*4F
$IIMTW,+09.0,C*31
$HCHDG,234.4,0.0,E,,*28
$IIRMB,A,0.00,L,,Ptm ,,,,,000.5,218,,V,A*20
$GPRMC,230043.8,A,4807.54314,N,12244.66155,W,007.36,263.9,040513,016.8,E,D*20
$YXXDR,A,0.1,D,PTCH,A,-35.7,D,ROLL*40
$PGRME,2.4,M,2.4,M,3.4,M*29
$HCHDG,234.3,0.0,E,,*2F
$HCHDG,234.0,0.0,E,,*2C
$GPRMC,230044.0,A,4807.54307,N,12244.66209,W,007.33,267.0,040513,016.8,E,D*2F
$PGRME,2.4,M,2.4,M,3.4,M*29
$PGRMT,GPS 18x-5Hz software ver. 3.20,,,,,,,,*30
$HCHDG,234.2,0.0,E,,*2E
$HCHDG,234.0,0.0,E,,*2C
$GPRMC,230044.2,A,4807.54303,N,12244.66269,W,007.13,267.8,040513,016.8,E,D*25
$GPRMB,A,0.00,L,Ptm,Ptm,4807.0330,N,12244.9520,W,0.5,217,5.93,V*00
$PGRME,2.4,M,2.4,M,3.4,M*29
$HCHDG,233.5,0.0,E,,*2E
$YXXDR,A,0.3,D,PTCH,A,-35.9,D,ROLL*4C
$HCHDG,233.4,0.0,E,,*2F
$GPRMC,230044.4,A,4807.54301,N,12244.66325,W,007.35,266.3,040513,016.8,E,D*26
$IIRMC,230000,A,4807.543,N,12244.660,W,07.3,264,040513,16,E,A*17
$PGRME,2.4,M,2.4,M,3.4,M*29
$HCHDG,233.1,0.0,E,,*2A
$IIVHW,,,,,00.0,N,,*19
$IIVLW,06236,N,000.0,N*52
$HCHDG,233.0,0.0,E,,*2B
$IIDPT,027.9,-1.0,*4C
$GPRMC,230044.6,A,4807.54297,N,12244.66380,W,007.37,267.8,040513,016.8,E,D*2D
$PGRME,2.4,M,2.4,M,3.4,M*29
$HCHDG,232.7,0.0,E,,*2D
$IIGLL,4807.543,N,12244.660,W,230000,A,A*4B
$IIMTW,+09.0,C*31
$HCHDG,232.3,0.0,E,,*29
$IIRMB,A,0.00,L,,Ptm ,,,,,000.5,218,,V,A*20
$GPRMC,230044.8,A,4807.54294,N,12244.66445,W,007.32,266.1,040513,016.8,E,D*23
$YXXDR,A,0.2,D,PTCH,A,-35.0,D,ROLL*44
$PTAK,FFD1,35.0*63
$PGRME,2.4,M,2.4,M,3.4,M*29
$HCHDG,232.3,0.0,E,,*29
$HCHDG,231.8,0.0,E,,*21
$GPRMC,230045.0,A,4807.54290,N,12244.66506,W,007.27,266.5,040513,016.8,E,D*28
$PGRME,2.4,M,2.4,M,3.4,M*29
$HCHDG,231.5,0.0,E,,*2C
$HCHDG,230.9,0.0,E,,*21
$GPRMC,230045.2,A,4807.54283,N,12244.66567,W,007.23,265.6,040513,016.8,E,D*2B
$GPRMB,A,0.00,L,Ptm,Ptm,4807.0330,N,12244.9520,W,0.5,217,6.15,V*0D
$PGRME,2.4,M,2.4,M,3.4,M*29
$HCHDG,230.8,0.0,E,,*20
$YXXDR,A,0.8,D,PTCH,A,-31.4,D,ROLL*4E
$HCHDG,230.5,0.0,E,,*2D
$GPRMC,230045.4,A,4807.54278,N,12244.66630,W,007.20,264.6,040513,016.8,E,D*2A
$PGRME,2.4,M,2.4,M,3.4,M*29
$IIRMC,230000,A,4807.543,N,12244.663,W,07.3,266,040513,16,E,A*16
$HCHDG,230.3,0.0,E,,*2B
$IIVHW,,,,,00.0,N,,*19
$IIVLW,06236,N,000.0,N*52
$HCHDG,230.1,0.0,E,,*29
$IIDPT,027.9,-1.0,*4C
$GPRMC,230045.6,A,4807.54267,N,12244.66692,W,007.19,262.5,040513,016.8,E,D*21
$PGRME,2.4,M,2.4,M,3.4,M*29
$HCHDG,230.0,0.0,E,,*28
$IIGLL,4807.543,N,12244.663,W,230000,A,A*48
$IIMTW,+09.0,C*31
$HCHDG,230.0,0.0,E,,*28
$IIRMB,A,0.00,L,,Ptm ,,,,,000.5,217,,V,A*2F
$GPRMC,230045.8,A,4807.54260,N,12244.66754,W,007.18,262.4,040513,016.8,E,D*23
$YXXDR,A,0.7,D,PTCH,A,-31.6,D,ROLL*43
$PGRME,2.4,M,2.4,M,3.4,M*29
$HCHDG,229.9,0.0,E,,*29
$HCHDG,229.8,0.0,E,,*28
$GPRMC,230046.0,A,4807.54251,N,12244.66821,W,007.18,262.6,040513,016.8,E,D*25
$PGRME,2.4,M,2.4,M,3.4,M*29
$HCHDG,230.0,0.0,E,,*28
$HCHDG,229.9,0.0,E,,*29
$GPRMC,230046.2,A,4807.54245,N,12244.66875,W,007.18,262.6,040513,016.8,E,D*23
$GPRMB,A,0.00,L,Ptm,Ptm,4807.0330,N,12244.9520,W,0.5,217,6.29,V*02
$PGRME,2.4,M,2.4,M,3.4,M*29
$HCHDG,230.1,0.0,E,,*29
$YXXDR,A,0.7,D,PTCH,A,-32.6,D,ROLL*40
$PTAK,FFD1,32.6*62
$HCHDG,230.3,0.0,E,,*2B
$GPRMC,230046.4,A,4807.54240,N,12244.66938,W,007.20,262.5,040513,016.8,E,D*20
$PGRME,2.4,M,2.4,M,3.4,M*29
$IIRMC,230000,A,4807.542,N,12244.666,W,07.1,262,040513,16,E,A*14
$HCHDG,230.5,0.0,E,,*2D
$IIVHW,,,,,00.0,N,,*19
$IIVLW,06236,N,000.0,N*52
$HCHDG,230.7,0.0,E,,*2F
$IIDPT,024.6,-1.0,*40
$GPRMC,230046.6,A,4807.54233,N,12244.66997,W,007.21,262.0,040513,016.8,E,D*27
$PGRME,2.4,M,2.4,M,3.4,M*29
$HCHDG,230.9,0.0,E,,*21
$IIGLL,4807.542,N,12244.666,W,230000,A,A*4C
$IIMTW,+09.0,C*31
$HCHDG,230.9,0.0,E,,*21
$IIRMB,A,0.00,L,,Ptm ,,,,,000.5,217,,V,A*2F
$GPRMC,230046.8,A,4807.54232,N,12244.67059,W,007.21,264.0,040513,016.8,E,D*24
$YXXDR,A,0.7,D,PTCH,A,-34.1,D,ROLL*41
$PGRME,2.4,M,2.4,M,3.4,M*29
$HCHDG,230.9,0.0,E,,*21
$HCHDG,231.1,0.0,E,,*28
$GPRMC,230047.0,A,4807.54227,N,12244.67122,W,007.23,265.3,040513,016.8,E,D*24
$PGRME,2.4,M,2.4,M,3.4,M*29
$HCHDG,231.0,0.0,E,,*29
$HCHDG,231.1,0.0,E,,*28
$GPRMC,230047.2,A,4807.54226,N,12244.67185,W,007.23,264.7,040513,016.8,E,D*2F
$GPRMB,A,0.00,L,Ptm,Ptm,4807.0330,N,12244.9520,W,0.5,217,6.19,V*01
$PGRME,2.4,M,2.4,M,3.4,M*29
$HCHDG,231.1,0.0,E,,*28
$PTAK,FFP1,HEEL,@*07
$YXXDR,A,0.4,D,PTCH,A,-35.5,D,ROLL*47
$PTAK,FFD1,35.5*66
$HCHDG,231.2,0.0,E,,*2B
$GPRMC,230047.4,A,4807.54221,N,12244.67242,W,007.22,266.3,040513,016.8,E,D*21
$PGRME,2.4,M,2.5,M,3.5,M*29
$IIRMC,230000,A,4807.542,N,12244.669,W,07.2,262,040513,16,E,A*18
$HCHDG,231.4,0.0,E,,*2D
$IIVHW,,,,,00.0,N,,*19
$IIVLW,06236,N,000.0,N*52
$HCHDG,231.1,0.0,E,,*28
$IIDPT,024.6,-1.0,*40
$GPRMC,230047.6,A,4807.54220,N,12244.67299,W,007.26,264.1,040513,016.8,E,D*20
$PGRME,2.4,M,2.5,M,3.5,M*29
$HCHDG,231.1,0.0,E,,*28
$IIGLL,4807.542,N,12244.669,W,230000,A,A*43
$IIMTW,+09.0,C*31
$HCHDG,231.0,0.0,E,,*29
$IIRMB,A,0.00,L,,Ptm ,,,,,000.5,217,,V,A*2F
$GPRMC,230047.8,A,4807.54214,N,12244.67356,W,007.28,262.0,040513,016.8,E,D*22
$PGRME,2.4,M,2.5,M,3.5,M*29
$YXXDR,A,0.2,D,PTCH,A,-34.2,D,ROLL*47
$HCHDG,230.7,0.0,E,,*2F
$HCHDG,230.4,0.0,E,,*2C
$GPRMC,230048.0,A,4807.54213,N,12244.67423,W,007.30,261.1,040513,016.8,E,D*2C
$PGRME,2.4,M,2.5,M,3.5,M*29
$HCHDG,230.2,0.0,E,,*2A
$HCHDG,229.8,0.0,E,,*28
$GPRMC,230048.2,A,4807.54206,N,12244.67483,W,007.34,261.7,040513,016.8,E,D*22
$PGRME,2.4,M,2.5,M,3.5,M*29
$HCHDG,229.2,0.0,E,,*22
$YXXDR,A,0.6,D,PTCH,A,-32.1,D,ROLL*46
$HCHDG,229.2,0.0,E,,*22
$GPRMC,230048.4,A,4807.54197,N,12244.67551,W,007.37,259.0,040513,016.8,E,D*2E
$GPRMB,A,0.00,L,Ptm,Ptm,4807.0330,N,12244.9520,W,0.5,217,6.64,V*0B
$PGRME,2.4,M,2.5,M,3.5,M*29
$IIRMC,230000,A,4807.542,N,12244.672,W,07.2,264,040513,16,E,A*14
$HCHDG,229.3,0.0,E,,*23
$IIVHW,,,,,00.0,N,,*19
$IIVLW,06236,N,000.0,N*52
$HCHDG,229.1,0.0,E,,*21
$IIDPT,024.6,-1.0,*40
$GPRMC,230048.6,A,4807.54188,N,12244.67606,W,007.36,260.8,040513,016.8,E,D*20
$PGRME,2.4,M,2.6,M,3.5,M*2A
$HCHDG,229.3,0.0,E,,*23
$IIGLL,4807.542,N,12244.672,W,230000,A,A*49
$IIMTW,+09.0,C*31
$HCHDG,229.5,0.0,E,,*25
$IIRMB,A,0.00,L,,Ptm ,,,,,000.5,217,,V,A*2F
$GPRMC,230048.8,A,4807.54181,N,12244.67660,W,007.62,261.7,040513,016.8,E,D*28
$YXXDR,A,0.1,D,PTCH,A,-35.2,D,ROLL*45
$PTAK,FFD1,35.2*61
$PGRME,2.4,M,2.6,M,3.5,M*2A
$HCHDG,229.7,0.0,E,,*27
$HCHDG,229.9,0.0,E,,*29
$GPRMC,230049.0,A,4807.54171,N,12244.67715,W,007.55,261.3,040513,016.8,E,D*2D
$PGRME,2.4,M,2.6,M,3.6,M*29
$HCHDG,229.9,0.0,E,,*29
$HCHDG,229.6,0.0,E,,*26
$GPRMC,230049.2,A,4807.54165,N,12244.67777,W,007.54,261.6,040513,016.8,E,D*2A
$PGRME,2.4,M,2.6,M,3.6,M*29
$HCHDG,229.5,0.0,E,,*25
$YXXDR,A,0.1,D,PTCH,A,-35.1,D,ROLL*46
$HCHDG,229.4,0.0,E,,*24
$GPRMC,230049.4,A,4807.54161,N,12244.67850,W,007.38,260.0,040513,016.8,E,D*2F
$PGRME,2.4,M,2.6,M,3.6,M*29
$IIRMC,230000,A,4807.541,N,12244.676,W,07.3,260,040513,16,E,A*16
$HCHDG,229.3,0.0,E,,*23
$IIVHW,,,,,00.0,N,,*19
$IIVLW,06236,N,000.0,N*52
$HCHDG,229.5,0.0,E,,*25
$IIDPT,024.6,-1.0,*40
$GPRMC,230049.6,A,4807.54160,N,12244.67925,W,007.54,260.8,040513,016.8,E,D*2D
$GPRMB,A,0.00,L,Ptm,Ptm,4807.0330,N,12244.9520,W,0.5,216,6.68,V*06
$PGRME,2.4,M,2.6,M,3.6,M*29
$HCHDG,229.5,0.0,E,,*25
$IIGLL,4807.541,N,12244.676,W,230000,A,A*4E
$IIMTW,+09.0,C*31
$HCHDG,229.5,0.0,E,,*25
$IIRMB,A,0.00,L,,Ptm ,,,,,000.5,217,,V,A*2F
$GPRMC,230049.8,A,4807.54152,N,12244.67993,W,007.71,259.2,040513,016.8,E,D*28
$YXXDR,A,0.7,D,PTCH,A,-34.6,D,ROLL*46
$PTAK,FFD1,34.6*64
$PGRME,2.4,M,2.6,M,3.6,M*29
$HCHDG,229.4,0.0,E,,*24
$HCHDG,229.1,0.0,E,,*21
$GPRMC,230050.0,A,4807.54144,N,12244.68057,W,007.42,260.8,040513,016.8,E,D*21
$PGRME,2.4,M,2.6,M,3.6,M*29
$HCHDG,229.1,0.0,E,,*21
$HCHDG,229.0,0.0,E,,*20
$GPRMC,230050.2,A,4807.54141,N,12244.68123,W,007.43,262.1,040513,016.8,E,D*2E
$PGRME,2.4,M,2.7,M,3.6,M*28
$HCHDG,229.0,0.0,E,,*20
$YXXDR,A,0.4,D,PTCH,A,-34.7,D,ROLL*44
$HCHDG,229.1,0.0,E,,*21
