$HCHDG,62.6,0.0,E,,*1B
$IIVLW,06243,N,007.4,N*53
$IIVWR,063,R,10.5,N,,,,*60
$HCHDG,62.9,0.0,E,,*14
$IIDPT,006.2,-1.0,*44
$GPRMC,010000.4,A,4740.83987,N,12224.52436,W,003.63,075.3,180513,016.6,E,D*24
$PGRME,2.4,M,2.4,M,3.4,M*29
$YXXDR,A,5.8,D,PTCH,A,-0.9,D,ROLL*74
$IIGLL,4740.839,N,12224.526,W,005900,A,A*4D
$HCHDG,63.1,0.0,E,,*1D
$IIMTW,+10.0,C*39
$HCHDG,63.3,0.0,E,,*1F
$IIMWV,063,R,10.5,N,A*12
$GPRMC,010000.6,A,4740.83993,N,12224.52411,W,003.61,076.3,180513,016.6,E,D*27
$GPRMB,A,0.00,L,N,N,4741.0622,N,12224.6030,W,0.2,347,0.02,V*08
$PGRME,2.4,M,2.4,M,3.4,M*29
$IIMWV,064,T,10.2,N,A*14
$HCHDG,63.6,0.0,E,,*1A
$IIRMB,A,0.00,L,,N   ,,,,,000.2,347,,V,A*2B
$HCHDG,63.8,0.0,E,,*14
$GPRMC,010000.8,A,4740.83997,N,12224.52390,W,003.61,076.7,180513,016.6,E,D*27
$PGRME,2.4,M,2.4,M,3.4,M*29
$HCHDG,64.1,0.0,E,,*1A
$YXXDR,A,5.7,D,PTCH,A,-2.4,D,ROLL*74
$GPRMC,010001.0,A,4740.83998,N,12224.52369,W,003.60,079.7,180513,016.6,E,D*29
$PGRME,2.4,M,2.4,M,3.4,M*29
$HCHDG,64.3,0.0,E,,*18
$HCHDG,64.3,0.0,E,,*18
$HCHDG,64.5,0.0,E,,*1E
$GPRMC,010001.2,A,4740.84000,N,12224.52334,W,003.59,080.4,180513,016.6,E,D*23
$PGRME,2.4,M,2.4,M,3.4,M*29
$HCHDG,64.9,0.0,E,,*12
$IIRMC,010000,A,4740.839,N,12224.524,W,03.6,073,170513,16,E,A*19
$IIVHW,,,,,00.0,N,,*19
$HCHDG,64.9,0.0,E,,*12
$GPRMC,010001.4,A,4740.84006,N,12224.52293,W,003.59,085.7,180513,016.6,E,D*29
$PGRME,2.4,M,2.4,M,3.4,M*29
$IIVLW,06243,N,007.4,N*53
$YXXDR,A,5.6,D,PTCH,A,-3.4,D,ROLL*74
$PTAK,FFD1,3.4*52
$IIVWR,064,R,10.6,N,,,,*64
$HCHDG,65.0,0.0,E,,*1A
$IIDPT,006.2,-1.0,*44
$HCHDG,65.0,0.0,E,,*1A
$GPRMC,010001.6,A,4740.84010,N,12224.52254,W,003.59,085.2,180513,016.6,E,D*22
$PGRME,2.4,M,2.4,M,3.4,M*29
$IIGLL,4740.839,N,12224.524,W,010000,A,A*42
$IIMTW,+10.0,C*39
$HCHDG,65.1,0.0,E,,*1B
$IIMWV,064,R,10.6,N,A*16
$IIMWV,063,T,10.5,N,A*14
$HCHDG,65.1,0.0,E,,*1B
$GPRMC,010001.8,A,4740.84017,N,12224.52204,W,003.59,085.3,180513,016.6,E,D*2F
$GPRMB,A,0.00,L,N,N,4741.0622,N,12224.6030,W,0.2,346,-0.57,V*24
$PGRME,2.4,M,2.4,M,3.4,M*29
$HCHDG,65.2,0.0,E,,*18
$YXXDR,A,5.7,D,PTCH,A,-3.3,D,ROLL*72
$GPRMC,010002.0,A,4740.84016,N,12224.52169,W,003.60,085.8,180513,016.6,E,D*2C
$PGRME,2.4,M,2.4,M,3.4,M*29
$HCHDG,65.1,0.0,E,,*1B
$HCHDG,65.2,0.0,E,,*18
$HCHDG,65.5,0.0,E,,*1F
$GPRMC,010002.2,A,4740.84015,N,12224.52140,W,003.59,085.8,180513,016.6,E,D*2C
$PGRME,2.4,M,2.4,M,3.4,M*29
$IIRMB,A,0.00,L,,N   ,,,,,000.2,346,,V,A*2A
$HCHDG,65.6,0.0,E,,*1C
$HCHDG,65.9,0.0,E,,*13
$GPRMC,010002.4,A,4740.84011,N,12224.52120,W,003.59,084.9,180513,016.6,E,D*28
$PGRME,2.4,M,2.4,M,3.4,M*29
$IIRMC,010000,A,4740.839,N,12224.523,W,03.6,079,170513,16,E,A*14
$YXXDR,A,5.6,D,PTCH,A,-2.0,D,ROLL*71
$PTAK,FFD1,2.0*57
$IIVHW,,,,,00.0,N,,*19
$HCHDG,66.1,0.0,E,,*18
$IIVLW,06243,N,007.4,N*53
$IIVWR,065,R,10.9,N,,,,*6A
$HCHDG,66.3,0.0,E,,*1A
$GPRMC,010002.6,A,4740.84005,N,12224.52092,W,003.58,085.4,180513,016.6,E,D*2A
$PGRME,2.4,M,2.4,M,3.4,M*29
$IIDPT,006.2,-1.0,*44
$HCHDG,66.4,0.0,E,,*1D
$IIGLL,4740.839,N,12224.523,W,010000,A,A*45
$IIMTW,+10.0,C*39
$HCHDG,66.4,0.0,E,,*1D
$GPRMC,010002.8,A,4740.84003,N,12224.52058,W,003.58,083.9,180513,016.6,E,D*2F
$PGRME,2.4,M,2.4,M,3.4,M*29
$HCHDG,66.5,0.0,E,,*1C
$YXXDR,A,5.6,D,PTCH,A,-1.0,D,ROLL*72
$GPRMC,010003.0,A,4740.83997,N,12224.52019,W,003.59,083.2,180513,016.6,E,D*2A
$GPRMB,A,0.00,L,N,N,4741.0622,N,12224.6030,W,0.2,346,-0.46,V*24
$PGRME,2.4,M,2.4,M,3.4,M*29
$HCHDG,66.8,0.0,E,,*11
$HCHDG,66.9,0.0,E,,*10
$HCHDG,67.0,0.0,E,,*18
$GPRMC,010003.2,A,4740.83996,N,12224.51987,W,003.58,084.8,180513,016.6,E,D*28
$PGRME,2.4,M,2.4,M,3.4,M*29
$IIMWV,065,R,11.8,N,A*18
$HCHDG,67.1,0.0,E,,*19
$IIMWV,065,T,10.9,N,A*1E
$HCHDG,67.7,0.0,E,,*1F
$IIRMB,A,0.00,L,,N   ,,,,,000.2,346,,V,A*2A
$GPRMC,010003.4,A,4740.83996,N,12224.51949,W,003.57,083.0,180513,016.6,E,D*2C
$PGRME,2.4,M,2.4,M,3.4,M*29
$YXXDR,A,5.6,D,PTCH,A,-0.5,D,ROLL*76
$HCHDG,67.8,0.0,E,,*10
$IIRMC,010000,A,4740.840,N,12224.521,W,03.6,085,170513,16,E,A*1B
$IIVHW,,,,,00.0,N,,*19
$PTAK,FFP1,HEEL,@*07
$HCHDG,68.1,0.0,E,,*16
$GPRMC,010003.6,A,4740.84000,N,12224.51907,W,003.57,083.0,180513,016.6,E,D*25
$PGRME,2.4,M,2.4,M,3.4,M*29
$IIVLW,06243,N,007.4,N*53
$HCHDG,68.2,0.0,E,,*15
$IIVWR,065,R,11.8,N,,,,*6A
$IIDPT,006.2,-1.0,*44
$HCHDG,68.2,0.0,E,,*15
$GPRMC,010003.8,A,4740.84006,N,12224.51878,W,003.55,084.0,180513,016.6,E,D*21
$PGRME,2.4,M,2.4,M,3.4,M*29
$HCHDG,68.3,0.0,E,,*14
$YXXDR,A,5.8,D,PTCH,A,0.0,D,ROLL*50
$PTAK,FFD1,0.0*55
$GPRMC,010004.0,A,4740.84014,N,12224.51850,W,003.54,084.5,180513,016.6,E,D*23
$PGRME,2.4,M,2.4,M,3.4,M*29
$HCHDG,68.5,0.0,E,,*12
$HCHDG,68.7,0.0,E,,*10
$HCHDG,68.9,0.0,E,,*1E
$GPRMC,010004.2,A,4740.84017,N,12224.51830,W,003.53,085.0,180513,016.6,E,D*27
$GPRMB,A,0.00,L,N,N,4741.0622,N,12224.6030,W,0.2,346,-0.58,V*2B
$PGRME,2.4,M,2.4,M,3.4,M*29
$IIGLL,4740.839,N,12224.520,W,010000,A,A*46
$HCHDG,69.0,0.0,E,,*16
$IIMTW,+10.0,C*39
$IIMWV,065,R,12.3,N,A*10
$HCHDG,69.1,0.0,E,,*17
$GPRMC,010004.4,A,4740.84017,N,12224.51802,W,003.50,088.6,180513,016.6,E,D*28
$PGRME,2.4,M,2.4,M,3.4,M*29
$IIMWV,065,T,11.8,N,A*1E
$YXXDR,A,5.6,D,PTCH,A,-0.1,D,ROLL*72
$HCHDG,69.5,0.0,E,,*13
$IIRMB,A,0.00,L,,N   ,,,,,000.2,346,,V,A*2A
$HCHDG,69.6,0.0,E,,*10
$GPRMC,010004.6,A,4740.84020,N,12224.51774,W,003.49,087.0,180513,016.6,E,D*21
$PGRME,2.4,M,2.4,M,3.4,M*29
$IIRMC,010000,A,4740.839,N,12224.520,W,03.5,083,170513,16,E,A*11
$HCHDG,69.7,0.0,E,,*11
$IIVHW,,,,,00.0,N,,*19
$IIVLW,06243,N,007.4,N*53
$HCHDG,69.8,0.0,E,,*1E
$GPRMC,010004.8,A,4740.84025,N,12224.51742,W,003.47,086.9,180513,016.6,E,D*29
$PGRME,2.4,M,2.4,M,3.4,M*29
$HCHDG,70.0,0.0,E,,*1E
$YXXDR,A,5.7,D,PTCH,A,-0.4,D,ROLL*76
$PTAK,FFD1,0.4*51
$GPRMC,010005.0,A,4740.84032,N,12224.51705,W,003.46,088.1,180513,016.6,E,D*22
$PGRME,2.4,M,2.4,M,3.4,M*29
$HCHDG,70.0,0.0,E,,*1E
$HCHDG,70.2,0.0,E,,*1C
$HCHDG,70.4,0.0,E,,*1A
$GPRMC,010005.2,A,4740.84037,N,12224.51668,W,003.46,088.4,180513,016.6,E,D*2A
$GPRMB,A,0.00,L,N,N,4741.0622,N,12224.6030,W,0.2,345,-0.78,V*2A
$PGRME,2.4,M,2.4,M,3.4,M*29
$IIVWR,066,R,13.0,N,,,,*63
$HCHDG,70.5,0.0,E,,*1B
$IIDPT,006.2,-1.0,*44
$IIGLL,4740.840,N,12224.518,W,010000,A,A*43
$HCHDG,70.6,0.0,E,,*18
$GPRMC,010005.4,A,4740.84037,N,12224.51648,W,003.45,088.2,180513,016.6,E,D*2B
$PGRME,2.4,M,2.4,M,3.4,M*29
$IIMTW,+10.0,C*39
$YXXDR,A,5.7,D,PTCH,A,-0.4,D,ROLL*76
$IIMWV,066,R,13.0,N,A*11
$HCHDG,70.6,0.0,E,,*18
$IIMWV,065,T,12.3,N,A*16
$HCHDG,70.8,0.0,E,,*16
$GPRMC,010005.6,A,4740.84037,N,12224.51625,W,003.43,088.4,180513,016.6,E,D*22
$PGRME,2.4,M,2.4,M,3.4,M*29
$IIRMB,A,0.00,L,,N   ,,,,,000.2,346,,V,A*2A
$HCHDG,70.9,0.0,E,,*17
$IIRMC,010000,A,4740.840,N,12224.518,W,03.5,084,170513,16,E,A*13
$HCHDG,71.2,0.0,E,,*1D
$GPRMC,010005.8,A,4740.84039,N,12224.51606,W,003.42,088.9,180513,016.6,E,D*2F
$PGRME,2.4,M,2.4,M,3.4,M*29
$HCHDG,71.2,0.0,E,,*1D
$YXXDR,A,5.5,D,PTCH,A,-0.4,D,ROLL*74
$PTAK,FFD1,0.4*51
$GPRMC,010006.0,A,4740.84050,N,12224.51569,W,003.40,088.6,180513,016.6,E,D*2C
$PGRME,2.4,M,2.4,M,3.4,M*29
$HCHDG,71.3,0.0,E,,*1C
$HCHDG,71.4,0.0,E,,*1B
$HCHDG,71.6,0.0,E,,*19
$GPRMC,010006.2,A,4740.84054,N,12224.51533,W,003.39,090.2,180513,016.6,E,D*26
$PGRME,2.4,M,2.4,M,3.4,M*29
$IIVHW,,,,,00.0,N,,*19
$HCHDG,71.8,0.0,E,,*17
$IIVLW,06243,N,007.4,N*53
$IIVWR,067,R,13.3,N,,,,*61
$HCHDG,71.9,0.0,E,,*16
$IIDPT,006.2,-1.0,*44
$GPRMC,010006.4,A,4740.84058,N,12224.51503,W,003.40,087.4,180513,016.6,E,D*21
$GPRMB,A,0.00,L,N,N,4741.0622,N,12224.6030,W,0.2,345,-0.73,V*21
$PGRME,2.4,M,2.4,M,3.4,M*29
$YXXDR,A,5.6,D,PTCH,A,-0.7,D,ROLL*74
$IIGLL,4740.840,N,12224.517,W,010000,A,A*4C
$HCHDG,71.9,0.0,E,,*16
$IIMTW,+10.0,C*39
$IIMWV,067,R,13.3,N,A*13
$HCHDG,72.1,0.0,E,,*1D
$GPRMC,010006.6,A,4740.84060,N,12224.51464,W,003.39,090.2,180513,016.6,E,D*26
$PGRME,2.4,M,2.4,M,3.4,M*29
$IIMWV,066,T,13.0,N,A*17
$HCHDG,72.3,0.0,E,,*1F
$IIRMB,A,0.00,L,,N   ,,,,,000.2,345,,V,A*29
$HCHDG,72.4,0.0,E,,*18
$GPRMC,010006.8,A,4740.84066,N,12224.51423,W,003.38,088.9,180513,016.6,E,D*2E
$PGRME,2.4,M,2.4,M,3.4,M*29
$HCHDG,72.5,0.0,E,,*19
$YXXDR,A,5.6,D,PTCH,A,-0.5,D,ROLL*76
$GPRMC,010007.0,A,4740.84073,N,12224.51389,W,003.38,088.9,180513,016.6,E,D*24
$PGRME,2.4,M,2.4,M,3.4,M*29
$HCHDG,72.6,0.0,E,,*1A
$HCHDG,72.7,0.0,E,,*1B
$HCHDG,72.8,0.0,E,,*14
$GPRMC,010007.2,A,4740.84075,N,12224.51357,W,003.37,090.2,180513,016.6,E,D*2E
$PGRME,2.4,M,2.4,M,3.4,M*29
$HCHDG,72.8,0.0,E,,*14
$IIRMC,010000,A,4740.840,N,12224.515,W,03.4,088,170513,16,E,A*13
$IIVHW,,,,,00.0,N,,*19
$HCHDG,73.0,0.0,E,,*1D
$GPRMC,010007.4,A,4740.84078,N,12224.51334,W,003.36,090.2,180513,016.6,E,D*21
$PGRME,2.4,M,2.4,M,3.4,M*29
$IIVLW,06243,N,007.4,N*53
$YXXDR,A,5.6,D,PTCH,A,-0.2,D,ROLL*71
$PTAK,FFD1,0.2*57
$IIVWR,065,R,13.7,N,,,,*67
$HCHDG,73.0,0.0,E,,*1D
$IIDPT,006.2,-1.0,*44
$HCHDG,73.1,0.0,E,,*1C
$GPRMC,010007.6,A,4740.84085,N,12224.51303,W,003.36,089.4,180513,016.6,E,D*2B
$GPRMB,A,0.00,L,N,N,4741.0622,N,12224.6030,W,0.2,345,-0.85,V*28
$PTAK,FFP1,HEEL,@*07
$PGRME,2.4,M,2.4,M,3.4,M*29
$IIGLL,4740.840,N,12224.515,W,010000,A,A*4E
$IIMTW,+10.0,C*39
$HCHDG,73.0,0.0,E,,*1D
$IIMWV,065,R,13.7,N,A*15
$IIMWV,067,T,13.3,N,A*15
$HCHDG,73.1,0.0,E,,*1C
$GPRMC,010007.8,A,4740.84082,N,12224.51272,W,003.36,090.6,180513,016.6,E,D*2F
$PGRME,2.4,M,2.4,M,3.4,M*29
$HCHDG,73.3,0.0,E,,*1E
$YXXDR,A,5.7,D,PTCH,A,0.1,D,ROLL*5E
$GPRMC,010008.0,A,4740.84080,N,12224.51242,W,003.35,090.6,180513,016.6,E,D*2A
$PGRME,2.4,M,2.4,M,3.4,M*29
$HCHDG,73.3,0.0,E,,*1E
$HCHDG,73.4,0.0,E,,*19
$HCHDG,73.3,0.0,E,,*1E
$GPRMC,010008.2,A,4740.84079,N,12224.51203,W,003.36,091.2,180513,016.6,E,D*2D
$PGRME,2.4,M,2.4,M,3.4,M*29
$IIRMB,A,0.00,L,,N   ,,,,,000.2,345,,V,A*29
$HCHDG,73.5,0.0,E,,*18
$HCHDG,73.5,0.0,E,,*18
$GPRMC,010008.4,A,4740.84081,N,12224.51171,W,003.35,091.2,180513,016.6,E,D*29
$PGRME,2.4,M,2.4,M,3.4,M*29
$IIRMC,010000,A,4740.840,N,12224.513,W,03.3,088,170513,16,E,A*12
$YXXDR,A,5.7,D,PTCH,A,0.1,D,ROLL*5E
$PTAK,FFD1,0.1*54
$IIVHW,,,,,00.0,N,,*19
$HCHDG,73.6,0.0,E,,*1B
$IIVLW,06243,N,007.4,N*53
$IIVWR,061,R,13.9,N,,,,*6D
$HCHDG,73.7,0.0,E,,*1A
$GPRMC,010008.6,A,4740.84080,N,12224.51142,W,003.35,089.0,180513,016.6,E,D*21
$GPRMB,A,0.00,L,N,N,4741.0622,N,12224.6030,W,0.2,344,-0.84,V*28
$PGRME,2.4,M,2.4,M,3.4,M*29
$IIDPT,006.2,-1.0,*44
$HCHDG,73.7,0.0,E,,*1A
$IIGLL,4740.840,N,12224.513,W,010000,A,A*48
$IIMTW,+10.0,C*39
$HCHDG,73.8,0.0,E,,*15
$GPRMC,010008.8,A,4740.84077,N,12224.51115,W,003.35,089.9,180513,016.6,E,D*2C
$PGRME,2.4,M,2.4,M,3.4,M*29
$HCHDG,73.9,0.0,E,,*14
$YXXDR,A,5.7,D,PTCH,A,0.2,D,ROLL*5D
$GPRMC,010009.0,A,4740.84078,N,12224.51081,W,003.35,089.5,180513,016.6,E,D*2A
$PGRME,2.4,M,2.4,M,3.4,M*29
$HCHDG,73.9,0.0,E,,*14
$HCHDG,74.0,0.0,E,,*1A
$HCHDG,74.1,0.0,E,,*1B
$GPRMC,010009.2,A,4740.84079,N,12224.51046,W,003.32,090.5,180513,016.6,E,D*2D
$PGRME,2.4,M,2.4,M,3.4,M*29
$IIMWV,058,R,14.1,N,A*1A
$HCHDG,74.2,0.0,E,,*18
$IIMWV,061,T,13.9,N,A*19
$HCHDG,74.2,0.0,E,,*18
$IIRMB,A,0.00,L,,N   ,,,,,000.2,345,,V,A*29
$GPRMC,010009.4,A,4740.84079,N,12224.51006,W,003.33,091.5,180513,016.6,E,D*2F
$PGRME,2.4,M,2.4,M,3.4,M*29
$YXXDR,A,5.6,D,PTCH,A,0.2,D,ROLL*5C
$HCHDG,74.3,0.0,E,,*19
$IIRMC,010000,A,4740.840,N,12224.512,W,03.3,090,170513,16,E,A*1A
$IIVHW,,,,,00.0,N,,*19
$HCHDG,74.3,0.0,E,,*19
$GPRMC,010009.6,A,4740.84075,N,12224.50970,W,003.31,090.2,180513,016.6,E,D*2C
$PGRME,2.4,M,2.4,M,3.4,M*29
$IIVLW,06243,N,007.4,N*53
$HCHDG,74.4,0.0,E,,*1E
$IIVWR,058,R,14.1,N,,,,*68
$IIDPT,006.2,-1.0,*44
$HCHDG,74.4,0.0,E,,*1E
$GPRMC,010009.8,A,4740.84066,N,12224.50924,W,003.28,089.0,180513,016.6,E,D*23
$GPRMB,A,0.00,L,N,N,4741.0622,N,12224.6030,W,0.2,344,-0.84,V*28
$PGRME,2.4,M,2.4,M,3.4,M*29
$HCHDG,74.5,0.0,E,,*1F
$YXXDR,A,5.6,D,PTCH,A,0.3,D,ROLL*5D
$PTAK,FFD1,0.3*56
$GPRMC,010010.0,A,4740.84066,N,12224.50893,W,003.27,090.3,180513,016.6,E,D*2A
$PGRME,2.4,M,2.4,M,3.4,M*29
$HCHDG,74.7,0.0,E,,*1D
$HCHDG,74.7,0.0,E,,*1D
$HCHDG,74.8,0.0,E,,*12
$GPRMC,010010.2,A,4740.84063,N,12224.50871,W,003.26,091.5,180513,016.6,E,D*27
$PGRME,2.4,M,2.4,M,3.4,M*29
$IIGLL,4740.840,N,12224.510,W,010000,A,A*4B
$HCHDG,74.9,0.0,E,,*13
$IIMTW,+10.0,C*39
$IIMWV,053,R,14.1,N,A*11
$HCHDG,75.0,0.0,E,,*1B
$GPRMC,010010.4,A,4740.84064,N,12224.50842,W,003.24,090.6,180513,016.6,E,D*26
$PGRME,2.4,M,2.4,M,3.4,M*29
$IIMWV,058,T,14.1,N,A*1C
$YXXDR,A,5.6,D,PTCH,A,0.4,D,ROLL*5A
$HCHDG,75.1,0.0,E,,*1A
$IIRMB,A,0.00,L,,N   ,,,,,000.2,344,,V,A*28
$HCHDG,75.2,0.0,E,,*19
$GPRMC,010010.6,A,4740.84068,N,12224.50814,W,003.24,092.4,180513,016.6,E,D*2B
$PGRME,2.4,M,2.4,M,3.4,M*29
$IIRMC,010000,A,4740.840,N,12224.510,W,03.3,089,170513,16,E,A*10
$HCHDG,75.3,0.0,E,,*18
$IIVHW,,,,,00.0,N,,*19
$IIVLW,06243,N,007.4,N*53
$HCHDG,75.2,0.0,E,,*19
$GPRMC,010010.8,A,4740.84073,N,12224.50786,W,003.24,092.5,180513,016.6,E,D*2A
$PGRME,2.4,M,2.4,M,3.4,M*29
$HCHDG,75.4,0.0,E,,*1F
$YXXDR,A,5.8,D,PTCH,A,0.6,D,ROLL*56
$GPRMC,010011.0,A,4740.84082,N,12224.50751,W,003.22,093.3,180513,016.6,E,D*26
$GPRMB,A,0.00,L,N,N,4741.0622,N,12224.6030,W,0.2,344,-1.07,V*22
$PGRME,2.4,M,2.4,M,3.4,M*29
$HCHDG,75.4,0.0,E,,*1F
$HCHDG,75.4,0.0,E,,*1F
$HCHDG,75.4,0.0,E,,*1F
$GPRMC,010011.2,A,4740.84086,N,12224.50715,W,003.20,093.7,180513,016.6,E,D*26
$PGRME,2.4,M,2.4,M,3.4,M*29
$IIVWR,046,R,13.9,N,,,,*68
$HCHDG,75.4,0.0,E,,*1F
$IIDPT,006.0,-1.0,*46
$HCHDG,75.3,0.0,E,,*18
$IIGLL,4740.840,N,12224.508,W,010000,A,A*42
$GPRMC,010011.4,A,4740.84093,N,12224.50672,W,003.22,094.3,180513,016.6,E,D*25
$PGRME,2.4,M,2.4,M,3.4,M*29
$IIMTW,+10.0,C*39
$YXXDR,A,5.8,D,PTCH,A,0.7,D,ROLL*57
$PTAK,FFD1,0.7*52
$IIMWV,046,R,13.9,N,A*1A
$HCHDG,75.0,0.0,E,,*1B
$IIMWV,053,T,14.1,N,A*17
$HCHDG,75.0,0.0,E,,*1B
$GPRMC,010011.6,A,4740.84092,N,12224.50645,W,003.23,096.2,180513,016.6,E,D*20
$PTAK,FFP1,HEEL,@*07
$PGRME,2.4,M,2.4,M,3.4,M*29
$IIRMB,A,0.00,L,,N   ,,,,,000.2,344,,V,A*28
$HCHDG,74.9,0.0,E,,*13
$IIRMC,010000,A,4740.840,N,12224.508,W,03.2,090,170513,16,E,A*10
$HCHDG,74.9,0.0,E,,*13
$GPRMC,010011.8,A,4740.84089,N,12224.50626,W,003.23,094.4,180513,016.6,E,D*25
$PGRME,2.4,M,2.4,M,3.4,M*29
$HCHDG,75.1,0.0,E,,*1A
$YXXDR,A,5.7,D,PTCH,A,1.0,D,ROLL*5E
$GPRMC,010012.0,A,4740.84088,N,12224.50613,W,003.23,093.5,180513,016.6,E,D*2F
$GPRMB,A,0.00,L,N,N,4741.0622,N,12224.6030,W,0.2,344,-1.10,V*24
$PGRME,2.4,M,2.4,M,3.4,M*29
$HCHDG,75.1,0.0,E,,*1A
$HCHDG,75.0,0.0,E,,*1B
$HCHDG,75.0,0.0,E,,*1B
$GPRMC,010012.2,A,4740.84089,N,12224.50600,W,003.22,095.5,180513,016.6,E,D*29
$PGRME,2.4,M,2.4,M,3.4,M*29
$HCHDG,75.0,0.0,E,,*1B
$HCHDG,74.9,0.0,E,,*13
$GPRMC,010012.4,A,4740.84092,N,12224.50570,W,003.22,095.4,180513,016.6,E,D*20
$PGRME,2.4,M,2.4,M,3.4,M*29
$YXXDR,A,5.8,D,PTCH,A,0.6,D,ROLL*56
$HCHDG,74.9,0.0,E,,*13
$HCHDG,74.8,0.0,E,,*12
$GPRMC,010012.6,A,4740.84096,N,12224.50550,W,003.24,093.4,180513,016.6,E,D*24
$PGRME,2.4,M,2.4,M,3.4,M*29
$HCHDG,74.9,0.0,E,,*13
$HCHDG,74.9,0.0,E,,*13
$GPRMC,010012.8,A,4740.84097,N,12224.50531,W,003.22,092.9,180513,016.6,E,D*26
$PGRME,2.4,M,2.4,M,3.4,M*29
$HCHDG,75.0,0.0,E,,*1B
$YXXDR,A,5.6,D,PTCH,A,0.8,D,ROLL*56
$PTAK,FFD1,0.8*5D
$GPRMC,010013.0,A,4740.84103,N,12224.50512,W,003.20,093.1,180513,016.6,E,D*29
$GPRMB,A,0.00,L,N,N,4741.0622,N,12224.6030,W,0.2,343,-1.08,V*2A
$PGRME,2.4,M,2.4,M,3.4,M*29
$HCHDG,75.0,0.0,E,,*1B
$HCHDG,74.9,0.0,E,,*13
$HCHDG,75.0,0.0,E,,*1B
$GPRMC,010013.2,A,4740.84101,N,12224.50488,W,003.19,091.2,180513,016.6,E,D*20
$PGRME,2.4,M,2.4,M,3.4,M*29
$IIVHW,,,,,00.0,N,,*19
$HCHDG,75.1,0.0,E,,*1A
$IIVLW,06243,N,007.4,N*53
$IIVWR,044,R,13.2,N,,,,*61
$HCHDG,75.0,0.0,E,,*1B
$IIDPT,006.0,-1.0,*46
$GPRMC,010013.4,A,4740.84104,N,12224.50469,W,003.17,091.3,180513,016.6,E,D*23
$PGRME,2.4,M,2.4,M,3.4,M*29
$YXXDR,A,5.7,D,PTCH,A,1.1,D,ROLL*5F
$IIGLL,4740.840,N,12224.507,W,010000,A,A*4D
$HCHDG,75.1,0.0,E,,*1A
$IIMTW,+10.0,C*39
$IIMWV,044,R,13.2,N,A*13
$HCHDG,75.2,0.0,E,,*19
$GPRMC,010013.6,A,4740.84106,N,12224.50446,W,003.14,089.1,180513,016.6,E,D*26
$PGRME,2.4,M,2.4,M,3.4,M*29
$IIMWV,046,T,13.9,N,A*1C
$HCHDG,75.2,0.0,E,,*19
$IIRMB,A,0.00,L,,N   ,,,,,000.2,344,,V,A*28
$HCHDG,75.3,0.0,E,,*18
$GPRMC,010013.8,A,4740.84109,N,12224.50421,W,003.15,090.3,180513,016.6,E,D*2D
$PGRME,2.4,M,2.4,M,3.4,M*29
$HCHDG,75.4,0.0,E,,*1F
$YXXDR,A,5.8,D,PTCH,A,0.6,D,ROLL*56
$GPRMC,010014.0,A,4740.84113,N,12224.50395,W,003.13,089.8,180513,016.6,E,D*24
$PGRME,2.4,M,2.4,M,3.4,M*29
$HCHDG,75.4,0.0,E,,*1F
$HCHDG,75.4,0.0,E,,*1F
$HCHDG,75.4,0.0,E,,*1F
$GPRMC,010014.2,A,4740.84115,N,12224.50362,W,003.10,090.3,180513,016.6,E,D*28
$GPRMB,A,0.00,L,N,N,4741.0622,N,12224.6030,W,0.2,343,-0.91,V*2B
$PGRME,2.4,M,2.4,M,3.4,M*29
$HCHDG,75.5,0.0,E,,*1E
$IIRMC,010000,A,4740.841,N,12224.505,W,03.2,093,170513,16,E,A*1F
$IIVHW,,,,,00.0,N,,*19
$HCHDG,75.6,0.0,E,,*1D
$GPRMC,010014.4,A,4740.84116,N,12224.50331,W,003.10,092.0,180513,016.6,E,D*2A
$PGRME,2.4,M,2.4,M,3.4,M*29
$IIVLW,06243,N,007.4,N*53
$YXXDR,A,5.8,D,PTCH,A,0.1,D,ROLL*51
$PTAK,FFD1,0.1*54
$IIVWR,050,R,12.1,N,,,,*66
$HCHDG,75.6,0.0,E,,*1D
$IIDPT,006.0,-1.0,*46
$HCHDG,75.7,0.0,E,,*1C
$GPRMC,010014.6,A,4740.84121,N,12224.50292,W,003.10,090.4,180513,016.6,E,D*22
$PGRME,2.4,M,2.4,M,3.4,M*29
$IIGLL,4740.841,N,12224.505,W,010000,A,A*4E
$IIMTW,+10.0,C*39
$HCHDG,75.8,0.0,E,,*13
$IIMWV,050,R,12.1,N,A*14
$IIMWV,046,T,12.4,N,A*10
$HCHDG,75.9,0.0,E,,*12
$GPRMC,010014.8,A,4740.84121,N,12224.50263,W,003.10,092.0,180513,016.6,E,D*24
$PGRME,2.4,M,2.4,M,3.4,M*29
$HCHDG,75.6,0.0,E,,*1D
$YXXDR,A,5.7,D,PTCH,A,-0.2,D,ROLL*70
$GPRMC,010015.0,A,4740.84123,N,12224.50225,W,003.11,090.0,180513,016.6,E,D*2E
$PGRME,2.4,M,2.4,M,3.4,M*29
$HCHDG,75.7,0.0,E,,*1C
$HCHDG,75.7,0.0,E,,*1C
$HCHDG,75.8,0.0,E,,*13
$GPRMC,010015.2,A,4740.84128,N,12224.50188,W,003.13,089.8,180513,016.6,E,D*21
$GPRMB,A,0.00,L,N,N,4741.0622,N,12224.6030,W,0.2,343,-0.91,V*2B
$PGRME,2.4,M,2.4,M,3.4,M*29
$IIRMB,A,0.00,L,,N   ,,,,,000.2,343,,V,A*2F
$HCHDG,75.8,0.0,E,,*13
$HCHDG,75.9,0.0,E,,*12
$GPRMC,010015.4,A,4740.84128,N,12224.50164,W,003.12,090.9,180513,016.6,E,D*2D
$PGRME,2.4,M,2.4,M,3.4,M*29
$IIRMC,010000,A,4740.841,N,12224.503,W,03.1,089,170513,16,E,A*11
$YXXDR,A,5.7,D,PTCH,A,-0.4,D,ROLL*76
$IIVHW,,,,,00.0,N,,*19
$HCHDG,75.8,0.0,E,,*13
$IIVLW,06243,N,007.4,N*53
$IIVWR,052,R,12.9,N,,,,*6C
$HCHDG,75.9,0.0,E,,*12
$PTAK,FFP1,HEEL,@*07
$GPRMC,010015.6,A,4740.84126,N,12224.50147,W,003.13,091.7,180513,016.6,E,D*2E
$PGRME,2.4,M,2.4,M,3.4,M*29
$IIDPT,006.0,-1.0,*46
$HCHDG,75.9,0.0,E,,*12
$IIGLL,4740.841,N,12224.503,W,010000,A,A*48
$IIMTW,+10.0,C*39
$HCHDG,75.9,0.0,E,,*12
$GPRMC,010015.8,A,4740.84124,N,12224.50128,W,003.11,091.9,180513,016.6,E,D*27
$PGRME,2.4,M,2.4,M,3.4,M*29
$HCHDG,75.8,0.0,E,,*13
$YXXDR,A,5.9,D,PTCH,A,-1.7,D,ROLL*7A
$PTAK,FFD1,1.7*53
$GPRMC,010016.0,A,4740.84122,N,12224.50107,W,003.10,092.9,180513,016.6,E,D*25
$PGRME,2.4,M,2.4,M,3.4,M*29
$HCHDG,75.9,0.0,E,,*12
$HCHDG,75.8,0.0,E,,*13
$HCHDG,75.7,0.0,E,,*1C
$GPRMC,010016.2,A,4740.84120,N,12224.50087,W,003.12,093.3,180513,016.6,E,D*25
$GPRMB,A,0.00,L,N,N,4741.0622,N,12224.6030,W,0.2,343,-1.10,V*23
$PGRME,2.4,M,2.4,M,3.4,M*29
$IIMWV,054,R,13.5,N,A*15
$HCHDG,75.6,0.0,E,,*1D
$IIMWV,052,T,12.9,N,A*18
$HCHDG,75.7,0.0,E,,*1C
$IIRMB,A,0.00,L,,N   ,,,,,000.2,343,,V,A*2F
$GPRMC,010016.4,A,4740.84122,N,12224.50069,W,003.14,092.3,180513,016.6,E,D*26
$PGRME,2.4,M,2.4,M,3.4,M*29
$YXXDR,A,6.0,D,PTCH,A,-1.9,D,ROLL*7E
$HCHDG,75.5,0.0,E,,*1E
$IIRMC,010000,A,4740.841,N,12224.502,W,03.1,090,170513,16,E,A*18
$IIVHW,,,,,00.0,N,,*19
$HCHDG,75.6,0.0,E,,*1D
$GPRMC,010016.6,A,4740.84125,N,12224.50041,W,003.17,092.9,180513,016.6,E,D*20
$PGRME,2.4,M,2.4,M,3.4,M*29
$IIVLW,06243,N,007.4,N*53
$HCHDG,75.3,0.0,E,,*18
$IIVWR,054,R,13.5,N,,,,*67
$IIDPT,006.2,-1.0,*44
$HCHDG,75.2,0.0,E,,*19
$GPRMC,010016.8,A,4740.84131,N,12224.50007,W,003.18,094.5,180513,016.6,E,D*2C
$PGRME,2.4,M,2.4,M,3.4,M*29
$HCHDG,75.2,0.0,E,,*19
$YXXDR,A,5.9,D,PTCH,A,-2.0,D,ROLL*7E
$PTAK,FFD1,2.0*57
$GPRMC,010017.0,A,4740.84133,N,12224.49980,W,003.17,094.7,180513,016.6,E,D*24
$PGRME,2.4,M,2.4,M,3.4,M*29
$HCHDG,75.0,0.0,E,,*1B
$HCHDG,75.2,0.0,E,,*19
$HCHDG,75.2,0.0,E,,*19
$GPRMC,010017.2,A,4740.84134,N,12224.49967,W,003.16,094.6,180513,016.6,E,D*28
$GPRMB,A,0.00,L,N,N,4741.0622,N,12224.6030,W,0.2,343,-1.19,V*2A
$PGRME,2.4,M,2.4,M,3.4,M*29
$IIGLL,4740.841,N,12224.501,W,010000,A,A*4A
$HCHDG,75.1,0.0,E,,*1A
$IIMTW,+10.0,C*39
$IIMWV,056,R,13.9,N,A*1B
$HCHDG,75.1,0.0,E,,*1A
$GPRMC,010017.4,A,4740.84134,N,12224.49945,W,003.15,092.8,180513,016.6,E,D*25
$PGRME,2.4,M,2.4,M,3.4,M*29
$IIMWV,054,T,13.5,N,A*13
$YXXDR,A,5.8,D,PTCH,A,-2.1,D,ROLL*7E
$HCHDG,75.0,0.0,E,,*1B
$IIRMB,A,0.00,L,,N   ,,,,,000.2,343,,V,A*2F
$HCHDG,74.9,0.0,E,,*13
$GPRMC,010017.6,A,4740.84134,N,12224.49931,W,003.16,094.0,180513,016.6,E,D*29
$PGRME,2.4,M,2.4,M,3.4,M*29
$IIRMC,010000,A,4740.841,N,12224.501,W,03.1,092,170513,16,E,A*19
$HCHDG,74.9,0.0,E,,*13
$IIVHW,,,,,00.0,N,,*19
$IIVLW,06243,N,007.4,N*53
$HCHDG,74.9,0.0,E,,*13
$GPRMC,010017.8,A,4740.84145,N,12224.49911,W,003.18,093.5,180513,016.6,E,D*2F
$PGRME,2.4,M,2.4,M,3.4,M*29
$HCHDG,74.8,0.0,E,,*12
$YXXDR,A,5.8,D,PTCH,A,-1.6,D,ROLL*7A
$GPRMC,010018.0,A,4740.84146,N,12224.49886,W,003.17,093.2,180513,016.6,E,D*2C
$PGRME,2.4,M,2.4,M,3.4,M*29
$HCHDG,74.8,0.0,E,,*12
$HCHDG,74.7,0.0,E,,*1D
$HCHDG,74.8,0.0,E,,*12
$GPRMC,010018.2,A,4740.84146,N,12224.49865,W,003.16,093.1,180513,016.6,E,D*21
$PGRME,2.4,M,2.4,M,3.4,M*29
$IIVWR,058,R,14.5,N,,,,*6C
$HCHDG,74.7,0.0,E,,*1D
$IIDPT,006.6,-1.0,*40
$IIGLL,4740.841,N,12224.499,W,010000,A,A*4A
$HCHDG,74.8,0.0,E,,*12
$GPRMC,010018.4,A,4740.84149,N,12224.49850,W,003.16,093.6,180513,016.6,E,D*29
$GPRMB,A,0.00,L,N,N,4741.0622,N,12224.6030,W,0.2,342,-1.15,V*27
$PGRME,2.4,M,2.4,M,3.4,M*29
$IIMTW,+10.0,C*39
$YXXDR,A,5.8,D,PTCH,A,-1.1,D,ROLL*7D
$PTAK,FFD1,1.1*55
$IIMWV,058,R,14.5,N,A*1E
$HCHDG,74.9,0.0,E,,*13
$IIMWV,056,T,13.9,N,A*1D
$HCHDG,74.9,0.0,E,,*13
$GPRMC,010018.6,A,4740.84154,N,12224.49832,W,003.17,090.6,180513,016.6,E,D*21
$PGRME,2.4,M,2.4,M,3.4,M*29
$IIRMB,A,0.00,L,,N   ,,,,,000.2,343,,V,A*2F
$HCHDG,74.9,0.0,E,,*13
$IIRMC,010000,A,4740.841,N,12224.499,W,03.1,094,170513,16,E,A*1F
$HCHDG,75.0,0.0,E,,*1B
$GPRMC,010018.8,A,4740.84151,N,12224.49808,W,003.19,089.0,180513,016.6,E,D*23
$PGRME,2.4,M,2.4,M,3.4,M*29
$HCHDG,75.0,0.0,E,,*1B
$YXXDR,A,5.8,D,PTCH,A,-0.6,D,ROLL*7B
$GPRMC,010019.0,A,4740.84152,N,12224.49783,W,003.20,089.5,180513,016.6,E,D*2A
$PGRME,2.4,M,2.4,M,3.4,M*29
$HCHDG,75.0,0.0,E,,*1B
$HCHDG,75.1,0.0,E,,*1A
$HCHDG,75.2,0.0,E,,*19
$GPRMC,010019.2,A,4740.84157,N,12224.49757,W,003.19,090.2,180513,016.6,E,D*21
$PGRME,2.4,M,2.4,M,3.4,M*29
$IIVHW,,,,,00.0,N,,*19
$HCHDG,75.2,0.0,E,,*19
$IIVLW,06243,N,007.4,N*53
$IIVWR,061,R,14.9,N,,,,*6A
$HCHDG,75.3,0.0,E,,*18
$IIDPT,006.6,-1.0,*40
$GPRMC,010019.4,A,4740.84146,N,12224.49725,W,003.18,089.4,180513,016.6,E,D*2D
$PGRME,2.4,M,2.4,M,3.4,M*29
$YXXDR,A,5.8,D,PTCH,A,0.0,D,ROLL*50
$IIGLL,4740.841,N,12224.498,W,010000,A,A*4B
$HCHDG,75.4,0.0,E,,*1F
$IIMTW,+10.0,C*39
$IIMWV,061,R,14.9,N,A*18
$HCHDG,75.3,0.0,E,,*18
$GPRMC,010019.6,A,4740.84134,N,12224.49707,W,003.16,089.3,180513,016.6,E,D*23
$GPRMB,A,0.00,L,N,N,4741.0622,N,12224.6030,W,0.2,342,-0.93,V*28
$PTAK,FFP1,HEEL,@*07
$PGRME,2.4,M,2.4,M,3.4,M*29
$IIMWV,058,T,14.5,N,A*18
$HCHDG,75.5,0.0,E,,*1E
$IIRMB,A,0.00,L,,N   ,,,,,000.2,342,,V,A*2E
$HCHDG,75.5,0.0,E,,*1E
$GPRMC,010019.8,A,4740.84135,N,12224.49685,W,003.16,089.8,180513,016.6,E,D*2C
$PGRME,2.4,M,2.4,M,3.4,M*29
$HCHDG,75.5,0.0,E,,*1E
$YXXDR,A,5.8,D,PTCH,A,0.0,D,ROLL*50
$PTAK,FFD1,0.0*55
$GPRMC,010020.0,A,4740.84136,N,12224.49658,W,003.16,087.6,180513,016.6,E,D*2D
$PGRME,2.4,M,2.4,M,3.4,M*29
$HCHDG,75.7,0.0,E,,*1C
$HCHDG,75.9,0.0,E,,*12
$HCHDG,75.9,0.0,E,,*12
$GPRMC,010020.2,A,4740.84131,N,12224.49626,W,003.16,087.5,180513,016.6,E,D*22
$PGRME,2.4,M,2.4,M,3.4,M*29
$HCHDG,76.3,0.0,E,,*1B
$IIRMC,010000,A,4740.841,N,12224.497,W,03.2,089,170513,16,E,A*1E
$IIVHW,,,,,00.0,N,,*19
$HCHDG,76.3,0.0,E,,*1B
$GPRMC,010020.4,A,4740.84126,N,12224.49597,W,003.13,088.6,180513,016.6,E,D*22
$PGRME,2.4,M,2.4,M,3.4,M*29
$IIVLW,06243,N,007.4,N*53
$YXXDR,A,5.6,D,PTCH,A,-0.1,D,ROLL*72
$IIVWR,063,R,15.2,N,,,,*62
$HCHDG,76.6,0.0,E,,*1E
$IIDPT,006.6,-1.0,*40
$HCHDG,76.7,0.0,E,,*1F
$GPRMC,010020.6,A,4740.84123,N,12224.49563,W,003.11,087.1,180513,016.6,E,D*24
$GPRMB,A,0.00,L,N,N,4741.0622,N,12224.6030,W,0.2,342,-0.82,V*28
$PGRME,2.4,M,2.4,M,3.4,M*29
$IIGLL,4740.841,N,12224.497,W,010000,A,A*44
$IIMTW,+10.0,C*39
$HCHDG,76.6,0.0,E,,*1E
$IIMWV,063,R,15.2,N,A*10
$IIMWV,061,T,14.9,N,A*1E
$HCHDG,76.8,0.0,E,,*10
$GPRMC,010020.8,A,4740.84126,N,12224.49538,W,003.11,087.6,180513,016.6,E,D*26
$PGRME,2.4,M,2.4,M,3.4,M*29
$HCHDG,76.8,0.0,E,,*10
$YXXDR,A,5.7,D,PTCH,A,-0.2,D,ROLL*70
$PTAK,FFD1,0.2*57
$GPRMC,010021.0,A,4740.84130,N,12224.49517,W,003.09,085.5,180513,016.6,E,D*2D
$PGRME,2.4,M,2.4,M,3.4,M*29
$HCHDG,77.1,0.0,E,,*18
$HCHDG,77.3,0.0,E,,*1A
$HCHDG,77.5,0.0,E,,*1C
$GPRMC,010021.2,A,4740.84135,N,12224.49499,W,003.11,085.0,180513,016.6,E,D*21
$PGRME,2.4,M,2.4,M,3.4,M*29
$IIRMB,A,0.00,L,,N   ,,,,,000.2,342,,V,A*2E
$HCHDG,77.8,0.0,E,,*11
$HCHDG,78.1,0.0,E,,*17
$GPRMC,010021.4,A,4740.84140,N,12224.49475,W,003.11,084.1,180513,016.6,E,D*27
$PGRME,2.4,M,2.4,M,3.4,M*29
$IIRMC,010000,A,4740.841,N,12224.497,W,03.2,089,170513,16,E,A*1E
$YXXDR,A,5.6,D,PTCH,A,0.0,D,ROLL*5E
$IIVHW,,,,,00.0,N,,*19
$HCHDG,78.6,0.0,E,,*10
$IIVLW,06243,N,007.4,N*53
$IIVWR,063,R,14.9,N,,,,*68
$HCHDG,78.9,0.0,E,,*1F
$GPRMC,010021.6,A,4740.84144,N,12224.49453,W,003.11,084.5,180513,016.6,E,D*21
$PGRME,2.4,M,2.4,M,3.4,M*29
$IIDPT,006.6,-1.0,*40
$HCHDG,79.2,0.0,E,,*15
$IIGLL,4740.841,N,12224.497,W,010000,A,A*44
$IIMTW,+10.0,C*39
$HCHDG,79.6,0.0,E,,*11
$GPRMC,010021.8,A,4740.84142,N,12224.49425,W,003.13,083.4,180513,016.6,E,D*2C
$GPRMB,A,0.00,L,N,N,4741.0622,N,12224.6030,W,0.2,342,-0.64,V*20
$PGRME,2.4,M,2.4,M,3.4,M*29
$HCHDG,79.9,0.0,E,,*1E
$YXXDR,A,5.8,D,PTCH,A,-0.9,D,ROLL*74
$PTAK,FFD1,0.9*5C
$GPRMC,010022.0,A,4740.84137,N,12224.49389,W,003.11,085.6,180513,016.6,E,D*22
$PGRME,2.4,M,2.4,M,3.4,M*29
$HCHDG,79.9,0.0,E,,*1E
$HCHDG,80.2,0.0,E,,*13
$HCHDG,80.6,0.0,E,,*17
$GPRMC,010022.2,A,4740.84142,N,12224.49354,W,003.28,084.8,180513,016.6,E,D*27
$PGRME,2.4,M,2.4,M,3.4,M*29
$IIMWV,060,R,14.4,N,A*14
$HCHDG,80.9,0.0,E,,*18
$IIMWV,063,T,14.9,N,A*1C
$HCHDG,81.2,0.0,E,,*12
$IIRMB,A,0.00,L,,N   ,,,,,000.2,342,,V,A*2E
$GPRMC,010022.4,A,4740.84145,N,12224.49319,W,003.09,090.7,180513,016.6,E,D*26
$PGRME,2.4,M,2.4,M,3.4,M*29
$YXXDR,A,5.8,D,PTCH,A,-1.2,D,ROLL*7E
$HCHDG,81.6,0.0,E,,*16
$IIRMC,010000,A,4740.841,N,12224.495,W,03.0,085,170513,16,E,A*12
$IIVHW,,,,,00.0,N,,*19
$HCHDG,82.0,0.0,E,,*13
$GPRMC,010022.6,A,4740.84140,N,12224.49292,W,003.08,088.3,180513,016.6,E,D*2F
$PGRME,2.4,M,2.4,M,3.4,M*29
$IIVLW,06243,N,007.4,N*53
$HCHDG,82.4,0.0,E,,*17
$IIVWR,060,R,14.4,N,,,,*66
$IIDPT,006.6,-1.0,*40
$HCHDG,82.7,0.0,E,,*14
$GPRMC,010022.8,A,4740.84136,N,12224.49272,W,003.07,088.1,180513,016.6,E,D*23
$PGRME,2.4,M,2.4,M,3.4,M*29
$HCHDG,83.2,0.0,E,,*10
$YXXDR,A,5.8,D,PTCH,A,-1.1,D,ROLL*7D
$GPRMC,010023.0,A,4740.84137,N,12224.49254,W,003.11,087.9,180513,016.6,E,D*2F
$GPRMB,A,0.00,L,N,N,4741.0622,N,12224.6030,W,0.2,341,-0.88,V*21
$PGRME,2.4,M,2.4,M,3.4,M*29
$HCHDG,83.4,0.0,E,,*16
$HCHDG,83.8,0.0,E,,*1A
$HCHDG,84.1,0.0,E,,*14
$GPRMC,010023.2,A,4740.84135,N,12224.49227,W,003.06,091.1,180513,016.6,E,D*22
$PGRME,2.4,M,2.4,M,3.4,M*29
$IIGLL,4740.841,N,12224.493,W,010000,A,A*40
$HCHDG,84.3,0.0,E,,*16
$IIMTW,+10.0,C*39
$IIMWV,058,R,13.7,N,A*1B
$HCHDG,84.7,0.0,E,,*12
$GPRMC,010023.4,A,4740.84133,N,12224.49198,W,003.10,092.9,180513,016.6,E,D*29
$PGRME,2.4,M,2.4,M,3.4,M*29
$IIMWV,060,T,14.4,N,A*12
$YXXDR,A,5.9,D,PTCH,A,-1.4,D,ROLL*79
$PTAK,FFD1,1.4*50
$HCHDG,85.1,0.0,E,,*15
$IIRMB,A,0.00,L,,N   ,,,,,000.2,342,,V,A*2E
$HCHDG,85.4,0.0,E,,*10
$GPRMC,010023.6,A,4740.84132,N,12224.49172,W,003.10,094.1,180513,016.6,E,D*20
$PGRME,2.4,M,2.4,M,3.4,M*29
$IIRMC,010000,A,4740.841,N,12224.493,W,03.1,085,170513,16,E,A*15
$HCHDG,85.6,0.0,E,,*12
$PTAK,FFP1,HEEL,@*07
$IIVHW,,,,,00.0,N,,*19
$IIVLW,06243,N,007.4,N*53
$HCHDG,85.8,0.0,E,,*1C
$GPRMC,010023.8,A,4740.84128,N,12224.49143,W,003.09,098.6,180513,016.6,E,D*24
$PGRME,2.4,M,2.4,M,3.4,M*29
$HCHDG,86.0,0.0,E,,*17
$YXXDR,A,5.9,D,PTCH,A,-1.9,D,ROLL*74
$GPRMC,010024.0,A,4740.84123,N,12224.49126,W,003.08,101.9,180513,016.6,E,D*2C
$PGRME,2.4,M,2.4,M,3.4,M*29
$HCHDG,86.2,0.0,E,,*15
$HCHDG,86.2,0.0,E,,*15
$HCHDG,86.4,0.0,E,,*13
$GPRMC,010024.2,A,4740.84126,N,12224.49105,W,003.05,105.2,180513,016.6,E,D*28
$GPRMB,A,0.00,L,N,N,4741.0622,N,12224.6030,W,0.2,341,-1.71,V*26
$PGRME,2.4,M,2.4,M,3.4,M*29
$IIVWR,053,R,13.5,N,,,,*60
$HCHDG,86.4,0.0,E,,*13
$IIDPT,006.6,-1.0,*40
$IIGLL,4740.841,N,12224.492,W,010000,A,A*41
$HCHDG,86.5,0.0,E,,*12
$GPRMC,010024.4,A,4740.84128,N,12224.49082,W,003.03,106.2,180513,016.6,E,D*2B
$PGRME,2.4,M,2.4,M,3.4,M*29
$IIMTW,+10.0,C*39
$YXXDR,A,5.8,D,PTCH,A,-2.2,D,ROLL*7D
$PTAK,FFD1,2.2*55
$IIMWV,053,R,13.5,N,A*12
$HCHDG,86.5,0.0,E,,*12
$IIMWV,058,T,13.7,N,A*1D
$HCHDG,86.5,0.0,E,,*12
$GPRMC,010024.6,A,4740.84128,N,12224.49055,W,003.01,105.0,180513,016.6,E,D*20
$PGRME,2.4,M,2.4,M,3.4,M*29
$IIRMB,A,0.00,L,,N   ,,,,,000.2,341,,V,A*2D
$HCHDG,86.5,0.0,E,,*12
$IIRMC,010000,A,4740.841,N,12224.492,W,03.1,087,170513,16,E,A*16
$HCHDG,86.6,0.0,E,,*11
$GPRMC,010024.8,A,4740.84124,N,12224.49035,W,003.00,104.8,180513,016.6,E,D*2C
$PGRME,2.4,M,2.4,M,3.4,M*29
$HCHDG,86.6,0.0,E,,*11
$YXXDR,A,5.7,D,PTCH,A,-1.0,D,ROLL*73
$GPRMC,010025.0,A,4740.84118,N,12224.49022,W,003.00,105.5,180513,016.6,E,D*20
$PGRME,2.4,M,2.4,M,3.4,M*29
$HCHDG,86.5,0.0,E,,*12
$HCHDG,86.5,0.0,E,,*12
$HCHDG,86.5,0.0,E,,*12
$GPRMC,010025.2,A,4740.84112,N,12224.48996,W,003.00,104.7,180513,016.6,E,D*2C
$PGRME,2.4,M,2.4,M,3.4,M*29
$IIVHW,,,,,00.0,N,,*19
$HCHDG,86.4,0.0,E,,*13
$IIVLW,06243,N,007.4,N*53
$IIVWR,053,R,13.6,N,,,,*63
$HCHDG,86.4,0.0,E,,*13
$IIDPT,006.7,-1.0,*41
$GPRMC,010025.4,A,4740.84107,N,12224.48967,W,003.00,105.0,180513,016.6,E,D*26
$GPRMB,A,0.00,L,N,N,4741.0622,N,12224.6030,W,0.2,341,-1.68,V*2E
$PGRME,2.4,M,2.4,M,3.4,M*29
$YXXDR,A,5.8,D,PTCH,A,-0.6,D,ROLL*7B
$PTAK,FFD1,0.6*53
$IIGLL,4740.841,N,12224.491,W,010000,A,A*42
$HCHDG,86.3,0.0,E,,*14
$IIMTW,+10.0,C*39
$IIMWV,053,R,13.6,N,A*11
$HCHDG,86.4,0.0,E,,*13
$GPRMC,010025.6,A,4740.84102,N,12224.48942,W,003.01,104.5,180513,016.6,E,D*23
$PGRME,2.4,M,2.4,M,3.4,M*29
$IIMWV,053,T,13.5,N,A*14
$HCHDG,86.4,0.0,E,,*13
$IIRMB,A,0.00,L,,N   ,,,,,000.2,341,,V,A*2D
$HCHDG,86.3,0.0,E,,*14
$GPRMC,010025.8,A,4740.84094,N,12224.48920,W,003.00,104.6,180513,016.6,E,D*25
$PGRME,2.4,M,2.4,M,3.4,M*29
$HCHDG,86.3,0.0,E,,*14
$YXXDR,A,5.7,D,PTCH,A,-0.1,D,ROLL*73
$GPRMC,010026.0,A,4740.84089,N,12224.48897,W,003.01,102.7,180513,016.6,E,D*29
$PGRME,2.4,M,2.4,M,3.4,M*29
$HCHDG,86.3,0.0,E,,*14
$HCHDG,86.3,0.0,E,,*14
$HCHDG,86.3,0.0,E,,*14
$GPRMC,010026.2,A,4740.84090,N,12224.48871,W,003.02,102.8,180513,016.6,E,D*27
$PGRME,2.4,M,2.4,M,3.4,M*29
$HCHDG,86.5,0.0,E,,*12
$IIRMC,010000,A,4740.841,N,12224.490,W,03.0,105,170513,16,E,A*1E
$IIVHW,,,,,00.0,N,,*19
$HCHDG,86.4,0.0,E,,*13
$GPRMC,010026.4,A,4740.84091,N,12224.48847,W,003.02,100.6,180513,016.6,E,D*29
$PGRME,2.4,M,2.4,M,3.4,M*29
$IIVLW,06243,N,007.4,N*53
$YXXDR,A,5.7,D,PTCH,A,0.2,D,ROLL*5D
$IIVWR,052,R,13.5,N,,,,*61
$HCHDG,86.5,0.0,E,,*12
$IIDPT,006.7,-1.0,*41
$HCHDG,86.5,0.0,E,,*12
$GPRMC,010026.6,A,4740.84090,N,12224.48827,W,003.03,101.6,180513,016.6,E,D*2C
$GPRMB,A,0.00,L,N,N,4741.0622,N,12224.6030,W,0.2,341,-1.55,V*20
$PGRME,2.4,M,2.4,M,3.4,M*29
$IIGLL,4740.841,N,12224.490,W,010000,A,A*43
$IIMTW,+10.0,C*39
$HCHDG,86.7,0.0,E,,*10
$IIMWV,052,R,13.5,N,A*13
$IIMWV,053,T,13.6,N,A*17
$HCHDG,86.6,0.0,E,,*11
$GPRMC,010026.8,A,4740.84090,N,12224.48801,W,003.02,100.6,180513,016.6,E,D*26
$PGRME,2.4,M,2.4,M,3.4,M*29
$HCHDG,86.7,0.0,E,,*10
$YXXDR,A,5.8,D,PTCH,A,0.5,D,ROLL*55
$PTAK,FFD1,0.5*50
$GPRMC,010027.0,A,4740.84083,N,12224.48774,W,003.03,102.1,180513,016.6,E,D*24
$PGRME,2.4,M,2.4,M,3.4,M*29
$HCHDG,86.8,0.0,E,,*1F
$HCHDG,87.0,0.0,E,,*16
$HCHDG,87.1,0.0,E,,*17
$GPRMC,010027.2,A,4740.84077,N,12224.48743,W,003.02,100.1,180513,016.6,E,D*2A
$PGRME,2.4,M,2.4,M,3.4,M*29
$IIRMB,A,0.00,L,,N   ,,,,,000.2,341,,V,A*2D
$HCHDG,87.1,0.0,E,,*17
$HCHDG,87.2,0.0,E,,*14
$GPRMC,010027.4,A,4740.84079,N,12224.48716,W,003.01,100.8,180513,016.6,E,D*28
$PGRME,2.4,M,2.4,M,3.4,M*29
$IIRMC,010000,A,4740.840,N,12224.488,W,03.0,102,170513,16,E,A*11
$YXXDR,A,5.8,D,PTCH,A,1.4,D,ROLL*55
$IIVHW,,,,,00.0,N,,*19
$HCHDG,87.3,0.0,E,,*15
$IIVLW,06243,N,007.4,N*53
$IIVWR,053,R,13.1,N,,,,*64
$HCHDG,87.5,0.0,E,,*13
$GPRMC,010027.6,A,4740.84076,N,12224.48697,W,003.01,100.6,180513,016.6,E,D*23
$GPRMB,A,0.00,L,N,N,4741.0622,N,12224.6030,W,0.2,341,-1.51,V*24
$PGRME,2.4,M,2.4,M,3.4,M*29
$IIDPT,006.7,-1.0,*41
$HCHDG,87.6,0.0,E,,*10
$PTAK,FFP1,HEEL,@*07
$IIGLL,4740.840,N,12224.488,W,010000,A,A*4B
$IIMTW,+10.0,C*39
$HCHDG,87.7,0.0,E,,*11
$GPRMC,010027.8,A,4740.84076,N,12224.48671,W,003.00,099.1,180513,016.6,E,D*22
$PGRME,2.4,M,2.4,M,3.4,M*29
$HCHDG,87.7,0.0,E,,*11
$YXXDR,A,5.7,D,PTCH,A,1.1,D,ROLL*5F
$PTAK,FFD1,1.1*55
$GPRMC,010028.0,A,4740.84073,N,12224.48648,W,002.98,101.4,180513,016.6,E,D*2F
$PGRME,2.4,M,2.4,M,3.4,M*29
$HCHDG,87.8,0.0,E,,*1E
$HCHDG,88.2,0.0,E,,*1B
$HCHDG,88.4,0.0,E,,*1D
$GPRMC,010028.2,A,4740.84072,N,12224.48626,W,002.96,099.3,180513,016.6,E,D*2D
$PGRME,2.4,M,2.4,M,3.4,M*29
$IIMWV,052,R,12.8,N,A*1F
$HCHDG,88.5,0.0,E,,*1C
$IIMWV,053,T,13.1,N,A*10
$IIRMB,A,0.00,L,,N   ,,,,,000.2,341,,V,A*2D
$HCHDG,88.7,0.0,E,,*1E
$GPRMC,010028.4,A,4740.84065,N,12224.48600,W,002.94,098.5,180513,016.6,E,D*2C
$PGRME,2.4,M,2.4,M,3.4,M*29
$YXXDR,A,5.5,D,PTCH,A,0.7,D,ROLL*5A
$HCHDG,88.8,0.0,E,,*11
$IIRMC,010000,A,4740.840,N,12224.487,W,03.0,100,170513,16,E,A*1C
$IIVHW,,,,,00.0,N,,*19
$HCHDG,88.9,0.0,E,,*10
$GPRMC,010028.6,A,4740.84063,N,12224.48575,W,002.94,102.4,180513,016.6,E,D*2A
$GPRMB,A,0.00,L,N,N,4741.0622,N,12224.6030,W,0.2,340,-1.56,V*22
$PGRME,2.4,M,2.4,M,3.4,M*29
$IIVLW,06243,N,007.4,N*53
$IIVWR,052,R,12.8,N,,,,*6D
$HCHDG,89.0,0.0,E,,*18
$IIDPT,006.7,-1.0,*41
$HCHDG,89.1,0.0,E,,*19
$GPRMC,010028.8,A,4740.84056,N,12224.48555,W,002.93,098.2,180513,016.6,E,D*23
$PGRME,2.4,M,2.4,M,3.4,M*29
$HCHDG,89.3,0.0,E,,*1B
$YXXDR,A,5.8,D,PTCH,A,0.0,D,ROLL*50
$GPRMC,010029.0,A,4740.84049,N,12224.48536,W,002.91,102.8,180513,016.6,E,D*2B
$PGRME,2.4,M,2.4,M,3.4,M*29
$HCHDG,89.4,0.0,E,,*1C
$HCHDG,89.5,0.0,E,,*1D
$HCHDG,89.7,0.0,E,,*1F
$GPRMC,010029.2,A,4740.84051,N,12224.48523,W,002.92,099.6,180513,016.6,E,D*2A
$PGRME,2.4,M,2.4,M,3.4,M*29
$IIGLL,4740.840,N,12224.486,W,010000,A,A*45
$HCHDG,89.8,0.0,E,,*10
$IIMTW,+10.0,C*39
$IIMWV,051,R,12.4,N,A*10
$HCHDG,90.0,0.0,E,,*10
$GPRMC,010029.4,A,4740.84051,N,12224.48507,W,002.91,102.1,180513,016.6,E,D*2D
$PGRME,2.4,M,2.4,M,3.4,M*29
$IIMWV,052,T,12.8,N,A*19
$YXXDR,A,5.6,D,PTCH,A,0.0,D,ROLL*5E
$PTAK,FFD1,0.0*55
$HCHDG,90.1,0.0,E,,*11
$IIRMB,A,0.00,L,,N   ,,,,,000.2,340,,V,A*2C
$HCHDG,90.1,0.0,E,,*11
$GPRMC,010029.6,A,4740.84055,N,12224.48486,W,002.90,103.9,180513,016.6,E,D*2B
$GPRMB,A,0.00,L,N,N,4741.0622,N,12224.6030,W,0.2,340,-1.61,V*26
$PGRME,2.4,M,2.4,M,3.4,M*29
$IIRMC,010000,A,4740.840,N,12224.486,W,02.9,099,170513,16,E,A*14
$HCHDG,90.4,0.0,E,,*14
$IIVHW,,,,,00.0,N,,*19
$IIVLW,06243,N,007.4,N*53
$HCHDG,90.5,0.0,E,,*15
$GPRMC,010029.8,A,4740.84048,N,12224.48463,W,002.89,103.8,180513,016.6,E,D*2B
$PGRME,2.4,M,2.4,M,3.4,M*29
$HCHDG,90.6,0.0,E,,*16
$YXXDR,A,5.7,D,PTCH,A,-0.4,D,ROLL*76
$GPRMC,010030.0,A,4740.84041,N,12224.48446,W,002.89,103.7,180513,016.6,E,D*2A
$PGRME,2.4,M,2.4,M,3.4,M*29
$HCHDG,90.8,0.0,E,,*18
$HCHDG,90.8,0.0,E,,*18
$HCHDG,90.9,0.0,E,,*19
$GPRMC,010030.2,A,4740.84033,N,12224.48421,W,002.87,105.1,180513,016.6,E,D*22
$PGRME,2.4,M,2.4,M,3.4,M*29
$IIVWR,050,R,11.7,N,,,,*63
$HCHDG,91.1,0.0,E,,*10
$IIDPT,006.7,-1.0,*41
$IIGLL,4740.840,N,12224.485,W,010000,A,A*46
$HCHDG,91.2,0.0,E,,*13
$GPRMC,010030.4,A,4740.84029,N,12224.48396,W,002.86,104.6,180513,016.6,E,D*23
$PGRME,2.4,M,2.4,M,3.4,M*29
$IIMTW,+10.0,C*39
$YXXDR,A,5.5,D,PTCH,A,0.1,D,ROLL*5C
$PTAK,FFD1,0.1*54
$IIMWV,050,R,11.7,N,A*11
$HCHDG,91.3,0.0,E,,*12
$IIMWV,051,T,12.4,N,A*16
$HCHDG,91.5,0.0,E,,*14
$GPRMC,010030.6,A,4740.84025,N,12224.48386,W,002.85,105.4,180513,016.6,E,D*2C
$GPRMB,A,0.00,L,N,N,4741.0622,N,12224.6030,W,0.2,340,-1.65,V*22
$PGRME,2.4,M,2.4,M,3.4,M*29
$IIRMB,A,0.00,L,,N   ,,,,,000.2,340,,V,A*2C
$HCHDG,91.6,0.0,E,,*17
$IIRMC,010000,A,4740.840,N,12224.485,W,02.9,099,170513,16,E,A*17
$HCHDG,91.7,0.0,E,,*16
$GPRMC,010030.8,A,4740.84021,N,12224.48375,W,002.83,104.8,180513,016.6,E,D*21
$PGRME,2.4,M,2.4,M,3.4,M*29
$HCHDG,91.9,0.0,E,,*18
$YXXDR,A,5.6,D,PTCH,A,0.0,D,ROLL*5E
$GPRMC,010031.0,A,4740.84012,N,12224.48358,W,002.81,105.8,180513,016.6,E,D*24
$PGRME,2.4,M,2.4,M,3.4,M*29
$HCHDG,92.0,0.0,E,,*12
$HCHDG,92.1,0.0,E,,*13
$HCHDG,92.3,0.0,E,,*11
$GPRMC,010031.2,A,4740.84005,N,12224.48344,W,002.80,105.4,180513,016.6,E,D*20
$PGRME,2.4,M,2.4,M,3.4,M*29
$IIVHW,,,,,00.0,N,,*19
$HCHDG,92.5,0.0,E,,*17
$IIVLW,06243,N,007.4,N*53
$IIVWR,049,R,11.3,N,,,,*6F
$HCHDG,92.5,0.0,E,,*17
$IIDPT,006.7,-1.0,*41
$GPRMC,010031.4,A,4740.84004,N,12224.48326,W,002.80,106.2,180513,016.6,E,D*26
$PGRME,2.4,M,2.4,M,3.4,M*29
$YXXDR,A,5.7,D,PTCH,A,1.0,D,ROLL*5E
$IIGLL,4740.840,N,12224.484,W,010000,A,A*47
$HCHDG,92.6,0.0,E,,*14
$IIMTW,+10.0,C*39
$IIMWV,049,R,11.3,N,A*1D
$HCHDG,92.9,0.0,E,,*1B
$GPRMC,010031.6,A,4740.83999,N,12224.48299,W,002.78,103.9,180513,016.6,E,D*22
$PGRME,2.4,M,2.4,M,3.4,M*29
$IIMWV,050,T,11.7,N,A*17
$HCHDG,93.1,0.0,E,,*12
$IIRMB,A,0.00,L,,N   ,,,,,000.2,340,,V,A*2C
$HCHDG,93.2,0.0,E,,*11
$GPRMC,010031.8,A,4740.84002,N,12224.48272,W,002.77,102.3,180513,016.6,E,D*21
$GPRMB,A,0.00,L,N,N,4741.0622,N,12224.6030,W,0.2,340,-1.48,V*2D
$PTAK,FFP1,HEEL,@*07
$PGRME,2.4,M,2.4,M,3.4,M*29
$HCHDG,93.5,0.0,E,,*16
$YXXDR,A,5.7,D,PTCH,A,1.0,D,ROLL*5E
$PTAK,FFD1,1.0*54
$GPRMC,010032.0,A,4740.83997,N,12224.48256,W,002.76,108.3,180513,016.6,E,D*25
$PGRME,2.4,M,2.4,M,3.4,M*29
$HCHDG,93.6,0.0,E,,*15
$HCHDG,93.8,0.0,E,,*1B
$HCHDG,94.0,0.0,E,,*14
$GPRMC,010032.2,A,4740.83992,N,12224.48232,W,002.76,103.2,180513,016.6,E,D*2A
$PGRME,2.4,M,2.4,M,3.4,M*29
$HCHDG,94.2,0.0,E,,*16
$IIRMC,010000,A,4740.840,N,12224.483,W,02.8,105,170513,16,E,A*14
$IIVHW,,,,,00.0,N,,*19
$HCHDG,94.3,0.0,E,,*17
$GPRMC,010032.4,A,4740.83985,N,12224.48212,W,002.76,103.5,180513,016.6,E,D*2F
$PGRME,2.4,M,2.4,M,3.4,M*29
$IIVLW,06243,N,007.4,N*53
$YXXDR,A,5.8,D,PTCH,A,0.5,D,ROLL*55
$IIVWR,050,R,11.5,N,,,,*61
$HCHDG,94.5,0.0,E,,*11
$IIDPT,006.7,-1.0,*41
$HCHDG,94.7,0.0,E,,*13
$GPRMC,010032.6,A,4740.83980,N,12224.48194,W,002.74,106.9,180513,016.6,E,D*2E
$PGRME,2.4,M,2.4,M,3.4,M*29
$IIGLL,4740.840,N,12224.483,W,010000,A,A*40
$IIMTW,+10.0,C*39
$HCHDG,94.9,0.0,E,,*1D
$IIMWV,050,R,11.5,N,A*13
$IIMWV,049,T,11.3,N,A*1B
$HCHDG,95.0,0.0,E,,*15
$GPRMC,010032.8,A,4740.83970,N,12224.48172,W,002.72,105.5,180513,016.6,E,D*2E
$PGRME,2.4,M,2.4,M,3.4,M*29
$HCHDG,95.2,0.0,E,,*17
$YXXDR,A,5.7,D,PTCH,A,0.8,D,ROLL*57
$GPRMC,010033.0,A,4740.83959,N,12224.48144,W,002.71,110.6,180513,016.6,E,D*2D
$GPRMB,A,0.00,L,N,N,4741.0622,N,12224.6030,W,0.2,340,-1.77,V*21
$PGRME,2.4,M,2.4,M,3.4,M*29
$HCHDG,95.5,0.0,E,,*10
$HCHDG,95.5,0.0,E,,*10
$HCHDG,95.6,0.0,E,,*13
$GPRMC,010033.2,A,4740.83955,N,12224.48126,W,002.70,107.7,180513,016.6,E,D*21
$PGRME,2.4,M,2.4,M,3.4,M*29
$IIRMB,A,0.00,L,,N   ,,,,,000.2,340,,V,A*2C
$HCHDG,95.6,0.0,E,,*13
$HCHDG,95.8,0.0,E,,*1D
$GPRMC,010033.4,A,4740.83948,N,12224.48108,W,002.68,111.5,180513,016.6,E,D*2B
$PGRME,2.4,M,2.4,M,3.4,M*29
$IIRMC,010000,A,4740.839,N,12224.482,W,02.7,103,170513,16,E,A*12
$YXXDR,A,5.5,D,PTCH,A,0.3,D,ROLL*5E
$PTAK,FFD1,0.3*56
$IIVHW,,,,,00.0,N,,*19
$HCHDG,96.0,0.0,E,,*16
$IIVLW,06243,N,007.4,N*53
$IIVWR,052,R,11.4,N,,,,*62
$HCHDG,96.0,0.0,E,,*16
$GPRMC,010033.6,A,4740.83942,N,12224.48088,W,002.66,112.8,180513,016.6,E,D*2A
$PGRME,2.4,M,2.4,M,3.4,M*29
$IIDPT,006.7,-1.0,*41
$HCHDG,96.1,0.0,E,,*17
$IIGLL,4740.839,N,12224.482,W,010000,A,A*4F
$IIMTW,+10.0,C*39
$HCHDG,96.1,0.0,E,,*17
$GPRMC,010033.8,A,4740.83936,N,12224.48072,W,002.66,114.3,180513,016.6,E,D*2F
$PGRME,2.4,M,2.4,M,3.4,M*29
$HCHDG,96.1,0.0,E,,*17
$YXXDR,A,5.5,D,PTCH,A,-0.4,D,ROLL*74
$GPRMC,010034.0,A,4740.83934,N,12224.48045,W,002.64,116.5,180513,016.6,E,D*20
$GPRMB,A,0.00,L,N,N,4741.0622,N,12224.6030,W,0.2,340,-1.92,V*2A
$PGRME,2.4,M,2.4,M,3.4,M*29
$HCHDG,96.1,0.0,E,,*17
$HCHDG,96.3,0.0,E,,*15
$HCHDG,96.2,0.0,E,,*14
$GPRMC,010034.2,A,4740.83923,N,12224.48019,W,002.63,119.8,180513,016.6,E,D*28
$PGRME,2.4,M,2.4,M,3.4,M*29
$IIMWV,052,R,11.4,N,A*10
$HCHDG,96.1,0.0,E,,*17
$IIMWV,052,T,11.4,N,A*16
$IIRMB,A,0.00,L,,N   ,,,,,000.2,340,,V,A*2C
$HCHDG,96.0,0.0,E,,*16
$GPRMC,010034.4,A,4740.83911,N,12224.48000,W,002.63,119.1,180513,016.6,E,D*2E
$PGRME,2.4,M,2.4,M,3.4,M*29
$YXXDR,A,5.5,D,PTCH,A,-0.2,D,ROLL*72
$HCHDG,95.8,0.0,E,,*1D
$IIRMC,010000,A,4740.839,N,12224.481,W,02.6,111,170513,16,E,A*13
$IIVHW,,,,,00.0,N,,*19
$HCHDG,95.7,0.0,E,,*12
$GPRMC,010034.6,A,4740.83903,N,12224.47984,W,002.62,120.0,180513,016.6,E,D*2F
$PGRME,2.4,M,2.4,M,3.4,M*29
$IIVLW,06243,N,007.4,N*53
$HCHDG,95.6,0.0,E,,*13
$IIVWR,052,R,11.4,N,,,,*62
$IIDPT,006.7,-1.0,*41
$HCHDG,95.2,0.0,E,,*17
$GPRMC,010034.8,A,4740.83891,N,12224.47966,W,002.61,123.7,180513,016.6,E,D*20
$PGRME,2.4,M,2.4,M,3.4,M*29
$HCHDG,95.0,0.0,E,,*15
$YXXDR,A,5.3,D,PTCH,A,-1.2,D,ROLL*75
$PTAK,FFD1,1.2*56
$GPRMC,010035.0,A,4740.83886,N,12224.47940,W,002.60,124.2,180513,016.6,E,D*28
$GPRMB,A,0.00,L,N,N,4741.0622,N,12224.6030,W,0.2,340,-2.12,V*21
$PGRME,2.4,M,2.4,M,3.4,M*29
$HCHDG,94.7,0.0,E,,*13
$HCHDG,94.5,0.0,E,,*11
$HCHDG,94.3,0.0,E,,*17
$GPRMC,010035.2,A,4740.83881,N,12224.47916,W,002.61,131.5,180513,016.6,E,D*2C
$PGRME,2.4,M,2.4,M,3.4,M*29
$IIGLL,4740.839,N,12224.479,W,010000,A,A*4B
$HCHDG,93.9,0.0,E,,*1A
$IIMTW,+10.0,C*39
$IIMWV,055,R,11.6,N,A*15
$HCHDG,93.2,0.0,E,,*11
$GPRMC,010035.4,A,4740.83876,N,12224.47897,W,002.61,125.8,180513,016.6,E,D*22
$PGRME,2.4,M,2.4,M,3.4,M*29
$IIMWV,052,T,11.4,N,A*16
$YXXDR,A,5.4,D,PTCH,A,-0.7,D,ROLL*76
$HCHDG,92.9,0.0,E,,*1B
$IIRMB,A,0.00,L,,N   ,,,,,000.2,340,,V,A*2C
$HCHDG,92.5,0.0,E,,*17
$GPRMC,010035.6,A,4740.83868,N,12224.47885,W,002.63,123.5,180513,016.6,E,D*25
$PGRME,2.4,M,2.4,M,3.4,M*29
$IIRMC,010000,A,4740.839,N,12224.479,W,02.6,120,170513,16,E,A*16
$HCHDG,92.1,0.0,E,,*13
$IIVHW,,,,,00.0,N,,*19
$IIVLW,06243,N,007.4,N*53
$HCHDG,91.6,0.0,E,,*17
$GPRMC,010035.8,A,4740.83858,N,12224.47873,W,002.64,123.6,180513,016.6,E,D*25
$PTAK,FFP1,HEEL,@*07
$PGRME,2.4,M,2.4,M,3.4,M*29
$HCHDG,90.9,0.0,E,,*19
$YXXDR,A,5.9,D,PTCH,A,0.0,D,ROLL*51
$GPRMC,010036.0,A,4740.83847,N,12224.47865,W,002.65,124.5,180513,016.6,E,D*22
$PGRME,2.4,M,2.4,M,3.4,M*29
$HCHDG,90.4,0.0,E,,*14
$HCHDG,90.1,0.0,E,,*11
$HCHDG,89.6,0.0,E,,*1E
$GPRMC,010036.2,A,4740.83836,N,12224.47851,W,002.66,117.4,180513,016.6,E,D*23
$GPRMB,A,0.00,L,N,N,4741.0622,N,12224.6030,W,0.2,339,-1.97,V*21
$PGRME,2.4,M,2.4,M,3.4,M*29
$IIVWR,058,R,12.5,N,,,,*6A
$HCHDG,88.8,0.0,E,,*11
$IIDPT,006.7,-1.0,*41
$IIGLL,4740.838,N,12224.478,W,010000,A,A*4B
$HCHDG,88.4,0.0,E,,*1D
$GPRMC,010036.4,A,4740.83832,N,12224.47823,W,002.66,116.8,180513,016.6,E,D*29
$PGRME,2.4,M,2.4,M,3.4,M*29
$IIMTW,+10.0,C*39
$YXXDR,A,6.0,D,PTCH,A,-0.1,D,ROLL*77
$PTAK,FFD1,0.1*54
$IIMWV,058,R,12.5,N,A*18
$HCHDG,87.9,0.0,E,,*1F
$IIMWV,055,T,11.6,N,A*13
$HCHDG,87.2,0.0,E,,*14
$GPRMC,010036.6,A,4740.83827,N,12224.47802,W,002.68,116.2,180513,016.6,E,D*28
$PGRME,2.4,M,2.4,M,3.4,M*29
$IIRMB,A,0.00,L,,N   ,,,,,000.2,340,,V,A*2C
$HCHDG,86.8,0.0,E,,*1F
$IIRMC,010000,A,4740.838,N,12224.478,W,02.6,123,170513,16,E,A*15
$HCHDG,86.3,0.0,E,,*14
$GPRMC,010036.8,A,4740.83824,N,12224.47782,W,002.67,113.6,180513,016.6,E,D*2C
$PGRME,2.4,M,2.4,M,3.4,M*29
$HCHDG,85.9,0.0,E,,*1D
$YXXDR,A,6.1,D,PTCH,A,0.0,D,ROLL*5A
$GPRMC,010037.0,A,4740.83818,N,12224.47767,W,002.69,108.5,180513,016.6,E,D*26
$PGRME,2.4,M,2.4,M,3.4,M*29
$HCHDG,85.5,0.0,E,,*11
$HCHDG,85.2,0.0,E,,*16
$HCHDG,84.5,0.0,E,,*10
$GPRMC,010037.2,A,4740.83810,N,12224.47754,W,002.68,102.6,180513,016.6,E,D*24
$GPRMB,A,0.00,L,N,N,4741.0622,N,12224.6030,W,0.2,339,-1.47,V*2C
$PGRME,2.4,M,2.4,M,3.4,M*29
$IIVHW,,,,,00.0,N,,*19
$HCHDG,84.2,0.0,E,,*17
$IIVLW,06243,N,007.4,N*53
$IIVWR,061,R,12.1,N,,,,*64
$HCHDG,84.0,0.0,E,,*15
$IIDPT,006.7,-1.0,*41
$GPRMC,010037.4,A,4740.83807,N,12224.47723,W,002.69,097.8,180513,016.6,E,D*26
$PGRME,2.4,M,2.4,M,3.4,M*29
$YXXDR,A,6.1,D,PTCH,A,0.0,D,ROLL*5A
$IIGLL,4740.838,N,12224.478,W,010000,A,A*4B
$HCHDG,83.9,0.0,E,,*1B
$IIMTW,+10.0,C*39
$IIMWV,061,R,12.1,N,A*16
$HCHDG,83.6,0.0,E,,*14
$GPRMC,010037.6,A,4740.83804,N,12224.47703,W,002.70,095.2,180513,016.6,E,D*25
$PGRME,2.4,M,2.4,M,3.4,M*29
$IIMWV,058,T,12.5,N,A*1E
$HCHDG,83.4,0.0,E,,*16
$IIRMB,A,0.00,L,,N   ,,,,,000.2,339,,V,A*22
$HCHDG,83.6,0.0,E,,*14
$GPRMC,010037.8,A,4740.83803,N,12224.47674,W,002.70,093.7,180513,016.6,E,D*2E
$PGRME,2.4,M,2.4,M,3.4,M*29
$HCHDG,83.5,0.0,E,,*17
$YXXDR,A,5.8,D,PTCH,A,-0.8,D,ROLL*75
$PTAK,FFD1,0.8*5D
$GPRMC,010038.0,A,4740.83803,N,12224.47651,W,002.71,087.7,180513,016.6,E,D*2A
$PGRME,2.4,M,2.4,M,3.4,M*29
$HCHDG,83.5,0.0,E,,*17
$HCHDG,83.6,0.0,E,,*14
$HCHDG,83.6,0.0,E,,*14
$GPRMC,010038.2,A,4740.83799,N,12224.47630,W,002.87,088.2,180513,016.6,E,D*20
$GPRMB,A,0.00,L,N,N,4741.0622,N,12224.6030,W,0.2,339,-0.94,V*23
$PGRME,2.4,M,2.4,M,3.4,M*29
$HCHDG,83.7,0.0,E,,*15
$IIRMC,010000,A,4740.838,N,12224.477,W,02.7,095,170513,16,E,A*17
$IIVHW,,,,,00.0,N,,*19
$HCHDG,83.8,0.0,E,,*1A
$GPRMC,010038.4,A,4740.83798,N,12224.47608,W,002.84,086.0,180513,016.6,E,D*23
$PGRME,2.4,M,2.4,M,3.4,M*29
$IIVLW,06243,N,007.4,N*53
$YXXDR,A,5.9,D,PTCH,A,-1.4,D,ROLL*79
$IIVWR,066,R,11.8,N,,,,*69
$HCHDG,83.9,0.0,E,,*1B
$IIDPT,006.6,-1.0,*40
$HCHDG,84.0,0.0,E,,*15
$GPRMC,010038.6,A,4740.83798,N,12224.47591,W,002.80,086.8,180513,016.6,E,D*2E
$PGRME,2.4,M,2.4,M,3.4,M*29
$IIGLL,4740.838,N,12224.477,W,010000,A,A*44
$IIMTW,+10.0,C*39
$HCHDG,84.3,0.0,E,,*16
$IIMWV,066,R,11.8,N,A*1B
$IIMWV,061,T,12.1,N,A*10
$HCHDG,84.5,0.0,E,,*10
$GPRMC,010038.8,A,4740.83800,N,12224.47575,W,002.81,088.3,180513,016.6,E,D*20
$PGRME,2.4,M,2.4,M,3.4,M*29
$HCHDG,84.6,0.0,E,,*13
$YXXDR,A,5.7,D,PTCH,A,-2.1,D,ROLL*71
$PTAK,FFD1,2.1*56
$GPRMC,010039.0,A,4740.83801,N,12224.47556,W,002.82,089.2,180513,016.6,E,D*2A
$PGRME,2.4,M,2.4,M,3.4,M*29
$HCHDG,85.0,0.0,E,,*14
$HCHDG,85.2,0.0,E,,*16
$HCHDG,85.4,0.0,E,,*10
$GPRMC,010039.2,A,4740.83807,N,12224.47537,W,002.75,090.6,180513,016.6,E,D*2D
$PGRME,2.4,M,2.4,M,3.4,M*29
$IIRMB,A,0.00,L,,N   ,,,,,000.2,339,,V,A*22
$HCHDG,85.7,0.0,E,,*13
$HCHDG,85.9,0.0,E,,*1D
$GPRMC,010039.4,A,4740.83812,N,12224.47513,W,002.78,090.6,180513,016.6,E,D*24
$GPRMB,A,0.00,L,N,N,4741.0622,N,12224.6030,W,0.2,339,-1.02,V*2D
$PGRME,2.4,M,2.4,M,3.4,M*29
$IIRMC,010000,A,4740.837,N,12224.475,W,02.8,086,170513,16,E,A*17
$IIVHW,,,,,00.0,N,,*19
$YXXDR,A,5.8,D,PTCH,A,-2.1,D,ROLL*7E
$HCHDG,86.2,0.0,E,,*15
$IIVLW,06243,N,007.4,N*53
$IIVWR,064,R,11.9,N,,,,*6A
$HCHDG,86.5,0.0,E,,*12
$GPRMC,010039.6,A,4740.83814,N,12224.47487,W,002.76,097.2,180513,016.6,E,D*21
$PGRME,2.4,M,2.4,M,3.4,M*29
$IIDPT,006.6,-1.0,*40
$HCHDG,87.0,0.0,E,,*16
$IIGLL,4740.837,N,12224.475,W,010000,A,A*49
$IIMTW,+10.0,C*39
$HCHDG,87.2,0.0,E,,*14
$GPRMC,010039.8,A,4740.83820,N,12224.47456,W,002.98,105.9,180513,016.6,E,D*25
$PGRME,2.4,M,2.4,M,3.4,M*29
$HCHDG,87.5,0.0,E,,*13
$PTAK,FFP1,HEEL,@*07
$YXXDR,A,5.7,D,PTCH,A,-2.0,D,ROLL*70
$PTAK,FFD1,2.0*57
$GPRMC,010040.0,A,4740.83816,N,12224.47432,W,003.40,112.7,180513,016.6,E,D*28
$PGRME,2.4,M,2.4,M,3.4,M*29
$HCHDG,87.6,0.0,E,,*10
$HCHDG,87.8,0.0,E,,*1E
$HCHDG,88.0,0.0,E,,*19
$GPRMC,010040.2,A,4740.83810,N,12224.47409,W,002.83,108.8,180513,016.6,E,D*2E
$PGRME,2.4,M,2.4,M,3.4,M*29
$IIMWV,064,R,11.7,N,A*16
$HCHDG,88.2,0.0,E,,*1B
$IIMWV,064,T,11.9,N,A*1E
$IIRMB,A,0.00,L,,N   ,,,,,000.2,339,,V,A*22
$HCHDG,88.4,0.0,E,,*1D
$GPRMC,010040.4,A,4740.83805,N,12224.47386,W,002.84,108.6,180513,016.6,E,D*25
$GPRMB,A,0.00,L,N,N,4741.0622,N,12224.6030,W,0.2,339,-1.82,V*25
$PGRME,2.4,M,2.4,M,3.4,M*29
$YXXDR,A,5.8,D,PTCH,A,-0.6,D,ROLL*7B
$HCHDG,88.6,0.0,E,,*1F
$IIRMC,010000,A,4740.838,N,12224.474,W,02.7,097,170513,16,E,A*16
$IIVHW,,,,,00.0,N,,*19
$HCHDG,88.6,0.0,E,,*1F
$GPRMC,010040.6,A,4740.83802,N,12224.47366,W,002.62,106.3,180513,016.6,E,D*2D
$PGRME,2.4,M,2.4,M,3.4,M*29
$IIVLW,06243,N,007.4,N*53
$IIVWR,064,R,11.7,N,,,,*64
$HCHDG,88.6,0.0,E,,*1F
$IIDPT,006.6,-1.0,*40
$HCHDG,88.6,0.0,E,,*1F
$GPRMC,010040.8,A,4740.83796,N,12224.47345,W,002.67,107.9,180513,016.6,E,D*2E
$PGRME,2.4,M,2.4,M,3.4,M*29
$HCHDG,88.6,0.0,E,,*1F
$YXXDR,A,5.7,D,PTCH,A,-1.4,D,ROLL*77
$GPRMC,010041.0,A,4740.83791,N,12224.47324,W,002.68,109.9,180513,016.6,E,D*26
$PGRME,2.4,M,2.4,M,3.4,M*29
$HCHDG,88.6,0.0,E,,*1F
$HCHDG,88.5,0.0,E,,*1C
$HCHDG,88.4,0.0,E,,*1D
$GPRMC,010041.2,A,4740.83786,N,12224.47303,W,002.64,112.2,180513,016.6,E,D*2A
$PGRME,2.4,M,2.4,M,3.4,M*29
$IIGLL,4740.838,N,12224.473,W,010000,A,A*40
$HCHDG,88.3,0.0,E,,*1A
$IIMTW,+10.0,C*39
$IIMWV,064,R,11.3,N,A*12
$HCHDG,88.1,0.0,E,,*18
$GPRMC,010041.4,A,4740.83779,N,12224.47279,W,002.67,111.7,180513,016.6,E,D*25
$PGRME,2.4,M,2.4,M,3.4,M*29
$IIMWV,064,T,11.7,N,A*10
$YXXDR,A,5.7,D,PTCH,A,-0.6,D,ROLL*74
$PTAK,FFD1,0.6*53
$HCHDG,87.9,0.0,E,,*1F
$IIRMB,A,0.00,L,,N   ,,,,,000.2,339,,V,A*22
$HCHDG,87.7,0.0,E,,*11
$GPRMC,010041.6,A,4740.83773,N,12224.47260,W,002.48,108.7,180513,016.6,E,D*20
$GPRMB,A,0.00,L,N,N,4741.0622,N,12224.6030,W,0.2,339,-1.60,V*29
$PGRME,2.4,M,2.4,M,3.4,M*29
$IIRMC,010000,A,4740.838,N,12224.473,W,02.6,106,170513,16,E,A*19
$HCHDG,87.4,0.0,E,,*12
$IIVHW,,,,,00.0,N,,*19
$IIVLW,06243,N,007.4,N*53
$HCHDG,87.3,0.0,E,,*15
$GPRMC,010041.8,A,4740.83769,N,12224.47240,W,002.54,109.0,180513,016.6,E,D*2C
$PGRME,2.4,M,2.4,M,3.4,M*29
$HCHDG,87.0,0.0,E,,*16
$YXXDR,A,5.8,D,PTCH,A,-0.4,D,ROLL*79
$GPRMC,010042.0,A,4740.83764,N,12224.47218,W,002.81,110.8,180513,016.6,E,D*2F
$PGRME,2.4,M,2.4,M,3.4,M*29
$HCHDG,86.7,0.0,E,,*10
$HCHDG,86.1,0.0,E,,*16
$HCHDG,85.8,0.0,E,,*1C
$GPRMC,010042.2,A,4740.83758,N,12224.47196,W,002.84,111.3,180513,016.6,E,D*28
$PGRME,2.4,M,2.4,M,3.4,M*29
$IIVWR,064,R,11.2,N,,,,*61
$HCHDG,85.5,0.0,E,,*11
$IIDPT,006.6,-1.0,*40
$IIGLL,4740.838,N,12224.473,W,010000,A,A*40
$HCHDG,85.3,0.0,E,,*17
$GPRMC,010042.4,A,4740.83753,N,12224.47175,W,002.83,108.5,180513,016.6,E,D*21
$PGRME,2.4,M,2.4,M,3.4,M*29
$IIMTW,+10.0,C*39
$YXXDR,A,6.0,D,PTCH,A,-0.4,D,ROLL*72
$IIMWV,064,R,11.2,N,A*13
$HCHDG,85.0,0.0,E,,*14
$IIMWV,064,T,11.3,N,A*14
$HCHDG,84.8,0.0,E,,*1D
$GPRMC,010042.6,A,4740.83748,N,12224.47153,W,002.85,104.9,180513,016.6,E,D*2B
$PGRME,2.4,M,2.4,M,3.4,M*29
$IIRMB,A,0.00,L,,N   ,,,,,000.2,339,,V,A*22
$HCHDG,84.5,0.0,E,,*10
$IIRMC,010000,A,4740.838,N,12224.473,W,02.6,106,170513,16,E,A*19
$HCHDG,84.3,0.0,E,,*16
$GPRMC,010042.8,A,4740.83744,N,12224.47131,W,002.78,101.4,180513,016.6,E,D*27
$GPRMB,A,0.00,L,N,N,4741.0622,N,12224.6030,W,0.2,338,-1.51,V*2A
$PGRME,2.4,M,2.4,M,3.4,M*29
$HCHDG,83.9,0.0,E,,*1B
$YXXDR,A,6.2,D,PTCH,A,0.0,D,ROLL*59
$PTAK,FFD1,0.0*55
$GPRMC,010043.0,A,4740.83742,N,12224.47111,W,003.00,097.6,180513,016.6,E,D*28
$PGRME,2.4,M,2.4,M,3.4,M*29
$HCHDG,83.7,0.0,E,,*15
$HCHDG,83.4,0.0,E,,*16
$HCHDG,83.3,0.0,E,,*11
$GPRMC,010043.2,A,4740.83744,N,12224.47082,W,003.01,093.1,180513,016.6,E,D*25
$PGRME,2.4,M,2.4,M,3.4,M*29
$IIVHW,,,,,00.0,N,,*19
$HCHDG,83.2,0.0,E,,*10
$IIVLW,06243,N,007.4,N*53
$IIVWR,064,R,10.7,N,,,,*65
$HCHDG,83.1,0.0,E,,*13
$IIDPT,006.6,-1.0,*40
$GPRMC,010043.4,A,4740.83743,N,12224.47066,W,002.98,095.5,180513,016.6,E,D*2D
$PGRME,2.4,M,2.4,M,3.4,M*29
$YXXDR,A,6.0,D,PTCH,A,-0.6,D,ROLL*70
$IIGLL,4740.837,N,12224.471,W,010000,A,A*4D
$HCHDG,83.0,0.0,E,,*12
$IIMTW,+10.0,C*39
$IIMWV,064,R,10.7,N,A*17
$HCHDG,82.8,0.0,E,,*1B
$GPRMC,010043.6,A,4740.83740,N,12224.47048,W,002.93,097.1,180513,016.6,E,D*2D
$PGRME,2.4,M,2.4,M,3.4,M*29
$IIMWV,064,T,11.2,N,A*15
$HCHDG,82.9,0.0,E,,*1A
$IIRMB,A,0.00,L,,N   ,,,,,000.2,338,,V,A*23
$HCHDG,82.8,0.0,E,,*1B
$GPRMC,010043.8,A,4740.83737,N,12224.47033,W,002.94,097.1,180513,016.6,E,D*28
$PGRME,2.4,M,2.4,M,3.4,M*29
$HCHDG,82.7,0.0,E,,*14
$PTAK,FFP1,HEEL,@*07
$YXXDR,A,6.0,D,PTCH,A,-0.8,D,ROLL*7E
$GPRMC,010044.0,A,4740.83731,N,12224.47032,W,002.99,096.0,180513,016.6,E,D*2D
$GPRMB,A,0.00,L,N,N,4741.0622,N,12224.6030,W,0.2,338,-1.39,V*24
$PGRME,2.4,M,2.4,M,3.4,M*29
$HCHDG,82.7,0.0,E,,*14
$PGRMT,GPS 18x-5Hz software ver. 3.20,,,,,,,,*30
$HCHDG,82.7,0.0,E,,*14
$HCHDG,82.6,0.0,E,,*15
$GPRMC,010044.2,A,4740.83729,N,12224.47007,W,002.99,097.0,180513,016.6,E,D*21
$PGRME,2.4,M,2.4,M,3.4,M*29
$HCHDG,82.7,0.0,E,,*14
$IIRMC,010000,A,4740.837,N,12224.470,W,02.9,097,170513,16,E,A*13
$IIVHW,,,,,00.0,N,,*19
$HCHDG,82.6,0.0,E,,*15
$GPRMC,010044.4,A,4740.83728,N,12224.46981,W,003.20,092.8,180513,016.6,E,D*2E
$PGRME,2.4,M,2.4,M,3.4,M*29
$IIVLW,06243,N,007.4,N*53
$YXXDR,A,6.2,D,PTCH,A,-0.7,D,ROLL*73
$PTAK,FFD1,0.7*52
$IIVWR,065,R,10.8,N,,,,*6B
$HCHDG,82.6,0.0,E,,*15
$IIDPT,006.6,-1.0,*40
$HCHDG,82.6,0.0,E,,*15
$GPRMC,010044.6,A,4740.83742,N,12224.46936,W,003.40,091.1,180513,016.6,E,D*20
$PGRME,2.4,M,2.4,M,3.4,M*29
$IIGLL,4740.837,N,12224.470,W,010000,A,A*4C
$IIMTW,+10.0,C*39
$HCHDG,82.6,0.0,E,,*15
$IIMWV,065,R,10.8,N,A*19
$IIMWV,064,T,10.7,N,A*11
$HCHDG,82.6,0.0,E,,*15
$GPRMC,010044.8,A,4740.83740,N,12224.46910,W,003.18,097.0,180513,016.6,E,D*22
$PGRME,2.4,M,2.4,M,3.4,M*29
$HCHDG,82.7,0.0,E,,*14
$YXXDR,A,6.0,D,PTCH,A,-0.6,D,ROLL*70
$GPRMC,010045.0,A,4740.83737,N,12224.46882,W,003.45,099.7,180513,016.6,E,D*20
$PGRME,2.4,M,2.4,M,3.4,M*29
$HCHDG,82.7,0.0,E,,*14
$HCHDG,82.8,0.0,E,,*1B
$HCHDG,82.9,0.0,E,,*1A
$GPRMC,010045.2,A,4740.83736,N,12224.46856,W,003.12,094.5,180513,016.6,E,D*27
$GPRMB,A,0.00,L,N,N,4741.0622,N,12224.6030,W,0.2,338,-1.39,V*24
$PGRME,2.4,M,2.4,M,3.5,M*28
$IIRMB,A,0.00,L,,N   ,,,,,000.2,338,,V,A*23
$HCHDG,82.7,0.0,E,,*14
$HCHDG,82.7,0.0,E,,*14
$GPRMC,010045.4,A,4740.83734,N,12224.46829,W,003.17,093.1,180513,016.6,E,D*2D
$PGRME,2.4,M,2.4,M,3.5,M*28
$IIRMC,010000,A,4740.837,N,12224.469,W,03.4,091,170513,16,E,A*11
$IIVHW,,,,,00.0,N,,*19
$YXXDR,A,6.0,D,PTCH,A,-0.6,D,ROLL*70
$PTAK,FFD1,0.6*53
$HCHDG,82.8,0.0,E,,*1B
$IIVLW,06243,N,007.4,N*53
$IIVWR,063,R,11.3,N,,,,*67
$HCHDG,82.9,0.0,E,,*1A
$GPRMC,010045.6,A,4740.83733,N,12224.46799,W,003.18,093.3,180513,016.6,E,D*21
$PGRME,2.4,M,2.4,M,3.5,M*28
$IIDPT,006.6,-1.0,*40
$HCHDG,83.0,0.0,E,,*12
$IIGLL,4740.837,N,12224.469,W,010000,A,A*44
$IIMTW,+10.0,C*39
$HCHDG,83.3,0.0,E,,*11
$GPRMC,010045.8,A,4740.83727,N,12224.46747,W,003.40,095.7,180513,016.6,E,D*26
$PGRME,2.4,M,2.4,M,3.5,M*28
$HCHDG,83.4,0.0,E,,*16
$YXXDR,A,6.0,D,PTCH,A,-1.1,D,ROLL*76
$GPRMC,010046.0,A,4740.83722,N,12224.46714,W,003.34,094.8,180513,016.6,E,D*23
$PGRME,2.4,M,2.4,M,3.5,M*28
$HCHDG,83.6,0.0,E,,*14
$HCHDG,83.6,0.0,E,,*14
$HCHDG,83.9,0.0,E,,*1B
$GPRMC,010046.2,A,4740.83721,N,12224.46687,W,003.14,091.3,180513,016.6,E,D*25
$PGRME,2.4,M,2.4,M,3.5,M*28
$IIMWV,062,R,12.0,N,A*14
$HCHDG,84.1,0.0,E,,*14
$IIMWV,063,T,11.3,N,A*13
$IIRMB,A,0.00,L,,N   ,,,,,000.2,338,,V,A*23
$HCHDG,84.3,0.0,E,,*16
$GPRMC,010046.4,A,4740.83721,N,12224.46661,W,003.34,091.1,180513,016.6,E,D*2B
$GPRMB,A,0.00,L,N,N,4741.0622,N,12224.6030,W,0.2,338,-1.32,V*2F
$PGRME,2.4,M,2.4,M,3.5,M*28
$YXXDR,A,6.0,D,PTCH,A,-1.7,D,ROLL*70
$PTAK,FFD1,1.7*53
$HCHDG,84.5,0.0,E,,*10
$IIRMC,010000,A,4740.837,N,12224.467,W,03.1,093,170513,16,E,A*18
$IIVHW,,,,,00.0,N,,*19
$HCHDG,84.7,0.0,E,,*12
$GPRMC,010046.6,A,4740.83720,N,12224.46634,W,003.35,091.4,180513,016.6,E,D*2C
$PGRME,2.4,M,2.4,M,3.5,M*28
$IIVLW,06243,N,007.4,N*53
$IIVWR,062,R,12.0,N,,,,*66
$HCHDG,84.9,0.0,E,,*1C
$IIDPT,006.6,-1.0,*40
$HCHDG,85.6,0.0,E,,*12
$GPRMC,010046.8,A,4740.83716,N,12224.46606,W,003.35,092.0,180513,016.6,E,D*21
$PGRME,2.4,M,2.4,M,3.5,M*28
$HCHDG,85.8,0.0,E,,*1C
$YXXDR,A,5.9,D,PTCH,A,-2.7,D,ROLL*79
$GPRMC,010047.0,A,4740.83716,N,12224.46579,W,003.36,092.9,180513,016.6,E,D*29
$PGRME,2.4,M,2.4,M,3.5,M*28
$HCHDG,85.9,0.0,E,,*1D
$HCHDG,86.3,0.0,E,,*14
$HCHDG,86.4,0.0,E,,*13
$GPRMC,010047.2,A,4740.83714,N,12224.46550,W,003.35,094.0,180513,016.6,E,D*2E
$PGRME,2.4,M,2.4,M,3.5,M*28
$IIGLL,4740.837,N,12224.466,W,010000,A,A*4B
$HCHDG,86.7,0.0,E,,*10
$IIMTW,+10.0,C*39
$IIMWV,060,R,12.5,N,A*13
$HCHDG,86.9,0.0,E,,*1E
$GPRMC,010047.4,A,4740.83713,N,12224.46526,W,003.36,095.9,180513,016.6,E,D*25
$PGRME,2.5,M,2.4,M,3.5,M*29
$IIMWV,062,T,12.0,N,A*12
$YXXDR,A,5.9,D,PTCH,A,-3.1,D,ROLL*7E
$IIRMB,A,0.00,L,,N   ,,,,,000.2,338,,V,A*23
$HCHDG,87.1,0.0,E,,*17
$HCHDG,87.4,0.0,E,,*12
$GPRMC,010047.6,A,4740.83712,N,12224.46502,W,003.34,098.8,180513,016.6,E,D*2E
$GPRMB,A,0.00,L,N,N,4741.0622,N,12224.6030,W,0.2,338,-1.73,V*2A
$PGRME,2.5,M,2.4,M,3.5,M*29
$IIRMC,010000,A,4740.837,N,12224.466,W,03.3,091,170513,16,E,A*19
$HCHDG,87.7,0.0,E,,*11
$IIVHW,,,,,00.0,N,,*19
$IIVLW,06243,N,007.4,N*53
$HCHDG,87.8,0.0,E,,*1E
$GPRMC,010047.8,A,4740.83708,N,12224.46476,W,003.36,100.8,180513,016.6,E,D*2B
$PGRME,2.5,M,2.4,M,3.5,M*29
$HCHDG,87.9,0.0,E,,*1F
$PTAK,FFP1,HEEL,@*07
$YXXDR,A,5.9,D,PTCH,A,-3.8,D,ROLL*77
$PTAK,FFD1,3.8*5E
$GPRMC,010048.0,A,4740.83703,N,12224.46444,W,003.35,105.4,180513,016.6,E,D*2C
$PGRME,2.5,M,2.4,M,3.5,M*29
$HCHDG,88.0,0.0,E,,*19
$HCHDG,88.4,0.0,E,,*1D
$HCHDG,88.3,0.0,E,,*1A
$GPRMC,010048.2,A,4740.83700,N,12224.46407,W,003.34,106.9,180513,016.6,E,D*25
$PGRME,2.5,M,2.4,M,3.5,M*29
$IIVWR,058,R,13.0,N,,,,*6E
$HCHDG,88.4,0.0,E,,*1D
$IIDPT,006.6,-1.0,*40
$IIGLL,4740.837,N,12224.465,W,010000,A,A*48
$HCHDG,88.3,0.0,E,,*1A
$GPRMC,010048.4,A,4740.83688,N,12224.46378,W,003.36,110.3,180513,016.6,E,D*22
$PGRME,2.5,M,2.4,M,3.5,M*29
$IIMTW,+10.0,C*39
$YXXDR,A,5.8,D,PTCH,A,-3.9,D,ROLL*77
$IIMWV,058,R,13.0,N,A*1C
$HCHDG,88.4,0.0,E,,*1D
$IIMWV,060,T,12.5,N,A*15
$HCHDG,88.2,0.0,E,,*1B
$GPRMC,010048.6,A,4740.83675,N,12224.46347,W,003.37,111.4,180513,016.6,E,D*29
$PGRME,2.5,M,2.4,M,3.5,M*29
$IIRMB,A,0.00,L,,N   ,,,,,000.2,338,,V,A*23
$HCHDG,88.3,0.0,E,,*1A
$IIRMC,010000,A,4740.837,N,12224.465,W,03.3,098,170513,16,E,A*13
$HCHDG,88.2,0.0,E,,*1B
$GPRMC,010048.8,A,4740.83657,N,12224.46318,W,003.37,111.8,180513,016.6,E,D*21
$GPRMB,A,0.00,L,N,N,4741.0622,N,12224.6030,W,0.2,337,-2.36,V*27
$PGRME,2.4,M,2.4,M,3.5,M*28
$HCHDG,88.1,0.0,E,,*18
$YXXDR,A,5.8,D,PTCH,A,-2.9,D,ROLL*76
$PTAK,FFD1,2.9*5E
$GPRMC,010049.0,A,4740.83639,N,12224.46300,W,003.38,112.4,180513,016.6,E,D*29
$PGRME,2.4,M,2.4,M,3.4,M*29
$HCHDG,87.9,0.0,E,,*1F
$HCHDG,88.0,0.0,E,,*19
$HCHDG,88.0,0.0,E,,*19
$GPRMC,010049.2,A,4740.83624,N,12224.46261,W,003.39,111.6,180513,016.6,E,D*21
$PGRME,2.4,M,2.4,M,3.4,M*29
$IIVHW,,,,,00.0,N,,*19
$HCHDG,87.8,0.0,E,,*1E
$IIVLW,06243,N,007.4,N*53
$IIVWR,059,R,13.5,N,,,,*6A
$HCHDG,87.7,0.0,E,,*11
$IIDPT,006.6,-1.0,*40
$GPRMC,010049.4,A,4740.83619,N,12224.46228,W,003.39,112.0,180513,016.6,E,D*21
$PGRME,2.4,M,2.4,M,3.4,M*29
$YXXDR,A,5.6,D,PTCH,A,-1.5,D,ROLL*77
$IIGLL,4740.836,N,12224.463,W,010000,A,A*4F
$HCHDG,87.6,0.0,E,,*10
$IIMTW,+10.0,C*39
$IIMWV,059,R,13.5,N,A*18
$HCHDG,87.5,0.0,E,,*13
$GPRMC,010049.6,A,4740.83614,N,12224.46191,W,003.39,109.8,180513,016.6,E,D*2D
$PGRME,2.4,M,2.4,M,3.4,M*29
$IIMWV,058,T,13.0,N,A*1A
$HCHDG,87.3,0.0,E,,*15
$IIRMB,A,0.00,L,,N   ,,,,,000.2,337,,V,A*2C
$HCHDG,87.2,0.0,E,,*14
$GPRMC,010049.8,A,4740.83609,N,12224.46164,W,003.39,108.5,180513,016.6,E,D*29
$PGRME,2.4,M,2.4,M,3.4,M*29
$HCHDG,86.8,0.0,E,,*1F
$YXXDR,A,5.9,D,PTCH,A,-0.2,D,ROLL*7E
$GPRMC,010050.0,A,4740.83605,N,12224.46143,W,003.40,107.2,180513,016.6,E,D*26
$GPRMB,A,0.00,L,N,N,4741.0622,N,12224.6030,W,0.2,337,-2.19,V*2A
$PGRME,2.4,M,2.4,M,3.4,M*29
$HCHDG,86.6,0.0,E,,*11
$HCHDG,86.6,0.0,E,,*11
