$GPRMB,A,-0.00,L,Ptm,Ptm,4807.0330,N,12244.9520,W,0.1,90,0.01,V*1A
$PGRME,2.4,M,2.4,M,3.4,M*29
$HCHDG,62.7,0.0,E,,*1A
$HCHDG,62.7,0.0,E,,*1A
$GPRMC,000001.0,A,4807.01473,N,12245.04115,W,000.01,063.7,050513,016.8,E,D*26
$PGRME,2.4,M,2.4,M,3.4,M*29
$HCHDG,62.7,0.0,E,,*1A
$YXXDR,A,3.8,D,PTCH,A,-1.9,D,ROLL*73
$PTAK,FFD1,1.9*5D
$HCHDG,62.7,0.0,E,,*1A
$GPRMC,000001.2,A,4807.01473,N,12245.04115,W,000.00,063.7,050513,016.8,E,D*25
$PGRME,2.4,M,2.4,M,3.4,M*29
$HCHDG,62.7,0.0,E,,*1A
$HCHDG,62.7,0.0,E,,*1A
$GPRMC,000001.4,A,4807.01473,N,12245.04115,W,000.00,063.7,050513,016.8,E,D*23
$PGRME,2.4,M,2.4,M,3.4,M*29
$HCHDG,62.8,0.0,E,,*15
$HCHDG,62.8,0.0,E,,*15
$YXXDR,A,3.9,D,PTCH,A,-1.8,D,ROLL*73
$GPRMC,000001.6,A,4807.01473,N,12245.04115,W,000.01,063.7,050513,016.8,E,D*20
$PGRME,2.4,M,2.4,M,3.4,M*29
$HCHDG,62.8,0.0,E,,*15
$HCHDG,62.8,0.0,E,,*15
$GPRMC,000001.8,A,4807.01473,N,12245.04115,W,000.01,063.7,050513,016.8,E,D*2E
$GPRMB,A,-0.00,L,Ptm,Ptm,4807.0330,N,12244.9520,W,0.1,90,0.01,V*1A
$PGRME,2.4,M,2.4,M,3.4,M*29
$HCHDG,62.8,0.0,E,,*15
$HCHDG,62.8,0.0,E,,*15
$GPRMC,000002.0,A,4807.01473,N,12245.04115,W,000.01,063.7,050513,016.8,E,D*25
$PGRME,2.4,M,2.4,M,3.4,M*29
$HCHDG,62.8,0.0,E,,*15
$YXXDR,A,3.8,D,PTCH,A,-1.9,D,ROLL*73
$PTAK,FFD1,1.9*5D
$HCHDG,62.8,0.0,E,,*15
$GPRMC,000002.2,A,4807.01474,N,12245.04115,W,000.01,063.7,050513,016.8,E,D*20
$PGRME,2.4,M,2.4,M,3.4,M*29
$HCHDG,62.8,0.0,E,,*15
$HCHDG,62.8,0.0,E,,*15
$GPRMC,000002.4,A,4807.01474,N,12245.04115,W,000.01,063.7,050513,016.8,E,D*26
$PGRME,2.4,M,2.4,M,3.4,M*29
$HCHDG,62.9,0.0,E,,*14
$HCHDG,62.9,0.0,E,,*14
$YXXDR,A,4.0,D,PTCH,A,-1.9,D,ROLL*7C
$GPRMC,000002.6,A,4807.01474,N,12245.04115,W,000.00,063.7,050513,016.8,E,D*25
$PGRME,2.4,M,2.4,M,3.4,M*29
$HCHDG,62.8,0.0,E,,*15
$HCHDG,62.8,0.0,E,,*15
$GPRMC,000002.8,A,4807.01474,N,12245.04115,W,000.00,063.7,050513,016.8,E,D*2B
$GPRMB,A,-0.00,L,Ptm,Ptm,4807.0330,N,12244.9520,W,0.1,90,0.00,V*1B
$PGRME,2.4,M,2.4,M,3.4,M*29
$HCHDG,62.8,0.0,E,,*15
$HCHDG,62.9,0.0,E,,*14
$GPRMC,000003.0,A,4807.01474,N,12245.04115,W,000.01,063.7,050513,016.8,E,D*23
$PGRME,2.4,M,2.4,M,3.4,M*29
$HCHDG,62.9,0.0,E,,*14
$YXXDR,A,3.9,D,PTCH,A,-2.2,D,ROLL*7A
$HCHDG,62.9,0.0,E,,*14
$GPRMC,000003.2,A,4807.01474,N,12245.04115,W,000.00,063.7,050513,016.8,E,D*20
$PGRME,2.4,M,2.4,M,3.4,M*29
$HCHDG,63.0,0.0,E,,*1C
$HCHDG,63.0,0.0,E,,*1C
$GPRMC,000003.4,A,4807.01474,N,12245.04115,W,000.01,063.7,050513,016.8,E,D*27
$PGRME,2.4,M,2.4,M,3.4,M*29
$HCHDG,63.0,0.0,E,,*1C
$HCHDG,63.0,0.0,E,,*1C
$YXXDR,A,3.9,D,PTCH,A,-1.9,D,ROLL*72
$PTAK,FFD1,1.9*5D
$GPRMC,000003.6,A,4807.01474,N,12245.04115,W,000.01,063.7,050513,016.8,E,D*25
$PGRME,2.4,M,2.4,M,3.4,M*29
$HCHDG,63.0,0.0,E,,*1C
$HCHDG,63.0,0.0,E,,*1C
$GPRMC,000003.8,A,4807.01474,N,12245.04115,W,000.01,063.7,050513,016.8,E,D*2B
$PGRME,2.4,M,2.4,M,3.4,M*29
$HCHDG,62.8,0.0,E,,*15
$HCHDG,62.8,0.0,E,,*15
$GPRMC,000004.0,A,4807.01474,N,12245.04115,W,000.01,063.7,050513,016.8,E,D*24
$GPRMB,A,-0.00,L,Ptm,Ptm,4807.0330,N,12244.9520,W,0.1,90,0.01,V*1A
$PGRME,2.4,M,2.4,M,3.4,M*29
$HCHDG,62.8,0.0,E,,*15
$YXXDR,A,3.9,D,PTCH,A,-2.0,D,ROLL*78
$HCHDG,62.8,0.0,E,,*15
$GPRMC,000004.2,A,4807.01474,N,12245.04114,W,000.01,063.7,050513,016.8,E,D*27
$PGRME,2.4,M,2.4,M,3.4,M*29
$HCHDG,62.8,0.0,E,,*15
$HCHDG,62.7,0.0,E,,*1A
$GPRMC,000004.4,A,4807.01474,N,12245.04114,W,000.00,063.7,050513,016.8,E,D*20
$PGRME,2.4,M,2.4,M,3.4,M*29
$HCHDG,62.7,0.0,E,,*1A
$HCHDG,62.7,0.0,E,,*1A
$YXXDR,A,3.9,D,PTCH,A,-1.8,D,ROLL*73
$GPRMC,000004.6,A,4807.01474,N,12245.04115,W,000.01,063.7,050513,016.8,E,D*22
$PGRME,2.4,M,2.4,M,3.4,M*29
$HCHDG,62.9,0.0,E,,*14
$HCHDG,62.8,0.0,E,,*15
$PTAK,FFP1,HEEL,@*07
$GPRMC,000004.8,A,4807.01474,N,12245.04115,W,000.00,063.7,050513,016.8,E,D*2D
$PGRME,2.4,M,2.4,M,3.4,M*29
$HCHDG,62.8,0.0,E,,*15
$HCHDG,62.8,0.0,E,,*15
$GPRMC,000005.0,A,4807.01474,N,12245.04115,W,000.01,063.7,050513,016.8,E,D*25
$GPRMB,A,-0.00,L,Ptm,Ptm,4807.0330,N,12244.9520,W,0.1,90,0.01,V*1A
$PGRME,2.4,M,2.4,M,3.4,M*29
$HCHDG,63.0,0.0,E,,*1C
$YXXDR,A,3.9,D,PTCH,A,-1.6,D,ROLL*7D
$PTAK,FFD1,1.6*52
$HCHDG,63.0,0.0,E,,*1C
$GPRMC,000005.2,A,4807.01474,N,12245.04115,W,000.01,063.7,050513,016.8,E,D*27
$PGRME,2.4,M,2.4,M,3.4,M*29
$HCHDG,62.9,0.0,E,,*14
$HCHDG,62.9,0.0,E,,*14
$GPRMC,000005.4,A,4807.01474,N,12245.04115,W,000.01,063.7,050513,016.8,E,D*21
$PGRME,2.4,M,2.4,M,3.4,M*29
$HCHDG,63.0,0.0,E,,*1C
$HCHDG,62.9,0.0,E,,*14
$YXXDR,A,3.8,D,PTCH,A,-1.9,D,ROLL*73
$GPRMC,000005.6,A,4807.01474,N,12245.04115,W,000.00,063.7,050513,016.8,E,D*22
$PGRME,2.4,M,2.4,M,3.4,M*29
$HCHDG,62.9,0.0,E,,*14
$HCHDG,62.9,0.0,E,,*14
$GPRMC,000005.8,A,4807.01474,N,12245.04115,W,000.00,063.7,050513,016.8,E,D*2C
$PGRME,2.4,M,2.4,M,3.4,M*29
$HCHDG,62.8,0.0,E,,*15
$HCHDG,62.8,0.0,E,,*15
$GPRMC,000006.0,A,4807.01474,N,12245.04115,W,000.00,063.7,050513,016.8,E,D*27
$PGRME,2.4,M,2.4,M,3.4,M*29
$HCHDG,62.8,0.0,E,,*15
$YXXDR,A,4.0,D,PTCH,A,-1.8,D,ROLL*7D
$HCHDG,62.8,0.0,E,,*15
$GPRMC,000006.2,A,4807.01474,N,12245.04115,W,000.00,063.7,050513,016.8,E,D*25
$GPRMB,A,-0.00,L,Ptm,Ptm,4807.0330,N,12244.9520,W,0.1,90,0.00,V*1B
$PGRME,2.4,M,2.4,M,3.4,M*29
$HCHDG,62.8,0.0,E,,*15
$HCHDG,62.8,0.0,E,,*15
$GPRMC,000006.4,A,4807.01474,N,12245.04115,W,000.01,063.7,050513,016.8,E,D*22
$PGRME,2.4,M,2.4,M,3.4,M*29
$HCHDG,62.8,0.0,E,,*15
$HCHDG,62.7,0.0,E,,*1A
$YXXDR,A,3.9,D,PTCH,A,-2.0,D,ROLL*78
$PTAK,FFD1,2.0*57
$GPRMC,000006.6,A,4807.01473,N,12245.04116,W,000.00,063.7,050513,016.8,E,D*25
$PGRME,2.4,M,2.4,M,3.4,M*29
$HCHDG,62.7,0.0,E,,*1A
$HCHDG,62.7,0.0,E,,*1A
$GPRMC,000006.8,A,4807.01473,N,12245.04116,W,000.01,063.7,050513,016.8,E,D*2A
$PGRME,2.4,M,2.4,M,3.4,M*29
$HCHDG,62.7,0.0,E,,*1A
$HCHDG,62.7,0.0,E,,*1A
$GPRMC,000007.0,A,4807.01473,N,12245.04116,W,000.01,063.7,050513,016.8,E,D*23
$PGRME,2.4,M,2.4,M,3.4,M*29
$HCHDG,62.7,0.0,E,,*1A
$YXXDR,A,3.8,D,PTCH,A,-1.9,D,ROLL*73
$HCHDG,63.0,0.0,E,,*1C
$GPRMC,000007.2,A,4807.01473,N,12245.04116,W,000.00,063.7,050513,016.8,E,D*20
$GPRMB,A,-0.00,L,Ptm,Ptm,4807.0330,N,12244.9520,W,0.1,90,0.00,V*1B
$PGRME,2.4,M,2.4,M,3.4,M*29
$HCHDG,63.0,0.0,E,,*1C
$HCHDG,63.0,0.0,E,,*1C
$GPRMC,000007.4,A,4807.01473,N,12245.04116,W,000.01,063.7,050513,016.8,E,D*27
$PGRME,2.4,M,2.4,M,3.4,M*29
$HCHDG,63.0,0.0,E,,*1C
$HCHDG,62.9,0.0,E,,*14
$YXXDR,A,3.6,D,PTCH,A,-1.6,D,ROLL*72
$PTAK,FFD1,1.6*52
$GPRMC,000007.6,A,4807.01473,N,12245.04116,W,000.01,063.7,050513,016.8,E,D*25
$PGRME,2.4,M,2.4,M,3.4,M*29
$HCHDG,63.0,0.0,E,,*1C
$HCHDG,63.0,0.0,E,,*1C
$GPRMC,000007.8,A,4807.01472,N,12245.04116,W,000.00,063.7,050513,016.8,E,D*2B
$PGRME,2.4,M,2.4,M,3.4,M*29
$HCHDG,62.8,0.0,E,,*15
$HCHDG,62.8,0.0,E,,*15
$GPRMC,000008.0,A,4807.01472,N,12245.04116,W,000.00,063.7,050513,016.8,E,D*2C
$PGRME,2.4,M,2.4,M,3.4,M*29
$HCHDG,62.7,0.0,E,,*1A
$YXXDR,A,3.9,D,PTCH,A,-1.6,D,ROLL*7D
$HCHDG,62.7,0.0,E,,*1A
$GPRMC,000008.2,A,4807.01472,N,12245.04116,W,000.00,063.7,050513,016.8,E,D*2E
$PGRME,2.4,M,2.4,M,3.4,M*29
$HCHDG,62.7,0.0,E,,*1A
$HCHDG,62.9,0.0,E,,*14
$GPRMC,000008.4,A,4807.01472,N,12245.04116,W,000.01,063.7,050513,016.8,E,D*29
$GPRMB,A,-0.00,L,Ptm,Ptm,4807.0330,N,12244.9520,W,0.1,90,0.01,V*1A
$PGRME,2.4,M,2.4,M,3.4,M*29
$HCHDG,63.0,0.0,E,,*1C
$HCHDG,63.0,0.0,E,,*1C
$YXXDR,A,3.8,D,PTCH,A,-1.6,D,ROLL*7C
$PTAK,FFD1,1.6*52
$GPRMC,000008.6,A,4807.01472,N,12245.04116,W,000.00,063.7,050513,016.8,E,D*2A
$PGRME,2.4,M,2.4,M,3.4,M*29
$HCHDG,63.0,0.0,E,,*1C
$HCHDG,63.0,0.0,E,,*1C
$PTAK,FFP1,HEEL,@*07
$GPRMC,000008.8,A,4807.01472,N,12245.04116,W,000.00,063.7,050513,016.8,E,D*24
$PGRME,2.4,M,2.4,M,3.4,M*29
$HCHDG,63.0,0.0,E,,*1C
$HCHDG,63.0,0.0,E,,*1C
$GPRMC,000009.0,A,4807.01472,N,12245.04116,W,000.01,063.7,050513,016.8,E,D*2C
$PGRME,2.4,M,2.4,M,3.4,M*29
$HCHDG,62.7,0.0,E,,*1A
$YXXDR,A,3.9,D,PTCH,A,-2.0,D,ROLL*78
$HCHDG,62.7,0.0,E,,*1A
$GPRMC,000009.2,A,4807.01471,N,12245.04116,W,000.00,063.7,050513,016.8,E,D*2C
$PGRME,2.4,M,2.4,M,3.4,M*29
$HCHDG,62.8,0.0,E,,*15
$HCHDG,62.8,0.0,E,,*15
$GPRMC,000009.4,A,4807.01471,N,12245.04116,W,000.00,063.7,050513,016.8,E,D*2A
$PGRME,2.4,M,2.4,M,3.4,M*29
$HCHDG,62.8,0.0,E,,*15
$HCHDG,62.8,0.0,E,,*15
$YXXDR,A,3.8,D,PTCH,A,-2.0,D,ROLL*79
$GPRMC,000009.6,A,4807.01471,N,12245.04116,W,000.01,063.7,050513,016.8,E,D*29
$GPRMB,A,-0.00,L,Ptm,Ptm,4807.0330,N,12244.9520,W,0.1,90,0.01,V*1A
$PGRME,2.4,M,2.4,M,3.4,M*29
$HCHDG,62.8,0.0,E,,*15
$HCHDG,62.8,0.0,E,,*15
$GPRMC,000009.8,A,4807.01471,N,12245.04116,W,000.01,063.7,050513,016.8,E,D*27
$PGRME,2.4,M,2.4,M,3.4,M*29
$HCHDG,62.8,0.0,E,,*15
$HCHDG,62.8,0.0,E,,*15
$GPRMC,000010.0,A,4807.01471,N,12245.04116,W,000.00,063.7,050513,016.8,E,D*26
$PGRME,2.4,M,2.4,M,3.4,M*29
$HCHDG,62.9,0.0,E,,*14
$YXXDR,A,3.6,D,PTCH,A,-1.7,D,ROLL*73
$PTAK,FFD1,1.7*53
$HCHDG,62.9,0.0,E,,*14
$GPRMC,000010.2,A,4807.01471,N,12245.04116,W,000.00,063.7,050513,016.8,E,D*24
$PGRME,2.4,M,2.4,M,3.4,M*29
$HCHDG,62.8,0.0,E,,*15
$HCHDG,62.8,0.0,E,,*15
$GPRMC,000010.4,A,4807.01470,N,12245.04117,W,000.01,063.7,050513,016.8,E,D*23
$PGRME,2.4,M,2.4,M,3.4,M*29
$HCHDG,62.8,0.0,E,,*15
$HCHDG,62.8,0.0,E,,*15
$YXXDR,A,3.9,D,PTCH,A,-1.9,D,ROLL*72
$GPRMC,000010.6,A,4807.01470,N,12245.04117,W,000.00,063.7,050513,016.8,E,D*20
$GPRMB,A,-0.00,L,Ptm,Ptm,4807.0330,N,12244.9520,W,0.1,90,0.00,V*1B
$PGRME,2.4,M,2.4,M,3.4,M*29
$HCHDG,62.8,0.0,E,,*15
$HCHDG,62.7,0.0,E,,*1A
$GPRMC,000010.8,A,4807.01470,N,12245.04117,W,000.01,063.7,050513,016.8,E,D*2F
$PGRME,2.4,M,2.4,M,3.4,M*29
$HCHDG,62.7,0.0,E,,*1A
$HCHDG,62.5,0.0,E,,*18
$GPRMC,000011.0,A,4807.01470,N,12245.04117,W,000.00,063.7,050513,016.8,E,D*27
$PGRME,2.4,M,2.4,M,3.4,M*29
$HCHDG,62.5,0.0,E,,*18
$YXXDR,A,4.1,D,PTCH,A,-1.7,D,ROLL*73
$HCHDG,62.5,0.0,E,,*18
$GPRMC,000011.2,A,4807.01470,N,12245.04117,W,000.00,063.7,050513,016.8,E,D*25
$PGRME,2.4,M,2.4,M,3.4,M*29
$HCHDG,62.4,0.0,E,,*19
$HCHDG,62.5,0.0,E,,*18
$GPRMC,000011.4,A,4807.01470,N,12245.04117,W,000.00,063.7,050513,016.8,E,D*23
$PGRME,2.4,M,2.4,M,3.4,M*29
$HCHDG,62.5,0.0,E,,*18
$HCHDG,62.6,0.0,E,,*1B
$YXXDR,A,3.7,D,PTCH,A,-1.5,D,ROLL*70
$PTAK,FFD1,1.5*51
$GPRMC,000011.6,A,4807.01470,N,12245.04117,W,000.00,063.7,050513,016.8,E,D*21
$GPRMB,A,-0.00,L,Ptm,Ptm,4807.0330,N,12244.9520,W,0.1,90,0.00,V*1B
$PGRME,2.4,M,2.4,M,3.4,M*29
$HCHDG,62.6,0.0,E,,*1B
$HCHDG,62.9,0.0,E,,*14
$GPRMC,000011.8,A,4807.01470,N,12245.04117,W,000.00,063.7,050513,016.8,E,D*2F
$PGRME,2.4,M,2.4,M,3.4,M*29
$HCHDG,62.8,0.0,E,,*15
$HCHDG,62.8,0.0,E,,*15
$GPRMC,000012.0,A,4807.01469,N,12245.04117,W,000.00,063.7,050513,016.8,E,D*2C
$PGRME,2.4,M,2.4,M,3.4,M*29
$HCHDG,62.7,0.0,E,,*1A
$YXXDR,A,3.6,D,PTCH,A,-1.7,D,ROLL*73
$HCHDG,62.7,0.0,E,,*1A
$GPRMC,000012.2,A,4807.01469,N,12245.04117,W,000.00,063.7,050513,016.8,E,D*2E
$PGRME,2.4,M,2.4,M,3.4,M*29
$HCHDG,62.8,0.0,E,,*15
$HCHDG,62.9,0.0,E,,*14
$GPRMC,000012.4,A,4807.01469,N,12245.04117,W,000.00,063.7,050513,016.8,E,D*28
$PGRME,2.4,M,2.4,M,3.4,M*29
$HCHDG,63.0,0.0,E,,*1C
$HCHDG,63.0,0.0,E,,*1C
$GPRMC,000012.6,A,4807.01469,N,12245.04117,W,000.00,063.7,050513,016.8,E,D*2A
$YXXDR,A,3.8,D,PTCH,A,-1.6,D,ROLL*7C
$PTAK,FFD1,1.6*52
$PGRME,2.4,M,2.4,M,3.4,M*29
$HCHDG,63.0,0.0,E,,*1C
$HCHDG,62.9,0.0,E,,*14
$PTAK,FFP1,HEEL,@*07
$GPRMC,000012.8,A,4807.01469,N,12245.04117,W,000.00,063.7,050513,016.8,E,D*24
$GPRMB,A,-0.00,L,Ptm,Ptm,4807.0330,N,12244.9520,W,0.1,90,0.00,V*1B
$PGRME,2.4,M,2.4,M,3.4,M*29
$HCHDG,62.9,0.0,E,,*14
$HCHDG,62.9,0.0,E,,*14
$GPRMC,000013.0,A,4807.01469,N,12245.04117,W,000.00,063.7,050513,016.8,E,D*2D
$PGRME,2.4,M,2.4,M,3.4,M*29
$HCHDG,62.9,0.0,E,,*14
$YXXDR,A,3.9,D,PTCH,A,-1.8,D,ROLL*73
$HCHDG,62.9,0.0,E,,*14
$GPRMC,000013.2,A,4807.01470,N,12245.04117,W,000.01,063.7,050513,016.8,E,D*26
$PGRME,2.4,M,2.4,M,3.4,M*29
$HCHDG,62.9,0.0,E,,*14
$HCHDG,62.9,0.0,E,,*14
$GPRMC,000013.4,A,4807.01470,N,12245.04117,W,000.01,063.7,050513,016.8,E,D*20
$PGRME,2.4,M,2.4,M,3.4,M*29
$HCHDG,62.9,0.0,E,,*14
$HCHDG,62.9,0.0,E,,*14
$GPRMC,000013.6,A,4807.01470,N,12245.04117,W,000.01,063.7,050513,016.8,E,D*22
$YXXDR,A,3.8,D,PTCH,A,-1.9,D,ROLL*73
$PGRME,2.4,M,2.4,M,3.4,M*29
$HCHDG,62.9,0.0,E,,*14
$HCHDG,62.9,0.0,E,,*14
$GPRMC,000013.8,A,4807.01470,N,12245.04117,W,000.01,063.7,050513,016.8,E,D*2C
$PGRME,2.4,M,2.4,M,3.4,M*29
$HCHDG,62.9,0.0,E,,*14
$HCHDG,62.9,0.0,E,,*14
$GPRMC,000014.0,A,4807.01469,N,12245.04118,W,000.00,063.7,050513,016.8,E,D*25
$GPRMB,A,-0.00,L,Ptm,Ptm,4807.0330,N,12244.9520,W,0.1,90,0.00,V*1B
$PGRME,2.4,M,2.4,M,3.4,M*29
$HCHDG,62.9,0.0,E,,*14
$YXXDR,A,3.6,D,PTCH,A,-1.7,D,ROLL*73
$PTAK,FFD1,1.7*53
$HCHDG,62.9,0.0,E,,*14
$GPRMC,000014.2,A,4807.01469,N,12245.04118,W,000.01,063.7,050513,016.8,E,D*26
$PGRME,2.4,M,2.4,M,3.4,M*29
$HCHDG,62.9,0.0,E,,*14
$HCHDG,63.1,0.0,E,,*1D
$GPRMC,000014.4,A,4807.01469,N,12245.04118,W,000.00,063.7,050513,016.8,E,D*21
$PGRME,2.4,M,2.4,M,3.4,M*29
$HCHDG,63.1,0.0,E,,*1D
$HCHDG,63.1,0.0,E,,*1D
$GPRMC,000014.6,A,4807.01469,N,12245.04118,W,000.00,063.7,050513,016.8,E,D*23
$YXXDR,A,3.7,D,PTCH,A,-1.3,D,ROLL*76
$PGRME,2.4,M,2.4,M,3.4,M*29
$HCHDG,63.2,0.0,E,,*1E
$HCHDG,63.2,0.0,E,,*1E
$GPRMC,000014.8,A,4807.01469,N,12245.04118,W,000.00,063.7,050513,016.8,E,D*2D
$PGRME,2.4,M,2.4,M,3.4,M*29
$HCHDG,63.2,0.0,E,,*1E
$HCHDG,63.2,0.0,E,,*1E
$GPRMC,000015.0,A,4807.01469,N,12245.04118,W,000.00,063.7,050513,016.8,E,D*24
$GPRMB,A,-0.00,L,Ptm,Ptm,4807.0330,N,12244.9520,W,0.1,90,0.00,V*1B
$PGRME,2.4,M,2.4,M,3.4,M*29
$HCHDG,63.2,0.0,E,,*1E
$YXXDR,A,3.6,D,PTCH,A,-1.9,D,ROLL*7D
$HCHDG,63.1,0.0,E,,*1D
$GPRMC,000015.2,A,4807.01469,N,12245.04118,W,000.00,063.7,050513,016.8,E,D*26
$PGRME,2.4,M,2.4,M,3.4,M*29
$HCHDG,63.1,0.0,E,,*1D
$HCHDG,63.1,0.0,E,,*1D
$GPRMC,000015.4,A,4807.01469,N,12245.04118,W,000.00,063.7,050513,016.8,E,D*20
$PGRME,2.4,M,2.4,M,3.4,M*29
$HCHDG,63.1,0.0,E,,*1D
$HCHDG,63.1,0.0,E,,*1D
$GPRMC,000015.6,A,4807.01469,N,12245.04118,W,000.00,063.7,050513,016.8,E,D*22
$YXXDR,A,3.6,D,PTCH,A,-1.7,D,ROLL*73
$PTAK,FFD1,1.7*53
$PGRME,2.4,M,2.4,M,3.4,M*29
$HCHDG,63.2,0.0,E,,*1E
$HCHDG,63.2,0.0,E,,*1E
$GPRMC,000015.8,A,4807.01469,N,12245.04118,W,000.00,063.7,050513,016.8,E,D*2C
$PGRME,2.4,M,2.4,M,3.4,M*29
$HCHDG,63.2,0.0,E,,*1E
$HCHDG,63.1,0.0,E,,*1D
$GPRMC,000016.0,A,4807.01469,N,12245.04118,W,000.01,063.7,050513,016.8,E,D*26
$PGRME,2.4,M,2.4,M,3.4,M*29
$HCHDG,63.2,0.0,E,,*1E
$YXXDR,A,3.8,D,PTCH,A,-1.7,D,ROLL*7D
$HCHDG,63.2,0.0,E,,*1E
$GPRMC,000016.2,A,4807.01469,N,12245.04118,W,000.00,063.7,050513,016.8,E,D*25
$GPRMB,A,-0.00,L,Ptm,Ptm,4807.0330,N,12244.9520,W,0.1,90,0.00,V*1B
$PGRME,2.4,M,2.4,M,3.4,M*29
$HCHDG,63.2,0.0,E,,*1E
$HCHDG,63.2,0.0,E,,*1E
$GPRMC,000016.4,A,4807.01468,N,12245.04119,W,000.00,063.7,050513,016.8,E,D*23
$PGRME,2.4,M,2.4,M,3.4,M*29
$HCHDG,63.2,0.0,E,,*1E
$HCHDG,63.2,0.0,E,,*1E
$YXXDR,A,3.6,D,PTCH,A,-1.9,D,ROLL*7D
$GPRMC,000016.6,A,4807.01468,N,12245.04119,W,000.00,063.7,050513,016.8,E,D*21
$PGRME,2.4,M,2.4,M,3.4,M*29
$HCHDG,63.2,0.0,E,,*1E
$HCHDG,63.2,0.0,E,,*1E
$GPRMC,000016.8,A,4807.01468,N,12245.04119,W,000.00,063.7,050513,016.8,E,D*2F
$PTAK,FFP1,HEEL,@*07
$PGRME,2.4,M,2.4,M,3.4,M*29
$HCHDG,63.2,0.0,E,,*1E
$HCHDG,63.3,0.0,E,,*1F
$GPRMC,000017.0,A,4807.01468,N,12245.04119,W,000.01,063.7,050513,016.8,E,D*27
$PGRME,2.4,M,2.4,M,3.4,M*29
$HCHDG,63.3,0.0,E,,*1F
$YXXDR,A,3.6,D,PTCH,A,-1.6,D,ROLL*72
$PTAK,FFD1,1.6*52
$HCHDG,63.2,0.0,E,,*1E
$GPRMC,000017.2,A,4807.01468,N,12245.04119,W,000.00,063.7,050513,016.8,E,D*24
$GPRMB,A,-0.00,L,Ptm,Ptm,4807.0330,N,12244.9520,W,0.1,89,0.00,V*13
$PGRME,2.4,M,2.4,M,3.4,M*29
$HCHDG,63.2,0.0,E,,*1E
$HCHDG,63.3,0.0,E,,*1F
$GPRMC,000017.4,A,4807.01468,N,12245.04119,W,000.01,063.7,050513,016.8,E,D*23
$PGRME,2.4,M,2.4,M,3.4,M*29
$HCHDG,63.1,0.0,E,,*1D
$HCHDG,63.2,0.0,E,,*1E
$GPRMC,000017.6,A,4807.01468,N,12245.04119,W,000.01,063.7,050513,016.8,E,D*21
$YXXDR,A,3.7,D,PTCH,A,-1.3,D,ROLL*76
$PGRME,2.4,M,2.4,M,3.4,M*29
$HCHDG,63.3,0.0,E,,*1F
$HCHDG,63.2,0.0,E,,*1E
$GPRMC,000017.8,A,4807.01468,N,12245.04119,W,000.01,063.7,050513,016.8,E,D*2F
$PGRME,2.4,M,2.4,M,3.4,M*29
$HCHDG,63.3,0.0,E,,*1F
$HCHDG,63.3,0.0,E,,*1F
$GPRMC,000018.0,A,4807.01468,N,12245.04119,W,000.01,063.7,050513,016.8,E,D*28
$PGRME,2.4,M,2.4,M,3.4,M*29
$HCHDG,63.2,0.0,E,,*1E
$YXXDR,A,3.7,D,PTCH,A,-1.0,D,ROLL*75
$HCHDG,63.3,0.0,E,,*1F
$GPRMC,000018.2,A,4807.01469,N,12245.04119,W,000.00,063.7,050513,016.8,E,D*2A
$PGRME,2.4,M,2.4,M,3.4,M*29
$HCHDG,63.2,0.0,E,,*1E
$HCHDG,63.1,0.0,E,,*1D
$GPRMC,000018.4,A,4807.01469,N,12245.04119,W,000.01,063.7,050513,016.8,E,D*2D
$GPRMB,A,-0.00,L,Ptm,Ptm,4807.0330,N,12244.9520,W,0.1,90,0.01,V*1A
$PGRME,2.4,M,2.4,M,3.4,M*29
$HCHDG,63.1,0.0,E,,*1D
$HCHDG,63.2,0.0,E,,*1E
$YXXDR,A,3.8,D,PTCH,A,-1.0,D,ROLL*7A
$PTAK,FFD1,1.0*54
$GPRMC,000018.6,A,4807.01469,N,12245.04119,W,000.00,063.7,050513,016.8,E,D*2E
$PGRME,2.4,M,2.4,M,3.4,M*29
$HCHDG,63.1,0.0,E,,*1D
$HCHDG,63.0,0.0,E,,*1C
$GPRMC,000018.8,A,4807.01468,N,12245.04119,W,000.00,063.7,050513,016.8,E,D*21
$PGRME,2.4,M,2.4,M,3.4,M*29
$HCHDG,63.1,0.0,E,,*1D
$HCHDG,63.1,0.0,E,,*1D
$GPRMC,000019.0,A,4807.01468,N,12245.04119,W,000.00,063.7,050513,016.8,E,D*28
$PGRME,2.4,M,2.4,M,3.4,M*29
$HCHDG,63.1,0.0,E,,*1D
$YXXDR,A,3.6,D,PTCH,A,-0.4,D,ROLL*71
$HCHDG,63.1,0.0,E,,*1D
$GPRMC,000019.2,A,4807.01468,N,12245.04119,W,000.01,063.7,050513,016.8,E,D*2B
$PGRME,2.4,M,2.4,M,3.4,M*29
$HCHDG,63.1,0.0,E,,*1D
$HCHDG,63.1,0.0,E,,*1D
$GPRMC,000019.4,A,4807.01468,N,12245.04119,W,000.00,063.7,050513,016.8,E,D*2C
$GPRMB,A,-0.00,L,Ptm,Ptm,4807.0330,N,12244.9520,W,0.1,89,0.00,V*13
$PGRME,2.4,M,2.4,M,3.4,M*29
$HCHDG,63.1,0.0,E,,*1D
$HCHDG,63.1,0.0,E,,*1D
$YXXDR,A,3.6,D,PTCH,A,-0.5,D,ROLL*70
$PTAK,FFD1,0.5*50
$GPRMC,000019.6,A,4807.01468,N,12245.04119,W,000.01,063.7,050513,016.8,E,D*2F
$PGRME,2.4,M,2.4,M,3.4,M*29
$HCHDG,63.0,0.0,E,,*1C
$HCHDG,63.1,0.0,E,,*1D
$GPRMC,000019.8,A,4807.01468,N,12245.04119,W,000.00,063.7,050513,016.8,E,D*20
$PGRME,2.4,M,2.4,M,3.4,M*29
$HCHDG,63.1,0.0,E,,*1D
$HCHDG,63.1,0.0,E,,*1D
$GPRMC,000020.0,A,4807.01468,N,12245.04119,W,000.01,063.7,050513,016.8,E,D*23
$PGRME,2.4,M,2.4,M,3.4,M*29
$HCHDG,63.2,0.0,E,,*1E
$YXXDR,A,3.6,D,PTCH,A,-0.4,D,ROLL*71
$HCHDG,63.2,0.0,E,,*1E
$GPRMC,000020.2,A,4807.01468,N,12245.04119,W,000.01,063.7,050513,016.8,E,D*21
$PGRME,2.4,M,2.4,M,3.4,M*29
$HCHDG,63.2,0.0,E,,*1E
$HCHDG,63.2,0.0,E,,*1E
$GPRMC,000020.4,A,4807.01468,N,12245.04120,W,000.00,063.7,050513,016.8,E,D*2C
$PGRME,2.4,M,2.4,M,3.4,M*29
$HCHDG,63.1,0.0,E,,*1D
$HCHDG,63.0,0.0,E,,*1C
$YXXDR,A,3.7,D,PTCH,A,-1.0,D,ROLL*75
$GPRMC,000020.6,A,4807.01468,N,12245.04120,W,000.01,063.7,050513,016.8,E,D*2F
$GPRMB,A,-0.00,L,Ptm,Ptm,4807.0330,N,12244.9520,W,0.1,89,0.01,V*12
$PGRME,2.4,M,2.4,M,3.4,M*29
$HCHDG,63.0,0.0,E,,*1C
$PTAK,FFP1,HEEL,@*07
$HCHDG,63.0,0.0,E,,*1C
$GPRMC,000020.8,A,4807.01468,N,12245.04120,W,000.01,063.7,050513,016.8,E,D*21
$PGRME,2.4,M,2.4,M,3.4,M*29
$HCHDG,63.0,0.0,E,,*1C
$HCHDG,63.0,0.0,E,,*1C
$GPRMC,000021.0,A,4807.01468,N,12245.04120,W,000.00,063.7,050513,016.8,E,D*29
$PGRME,2.4,M,2.4,M,3.4,M*29
$HCHDG,62.9,0.0,E,,*14
$YXXDR,A,3.6,D,PTCH,A,-1.2,D,ROLL*76
$PTAK,FFD1,1.2*56
$HCHDG,62.9,0.0,E,,*14
$GPRMC,000021.2,A,4807.01468,N,12245.04120,W,000.01,063.7,050513,016.8,E,D*2A
$PGRME,2.4,M,2.4,M,3.4,M*29
$HCHDG,62.9,0.0,E,,*14
$HCHDG,62.9,0.0,E,,*14
$GPRMC,000021.4,A,4807.01468,N,12245.04120,W,000.01,063.7,050513,016.8,E,D*2C
$PGRME,2.4,M,2.4,M,3.4,M*29
$HCHDG,63.0,0.0,E,,*1C
$HCHDG,63.0,0.0,E,,*1C
$YXXDR,A,3.6,D,PTCH,A,-1.1,D,ROLL*75
$GPRMC,000021.6,A,4807.01468,N,12245.04120,W,000.01,063.7,050513,016.8,E,D*2E
$GPRMB,A,-0.00,L,Ptm,Ptm,4807.0330,N,12244.9520,W,0.1,89,0.01,V*12
$PGRME,2.4,M,2.4,M,3.4,M*29
$HCHDG,63.0,0.0,E,,*1C
$HCHDG,63.0,0.0,E,,*1C
$GPRMC,000021.8,A,4807.01468,N,12245.04120,W,000.01,063.7,050513,016.8,E,D*20
$PGRME,2.4,M,2.4,M,3.4,M*29
$HCHDG,62.9,0.0,E,,*14
$HCHDG,63.0,0.0,E,,*1C
$GPRMC,000022.0,A,4807.01468,N,12245.04120,W,000.01,063.7,050513,016.8,E,D*2B
$PGRME,2.4,M,2.4,M,3.4,M*29
$HCHDG,63.0,0.0,E,,*1C
$YXXDR,A,3.7,D,PTCH,A,-1.3,D,ROLL*76
$HCHDG,63.0,0.0,E,,*1C
$GPRMC,000022.2,A,4807.01468,N,12245.04120,W,000.01,063.7,050513,016.8,E,D*29
$PGRME,2.4,M,2.4,M,3.4,M*29
$HCHDG,63.0,0.0,E,,*1C
$HCHDG,63.0,0.0,E,,*1C
$GPRMC,000022.4,A,4807.01468,N,12245.04120,W,000.01,063.7,050513,016.8,E,D*2F
$PGRME,2.4,M,2.4,M,3.4,M*29
$HCHDG,62.8,0.0,E,,*15
$HCHDG,62.8,0.0,E,,*15
$YXXDR,A,3.9,D,PTCH,A,-1.3,D,ROLL*78
$PTAK,FFD1,1.3*57
$GPRMC,000022.6,A,4807.01468,N,12245.04120,W,000.01,063.7,050513,016.8,E,D*2D
$GPRMB,A,-0.00,L,Ptm,Ptm,4807.0330,N,12244.9520,W,0.1,89,0.01,V*12
$PGRME,2.4,M,2.4,M,3.4,M*29
$HCHDG,62.7,0.0,E,,*1A
$HCHDG,62.7,0.0,E,,*1A
$GPRMC,000022.8,A,4807.01468,N,12245.04120,W,000.01,063.7,050513,016.8,E,D*23
$PGRME,2.4,M,2.4,M,3.4,M*29
$HCHDG,62.7,0.0,E,,*1A
$HCHDG,62.7,0.0,E,,*1A
$GPRMC,000023.0,A,4807.01468,N,12245.04120,W,000.01,063.7,050513,016.8,E,D*2A
$PGRME,2.4,M,2.4,M,3.4,M*29
$HCHDG,62.9,0.0,E,,*14
$YXXDR,A,3.6,D,PTCH,A,-1.1,D,ROLL*75
$HCHDG,62.9,0.0,E,,*14
$GPRMC,000023.2,A,4807.01468,N,12245.04120,W,000.01,063.7,050513,016.8,E,D*28
$PGRME,2.4,M,2.4,M,3.4,M*29
$HCHDG,62.9,0.0,E,,*14
$HCHDG,62.9,0.0,E,,*14
$GPRMC,000023.4,A,4807.01468,N,12245.04120,W,000.01,063.7,050513,016.8,E,D*2E
$PGRME,2.4,M,2.4,M,3.4,M*29
$HCHDG,62.9,0.0,E,,*14
$HCHDG,63.0,0.0,E,,*1C
$YXXDR,A,3.7,D,PTCH,A,-1.3,D,ROLL*76
$PTAK,FFD1,1.3*57
$GPRMC,000023.6,A,4807.01468,N,12245.04120,W,000.00,063.7,050513,016.8,E,D*2D
$PGRME,2.4,M,2.4,M,3.4,M*29
$HCHDG,63.0,0.0,E,,*1C
$HCHDG,63.0,0.0,E,,*1C
$GPRMC,000023.8,A,4807.01468,N,12245.04120,W,000.00,063.7,050513,016.8,E,D*23
$GPRMB,A,-0.00,L,Ptm,Ptm,4807.0330,N,12244.9520,W,0.1,89,0.00,V*13
$PGRME,2.4,M,2.4,M,3.4,M*29
$HCHDG,63.1,0.0,E,,*1D
$HCHDG,63.0,0.0,E,,*1C
$GPRMC,000024.0,A,4807.01468,N,12245.04121,W,000.00,063.7,050513,016.8,E,D*2D
$PGRME,2.4,M,2.4,M,3.4,M*29
$HCHDG,63.0,0.0,E,,*1C
$YXXDR,A,3.6,D,PTCH,A,-1.7,D,ROLL*73
$HCHDG,63.0,0.0,E,,*1C
$GPRMC,000024.2,A,4807.01468,N,12245.04121,W,000.00,063.7,050513,016.8,E,D*2F
$PGRME,2.4,M,2.4,M,3.4,M*29
$HCHDG,62.9,0.0,E,,*14
$HCHDG,62.9,0.0,E,,*14
$GPRMC,000024.4,A,4807.01468,N,12245.04121,W,000.00,063.7,050513,016.8,E,D*29
$PGRME,2.4,M,2.4,M,3.4,M*29
$HCHDG,62.9,0.0,E,,*14
$HCHDG,63.0,0.0,E,,*1C
$YXXDR,A,3.6,D,PTCH,A,-1.7,D,ROLL*73
$PTAK,FFD1,1.7*53
$GPRMC,000024.6,A,4807.01468,N,12245.04121,W,000.00,063.7,050513,016.8,E,D*2B
$PGRME,2.4,M,2.4,M,3.4,M*29
$HCHDG,63.0,0.0,E,,*1C
$HCHDG,63.1,0.0,E,,*1D
$GPRMC,000024.8,A,4807.01468,N,12245.04121,W,000.00,063.7,050513,016.8,E,D*25
$GPRMB,A,-0.00,L,Ptm,Ptm,4807.0330,N,12244.9520,W,0.1,90,0.00,V*1B
$PGRME,2.4,M,2.4,M,3.4,M*29
$HCHDG,63.0,0.0,E,,*1C
$PTAK,FFP1,HEEL,@*07
$HCHDG,63.0,0.0,E,,*1C
$GPRMC,000025.0,A,4807.01468,N,12245.04121,W,000.00,063.7,050513,016.8,E,D*2C
$PGRME,2.4,M,2.4,M,3.4,M*29
$HCHDG,63.0,0.0,E,,*1C
$YXXDR,A,3.7,D,PTCH,A,-1.6,D,ROLL*73
$HCHDG,63.0,0.0,E,,*1C
$GPRMC,000025.2,A,4807.01468,N,12245.04121,W,000.01,063.7,050513,016.8,E,D*2F
$PGRME,2.4,M,2.4,M,3.4,M*29
$HCHDG,63.0,0.0,E,,*1C
$HCHDG,63.0,0.0,E,,*1C
$GPRMC,000025.4,A,4807.01468,N,12245.04121,W,000.00,063.7,050513,016.8,E,D*28
$PGRME,2.4,M,2.4,M,3.4,M*29
$HCHDG,63.0,0.0,E,,*1C
$HCHDG,63.0,0.0,E,,*1C
$YXXDR,A,3.6,D,PTCH,A,-1.6,D,ROLL*72
$PTAK,FFD1,1.6*52
$GPRMC,000025.6,A,4807.01468,N,12245.04121,W,000.01,063.7,050513,016.8,E,D*2B
$PGRME,2.4,M,2.4,M,3.4,M*29
$HCHDG,63.0,0.0,E,,*1C
$HCHDG,63.0,0.0,E,,*1C
$GPRMC,000025.8,A,4807.01468,N,12245.04121,W,000.01,063.7,050513,016.8,E,D*25
$GPRMB,A,-0.00,L,Ptm,Ptm,4807.0330,N,12244.9520,W,0.1,90,0.01,V*1A
$PGRME,2.4,M,2.4,M,3.4,M*29
$HCHDG,63.0,0.0,E,,*1C
$HCHDG,63.2,0.0,E,,*1E
$GPRMC,000026.0,A,4807.01468,N,12245.04121,W,000.00,063.7,050513,016.8,E,D*2F
$PGRME,2.4,M,2.4,M,3.4,M*29
$HCHDG,63.2,0.0,E,,*1E
$YXXDR,A,3.6,D,PTCH,A,-1.4,D,ROLL*70
$HCHDG,63.2,0.0,E,,*1E
$GPRMC,000026.2,A,4807.01468,N,12245.04121,W,000.01,063.7,050513,016.8,E,D*2C
$PGRME,2.4,M,2.4,M,3.4,M*29
$HCHDG,63.2,0.0,E,,*1E
$HCHDG,63.1,0.0,E,,*1D
$GPRMC,000026.4,A,4807.01467,N,12245.04121,W,000.00,063.7,050513,016.8,E,D*24
$PGRME,2.4,M,2.4,M,3.4,M*29
$HCHDG,63.1,0.0,E,,*1D
$HCHDG,63.3,0.0,E,,*1F
$GPRMC,000026.6,A,4807.01467,N,12245.04121,W,000.01,063.7,050513,016.8,E,D*27
$YXXDR,A,3.5,D,PTCH,A,-1.2,D,ROLL*75
$PTAK,FFD1,1.2*56
$PGRME,2.4,M,2.4,M,3.4,M*29
$HCHDG,63.3,0.0,E,,*1F
$HCHDG,63.4,0.0,E,,*18
$GPRMC,000026.8,A,4807.01467,N,12245.04121,W,000.00,063.7,050513,016.8,E,D*28
$GPRMB,A,-0.00,L,Ptm,Ptm,4807.0330,N,12244.9520,W,0.1,89,0.00,V*13
$PGRME,2.4,M,2.4,M,3.4,M*29
$HCHDG,63.4,0.0,E,,*18
$HCHDG,63.4,0.0,E,,*18
$GPRMC,000027.0,A,4807.01467,N,12245.04122,W,000.01,063.7,050513,016.8,E,D*23
$PGRME,2.4,M,2.4,M,3.4,M*29
$HCHDG,63.5,0.0,E,,*19
$YXXDR,A,3.6,D,PTCH,A,-1.5,D,ROLL*71
$HCHDG,63.5,0.0,E,,*19
$GPRMC,000027.2,A,4807.01467,N,12245.04122,W,000.00,063.7,050513,016.8,E,D*20
$PGRME,2.4,M,2.4,M,3.4,M*29
$HCHDG,63.5,0.0,E,,*19
$HCHDG,63.5,0.0,E,,*19
$GPRMC,000027.4,A,4807.01467,N,12245.04122,W,000.00,063.7,050513,016.8,E,D*26
$PGRME,2.4,M,2.4,M,3.4,M*29
$HCHDG,63.4,0.0,E,,*18
$HCHDG,63.4,0.0,E,,*18
$YXXDR,A,3.8,D,PTCH,A,-1.9,D,ROLL*73
$GPRMC,000027.6,A,4807.01467,N,12245.04122,W,000.00,063.7,050513,016.8,E,D*24
$PGRME,2.4,M,2.4,M,3.4,M*29
$HCHDG,63.1,0.0,E,,*1D
$HCHDG,63.2,0.0,E,,*1E
$GPRMC,000027.8,A,4807.01467,N,12245.04122,W,000.00,063.7,050513,016.8,E,D*2A
$GPRMB,A,-0.00,L,Ptm,Ptm,4807.0330,N,12244.9520,W,0.1,89,0.00,V*13
$PGRME,2.4,M,2.4,M,3.4,M*29
$HCHDG,63.2,0.0,E,,*1E
$HCHDG,63.2,0.0,E,,*1E
$GPRMC,000028.0,A,4807.01467,N,12245.04122,W,000.01,063.7,050513,016.8,E,D*2C
$PGRME,2.4,M,2.4,M,3.4,M*29
$HCHDG,63.2,0.0,E,,*1E
$YXXDR,A,3.7,D,PTCH,A,-1.5,D,ROLL*70
$PTAK,FFD1,1.5*51
$HCHDG,63.2,0.0,E,,*1E
$GPRMC,000028.2,A,4807.01467,N,12245.04122,W,000.00,063.7,050513,016.8,E,D*2F
$PGRME,2.4,M,2.4,M,3.4,M*29
$HCHDG,63.1,0.0,E,,*1D
$HCHDG,63.1,0.0,E,,*1D
$GPRMC,000028.4,A,4807.01467,N,12245.04122,W,000.01,063.7,050513,016.8,E,D*28
$PGRME,2.4,M,2.4,M,3.4,M*29
$HCHDG,63.0,0.0,E,,*1C
$HCHDG,63.0,0.0,E,,*1C
$YXXDR,A,3.7,D,PTCH,A,-1.3,D,ROLL*76
$GPRMC,000028.6,A,4807.01468,N,12245.04122,W,000.01,063.7,050513,016.8,E,D*25
$PGRME,2.4,M,2.4,M,3.4,M*29
$HCHDG,63.0,0.0,E,,*1C
$HCHDG,63.0,0.0,E,,*1C
$GPRMC,000028.8,A,4807.01468,N,12245.04122,W,000.00,063.7,050513,016.8,E,D*2A
$PGRME,2.4,M,2.4,M,3.4,M*29
$HCHDG,63.1,0.0,E,,*1D
$HCHDG,63.1,0.0,E,,*1D
$GPRMC,000029.0,A,4807.01468,N,12245.04122,W,000.00,063.7,050513,016.8,E,D*23
$GPRMB,A,-0.00,L,Ptm,Ptm,4807.0330,N,12244.9520,W,0.1,90,0.00,V*1B
$PGRME,2.4,M,2.4,M,3.4,M*29
$HCHDG,63.1,0.0,E,,*1D
$PTAK,FFP1,HEEL,@*07
$YXXDR,A,3.7,D,PTCH,A,-1.6,D,ROLL*73
$PTAK,FFD1,1.6*52
$HCHDG,63.1,0.0,E,,*1D
$GPRMC,000029.2,A,4807.01468,N,12245.04122,W,000.01,063.7,050513,016.8,E,D*20
$PGRME,2.4,M,2.4,M,3.4,M*29
$HCHDG,63.1,0.0,E,,*1D
$HCHDG,63.0,0.0,E,,*1C
$GPRMC,000029.4,A,4807.01468,N,12245.04122,W,000.01,063.7,050513,016.8,E,D*26
$PGRME,2.4,M,2.4,M,3.4,M*29
$HCHDG,63.1,0.0,E,,*1D
$HCHDG,63.2,0.0,E,,*1E
$YXXDR,A,3.6,D,PTCH,A,-1.2,D,ROLL*76
$GPRMC,000029.6,A,4807.01468,N,12245.04122,W,000.01,063.7,050513,016.8,E,D*24
$PGRME,2.4,M,2.4,M,3.4,M*29
$HCHDG,63.2,0.0,E,,*1E
$HCHDG,63.2,0.0,E,,*1E
$GPRMC,000029.8,A,4807.01467,N,12245.04122,W,000.00,063.7,050513,016.8,E,D*24
$PGRME,2.4,M,2.4,M,3.4,M*29
$HCHDG,63.2,0.0,E,,*1E
$HCHDG,63.3,0.0,E,,*1F
$GPRMC,000030.0,A,4807.01467,N,12245.04122,W,000.00,063.7,050513,016.8,E,D*24
$PGRME,2.4,M,2.4,M,3.4,M*29
$HCHDG,63.3,0.0,E,,*1F
$YXXDR,A,3.6,D,PTCH,A,-1.5,D,ROLL*71
$HCHDG,63.3,0.0,E,,*1F
$GPRMC,000030.2,A,4807.01467,N,12245.04122,W,000.01,063.7,050513,016.8,E,D*27
$GPRMB,A,-0.00,L,Ptm,Ptm,4807.0330,N,12244.9520,W,0.1,89,0.01,V*12
$PGRME,2.4,M,2.4,M,3.4,M*29
$HCHDG,63.2,0.0,E,,*1E
$HCHDG,63.2,0.0,E,,*1E
$GPRMC,000030.4,A,4807.01467,N,12245.04122,W,000.01,063.7,050513,016.8,E,D*21
$PGRME,2.4,M,2.4,M,3.4,M*29
$HCHDG,63.3,0.0,E,,*1F
$HCHDG,63.2,0.0,E,,*1E
$GPRMC,000030.6,A,4807.01467,N,12245.04122,W,000.00,063.7,050513,016.8,E,D*22
$YXXDR,A,3.6,D,PTCH,A,-1.2,D,ROLL*76
$PTAK,FFD1,1.2*56
$PGRME,2.4,M,2.4,M,3.4,M*29
$HCHDG,63.2,0.0,E,,*1E
$HCHDG,63.2,0.0,E,,*1E
$GPRMC,000030.8,A,4807.01467,N,12245.04122,W,000.01,063.7,050513,016.8,E,D*2D
$PGRME,2.4,M,2.4,M,3.4,M*29
$HCHDG,63.3,0.0,E,,*1F
$HCHDG,63.3,0.0,E,,*1F
$GPRMC,000031.0,A,4807.01467,N,12245.04122,W,000.01,063.7,050513,016.8,E,D*24
$PGRME,2.4,M,2.4,M,3.4,M*29
$HCHDG,63.4,0.0,E,,*18
$YXXDR,A,3.6,D,PTCH,A,-1.2,D,ROLL*76
$HCHDG,63.3,0.0,E,,*1F
$GPRMC,000031.2,A,4807.01467,N,12245.04122,W,000.00,063.7,050513,016.8,E,D*27
$GPRMB,A,-0.00,L,Ptm,Ptm,4807.0330,N,12244.9520,W,0.1,89,0.00,V*13
$PGRME,2.4,M,2.4,M,3.4,M*29
$HCHDG,63.3,0.0,E,,*1F
$HCHDG,63.3,0.0,E,,*1F
$GPRMC,000031.4,A,4807.01467,N,12245.04123,W,000.01,063.7,050513,016.8,E,D*21
$PGRME,2.4,M,2.4,M,3.4,M*29
$HCHDG,63.6,0.0,E,,*1A
$HCHDG,63.6,0.0,E,,*1A
$GPRMC,000031.6,A,4807.01467,N,12245.04123,W,000.00,063.7,050513,016.8,E,D*22
$YXXDR,A,3.5,D,PTCH,A,-1.6,D,ROLL*71
$PGRME,2.4,M,2.4,M,3.4,M*29
$HCHDG,63.7,0.0,E,,*1B
$HCHDG,63.6,0.0,E,,*1A
$GPRMC,000031.8,A,4807.01467,N,12245.04123,W,000.01,063.7,050513,016.8,E,D*2D
$PGRME,2.4,M,2.4,M,3.4,M*29
$HCHDG,63.5,0.0,E,,*19
$HCHDG,63.5,0.0,E,,*19
$GPRMC,000032.0,A,4807.01467,N,12245.04123,W,000.01,063.7,050513,016.8,E,D*26
$PGRME,2.4,M,2.4,M,3.4,M*29
$HCHDG,63.5,0.0,E,,*19
$YXXDR,A,3.6,D,PTCH,A,-1.5,D,ROLL*71
$PTAK,FFD1,1.5*51
$HCHDG,63.6,0.0,E,,*1A
$GPRMC,000032.2,A,4807.01467,N,12245.04123,W,000.00,063.7,050513,016.8,E,D*25
$GPRMB,A,-0.00,L,Ptm,Ptm,4807.0330,N,12244.9520,W,0.1,89,0.00,V*13
$PGRME,2.4,M,2.4,M,3.4,M*29
$HCHDG,63.6,0.0,E,,*1A
$HCHDG,63.6,0.0,E,,*1A
$GPRMC,000032.4,A,4807.01466,N,12245.04123,W,000.00,063.7,050513,016.8,E,D*22
$PGRME,2.4,M,2.4,M,3.4,M*29
$HCHDG,63.6,0.0,E,,*1A
$HCHDG,63.5,0.0,E,,*19
$YXXDR,A,3.6,D,PTCH,A,-1.7,D,ROLL*73
$GPRMC,000032.6,A,4807.01466,N,12245.04122,W,000.01,063.7,050513,016.8,E,D*20
$PGRME,2.4,M,2.4,M,3.4,M*29
$HCHDG,63.5,0.0,E,,*19
$HCHDG,63.5,0.0,E,,*19
$GPRMC,000032.8,A,4807.01466,N,12245.04122,W,000.01,063.7,050513,016.8,E,D*2E
$PGRME,2.4,M,2.4,M,3.4,M*29
$HCHDG,63.4,0.0,E,,*18
$HCHDG,63.4,0.0,E,,*18
$GPRMC,000033.0,A,4807.01466,N,12245.04122,W,000.00,063.7,050513,016.8,E,D*26
$PGRME,2.4,M,2.4,M,3.4,M*29
$HCHDG,63.4,0.0,E,,*18
$YXXDR,A,3.6,D,PTCH,A,-1.5,D,ROLL*71
$HCHDG,63.4,0.0,E,,*18
$GPRMC,000033.2,A,4807.01466,N,12245.04122,W,000.00,063.7,050513,016.8,E,D*24
$GPRMB,A,-0.00,L,Ptm,Ptm,4807.0330,N,12244.9520,W,0.1,89,0.00,V*13
$PGRME,2.4,M,2.4,M,3.4,M*29
$HCHDG,63.4,0.0,E,,*18
$PTAK,FFP1,HEEL,@*07
$HCHDG,63.4,0.0,E,,*18
$GPRMC,000033.4,A,4807.01466,N,12245.04122,W,000.01,063.7,050513,016.8,E,D*23
$PGRME,2.4,M,2.4,M,3.4,M*29
$HCHDG,63.3,0.0,E,,*1F
$HCHDG,63.3,0.0,E,,*1F
$YXXDR,A,3.7,D,PTCH,A,-1.5,D,ROLL*70
$PTAK,FFD1,1.5*51
$GPRMC,000033.6,A,4807.01466,N,12245.04123,W,000.01,063.7,050513,016.8,E,D*20
$PGRME,2.4,M,2.4,M,3.4,M*29
$HCHDG,63.3,0.0,E,,*1F
$HCHDG,63.3,0.0,E,,*1F
$GPRMC,000033.8,A,4807.01466,N,12245.04123,W,000.00,063.7,050513,016.8,E,D*2F
$PGRME,2.4,M,2.4,M,3.4,M*29
$HCHDG,63.3,0.0,E,,*1F
$HCHDG,63.1,0.0,E,,*1D
$GPRMC,000034.0,A,4807.01466,N,12245.04123,W,000.00,063.7,050513,016.8,E,D*20
$PGRME,2.4,M,2.4,M,3.4,M*29
$HCHDG,63.1,0.0,E,,*1D
$YXXDR,A,3.6,D,PTCH,A,-1.6,D,ROLL*72
$HCHDG,63.1,0.0,E,,*1D
$GPRMC,000034.2,A,4807.01466,N,12245.04123,W,000.00,063.7,050513,016.8,E,D*22
$GPRMB,A,-0.00,L,Ptm,Ptm,4807.0330,N,12244.9520,W,0.1,89,0.00,V*13
$PGRME,2.4,M,2.4,M,3.4,M*29
$HCHDG,63.0,0.0,E,,*1C
$HCHDG,63.0,0.0,E,,*1C
$GPRMC,000034.4,A,4807.01466,N,12245.04123,W,000.00,063.7,050513,016.8,E,D*24
$PGRME,2.4,M,2.4,M,3.4,M*29
$HCHDG,63.0,0.0,E,,*1C
$HCHDG,63.0,0.0,E,,*1C
$YXXDR,A,3.8,D,PTCH,A,-1.6,D,ROLL*7C
$PTAK,FFD1,1.6*52
$GPRMC,000034.6,A,4807.01466,N,12245.04123,W,000.00,063.7,050513,016.8,E,D*26
$PGRME,2.4,M,2.4,M,3.4,M*29
$HCHDG,63.0,0.0,E,,*1C
$HCHDG,63.0,0.0,E,,*1C
$GPRMC,000034.8,A,4807.01466,N,12245.04123,W,000.00,063.7,050513,016.8,E,D*28
$PGRME,2.4,M,2.4,M,3.4,M*29
$HCHDG,63.0,0.0,E,,*1C
$HCHDG,63.0,0.0,E,,*1C
$GPRMC,000035.0,A,4807.01466,N,12245.04123,W,000.00,063.7,050513,016.8,E,D*21
$PGRME,2.4,M,2.4,M,3.4,M*29
$HCHDG,63.0,0.0,E,,*1C
$YXXDR,A,3.6,D,PTCH,A,-1.5,D,ROLL*71
$HCHDG,63.0,0.0,E,,*1C
$GPRMC,000035.2,A,4807.01466,N,12245.04123,W,000.01,063.7,050513,016.8,E,D*22
$PGRME,2.4,M,2.4,M,3.4,M*29
$HCHDG,63.0,0.0,E,,*1C
$HCHDG,63.2,0.0,E,,*1E
$GPRMC,000035.4,A,4807.01466,N,12245.04123,W,000.01,063.7,050513,016.8,E,D*24
$GPRMB,A,-0.00,L,Ptm,Ptm,4807.0330,N,12244.9520,W,0.1,89,0.01,V*12
$PGRME,2.4,M,2.4,M,3.4,M*29
$HCHDG,63.3,0.0,E,,*1F
$HCHDG,63.3,0.0,E,,*1F
$YXXDR,A,3.6,D,PTCH,A,-1.5,D,ROLL*71
$GPRMC,000035.6,A,4807.01465,N,12245.04123,W,000.01,063.7,050513,016.8,E,D*25
$PGRME,2.4,M,2.4,M,3.4,M*29
$HCHDG,63.2,0.0,E,,*1E
$HCHDG,63.4,0.0,E,,*18
$GPRMC,000035.8,A,4807.01465,N,12245.04123,W,000.00,063.7,050513,016.8,E,D*2A
$PGRME,2.4,M,2.4,M,3.4,M*29
$HCHDG,63.1,0.0,E,,*1D
$HCHDG,63.1,0.0,E,,*1D
$GPRMC,000036.0,A,4807.01465,N,12245.04123,W,000.00,063.7,050513,016.8,E,D*21
$PGRME,2.4,M,2.4,M,3.4,M*29
$HCHDG,63.1,0.0,E,,*1D
$YXXDR,A,3.9,D,PTCH,A,-1.4,D,ROLL*7F
$PTAK,FFD1,1.4*50
$HCHDG,63.1,0.0,E,,*1D
$GPRMC,000036.2,A,4807.01465,N,12245.04123,W,000.00,063.7,050513,016.8,E,D*23
$PGRME,2.4,M,2.4,M,3.4,M*29
$HCHDG,63.1,0.0,E,,*1D
$HCHDG,63.1,0.0,E,,*1D
$GPRMC,000036.4,A,4807.01465,N,12245.04123,W,000.00,063.7,050513,016.8,E,D*25
$GPRMB,A,-0.00,L,Ptm,Ptm,4807.0330,N,12244.9520,W,0.1,89,0.00,V*13
$PGRME,2.4,M,2.4,M,3.4,M*29
$HCHDG,63.0,0.0,E,,*1C
$HCHDG,63.0,0.0,E,,*1C
$YXXDR,A,3.6,D,PTCH,A,-1.6,D,ROLL*72
$GPRMC,000036.6,A,4807.01465,N,12245.04123,W,000.01,063.7,050513,016.8,E,D*26
$PGRME,2.4,M,2.4,M,3.4,M*29
$HCHDG,62.9,0.0,E,,*14
$HCHDG,62.9,0.0,E,,*14
$GPRMC,000036.8,A,4807.01465,N,12245.04123,W,000.00,063.7,050513,016.8,E,D*29
$PGRME,2.4,M,2.4,M,3.4,M*29
$HCHDG,63.0,0.0,E,,*1C
$HCHDG,63.0,0.0,E,,*1C
$GPRMC,000037.0,A,4807.01465,N,12245.04123,W,000.00,063.7,050513,016.8,E,D*20
$PGRME,2.4,M,2.4,M,3.4,M*29
$HCHDG,63.0,0.0,E,,*1C
$YXXDR,A,3.6,D,PTCH,A,-1.6,D,ROLL*72
$HCHDG,62.9,0.0,E,,*14
$GPRMC,000037.2,A,4807.01465,N,12245.04123,W,000.01,063.7,050513,016.8,E,D*23
$PGRME,2.4,M,2.4,M,3.4,M*29
$HCHDG,62.9,0.0,E,,*14
$HCHDG,62.9,0.0,E,,*14
$GPRMC,000037.4,A,4807.01465,N,12245.04123,W,000.00,063.7,050513,016.8,E,D*24
$GPRMB,A,-0.00,L,Ptm,Ptm,4807.0330,N,12244.9520,W,0.1,89,0.00,V*13
$PGRME,2.4,M,2.4,M,3.4,M*29
$HCHDG,62.9,0.0,E,,*14
$PTAK,FFP1,HEEL,@*07
$HCHDG,63.0,0.0,E,,*1C
$YXXDR,A,3.7,D,PTCH,A,-1.6,D,ROLL*73
$PTAK,FFD1,1.6*52
$GPRMC,000037.6,A,4807.01465,N,12245.04123,W,000.01,063.7,050513,016.8,E,D*27
$PGRME,2.4,M,2.4,M,3.4,M*29
$HCHDG,63.0,0.0,E,,*1C
$HCHDG,63.0,0.0,E,,*1C
$GPRMC,000037.8,A,4807.01465,N,12245.04123,W,000.00,063.7,050513,016.8,E,D*28
$PGRME,2.4,M,2.4,M,3.4,M*29
$HCHDG,63.0,0.0,E,,*1C
$HCHDG,63.0,0.0,E,,*1C
$GPRMC,000038.0,A,4807.01466,N,12245.04123,W,000.01,063.7,050513,016.8,E,D*2D
$PGRME,2.4,M,2.4,M,3.4,M*29
$HCHDG,63.0,0.0,E,,*1C
$YXXDR,A,3.7,D,PTCH,A,-1.6,D,ROLL*73
$HCHDG,63.1,0.0,E,,*1D
$GPRMC,000038.2,A,4807.01466,N,12245.04123,W,000.01,063.7,050513,016.8,E,D*2F
$PGRME,2.4,M,2.4,M,3.4,M*29
$HCHDG,63.1,0.0,E,,*1D
$HCHDG,63.1,0.0,E,,*1D
$GPRMC,000038.4,A,4807.01465,N,12245.04123,W,000.00,063.7,050513,016.8,E,D*2B
$PGRME,2.4,M,2.4,M,3.4,M*29
$HCHDG,63.0,0.0,E,,*1C
$HCHDG,63.0,0.0,E,,*1C
$YXXDR,A,3.8,D,PTCH,A,-1.6,D,ROLL*7C
$GPRMC,000038.6,A,4807.01465,N,12245.04123,W,000.00,063.7,050513,016.8,E,D*29
$GPRMB,A,-0.00,L,Ptm,Ptm,4807.0330,N,12244.9520,W,0.1,89,0.00,V*13
$PGRME,2.4,M,2.4,M,3.4,M*29
$HCHDG,63.0,0.0,E,,*1C
$HCHDG,63.0,0.0,E,,*1C
$GPRMC,000038.8,A,4807.01465,N,12245.04123,W,000.01,063.7,050513,016.8,E,D*26
$PGRME,2.4,M,2.4,M,3.4,M*29
$HCHDG,63.0,0.0,E,,*1C
$HCHDG,62.9,0.0,E,,*14
$GPRMC,000039.0,A,4807.01465,N,12245.04123,W,000.01,063.7,050513,016.8,E,D*2F
$PGRME,2.4,M,2.4,M,3.4,M*29
$HCHDG,63.0,0.0,E,,*1C
$YXXDR,A,3.7,D,PTCH,A,-1.3,D,ROLL*76
$PTAK,FFD1,1.3*57
$HCHDG,63.0,0.0,E,,*1C
$GPRMC,000039.2,A,4807.01465,N,12245.04123,W,000.01,063.7,050513,016.8,E,D*2D
$PGRME,2.4,M,2.4,M,3.4,M*29
$HCHDG,63.0,0.0,E,,*1C
$HCHDG,63.0,0.0,E,,*1C
$GPRMC,000039.4,A,4807.01465,N,12245.04123,W,000.01,063.7,050513,016.8,E,D*2B
$PGRME,2.4,M,2.4,M,3.4,M*29
$HCHDG,63.0,0.0,E,,*1C
$HCHDG,63.0,0.0,E,,*1C
$YXXDR,A,3.8,D,PTCH,A,-1.2,D,ROLL*78
$GPRMC,000039.6,A,4807.01465,N,12245.04123,W,000.01,063.7,050513,016.8,E,D*29
$GPRMB,A,-0.00,L,Ptm,Ptm,4807.0330,N,12244.9520,W,0.1,89,0.01,V*12
$PGRME,2.4,M,2.4,M,3.4,M*29
$HCHDG,63.0,0.0,E,,*1C
$HCHDG,62.8,0.0,E,,*15
$GPRMC,000039.8,A,4807.01465,N,12245.04123,W,000.01,063.7,050513,016.8,E,D*27
$PGRME,2.4,M,2.4,M,3.4,M*29
$HCHDG,62.9,0.0,E,,*14
$HCHDG,62.9,0.0,E,,*14
$GPRMC,000040.0,A,4807.01465,N,12245.04123,W,000.00,063.7,050513,016.8,E,D*20
$PGRME,2.4,M,2.4,M,3.4,M*29
$HCHDG,63.2,0.0,E,,*1E
$YXXDR,A,3.4,D,PTCH,A,-1.3,D,ROLL*75
$HCHDG,63.2,0.0,E,,*1E
$GPRMC,000040.2,A,4807.01465,N,12245.04123,W,000.01,063.7,050513,016.8,E,D*23
$PGRME,2.4,M,2.4,M,3.4,M*29
$HCHDG,63.1,0.0,E,,*1D
$HCHDG,63.1,0.0,E,,*1D
$GPRMC,000040.4,A,4807.01465,N,12245.04123,W,000.01,063.7,050513,016.8,E,D*25
$PGRME,2.4,M,2.4,M,3.4,M*29
$HCHDG,63.0,0.0,E,,*1C
$HCHDG,63.1,0.0,E,,*1D
$YXXDR,A,3.6,D,PTCH,A,-2.2,D,ROLL*75
$PTAK,FFD1,2.2*55
$GPRMC,000040.6,A,4807.01465,N,12245.04123,W,000.01,063.7,050513,016.8,E,D*27
$GPRMB,A,-0.00,L,Ptm,Ptm,4807.0330,N,12244.9520,W,0.1,89,0.01,V*12
$PGRME,2.4,M,2.4,M,3.4,M*29
$HCHDG,63.1,0.0,E,,*1D
$HCHDG,63.5,0.0,E,,*19
$GPRMC,000040.8,A,4807.01465,N,12245.04123,W,000.01,063.7,050513,016.8,E,D*29
$PGRME,2.4,M,2.4,M,3.4,M*29
$HCHDG,63.4,0.0,E,,*18
$HCHDG,63.4,0.0,E,,*18
$GPRMC,000041.0,A,4807.01465,N,12245.04124,W,000.01,063.7,050513,016.8,E,D*27
$PGRME,2.4,M,2.4,M,3.4,M*29
$HCHDG,63.6,0.0,E,,*1A
$YXXDR,A,3.4,D,PTCH,A,-1.9,D,ROLL*7F
$HCHDG,63.6,0.0,E,,*1A
$GPRMC,000041.2,A,4807.01465,N,12245.04124,W,000.01,063.7,050513,016.8,E,D*25
$PGRME,2.4,M,2.4,M,3.4,M*29
$HCHDG,63.6,0.0,E,,*1A
$HCHDG,63.6,0.0,E,,*1A
$GPRMC,000041.4,A,4807.01465,N,12245.04124,W,000.00,063.7,050513,016.8,E,D*22
$PGRME,2.4,M,2.4,M,3.4,M*29
$HCHDG,63.6,0.0,E,,*1A
$HCHDG,63.4,0.0,E,,*18
$GPRMC,000041.6,A,4807.01465,N,12245.04124,W,000.00,063.7,050513,016.8,E,D*20
$YXXDR,A,3.7,D,PTCH,A,-1.5,D,ROLL*70
$PTAK,FFD1,1.5*51
$PTAK,FFP1,HEEL,@*07
$PGRME,2.4,M,2.4,M,3.4,M*29
$HCHDG,63.4,0.0,E,,*18
$HCHDG,63.4,0.0,E,,*18
$GPRMC,000041.8,A,4807.01465,N,12245.04124,W,000.01,063.7,050513,016.8,E,D*2F
$GPRMB,A,-0.00,L,Ptm,Ptm,4807.0330,N,12244.9520,W,0.1,89,0.01,V*12
$PGRME,2.4,M,2.4,M,3.4,M*29
$HCHDG,63.7,0.0,E,,*1B
$HCHDG,63.7,0.0,E,,*1B
$GPRMC,000042.0,A,4807.01465,N,12245.04124,W,000.00,063.7,050513,016.8,E,D*25
$PGRME,2.4,M,2.4,M,3.4,M*29
$HCHDG,63.7,0.0,E,,*1B
$YXXDR,A,3.4,D,PTCH,A,-1.9,D,ROLL*7F
$HCHDG,63.6,0.0,E,,*1A
$GPRMC,000042.2,A,4807.01465,N,12245.04124,W,000.01,063.7,050513,016.8,E,D*26
$PGRME,2.4,M,2.4,M,3.4,M*29
$HCHDG,63.6,0.0,E,,*1A
$HCHDG,63.6,0.0,E,,*1A
$GPRMC,000042.4,A,4807.01465,N,12245.04124,W,000.01,063.7,050513,016.8,E,D*20
$PGRME,2.4,M,2.4,M,3.4,M*29
$HCHDG,63.6,0.0,E,,*1A
$HCHDG,63.6,0.0,E,,*1A
$GPRMC,000042.6,A,4807.01465,N,12245.04124,W,000.01,063.7,050513,016.8,E,D*22
$YXXDR,A,3.7,D,PTCH,A,-1.3,D,ROLL*76
$PGRME,2.4,M,2.4,M,3.4,M*29
$HCHDG,63.6,0.0,E,,*1A
$HCHDG,63.6,0.0,E,,*1A
$GPRMC,000042.8,A,4807.01465,N,12245.04124,W,000.01,063.7,050513,016.8,E,D*2C
$GPRMB,A,-0.00,L,Ptm,Ptm,4807.0330,N,12244.9520,W,0.1,89,0.01,V*12
$PGRME,2.4,M,2.4,M,3.4,M*29
$HCHDG,63.7,0.0,E,,*1B
$HCHDG,63.7,0.0,E,,*1B
$GPRMC,000043.0,A,4807.01465,N,12245.04124,W,000.01,063.7,050513,016.8,E,D*25
$PGRME,2.4,M,2.4,M,3.4,M*29
$HCHDG,63.7,0.0,E,,*1B
$YXXDR,A,3.6,D,PTCH,A,-1.1,D,ROLL*75
$PTAK,FFD1,1.1*55
$HCHDG,63.7,0.0,E,,*1B
$GPRMC,000043.2,A,4807.01465,N,12245.04124,W,000.01,063.7,050513,016.8,E,D*27
$PGRME,2.4,M,2.4,M,3.4,M*29
$HCHDG,63.7,0.0,E,,*1B
$HCHDG,63.7,0.0,E,,*1B
$GPRMC,000043.4,A,4807.01465,N,12245.04124,W,000.01,063.7,050513,016.8,E,D*21
$PGRME,2.4,M,2.4,M,3.4,M*29
$HCHDG,63.3,0.0,E,,*1F
$HCHDG,63.3,0.0,E,,*1F
$YXXDR,A,3.8,D,PTCH,A,-1.7,D,ROLL*7D
$GPRMC,000043.6,A,4807.01465,N,12245.04124,W,000.01,063.7,050513,016.8,E,D*23
$PGRME,2.4,M,2.4,M,3.4,M*29
$HCHDG,63.3,0.0,E,,*1F
$HCHDG,63.3,0.0,E,,*1F
$GPRMC,000043.8,A,4807.01465,N,12245.04124,W,000.01,063.7,050513,016.8,E,D*2D
$GPRMB,A,-0.00,L,Ptm,Ptm,4807.0330,N,12244.9520,W,0.1,89,0.01,V*12
$PGRME,2.4,M,2.4,M,3.4,M*29
$HCHDG,63.3,0.0,E,,*1F
$HCHDG,63.3,0.0,E,,*1F
$GPRMC,000044.0,A,4807.01465,N,12245.04124,W,000.00,063.7,050513,016.8,E,D*23
$PGRME,2.4,M,2.4,M,3.4,M*29
$HCHDG,63.4,0.0,E,,*18
$PGRMT,GPS 18x-5Hz software ver. 3.20,,,,,,,,*30
$YXXDR,A,3.7,D,PTCH,A,-1.5,D,ROLL*70
$PTAK,FFD1,1.5*51
$HCHDG,63.4,0.0,E,,*18
$GPRMC,000044.2,A,4807.01465,N,12245.04125,W,000.01,063.7,050513,016.8,E,D*21
$PGRME,2.4,M,2.4,M,3.4,M*29
$HCHDG,63.4,0.0,E,,*18
$HCHDG,63.4,0.0,E,,*18
$GPRMC,000044.4,A,4807.01465,N,12245.04125,W,000.01,063.7,050513,016.8,E,D*27
$PGRME,2.4,M,2.4,M,3.4,M*29
$HCHDG,63.2,0.0,E,,*1E
$HCHDG,63.2,0.0,E,,*1E
$YXXDR,A,3.9,D,PTCH,A,-1.6,D,ROLL*7D
$GPRMC,000044.6,A,4807.01465,N,12245.04125,W,000.01,063.7,050513,016.8,E,D*25
$PGRME,2.4,M,2.4,M,3.4,M*29
$HCHDG,62.9,0.0,E,,*14
$HCHDG,63.0,0.0,E,,*1C
$GPRMC,000044.8,A,4807.01465,N,12245.04125,W,000.01,063.7,050513,016.8,E,D*2B
$GPRMB,A,-0.00,L,Ptm,Ptm,4807.0330,N,12244.9520,W,0.1,89,0.01,V*12
$PGRME,2.4,M,2.4,M,3.4,M*29
$HCHDG,63.0,0.0,E,,*1C
$HCHDG,63.0,0.0,E,,*1C
$GPRMC,000045.0,A,4807.01465,N,12245.04125,W,000.01,063.7,050513,016.8,E,D*22
$PGRME,2.4,M,2.4,M,3.4,M*29
$HCHDG,63.0,0.0,E,,*1C
$YXXDR,A,4.0,D,PTCH,A,-1.0,D,ROLL*75
$HCHDG,63.0,0.0,E,,*1C
$GPRMC,000045.2,A,4807.01465,N,12245.04125,W,000.01,063.7,050513,016.8,E,D*20
$PGRME,2.4,M,2.4,M,3.4,M*29
$HCHDG,63.0,0.0,E,,*1C
$HCHDG,63.0,0.0,E,,*1C
$GPRMC,000045.4,A,4807.01465,N,12245.04125,W,000.00,063.7,050513,016.8,E,D*27
$PGRME,2.4,M,2.4,M,3.4,M*29
$HCHDG,63.0,0.0,E,,*1C
$HCHDG,63.0,0.0,E,,*1C
$YXXDR,A,3.7,D,PTCH,A,-1.6,D,ROLL*73
$PTAK,FFD1,1.6*52
$GPRMC,000045.6,A,4807.01465,N,12245.04125,W,000.00,063.7,050513,016.8,E,D*25
$PGRME,2.4,M,2.4,M,3.4,M*29
$HCHDG,63.0,0.0,E,,*1C
$PTAK,FFP1,HEEL,@*07
$HCHDG,62.9,0.0,E,,*14
$GPRMC,000045.8,A,4807.01465,N,12245.04125,W,000.00,063.7,050513,016.8,E,D*2B
$PGRME,2.4,M,2.4,M,3.4,M*29
$HCHDG,62.9,0.0,E,,*14
$HCHDG,63.0,0.0,E,,*1C
$GPRMC,000046.0,A,4807.01465,N,12245.04125,W,000.01,063.7,050513,016.8,E,D*21
$GPRMB,A,-0.00,L,Ptm,Ptm,4807.0330,N,12244.9520,W,0.1,89,0.01,V*12
$PGRME,2.4,M,2.4,M,3.4,M*29
$HCHDG,63.0,0.0,E,,*1C
$YXXDR,A,4.0,D,PTCH,A,-1.4,D,ROLL*71
$HCHDG,63.0,0.0,E,,*1C
$GPRMC,000046.2,A,4807.01465,N,12245.04125,W,000.00,063.7,050513,016.8,E,D*22
$PGRME,2.4,M,2.4,M,3.4,M*29
$HCHDG,63.0,0.0,E,,*1C
$HCHDG,62.9,0.0,E,,*14
$GPRMC,000046.4,A,4807.01465,N,12245.04125,W,000.00,063.7,050513,016.8,E,D*24
$PGRME,2.4,M,2.4,M,3.4,M*29
$HCHDG,62.9,0.0,E,,*14
$HCHDG,62.9,0.0,E,,*14
$GPRMC,000046.6,A,4807.01464,N,12245.04125,W,000.01,063.7,050513,016.8,E,D*26
$YXXDR,A,3.6,D,PTCH,A,-1.7,D,ROLL*73
$PTAK,FFD1,1.7*53
$PGRME,2.4,M,2.4,M,3.4,M*29
$HCHDG,62.9,0.0,E,,*14
$HCHDG,62.9,0.0,E,,*14
$GPRMC,000046.8,A,4807.01464,N,12245.04126,W,000.00,063.7,050513,016.8,E,D*2A
$PGRME,2.4,M,2.4,M,3.4,M*29
$HCHDG,62.9,0.0,E,,*14
$HCHDG,62.9,0.0,E,,*14
$GPRMC,000047.0,A,4807.01464,N,12245.04126,W,000.00,063.7,050513,016.8,E,D*23
$PGRME,2.4,M,2.4,M,3.4,M*29
$HCHDG,62.9,0.0,E,,*14
$YXXDR,A,3.7,D,PTCH,A,-1.3,D,ROLL*76
$HCHDG,62.9,0.0,E,,*14
$GPRMC,000047.2,A,4807.01464,N,12245.04126,W,000.01,063.7,050513,016.8,E,D*20
$GPRMB,A,-0.00,L,Ptm,Ptm,4807.0330,N,12244.9520,W,0.1,89,0.01,V*12
$PGRME,2.4,M,2.4,M,3.4,M*29
$HCHDG,62.9,0.0,E,,*14
$HCHDG,62.9,0.0,E,,*14
$GPRMC,000047.4,A,4807.01464,N,12245.04126,W,000.00,063.7,050513,016.8,E,D*27
$PGRME,2.4,M,2.4,M,3.4,M*29
$HCHDG,62.9,0.0,E,,*14
$HCHDG,62.9,0.0,E,,*14
$GPRMC,000047.6,A,4807.01464,N,12245.04126,W,000.00,063.7,050513,016.8,E,D*25
$YXXDR,A,3.8,D,PTCH,A,-1.6,D,ROLL*7C
$PTAK,FFD1,1.6*52
$PGRME,2.4,M,2.4,M,3.4,M*29
$HCHDG,62.9,0.0,E,,*14
$HCHDG,62.9,0.0,E,,*14
$GPRMC,000047.8,A,4807.01464,N,12245.04126,W,000.01,063.7,050513,016.8,E,D*2A
$PGRME,2.4,M,2.4,M,3.4,M*29
$HCHDG,63.0,0.0,E,,*1C
$HCHDG,63.0,0.0,E,,*1C
$GPRMC,000048.0,A,4807.01464,N,12245.04126,W,000.00,063.7,050513,016.8,E,D*2C
$PGRME,2.4,M,2.4,M,3.4,M*29
$HCHDG,63.0,0.0,E,,*1C
$YXXDR,A,3.7,D,PTCH,A,-1.3,D,ROLL*76
$HCHDG,63.0,0.0,E,,*1C
$GPRMC,000048.2,A,4807.01464,N,12245.04126,W,000.01,063.7,050513,016.8,E,D*2F
$PGRME,2.4,M,2.4,M,3.4,M*29
$HCHDG,63.3,0.0,E,,*1F
$HCHDG,63.3,0.0,E,,*1F
$GPRMC,000048.4,A,4807.01464,N,12245.04127,W,000.01,063.7,050513,016.8,E,D*28
$GPRMB,A,-0.00,L,Ptm,Ptm,4807.0330,N,12244.9520,W,0.1,89,0.01,V*12
$PGRME,2.4,M,2.4,M,3.4,M*29
$HCHDG,63.3,0.0,E,,*1F
$HCHDG,63.2,0.0,E,,*1E
$YXXDR,A,3.6,D,PTCH,A,-1.7,D,ROLL*73
$GPRMC,000048.6,A,4807.01464,N,12245.04127,W,000.01,063.7,050513,016.8,E,D*2A
$PGRME,2.4,M,2.4,M,3.4,M*29
$HCHDG,63.2,0.0,E,,*1E
$HCHDG,63.2,0.0,E,,*1E
$GPRMC,000048.8,A,4807.01464,N,12245.04127,W,000.01,063.7,050513,016.8,E,D*24
$PGRME,2.4,M,2.4,M,3.4,M*29
$HCHDG,63.2,0.0,E,,*1E
$HCHDG,63.3,0.0,E,,*1F
$GPRMC,000049.0,A,4807.01464,N,12245.04126,W,000.01,063.7,050513,016.8,E,D*2C
$PGRME,2.4,M,2.4,M,3.4,M*29
$HCHDG,63.2,0.0,E,,*1E
$YXXDR,A,3.8,D,PTCH,A,-2.0,D,ROLL*79
$PTAK,FFD1,2.0*57
$HCHDG,63.2,0.0,E,,*1E
$GPRMC,000049.2,A,4807.01464,N,12245.04126,W,000.00,063.7,050513,016.8,E,D*2F
$PGRME,2.4,M,2.4,M,3.4,M*29
$HCHDG,63.3,0.0,E,,*1F
$HCHDG,63.4,0.0,E,,*18
$GPRMC,000049.4,A,4807.01464,N,12245.04126,W,000.00,063.7,050513,016.8,E,D*29
$GPRMB,A,-0.00,L,Ptm,Ptm,4807.0330,N,12244.9520,W,0.1,89,0.00,V*13
$PGRME,2.4,M,2.4,M,3.4,M*29
$HCHDG,63.3,0.0,E,,*1F
$HCHDG,63.4,0.0,E,,*18
$GPRMC,000049.6,A,4807.01464,N,12245.04126,W,000.00,063.7,050513,016.8,E,D*2B
$YXXDR,A,3.6,D,PTCH,A,-2.2,D,ROLL*75
$PGRME,2.4,M,2.4,M,3.4,M*29
$HCHDG,63.4,0.0,E,,*18
$PTAK,FFP1,HEEL,@*07
$HCHDG,63.3,0.0,E,,*1F
$GPRMC,000049.8,A,4807.01464,N,12245.04127,W,000.00,063.7,050513,016.8,E,D*24
$PGRME,2.4,M,2.4,M,3.4,M*29
$HCHDG,63.4,0.0,E,,*18
$HCHDG,63.5,0.0,E,,*19
$GPRMC,000050.0,A,4807.01464,N,12245.04127,W,000.01,063.7,050513,016.8,E,D*25
$PGRME,2.4,M,2.4,M,3.4,M*29
$HCHDG,63.4,0.0,E,,*18
$YXXDR,A,3.5,D,PTCH,A,-2.3,D,ROLL*77
$PTAK,FFD1,2.3*54
$HCHDG,63.4,0.0,E,,*18
$GPRMC,000050.2,A,4807.01464,N,12245.04127,W,000.01,063.7,050513,016.8,E,D*27
$PGRME,2.4,M,2.4,M,3.4,M*29
$HCHDG,63.5,0.0,E,,*19
$HCHDG,63.5,0.0,E,,*19
$GPRMC,000050.4,A,4807.01464,N,12245.04127,W,000.00,063.7,050513,016.8,E,D*20
$PGRME,2.4,M,2.4,M,3.4,M*29
$HCHDG,63.5,0.0,E,,*19
$HCHDG,63.5,0.0,E,,*19
$GPRMC,000050.6,A,4807.01464,N,12245.04127,W,000.00,063.7,050513,016.8,E,D*22
$GPRMB,A,-0.00,L,Ptm,Ptm,4807.0330,N,12244.9520,W,0.1,89,0.00,V*13
$YXXDR,A,3.6,D,PTCH,A,-1.9,D,ROLL*7D
$PGRME,2.4,M,2.4,M,3.4,M*29
$HCHDG,63.5,0.0,E,,*19
$HCHDG,63.3,0.0,E,,*1F
$GPRMC,000050.8,A,4807.01464,N,12245.04127,W,000.01,063.7,050513,016.8,E,D*2D
$PGRME,2.4,M,2.4,M,3.4,M*29
$HCHDG,63.3,0.0,E,,*1F
$HCHDG,63.3,0.0,E,,*1F
$GPRMC,000051.0,A,4807.01464,N,12245.04127,W,000.01,063.7,050513,016.8,E,D*24
$PGRME,2.4,M,2.4,M,3.4,M*29
$HCHDG,63.4,0.0,E,,*18
$YXXDR,A,3.6,D,PTCH,A,-1.5,D,ROLL*71
$PTAK,FFD1,1.5*51
$HCHDG,63.3,0.0,E,,*1F
$GPRMC,000051.2,A,4807.01464,N,12245.04127,W,000.01,063.7,050513,016.8,E,D*26
$PGRME,2.4,M,2.4,M,3.4,M*29
$HCHDG,63.3,0.0,E,,*1F
$HCHDG,63.1,0.0,E,,*1D
$GPRMC,000051.4,A,4807.01464,N,12245.04128,W,000.01,063.7,050513,016.8,E,D*2F
$PGRME,2.4,M,2.4,M,3.4,M*29
$HCHDG,63.2,0.0,E,,*1E
$HCHDG,63.2,0.0,E,,*1E
$YXXDR,A,3.6,D,PTCH,A,-0.4,D,ROLL*71
$GPRMC,000051.6,A,4807.01464,N,12245.04128,W,000.01,063.7,050513,016.8,E,D*2D
$GPRMB,A,-0.00,L,Ptm,Ptm,4807.0330,N,12244.9520,W,0.1,89,0.01,V*12
$PGRME,2.4,M,2.4,M,3.4,M*29
$HCHDG,63.2,0.0,E,,*1E
$HCHDG,63.2,0.0,E,,*1E
$GPRMC,000051.8,A,4807.01464,N,12245.04128,W,000.00,063.7,050513,016.8,E,D*22
$PGRME,2.4,M,2.4,M,3.4,M*29
$HCHDG,63.2,0.0,E,,*1E
$HCHDG,63.3,0.0,E,,*1F
$GPRMC,000052.0,A,4807.01464,N,12245.04128,W,000.01,063.7,050513,016.8,E,D*28
$PGRME,2.4,M,2.4,M,3.4,M*29
$HCHDG,63.3,0.0,E,,*1F
$YXXDR,A,3.8,D,PTCH,A,0.1,D,ROLL*57
$HCHDG,63.2,0.0,E,,*1E
$GPRMC,000052.2,A,4807.01464,N,12245.04128,W,000.01,063.7,050513,016.8,E,D*2A
$PGRME,2.4,M,2.4,M,3.4,M*29
$HCHDG,63.1,0.0,E,,*1D
$HCHDG,63.3,0.0,E,,*1F
$GPRMC,000052.4,A,4807.01464,N,12245.04128,W,000.01,063.7,050513,016.8,E,D*2C
$PGRME,2.4,M,2.4,M,3.4,M*29
$HCHDG,63.3,0.0,E,,*1F
$HCHDG,63.3,0.0,E,,*1F
$GPRMC,000052.6,A,4807.01464,N,12245.04128,W,000.00,063.7,050513,016.8,E,D*2F
$YXXDR,A,3.6,D,PTCH,A,0.3,D,ROLL*5B
$PTAK,FFD1,0.3*56
$PGRME,2.4,M,2.4,M,3.4,M*29
$HCHDG,63.2,0.0,E,,*1E
$HCHDG,63.2,0.0,E,,*1E
$GPRMC,000052.8,A,4807.01464,N,12245.04128,W,000.01,063.7,050513,016.8,E,D*20
$GPRMB,A,-0.00,L,Ptm,Ptm,4807.0330,N,12244.9520,W,0.1,89,0.01,V*12
$PGRME,2.4,M,2.4,M,3.4,M*29
$HCHDG,63.2,0.0,E,,*1E
$HCHDG,63.0,0.0,E,,*1C
$GPRMC,000053.0,A,4807.01464,N,12245.04128,W,000.00,063.7,050513,016.8,E,D*28
$PGRME,2.4,M,2.4,M,3.4,M*29
$HCHDG,63.1,0.0,E,,*1D
$YXXDR,A,3.8,D,PTCH,A,-0.3,D,ROLL*78
$HCHDG,63.1,0.0,E,,*1D
$GPRMC,000053.2,A,4807.01464,N,12245.04128,W,000.01,063.7,050513,016.8,E,D*2B
$PGRME,2.4,M,2.4,M,3.4,M*29
$HCHDG,62.9,0.0,E,,*14
$HCHDG,63.0,0.0,E,,*1C
$GPRMC,000053.4,A,4807.01464,N,12245.04128,W,000.00,063.7,050513,016.8,E,D*2C
$PGRME,2.4,M,2.4,M,3.4,M*29
$HCHDG,63.3,0.0,E,,*1F
$HCHDG,63.2,0.0,E,,*1E
$GPRMC,000053.6,A,4807.01464,N,12245.04128,W,000.00,063.7,050513,016.8,E,D*2E
$YXXDR,A,3.6,D,PTCH,A,-0.7,D,ROLL*72
$PTAK,FFD1,0.7*52
$PGRME,2.4,M,2.4,M,3.4,M*29
$HCHDG,63.1,0.0,E,,*1D
$HCHDG,63.2,0.0,E,,*1E
$PTAK,FFP1,HEEL,@*07
$GPRMC,000053.8,A,4807.01464,N,12245.04128,W,000.00,063.7,050513,016.8,E,D*20
$GPRMB,A,-0.00,L,Ptm,Ptm,4807.0330,N,12244.9520,W,0.1,89,0.00,V*13
$PGRME,2.4,M,2.4,M,3.4,M*29
$HCHDG,63.1,0.0,E,,*1D
$HCHDG,63.1,0.0,E,,*1D
$GPRMC,000054.0,A,4807.01464,N,12245.04128,W,000.00,063.7,050513,016.8,E,D*2F
$PGRME,2.4,M,2.4,M,3.4,M*29
$HCHDG,63.3,0.0,E,,*1F
$YXXDR,A,3.4,D,PTCH,A,-1.5,D,ROLL*73
$HCHDG,63.4,0.0,E,,*18
$GPRMC,000054.2,A,4807.01464,N,12245.04128,W,000.00,063.7,050513,016.8,E,D*2D
$PGRME,2.4,M,2.4,M,3.4,M*29
$HCHDG,63.4,0.0,E,,*18
$HCHDG,63.4,0.0,E,,*18
$GPRMC,000054.4,A,4807.01464,N,12245.04128,W,000.01,063.7,050513,016.8,E,D*2A
$PGRME,2.4,M,2.4,M,3.4,M*29
$HCHDG,63.5,0.0,E,,*19
$HCHDG,63.4,0.0,E,,*18
$GPRMC,000054.6,A,4807.01464,N,12245.04128,W,000.01,063.7,050513,016.8,E,D*28
$YXXDR,A,3.5,D,PTCH,A,-1.7,D,ROLL*70
$PTAK,FFD1,1.7*53
$PGRME,2.4,M,2.4,M,3.4,M*29
$HCHDG,63.4,0.0,E,,*18
$HCHDG,63.5,0.0,E,,*19
$GPRMC,000054.8,A,4807.01464,N,12245.04128,W,000.01,063.7,050513,016.8,E,D*26
$GPRMB,A,-0.00,L,Ptm,Ptm,4807.0330,N,12244.9520,W,0.1,89,0.01,V*12
$PGRME,2.4,M,2.4,M,3.4,M*29
$HCHDG,63.4,0.0,E,,*18
$HCHDG,63.3,0.0,E,,*1F
$GPRMC,000055.0,A,4807.01463,N,12245.04128,W,000.01,063.7,050513,016.8,E,D*28
$PGRME,2.4,M,2.4,M,3.4,M*29
$HCHDG,63.3,0.0,E,,*1F
$YXXDR,A,3.7,D,PTCH,A,-1.6,D,ROLL*73
$HCHDG,63.4,0.0,E,,*18
$GPRMC,000055.2,A,4807.01463,N,12245.04128,W,000.01,063.7,050513,016.8,E,D*2A
$PGRME,2.4,M,2.4,M,3.4,M*29
$HCHDG,63.5,0.0,E,,*19
$HCHDG,63.4,0.0,E,,*18
$GPRMC,000055.4,A,4807.01463,N,12245.04128,W,000.01,063.7,050513,016.8,E,D*2C
$PGRME,2.4,M,2.4,M,3.4,M*29
$HCHDG,63.5,0.0,E,,*19
$HCHDG,63.5,0.0,E,,*19
$YXXDR,A,3.8,D,PTCH,A,-1.1,D,ROLL*7B
$GPRMC,000055.6,A,4807.01464,N,12245.04128,W,000.00,063.7,050513,016.8,E,D*28
$PGRME,2.4,M,2.4,M,3.4,M*29
$HCHDG,63.5,0.0,E,,*19
$HCHDG,63.5,0.0,E,,*19
$GPRMC,000055.8,A,4807.01464,N,12245.04128,W,000.01,063.7,050513,016.8,E,D*27
$GPRMB,A,-0.00,L,Ptm,Ptm,4807.0330,N,12244.9520,W,0.1,89,0.01,V*12
$PGRME,2.4,M,2.4,M,3.4,M*29
$HCHDG,63.5,0.0,E,,*19
$HCHDG,63.5,0.0,E,,*19
$GPRMC,000056.0,A,4807.01464,N,12245.04128,W,000.00,063.7,050513,016.8,E,D*2D
$PGRME,2.4,M,2.4,M,3.4,M*29
$HCHDG,63.4,0.0,E,,*18
$YXXDR,A,3.8,D,PTCH,A,-1.0,D,ROLL*7A
$PTAK,FFD1,1.0*54
$HCHDG,63.3,0.0,E,,*1F
$GPRMC,000056.2,A,4807.01464,N,12245.04128,W,000.01,063.7,050513,016.8,E,D*2E
$PGRME,2.4,M,2.4,M,3.4,M*29
$HCHDG,63.3,0.0,E,,*1F
$HCHDG,63.2,0.0,E,,*1E
$GPRMC,000056.4,A,4807.01464,N,12245.04129,W,000.01,063.7,050513,016.8,E,D*29
$PGRME,2.4,M,2.4,M,3.4,M*29
$HCHDG,63.3,0.0,E,,*1F
$HCHDG,63.2,0.0,E,,*1E
$YXXDR,A,4.0,D,PTCH,A,-0.4,D,ROLL*70
$GPRMC,000056.6,A,4807.01464,N,12245.04129,W,000.01,063.7,050513,016.8,E,D*2B
$PGRME,2.4,M,2.4,M,3.4,M*29
$HCHDG,63.2,0.0,E,,*1E
$HCHDG,63.3,0.0,E,,*1F
$GPRMC,000056.8,A,4807.01464,N,12245.04129,W,000.01,063.7,050513,016.8,E,D*25
$PGRME,2.4,M,2.4,M,3.4,M*29
$HCHDG,63.2,0.0,E,,*1E
$HCHDG,63.2,0.0,E,,*1E
$GPRMC,000057.0,A,4807.01464,N,12245.04129,W,000.00,063.7,050513,016.8,E,D*2D
$GPRMB,A,-0.00,L,Ptm,Ptm,4807.0330,N,12244.9520,W,0.1,89,0.00,V*13
$PGRME,2.4,M,2.4,M,3.4,M*29
$HCHDG,63.1,0.0,E,,*1D
$YXXDR,A,3.9,D,PTCH,A,-0.4,D,ROLL*7E
$PTAK,FFD1,0.4*51
$HCHDG,63.1,0.0,E,,*1D
$GPRMC,000057.2,A,4807.01464,N,12245.04129,W,000.00,063.7,050513,016.8,E,D*2F
$PGRME,2.4,M,2.4,M,3.4,M*29
$HCHDG,63.0,0.0,E,,*1C
$HCHDG,63.0,0.0,E,,*1C
$GPRMC,000057.4,A,4807.01464,N,12245.04129,W,000.01,063.7,050513,016.8,E,D*28
$PGRME,2.4,M,2.4,M,3.4,M*29
$HCHDG,62.9,0.0,E,,*14
$HCHDG,62.9,0.0,E,,*14
$YXXDR,A,3.8,D,PTCH,A,-0.7,D,ROLL*7C
$GPRMC,000057.6,A,4807.01464,N,12245.04129,W,000.01,063.7,050513,016.8,E,D*2A
$PGRME,2.4,M,2.4,M,3.4,M*29
$HCHDG,62.9,0.0,E,,*14
$PTAK,FFP1,HEEL,@*07
$HCHDG,62.9,0.0,E,,*14
$GPRMC,000057.8,A,4807.01464,N,12245.04129,W,000.01,063.7,050513,016.8,E,D*24
$PGRME,2.4,M,2.4,M,3.4,M*29
$HCHDG,62.8,0.0,E,,*15
$HCHDG,62.8,0.0,E,,*15
$GPRMC,000058.0,A,4807.01464,N,12245.04129,W,000.01,063.7,050513,016.8,E,D*23
$PGRME,2.4,M,2.4,M,3.4,M*29
$HCHDG,62.7,0.0,E,,*1A
$YXXDR,A,3.8,D,PTCH,A,-1.0,D,ROLL*7A
$HCHDG,62.8,0.0,E,,*15
$GPRMC,000058.2,A,4807.01464,N,12245.04129,W,000.01,063.7,050513,016.8,E,D*21
$GPRMB,A,-0.00,L,Ptm,Ptm,4807.0330,N,12244.9520,W,0.1,89,0.01,V*12
$PGRME,2.4,M,2.4,M,3.4,M*29
$HCHDG,62.7,0.0,E,,*1A
$HCHDG,62.7,0.0,E,,*1A
$GPRMC,000058.4,A,4807.01464,N,12245.04129,W,000.01,063.7,050513,016.8,E,D*27
$PGRME,2.4,M,2.4,M,3.4,M*29
$HCHDG,62.7,0.0,E,,*1A
$HCHDG,62.7,0.0,E,,*1A
$YXXDR,A,3.9,D,PTCH,A,-0.6,D,ROLL*7C
$PTAK,FFD1,0.6*53
$GPRMC,000058.6,A,4807.01464,N,12245.04129,W,000.01,063.7,050513,016.8,E,D*25
$PGRME,2.4,M,2.4,M,3.4,M*29
$HCHDG,62.8,0.0,E,,*15
$HCHDG,62.7,0.0,E,,*1A
$GPRMC,000058.8,A,4807.01464,N,12245.04129,W,000.01,063.7,050513,016.8,E,D*2B
$PGRME,2.4,M,2.4,M,3.4,M*29
$HCHDG,62.8,0.0,E,,*15
$HCHDG,62.8,0.0,E,,*15
$GPRMC,000059.0,A,4807.01464,N,12245.04129,W,000.01,063.7,050513,016.8,E,D*22
$PGRME,2.4,M,2.4,M,3.4,M*29
$HCHDG,62.8,0.0,E,,*15
$YXXDR,A,3.8,D,PTCH,A,-0.7,D,ROLL*7C
$HCHDG,62.8,0.0,E,,*15
$GPRMC,000059.2,A,4807.01464,N,12245.04129,W,000.01,063.7,050513,016.8,E,D*20
$PGRME,2.4,M,2.4,M,3.4,M*29
$HCHDG,62.8,0.0,E,,*15
$HCHDG,62.8,0.0,E,,*15
$GPRMC,000059.4,A,4807.01464,N,12245.04129,W,000.00,063.7,050513,016.8,E,D*27
$GPRMB,A,-0.00,L,Ptm,Ptm,4807.0330,N,12244.9520,W,0.1,89,0.00,V*13
$PGRME,2.4,M,2.4,M,3.4,M*29
$HCHDG,62.9,0.0,E,,*14
$HCHDG,62.9,0.0,E,,*14
$YXXDR,A,3.8,D,PTCH,A,-0.8,D,ROLL*73
$PTAK,FFD1,0.8*5D
$GPRMC,000059.6,A,4807.01464,N,12245.04129,W,000.01,063.7,050513,016.8,E,D*24
$PGRME,2.4,M,2.4,M,3.4,M*29
$HCHDG,62.9,0.0,E,,*14
$HCHDG,62.9,0.0,E,,*14
$GPRMC,000059.8,A,4807.01464,N,12245.04129,W,000.00,063.7,050513,016.8,E,D*2B
$PGRME,2.4,M,2.4,M,3.4,M*29
$HCHDG,62.9,0.0,E,,*14
$HCHDG,62.9,0.0,E,,*14
$GPRMC,000100.0,A,4807.01464,N,12245.04129,W,000.00,063.7,050513,016.8,E,D*2E
$PGRME,2.4,M,2.4,M,3.4,M*29
$HCHDG,62.8,0.0,E,,*15
$YXXDR,A,3.9,D,PTCH,A,-0.9,D,ROLL*73
$HCHDG,62.8,0.0,E,,*15
$GPRMC,000100.2,A,4807.01464,N,12245.04129,W,000.01,063.7,050513,016.8,E,D*2D
$PGRME,2.4,M,2.4,M,3.4,M*29
$HCHDG,62.8,0.0,E,,*15
$HCHDG,62.7,0.0,E,,*1A
$GPRMC,000100.4,A,4807.01464,N,12245.04129,W,000.01,063.7,050513,016.8,E,D*2B
$PGRME,2.4,M,2.4,M,3.4,M*29
$HCHDG,62.8,0.0,E,,*15
$HCHDG,62.8,0.0,E,,*15
$YXXDR,A,3.8,D,PTCH,A,-1.0,D,ROLL*7A
$GPRMC,000100.6,A,4807.01464,N,12245.04129,W,000.01,063.7,050513,016.8,E,D*29
$GPRMB,A,-0.00,L,Ptm,Ptm,4807.0330,N,12244.9520,W,0.1,89,0.01,V*12
$PGRME,2.4,M,2.4,M,3.4,M*29
$HCHDG,62.6,0.0,E,,*1B
$HCHDG,62.6,0.0,E,,*1B
$GPRMC,000100.8,A,4807.01464,N,12245.04129,W,000.01,063.7,050513,016.8,E,D*27
$PGRME,2.4,M,2.4,M,3.4,M*29
$HCHDG,62.7,0.0,E,,*1A
$HCHDG,62.7,0.0,E,,*1A
$GPRMC,000101.0,A,4807.01464,N,12245.04129,W,000.01,063.7,050513,016.8,E,D*2E
$PGRME,2.4,M,2.4,M,3.4,M*29
$HCHDG,62.7,0.0,E,,*1A
$YXXDR,A,3.9,D,PTCH,A,-1.2,D,ROLL*79
$PTAK,FFD1,1.2*56
$HCHDG,62.7,0.0,E,,*1A
$GPRMC,000101.2,A,4807.01464,N,12245.04129,W,000.01,063.7,050513,016.8,E,D*2C
$PGRME,2.4,M,2.4,M,3.4,M*29
$HCHDG,62.8,0.0,E,,*15
$HCHDG,62.8,0.0,E,,*15
$GPRMC,000101.4,A,4807.01464,N,12245.04129,W,000.01,063.7,050513,016.8,E,D*2A
$PGRME,2.4,M,2.4,M,3.4,M*29
$HCHDG,62.7,0.0,E,,*1A
$HCHDG,62.7,0.0,E,,*1A
$GPRMC,000101.6,A,4807.01464,N,12245.04129,W,000.00,063.7,050513,016.8,E,D*29
$YXXDR,A,3.9,D,PTCH,A,-1.3,D,ROLL*78
$PGRME,2.4,M,2.4,M,3.4,M*29
$HCHDG,62.7,0.0,E,,*1A
$HCHDG,62.8,0.0,E,,*15
$PTAK,FFP1,HEEL,@*07
$GPRMC,000101.8,A,4807.01464,N,12245.04129,W,000.01,063.7,050513,016.8,E,D*26
$GPRMB,A,-0.00,L,Ptm,Ptm,4807.0330,N,12244.9520,W,0.1,89,0.01,V*12
$PGRME,2.4,M,2.4,M,3.4,M*29
$HCHDG,62.8,0.0,E,,*15
$HCHDG,62.7,0.0,E,,*1A
$GPRMC,000102.0,A,4807.01464,N,12245.04129,W,000.01,063.7,050513,016.8,E,D*2D
$PGRME,2.4,M,2.4,M,3.4,M*29
$HCHDG,62.7,0.0,E,,*1A
$YXXDR,A,3.7,D,PTCH,A,-1.5,D,ROLL*70
$PTAK,FFD1,1.5*51
$HCHDG,62.7,0.0,E,,*1A
$GPRMC,000102.2,A,4807.01464,N,12245.04129,W,000.00,063.7,050513,016.8,E,D*2E
$PGRME,2.4,M,2.4,M,3.4,M*29
$HCHDG,62.8,0.0,E,,*15
$HCHDG,62.8,0.0,E,,*15
$GPRMC,000102.4,A,4807.01464,N,12245.04129,W,000.01,063.7,050513,016.8,E,D*29
$PGRME,2.4,M,2.4,M,3.4,M*29
$HCHDG,62.9,0.0,E,,*14
$HCHDG,62.9,0.0,E,,*14
$YXXDR,A,3.8,D,PTCH,A,-1.2,D,ROLL*78
$GPRMC,000102.6,A,4807.01464,N,12245.04129,W,000.00,063.7,050513,016.8,E,D*2A
$PGRME,2.4,M,2.4,M,3.4,M*29
$HCHDG,62.9,0.0,E,,*14
$HCHDG,62.9,0.0,E,,*14
$GPRMC,000102.8,A,4807.01464,N,12245.04129,W,000.01,063.7,050513,016.8,E,D*25
$PGRME,2.4,M,2.4,M,3.4,M*29
$HCHDG,63.0,0.0,E,,*1C
$HCHDG,63.0,0.0,E,,*1C
$GPRMC,000103.0,A,4807.01464,N,12245.04129,W,000.01,063.7,050513,016.8,E,D*2C
$GPRMB,A,-0.00,L,Ptm,Ptm,4807.0330,N,12244.9520,W,0.1,89,0.01,V*12
$PGRME,2.4,M,2.4,M,3.4,M*29
$HCHDG,62.9,0.0,E,,*14
$YXXDR,A,3.9,D,PTCH,A,-1.4,D,ROLL*7F
$PTAK,FFD1,1.4*50
$HCHDG,62.9,0.0,E,,*14
$GPRMC,000103.2,A,4807.01464,N,12245.04129,W,000.01,063.7,050513,016.8,E,D*2E
$PGRME,2.4,M,2.4,M,3.4,M*29
$HCHDG,62.9,0.0,E,,*14
$HCHDG,62.9,0.0,E,,*14
$GPRMC,000103.4,A,4807.01464,N,12245.04129,W,000.01,063.7,050513,016.8,E,D*28
$PGRME,2.4,M,2.4,M,3.4,M*29
$HCHDG,62.9,0.0,E,,*14
$HCHDG,62.9,0.0,E,,*14
$GPRMC,000103.6,A,4807.01464,N,12245.04129,W,000.01,063.7,050513,016.8,E,D*2A
$YXXDR,A,3.8,D,PTCH,A,-1.6,D,ROLL*7C
$PGRME,2.4,M,2.4,M,3.4,M*29
$HCHDG,62.9,0.0,E,,*14
$HCHDG,62.9,0.0,E,,*14
$GPRMC,000103.8,A,4807.01464,N,12245.04129,W,000.01,063.7,050513,016.8,E,D*24
$PGRME,2.4,M,2.4,M,3.4,M*29
$HCHDG,63.1,0.0,E,,*1D
$HCHDG,63.1,0.0,E,,*1D
$GPRMC,000104.0,A,4807.01464,N,12245.04130,W,000.01,063.7,050513,016.8,E,D*23
$PGRME,2.4,M,2.4,M,3.4,M*29
$HCHDG,63.1,0.0,E,,*1D
$YXXDR,A,3.7,D,PTCH,A,-1.5,D,ROLL*70
$HCHDG,63.1,0.0,E,,*1D
$GPRMC,000104.2,A,4807.01464,N,12245.04130,W,000.01,063.7,050513,016.8,E,D*21
$GPRMB,A,-0.00,L,Ptm,Ptm,4807.0330,N,12244.9520,W,0.1,89,0.01,V*12
$PGRME,2.4,M,2.4,M,3.4,M*29
$HCHDG,63.1,0.0,E,,*1D
$HCHDG,63.1,0.0,E,,*1D
$GPRMC,000104.4,A,4807.01464,N,12245.04130,W,000.02,063.7,050513,016.8,E,D*24
$PGRME,2.4,M,2.4,M,3.4,M*29
$HCHDG,63.0,0.0,E,,*1C
$HCHDG,63.0,0.0,E,,*1C
$GPRMC,000104.6,A,4807.01464,N,12245.04130,W,000.01,063.7,050513,016.8,E,D*25
$YXXDR,A,3.8,D,PTCH,A,-1.6,D,ROLL*7C
$PTAK,FFD1,1.6*52
