$GPRMB,A,0.07,L,,M,4741.7720,N,12224.5760,W,0.9,13,0.03,V*7F
$PGRME,3.0,M,5.5,M,6.3,M*28
$HCHDG,266.3,0.0,E,,*28
$PTAK,FFP1,HEEL,@*07
$HCHDG,266.4,0.0,E,,*2F
$GPRMC,161049.6,A,4740.82585,N,12224.47623,W,000.01,000.0,040513,016.6,E,A*2F
$GPRMB,A,0.07,L,,M,4741.7720,N,12224.5760,W,0.9,13,0.01,V*7D
$PGRME,3.0,M,5.4,M,6.2,M*28
$HCHDG,266.4,0.0,E,,*2F
$HCHDG,266.4,0.0,E,,*2F
$GPRMC,161049.8,A,4740.82588,N,12224.47628,W,000.05,000.0,040513,016.6,E,A*23
$PGRME,3.0,M,5.3,M,6.2,M*2F
$YXXDR,A,4.4,D,PTCH,A,-0.3,D,ROLL*73
$PTAK,FFD1,0.3*56
$HCHDG,266.4,0.0,E,,*2F
$HCHDG,266.3,0.0,E,,*28
$GPRMC,161050.0,A,4740.82584,N,12224.47636,W,000.07,000.0,040513,016.6,E,A*22
$IIGLL,4740.826,N,12224.475,W,161000,A,A*4E
$PGRME,3.0,M,5.3,M,6.1,M*2C
$IIMTW,+08.0,C*30
$HCHDG,266.3,0.0,E,,*28
$HCHDG,266.2,0.0,E,,*29
$IIRMC,161000,A,4740.826,N,12224.475,W,00.0,000,040513,16,E,A*16
$GPRMC,161050.2,A,4740.82583,N,12224.47631,W,000.02,000.0,040513,016.6,E,A*25
$PGRME,3.0,M,5.2,M,6.0,M*2C
$IIVHW,,,,,00.0,N,,*19
$HCHDG,266.3,0.0,E,,*28
$IIVLW,06236,N,000.0,N*52
$YXXDR,A,4.3,D,PTCH,A,-0.1,D,ROLL*76
$IIDPT,006.0,-1.0,*46
$HCHDG,266.3,0.0,E,,*28
$GPRMC,161050.4,A,4740.82590,N,12224.47627,W,000.03,000.0,040513,016.6,E,A*27
$PGRME,3.0,M,5.1,M,6.0,M*2F
$IIGLL,4740.826,N,12224.475,W,161000,A,A*4E
$HCHDG,266.2,0.0,E,,*29
$IIMTW,+08.0,C*30
$HCHDG,266.1,0.0,E,,*2A
$GPRMC,161050.6,A,4740.82594,N,12224.47623,W,000.01,000.0,040513,016.6,E,A*27
$PGRME,3.0,M,5.0,M,5.9,M*24
$HCHDG,266.1,0.0,E,,*2A
$HCHDG,266.2,0.0,E,,*29
$GPRMC,161050.8,A,4740.82596,N,12224.47620,W,000.01,000.0,040513,016.6,E,A*28
$PGRME,3.0,M,5.0,M,5.8,M*25
$YXXDR,A,4.2,D,PTCH,A,-0.3,D,ROLL*75
$HCHDG,266.2,0.0,E,,*29
$HCHDG,266.2,0.0,E,,*29
$GPRMC,161051.0,A,4740.82600,N,12224.47619,W,000.01,000.0,040513,016.6,E,A*27
$GPRMB,A,0.07,L,,M,4741.7720,N,12224.5760,W,0.9,13,0.01,V*7D
$PGRME,3.0,M,4.9,M,5.8,M*2D
$HCHDG,266.2,0.0,E,,*29
$IIRMC,161000,A,4740.825,N,12224.476,W,00.0,000,040513,16,E,A*16
$IIVHW,,,,,00.0,N,,*19
$HCHDG,266.2,0.0,E,,*29
$IIVLW,06236,N,000.0,N*52
$GPRMC,161051.2,A,4740.82603,N,12224.47623,W,000.04,000.0,040513,016.6,E,A*2A
$IIDPT,006.0,-1.0,*46
$PGRME,3.0,M,4.8,M,5.7,M*23
$HCHDG,266.2,0.0,E,,*29
$IIGLL,4740.825,N,12224.476,W,161000,A,A*4E
$YXXDR,A,4.3,D,PTCH,A,-0.4,D,ROLL*73
$PTAK,FFD1,0.4*51
$IIMTW,+09.0,C*31
$HCHDG,266.2,0.0,E,,*29
$GPRMC,161051.4,A,4740.82605,N,12224.47622,W,000.05,000.0,040513,016.6,E,A*2A
$PGRME,3.0,M,4.8,M,5.7,M*23
$HCHDG,266.2,0.0,E,,*29
$HCHDG,266.2,0.0,E,,*29
$GPRMC,161051.6,A,4740.82615,N,12224.47615,W,000.03,000.0,040513,016.6,E,A*2B
$PGRME,3.0,M,4.7,M,5.6,M*2D
$HCHDG,266.2,0.0,E,,*29
$HCHDG,266.2,0.0,E,,*29
$GPRMC,161051.8,A,4740.82624,N,12224.47611,W,000.01,000.0,040513,016.6,E,A*21
$PGRME,3.0,M,4.7,M,5.6,M*2D
$YXXDR,A,4.3,D,PTCH,A,-0.3,D,ROLL*74
$HCHDG,266.2,0.0,E,,*29
$HCHDG,266.2,0.0,E,,*29
$GPRMC,161052.0,A,4740.82635,N,12224.47600,W,000.04,000.0,040513,016.6,E,A*2F
$GPRMB,A,0.07,L,,M,4741.7720,N,12224.5760,W,0.9,13,0.03,V*7F
$PGRME,3.0,M,4.6,M,5.5,M*2F
$HCHDG,266.1,0.0,E,,*2A
$IIRMC,161000,A,4740.826,N,12224.476,W,00.0,000,040513,16,E,A*15
$IIVHW,,,,,00.0,N,,*19
$HCHDG,266.2,0.0,E,,*29
$IIVLW,06236,N,000.0,N*52
$GPRMC,161052.2,A,4740.82637,N,12224.47596,W,000.05,000.0,040513,016.6,E,A*22
$PGRME,3.0,M,4.5,M,5.5,M*2C
$IIDPT,006.0,-1.0,*46
$HCHDG,266.2,0.0,E,,*29
$IIGLL,4740.826,N,12224.476,W,161000,A,A*4D
$YXXDR,A,4.5,D,PTCH,A,-0.4,D,ROLL*75
$IIMTW,+08.5,C*35
$HCHDG,266.2,0.0,E,,*29
$GPRMC,161052.4,A,4740.82639,N,12224.47594,W,000.05,000.0,040513,016.6,E,A*28
$PGRME,3.0,M,4.5,M,5.4,M*2D
$HCHDG,266.2,0.0,E,,*29
$HCHDG,266.2,0.0,E,,*29
$GPRMC,161052.6,A,4740.82633,N,12224.47599,W,000.03,000.0,040513,016.6,E,A*2B
$PGRME,3.0,M,4.4,M,5.4,M*2C
$HCHDG,266.2,0.0,E,,*29
$HCHDG,266.2,0.0,E,,*29
$GPRMC,161052.8,A,4740.82622,N,12224.47616,W,000.03,000.0,040513,016.6,E,A*21
$PGRME,3.0,M,4.4,M,5.3,M*2B
$YXXDR,A,4.5,D,PTCH,A,-0.4,D,ROLL*75
$PTAK,FFD1,0.4*51
$HCHDG,266.2,0.0,E,,*29
$HCHDG,266.2,0.0,E,,*29
$GPRMC,161053.0,A,4740.82621,N,12224.47628,W,000.02,000.0,040513,016.6,E,A*27
$GPRMB,A,0.07,L,,M,4741.7720,N,12224.5760,W,0.9,13,0.02,V*7E
$IIRMB,A,0.07,L,,M   ,,,,,000.9,013,,V,A*26
$PGRME,3.0,M,4.3,M,5.3,M*2C
$HCHDG,266.1,0.0,E,,*2A
$IIRMC,161000,A,4740.826,N,12224.475,W,00.0,000,040513,16,E,A*16
$HCHDG,266.1,0.0,E,,*2A
$IIVHW,,,,,00.0,N,,*19
$GPRMC,161053.2,A,4740.82617,N,12224.47633,W,000.04,000.0,040513,016.6,E,A*2C
$PGRME,3.0,M,4.3,M,5.2,M*2D
$IIVLW,06236,N,000.0,N*52
$HCHDG,266.1,0.0,E,,*2A
$IIDPT,006.0,-1.0,*46
$YXXDR,A,4.3,D,PTCH,A,-0.7,D,ROLL*70
$HCHDG,266.1,0.0,E,,*2A
$IIGLL,4740.826,N,12224.475,W,161000,A,A*4E
$GPRMC,161053.4,A,4740.82616,N,12224.47630,W,000.02,000.0,040513,016.6,E,A*2E
$PGRME,3.0,M,4.2,M,5.2,M*2C
$IIMTW,+08.5,C*35
$HCHDG,266.1,0.0,E,,*2A
$HCHDG,266.0,0.0,E,,*2B
$GPRMC,161053.6,A,4740.82619,N,12224.47624,W,000.03,000.0,040513,016.6,E,A*27
$PGRME,3.0,M,4.2,M,5.2,M*2C
$HCHDG,265.9,0.0,E,,*21
$HCHDG,265.9,0.0,E,,*21
$GPRMC,161053.8,A,4740.82627,N,12224.47618,W,000.05,000.0,040513,016.6,E,A*2D
$PGRME,3.0,M,4.1,M,5.1,M*2C
$YXXDR,A,4.2,D,PTCH,A,-0.5,D,ROLL*73
$PTAK,FFP1,HEEL,@*07
$HCHDG,265.9,0.0,E,,*21
$HCHDG,266.0,0.0,E,,*2B
$GPRMC,161054.0,A,4740.82628,N,12224.47621,W,000.02,000.0,040513,016.6,E,A*20
$IIRMB,A,0.07,L,,M   ,,,,,000.9,013,,V,A*26
$PGRME,3.0,M,4.1,M,5.1,M*2C
$HCHDG,266.0,0.0,E,,*2B
$IIRMC,161000,A,4740.826,N,12224.476,W,00.0,000,040513,16,E,A*15
$HCHDG,266.0,0.0,E,,*2B
$IIVHW,,,,,00.0,N,,*19
$GPRMC,161054.2,A,4740.82634,N,12224.47618,W,000.00,000.0,040513,016.6,E,A*27
$GPRMB,A,0.07,L,,M,4741.7720,N,12224.5760,W,0.9,13,0.00,V*7C
$PGRME,3.0,M,4.0,M,5.1,M*2D
$IIVLW,06236,N,000.0,N*52
$HCHDG,266.0,0.0,E,,*2B
$IIDPT,006.2,-1.0,*44
$YXXDR,A,4.3,D,PTCH,A,-0.5,D,ROLL*72
$PTAK,FFD1,0.5*50
$HCHDG,266.0,0.0,E,,*2B
$IIGLL,4740.826,N,12224.476,W,161000,A,A*4D
$GPRMC,161054.4,A,4740.82634,N,12224.47623,W,000.02,000.0,040513,016.6,E,A*2B
$PGRME,3.0,M,4.0,M,5.0,M*2C
$IIMTW,+09.0,C*31
$HCHDG,266.0,0.0,E,,*2B
$HCHDG,266.0,0.0,E,,*2B
$GPRMC,161054.6,A,4740.82639,N,12224.47625,W,000.05,000.0,040513,016.6,E,A*25
$PGRME,3.0,M,4.0,M,5.0,M*2C
$HCHDG,266.1,0.0,E,,*2A
$HCHDG,266.1,0.0,E,,*2A
$GPRMC,161054.8,A,4740.82640,N,12224.47627,W,000.02,000.0,040513,016.6,E,A*20
$PGRME,3.0,M,3.9,M,5.0,M*22
$YXXDR,A,4.3,D,PTCH,A,-0.6,D,ROLL*71
$HCHDG,266.1,0.0,E,,*2A
$HCHDG,266.0,0.0,E,,*2B
$GPRMC,161055.0,A,4740.82647,N,12224.47628,W,000.06,000.0,040513,016.6,E,A*25
$PGRME,3.0,M,3.9,M,4.9,M*2A
$IIRMB,A,0.07,L,,M   ,,,,,000.9,013,,V,A*26
$HCHDG,266.0,0.0,E,,*2B
$IIRMC,161000,A,4740.826,N,12224.476,W,00.0,000,040513,16,E,A*15
$HCHDG,266.0,0.0,E,,*2B
$IIVHW,,,,,00.0,N,,*19
$GPRMC,161055.2,A,4740.82651,N,12224.47627,W,000.03,000.0,040513,016.6,E,A*2A
$GPRMB,A,0.07,L,,M,4741.7720,N,12224.5760,W,0.9,13,0.03,V*7F
$PGRME,3.0,M,3.8,M,4.9,M*2B
$IIVLW,06236,N,000.0,N*52
$HCHDG,266.0,0.0,E,,*2B
$IIDPT,006.2,-1.0,*44
$YXXDR,A,4.6,D,PTCH,A,-0.7,D,ROLL*75
$PTAK,FFD1,0.7*52
$HCHDG,266.0,0.0,E,,*2B
$IIGLL,4740.826,N,12224.476,W,161000,A,A*4D
$GPRMC,161055.4,A,4740.82653,N,12224.47627,W,000.04,000.0,040513,016.6,E,A*29
$PGRME,3.0,M,3.8,M,4.9,M*2B
$IIMTW,+08.0,C*30
$HCHDG,266.0,0.0,E,,*2B
$HCHDG,266.0,0.0,E,,*2B
$GPRMC,161055.6,A,4740.82652,N,12224.47625,W,000.02,000.0,040513,016.6,E,A*2E
$PGRME,3.0,M,3.8,M,4.8,M*2A
$HCHDG,266.0,0.0,E,,*2B
$HCHDG,266.0,0.0,E,,*2B
$GPRMC,161055.8,A,4740.82658,N,12224.47625,W,000.03,000.0,040513,016.6,E,A*2B
$PGRME,3.0,M,3.7,M,4.8,M*25
$YXXDR,A,4.3,D,PTCH,A,-0.7,D,ROLL*70
$HCHDG,266.0,0.0,E,,*2B
$HCHDG,266.1,0.0,E,,*2A
$GPRMC,161056.0,A,4740.82667,N,12224.47628,W,000.07,000.0,040513,016.6,E,A*25
$PGRME,3.0,M,3.7,M,4.8,M*25
$IIRMB,A,0.07,L,,M   ,,,,,000.9,013,,V,A*26
$HCHDG,266.0,0.0,E,,*2B
$IIRMC,161000,A,4740.826,N,12224.476,W,00.0,000,040513,16,E,A*15
$HCHDG,266.0,0.0,E,,*2B
$IIVHW,,,,,00.0,N,,*19
$GPRMC,161056.2,A,4740.82666,N,12224.47626,W,000.03,000.0,040513,016.6,E,A*2C
$PGRME,3.0,M,3.7,M,4.8,M*25
$IIVLW,06236,N,000.0,N*52
$HCHDG,265.8,0.0,E,,*20
$IIDPT,006.2,-1.0,*44
$YXXDR,A,4.3,D,PTCH,A,-0.6,D,ROLL*71
$HCHDG,265.8,0.0,E,,*20
$IIGLL,4740.826,N,12224.476,W,161000,A,A*4D
$GPRMC,161056.4,A,4740.82663,N,12224.47634,W,000.05,000.0,040513,016.6,E,A*2A
$GPRMB,A,0.07,L,,M,4741.7720,N,12224.5760,W,0.9,13,0.04,V*78
$PGRME,3.0,M,3.6,M,4.7,M*2B
$IIMTW,+08.0,C*30
$HCHDG,265.8,0.0,E,,*20
$HCHDG,265.8,0.0,E,,*20
$GPRMC,161056.6,A,4740.82653,N,12224.47641,W,000.03,000.0,040513,016.6,E,A*2F
$PGRME,3.0,M,3.6,M,4.7,M*2B
$HCHDG,265.8,0.0,E,,*20
$HCHDG,265.8,0.0,E,,*20
$GPRMC,161056.8,A,4740.82646,N,12224.47646,W,000.02,000.0,040513,016.6,E,A*23
$PGRME,3.0,M,3.5,M,4.7,M*28
$YXXDR,A,4.2,D,PTCH,A,-0.2,D,ROLL*74
$PTAK,FFD1,0.2*57
$HCHDG,265.9,0.0,E,,*21
$HCHDG,265.9,0.0,E,,*21
$GPRMC,161057.0,A,4740.82644,N,12224.47653,W,000.02,000.0,040513,016.6,E,A*2C
$IIRMB,A,0.07,L,,M   ,,,,,000.9,013,,V,A*26
$PGRME,3.0,M,3.5,M,4.7,M*28
$HCHDG,266.2,0.0,E,,*29
$IIRMC,161000,A,4740.826,N,12224.476,W,00.0,000,040513,16,E,A*15
$HCHDG,266.2,0.0,E,,*29
$IIVHW,,,,,00.0,N,,*19
$GPRMC,161057.2,A,4740.82641,N,12224.47660,W,000.04,000.0,040513,016.6,E,A*2D
$PGRME,3.0,M,3.5,M,4.6,M*29
$IIVLW,06236,N,000.0,N*52
$HCHDG,266.2,0.0,E,,*29
$IIDPT,006.2,-1.0,*44
$YXXDR,A,4.3,D,PTCH,A,-0.5,D,ROLL*72
$HCHDG,266.2,0.0,E,,*29
$IIGLL,4740.826,N,12224.476,W,161000,A,A*4D
$GPRMC,161057.4,A,4740.82640,N,12224.47663,W,000.04,000.0,040513,016.6,E,A*29
$GPRMB,A,0.07,L,,M,4741.7720,N,12224.5760,W,0.9,13,0.03,V*7F
$PGRME,3.0,M,3.5,M,4.6,M*29
$IIMTW,+09.0,C*31
$HCHDG,266.2,0.0,E,,*29
$HCHDG,266.1,0.0,E,,*2A
$GPRMC,161057.6,A,4740.82639,N,12224.47658,W,000.04,000.0,040513,016.6,E,A*2D
$PGRME,3.0,M,3.4,M,4.6,M*28
$HCHDG,266.1,0.0,E,,*2A
$HCHDG,266.1,0.0,E,,*2A
$GPRMC,161057.8,A,4740.82640,N,12224.47659,W,000.05,000.0,040513,016.6,E,A*2D
$PGRME,3.0,M,3.4,M,4.6,M*28
$YXXDR,A,4.3,D,PTCH,A,-0.3,D,ROLL*74
$PTAK,FFD1,0.3*56
$PTAK,FFP1,HEEL,@*07
$HCHDG,266.1,0.0,E,,*2A
$HCHDG,266.1,0.0,E,,*2A
$GPRMC,161058.0,A,4740.82638,N,12224.47657,W,000.05,000.0,040513,016.6,E,A*2B
$IIRMB,A,0.07,L,,M   ,,,,,000.9,013,,V,A*26
$PGRME,3.0,M,3.4,M,4.5,M*2B
$HCHDG,266.2,0.0,E,,*29
$IIRMC,161000,A,4740.826,N,12224.476,W,00.0,000,040513,16,E,A*15
$HCHDG,266.1,0.0,E,,*2A
$IIVHW,,,,,00.0,N,,*19
$GPRMC,161058.2,A,4740.82637,N,12224.47655,W,000.03,000.0,040513,016.6,E,A*22
$PGRME,3.0,M,3.3,M,4.5,M*2C
$IIVLW,06236,N,000.0,N*52
$HCHDG,266.1,0.0,E,,*2A
$IIDPT,006.2,-1.0,*44
$YXXDR,A,4.3,D,PTCH,A,-0.4,D,ROLL*73
$IIGLL,4740.826,N,12224.476,W,161000,A,A*4D
$HCHDG,266.1,0.0,E,,*2A
$GPRMC,161058.4,A,4740.82640,N,12224.47655,W,000.02,000.0,040513,016.6,E,A*25
$GPRMB,A,0.07,L,,M,4741.7720,N,12224.5760,W,0.9,13,0.02,V*7E
$PGRME,3.0,M,3.3,M,4.5,M*2C
$IIMTW,+08.5,C*35
$HCHDG,266.1,0.0,E,,*2A
$HCHDG,266.1,0.0,E,,*2A
$GPRMC,161058.6,A,4740.82643,N,12224.47653,W,000.02,000.0,040513,016.6,E,A*22
$PGRME,3.0,M,3.3,M,4.5,M*2C
$HCHDG,266.1,0.0,E,,*2A
$HCHDG,265.9,0.0,E,,*21
$GPRMC,161058.8,A,4740.82644,N,12224.47647,W,000.06,000.0,040513,016.6,E,A*2A
$PGRME,3.0,M,3.3,M,4.5,M*2C
$YXXDR,A,4.3,D,PTCH,A,-0.4,D,ROLL*73
$HCHDG,265.9,0.0,E,,*21
$HCHDG,265.9,0.0,E,,*21
$GPRMC,161059.0,A,4740.82645,N,12224.47643,W,000.00,000.0,040513,016.6,E,A*20
$PGRME,3.0,M,3.2,M,4.4,M*2C
$IIRMB,A,0.07,L,,M   ,,,,,000.9,013,,V,A*26
$HCHDG,265.9,0.0,E,,*21
$IIRMC,161000,A,4740.826,N,12224.476,W,00.0,000,040513,16,E,A*15
$HCHDG,266.0,0.0,E,,*2B
$IIVHW,,,,,00.0,N,,*19
$GPRMC,161059.2,A,4740.82641,N,12224.47642,W,000.03,000.0,040513,016.6,E,A*24
$PGRME,3.0,M,3.2,M,4.4,M*2C
$IIVLW,06236,N,000.0,N*52
$HCHDG,266.0,0.0,E,,*2B
$IIDPT,006.2,-1.0,*44
$YXXDR,A,4.3,D,PTCH,A,-0.4,D,ROLL*73
$PTAK,FFD1,0.4*51
$HCHDG,266.0,0.0,E,,*2B
$IIGLL,4740.826,N,12224.476,W,161000,A,A*4D
$GPRMC,161059.4,A,4740.82638,N,12224.47647,W,000.03,000.0,040513,016.6,E,A*29
$PGRME,3.0,M,3.2,M,4.4,M*2C
$IIMTW,+08.5,C*35
$HCHDG,266.0,0.0,E,,*2B
$HCHDG,266.1,0.0,E,,*2A
$GPRMC,161059.6,A,4740.82635,N,12224.47653,W,000.02,000.0,040513,016.6,E,A*22
$GPRMB,A,0.07,L,,M,4741.7720,N,12224.5760,W,0.9,13,0.02,V*7E
$PGRME,3.0,M,3.2,M,4.4,M*2C
$HCHDG,265.8,0.0,E,,*20
$HCHDG,265.8,0.0,E,,*20
$GPRMC,161059.8,A,4740.82634,N,12224.47649,W,000.05,000.0,040513,016.6,E,A*21
$PGRME,3.0,M,3.1,M,4.4,M*2F
$YXXDR,A,3.9,D,PTCH,A,-0.6,D,ROLL*7C
$HCHDG,265.7,0.0,E,,*2F
$HCHDG,265.7,0.0,E,,*2F
$GPRMC,161100.0,A,4740.82637,N,12224.47644,W,000.04,000.0,040513,016.6,E,A*2B
$PGRME,3.0,M,3.1,M,4.4,M*2F
$IIRMB,A,0.07,L,,M   ,,,,,000.9,013,,V,A*26
$HCHDG,265.8,0.0,E,,*20
$IIRMC,161000,A,4740.826,N,12224.476,W,00.0,000,040513,16,E,A*15
$HCHDG,265.8,0.0,E,,*20
$IIVHW,,,,,00.0,N,,*19
$GPRMC,161100.2,A,4740.82637,N,12224.47644,W,000.02,000.0,040513,016.6,E,A*2F
$PGRME,3.0,M,3.1,M,4.3,M*28
$IIVLW,06236,N,000.0,N*52
$HCHDG,265.8,0.0,E,,*20
$IIDPT,006.2,-1.0,*44
$YXXDR,A,4.2,D,PTCH,A,-0.6,D,ROLL*70
$HCHDG,265.8,0.0,E,,*20
$IIGLL,4740.826,N,12224.476,W,161000,A,A*4D
$GPRMC,161100.4,A,4740.82637,N,12224.47643,W,000.03,000.0,040513,016.6,E,A*2F
$PGRME,3.0,M,3.1,M,4.3,M*28
$IIMTW,+09.0,C*31
$HCHDG,266.1,0.0,E,,*2A
$HCHDG,266.0,0.0,E,,*2B
$GPRMC,161100.6,A,4740.82628,N,12224.47644,W,000.01,000.0,040513,016.6,E,A*26
$PGRME,3.0,M,3.1,M,4.3,M*28
$HCHDG,266.0,0.0,E,,*2B
$HCHDG,266.0,0.0,E,,*2B
$GPRMC,161100.8,A,4740.82621,N,12224.47646,W,000.06,000.0,040513,016.6,E,A*24
$GPRMB,A,0.07,L,,M,4741.7720,N,12224.5760,W,0.9,13,0.05,V*79
$PGRME,3.0,M,3.0,M,4.3,M*29
$YXXDR,A,4.5,D,PTCH,A,-0.4,D,ROLL*75
$PTAK,FFD1,0.4*51
$HCHDG,266.0,0.0,E,,*2B
$HCHDG,266.0,0.0,E,,*2B
$GPRMC,161101.0,A,4740.82616,N,12224.47649,W,000.03,000.0,040513,016.6,E,A*23
$IIRMB,A,0.07,L,,M   ,,,,,000.9,013,,V,A*26
$PGRME,3.0,M,3.0,M,4.3,M*29
$HCHDG,266.1,0.0,E,,*2A
$IIRMC,161100,A,4740.826,N,12224.476,W,00.0,000,040513,16,E,A*14
$HCHDG,266.1,0.0,E,,*2A
$IIVHW,,,,,00.0,N,,*19
$GPRMC,161101.2,A,4740.82617,N,12224.47655,W,000.02,000.0,040513,016.6,E,A*2C
$PGRME,3.0,M,3.0,M,4.3,M*29
$IIVLW,06236,N,000.0,N*52
$HCHDG,266.1,0.0,E,,*2A
$IIDPT,006.2,-1.0,*44
$YXXDR,A,4.3,D,PTCH,A,-0.5,D,ROLL*72
$HCHDG,266.1,0.0,E,,*2A
$IIGLL,4740.826,N,12224.476,W,161100,A,A*4C
$GPRMC,161101.4,A,4740.82618,N,12224.47658,W,000.02,000.0,040513,016.6,E,A*28
$PGRME,3.0,M,3.0,M,4.3,M*29
$IIMTW,+09.0,C*31
$HCHDG,266.1,0.0,E,,*2A
$HCHDG,266.1,0.0,E,,*2A
$GPRMC,161101.6,A,4740.82619,N,12224.47660,W,000.04,000.0,040513,016.6,E,A*26
$GPRMB,A,0.07,L,,M,4741.7720,N,12224.5760,W,0.9,13,0.03,V*7F
$PGRME,3.0,M,3.0,M,4.3,M*29
$HCHDG,266.0,0.0,E,,*2B
$PTAK,FFP1,HEEL,@*07
$HCHDG,266.0,0.0,E,,*2B
$GPRMC,161101.8,A,4740.82621,N,12224.47667,W,000.04,000.0,040513,016.6,E,A*24
$PGRME,3.0,M,3.0,M,4.3,M*29
$YXXDR,A,4.3,D,PTCH,A,-0.5,D,ROLL*72
$PTAK,FFD1,0.5*50
$HCHDG,266.0,0.0,E,,*2B
$HCHDG,266.0,0.0,E,,*2B
$GPRMC,161102.0,A,4740.82621,N,12224.47670,W,000.03,000.0,040513,016.6,E,A*2E
$IIRMB,A,0.07,L,,M   ,,,,,000.9,013,,V,A*26
$PGRME,3.0,M,3.0,M,4.3,M*29
$HCHDG,266.0,0.0,E,,*2B
$IIRMC,161100,A,4740.826,N,12224.476,W,00.0,000,040513,16,E,A*14
$HCHDG,266.0,0.0,E,,*2B
$IIVHW,,,,,00.0,N,,*19
$GPRMC,161102.2,A,4740.82620,N,12224.47672,W,000.03,000.0,040513,016.6,E,A*2F
$PGRME,3.0,M,3.0,M,4.3,M*29
$IIVLW,06236,N,000.0,N*52
$HCHDG,266.0,0.0,E,,*2B
$IIDPT,006.2,-1.0,*44
$YXXDR,A,4.3,D,PTCH,A,-0.5,D,ROLL*72
$HCHDG,265.9,0.0,E,,*21
$IIGLL,4740.826,N,12224.476,W,161100,A,A*4C
$GPRMC,161102.4,A,4740.82619,N,12224.47676,W,000.02,000.0,040513,016.6,E,A*26
$PGRME,3.0,M,3.0,M,4.3,M*29
$IIMTW,+08.5,C*35
$HCHDG,266.0,0.0,E,,*2B
$HCHDG,266.0,0.0,E,,*2B
$GPRMC,161102.6,A,4740.82619,N,12224.47677,W,000.03,000.0,040513,016.6,E,A*24
$PGRME,3.0,M,3.0,M,4.3,M*29
$HCHDG,265.9,0.0,E,,*21
$HCHDG,265.9,0.0,E,,*21
$GPRMC,161102.8,A,4740.82618,N,12224.47674,W,000.04,000.0,040513,016.6,E,A*2F
$PGRME,3.0,M,3.0,M,4.3,M*29
$YXXDR,A,4.4,D,PTCH,A,-0.3,D,ROLL*73
$HCHDG,265.9,0.0,E,,*21
$HCHDG,265.9,0.0,E,,*21
$GPRMC,161103.0,A,4740.82620,N,12224.47674,W,000.04,000.0,040513,016.6,E,A*2D
$GPRMB,A,0.07,L,,M,4741.7720,N,12224.5760,W,0.9,13,0.03,V*7F
$IIRMB,A,0.07,L,,M   ,,,,,000.9,013,,V,A*26
$PGRME,3.0,M,3.0,M,4.3,M*29
$HCHDG,266.0,0.0,E,,*2B
$IIRMC,161100,A,4740.826,N,12224.476,W,00.0,000,040513,16,E,A*14
$HCHDG,266.0,0.0,E,,*2B
$IIVHW,,,,,00.0,N,,*19
$GPRMC,161103.2,A,4740.82621,N,12224.47671,W,000.05,000.0,040513,016.6,E,A*2A
$PGRME,3.0,M,3.0,M,4.3,M*29
$IIVLW,06236,N,000.0,N*52
$HCHDG,265.9,0.0,E,,*21
$IIDPT,006.2,-1.0,*44
$YXXDR,A,4.5,D,PTCH,A,-0.8,D,ROLL*79
$PTAK,FFD1,0.8*5D
$HCHDG,265.9,0.0,E,,*21
$IIGLL,4740.826,N,12224.476,W,161100,A,A*4C
$GPRMC,161103.4,A,4740.82625,N,12224.47669,W,000.07,000.0,040513,016.6,E,A*23
$PGRME,3.0,M,3.0,M,4.3,M*29
$IIMTW,+09.0,C*31
$HCHDG,265.8,0.0,E,,*20
$HCHDG,265.8,0.0,E,,*20
$GPRMC,161103.6,A,4740.82627,N,12224.47664,W,000.06,000.0,040513,016.6,E,A*2F
$PGRME,3.0,M,3.0,M,4.3,M*29
$HCHDG,265.7,0.0,E,,*2F
$HCHDG,265.8,0.0,E,,*20
$GPRMC,161103.8,A,4740.82628,N,12224.47662,W,000.07,000.0,040513,016.6,E,A*29
$PGRME,3.0,M,3.0,M,4.3,M*29
$YXXDR,A,4.2,D,PTCH,A,-1.0,D,ROLL*77
$HCHDG,265.4,0.0,E,,*2C
$HCHDG,265.4,0.0,E,,*2C
$GPRMC,161104.0,A,4740.82634,N,12224.47657,W,000.08,000.0,040513,016.6,E,A*22
$GPRMB,A,0.07,L,,M,4741.7720,N,12224.5760,W,0.9,13,0.07,V*7B
$IIRMB,A,0.07,L,,M   ,,,,,000.9,013,,V,A*26
$PGRME,3.0,M,3.0,M,4.3,M*29
$HCHDG,265.4,0.0,E,,*2C
$IIRMC,161100,A,4740.826,N,12224.476,W,00.0,000,040513,16,E,A*14
$HCHDG,265.6,0.0,E,,*2E
$IIVHW,,,,,00.0,N,,*19
$GPRMC,161104.2,A,4740.82636,N,12224.47654,W,000.08,000.0,040513,016.6,E,A*21
$PGRME,3.0,M,3.0,M,4.3,M*29
$IIVLW,06236,N,000.0,N*52
$HCHDG,265.6,0.0,E,,*2E
$IIDPT,006.2,-1.0,*44
$YXXDR,A,4.3,D,PTCH,A,-1.5,D,ROLL*73
$HCHDG,265.6,0.0,E,,*2E
$IIGLL,4740.826,N,12224.476,W,161100,A,A*4C
$GPRMC,161104.4,A,4740.82638,N,12224.47658,W,000.08,000.0,040513,016.6,E,A*25
$PGRME,3.0,M,3.0,M,4.3,M*29
$IIMTW,+08.5,C*35
$HCHDG,265.6,0.0,E,,*2E
$HCHDG,265.6,0.0,E,,*2E
$GPRMC,161104.6,A,4740.82639,N,12224.47662,W,000.08,000.0,040513,016.6,E,A*2F
$PGRME,3.0,M,3.0,M,4.3,M*29
$HCHDG,265.7,0.0,E,,*2F
$HCHDG,265.7,0.0,E,,*2F
$GPRMC,161104.8,A,4740.82642,N,12224.47662,W,000.06,000.0,040513,016.6,E,A*23
$PGRME,3.0,M,3.0,M,4.3,M*29
$YXXDR,A,4.5,D,PTCH,A,-0.9,D,ROLL*78
$PTAK,FFD1,0.9*5C
$HCHDG,265.7,0.0,E,,*2F
$HCHDG,265.7,0.0,E,,*2F
$GPRMC,161105.0,A,4740.82644,N,12224.47664,W,000.05,000.0,040513,016.6,E,A*29
$PGRME,3.0,M,3.0,M,4.3,M*29
$IIRMB,A,0.07,L,,M   ,,,,,000.9,013,,V,A*26
$HCHDG,266.0,0.0,E,,*2B
$IIRMC,161100,A,4740.826,N,12224.476,W,00.0,000,040513,16,E,A*14
$HCHDG,265.9,0.0,E,,*21
$IIVHW,,,,,00.0,N,,*19
$GPRMC,161105.2,A,4740.82641,N,12224.47668,W,000.04,000.0,040513,016.6,E,A*23
$GPRMB,A,0.07,L,,M,4741.7720,N,12224.5760,W,0.9,13,0.03,V*7F
$PGRME,3.0,M,3.0,M,4.3,M*29
$IIVLW,06236,N,000.0,N*52
$HCHDG,265.8,0.0,E,,*20
$IIDPT,006.2,-1.0,*44
$YXXDR,A,4.7,D,PTCH,A,-0.6,D,ROLL*75
$HCHDG,265.8,0.0,E,,*20
$IIGLL,4740.826,N,12224.476,W,161100,A,A*4C
$GPRMC,161105.4,A,4740.82641,N,12224.47673,W,000.04,000.0,040513,016.6,E,A*2F
$PGRME,3.0,M,3.0,M,4.3,M*29
$IIMTW,+09.0,C*31
$HCHDG,265.8,0.0,E,,*20
$HCHDG,265.8,0.0,E,,*20
$GPRMC,161105.6,A,4740.82638,N,12224.47676,W,000.06,000.0,040513,016.6,E,A*24
$PGRME,3.0,M,3.0,M,4.3,M*29
$HCHDG,266.0,0.0,E,,*2B
$HCHDG,266.0,0.0,E,,*2B
$GPRMC,161105.8,A,4740.82638,N,12224.47678,W,000.09,000.0,040513,016.6,E,A*2B
$PGRME,3.0,M,3.0,M,4.3,M*29
$YXXDR,A,4.7,D,PTCH,A,-0.3,D,ROLL*70
$HCHDG,266.0,0.0,E,,*2B
$HCHDG,265.9,0.0,E,,*21
$GPRMC,161106.0,A,4740.82639,N,12224.47675,W,000.10,000.0,040513,016.6,E,A*24
$PGRME,3.0,M,3.0,M,4.3,M*29
$IIRMB,A,0.07,L,,M   ,,,,,000.9,013,,V,A*26
$HCHDG,265.9,0.0,E,,*21
$PTAK,FFP1,HEEL,@*07
$IIRMC,161100,A,4740.826,N,12224.476,W,00.0,000,040513,16,E,A*14
$HCHDG,265.9,0.0,E,,*21
$IIVHW,,,,,00.0,N,,*19
$GPRMC,161106.2,A,4740.82638,N,12224.47675,W,000.09,000.0,040513,016.6,E,A*2F
$PGRME,3.0,M,3.0,M,4.3,M*29
$IIVLW,06236,N,000.0,N*52
$HCHDG,265.9,0.0,E,,*21
$IIDPT,006.2,-1.0,*44
$YXXDR,A,4.7,D,PTCH,A,-0.2,D,ROLL*71
$PTAK,FFD1,0.2*57
$HCHDG,265.9,0.0,E,,*21
$IIGLL,4740.826,N,12224.476,W,161100,A,A*4C
$GPRMC,161106.4,A,4740.82638,N,12224.47676,W,000.06,000.0,040513,016.6,E,A*25
$GPRMB,A,0.07,L,,M,4741.7720,N,12224.5760,W,0.9,13,0.05,V*79
$PGRME,3.0,M,3.0,M,4.3,M*29
$IIMTW,+08.0,C*30
$HCHDG,265.9,0.0,E,,*21
$HCHDG,265.9,0.0,E,,*21
$GPRMC,161106.6,A,4740.82638,N,12224.47676,W,000.02,000.0,040513,016.6,E,A*23
$PGRME,3.0,M,3.0,M,4.3,M*29
$HCHDG,265.9,0.0,E,,*21
$HCHDG,265.9,0.0,E,,*21
$GPRMC,161106.8,A,4740.82638,N,12224.47676,W,000.03,000.0,040513,016.6,E,A*2C
$PGRME,3.0,M,3.0,M,4.3,M*29
$YXXDR,A,4.5,D,PTCH,A,-0.9,D,ROLL*78
$HCHDG,265.9,0.0,E,,*21
$HCHDG,265.6,0.0,E,,*2E
$GPRMC,161107.0,A,4740.82638,N,12224.47676,W,000.03,000.0,040513,016.6,E,A*25
$PGRME,3.0,M,3.0,M,4.3,M*29
$IIRMB,A,0.07,L,,M   ,,,,,000.9,013,,V,A*26
$HCHDG,265.5,0.0,E,,*2D
$IIRMC,161100,A,4740.826,N,12224.476,W,00.0,000,040513,16,E,A*14
$HCHDG,265.5,0.0,E,,*2D
$IIVHW,,,,,00.0,N,,*19
$GPRMC,161107.2,A,4740.82638,N,12224.47676,W,000.05,000.0,040513,016.6,E,A*21
$PGRME,3.0,M,3.0,M,4.3,M*29
$IIVLW,06236,N,000.0,N*52
$HCHDG,265.5,0.0,E,,*2D
$IIDPT,006.2,-1.0,*44
$YXXDR,A,4.3,D,PTCH,A,-0.6,D,ROLL*71
$PTAK,FFD1,0.6*53
$HCHDG,265.5,0.0,E,,*2D
$IIGLL,4740.826,N,12224.476,W,161100,A,A*4C
$GPRMC,161107.4,A,4740.82638,N,12224.47676,W,000.06,000.0,040513,016.6,E,A*24
$GPRMB,A,0.07,L,,M,4741.7720,N,12224.5760,W,0.9,13,0.05,V*79
$PGRME,3.0,M,3.0,M,4.3,M*29
$IIMTW,+08.0,C*30
$HCHDG,265.5,0.0,E,,*2D
$HCHDG,265.5,0.0,E,,*2D
$GPRMC,161107.6,A,4740.82638,N,12224.47675,W,000.04,000.0,040513,016.6,E,A*27
$PGRME,3.0,M,3.0,M,4.3,M*29
$HCHDG,265.6,0.0,E,,*2E
$HCHDG,265.6,0.0,E,,*2E
$GPRMC,161107.8,A,4740.82638,N,12224.47675,W,000.07,000.0,040513,016.6,E,A*2A
$PGRME,3.0,M,3.0,M,4.3,M*29
$YXXDR,A,4.3,D,PTCH,A,-0.1,D,ROLL*76
$HCHDG,265.6,0.0,E,,*2E
$HCHDG,265.5,0.0,E,,*2D
$GPRMC,161108.0,A,4740.82638,N,12224.47675,W,000.03,000.0,040513,016.6,E,A*29
$IIRMB,A,0.07,L,,M   ,,,,,000.9,013,,V,A*26
$PGRME,3.0,M,3.0,M,4.3,M*29
$HCHDG,265.7,0.0,E,,*2F
$IIRMC,161100,A,4740.826,N,12224.476,W,00.0,000,040513,16,E,A*14
$HCHDG,265.7,0.0,E,,*2F
$IIVHW,,,,,00.0,N,,*19
$GPRMC,161108.2,A,4740.82638,N,12224.47675,W,000.06,000.0,040513,016.6,E,A*2E
$PGRME,3.0,M,3.0,M,4.3,M*29
$IIVLW,06236,N,000.0,N*52
$HCHDG,265.8,0.0,E,,*20
$IIDPT,006.2,-1.0,*44
$YXXDR,A,4.6,D,PTCH,A,-0.7,D,ROLL*75
$PTAK,FFD1,0.7*52
$HCHDG,265.8,0.0,E,,*20
$IIGLL,4740.826,N,12224.476,W,161100,A,A*4C
$GPRMC,161108.4,A,4740.82638,N,12224.47675,W,000.02,000.0,040513,016.6,E,A*2C
$PGRME,3.0,M,3.0,M,4.3,M*29
$IIMTW,+08.0,C*30
$HCHDG,265.8,0.0,E,,*20
$HCHDG,265.8,0.0,E,,*20
$GPRMC,161108.6,A,4740.82638,N,12224.47675,W,000.02,000.0,040513,016.6,E,A*2E
$GPRMB,A,0.07,L,,M,4741.7720,N,12224.5760,W,0.9,13,0.02,V*7E
$PGRME,3.0,M,3.0,M,4.3,M*29
$HCHDG,265.8,0.0,E,,*20
$HCHDG,265.8,0.0,E,,*20
$GPRMC,161108.8,A,4740.82637,N,12224.47675,W,000.08,000.0,040513,016.6,E,A*25
$PGRME,3.0,M,3.0,M,4.3,M*29
$YXXDR,A,4.5,D,PTCH,A,-0.8,D,ROLL*79
$HCHDG,265.8,0.0,E,,*20
$HCHDG,265.7,0.0,E,,*2F
$GPRMC,161109.0,A,4740.82637,N,12224.47675,W,000.04,000.0,040513,016.6,E,A*20
$PGRME,3.0,M,3.0,M,4.3,M*29
$IIRMB,A,0.07,L,,M   ,,,,,000.9,013,,V,A*26
$HCHDG,265.7,0.0,E,,*2F
$IIRMC,161100,A,4740.826,N,12224.476,W,00.0,000,040513,16,E,A*14
$HCHDG,265.7,0.0,E,,*2F
$IIVHW,,,,,00.0,N,,*19
$GPRMC,161109.2,A,4740.82637,N,12224.47676,W,000.01,000.0,040513,016.6,E,A*24
$PGRME,3.0,M,3.0,M,4.3,M*29
$IIVLW,06236,N,000.0,N*52
$HCHDG,265.7,0.0,E,,*2F
$IIDPT,006.2,-1.0,*44
$YXXDR,A,4.3,D,PTCH,A,-0.7,D,ROLL*70
$PTAK,FFD1,0.7*52
$HCHDG,265.7,0.0,E,,*2F
$IIGLL,4740.826,N,12224.476,W,161100,A,A*4C
$GPRMC,161109.4,A,4740.82637,N,12224.47676,W,000.07,000.0,040513,016.6,E,A*24
$PGRME,3.0,M,3.0,M,4.3,M*29
$IIMTW,+09.0,C*31
$HCHDG,265.8,0.0,E,,*20
$HCHDG,265.8,0.0,E,,*20
$GPRMC,161109.6,A,4740.82636,N,12224.47676,W,000.06,000.0,040513,016.6,E,A*26
$PGRME,3.0,M,3.0,M,4.3,M*29
$HCHDG,265.8,0.0,E,,*20
$HCHDG,265.8,0.0,E,,*20
$GPRMC,161109.8,A,4740.82636,N,12224.47676,W,000.04,000.0,040513,016.6,E,A*2A
$GPRMB,A,0.07,L,,M,4741.7720,N,12224.5760,W,0.9,13,0.03,V*7F
$PGRME,3.0,M,3.0,M,4.3,M*29
$YXXDR,A,4.5,D,PTCH,A,-0.6,D,ROLL*77
$HCHDG,265.8,0.0,E,,*20
$HCHDG,265.8,0.0,E,,*20
$GPRMC,161110.0,A,4740.82636,N,12224.47676,W,000.04,000.0,040513,016.6,E,A*2A
$PGRME,3.0,M,3.0,M,4.3,M*29
$HCHDG,265.8,0.0,E,,*20
$PTAK,FFP1,HEEL,@*07
$HCHDG,265.8,0.0,E,,*20
$GPRMC,161110.2,A,4740.82636,N,12224.47677,W,000.03,000.0,040513,016.6,E,A*2E
$PGRME,3.0,M,3.0,M,4.3,M*29
$HCHDG,265.8,0.0,E,,*20
$YXXDR,A,4.5,D,PTCH,A,-0.6,D,ROLL*77
$HCHDG,265.8,0.0,E,,*20
$GPRMC,161110.4,A,4740.82636,N,12224.47676,W,000.01,000.0,040513,016.6,E,A*2B
$PGRME,3.0,M,3.0,M,4.3,M*29
$HCHDG,265.8,0.0,E,,*20
$HCHDG,265.8,0.0,E,,*20
$GPRMC,161110.6,A,4740.82636,N,12224.47676,W,000.04,000.0,040513,016.6,E,A*2C
$PGRME,3.0,M,3.0,M,4.3,M*29
$HCHDG,265.8,0.0,E,,*20
$HCHDG,265.7,0.0,E,,*2F
$GPRMC,161110.8,A,4740.82636,N,12224.47676,W,000.06,000.0,040513,016.6,E,A*20
$PGRME,3.0,M,3.0,M,4.3,M*29
$YXXDR,A,4.6,D,PTCH,A,-0.5,D,ROLL*77
$PTAK,FFD1,0.5*50
$HCHDG,265.7,0.0,E,,*2F
$HCHDG,265.7,0.0,E,,*2F
$GPRMC,161111.0,A,4740.82636,N,12224.47677,W,000.05,000.0,040513,016.6,E,A*2B
$GPRMB,A,0.07,L,,M,4741.7720,N,12224.5760,W,0.9,13,0.04,V*78
$IIRMB,A,0.07,L,,M   ,,,,,000.9,013,,V,A*26
$PGRME,3.0,M,3.0,M,4.3,M*29
$HCHDG,265.7,0.0,E,,*2F
$IIRMC,161100,A,4740.826,N,12224.476,W,00.0,000,040513,16,E,A*14
$HCHDG,265.7,0.0,E,,*2F
$IIVHW,,,,,00.0,N,,*19
$GPRMC,161111.2,A,4740.82636,N,12224.47677,W,000.05,000.0,040513,016.6,E,A*29
$PGRME,3.0,M,3.0,M,4.3,M*29
$IIVLW,06236,N,000.0,N*52
$HCHDG,265.8,0.0,E,,*20
$IIDPT,006.2,-1.0,*44
$YXXDR,A,4.7,D,PTCH,A,-0.3,D,ROLL*70
$HCHDG,265.8,0.0,E,,*20
$IIGLL,4740.826,N,12224.476,W,161100,A,A*4C
$GPRMC,161111.4,A,4740.82636,N,12224.47677,W,000.05,000.0,040513,016.6,E,A*2F
$PGRME,3.0,M,3.0,M,4.3,M*29
$IIMTW,+08.0,C*30
$HCHDG,265.8,0.0,E,,*20
$IIRMB,A,0.07,L,,M   ,,,,,000.9,013,,V,A*26
$HCHDG,265.8,0.0,E,,*20
$GPRMC,161111.6,A,4740.82637,N,12224.47676,W,000.07,000.0,040513,016.6,E,A*2F
$PGRME,3.0,M,3.0,M,4.3,M*29
$HCHDG,265.9,0.0,E,,*21
$HCHDG,265.7,0.0,E,,*2F
$GPRMC,161111.8,A,4740.82637,N,12224.47676,W,000.06,000.0,040513,016.6,E,A*20
$PGRME,3.0,M,3.0,M,4.3,M*29
$YXXDR,A,4.3,D,PTCH,A,-0.1,D,ROLL*76
$HCHDG,265.7,0.0,E,,*2F
$HCHDG,265.6,0.0,E,,*2E
$GPRMC,161112.0,A,4740.82637,N,12224.47676,W,000.04,000.0,040513,016.6,E,A*29
$PGRME,3.0,M,3.0,M,4.3,M*29
$IIRMC,161100,A,4740.826,N,12224.476,W,00.0,000,040513,16,E,A*14
$HCHDG,265.6,0.0,E,,*2E
$IIVHW,,,,,00.0,N,,*19
$HCHDG,265.9,0.0,E,,*21
$IIVLW,06236,N,000.0,N*52
$GPRMC,161112.2,A,4740.82637,N,12224.47677,W,000.02,000.0,040513,016.6,E,A*2C
$GPRMB,A,0.07,L,,M,4741.7720,N,12224.5760,W,0.9,13,0.02,V*7E
$IIDPT,006.2,-1.0,*44
$PGRME,3.0,M,3.0,M,4.3,M*29
$HCHDG,265.9,0.0,E,,*21
$IIGLL,4740.826,N,12224.476,W,161100,A,A*4C
$YXXDR,A,4.6,D,PTCH,A,-0.4,D,ROLL*76
$PTAK,FFD1,0.4*51
$IIMTW,+08.0,C*30
$HCHDG,265.9,0.0,E,,*21
$GPRMC,161112.4,A,4740.82637,N,12224.47677,W,000.05,000.0,040513,016.6,E,A*2D
$PGRME,3.0,M,3.0,M,4.3,M*29
$IIRMB,A,0.07,L,,M   ,,,,,000.9,013,,V,A*26
$HCHDG,266.0,0.0,E,,*2B
$HCHDG,266.0,0.0,E,,*2B
$GPRMC,161112.6,A,4740.82637,N,12224.47677,W,000.04,000.0,040513,016.6,E,A*2E
$PGRME,3.0,M,3.0,M,4.3,M*29
$HCHDG,266.0,0.0,E,,*2B
$HCHDG,265.9,0.0,E,,*21
$GPRMC,161112.8,A,4740.82637,N,12224.47677,W,000.10,000.0,040513,016.6,E,A*25
$PGRME,3.0,M,3.0,M,4.3,M*29
$YXXDR,A,4.6,D,PTCH,A,0.1,D,ROLL*5E
$HCHDG,266.0,0.0,E,,*2B
$HCHDG,266.0,0.0,E,,*2B
$GPRMC,161113.0,A,4740.82636,N,12224.47678,W,000.03,000.0,040513,016.6,E,A*20
$PGRME,3.0,M,3.0,M,4.3,M*29
$IIRMC,161100,A,4740.826,N,12224.476,W,00.0,000,040513,16,E,A*14
$HCHDG,266.0,0.0,E,,*2B
$IIVHW,,,,,00.0,N,,*19
$HCHDG,266.0,0.0,E,,*2B
$IIVLW,06236,N,000.0,N*52
$GPRMC,161113.2,A,4740.82636,N,12224.47678,W,000.05,000.0,040513,016.6,E,A*24
$GPRMB,A,0.07,L,,M,4741.7720,N,12224.5760,W,0.9,13,0.04,V*78
$IIDPT,006.2,-1.0,*44
$PGRME,3.0,M,3.0,M,4.3,M*29
$HCHDG,266.0,0.0,E,,*2B
$IIGLL,4740.826,N,12224.476,W,161100,A,A*4C
$YXXDR,A,4.7,D,PTCH,A,0.0,D,ROLL*5E
$PTAK,FFD1,0.0*55
$IIMTW,+08.0,C*30
$HCHDG,266.0,0.0,E,,*2B
$GPRMC,161113.4,A,4740.82637,N,12224.47678,W,000.06,000.0,040513,016.6,E,A*20
$PGRME,3.0,M,3.0,M,4.3,M*29
$IIRMB,A,0.07,L,,M   ,,,,,000.9,013,,V,A*26
$HCHDG,266.0,0.0,E,,*2B
$HCHDG,265.9,0.0,E,,*21
$GPRMC,161113.6,A,4740.82637,N,12224.47678,W,000.03,000.0,040513,016.6,E,A*27
$PGRME,3.0,M,3.0,M,4.3,M*29
$HCHDG,265.9,0.0,E,,*21
$HCHDG,265.9,0.0,E,,*21
$GPRMC,161113.8,A,4740.82637,N,12224.47678,W,000.06,000.0,040513,016.6,E,A*2C
$PGRME,3.0,M,3.0,M,4.3,M*29
$YXXDR,A,4.8,D,PTCH,A,0.1,D,ROLL*50
$HCHDG,265.9,0.0,E,,*21
$HCHDG,265.9,0.0,E,,*21
$GPRMC,161114.0,A,4740.82637,N,12224.47678,W,000.03,000.0,040513,016.6,E,A*26
$PGRME,3.0,M,3.0,M,4.3,M*29
$IIRMC,161100,A,4740.826,N,12224.476,W,00.0,000,040513,16,E,A*14
$HCHDG,265.9,0.0,E,,*21
$PTAK,FFP1,HEEL,@*07
$IIVHW,,,,,00.0,N,,*19
$HCHDG,265.9,0.0,E,,*21
$IIVLW,06236,N,000.0,N*52
$GPRMC,161114.2,A,4740.82636,N,12224.47678,W,000.03,000.0,040513,016.6,E,A*25
$IIDPT,006.2,-1.0,*44
$PGRME,3.0,M,3.0,M,4.3,M*29
$HCHDG,266.0,0.0,E,,*2B
$IIGLL,4740.826,N,12224.476,W,161100,A,A*4C
$YXXDR,A,4.5,D,PTCH,A,0.1,D,ROLL*5D
$IIMTW,+08.0,C*30
$HCHDG,266.0,0.0,E,,*2B
$GPRMC,161114.4,A,4740.82636,N,12224.47678,W,000.06,000.0,040513,016.6,E,A*26
$GPRMB,A,0.07,L,,M,4741.7720,N,12224.5760,W,0.9,13,0.05,V*79
$PGRME,3.0,M,3.0,M,4.3,M*29
$IIRMB,A,0.07,L,,M   ,,,,,000.9,013,,V,A*26
$HCHDG,266.0,0.0,E,,*2B
$HCHDG,265.9,0.0,E,,*21
$GPRMC,161114.6,A,4740.82636,N,12224.47678,W,000.01,000.0,040513,016.6,E,A*23
$PGRME,3.0,M,3.0,M,4.3,M*29
$HCHDG,265.8,0.0,E,,*20
$HCHDG,265.8,0.0,E,,*20
$GPRMC,161114.8,A,4740.82636,N,12224.47678,W,000.08,000.0,040513,016.6,E,A*24
$PGRME,3.0,M,3.0,M,4.3,M*29
$YXXDR,A,4.5,D,PTCH,A,0.0,D,ROLL*5C
$PTAK,FFD1,0.0*55
$HCHDG,265.8,0.0,E,,*20
$HCHDG,265.8,0.0,E,,*20
$GPRMC,161115.0,A,4740.82636,N,12224.47677,W,000.02,000.0,040513,016.6,E,A*28
$PGRME,3.0,M,3.0,M,4.3,M*29
$IIRMC,161100,A,4740.826,N,12224.476,W,00.0,000,040513,16,E,A*14
$HCHDG,265.8,0.0,E,,*20
$IIVHW,,,,,00.0,N,,*19
$HCHDG,265.8,0.0,E,,*20
$IIVLW,06236,N,000.0,N*52
$GPRMC,161115.2,A,4740.82636,N,12224.47677,W,000.08,000.0,040513,016.6,E,A*20
$PGRME,3.0,M,3.0,M,4.3,M*29
$IIDPT,006.2,-1.0,*44
$HCHDG,265.8,0.0,E,,*20
$IIGLL,4740.826,N,12224.476,W,161100,A,A*4C
$YXXDR,A,4.5,D,PTCH,A,0.0,D,ROLL*5C
$IIMTW,+08.0,C*30
$HCHDG,265.9,0.0,E,,*21
$GPRMC,161115.4,A,4740.82636,N,12224.47676,W,000.06,000.0,040513,016.6,E,A*29
$GPRMB,A,0.07,L,,M,4741.7720,N,12224.5760,W,0.9,13,0.05,V*79
$PGRME,3.0,M,3.0,M,4.3,M*29
$IIRMB,A,0.07,L,,M   ,,,,,000.9,013,,V,A*26
$HCHDG,265.6,0.0,E,,*2E
$HCHDG,265.5,0.0,E,,*2D
$GPRMC,161115.6,A,4740.82636,N,12224.47676,W,000.08,000.0,040513,016.6,E,A*25
$PGRME,3.0,M,3.0,M,4.3,M*29
$HCHDG,265.4,0.0,E,,*2C
$HCHDG,265.4,0.0,E,,*2C
$GPRMC,161115.8,A,4740.82636,N,12224.47676,W,000.04,000.0,040513,016.6,E,A*27
$PGRME,3.0,M,3.0,M,4.3,M*29
$YXXDR,A,4.5,D,PTCH,A,0.0,D,ROLL*5C
$HCHDG,265.5,0.0,E,,*2D
$HCHDG,265.5,0.0,E,,*2D
$GPRMC,161116.0,A,4740.82635,N,12224.47676,W,000.07,000.0,040513,016.6,E,A*2C
$PGRME,3.0,M,3.0,M,4.3,M*29
$IIRMC,161100,A,4740.826,N,12224.476,W,00.0,000,040513,16,E,A*14
$HCHDG,265.5,0.0,E,,*2D
$IIVHW,,,,,00.0,N,,*19
$HCHDG,265.5,0.0,E,,*2D
$IIVLW,06236,N,000.0,N*52
$GPRMC,161116.2,A,4740.82635,N,12224.47676,W,000.09,000.0,040513,016.6,E,A*20
$IIDPT,006.2,-1.0,*44
$PGRME,3.0,M,3.0,M,4.3,M*29
$HCHDG,265.5,0.0,E,,*2D
$IIGLL,4740.826,N,12224.476,W,161100,A,A*4C
$YXXDR,A,4.4,D,PTCH,A,-1.2,D,ROLL*73
$PTAK,FFD1,1.2*56
$IIMTW,+08.0,C*30
$HCHDG,265.4,0.0,E,,*2C
$GPRMC,161116.4,A,4740.82635,N,12224.47675,W,000.10,000.0,040513,016.6,E,A*2D
$GPRMB,A,0.07,L,,M,4741.7720,N,12224.5760,W,0.9,13,0.09,V*75
$PGRME,3.0,M,3.0,M,4.3,M*29
$IIRMB,A,0.07,L,,M   ,,,,,000.9,013,,V,A*26
$HCHDG,265.5,0.0,E,,*2D
$HCHDG,265.5,0.0,E,,*2D
$GPRMC,161116.6,A,4740.82635,N,12224.47675,W,000.09,000.0,040513,016.6,E,A*27
$PGRME,3.0,M,3.0,M,4.3,M*29
$HCHDG,265.5,0.0,E,,*2D
$HCHDG,265.5,0.0,E,,*2D
$GPRMC,161116.8,A,4740.82635,N,12224.47674,W,000.09,000.0,040513,016.6,E,A*28
$PGRME,3.0,M,3.0,M,4.3,M*29
$YXXDR,A,4.6,D,PTCH,A,-1.3,D,ROLL*70
$HCHDG,265.5,0.0,E,,*2D
$HCHDG,265.5,0.0,E,,*2D
$GPRMC,161117.0,A,4740.82635,N,12224.47673,W,000.02,000.0,040513,016.6,E,A*2D
$PGRME,3.0,M,3.0,M,4.3,M*29
$IIRMC,161100,A,4740.826,N,12224.476,W,00.0,000,040513,16,E,A*14
$HCHDG,265.5,0.0,E,,*2D
$IIVHW,,,,,00.0,N,,*19
$HCHDG,265.5,0.0,E,,*2D
$IIVLW,06236,N,000.0,N*52
$GPRMC,161117.2,A,4740.82635,N,12224.47673,W,000.04,000.0,040513,016.6,E,A*29
$IIDPT,006.2,-1.0,*44
$PGRME,3.0,M,3.0,M,4.3,M*29
$HCHDG,265.7,0.0,E,,*2F
$IIGLL,4740.826,N,12224.476,W,161100,A,A*4C
$YXXDR,A,4.7,D,PTCH,A,-1.1,D,ROLL*73
$IIMTW,+09.0,C*31
$HCHDG,265.7,0.0,E,,*2F
$GPRMC,161117.4,A,4740.82635,N,12224.47673,W,000.03,000.0,040513,016.6,E,A*28
$PGRME,3.0,M,3.0,M,4.3,M*29
$IIRMB,A,0.07,L,,M   ,,,,,000.9,013,,V,A*26
$HCHDG,265.7,0.0,E,,*2F
$HCHDG,265.6,0.0,E,,*2E
$GPRMC,161117.6,A,4740.82635,N,12224.47673,W,000.04,000.0,040513,016.6,E,A*2D
$PGRME,3.0,M,3.0,M,4.3,M*29
$HCHDG,265.6,0.0,E,,*2E
$HCHDG,265.6,0.0,E,,*2E
$GPRMC,161117.8,A,4740.82635,N,12224.47673,W,000.01,000.0,040513,016.6,E,A*26
$GPRMB,A,0.07,L,,M,4741.7720,N,12224.5760,W,0.9,13,0.01,V*7D
$PGRME,3.0,M,3.0,M,4.3,M*29
$YXXDR,A,4.6,D,PTCH,A,-1.0,D,ROLL*73
$PTAK,FFD1,1.0*54
$HCHDG,265.5,0.0,E,,*2D
$HCHDG,265.5,0.0,E,,*2D
$GPRMC,161118.0,A,4740.82635,N,12224.47673,W,000.02,000.0,040513,016.6,E,A*22
$PGRME,3.0,M,3.0,M,4.3,M*29
$IIRMC,161100,A,4740.826,N,12224.476,W,00.0,000,040513,16,E,A*14
$HCHDG,265.8,0.0,E,,*20
$IIVHW,,,,,00.0,N,,*19
$PTAK,FFP1,HEEL,@*07
$HCHDG,265.8,0.0,E,,*20
$IIVLW,06236,N,000.0,N*52
$GPRMC,161118.2,A,4740.82635,N,12224.47673,W,000.02,000.0,040513,016.6,E,A*20
$IIDPT,006.2,-1.0,*44
$PGRME,3.0,M,3.0,M,4.3,M*29
$HCHDG,265.8,0.0,E,,*20
$IIGLL,4740.826,N,12224.476,W,161100,A,A*4C
$YXXDR,A,4.6,D,PTCH,A,-0.8,D,ROLL*7A
$IIMTW,+08.5,C*35
$HCHDG,265.8,0.0,E,,*20
$GPRMC,161118.4,A,4740.82635,N,12224.47673,W,000.02,000.0,040513,016.6,E,A*26
$PGRME,3.0,M,3.0,M,4.3,M*29
$IIRMB,A,0.07,L,,M   ,,,,,000.9,013,,V,A*26
$HCHDG,265.8,0.0,E,,*20
$HCHDG,265.8,0.0,E,,*20
$GPRMC,161118.6,A,4740.82635,N,12224.47673,W,000.07,000.0,040513,016.6,E,A*21
$PGRME,3.0,M,3.0,M,4.3,M*29
$HCHDG,265.8,0.0,E,,*20
$HCHDG,265.8,0.0,E,,*20
$GPRMC,161118.8,A,4740.82636,N,12224.47673,W,000.05,000.0,040513,016.6,E,A*2E
$GPRMB,A,0.07,L,,M,4741.7720,N,12224.5760,W,0.9,13,0.04,V*78
$PGRME,3.0,M,3.0,M,4.3,M*29
$YXXDR,A,4.6,D,PTCH,A,-0.7,D,ROLL*75
$PTAK,FFD1,0.7*52
$HCHDG,265.8,0.0,E,,*20
$HCHDG,265.7,0.0,E,,*2F
$GPRMC,161119.0,A,4740.82636,N,12224.47673,W,000.06,000.0,040513,016.6,E,A*24
$PGRME,3.0,M,3.0,M,4.3,M*29
$IIRMC,161100,A,4740.826,N,12224.476,W,00.0,000,040513,16,E,A*14
$HCHDG,265.7,0.0,E,,*2F
$IIVHW,,,,,00.0,N,,*19
$IIVLW,06236,N,000.0,N*52
$HCHDG,265.7,0.0,E,,*2F
$GPRMC,161119.2,A,4740.82636,N,12224.47674,W,000.06,000.0,040513,016.6,E,A*21
$IIDPT,006.2,-1.0,*44
$PGRME,3.0,M,3.0,M,4.3,M*29
$HCHDG,265.7,0.0,E,,*2F
$IIGLL,4740.826,N,12224.476,W,161100,A,A*4C
$YXXDR,A,4.6,D,PTCH,A,-0.7,D,ROLL*75
$IIMTW,+09.0,C*31
$HCHDG,265.7,0.0,E,,*2F
$GPRMC,161119.4,A,4740.82635,N,12224.47674,W,000.07,000.0,040513,016.6,E,A*25
$PGRME,3.0,M,3.0,M,4.3,M*29
$IIRMB,A,0.07,L,,M   ,,,,,000.9,013,,V,A*26
$HCHDG,265.7,0.0,E,,*2F
$HCHDG,265.7,0.0,E,,*2F
$GPRMC,161119.6,A,4740.82636,N,12224.47675,W,000.05,000.0,040513,016.6,E,A*27
$PGRME,3.0,M,3.0,M,4.3,M*29
$HCHDG,265.4,0.0,E,,*2C
$HCHDG,265.4,0.0,E,,*2C
$GPRMC,161119.8,A,4740.82636,N,12224.47675,W,000.02,000.0,040513,016.6,E,A*2E
$GPRMB,A,0.07,L,,M,4741.7720,N,12224.5760,W,0.9,13,0.02,V*7E
$PGRME,3.0,M,3.0,M,4.3,M*29
$YXXDR,A,4.4,D,PTCH,A,-0.9,D,ROLL*79
$PTAK,FFD1,0.9*5C
$HCHDG,265.4,0.0,E,,*2C
$HCHDG,265.4,0.0,E,,*2C
$GPRMC,161120.0,A,4740.82636,N,12224.47675,W,000.05,000.0,040513,016.6,E,A*2B
$PGRME,3.0,M,3.0,M,4.3,M*29
$IIRMC,161100,A,4740.826,N,12224.476,W,00.0,000,040513,16,E,A*14
$HCHDG,265.4,0.0,E,,*2C
$IIVHW,,,,,00.0,N,,*19
$IIVLW,06236,N,000.0,N*52
$HCHDG,265.4,0.0,E,,*2C
$GPRMC,161120.2,A,4740.82636,N,12224.47676,W,000.05,000.0,040513,016.6,E,A*2A
$IIDPT,006.2,-1.0,*44
$PGRME,3.0,M,3.0,M,4.3,M*29
$HCHDG,265.4,0.0,E,,*2C
$IIGLL,4740.826,N,12224.476,W,161100,A,A*4C
$IIMTW,+08.0,C*30
$YXXDR,A,4.3,D,PTCH,A,-0.5,D,ROLL*72
$HCHDG,265.4,0.0,E,,*2C
$GPRMC,161120.4,A,4740.82636,N,12224.47676,W,000.02,000.0,040513,016.6,E,A*2B
$PGRME,3.0,M,3.0,M,4.3,M*29
$IIRMB,A,0.07,L,,M   ,,,,,000.9,013,,V,A*26
$HCHDG,265.4,0.0,E,,*2C
$HCHDG,265.5,0.0,E,,*2D
$GPRMC,161120.6,A,4740.82636,N,12224.47676,W,000.06,000.0,040513,016.6,E,A*2D
$PGRME,3.0,M,3.0,M,4.3,M*29
$HCHDG,265.5,0.0,E,,*2D
$HCHDG,265.6,0.0,E,,*2E
$GPRMC,161120.8,A,4740.82636,N,12224.47676,W,000.01,000.0,040513,016.6,E,A*24
$PGRME,3.0,M,3.0,M,4.3,M*29
$YXXDR,A,4.3,D,PTCH,A,-0.5,D,ROLL*72
$HCHDG,265.5,0.0,E,,*2D
$HCHDG,265.5,0.0,E,,*2D
$GPRMC,161121.0,A,4740.82636,N,12224.47676,W,000.05,000.0,040513,016.6,E,A*29
$GPRMB,A,0.07,L,,M,4741.7720,N,12224.5760,W,0.9,13,0.04,V*78
$PGRME,3.0,M,3.0,M,4.3,M*29
$IIRMC,161100,A,4740.826,N,12224.476,W,00.0,000,040513,16,E,A*14
$HCHDG,265.5,0.0,E,,*2D
$IIVHW,,,,,00.0,N,,*19
$HCHDG,265.5,0.0,E,,*2D
$IIVLW,06236,N,000.0,N*52
$GPRMC,161121.2,A,4740.82636,N,12224.47677,W,000.03,000.0,040513,016.6,E,A*2C
$IIDPT,006.2,-1.0,*44
$PGRME,3.0,M,3.0,M,4.3,M*29
$HCHDG,265.1,0.0,E,,*29
$IIGLL,4740.826,N,12224.476,W,161100,A,A*4C
$YXXDR,A,4.5,D,PTCH,A,-0.6,D,ROLL*77
$PTAK,FFD1,0.6*53
$IIMTW,+08.0,C*30
$HCHDG,265.1,0.0,E,,*29
$GPRMC,161121.4,A,4740.82636,N,12224.47676,W,000.06,000.0,040513,016.6,E,A*2E
$PGRME,3.0,M,3.0,M,4.3,M*29
$IIRMB,A,0.07,L,,M   ,,,,,000.9,013,,V,A*26
$HCHDG,265.1,0.0,E,,*29
$HCHDG,265.1,0.0,E,,*29
$GPRMC,161121.6,A,4740.82635,N,12224.47677,W,000.05,000.0,040513,016.6,E,A*2D
$PGRME,3.0,M,3.0,M,4.3,M*29
$HCHDG,265.1,0.0,E,,*29
$HCHDG,265.1,0.0,E,,*29
$GPRMC,161121.8,A,4740.82635,N,12224.47677,W,000.05,000.0,040513,016.6,E,A*23
$PGRME,3.0,M,3.0,M,4.3,M*29
$YXXDR,A,4.5,D,PTCH,A,-0.6,D,ROLL*77
$HCHDG,265.1,0.0,E,,*29
$HCHDG,265.1,0.0,E,,*29
$GPRMC,161122.0,A,4740.82635,N,12224.47676,W,000.03,000.0,040513,016.6,E,A*2F
$PGRME,3.0,M,3.0,M,4.3,M*29
$IIRMC,161100,A,4740.826,N,12224.476,W,00.0,000,040513,16,E,A*14
$HCHDG,265.1,0.0,E,,*29
$IIVHW,,,,,00.0,N,,*19
$HCHDG,265.1,0.0,E,,*29
$PTAK,FFP1,HEEL,@*07
$IIVLW,06236,N,000.0,N*52
$GPRMC,161122.2,A,4740.82635,N,12224.47676,W,000.10,000.0,040513,016.6,E,A*2F
$GPRMB,A,0.07,L,,M,4741.7720,N,12224.5760,W,0.9,13,0.09,V*75
$IIDPT,006.2,-1.0,*44
$PGRME,3.0,M,3.0,M,4.3,M*29
$HCHDG,265.4,0.0,E,,*2C
$IIGLL,4740.826,N,12224.476,W,161100,A,A*4C
$YXXDR,A,4.5,D,PTCH,A,-0.2,D,ROLL*73
$PTAK,FFD1,0.2*57
$IIMTW,+08.0,C*30
$HCHDG,265.3,0.0,E,,*2B
$GPRMC,161122.4,A,4740.82635,N,12224.47675,W,000.07,000.0,040513,016.6,E,A*2C
$PGRME,3.0,M,3.0,M,4.3,M*29
$IIRMB,A,0.07,L,,M   ,,,,,000.9,013,,V,A*26
$HCHDG,265.3,0.0,E,,*2B
$HCHDG,265.3,0.0,E,,*2B
$GPRMC,161122.6,A,4740.82635,N,12224.47675,W,000.06,000.0,040513,016.6,E,A*2F
$PGRME,3.0,M,3.0,M,4.3,M*29
$HCHDG,265.3,0.0,E,,*2B
$HCHDG,265.3,0.0,E,,*2B
$GPRMC,161122.8,A,4740.82634,N,12224.47675,W,000.04,000.0,040513,016.6,E,A*22
$PGRME,3.0,M,3.0,M,4.3,M*29
$YXXDR,A,4.5,D,PTCH,A,-0.2,D,ROLL*73
$HCHDG,265.3,0.0,E,,*2B
$HCHDG,265.3,0.0,E,,*2B
$GPRMC,161123.0,A,4740.82635,N,12224.47675,W,000.05,000.0,040513,016.6,E,A*2B
$PGRME,3.0,M,3.0,M,4.3,M*29
$IIRMC,161100,A,4740.826,N,12224.476,W,00.0,000,040513,16,E,A*14
$HCHDG,265.3,0.0,E,,*2B
$IIVHW,,,,,00.0,N,,*19
$HCHDG,265.3,0.0,E,,*2B
$IIVLW,06236,N,000.0,N*52
$GPRMC,161123.2,A,4740.82635,N,12224.47676,W,000.09,000.0,040513,016.6,E,A*26
$IIDPT,006.2,-1.0,*44
$PGRME,3.0,M,3.0,M,4.3,M*29
$HCHDG,265.3,0.0,E,,*2B
$IIGLL,4740.826,N,12224.476,W,161100,A,A*4C
$YXXDR,A,4.7,D,PTCH,A,-0.2,D,ROLL*71
$PTAK,FFD1,0.2*57
$IIMTW,+09.0,C*31
$HCHDG,265.3,0.0,E,,*2B
$GPRMC,161123.4,A,4740.82634,N,12224.47676,W,000.10,000.0,040513,016.6,E,A*29
$GPRMB,A,0.07,L,,M,4741.7720,N,12224.5760,W,0.9,13,0.09,V*75
$PGRME,3.0,M,3.0,M,4.3,M*29
$IIRMB,A,0.07,L,,M   ,,,,,000.9,013,,V,A*26
$HCHDG,265.3,0.0,E,,*2B
$HCHDG,265.3,0.0,E,,*2B
$GPRMC,161123.6,A,4740.82634,N,12224.47675,W,000.08,000.0,040513,016.6,E,A*21
$PGRME,3.0,M,3.0,M,4.3,M*29
$HCHDG,265.3,0.0,E,,*2B
$HCHDG,265.3,0.0,E,,*2B
$GPRMC,161123.8,A,4740.82635,N,12224.47676,W,000.05,000.0,040513,016.6,E,A*20
$PGRME,3.0,M,3.0,M,4.3,M*29
$YXXDR,A,4.5,D,PTCH,A,-0.1,D,ROLL*70
$HCHDG,265.3,0.0,E,,*2B
$HCHDG,265.3,0.0,E,,*2B
$GPRMC,161124.0,A,4740.82635,N,12224.47676,W,000.09,000.0,040513,016.6,E,A*23
$PGRME,3.0,M,3.0,M,4.3,M*29
$IIRMC,161100,A,4740.826,N,12224.476,W,00.0,000,040513,16,E,A*14
$HCHDG,265.6,0.0,E,,*2E
$IIVHW,,,,,00.0,N,,*19
$HCHDG,265.6,0.0,E,,*2E
$IIVLW,06236,N,000.0,N*52
$GPRMC,161124.2,A,4740.82634,N,12224.47676,W,000.06,000.0,040513,016.6,E,A*2F
$IIDPT,006.0,-1.0,*46
$PGRME,3.0,M,3.0,M,4.3,M*29
$HCHDG,265.6,0.0,E,,*2E
$IIGLL,4740.826,N,12224.476,W,161100,A,A*4C
$YXXDR,A,5.1,D,PTCH,A,-0.3,D,ROLL*77
$IIMTW,+09.0,C*31
$HCHDG,265.6,0.0,E,,*2E
$GPRMC,161124.4,A,4740.82634,N,12224.47676,W,000.03,000.0,040513,016.6,E,A*2C
$PGRME,3.0,M,3.0,M,4.3,M*29
$IIRMB,A,0.07,L,,M   ,,,,,000.9,013,,V,A*26
$HCHDG,265.6,0.0,E,,*2E
$HCHDG,265.7,0.0,E,,*2F
$GPRMC,161124.6,A,4740.82634,N,12224.47676,W,000.04,000.0,040513,016.6,E,A*29
$PGRME,3.0,M,3.0,M,4.3,M*29
$HCHDG,265.7,0.0,E,,*2F
$HCHDG,265.4,0.0,E,,*2C
$GPRMC,161124.8,A,4740.82634,N,12224.47677,W,000.10,000.0,040513,016.6,E,A*23
$PGRME,3.0,M,3.0,M,4.3,M*29
$YXXDR,A,4.5,D,PTCH,A,-1.5,D,ROLL*75
$HCHDG,265.4,0.0,E,,*2C
$HCHDG,265.4,0.0,E,,*2C
$GPRMC,161125.0,A,4740.82635,N,12224.47677,W,000.05,000.0,040513,016.6,E,A*2F
$PGRME,3.0,M,3.0,M,4.3,M*29
$IIRMC,161100,A,4740.826,N,12224.476,W,00.0,000,040513,16,E,A*14
$HCHDG,265.4,0.0,E,,*2C
$IIVHW,,,,,00.0,N,,*19
$HCHDG,265.4,0.0,E,,*2C
$IIVLW,06236,N,000.0,N*52
$GPRMC,161125.2,A,4740.82635,N,12224.47677,W,000.06,000.0,040513,016.6,E,A*2E
$GPRMB,A,0.07,L,,M,4741.7720,N,12224.5760,W,0.9,13,0.05,V*79
$IIDPT,006.0,-1.0,*46
$PGRME,3.0,M,3.0,M,4.3,M*29
$HCHDG,265.4,0.0,E,,*2C
$IIGLL,4740.826,N,12224.476,W,161100,A,A*4C
$YXXDR,A,4.3,D,PTCH,A,-0.8,D,ROLL*7F
$PTAK,FFD1,0.8*5D
$IIMTW,+09.0,C*31
$HCHDG,265.4,0.0,E,,*2C
$GPRMC,161125.4,A,4740.82635,N,12224.47676,W,000.02,000.0,040513,016.6,E,A*2D
$PGRME,3.0,M,3.0,M,4.3,M*29
$IIRMB,A,0.07,L,,M   ,,,,,000.9,013,,V,A*26
$HCHDG,265.2,0.0,E,,*2A
$HCHDG,265.1,0.0,E,,*29
$GPRMC,161125.6,A,4740.82635,N,12224.47676,W,000.06,000.0,040513,016.6,E,A*2B
$PGRME,3.0,M,3.0,M,4.3,M*29
$HCHDG,265.1,0.0,E,,*29
$HCHDG,265.1,0.0,E,,*29
$GPRMC,161125.8,A,4740.82635,N,12224.47676,W,000.04,000.0,040513,016.6,E,A*27
$PGRME,3.0,M,3.0,M,4.3,M*29
$YXXDR,A,4.3,D,PTCH,A,-0.9,D,ROLL*7E
$HCHDG,265.1,0.0,E,,*29
$HCHDG,265.2,0.0,E,,*2A
$GPRMC,161126.0,A,4740.82635,N,12224.47676,W,000.15,000.0,040513,016.6,E,A*2C
$PGRME,3.0,M,3.0,M,4.3,M*29
$IIRMC,161100,A,4740.826,N,12224.476,W,00.0,000,040513,16,E,A*14
$HCHDG,265.2,0.0,E,,*2A
$IIVHW,,,,,00.0,N,,*19
$HCHDG,265.2,0.0,E,,*2A
$PTAK,FFP1,HEEL,@*07
$IIVLW,06236,N,000.0,N*52
$GPRMC,161126.2,A,4740.82635,N,12224.47675,W,000.07,000.0,040513,016.6,E,A*2E
$GPRMB,A,0.07,L,,M,4741.7720,N,12224.5760,W,0.9,13,0.06,V*7A
$IIDPT,006.0,-1.0,*46
$PGRME,3.0,M,3.0,M,4.3,M*29
$HCHDG,265.1,0.0,E,,*29
$IIGLL,4740.826,N,12224.476,W,161100,A,A*4C
$YXXDR,A,4.5,D,PTCH,A,-0.8,D,ROLL*79
$PTAK,FFD1,0.8*5D
$IIMTW,+08.0,C*30
$HCHDG,265.4,0.0,E,,*2C
$GPRMC,161126.4,A,4740.82635,N,12224.47674,W,000.03,000.0,040513,016.6,E,A*2D
$PGRME,3.0,M,3.0,M,4.3,M*29
$IIRMB,A,0.07,L,,M   ,,,,,000.9,013,,V,A*26
$HCHDG,265.5,0.0,E,,*2D
$HCHDG,265.5,0.0,E,,*2D
$GPRMC,161126.6,A,4740.82635,N,12224.47674,W,000.11,000.0,040513,016.6,E,A*2C
$PGRME,3.0,M,3.0,M,4.3,M*29
$HCHDG,265.7,0.0,E,,*2F
$HCHDG,265.4,0.0,E,,*2C
$GPRMC,161126.8,A,4740.82635,N,12224.47675,W,000.27,000.0,040513,016.6,E,A*26
$PGRME,3.0,M,3.0,M,4.3,M*29
$YXXDR,A,4.9,D,PTCH,A,-0.8,D,ROLL*75
$HCHDG,265.5,0.0,E,,*2D
$HCHDG,265.5,0.0,E,,*2D
$GPRMC,161127.0,A,4740.82636,N,12224.47676,W,000.23,000.0,040513,016.6,E,A*2B
$PGRME,3.0,M,3.0,M,4.3,M*29
$IIRMC,161100,A,4740.826,N,12224.476,W,00.1,000,040513,16,E,A*15
$HCHDG,265.5,0.0,E,,*2D
$IIVHW,,,,,00.0,N,,*19
$HCHDG,265.1,0.0,E,,*29
$IIVLW,06236,N,000.0,N*52
$GPRMC,161127.2,A,4740.82638,N,12224.47676,W,000.08,000.0,040513,016.6,E,A*2E
$GPRMB,A,0.07,L,,M,4741.7720,N,12224.5760,W,0.9,13,0.07,V*7B
$IIDPT,006.0,-1.0,*46
$PGRME,3.0,M,3.0,M,4.3,M*29
$HCHDG,265.1,0.0,E,,*29
$IIGLL,4740.826,N,12224.476,W,161100,A,A*4C
$YXXDR,A,4.3,D,PTCH,A,-1.5,D,ROLL*73
$IIMTW,+09.0,C*31
$HCHDG,265.1,0.0,E,,*29
$GPRMC,161127.4,A,4740.82638,N,12224.47676,W,000.12,000.0,040513,016.6,E,A*23
$PGRME,3.0,M,3.0,M,4.3,M*29
$IIRMB,A,0.07,L,,M   ,,,,,000.9,013,,V,A*26
$HCHDG,264.9,0.0,E,,*20
$HCHDG,264.9,0.0,E,,*20
$GPRMC,161127.6,A,4740.82639,N,12224.47676,W,000.06,000.0,040513,016.6,E,A*25
$PGRME,3.0,M,3.0,M,4.3,M*29
$HCHDG,265.1,0.0,E,,*29
$HCHDG,265.1,0.0,E,,*29
$GPRMC,161127.8,A,4740.82639,N,12224.47675,W,000.10,000.0,040513,016.6,E,A*2F
$PGRME,3.0,M,3.0,M,4.3,M*29
$YXXDR,A,4.5,D,PTCH,A,-0.6,D,ROLL*77
$PTAK,FFD1,0.6*53
$HCHDG,265.1,0.0,E,,*29
$HCHDG,265.0,0.0,E,,*28
$GPRMC,161128.0,A,4740.82639,N,12224.47675,W,000.04,000.0,040513,016.6,E,A*2D
$PGRME,3.0,M,3.0,M,4.3,M*29
$IIRMC,161100,A,4740.826,N,12224.476,W,00.1,000,040513,16,E,A*15
$HCHDG,265.1,0.0,E,,*29
$IIVHW,,,,,00.0,N,,*19
$HCHDG,265.1,0.0,E,,*29
$IIVLW,06236,N,000.0,N*52
$GPRMC,161128.2,A,4740.82639,N,12224.47674,W,000.03,000.0,040513,016.6,E,A*29
$GPRMB,A,0.07,L,,M,4741.7720,N,12224.5760,W,0.9,13,0.03,V*7F
$IIDPT,006.2,-1.0,*44
$PGRME,3.0,M,3.0,M,4.3,M*29
$HCHDG,265.1,0.0,E,,*29
$IIGLL,4740.826,N,12224.476,W,161100,A,A*4C
$YXXDR,A,4.6,D,PTCH,A,-0.7,D,ROLL*75
$IIMTW,+08.5,C*35
$HCHDG,265.2,0.0,E,,*2A
$GPRMC,161128.4,A,4740.82639,N,12224.47675,W,000.05,000.0,040513,016.6,E,A*28
$PGRME,3.0,M,3.0,M,4.3,M*29
$IIRMB,A,0.07,L,,M   ,,,,,000.9,013,,V,A*26
$HCHDG,265.4,0.0,E,,*2C
$HCHDG,265.5,0.0,E,,*2D
$GPRMC,161128.6,A,4740.82639,N,12224.47675,W,000.02,000.0,040513,016.6,E,A*2D
$PGRME,3.0,M,3.0,M,4.3,M*29
$HCHDG,265.5,0.0,E,,*2D
$HCHDG,265.4,0.0,E,,*2C
$GPRMC,161128.8,A,4740.82639,N,12224.47675,W,000.06,000.0,040513,016.6,E,A*27
$PGRME,3.0,M,3.0,M,4.3,M*29
$YXXDR,A,4.8,D,PTCH,A,-0.2,D,ROLL*7E
$HCHDG,265.3,0.0,E,,*2B
$HCHDG,265.6,0.0,E,,*2E
$GPRMC,161129.0,A,4740.82639,N,12224.47676,W,000.04,000.0,040513,016.6,E,A*2F
$PGRME,3.0,M,3.0,M,4.3,M*29
$IIRMC,161100,A,4740.826,N,12224.476,W,00.0,000,040513,16,E,A*14
$HCHDG,265.6,0.0,E,,*2E
$IIVHW,,,,,00.0,N,,*19
$IIVLW,06236,N,000.0,N*52
$HCHDG,265.7,0.0,E,,*2F
$GPRMC,161129.2,A,4740.82639,N,12224.47676,W,000.18,000.0,040513,016.6,E,A*20
$GPRMB,A,0.07,L,,M,4741.7720,N,12224.5760,W,0.9,13,0.16,V*7B
$IIDPT,006.2,-1.0,*44
$PGRME,3.0,M,3.0,M,4.3,M*29
$HCHDG,265.7,0.0,E,,*2F
$IIGLL,4740.826,N,12224.476,W,161100,A,A*4C
$IIMTW,+08.0,C*30
$YXXDR,A,4.8,D,PTCH,A,0.1,D,ROLL*50
$PTAK,FFD1,0.1*54
$HCHDG,265.7,0.0,E,,*2F
$GPRMC,161129.4,A,4740.82639,N,12224.47677,W,000.08,000.0,040513,016.6,E,A*26
$PGRME,3.0,M,3.0,M,4.3,M*29
$IIRMB,A,0.07,L,,M   ,,,,,000.9,013,,V,A*26
$HCHDG,265.7,0.0,E,,*2F
$HCHDG,265.7,0.0,E,,*2F
$GPRMC,161129.6,A,4740.82639,N,12224.47678,W,000.11,000.0,040513,016.6,E,A*23
$PGRME,3.0,M,3.0,M,4.3,M*29
$HCHDG,265.7,0.0,E,,*2F
$HCHDG,265.7,0.0,E,,*2F
$GPRMC,161129.8,A,4740.82638,N,12224.47679,W,000.09,000.0,040513,016.6,E,A*24
$PGRME,3.0,M,3.0,M,4.3,M*29
$YXXDR,A,4.9,D,PTCH,A,0.3,D,ROLL*53
$HCHDG,265.7,0.0,E,,*2F
$HCHDG,265.7,0.0,E,,*2F
$GPRMC,161130.0,A,4740.82638,N,12224.47679,W,000.11,000.0,040513,016.6,E,A*2D
$PGRME,3.0,M,3.0,M,4.3,M*29
$IIRMC,161100,A,4740.826,N,12224.476,W,00.0,000,040513,16,E,A*14
$HCHDG,265.7,0.0,E,,*2F
$IIVHW,,,,,00.0,N,,*19
$HCHDG,265.9,0.0,E,,*21
$IIVLW,06236,N,000.0,N*52
$GPRMC,161130.2,A,4740.82637,N,12224.47680,W,000.10,000.0,040513,016.6,E,A*27
$PTAK,FFP1,HEEL,@*07
$IIDPT,006.2,-1.0,*44
$PGRME,3.0,M,3.0,M,4.3,M*29
$HCHDG,265.8,0.0,E,,*20
$IIGLL,4740.826,N,12224.476,W,161100,A,A*4C
$YXXDR,A,4.8,D,PTCH,A,0.2,D,ROLL*53
$IIMTW,+09.0,C*31
$HCHDG,265.8,0.0,E,,*20
$GPRMC,161130.4,A,4740.82637,N,12224.47681,W,000.07,000.0,040513,016.6,E,A*26
$GPRMB,A,0.07,L,,M,4741.7720,N,12224.5760,W,0.9,13,0.06,V*7A
$PGRME,3.0,M,3.0,M,4.3,M*29
$IIRMB,A,0.07,L,,M   ,,,,,000.9,013,,V,A*26
$HCHDG,265.8,0.0,E,,*20
$HCHDG,265.8,0.0,E,,*20
$GPRMC,161130.6,A,4740.82637,N,12224.47681,W,000.05,000.0,040513,016.6,E,A*26
$PGRME,3.0,M,3.0,M,4.3,M*29
$HCHDG,265.8,0.0,E,,*20
$HCHDG,265.8,0.0,E,,*20
$GPRMC,161130.8,A,4740.82637,N,12224.47681,W,000.04,000.0,040513,016.6,E,A*29
$PGRME,3.0,M,3.0,M,4.3,M*29
$YXXDR,A,4.8,D,PTCH,A,0.3,D,ROLL*52
$PTAK,FFD1,0.3*56
$HCHDG,265.9,0.0,E,,*21
$HCHDG,265.9,0.0,E,,*21
$GPRMC,161131.0,A,4740.82636,N,12224.47682,W,000.12,000.0,040513,016.6,E,A*25
$PGRME,3.0,M,3.0,M,4.3,M*29
$IIRMC,161100,A,4740.826,N,12224.476,W,00.1,000,040513,16,E,A*15
$HCHDG,265.9,0.0,E,,*21
$IIVHW,,,,,00.0,N,,*19
$HCHDG,265.9,0.0,E,,*21
$IIVLW,06236,N,000.0,N*52
$GPRMC,161131.2,A,4740.82636,N,12224.47682,W,000.08,000.0,040513,016.6,E,A*2C
$IIDPT,006.2,-1.0,*44
$PGRME,3.0,M,3.0,M,4.3,M*29
$HCHDG,265.9,0.0,E,,*21
$IIGLL,4740.826,N,12224.476,W,161100,A,A*4C
$YXXDR,A,4.5,D,PTCH,A,0.6,D,ROLL*5A
$IIMTW,+08.5,C*35
$HCHDG,265.8,0.0,E,,*20
$GPRMC,161131.4,A,4740.82639,N,12224.47684,W,000.08,000.0,040513,016.6,E,D*26
$GPRMB,A,0.07,L,,M,4741.7720,N,12224.5760,W,0.9,13,0.07,V*7B
$PGRME,2.4,M,2.4,M,3.4,M*29
$IIRMB,A,0.07,L,,M   ,,,,,000.9,013,,V,A*26
$HCHDG,265.8,0.0,E,,*20
$HCHDG,265.8,0.0,E,,*20
$GPRMC,161131.6,A,4740.82640,N,12224.47692,W,000.11,000.0,040513,016.6,E,D*25
$PGRME,2.4,M,2.4,M,3.4,M*29
$HCHDG,265.8,0.0,E,,*20
$HCHDG,265.8,0.0,E,,*20
$GPRMC,161131.8,A,4740.82638,N,12224.47697,W,000.08,000.0,040513,016.6,E,D*29
$PGRME,2.4,M,2.4,M,3.4,M*29
$YXXDR,A,4.6,D,PTCH,A,0.8,D,ROLL*57
$PTAK,FFD1,0.8*5D
$HCHDG,265.8,0.0,E,,*20
$HCHDG,265.8,0.0,E,,*20
$GPRMC,161132.0,A,4740.82637,N,12224.47699,W,000.04,000.0,040513,016.6,E,D*2F
$PGRME,2.4,M,2.4,M,3.4,M*29
$IIRMC,161100,A,4740.826,N,12224.476,W,00.1,000,040513,16,E,A*15
$HCHDG,265.8,0.0,E,,*20
$IIVHW,,,,,00.0,N,,*19
$HCHDG,265.7,0.0,E,,*2F
$IIVLW,06236,N,000.0,N*52
$IIDPT,006.2,-1.0,*44
$GPRMC,161132.2,A,4740.82635,N,12224.47705,W,000.04,000.0,040513,016.6,E,D*2B
$PGRME,2.4,M,2.4,M,3.4,M*29
$HCHDG,265.4,0.0,E,,*2C
$IIGLL,4740.826,N,12224.476,W,161100,A,A*4C
$YXXDR,A,4.6,D,PTCH,A,1.0,D,ROLL*5E
$IIMTW,+09.0,C*31
$HCHDG,265.5,0.0,E,,*2D
$GPRMC,161132.4,A,4740.82632,N,12224.47710,W,000.03,000.0,040513,016.6,E,D*29
$PGRME,2.4,M,2.4,M,3.4,M*29
$IIRMB,A,0.07,L,,M   ,,,,,000.9,013,,V,A*26
$HCHDG,265.5,0.0,E,,*2D
$HCHDG,265.6,0.0,E,,*2E
$GPRMC,161132.6,A,4740.82626,N,12224.47710,W,000.05,000.0,040513,016.6,E,D*28
$GPRMB,A,0.07,L,,M,4741.7720,N,12224.5760,W,0.9,13,0.04,V*78
$PGRME,2.4,M,2.4,M,3.4,M*29
$HCHDG,265.6,0.0,E,,*2E
$HCHDG,265.6,0.0,E,,*2E
$GPRMC,161132.8,A,4740.82625,N,12224.47713,W,000.06,000.0,040513,016.6,E,D*25
$PGRME,2.4,M,2.4,M,3.4,M*29
$YXXDR,A,4.7,D,PTCH,A,0.6,D,ROLL*58
$PTAK,FFD1,0.6*53
$HCHDG,265.9,0.0,E,,*21
$HCHDG,265.9,0.0,E,,*21
$GPRMC,161133.0,A,4740.82620,N,12224.47709,W,000.08,000.0,040513,016.6,E,D*2C
$PGRME,2.4,M,2.4,M,3.4,M*29
$IIRMC,161100,A,4740.826,N,12224.476,W,00.0,000,040513,16,E,A*14
$HCHDG,265.8,0.0,E,,*20
$IIVHW,,,,,00.0,N,,*19
$HCHDG,265.8,0.0,E,,*20
$IIVLW,06236,N,000.0,N*52
$IIDPT,006.2,-1.0,*44
$GPRMC,161133.2,A,4740.82619,N,12224.47712,W,000.09,000.0,040513,016.6,E,D*2F
$PGRME,2.4,M,2.4,M,3.4,M*29
$HCHDG,265.9,0.0,E,,*21
$IIGLL,4740.826,N,12224.476,W,161100,A,A*4C
$YXXDR,A,4.8,D,PTCH,A,0.5,D,ROLL*54
$IIMTW,+08.0,C*30
$HCHDG,265.9,0.0,E,,*21
$GPRMC,161133.4,A,4740.82617,N,12224.47714,W,000.09,000.0,040513,016.6,E,D*21
$PGRME,2.4,M,2.4,M,3.4,M*29
$IIRMB,A,0.07,L,,M   ,,,,,000.9,013,,V,A*26
$HCHDG,265.9,0.0,E,,*21
$HCHDG,266.1,0.0,E,,*2A
$GPRMC,161133.6,A,4740.82614,N,12224.47718,W,000.08,000.0,040513,016.6,E,D*2D
$PGRME,2.4,M,2.4,M,3.4,M*29
$HCHDG,266.1,0.0,E,,*2A
$HCHDG,266.1,0.0,E,,*2A
$GPRMC,161133.8,A,4740.82615,N,12224.47727,W,000.09,000.0,040513,016.6,E,D*2F
$GPRMB,A,0.07,L,,M,4741.7720,N,12224.5760,W,0.9,13,0.08,V*74
$PGRME,2.4,M,2.4,M,3.4,M*29
$YXXDR,A,5.2,D,PTCH,A,0.9,D,ROLL*53
$PTAK,FFD1,0.9*5C
$HCHDG,266.1,0.0,E,,*2A
$HCHDG,266.1,0.0,E,,*2A
$GPRMC,161134.0,A,4740.82616,N,12224.47737,W,000.07,000.0,040513,016.6,E,D*2C
$PGRME,2.4,M,2.4,M,3.4,M*29
$IIRMC,161100,A,4740.826,N,12224.477,W,00.0,000,040513,16,E,A*15
$HCHDG,265.8,0.0,E,,*20
$IIVHW,,,,,00.0,N,,*19
$HCHDG,265.8,0.0,E,,*20
$IIVLW,06236,N,000.0,N*52
$IIDPT,006.2,-1.0,*44
$GPRMC,161134.2,A,4740.82615,N,12224.47748,W,000.06,000.0,040513,016.6,E,D*24
$PTAK,FFP1,HEEL,@*07
$PGRME,2.4,M,2.4,M,3.4,M*29
$HCHDG,265.8,0.0,E,,*20
$IIGLL,4740.826,N,12224.477,W,161100,A,A*4D
$YXXDR,A,4.5,D,PTCH,A,-0.1,D,ROLL*70
$IIMTW,+08.0,C*30
$HCHDG,265.8,0.0,E,,*20
$GPRMC,161134.4,A,4740.82615,N,12224.47749,W,000.07,000.0,040513,016.6,E,D*22
$PGRME,2.4,M,2.4,M,3.4,M*29
$IIRMB,A,0.07,L,,M   ,,,,,000.9,013,,V,A*26
$HCHDG,265.8,0.0,E,,*20
$HCHDG,265.7,0.0,E,,*2F
$GPRMC,161134.6,A,4740.82613,N,12224.47751,W,000.06,000.0,040513,016.6,E,D*2E
$PGRME,2.4,M,2.4,M,3.4,M*29
$HCHDG,265.4,0.0,E,,*2C
$HCHDG,265.4,0.0,E,,*2C
$GPRMC,161134.8,A,4740.82616,N,12224.47750,W,000.06,000.0,040513,016.6,E,D*24
$GPRMB,A,0.07,L,,M,4741.7720,N,12224.5760,W,0.9,13,0.05,V*79
$PGRME,2.4,M,2.4,M,3.4,M*29
$YXXDR,A,4.5,D,PTCH,A,-0.2,D,ROLL*73
$PTAK,FFD1,0.2*57
$HCHDG,265.4,0.0,E,,*2C
$HCHDG,265.3,0.0,E,,*2B
$GPRMC,161135.0,A,4740.82615,N,12224.47750,W,000.07,000.0,040513,016.6,E,D*2F
$PGRME,2.4,M,2.4,M,3.4,M*29
$IIRMC,161100,A,4740.826,N,12224.477,W,00.0,000,040513,16,E,A*15
$HCHDG,265.6,0.0,E,,*2E
$IIVHW,,,,,00.0,N,,*19
$IIVLW,06236,N,000.0,N*52
$HCHDG,265.5,0.0,E,,*2D
$IIDPT,006.2,-1.0,*44
$GPRMC,161135.2,A,4740.82614,N,12224.47752,W,000.08,000.0,040513,016.6,E,D*21
$PGRME,2.4,M,2.4,M,3.4,M*29
$HCHDG,265.3,0.0,E,,*2B
$IIGLL,4740.826,N,12224.477,W,161100,A,A*4D
$YXXDR,A,4.8,D,PTCH,A,0.0,D,ROLL*51
$IIMTW,+09.0,C*31
$HCHDG,265.3,0.0,E,,*2B
$GPRMC,161135.4,A,4740.82614,N,12224.47753,W,000.09,000.0,040513,016.6,E,D*27
$PGRME,2.4,M,2.4,M,3.4,M*29
$IIRMB,A,0.07,L,,M   ,,,,,000.9,013,,V,A*26
$HCHDG,265.3,0.0,E,,*2B
$HCHDG,265.1,0.0,E,,*29
$GPRMC,161135.6,A,4740.82612,N,12224.47758,W,000.10,000.0,040513,016.6,E,D*20
$PGRME,2.4,M,2.4,M,3.4,M*29
$HCHDG,265.1,0.0,E,,*29
$HCHDG,265.1,0.0,E,,*29
$GPRMC,161135.8,A,4740.82613,N,12224.47765,W,000.10,000.0,040513,016.6,E,D*21
$PGRME,2.4,M,2.4,M,3.4,M*29
$YXXDR,A,4.4,D,PTCH,A,0.0,D,ROLL*5D
$HCHDG,265.1,0.0,E,,*29
$HCHDG,265.4,0.0,E,,*2C
$GPRMC,161136.0,A,4740.82613,N,12224.47766,W,000.09,000.0,040513,016.6,E,D*21
$GPRMB,A,0.07,L,,M,4741.7720,N,12224.5760,W,0.9,13,0.08,V*74
$PGRME,2.4,M,2.4,M,3.4,M*29
$IIRMC,161100,A,4740.826,N,12224.477,W,00.0,000,040513,16,E,A*15
$HCHDG,265.4,0.0,E,,*2C
$IIVHW,,,,,00.0,N,,*19
$HCHDG,265.3,0.0,E,,*2B
$IIVLW,06236,N,000.0,N*52
$IIDPT,006.2,-1.0,*44
$GPRMC,161136.2,A,4740.82616,N,12224.47770,W,000.08,000.0,040513,016.6,E,D*20
$PGRME,2.4,M,2.4,M,3.4,M*29
$HCHDG,265.6,0.0,E,,*2E
$IIGLL,4740.826,N,12224.477,W,161100,A,A*4D
$YXXDR,A,4.9,D,PTCH,A,-0.7,D,ROLL*7A
$PTAK,FFD1,0.7*52
$IIMTW,+09.0,C*31
$HCHDG,265.6,0.0,E,,*2E
$GPRMC,161136.4,A,4740.82617,N,12224.47778,W,000.07,000.0,040513,016.6,E,D*20
$PGRME,2.4,M,2.4,M,3.4,M*29
$IIRMB,A,0.07,L,,M   ,,,,,000.9,013,,V,A*26
$HCHDG,265.5,0.0,E,,*2D
$HCHDG,265.5,0.0,E,,*2D
$GPRMC,161136.6,A,4740.82619,N,12224.47780,W,000.06,000.0,040513,016.6,E,D*2A
$PGRME,2.4,M,2.4,M,3.4,M*29
$HCHDG,265.5,0.0,E,,*2D
$HCHDG,265.5,0.0,E,,*2D
$GPRMC,161136.8,A,4740.82624,N,12224.47783,W,000.06,000.0,040513,016.6,E,D*29
$PGRME,2.4,M,2.4,M,3.4,M*29
$YXXDR,A,5.1,D,PTCH,A,-0.1,D,ROLL*75
$HCHDG,265.5,0.0,E,,*2D
$HCHDG,265.6,0.0,E,,*2E
$GPRMC,161137.0,A,4740.82628,N,12224.47781,W,000.06,000.0,040513,016.6,E,D*2E
$GPRMB,A,0.07,L,,M,4741.7720,N,12224.5760,W,0.9,13,0.05,V*79
$PGRME,2.4,M,2.4,M,3.4,M*29
$IIRMC,161100,A,4740.826,N,12224.477,W,00.0,000,040513,16,E,A*15
$HCHDG,265.6,0.0,E,,*2E
$IIVHW,,,,,00.0,N,,*19
$HCHDG,265.6,0.0,E,,*2E
$IIVLW,06236,N,000.0,N*52
$IIDPT,006.2,-1.0,*44
$GPRMC,161137.2,A,4740.82627,N,12224.47778,W,000.04,000.0,040513,016.6,E,D*27
$PGRME,2.4,M,2.4,M,3.4,M*29
$HCHDG,265.6,0.0,E,,*2E
$IIGLL,4740.826,N,12224.477,W,161100,A,A*4D
$YXXDR,A,5.1,D,PTCH,A,-0.6,D,ROLL*72
$IIMTW,+09.0,C*31
$HCHDG,265.5,0.0,E,,*2D
$GPRMC,161137.4,A,4740.82626,N,12224.47785,W,000.03,000.0,040513,016.6,E,D*25
$PGRME,2.4,M,2.4,M,3.4,M*29
$IIRMB,A,0.07,L,,M   ,,,,,000.9,013,,V,A*26
$HCHDG,265.5,0.0,E,,*2D
$HCHDG,265.4,0.0,E,,*2C
$GPRMC,161137.6,A,4740.82631,N,12224.47791,W,000.04,000.0,040513,016.6,E,D*23
$PGRME,2.4,M,2.4,M,3.4,M*29
$HCHDG,265.4,0.0,E,,*2C
$HCHDG,265.3,0.0,E,,*2B
$GPRMC,161137.8,A,4740.82633,N,12224.47791,W,000.04,000.0,040513,016.6,E,D*2F
$PGRME,2.4,M,2.4,M,3.4,M*29
$YXXDR,A,4.7,D,PTCH,A,-0.8,D,ROLL*7B
$PTAK,FFD1,0.8*5D
$HCHDG,265.3,0.0,E,,*2B
$HCHDG,265.3,0.0,E,,*2B
$GPRMC,161138.0,A,4740.82629,N,12224.47794,W,000.05,000.0,040513,016.6,E,D*27
$GPRMB,A,0.07,L,,M,4741.7720,N,12224.5760,W,0.9,13,0.04,V*78
$PGRME,2.4,M,2.4,M,3.4,M*29
$IIRMC,161100,A,4740.826,N,12224.477,W,00.0,000,040513,16,E,A*15
$HCHDG,265.3,0.0,E,,*2B
$PTAK,FFP1,HEEL,@*07
$IIVHW,,,,,00.0,N,,*19
$HCHDG,265.5,0.0,E,,*2D
$IIVLW,06236,N,000.0,N*52
$IIDPT,006.2,-1.0,*44
$GPRMC,161138.2,A,4740.82630,N,12224.47795,W,000.06,000.0,040513,016.6,E,D*2F
$PGRME,2.4,M,2.4,M,3.4,M*29
$HCHDG,265.6,0.0,E,,*2E
$IIGLL,4740.826,N,12224.477,W,161100,A,A*4D
$YXXDR,A,4.9,D,PTCH,A,-0.7,D,ROLL*7A
$IIMTW,+08.0,C*30
$HCHDG,265.6,0.0,E,,*2E
$GPRMC,161138.4,A,4740.82632,N,12224.47794,W,000.05,000.0,040513,016.6,E,D*29
$PGRME,2.4,M,2.4,M,3.4,M*29
$IIRMB,A,0.07,L,,M   ,,,,,000.9,013,,V,A*26
$HCHDG,265.6,0.0,E,,*2E
$HCHDG,265.6,0.0,E,,*2E
$GPRMC,161138.6,A,4740.82640,N,12224.47796,W,000.05,000.0,040513,016.6,E,D*2C
$PGRME,2.4,M,2.4,M,3.4,M*29
$HCHDG,265.6,0.0,E,,*2E
$HCHDG,265.7,0.0,E,,*2F
$GPRMC,161138.8,A,4740.82649,N,12224.47790,W,000.04,000.0,040513,016.6,E,D*2C
$PGRME,2.4,M,2.4,M,3.4,M*29
$YXXDR,A,4.9,D,PTCH,A,-0.7,D,ROLL*7A
$HCHDG,265.4,0.0,E,,*2C
$HCHDG,265.4,0.0,E,,*2C
$GPRMC,161139.0,A,4740.82656,N,12224.47795,W,000.04,000.0,040513,016.6,E,D*2E
$GPRMB,A,0.07,L,,M,4741.7720,N,12224.5760,W,0.9,13,0.03,V*7F
$PGRME,2.4,M,2.4,M,3.4,M*29
$IIRMC,161100,A,4740.826,N,12224.477,W,00.0,000,040513,16,E,A*15
$HCHDG,265.4,0.0,E,,*2C
$IIVHW,,,,,00.0,N,,*19
$HCHDG,265.4,0.0,E,,*2C
$IIVLW,06236,N,000.0,N*52
$IIDPT,006.2,-1.0,*44
$GPRMC,161139.2,A,4740.82660,N,12224.47788,W,000.05,000.0,040513,016.6,E,D*24
$PGRME,2.4,M,2.4,M,3.4,M*29
$HCHDG,265.4,0.0,E,,*2C
$IIGLL,4740.826,N,12224.477,W,161100,A,A*4D
$YXXDR,A,4.6,D,PTCH,A,-0.8,D,ROLL*7A
$PTAK,FFD1,0.8*5D
$IIMTW,+09.0,C*31
$HCHDG,265.3,0.0,E,,*2B
$GPRMC,161139.4,A,4740.82669,N,12224.47792,W,000.06,000.0,040513,016.6,E,D*23
$PGRME,2.4,M,2.4,M,3.5,M*28
$IIRMB,A,0.07,L,,M   ,,,,,000.9,013,,V,A*26
$HCHDG,265.4,0.0,E,,*2C
$HCHDG,265.4,0.0,E,,*2C
$GPRMC,161139.6,A,4740.82674,N,12224.47796,W,000.05,000.0,040513,016.6,E,D*2A
$PGRME,2.4,M,2.5,M,3.5,M*29
$HCHDG,265.4,0.0,E,,*2C
$HCHDG,265.4,0.0,E,,*2C
$GPRMC,161139.8,A,4740.82676,N,12224.47805,W,000.05,000.0,040513,016.6,E,D*23
$PGRME,2.4,M,2.5,M,3.5,M*29
$YXXDR,A,4.6,D,PTCH,A,-0.5,D,ROLL*77
$HCHDG,265.2,0.0,E,,*2A
$HCHDG,265.2,0.0,E,,*2A
$GPRMC,161140.0,A,4740.82681,N,12224.47819,W,000.06,000.0,040513,016.6,E,D*23
$PGRME,2.4,M,2.5,M,3.5,M*29
$IIRMC,161100,A,4740.826,N,12224.477,W,00.0,000,040513,16,E,A*15
$HCHDG,265.2,0.0,E,,*2A
$IIVHW,,,,,00.0,N,,*19
