$IIVLW,01916,N,025.9,N*52
$HCHDG,59.0,0.0,E,,*15
$IIVWR,173,L,09.8,N,,,,*7B
$YXXDR,A,6.0,D,PTCH,A,3.1,D,ROLL*59
$PTAK,FFD1,3.1*57
$IIDPT,006.3,-1.0,*45
$HCHDG,59.0,0.0,E,,*15
$GPRMC,000000.6,A,4817.08877,N,12238.16607,W,000.00,304.3,180713,016.8,E,D*25
$PGRME,2.4,M,2.4,M,3.4,M*29
$IIGLL,4817.088,N,12238.166,W,235900,A,A*4E
$HCHDG,59.0,0.0,E,,*15
$IIMTW,+16.0,C*3F
$IIMWV,187,R,09.8,N,A*1C
$HCHDG,58.9,0.0,E,,*1D
$IIMWV,186,T,10.2,N,A*19
$GPRMC,000000.8,A,4817.08877,N,12238.16607,W,000.00,304.3,180713,016.8,E,D*2B
$GPRMB,A,0.00,L,OH,OH,4817.5980,N,12238.5140,W,0.6,336,0.00,V*0E
$PGRME,2.4,M,2.4,M,3.4,M*29
$HCHDG,58.9,0.0,E,,*1D
$IIRMB,A,0.00,L,,OH  ,,,,,000.6,336,,V,A*40
$HCHDG,58.9,0.0,E,,*1D
$GPRMC,000001.0,A,4817.08877,N,12238.16607,W,000.00,304.3,180713,016.8,E,D*22
$PGRME,2.4,M,2.4,M,3.4,M*29
$YXXDR,A,5.8,D,PTCH,A,3.3,D,ROLL*50
$HCHDG,58.9,0.0,E,,*1D
$HCHDG,58.8,0.0,E,,*1C
$GPRMC,000001.2,A,4817.08877,N,12238.16607,W,000.00,304.3,180713,016.8,E,D*20
$PGRME,2.4,M,2.4,M,3.4,M*29
$HCHDG,58.8,0.0,E,,*1C
$HCHDG,58.8,0.0,E,,*1C
$GPRMC,000001.4,A,4817.08878,N,12238.16607,W,000.00,304.3,180713,016.8,E,D*29
$PGRME,2.4,M,2.4,M,3.4,M*29
$HCHDG,59.0,0.0,E,,*15
$PTAK,FFP1,HEEL,@*07
$IIRMC,000000,A,4817.088,N,12238.166,W,00.0,304,170713,16,E,A*1C
$IIVHW,,,,,00.0,N,,*19
$YXXDR,A,5.8,D,PTCH,A,3.3,D,ROLL*50
$PTAK,FFD1,3.3*55
$IIVLW,01916,N,025.9,N*52
$HCHDG,58.9,0.0,E,,*1D
$GPRMC,000001.6,A,4817.08877,N,12238.16607,W,000.00,304.3,180713,016.8,E,D*24
$PGRME,2.4,M,2.4,M,3.4,M*29
$IIVWR,172,L,10.1,N,,,,*7B
$HCHDG,58.9,0.0,E,,*1D
$IIDPT,006.3,-1.0,*45
$HCHDG,59.0,0.0,E,,*15
$IIGLL,4817.088,N,12238.166,W,000000,A,A*43
$GPRMC,000001.8,A,4817.08878,N,12238.16607,W,000.00,304.3,180713,016.8,E,D*25
$PGRME,2.4,M,2.4,M,3.4,M*29
$IIMTW,+16.0,C*3F
$HCHDG,59.0,0.0,E,,*15
$IIMWV,188,R,10.1,N,A*12
$IIMWV,187,T,09.8,N,A*1A
$HCHDG,59.0,0.0,E,,*15
$GPRMC,000002.0,A,4817.08877,N,12238.16607,W,000.00,304.3,180713,016.8,E,D*21
$GPRMB,A,0.00,L,OH,OH,4817.5980,N,12238.5140,W,0.6,336,0.00,V*0E
$PGRME,2.4,M,2.4,M,3.4,M*29
$YXXDR,A,5.8,D,PTCH,A,3.3,D,ROLL*50
$HCHDG,59.0,0.0,E,,*15
$HCHDG,59.0,0.0,E,,*15
$GPRMC,000002.2,A,4817.08877,N,12238.16606,W,000.00,304.3,180713,016.8,E,D*22
$PGRME,2.4,M,2.4,M,3.4,M*29
$HCHDG,59.0,0.0,E,,*15
$HCHDG,59.0,0.0,E,,*15
$GPRMC,000002.4,A,4817.08877,N,12238.16606,W,000.00,304.3,180713,016.8,E,D*24
$PGRME,2.4,M,2.4,M,3.4,M*29
$IIRMB,A,0.00,L,,OH  ,,,,,000.6,336,,V,A*40
$HCHDG,59.0,0.0,E,,*15
$YXXDR,A,5.8,D,PTCH,A,3.3,D,ROLL*50
$IIRMC,000000,A,4817.088,N,12238.166,W,00.0,304,170713,16,E,A*1C
$HCHDG,59.0,0.0,E,,*15
$GPRMC,000002.6,A,4817.08878,N,12238.16606,W,000.00,304.3,180713,016.8,E,D*29
$PGRME,2.4,M,2.4,M,3.4,M*29
$IIVHW,,,,,00.0,N,,*19
$HCHDG,59.0,0.0,E,,*15
$IIVLW,01916,N,025.9,N*52
$IIVWR,171,L,09.8,N,,,,*79
$HCHDG,59.0,0.0,E,,*15
$IIDPT,006.3,-1.0,*45
$GPRMC,000002.8,A,4817.08878,N,12238.16606,W,000.00,304.3,180713,016.8,E,D*27
$PGRME,2.4,M,2.4,M,3.4,M*29
$IIGLL,4817.088,N,12238.166,W,000000,A,A*43
$HCHDG,59.1,0.0,E,,*14
$IIMTW,+16.0,C*3F
$HCHDG,59.1,0.0,E,,*14
$GPRMC,000003.0,A,4817.08878,N,12238.16606,W,000.00,304.3,180713,016.8,E,D*2E
$GPRMB,A,0.00,L,OH,OH,4817.5980,N,12238.5140,W,0.6,336,0.00,V*0E
$PGRME,2.4,M,2.4,M,3.4,M*29
$YXXDR,A,5.8,D,PTCH,A,3.0,D,ROLL*53
$PTAK,FFD1,3.0*56
$HCHDG,59.1,0.0,E,,*14
$HCHDG,59.1,0.0,E,,*14
$GPRMC,000003.2,A,4817.08878,N,12238.16606,W,000.00,304.3,180713,016.8,E,D*2C
$PGRME,2.4,M,2.4,M,3.4,M*29
$HCHDG,59.1,0.0,E,,*14
$HCHDG,59.1,0.0,E,,*14
$GPRMC,000003.4,A,4817.08878,N,12238.16606,W,000.00,304.3,180713,016.8,E,D*2A
$PGRME,2.4,M,2.4,M,3.4,M*29
$HCHDG,59.2,0.0,E,,*17
$YXXDR,A,5.8,D,PTCH,A,3.0,D,ROLL*53
$HCHDG,59.2,0.0,E,,*17
$GPRMC,000003.6,A,4817.08878,N,12238.16606,W,000.00,304.3,180713,016.8,E,D*28
$PGRME,2.4,M,2.4,M,3.4,M*29
$HCHDG,59.2,0.0,E,,*17
$HCHDG,59.3,0.0,E,,*16
$GPRMC,000003.8,A,4817.08878,N,12238.16606,W,000.00,304.3,180713,016.8,E,D*26
$PGRME,2.4,M,2.4,M,3.4,M*29
$HCHDG,59.3,0.0,E,,*16
$HCHDG,59.3,0.0,E,,*16
$GPRMC,000004.0,A,4817.08878,N,12238.16606,W,000.00,304.3,180713,016.8,E,D*29
$GPRMB,A,0.00,L,OH,OH,4817.5980,N,12238.5140,W,0.6,336,0.00,V*0E
$PGRME,2.4,M,2.4,M,3.4,M*29
$YXXDR,A,5.9,D,PTCH,A,3.1,D,ROLL*53
$PTAK,FFD1,3.1*57
$HCHDG,59.3,0.0,E,,*16
$HCHDG,59.4,0.0,E,,*11
$GPRMC,000004.2,A,4817.08878,N,12238.16606,W,000.00,304.3,180713,016.8,E,D*2B
$PGRME,2.4,M,2.4,M,3.4,M*29
$HCHDG,59.5,0.0,E,,*10
$HCHDG,59.5,0.0,E,,*10
$IIMWV,192,R,10.1,N,A*19
$GPRMC,000004.4,A,4817.08878,N,12238.16606,W,000.01,304.3,180713,016.8,E,D*2C
$PGRME,2.4,M,2.4,M,3.4,M*29
$IIMWV,189,T,09.8,N,A*14
$HCHDG,59.6,0.0,E,,*13
$IIRMB,A,0.00,L,,OH  ,,,,,000.6,336,,V,A*40
$YXXDR,A,5.9,D,PTCH,A,3.1,D,ROLL*53
$HCHDG,59.7,0.0,E,,*12
$GPRMC,000004.6,A,4817.08878,N,12238.16606,W,000.01,304.3,180713,016.8,E,D*2E
$PGRME,2.4,M,2.4,M,3.4,M*29
$HCHDG,59.7,0.0,E,,*12
$IIRMC,000000,A,4817.088,N,12238.166,W,00.0,304,170713,16,E,A*1C
$IIVHW,,,,,00.0,N,,*19
$HCHDG,59.7,0.0,E,,*12
$IIVLW,01916,N,025.9,N*52
$GPRMC,000004.8,A,4817.08878,N,12238.16606,W,000.00,304.3,180713,016.8,E,D*21
$PGRME,2.4,M,2.4,M,3.4,M*29
$IIVWR,168,L,10.1,N,,,,*70
$HCHDG,59.7,0.0,E,,*12
$IIDPT,006.3,-1.0,*45
$HCHDG,59.6,0.0,E,,*13
$GPRMC,000005.0,A,4817.08879,N,12238.16606,W,000.01,304.3,180713,016.8,E,D*28
$PGRME,2.4,M,2.4,M,3.4,M*29
$YXXDR,A,5.8,D,PTCH,A,3.0,D,ROLL*53
$HCHDG,59.6,0.0,E,,*13
$HCHDG,59.7,0.0,E,,*12
$GPRMC,000005.2,A,4817.08879,N,12238.16606,W,000.00,304.3,180713,016.8,E,D*2B
$GPRMB,A,0.00,L,OH,OH,4817.5980,N,12238.5140,W,0.6,336,0.00,V*0E
$PGRME,2.4,M,2.4,M,3.4,M*29
$HCHDG,59.8,0.0,E,,*1D
$HCHDG,59.8,0.0,E,,*1D
$GPRMC,000005.4,A,4817.08879,N,12238.16606,W,000.01,304.3,180713,016.8,E,D*2C
$PGRME,2.4,M,2.4,M,3.4,M*29
$IIGLL,4817.088,N,12238.166,W,000000,A,A*43
$HCHDG,59.9,0.0,E,,*1C
$PTAK,FFP1,HEEL,@*07
$IIMTW,+16.0,C*3F
$IIMWV,192,R,10.4,N,A*1C
$YXXDR,A,5.8,D,PTCH,A,3.0,D,ROLL*53
$PTAK,FFD1,3.0*56
$IIMWV,191,T,10.3,N,A*1E
$HCHDG,59.9,0.0,E,,*1C
$GPRMC,000005.6,A,4817.08879,N,12238.16607,W,000.01,304.3,180713,016.8,E,D*2F
$PGRME,2.4,M,2.4,M,3.4,M*29
$HCHDG,60.0,0.0,E,,*1F
$IIRMB,A,0.00,L,,OH  ,,,,,000.6,336,,V,A*40
$HCHDG,60.0,0.0,E,,*1F
$GPRMC,000005.8,A,4817.08879,N,12238.16607,W,000.01,304.3,180713,016.8,E,D*21
$PGRME,2.4,M,2.4,M,3.4,M*29
$IIRMC,000000,A,4817.088,N,12238.166,W,00.0,304,170713,16,E,A*1C
$IIVHW,,,,,00.0,N,,*19
$HCHDG,60.1,0.0,E,,*1E
$IIVLW,01916,N,025.9,N*52
$HCHDG,60.2,0.0,E,,*1D
$GPRMC,000006.0,A,4817.08879,N,12238.16607,W,000.01,304.3,180713,016.8,E,D*2A
$PGRME,2.4,M,2.4,M,3.4,M*29
$YXXDR,A,5.8,D,PTCH,A,3.0,D,ROLL*53
$HCHDG,60.3,0.0,E,,*1C
$HCHDG,60.2,0.0,E,,*1D
$GPRMC,000006.2,A,4817.08879,N,12238.16607,W,000.01,304.3,180713,016.8,E,D*28
$GPRMB,A,0.00,L,OH,OH,4817.5980,N,12238.5140,W,0.6,336,0.01,V*0F
$PGRME,2.4,M,2.4,M,3.4,M*29
$HCHDG,60.4,0.0,E,,*1B
$HCHDG,60.4,0.0,E,,*1B
$IIVWR,170,L,10.5,N,,,,*7D
$GPRMC,000006.4,A,4817.08879,N,12238.16607,W,000.01,304.3,180713,016.8,E,D*2E
$PGRME,2.4,M,2.4,M,3.4,M*29
$IIDPT,006.3,-1.0,*45
$HCHDG,60.4,0.0,E,,*1B
$IIGLL,4817.088,N,12238.166,W,000000,A,A*43
$YXXDR,A,5.8,D,PTCH,A,3.0,D,ROLL*53
$PTAK,FFD1,3.0*56
$IIMTW,+16.0,C*3F
$HCHDG,60.4,0.0,E,,*1B
$GPRMC,000006.6,A,4817.08879,N,12238.16607,W,000.01,304.3,180713,016.8,E,D*2C
$PGRME,2.4,M,2.4,M,3.4,M*29
$IIMWV,190,R,10.5,N,A*1F
$HCHDG,60.6,0.0,E,,*19
$IIMWV,192,T,10.4,N,A*1A
$HCHDG,60.5,0.0,E,,*1A
$IIRMB,A,0.00,L,,OH  ,,,,,000.6,336,,V,A*40
$GPRMC,000006.8,A,4817.08879,N,12238.16607,W,000.01,304.3,180713,016.8,E,D*22
$PGRME,2.4,M,2.4,M,3.4,M*29
$HCHDG,60.6,0.0,E,,*19
$IIRMC,000000,A,4817.088,N,12238.166,W,00.0,304,170713,16,E,A*1C
$HCHDG,60.7,0.0,E,,*18
$GPRMC,000007.0,A,4817.08879,N,12238.16608,W,000.01,304.3,180713,016.8,E,D*24
$PGRME,2.4,M,2.4,M,3.4,M*29
$YXXDR,A,5.9,D,PTCH,A,3.1,D,ROLL*53
$HCHDG,60.8,0.0,E,,*17
$HCHDG,60.8,0.0,E,,*17
$GPRMC,000007.2,A,4817.08878,N,12238.16608,W,000.01,304.3,180713,016.8,E,D*27
$GPRMB,A,0.00,L,OH,OH,4817.5980,N,12238.5140,W,0.6,336,0.01,V*0F
$PGRME,2.4,M,2.4,M,3.4,M*29
$HCHDG,60.9,0.0,E,,*16
$HCHDG,60.8,0.0,E,,*17
$IIVHW,,,,,00.0,N,,*19
$GPRMC,000007.4,A,4817.08878,N,12238.16608,W,000.01,304.3,180713,016.8,E,D*21
$PGRME,2.4,M,2.4,M,3.4,M*29
$IIVLW,01916,N,025.9,N*52
$HCHDG,61.1,0.0,E,,*1F
$IIVWR,167,L,10.5,N,,,,*7B
$YXXDR,A,5.9,D,PTCH,A,3.1,D,ROLL*53
$IIDPT,006.3,-1.0,*45
$HCHDG,61.2,0.0,E,,*1C
$GPRMC,000007.6,A,4817.08878,N,12238.16608,W,000.01,304.3,180713,016.8,E,D*23
$PGRME,2.4,M,2.4,M,3.4,M*29
$IIGLL,4817.088,N,12238.166,W,000000,A,A*43
$HCHDG,61.1,0.0,E,,*1F
$IIMTW,+16.0,C*3F
$IIMWV,193,R,10.5,N,A*1C
$HCHDG,61.2,0.0,E,,*1C
$IIMWV,190,T,10.5,N,A*19
$GPRMC,000007.8,A,4817.08878,N,12238.16608,W,000.01,304.3,180713,016.8,E,D*2D
$PGRME,2.4,M,2.4,M,3.4,M*29
$HCHDG,61.1,0.0,E,,*1F
$IIRMB,A,0.00,L,,OH  ,,,,,000.6,336,,V,A*40
$HCHDG,61.3,0.0,E,,*1D
$GPRMC,000008.0,A,4817.08878,N,12238.16608,W,000.01,304.3,180713,016.8,E,D*2A
$PGRME,2.4,M,2.4,M,3.4,M*29
$YXXDR,A,5.8,D,PTCH,A,3.3,D,ROLL*50
$PTAK,FFD1,3.3*55
$HCHDG,61.3,0.0,E,,*1D
$HCHDG,61.4,0.0,E,,*1A
$GPRMC,000008.2,A,4817.08878,N,12238.16608,W,000.01,304.3,180713,016.8,E,D*28
$PGRME,2.4,M,2.4,M,3.4,M*29
$HCHDG,61.3,0.0,E,,*1D
$HCHDG,61.5,0.0,E,,*1B
$GPRMC,000008.4,A,4817.08878,N,12238.16608,W,000.01,304.3,180713,016.8,E,D*2E
$GPRMB,A,0.00,L,OH,OH,4817.5980,N,12238.5140,W,0.6,336,0.01,V*0F
$PGRME,2.4,M,2.4,M,3.4,M*29
$HCHDG,61.5,0.0,E,,*1B
$IIRMC,000000,A,4817.088,N,12238.166,W,00.0,304,170713,16,E,A*1C
$IIVHW,,,,,00.0,N,,*19
$YXXDR,A,5.8,D,PTCH,A,3.0,D,ROLL*53
$IIVLW,01916,N,025.9,N*52
$HCHDG,61.6,0.0,E,,*18
$GPRMC,000008.6,A,4817.08878,N,12238.16609,W,000.01,304.3,180713,016.8,E,D*2D
$PGRME,2.4,M,2.4,M,3.4,M*29
$IIVWR,163,L,10.1,N,,,,*7B
$HCHDG,61.6,0.0,E,,*18
$IIDPT,006.3,-1.0,*45
$HCHDG,61.6,0.0,E,,*18
$IIGLL,4817.088,N,12238.166,W,000000,A,A*43
$GPRMC,000008.8,A,4817.08878,N,12238.16609,W,000.01,304.3,180713,016.8,E,D*23
$PGRME,2.4,M,2.4,M,3.4,M*29
$IIMTW,+16.0,C*3F
$HCHDG,61.7,0.0,E,,*19
$IIMWV,197,R,10.1,N,A*1C
$IIMWV,193,T,10.5,N,A*1A
$HCHDG,61.7,0.0,E,,*19
$GPRMC,000009.0,A,4817.08878,N,12238.16609,W,000.01,304.3,180713,016.8,E,D*2A
$PGRME,2.4,M,2.4,M,3.4,M*29
$YXXDR,A,5.8,D,PTCH,A,2.9,D,ROLL*5B
$PTAK,FFD1,2.9*5E
$HCHDG,61.8,0.0,E,,*16
$HCHDG,61.9,0.0,E,,*17
$GPRMC,000009.2,A,4817.08878,N,12238.16609,W,000.01,304.3,180713,016.8,E,D*28
$PGRME,2.4,M,2.4,M,3.4,M*29
$HCHDG,61.9,0.0,E,,*17
$HCHDG,62.0,0.0,E,,*1D
$GPRMC,000009.4,A,4817.08878,N,12238.16609,W,000.01,304.3,180713,016.8,E,D*2E
$GPRMB,A,0.00,L,OH,OH,4817.5980,N,12238.5140,W,0.6,336,0.01,V*0F
$PGRME,2.4,M,2.4,M,3.4,M*29
$IIRMB,A,0.00,L,,OH  ,,,,,000.6,336,,V,A*40
$HCHDG,61.9,0.0,E,,*17
$PTAK,FFP1,HEEL,@*07
$YXXDR,A,6.0,D,PTCH,A,2.8,D,ROLL*51
$IIRMC,000000,A,4817.088,N,12238.166,W,00.0,304,170713,16,E,A*1C
$HCHDG,62.0,0.0,E,,*1D
$GPRMC,000009.6,A,4817.08878,N,12238.16609,W,000.01,304.3,180713,016.8,E,D*2C
$PGRME,2.4,M,2.4,M,3.4,M*29
$IIVHW,,,,,00.0,N,,*19
$HCHDG,62.1,0.0,E,,*1C
$IIVLW,01916,N,025.9,N*52
$IIVWR,162,L,09.8,N,,,,*7B
$HCHDG,62.1,0.0,E,,*1C
$IIDPT,006.3,-1.0,*45
$GPRMC,000009.8,A,4817.08878,N,12238.16609,W,000.01,304.3,180713,016.8,E,D*22
$PGRME,2.4,M,2.4,M,3.4,M*29
$HCHDG,62.1,0.0,E,,*1C
$IIGLL,4817.088,N,12238.166,W,000000,A,A*43
$IIMTW,+16.0,C*3F
$HCHDG,62.2,0.0,E,,*1F
$GPRMC,000010.0,A,4817.08878,N,12238.16609,W,000.01,304.3,180713,016.8,E,D*22
$PGRME,2.4,M,2.4,M,3.4,M*29
$YXXDR,A,5.8,D,PTCH,A,2.9,D,ROLL*5B
$HCHDG,62.1,0.0,E,,*1C
$HCHDG,62.2,0.0,E,,*1F
$GPRMC,000010.2,A,4817.08878,N,12238.16609,W,000.01,304.3,180713,016.8,E,D*20
$PGRME,2.4,M,2.4,M,3.4,M*29
$HCHDG,62.3,0.0,E,,*1E
$HCHDG,62.3,0.0,E,,*1E
$IIMWV,197,R,10.0,N,A*1D
$GPRMC,000010.4,A,4817.08878,N,12238.16610,W,000.01,304.3,180713,016.8,E,D*2E
$GPRMB,A,0.00,L,OH,OH,4817.5980,N,12238.5140,W,0.6,336,0.01,V*0F
$PGRME,2.4,M,2.4,M,3.4,M*29
$IIMWV,198,T,09.8,N,A*14
$HCHDG,62.3,0.0,E,,*1E
$IIRMB,A,0.00,L,,OH  ,,,,,000.6,336,,V,A*40
$YXXDR,A,5.8,D,PTCH,A,3.0,D,ROLL*53
$PTAK,FFD1,3.0*56
$HCHDG,62.3,0.0,E,,*1E
$GPRMC,000010.6,A,4817.08878,N,12238.16610,W,000.00,304.3,180713,016.8,E,D*2D
$PGRME,2.4,M,2.4,M,3.4,M*29
$HCHDG,62.4,0.0,E,,*19
$IIRMC,000000,A,4817.088,N,12238.166,W,00.0,304,170713,16,E,A*1C
$IIVHW,,,,,00.0,N,,*19
$HCHDG,62.3,0.0,E,,*1E
$IIVLW,01916,N,025.9,N*52
$GPRMC,000010.8,A,4817.08878,N,12238.16610,W,000.01,304.3,180713,016.8,E,D*22
$PGRME,2.4,M,2.4,M,3.4,M*29
$IIVWR,163,L,10.0,N,,,,*7A
$HCHDG,62.5,0.0,E,,*18
$IIDPT,006.3,-1.0,*45
$HCHDG,62.5,0.0,E,,*18
$GPRMC,000011.0,A,4817.08878,N,12238.16610,W,000.01,304.3,180713,016.8,E,D*2B
$PGRME,2.4,M,2.4,M,3.4,M*29
$YXXDR,A,5.8,D,PTCH,A,3.0,D,ROLL*53
$HCHDG,62.6,0.0,E,,*1B
$HCHDG,62.6,0.0,E,,*1B
$GPRMC,000011.2,A,4817.08878,N,12238.16610,W,000.01,304.3,180713,016.8,E,D*29
$PGRME,2.4,M,2.4,M,3.4,M*29
$HCHDG,62.7,0.0,E,,*1A
$HCHDG,62.8,0.0,E,,*15
$GPRMC,000011.4,A,4817.08878,N,12238.16610,W,000.00,304.3,180713,016.8,E,D*2E
$PGRME,2.4,M,2.4,M,3.4,M*29
$IIGLL,4817.088,N,12238.166,W,000000,A,A*43
$IIMTW,+16.0,C*3F
$HCHDG,62.8,0.0,E,,*15
$IIMWV,196,R,10.2,N,A*1E
$YXXDR,A,5.8,D,PTCH,A,2.9,D,ROLL*5B
$IIMWV,197,T,10.0,N,A*1B
$HCHDG,62.7,0.0,E,,*1A
$GPRMC,000011.6,A,4817.08878,N,12238.16610,W,000.01,304.3,180713,016.8,E,D*2D
$GPRMB,A,0.00,L,OH,OH,4817.5980,N,12238.5140,W,0.6,336,0.01,V*0F
$PGRME,2.4,M,2.4,M,3.4,M*29
$HCHDG,62.7,0.0,E,,*1A
$IIRMB,A,0.00,L,,OH  ,,,,,000.6,336,,V,A*40
$HCHDG,62.7,0.0,E,,*1A
$GPRMC,000011.8,A,4817.08878,N,12238.16610,W,000.01,304.3,180713,016.8,E,D*23
$IIRMC,000000,A,4817.088,N,12238.166,W,00.0,304,170713,16,E,A*1C
$PGRME,2.4,M,2.4,M,3.4,M*29
$IIVHW,,,,,00.0,N,,*19
$HCHDG,62.7,0.0,E,,*1A
$IIVLW,01916,N,025.9,N*52
$HCHDG,62.8,0.0,E,,*15
$GPRMC,000012.0,A,4817.08878,N,12238.16610,W,000.00,304.3,180713,016.8,E,D*29
$PGRME,2.4,M,2.4,M,3.4,M*29
$YXXDR,A,5.8,D,PTCH,A,2.9,D,ROLL*5B
$PTAK,FFD1,2.9*5E
$HCHDG,62.8,0.0,E,,*15
$HCHDG,62.8,0.0,E,,*15
$GPRMC,000012.2,A,4817.08878,N,12238.16610,W,000.01,304.3,180713,016.8,E,D*2A
$PGRME,2.4,M,2.4,M,3.4,M*29
$HCHDG,62.7,0.0,E,,*1A
$HCHDG,62.8,0.0,E,,*15
$IIVWR,166,L,10.3,N,,,,*7C
$GPRMC,000012.4,A,4817.08878,N,12238.16610,W,000.00,304.3,180713,016.8,E,D*2D
$PGRME,2.4,M,2.4,M,3.4,M*29
$IIDPT,006.3,-1.0,*45
$HCHDG,62.8,0.0,E,,*15
$IIGLL,4817.088,N,12238.166,W,000000,A,A*43
$YXXDR,A,5.8,D,PTCH,A,3.0,D,ROLL*53
$IIMTW,+16.0,C*3F
$GPRMC,000012.6,A,4817.08878,N,12238.16610,W,000.00,304.3,180713,016.8,E,D*2F
$HCHDG,62.9,0.0,E,,*14
$PGRME,2.4,M,2.4,M,3.4,M*29
$IIMWV,194,R,10.3,N,A*1D
$HCHDG,62.8,0.0,E,,*15
$IIMWV,196,T,10.2,N,A*18
$HCHDG,62.8,0.0,E,,*15
$IIRMB,A,0.00,L,,OH  ,,,,,000.6,336,,V,A*40
$GPRMC,000012.8,A,4817.08878,N,12238.16610,W,000.00,304.3,180713,016.8,E,D*21
$GPRMB,A,0.00,L,OH,OH,4817.5980,N,12238.5140,W,0.6,336,0.00,V*0E
$PGRME,2.4,M,2.4,M,3.4,M*29
$HCHDG,62.8,0.0,E,,*15
$IIRMC,000000,A,4817.088,N,12238.166,W,00.0,304,170713,16,E,A*1C
$HCHDG,62.8,0.0,E,,*15
$GPRMC,000013.0,A,4817.08878,N,12238.16610,W,000.01,304.3,180713,016.8,E,D*29
$PGRME,2.4,M,2.4,M,3.4,M*29
$YXXDR,A,5.8,D,PTCH,A,2.9,D,ROLL*5B
$PTAK,FFD1,2.9*5E
$HCHDG,62.8,0.0,E,,*15
$HCHDG,62.8,0.0,E,,*15
$GPRMC,000013.2,A,4817.08878,N,12238.16610,W,000.01,304.3,180713,016.8,E,D*2B
$PGRME,2.4,M,2.4,M,3.4,M*29
$HCHDG,62.9,0.0,E,,*14
$HCHDG,62.8,0.0,E,,*15
$IIVHW,,,,,00.0,N,,*19
$GPRMC,000013.4,A,4817.08878,N,12238.16610,W,000.01,304.3,180713,016.8,E,D*2D
$PGRME,2.4,M,2.4,M,3.4,M*29
$IIVLW,01916,N,025.9,N*52
$HCHDG,62.8,0.0,E,,*15
$IIVWR,165,L,10.3,N,,,,*7F
$IIDPT,006.3,-1.0,*45
$YXXDR,A,6.0,D,PTCH,A,3.0,D,ROLL*58
$GPRMC,000013.6,A,4817.08878,N,12238.16610,W,000.00,304.3,180713,016.8,E,D*2E
$HCHDG,62.8,0.0,E,,*15
$PTAK,FFP1,HEEL,@*07
$PGRME,2.4,M,2.4,M,3.4,M*29
$IIGLL,4817.088,N,12238.166,W,000000,A,A*43
$HCHDG,62.8,0.0,E,,*15
$IIMTW,+16.0,C*3F
$IIMWV,195,R,10.3,N,A*1C
$HCHDG,62.7,0.0,E,,*1A
$IIMWV,194,T,10.3,N,A*1B
$GPRMC,000013.8,A,4817.08878,N,12238.16610,W,000.01,304.3,180713,016.8,E,D*21
$GPRMB,A,0.00,L,OH,OH,4817.5980,N,12238.5140,W,0.6,336,0.01,V*0F
$PGRME,2.4,M,2.4,M,3.4,M*29
$HCHDG,62.7,0.0,E,,*1A
$IIRMB,A,0.00,L,,OH  ,,,,,000.6,336,,V,A*40
$HCHDG,62.6,0.0,E,,*1B
$GPRMC,000014.0,A,4817.08878,N,12238.16610,W,000.01,304.3,180713,016.8,E,D*2E
$PGRME,2.4,M,2.4,M,3.4,M*29
$YXXDR,A,6.0,D,PTCH,A,3.1,D,ROLL*59
$HCHDG,62.6,0.0,E,,*1B
$HCHDG,62.6,0.0,E,,*1B
$GPRMC,000014.2,A,4817.08878,N,12238.16610,W,000.01,304.3,180713,016.8,E,D*2C
$PGRME,2.4,M,2.4,M,3.4,M*29
$HCHDG,62.5,0.0,E,,*18
$HCHDG,62.5,0.0,E,,*18
$GPRMC,000014.4,A,4817.08878,N,12238.16610,W,000.00,304.3,180713,016.8,E,D*2B
$PGRME,2.4,M,2.4,M,3.4,M*29
$IIRMC,000000,A,4817.088,N,12238.166,W,00.0,304,170713,16,E,A*1C
$HCHDG,62.5,0.0,E,,*18
$IIVHW,,,,,00.0,N,,*19
$YXXDR,A,5.8,D,PTCH,A,3.3,D,ROLL*50
$PTAK,FFD1,3.3*55
$IIVLW,01916,N,025.9,N*52
$GPRMC,000014.6,A,4817.08878,N,12238.16610,W,000.00,304.3,180713,016.8,E,D*29
$PGRME,2.4,M,2.4,M,3.4,M*29
$HCHDG,62.5,0.0,E,,*18
$IIVWR,163,L,10.4,N,,,,*7E
$HCHDG,62.5,0.0,E,,*18
$IIDPT,006.3,-1.0,*45
$HCHDG,62.3,0.0,E,,*1E
$IIGLL,4817.088,N,12238.166,W,000000,A,A*43
$GPRMC,000014.8,A,4817.08878,N,12238.16610,W,000.01,304.3,180713,016.8,E,D*26
$PGRME,2.4,M,2.4,M,3.4,M*29
$IIMTW,+16.0,C*3F
$HCHDG,62.3,0.0,E,,*1E
$IIMWV,197,R,10.4,N,A*19
$IIMWV,195,T,10.3,N,A*1A
$HCHDG,62.3,0.0,E,,*1E
$GPRMC,000015.0,A,4817.08878,N,12238.16610,W,000.01,304.3,180713,016.8,E,D*2F
$GPRMB,A,0.00,L,OH,OH,4817.5980,N,12238.5140,W,0.6,336,0.01,V*0F
$PGRME,2.4,M,2.4,M,3.4,M*29
$YXXDR,A,5.9,D,PTCH,A,3.1,D,ROLL*53
$HCHDG,62.3,0.0,E,,*1E
$HCHDG,62.3,0.0,E,,*1E
$GPRMC,000015.2,A,4817.08878,N,12238.16610,W,000.01,304.3,180713,016.8,E,D*2D
$PGRME,2.4,M,2.4,M,3.4,M*29
$HCHDG,62.3,0.0,E,,*1E
$HCHDG,62.2,0.0,E,,*1F
$GPRMC,000015.4,A,4817.08878,N,12238.16610,W,000.00,304.3,180713,016.8,E,D*2A
$PGRME,2.4,M,2.4,M,3.4,M*29
$IIRMB,A,0.00,L,,OH  ,,,,,000.6,336,,V,A*40
$HCHDG,62.1,0.0,E,,*1C
$YXXDR,A,5.8,D,PTCH,A,2.9,D,ROLL*5B
$IIRMC,000000,A,4817.088,N,12238.166,W,00.0,304,170713,16,E,A*1C
$GPRMC,000015.6,A,4817.08878,N,12238.16610,W,000.01,304.3,180713,016.8,E,D*29
$PGRME,2.4,M,2.4,M,3.4,M*29
$HCHDG,62.2,0.0,E,,*1F
$IIVHW,,,,,00.0,N,,*19
$IIVLW,01916,N,025.9,N*52
$HCHDG,62.1,0.0,E,,*1C
$IIVWR,163,L,10.0,N,,,,*7A
$HCHDG,62.0,0.0,E,,*1D
$IIDPT,006.3,-1.0,*45
$GPRMC,000015.8,A,4817.08878,N,12238.16611,W,000.00,304.3,180713,016.8,E,D*27
$PGRME,2.4,M,2.4,M,3.4,M*29
$IIGLL,4817.088,N,12238.166,W,000000,A,A*43
$HCHDG,61.9,0.0,E,,*17
$IIMTW,+16.0,C*3F
$HCHDG,61.9,0.0,E,,*17
$GPRMC,000016.0,A,4817.08878,N,12238.16611,W,000.01,304.3,180713,016.8,E,D*2D
$GPRMB,A,0.00,L,OH,OH,4817.5980,N,12238.5140,W,0.6,336,0.01,V*0F
$PGRME,2.4,M,2.4,M,3.4,M*29
$YXXDR,A,5.8,D,PTCH,A,2.9,D,ROLL*5B
$PTAK,FFD1,2.9*5E
$HCHDG,62.0,0.0,E,,*1D
$HCHDG,61.8,0.0,E,,*16
$GPRMC,000016.2,A,4817.08878,N,12238.16611,W,000.01,304.3,180713,016.8,E,D*2F
$PGRME,2.4,M,2.4,M,3.4,M*29
$HCHDG,61.8,0.0,E,,*16
$HCHDG,61.9,0.0,E,,*17
$IIMWV,195,R,10.6,N,A*19
$GPRMC,000016.4,A,4817.08878,N,12238.16611,W,000.01,304.3,180713,016.8,E,D*29
$PGRME,2.4,M,2.4,M,3.4,M*29
$IIMWV,197,T,10.0,N,A*1B
$HCHDG,61.9,0.0,E,,*17
$IIRMB,A,0.00,L,,OH  ,,,,,000.6,336,,V,A*40
$YXXDR,A,5.8,D,PTCH,A,2.9,D,ROLL*5B
$GPRMC,000016.6,A,4817.08878,N,12238.16611,W,000.01,304.3,180713,016.8,E,D*2B
$PGRME,2.4,M,2.4,M,3.4,M*29
$HCHDG,61.8,0.0,E,,*16
$IIRMC,000000,A,4817.088,N,12238.166,W,00.0,304,170713,16,E,A*1C
$HCHDG,61.8,0.0,E,,*16
$IIVHW,,,,,00.0,N,,*19
$HCHDG,61.8,0.0,E,,*16
$IIVLW,01916,N,025.9,N*52
$GPRMC,000016.8,A,4817.08878,N,12238.16611,W,000.00,304.3,180713,016.8,E,D*24
$PGRME,2.4,M,2.4,M,3.4,M*29
$IIVWR,165,L,10.6,N,,,,*7A
$HCHDG,61.7,0.0,E,,*19
$IIDPT,006.3,-1.0,*45
$HCHDG,61.8,0.0,E,,*16
$GPRMC,000017.0,A,4817.08878,N,12238.16611,W,000.00,304.3,180713,016.8,E,D*2D
$GPRMB,A,0.00,L,OH,OH,4817.5980,N,12238.5140,W,0.6,336,0.00,V*0E
$PGRME,2.4,M,2.4,M,3.4,M*29
$YXXDR,A,5.8,D,PTCH,A,3.0,D,ROLL*53
$PTAK,FFD1,3.0*56
$HCHDG,61.7,0.0,E,,*19
$HCHDG,61.7,0.0,E,,*19
$GPRMC,000017.2,A,4817.08878,N,12238.16611,W,000.01,304.3,180713,016.8,E,D*2E
$PGRME,2.4,M,2.4,M,3.4,M*29
$HCHDG,61.7,0.0,E,,*19
$HCHDG,61.7,0.0,E,,*19
$GPRMC,000017.4,A,4817.08878,N,12238.16611,W,000.01,304.3,180713,016.8,E,D*28
$PGRME,2.4,M,2.4,M,3.4,M*29
$IIGLL,4817.088,N,12238.166,W,000000,A,A*43
$IIMTW,+16.0,C*3F
$HCHDG,61.8,0.0,E,,*16
$IIMWV,193,R,11.4,N,A*1C
$YXXDR,A,5.9,D,PTCH,A,3.1,D,ROLL*53
$IIMWV,195,T,10.6,N,A*1F
$HCHDG,61.6,0.0,E,,*18
$GPRMC,000017.6,A,4817.08878,N,12238.16611,W,000.01,304.3,180713,016.8,E,D*2A
$PGRME,2.4,M,2.4,M,3.4,M*29
$IIRMB,A,0.00,L,,OH  ,,,,,000.6,336,,V,A*40
$HCHDG,61.6,0.0,E,,*18
$PTAK,FFP1,HEEL,@*07
$HCHDG,61.6,0.0,E,,*18
$GPRMC,000017.8,A,4817.08878,N,12238.16611,W,000.00,304.3,180713,016.8,E,D*25
$PGRME,2.4,M,2.4,M,3.4,M*29
$IIRMC,000000,A,4817.088,N,12238.166,W,00.0,304,170713,16,E,A*1C
$IIVHW,,,,,00.0,N,,*19
$HCHDG,61.6,0.0,E,,*18
$IIVLW,01916,N,025.9,N*52
$HCHDG,61.6,0.0,E,,*18
$GPRMC,000018.0,A,4817.08878,N,12238.16611,W,000.00,304.3,180713,016.8,E,D*22
$PGRME,2.4,M,2.4,M,3.4,M*29
$YXXDR,A,5.8,D,PTCH,A,3.4,D,ROLL*57
$HCHDG,61.5,0.0,E,,*1B
$HCHDG,61.6,0.0,E,,*18
$GPRMC,000018.2,A,4817.08878,N,12238.16612,W,000.00,304.3,180713,016.8,E,D*23
$GPRMB,A,0.00,L,OH,OH,4817.5980,N,12238.5140,W,0.6,336,0.00,V*0E
$PGRME,2.4,M,2.4,M,3.4,M*29
$HCHDG,61.5,0.0,E,,*1B
$HCHDG,61.5,0.0,E,,*1B
$IIVWR,168,L,12.3,N,,,,*70
$GPRMC,000018.4,A,4817.08878,N,12238.16612,W,000.01,304.3,180713,016.8,E,D*24
$PGRME,2.4,M,2.4,M,3.4,M*29
$IIDPT,006.3,-1.0,*45
$HCHDG,61.5,0.0,E,,*1B
$IIGLL,4817.088,N,12238.166,W,000000,A,A*43
$YXXDR,A,5.8,D,PTCH,A,3.4,D,ROLL*57
$PTAK,FFD1,3.4*52
$IIMTW,+16.0,C*3F
$HCHDG,61.5,0.0,E,,*1B
$GPRMC,000018.6,A,4817.08878,N,12238.16612,W,000.01,304.3,180713,016.8,E,D*26
$PGRME,2.4,M,2.4,M,3.4,M*29
$IIMWV,192,R,12.3,N,A*19
$HCHDG,61.4,0.0,E,,*1A
$IIMWV,193,T,11.4,N,A*1A
$HCHDG,61.4,0.0,E,,*1A
$IIRMB,A,0.00,L,,OH  ,,,,,000.6,336,,V,A*40
$GPRMC,000018.8,A,4817.08878,N,12238.16612,W,000.01,304.3,180713,016.8,E,D*28
$PGRME,2.4,M,2.4,M,3.4,M*29
$HCHDG,61.4,0.0,E,,*1A
$IIRMC,000000,A,4817.088,N,12238.166,W,00.0,304,170713,16,E,A*1C
$HCHDG,61.3,0.0,E,,*1D
$GPRMC,000019.0,A,4817.08878,N,12238.16612,W,000.00,304.3,180713,016.8,E,D*20
$PGRME,2.4,M,2.4,M,3.4,M*29
$YXXDR,A,5.8,D,PTCH,A,3.3,D,ROLL*50
$HCHDG,61.3,0.0,E,,*1D
$HCHDG,61.3,0.0,E,,*1D
$GPRMC,000019.2,A,4817.08878,N,12238.16612,W,000.01,304.3,180713,016.8,E,D*23
$PGRME,2.4,M,2.4,M,3.4,M*29
$HCHDG,61.2,0.0,E,,*1C
$HCHDG,61.2,0.0,E,,*1C
$IIVHW,,,,,00.0,N,,*19
$GPRMC,000019.4,A,4817.08878,N,12238.16612,W,000.01,304.3,180713,016.8,E,D*25
$GPRMB,A,0.00,L,OH,OH,4817.5980,N,12238.5140,W,0.6,336,0.01,V*0F
$PGRME,2.4,M,2.4,M,3.4,M*29
$IIVLW,01916,N,025.9,N*52
$HCHDG,61.2,0.0,E,,*1C
$IIVWR,170,L,12.3,N,,,,*79
$YXXDR,A,5.8,D,PTCH,A,3.3,D,ROLL*50
$PTAK,FFD1,3.3*55
$IIDPT,006.3,-1.0,*45
$HCHDG,61.1,0.0,E,,*1F
$GPRMC,000019.6,A,4817.08878,N,12238.16612,W,000.01,304.3,180713,016.8,E,D*27
$PGRME,2.4,M,2.4,M,3.4,M*29
$IIGLL,4817.088,N,12238.166,W,000000,A,A*43
$HCHDG,61.1,0.0,E,,*1F
$IIMTW,+16.0,C*3F
$IIMWV,190,R,12.3,N,A*1B
$HCHDG,61.1,0.0,E,,*1F
$IIMWV,192,T,12.3,N,A*1F
$GPRMC,000019.8,A,4817.08878,N,12238.16612,W,000.01,304.3,180713,016.8,E,D*29
$PGRME,2.4,M,2.4,M,3.4,M*29
$HCHDG,61.1,0.0,E,,*1F
$IIRMB,A,0.00,L,,OH  ,,,,,000.6,336,,V,A*40
$HCHDG,61.1,0.0,E,,*1F
$GPRMC,000020.0,A,4817.08878,N,12238.16613,W,000.00,304.3,180713,016.8,E,D*2B
$PGRME,2.4,M,2.4,M,3.4,M*29
$YXXDR,A,5.8,D,PTCH,A,3.3,D,ROLL*50
$HCHDG,61.1,0.0,E,,*1F
$HCHDG,61.1,0.0,E,,*1F
$GPRMC,000020.2,A,4817.08878,N,12238.16613,W,000.01,304.3,180713,016.8,E,D*28
$PGRME,2.4,M,2.4,M,3.4,M*29
$HCHDG,61.1,0.0,E,,*1F
$HCHDG,61.1,0.0,E,,*1F
$GPRMC,000020.4,A,4817.08878,N,12238.16613,W,000.00,304.3,180713,016.8,E,D*2F
$PGRME,2.4,M,2.4,M,3.4,M*29
$HCHDG,61.0,0.0,E,,*1E
$IIRMC,000000,A,4817.088,N,12238.166,W,00.0,304,170713,16,E,A*1C
$IIVHW,,,,,00.0,N,,*19
$YXXDR,A,5.9,D,PTCH,A,3.1,D,ROLL*53
$IIVLW,01916,N,025.9,N*52
$HCHDG,61.0,0.0,E,,*1E
$GPRMC,000020.6,A,4817.08878,N,12238.16613,W,000.02,304.3,180713,016.8,E,D*2F
$GPRMB,A,0.00,L,OH,OH,4817.5980,N,12238.5140,W,0.6,336,0.02,V*0C
$PGRME,2.4,M,2.4,M,3.4,M*29
$IIVWR,173,L,12.3,N,,,,*7A
$HCHDG,61.0,0.0,E,,*1E
$IIDPT,006.3,-1.0,*45
$HCHDG,61.0,0.0,E,,*1E
$IIGLL,4817.088,N,12238.166,W,000000,A,A*43
$GPRMC,000020.8,A,4817.08878,N,12238.16613,W,000.00,304.3,180713,016.8,E,D*23
$PGRME,2.4,M,2.4,M,3.4,M*29
$IIMTW,+16.0,C*3F
$HCHDG,61.0,0.0,E,,*1E
$IIMWV,187,R,12.3,N,A*1D
$IIMWV,190,T,12.3,N,A*1D
$HCHDG,61.0,0.0,E,,*1E
$GPRMC,000021.0,A,4817.08878,N,12238.16614,W,000.01,304.3,180713,016.8,E,D*2C
$PGRME,2.4,M,2.4,M,3.4,M*29
$YXXDR,A,5.8,D,PTCH,A,3.3,D,ROLL*50
$PTAK,FFD1,3.3*55
$HCHDG,61.0,0.0,E,,*1E
$HCHDG,61.0,0.0,E,,*1E
$GPRMC,000021.2,A,4817.08878,N,12238.16614,W,000.00,304.3,180713,016.8,E,D*2F
$PGRME,2.4,M,2.4,M,3.4,M*29
$HCHDG,61.0,0.0,E,,*1E
$HCHDG,61.0,0.0,E,,*1E
$GPRMC,000021.4,A,4817.08878,N,12238.16614,W,000.01,304.3,180713,016.8,E,D*28
$PGRME,2.4,M,2.4,M,3.4,M*29
$IIRMB,A,0.00,L,,OH  ,,,,,000.6,336,,V,A*40
$HCHDG,61.0,0.0,E,,*1E
$YXXDR,A,5.8,D,PTCH,A,3.3,D,ROLL*50
$IIRMC,000000,A,4817.088,N,12238.166,W,00.0,304,170713,16,E,A*1C
$HCHDG,61.0,0.0,E,,*1E
$GPRMC,000021.6,A,4817.08878,N,12238.16614,W,000.01,304.3,180713,016.8,E,D*2A
$PGRME,2.4,M,2.4,M,3.4,M*29
$IIVHW,,,,,00.0,N,,*19
$HCHDG,61.0,0.0,E,,*1E
$IIVLW,01916,N,025.9,N*52
$IIVWR,173,L,12.2,N,,,,*7B
$HCHDG,61.0,0.0,E,,*1E
$PTAK,FFP1,HEEL,@*07
$IIDPT,006.3,-1.0,*45
$GPRMC,000021.8,A,4817.08878,N,12238.16614,W,000.01,304.3,180713,016.8,E,D*24
$GPRMB,A,0.00,L,OH,OH,4817.5980,N,12238.5140,W,0.6,336,0.01,V*0F
$PGRME,2.4,M,2.4,M,3.4,M*29
$HCHDG,61.0,0.0,E,,*1E
$IIGLL,4817.088,N,12238.166,W,000000,A,A*43
$IIMTW,+16.0,C*3F
$HCHDG,61.1,0.0,E,,*1F
$GPRMC,000022.0,A,4817.08878,N,12238.16614,W,000.01,304.3,180713,016.8,E,D*2F
$PGRME,2.4,M,2.4,M,3.4,M*29
$YXXDR,A,6.0,D,PTCH,A,3.2,D,ROLL*5A
$PTAK,FFD1,3.2*54
$HCHDG,61.1,0.0,E,,*1F
$HCHDG,61.1,0.0,E,,*1F
$GPRMC,000022.2,A,4817.08878,N,12238.16614,W,000.01,304.3,180713,016.8,E,D*2D
$PGRME,2.4,M,2.4,M,3.4,M*29
$HCHDG,61.1,0.0,E,,*1F
$HCHDG,61.1,0.0,E,,*1F
$IIMWV,188,R,11.7,N,A*15
$GPRMC,000022.4,A,4817.08878,N,12238.16614,W,000.01,304.3,180713,016.8,E,D*2B
$PGRME,2.4,M,2.4,M,3.4,M*29
$IIMWV,187,T,12.2,N,A*1A
$HCHDG,61.1,0.0,E,,*1F
$IIRMB,A,0.00,L,,OH  ,,,,,000.6,336,,V,A*40
$YXXDR,A,5.8,D,PTCH,A,3.3,D,ROLL*50
$GPRMC,000022.6,A,4817.08878,N,12238.16615,W,000.01,304.3,180713,016.8,E,D*28
$PGRME,2.4,M,2.4,M,3.4,M*29
$HCHDG,61.1,0.0,E,,*1F
$HCHDG,61.1,0.0,E,,*1F
$IIRMC,000000,A,4817.088,N,12238.166,W,00.0,304,170713,16,E,A*1C
$IIVHW,,,,,00.0,N,,*19
$IIVLW,01916,N,025.9,N*52
$HCHDG,61.1,0.0,E,,*1F
$GPRMC,000022.8,A,4817.08878,N,12238.16615,W,000.00,304.3,180713,016.8,E,D*27
$GPRMB,A,0.00,L,OH,OH,4817.5980,N,12238.5140,W,0.6,336,0.00,V*0E
$PGRME,2.4,M,2.4,M,3.4,M*29
$IIVWR,172,L,11.7,N,,,,*7C
$HCHDG,61.1,0.0,E,,*1F
$IIDPT,006.3,-1.0,*45
$HCHDG,61.1,0.0,E,,*1F
$GPRMC,000023.0,A,4817.08878,N,12238.16615,W,000.00,304.3,180713,016.8,E,D*2E
$PGRME,2.4,M,2.4,M,3.4,M*29
$YXXDR,A,5.8,D,PTCH,A,3.0,D,ROLL*53
$HCHDG,61.1,0.0,E,,*1F
$HCHDG,61.1,0.0,E,,*1F
$GPRMC,000023.2,A,4817.08878,N,12238.16615,W,000.01,304.3,180713,016.8,E,D*2D
$PGRME,2.4,M,2.4,M,3.4,M*29
$HCHDG,61.1,0.0,E,,*1F
$HCHDG,61.1,0.0,E,,*1F
$GPRMC,000023.4,A,4817.08878,N,12238.16615,W,000.00,304.3,180713,016.8,E,D*2A
$PGRME,2.4,M,2.4,M,3.4,M*29
$IIGLL,4817.088,N,12238.166,W,000000,A,A*43
$IIMTW,+16.0,C*3F
$HCHDG,61.1,0.0,E,,*1F
$IIMWV,190,R,11.9,N,A*12
$YXXDR,A,5.9,D,PTCH,A,3.1,D,ROLL*53
$PTAK,FFD1,3.1*57
$IIMWV,188,T,11.7,N,A*13
$HCHDG,61.1,0.0,E,,*1F
$GPRMC,000023.6,A,4817.08878,N,12238.16615,W,000.01,304.3,180713,016.8,E,D*29
$PGRME,2.4,M,2.4,M,3.4,M*29
$IIRMB,A,0.00,L,,OH  ,,,,,000.6,336,,V,A*40
$HCHDG,61.2,0.0,E,,*1C
$HCHDG,61.2,0.0,E,,*1C
$GPRMC,000023.8,A,4817.08878,N,12238.16615,W,000.00,304.3,180713,016.8,E,D*26
$IIRMC,000000,A,4817.088,N,12238.166,W,00.0,304,170713,16,E,A*1C
$PGRME,2.4,M,2.4,M,3.4,M*29
$IIVHW,,,,,00.0,N,,*19
$HCHDG,61.2,0.0,E,,*1C
$IIVLW,01916,N,025.9,N*52
$HCHDG,61.2,0.0,E,,*1C
$GPRMC,000024.0,A,4817.08878,N,12238.16615,W,000.01,304.3,180713,016.8,E,D*28
$GPRMB,A,0.00,L,OH,OH,4817.5980,N,12238.5140,W,0.6,336,0.01,V*0F
$PGRME,2.4,M,2.4,M,3.4,M*29
$YXXDR,A,5.8,D,PTCH,A,3.0,D,ROLL*53
$HCHDG,61.2,0.0,E,,*1C
$HCHDG,61.3,0.0,E,,*1D
$GPRMC,000024.2,A,4817.08878,N,12238.16615,W,000.01,304.3,180713,016.8,E,D*2A
$PGRME,2.4,M,2.4,M,3.4,M*29
$HCHDG,61.1,0.0,E,,*1F
$HCHDG,61.2,0.0,E,,*1C
$IIVWR,169,L,11.3,N,,,,*72
$GPRMC,000024.4,A,4817.08878,N,12238.16615,W,000.01,304.3,180713,016.8,E,D*2C
$PGRME,2.4,M,2.4,M,3.4,M*29
$IIDPT,006.3,-1.0,*45
$HCHDG,61.2,0.0,E,,*1C
$IIGLL,4817.088,N,12238.166,W,000000,A,A*43
$YXXDR,A,5.8,D,PTCH,A,2.9,D,ROLL*5B
$PTAK,FFD1,2.9*5E
$IIMTW,+16.0,C*3F
$HCHDG,61.2,0.0,E,,*1C
$GPRMC,000024.6,A,4817.08878,N,12238.16615,W,000.01,304.3,180713,016.8,E,D*2E
$PGRME,2.4,M,2.4,M,3.4,M*29
$IIMWV,191,R,11.3,N,A*19
$HCHDG,61.2,0.0,E,,*1C
$IIMWV,190,T,11.9,N,A*14
$HCHDG,61.2,0.0,E,,*1C
$IIRMB,A,0.00,L,,OH  ,,,,,000.6,336,,V,A*40
$GPRMC,000024.8,A,4817.08878,N,12238.16615,W,000.00,304.3,180713,016.8,E,D*21
$PGRME,2.4,M,2.4,M,3.4,M*29
$HCHDG,61.2,0.0,E,,*1C
$IIRMC,000000,A,4817.088,N,12238.166,W,00.0,304,170713,16,E,A*1C
$HCHDG,61.2,0.0,E,,*1C
$GPRMC,000025.0,A,4817.08878,N,12238.16615,W,000.01,304.3,180713,016.8,E,D*29
$GPRMB,A,0.00,L,OH,OH,4817.5980,N,12238.5140,W,0.6,336,0.01,V*0F
$PGRME,2.4,M,2.4,M,3.4,M*29
$YXXDR,A,5.8,D,PTCH,A,2.9,D,ROLL*5B
$HCHDG,61.2,0.0,E,,*1C
$HCHDG,61.2,0.0,E,,*1C
$GPRMC,000025.2,A,4817.08878,N,12238.16615,W,000.01,304.3,180713,016.8,E,D*2B
$PGRME,2.4,M,2.4,M,3.4,M*29
$HCHDG,61.2,0.0,E,,*1C
$HCHDG,61.2,0.0,E,,*1C
$IIVHW,,,,,00.0,N,,*19
$GPRMC,000025.4,A,4817.08878,N,12238.16615,W,000.01,304.3,180713,016.8,E,D*2D
$PGRME,2.4,M,2.4,M,3.4,M*29
$IIVLW,01916,N,025.9,N*52
$HCHDG,61.2,0.0,E,,*1C
$IIVWR,168,L,10.9,N,,,,*78
$YXXDR,A,5.8,D,PTCH,A,3.0,D,ROLL*53
$IIDPT,006.3,-1.0,*45
$HCHDG,61.2,0.0,E,,*1C
$GPRMC,000025.6,A,4817.08878,N,12238.16615,W,000.01,304.3,180713,016.8,E,D*2F
$PGRME,2.4,M,2.4,M,3.4,M*29
$IIGLL,4817.088,N,12238.166,W,000000,A,A*43
$HCHDG,61.2,0.0,E,,*1C
$IIMTW,+16.0,C*3F
$IIMWV,192,R,10.9,N,A*11
$HCHDG,61.2,0.0,E,,*1C
$PTAK,FFP1,HEEL,@*07
$IIMWV,191,T,11.3,N,A*1F
$GPRMC,000025.8,A,4817.08878,N,12238.16615,W,000.00,304.3,180713,016.8,E,D*20
$PGRME,2.4,M,2.4,M,3.4,M*29
$HCHDG,61.1,0.0,E,,*1F
$IIRMB,A,0.00,L,,OH  ,,,,,000.6,336,,V,A*40
$HCHDG,61.1,0.0,E,,*1F
$GPRMC,000026.0,A,4817.08878,N,12238.16615,W,000.01,304.3,180713,016.8,E,D*2A
$GPRMB,A,0.00,L,OH,OH,4817.5980,N,12238.5140,W,0.6,336,0.01,V*0F
$PGRME,2.4,M,2.4,M,3.4,M*29
$YXXDR,A,5.8,D,PTCH,A,3.4,D,ROLL*57
$PTAK,FFD1,3.4*52
$HCHDG,61.0,0.0,E,,*1E
$HCHDG,61.0,0.0,E,,*1E
$GPRMC,000026.2,A,4817.08878,N,12238.16615,W,000.01,304.3,180713,016.8,E,D*28
$PGRME,2.4,M,2.4,M,3.4,M*29
$HCHDG,61.2,0.0,E,,*1C
$HCHDG,61.1,0.0,E,,*1F
$GPRMC,000026.4,A,4817.08878,N,12238.16615,W,000.00,304.3,180713,016.8,E,D*2F
$PGRME,2.4,M,2.4,M,3.4,M*29
$HCHDG,61.1,0.0,E,,*1F
$IIRMC,000000,A,4817.088,N,12238.166,W,00.0,304,170713,16,E,A*1C
$IIVHW,,,,,00.0,N,,*19
$YXXDR,A,5.9,D,PTCH,A,3.1,D,ROLL*53
$IIVLW,01916,N,025.9,N*52
$HCHDG,61.1,0.0,E,,*1F
$GPRMC,000026.6,A,4817.08878,N,12238.16615,W,000.01,304.3,180713,016.8,E,D*2C
$PGRME,2.4,M,2.4,M,3.4,M*29
$IIVWR,165,L,10.2,N,,,,*7E
$HCHDG,60.8,0.0,E,,*17
$IIDPT,006.3,-1.0,*45
$HCHDG,60.8,0.0,E,,*17
$IIGLL,4817.088,N,12238.166,W,000000,A,A*43
$GPRMC,000026.8,A,4817.08878,N,12238.16615,W,000.00,304.3,180713,016.8,E,D*23
$PGRME,2.4,M,2.4,M,3.4,M*29
$IIMTW,+16.0,C*3F
$HCHDG,60.8,0.0,E,,*17
$IIMWV,195,R,10.2,N,A*1D
$IIMWV,192,T,10.9,N,A*17
$HCHDG,60.7,0.0,E,,*18
$GPRMC,000027.0,A,4817.08878,N,12238.16615,W,000.00,304.3,180713,016.8,E,D*2A
$PGRME,2.4,M,2.4,M,3.4,M*29
$YXXDR,A,6.0,D,PTCH,A,3.1,D,ROLL*59
$HCHDG,60.6,0.0,E,,*19
$HCHDG,60.7,0.0,E,,*18
$GPRMC,000027.2,A,4817.08878,N,12238.16615,W,000.00,304.3,180713,016.8,E,D*28
$GPRMB,A,0.00,L,OH,OH,4817.5980,N,12238.5140,W,0.6,336,0.00,V*0E
$PGRME,2.4,M,2.4,M,3.4,M*29
$HCHDG,60.7,0.0,E,,*18
$HCHDG,60.7,0.0,E,,*18
$GPRMC,000027.4,A,4817.08878,N,12238.16615,W,000.00,304.3,180713,016.8,E,D*2E
$PGRME,2.4,M,2.4,M,3.4,M*29
$IIRMB,A,0.00,L,,OH  ,,,,,000.6,336,,V,A*40
$HCHDG,60.6,0.0,E,,*19
$YXXDR,A,5.8,D,PTCH,A,3.0,D,ROLL*53
$PTAK,FFD1,3.0*56
$IIRMC,000000,A,4817.088,N,12238.166,W,00.0,304,170713,16,E,A*1C
$GPRMC,000027.6,A,4817.08879,N,12238.16615,W,000.01,304.3,180713,016.8,E,D*2C
$PGRME,2.4,M,2.4,M,3.4,M*29
$HCHDG,60.6,0.0,E,,*19
$IIVHW,,,,,00.0,N,,*19
$HCHDG,60.7,0.0,E,,*18
$IIVLW,01916,N,025.9,N*52
$IIVWR,165,L,09.7,N,,,,*73
$HCHDG,60.7,0.0,E,,*18
$IIDPT,006.3,-1.0,*45
$GPRMC,000027.8,A,4817.08879,N,12238.16615,W,000.00,304.3,180713,016.8,E,D*23
$PGRME,2.4,M,2.4,M,3.4,M*29
$HCHDG,60.7,0.0,E,,*18
$IIGLL,4817.088,N,12238.166,W,000000,A,A*43
$IIMTW,+16.0,C*3F
$HCHDG,60.7,0.0,E,,*18
$GPRMC,000028.0,A,4817.08879,N,12238.16615,W,000.01,304.3,180713,016.8,E,D*25
$PGRME,2.4,M,2.4,M,3.4,M*29
$YXXDR,A,6.0,D,PTCH,A,2.8,D,ROLL*51
$HCHDG,60.7,0.0,E,,*18
$HCHDG,60.7,0.0,E,,*18
$GPRMC,000028.2,A,4817.08879,N,12238.16615,W,000.00,304.3,180713,016.8,E,D*26
$GPRMB,A,0.00,L,OH,OH,4817.5980,N,12238.5140,W,0.6,336,0.00,V*0E
$PGRME,2.4,M,2.4,M,3.4,M*29
$HCHDG,60.7,0.0,E,,*18
$HCHDG,60.6,0.0,E,,*19
$IIMWV,194,R,10.0,N,A*1E
$GPRMC,000028.4,A,4817.08879,N,12238.16615,W,000.01,304.3,180713,016.8,E,D*21
$PGRME,2.4,M,2.4,M,3.4,M*29
$IIMWV,195,T,09.7,N,A*16
$HCHDG,60.6,0.0,E,,*19
$IIRMB,A,0.00,L,,OH  ,,,,,000.6,336,,V,A*40
$YXXDR,A,6.0,D,PTCH,A,3.1,D,ROLL*59
$PTAK,FFD1,3.1*57
$HCHDG,60.6,0.0,E,,*19
$GPRMC,000028.6,A,4817.08879,N,12238.16615,W,000.00,304.3,180713,016.8,E,D*22
$PGRME,2.4,M,2.4,M,3.4,M*29
$HCHDG,60.7,0.0,E,,*18
$IIRMC,000000,A,4817.088,N,12238.166,W,00.0,304,170713,16,E,A*1C
$IIVHW,,,,,00.0,N,,*19
$HCHDG,60.7,0.0,E,,*18
$IIVLW,01916,N,025.9,N*52
$GPRMC,000028.8,A,4817.08879,N,12238.16615,W,000.00,304.3,180713,016.8,E,D*2C
$PGRME,2.4,M,2.4,M,3.4,M*29
$IIVWR,166,L,10.0,N,,,,*7F
$HCHDG,60.6,0.0,E,,*19
$IIDPT,006.3,-1.0,*45
$HCHDG,60.6,0.0,E,,*19
$GPRMC,000029.0,A,4817.08879,N,12238.16615,W,000.00,304.3,180713,016.8,E,D*25
$PGRME,2.4,M,2.4,M,3.4,M*29
$YXXDR,A,5.9,D,PTCH,A,3.1,D,ROLL*53
$HCHDG,60.6,0.0,E,,*19
$HCHDG,60.5,0.0,E,,*1A
$GPRMC,000029.2,A,4817.08879,N,12238.16615,W,000.00,304.3,180713,016.8,E,D*27
$GPRMB,A,0.00,L,OH,OH,4817.5980,N,12238.5140,W,0.6,336,0.00,V*0E
$PGRME,2.4,M,2.4,M,3.4,M*29
$HCHDG,60.5,0.0,E,,*1A
$HCHDG,60.6,0.0,E,,*19
$GPRMC,000029.4,A,4817.08879,N,12238.16615,W,000.00,304.3,180713,016.8,E,D*21
$PGRME,2.4,M,2.4,M,3.4,M*29
$IIGLL,4817.088,N,12238.166,W,000000,A,A*43
$IIMTW,+16.0,C*3F
$HCHDG,60.6,0.0,E,,*19
$IIMWV,193,R,09.3,N,A*12
$YXXDR,A,5.8,D,PTCH,A,3.3,D,ROLL*50
$IIMWV,194,T,10.0,N,A*18
$HCHDG,60.6,0.0,E,,*19
$GPRMC,000029.6,A,4817.08879,N,12238.16615,W,000.00,304.3,180713,016.8,E,D*23
$PGRME,2.4,M,2.4,M,3.4,M*29
$HCHDG,60.6,0.0,E,,*19
$IIRMB,A,0.00,L,,OH  ,,,,,000.6,336,,V,A*40
$HCHDG,60.7,0.0,E,,*18
$GPRMC,000029.8,A,4817.08879,N,12238.16615,W,000.00,304.3,180713,016.8,E,D*2D
$PTAK,FFP1,HEEL,@*07
$PGRME,2.4,M,2.4,M,3.4,M*29
$IIRMC,000000,A,4817.088,N,12238.166,W,00.0,304,170713,16,E,A*1C
$IIVHW,,,,,00.0,N,,*19
$HCHDG,60.7,0.0,E,,*18
$IIVLW,01916,N,025.9,N*52
$HCHDG,60.6,0.0,E,,*19
$GPRMC,000030.0,A,4817.08879,N,12238.16615,W,000.00,304.3,180713,016.8,E,D*2D
$PGRME,2.4,M,2.4,M,3.4,M*29
$YXXDR,A,6.0,D,PTCH,A,3.1,D,ROLL*59
$PTAK,FFD1,3.1*57
$HCHDG,60.6,0.0,E,,*19
$HCHDG,60.6,0.0,E,,*19
$GPRMC,000030.2,A,4817.08879,N,12238.16615,W,000.01,304.3,180713,016.8,E,D*2E
$PGRME,2.4,M,2.4,M,3.4,M*29
$HCHDG,60.6,0.0,E,,*19
$HCHDG,60.6,0.0,E,,*19
$IIVWR,167,L,09.5,N,,,,*73
$GPRMC,000030.4,A,4817.08879,N,12238.16615,W,000.01,304.3,180713,016.8,E,D*28
$GPRMB,A,0.00,L,OH,OH,4817.5980,N,12238.5140,W,0.6,336,0.01,V*0F
$PGRME,2.4,M,2.4,M,3.4,M*29
$IIDPT,006.3,-1.0,*45
$HCHDG,60.6,0.0,E,,*19
$IIGLL,4817.088,N,12238.166,W,000000,A,A*43
$YXXDR,A,6.0,D,PTCH,A,3.1,D,ROLL*59
$IIMTW,+16.0,C*3F
$HCHDG,60.6,0.0,E,,*19
$GPRMC,000030.6,A,4817.08879,N,12238.16615,W,000.00,304.3,180713,016.8,E,D*2B
$PGRME,2.4,M,2.4,M,3.4,M*29
$IIMWV,193,R,09.5,N,A*14
$HCHDG,60.6,0.0,E,,*19
$IIMWV,193,T,09.3,N,A*14
$HCHDG,60.6,0.0,E,,*19
$IIRMB,A,0.00,L,,OH  ,,,,,000.6,336,,V,A*40
$GPRMC,000030.8,A,4817.08879,N,12238.16615,W,000.00,304.3,180713,016.8,E,D*25
$PGRME,2.4,M,2.4,M,3.4,M*29
$HCHDG,60.7,0.0,E,,*18
$IIRMC,000000,A,4817.088,N,12238.166,W,00.0,304,170713,16,E,A*1C
$HCHDG,60.7,0.0,E,,*18
$GPRMC,000031.0,A,4817.08879,N,12238.16615,W,000.01,304.3,180713,016.8,E,D*2D
$PGRME,2.4,M,2.4,M,3.4,M*29
$YXXDR,A,5.8,D,PTCH,A,2.9,D,ROLL*5B
$HCHDG,60.7,0.0,E,,*18
$HCHDG,60.7,0.0,E,,*18
$GPRMC,000031.2,A,4817.08879,N,12238.16616,W,000.01,304.3,180713,016.8,E,D*2C
$PGRME,2.4,M,2.4,M,3.4,M*29
$HCHDG,60.6,0.0,E,,*19
$HCHDG,60.6,0.0,E,,*19
$IIVHW,,,,,00.0,N,,*19
$GPRMC,000031.4,A,4817.08879,N,12238.16616,W,000.01,304.3,180713,016.8,E,D*2A
$PGRME,2.4,M,2.4,M,3.4,M*29
$IIVLW,01916,N,025.9,N*52
$HCHDG,60.6,0.0,E,,*19
$IIVWR,168,L,09.5,N,,,,*7C
$YXXDR,A,5.8,D,PTCH,A,2.9,D,ROLL*5B
$PTAK,FFD1,2.9*5E
$IIDPT,006.3,-1.0,*45
$HCHDG,60.7,0.0,E,,*18
$GPRMC,000031.6,A,4817.08879,N,12238.16616,W,000.01,304.3,180713,016.8,E,D*28
$GPRMB,A,0.00,L,OH,OH,4817.5980,N,12238.5140,W,0.6,336,0.01,V*0F
$PGRME,2.4,M,2.4,M,3.4,M*29
$IIGLL,4817.088,N,12238.166,W,000000,A,A*43
$HCHDG,60.7,0.0,E,,*18
$IIMTW,+16.0,C*3F
$IIMWV,192,R,09.5,N,A*15
$HCHDG,60.7,0.0,E,,*18
$IIMWV,193,T,09.5,N,A*12
$GPRMC,000031.8,A,4817.08879,N,12238.16616,W,000.01,304.3,180713,016.8,E,D*26
$PGRME,2.4,M,2.4,M,3.4,M*29
$HCHDG,60.7,0.0,E,,*18
$IIRMB,A,0.00,L,,OH  ,,,,,000.6,336,,V,A*40
$HCHDG,60.7,0.0,E,,*18
$GPRMC,000032.0,A,4817.08879,N,12238.16616,W,000.01,304.3,180713,016.8,E,D*2D
$PGRME,2.4,M,2.4,M,3.4,M*29
$YXXDR,A,5.8,D,PTCH,A,2.9,D,ROLL*5B
$HCHDG,60.8,0.0,E,,*17
$HCHDG,60.8,0.0,E,,*17
$GPRMC,000032.2,A,4817.08879,N,12238.16616,W,000.01,304.3,180713,016.8,E,D*2F
$PGRME,2.4,M,2.4,M,3.4,M*29
$HCHDG,60.8,0.0,E,,*17
$HCHDG,60.8,0.0,E,,*17
$GPRMC,000032.4,A,4817.08879,N,12238.16616,W,000.01,304.3,180713,016.8,E,D*29
$PGRME,2.4,M,2.4,M,3.4,M*29
$HCHDG,61.0,0.0,E,,*1E
$IIRMC,000000,A,4817.088,N,12238.166,W,00.0,304,170713,16,E,A*1C
$IIVHW,,,,,00.0,N,,*19
$YXXDR,A,5.9,D,PTCH,A,3.1,D,ROLL*53
$PTAK,FFD1,3.1*57
$IIVLW,01916,N,025.9,N*52
$GPRMC,000032.6,A,4817.08879,N,12238.16616,W,000.01,304.3,180713,016.8,E,D*2B
$HCHDG,61.1,0.0,E,,*1F
$PGRME,2.4,M,2.4,M,3.4,M*29
$IIVWR,170,L,09.1,N,,,,*71
$HCHDG,61.1,0.0,E,,*1F
$IIDPT,006.3,-1.0,*45
$HCHDG,61.0,0.0,E,,*1E
$IIGLL,4817.088,N,12238.166,W,000000,A,A*43
$GPRMC,000032.8,A,4817.08879,N,12238.16616,W,000.01,304.3,180713,016.8,E,D*25
$GPRMB,A,0.00,L,OH,OH,4817.5980,N,12238.5140,W,0.6,336,0.01,V*0F
$PGRME,2.4,M,2.4,M,3.4,M*29
$IIMTW,+16.0,C*3F
$HCHDG,61.0,0.0,E,,*1E
$IIMWV,190,R,09.1,N,A*13
$IIMWV,192,T,09.5,N,A*13
$HCHDG,61.1,0.0,E,,*1F
$GPRMC,000033.0,A,4817.08879,N,12238.16616,W,000.01,304.3,180713,016.8,E,D*2C
$PGRME,2.4,M,2.4,M,3.4,M*29
$YXXDR,A,5.8,D,PTCH,A,3.3,D,ROLL*50
$HCHDG,61.1,0.0,E,,*1F
$HCHDG,61.2,0.0,E,,*1C
$GPRMC,000033.2,A,4817.08879,N,12238.16616,W,000.01,304.3,180713,016.8,E,D*2E
$PGRME,2.4,M,2.4,M,3.4,M*29
$HCHDG,61.2,0.0,E,,*1C
$HCHDG,61.2,0.0,E,,*1C
$GPRMC,000033.4,A,4817.08879,N,12238.16616,W,000.00,304.3,180713,016.8,E,D*29
$PGRME,2.4,M,2.4,M,3.4,M*29
$IIRMB,A,0.00,L,,OH  ,,,,,000.6,336,,V,A*40
$HCHDG,61.2,0.0,E,,*1C
$YXXDR,A,5.9,D,PTCH,A,3.1,D,ROLL*53
$PTAK,FFD1,3.1*57
$IIRMC,000000,A,4817.088,N,12238.166,W,00.0,304,170713,16,E,A*1C
$HCHDG,61.3,0.0,E,,*1D
$GPRMC,000033.6,A,4817.08879,N,12238.16616,W,000.01,304.3,180713,016.8,E,D*2A
$PGRME,2.4,M,2.4,M,3.4,M*29
$IIVHW,,,,,00.0,N,,*19
$HCHDG,61.3,0.0,E,,*1D
$IIVLW,01916,N,025.9,N*52
$IIVWR,170,L,09.2,N,,,,*72
$HCHDG,61.3,0.0,E,,*1D
$IIDPT,006.3,-1.0,*45
$GPRMC,000033.8,A,4817.08879,N,12238.16616,W,000.01,304.3,180713,016.8,E,D*24
$PTAK,FFP1,HEEL,@*07
$PGRME,2.4,M,2.4,M,3.4,M*29
$HCHDG,61.4,0.0,E,,*1A
$IIGLL,4817.088,N,12238.166,W,000000,A,A*43
$IIMTW,+16.0,C*3F
$HCHDG,61.4,0.0,E,,*1A
$GPRMC,000034.0,A,4817.08879,N,12238.16616,W,000.01,304.3,180713,016.8,E,D*2B
$GPRMB,A,0.00,L,OH,OH,4817.5980,N,12238.5140,W,0.6,336,0.01,V*0F
$PGRME,2.4,M,2.4,M,3.4,M*29
$YXXDR,A,5.8,D,PTCH,A,2.9,D,ROLL*5B
$HCHDG,61.5,0.0,E,,*1B
$HCHDG,61.5,0.0,E,,*1B
$GPRMC,000034.2,A,4817.08879,N,12238.16616,W,000.01,304.3,180713,016.8,E,D*29
$PGRME,2.4,M,2.4,M,3.4,M*29
$HCHDG,61.3,0.0,E,,*1D
$HCHDG,61.4,0.0,E,,*1A
$IIMWV,190,R,09.5,N,A*17
$GPRMC,000034.4,A,4817.08879,N,12238.16616,W,000.00,304.3,180713,016.8,E,D*2E
$PGRME,2.4,M,2.4,M,3.4,M*29
$IIMWV,190,T,09.2,N,A*16
$HCHDG,61.4,0.0,E,,*1A
$IIRMB,A,0.00,L,,OH  ,,,,,000.6,336,,V,A*40
$YXXDR,A,5.9,D,PTCH,A,2.6,D,ROLL*55
$GPRMC,000034.6,A,4817.08879,N,12238.16616,W,000.00,304.3,180713,016.8,E,D*2C
$HCHDG,61.5,0.0,E,,*1B
$PGRME,2.4,M,2.4,M,3.4,M*29
$HCHDG,61.5,0.0,E,,*1B
$IIRMC,000000,A,4817.088,N,12238.166,W,00.0,304,170713,16,E,A*1C
$IIVHW,,,,,00.0,N,,*19
$HCHDG,61.6,0.0,E,,*18
$IIVLW,01916,N,025.9,N*52
$GPRMC,000034.8,A,4817.08879,N,12238.16616,W,000.01,304.3,180713,016.8,E,D*23
$PGRME,2.4,M,2.4,M,3.4,M*29
$IIVWR,170,L,09.5,N,,,,*75
$HCHDG,61.4,0.0,E,,*1A
$IIDPT,006.3,-1.0,*45
$HCHDG,61.4,0.0,E,,*1A
$GPRMC,000035.0,A,4817.08879,N,12238.16616,W,000.01,304.3,180713,016.8,E,D*2A
$PGRME,2.4,M,2.4,M,3.4,M*29
$YXXDR,A,5.9,D,PTCH,A,2.7,D,ROLL*54
$PTAK,FFD1,2.7*50
$HCHDG,61.6,0.0,E,,*18
$HCHDG,61.6,0.0,E,,*18
$GPRMC,000035.2,A,4817.08879,N,12238.16616,W,000.01,304.3,180713,016.8,E,D*28
$GPRMB,A,0.00,L,OH,OH,4817.5980,N,12238.5140,W,0.6,336,0.01,V*0F
$PGRME,2.4,M,2.4,M,3.4,M*29
$HCHDG,61.5,0.0,E,,*1B
$HCHDG,61.6,0.0,E,,*18
$GPRMC,000035.4,A,4817.08879,N,12238.16616,W,000.00,304.3,180713,016.8,E,D*2F
$PGRME,2.4,M,2.4,M,3.4,M*29
$IIGLL,4817.088,N,12238.166,W,000000,A,A*43
$IIMTW,+16.0,C*3F
$HCHDG,61.6,0.0,E,,*18
$IIMWV,188,R,09.0,N,A*1B
$YXXDR,A,5.8,D,PTCH,A,2.9,D,ROLL*5B
$IIMWV,190,T,09.5,N,A*11
$HCHDG,61.6,0.0,E,,*18
$GPRMC,000035.6,A,4817.08880,N,12238.16616,W,000.00,304.3,180713,016.8,E,D*2B
$PGRME,2.4,M,2.4,M,3.4,M*29
$IIRMB,A,0.00,L,,OH  ,,,,,000.6,336,,V,A*40
$HCHDG,61.6,0.0,E,,*18
$HCHDG,61.7,0.0,E,,*19
$GPRMC,000035.8,A,4817.08880,N,12238.16616,W,000.00,304.3,180713,016.8,E,D*25
$IIRMC,000000,A,4817.088,N,12238.166,W,00.0,304,170713,16,E,A*1C
$PGRME,2.4,M,2.4,M,3.4,M*29
$IIVHW,,,,,00.0,N,,*19
$HCHDG,61.6,0.0,E,,*18
$IIVLW,01916,N,025.9,N*52
$HCHDG,61.6,0.0,E,,*18
$GPRMC,000036.0,A,4817.08880,N,12238.16616,W,000.00,304.3,180713,016.8,E,D*2E
$PGRME,2.4,M,2.4,M,3.4,M*29
$YXXDR,A,5.9,D,PTCH,A,3.1,D,ROLL*53
$HCHDG,61.6,0.0,E,,*18
$HCHDG,61.7,0.0,E,,*19
$GPRMC,000036.2,A,4817.08880,N,12238.16616,W,000.01,304.3,180713,016.8,E,D*2D
$PGRME,2.4,M,2.4,M,3.4,M*29
$HCHDG,61.7,0.0,E,,*19
$HCHDG,61.7,0.0,E,,*19
$IIVWR,174,L,09.2,N,,,,*76
$GPRMC,000036.4,A,4817.08880,N,12238.16616,W,000.00,304.3,180713,016.8,E,D*2A
$GPRMB,A,0.00,L,OH,OH,4817.5980,N,12238.5140,W,0.6,336,0.00,V*0E
$PGRME,2.4,M,2.4,M,3.4,M*29
$IIDPT,006.3,-1.0,*45
$HCHDG,61.7,0.0,E,,*19
$IIGLL,4817.088,N,12238.166,W,000000,A,A*43
$YXXDR,A,5.9,D,PTCH,A,3.4,D,ROLL*56
$PTAK,FFD1,3.4*52
$IIMTW,+16.0,C*3F
$HCHDG,61.6,0.0,E,,*18
$GPRMC,000036.6,A,4817.08880,N,12238.16616,W,000.01,304.3,180713,016.8,E,D*29
$PGRME,2.4,M,2.4,M,3.4,M*29
$IIMWV,186,R,09.2,N,A*17
$HCHDG,61.5,0.0,E,,*1B
$IIMWV,188,T,09.0,N,A*1D
$HCHDG,61.5,0.0,E,,*1B
$IIRMB,A,0.00,L,,OH  ,,,,,000.6,336,,V,A*40
$GPRMC,000036.8,A,4817.08880,N,12238.16616,W,000.01,304.3,180713,016.8,E,D*27
$PGRME,2.4,M,2.4,M,3.4,M*29
$HCHDG,61.7,0.0,E,,*19
$IIRMC,000000,A,4817.088,N,12238.166,W,00.0,304,170713,16,E,A*1C
$HCHDG,61.7,0.0,E,,*19
$GPRMC,000037.0,A,4817.08880,N,12238.16617,W,000.01,304.3,180713,016.8,E,D*2F
$PGRME,2.4,M,2.4,M,3.4,M*29
$YXXDR,A,6.0,D,PTCH,A,3.2,D,ROLL*5A
$HCHDG,61.6,0.0,E,,*18
$HCHDG,61.5,0.0,E,,*1B
$GPRMC,000037.2,A,4817.08880,N,12238.16617,W,000.01,304.3,180713,016.8,E,D*2D
$PGRME,2.4,M,2.4,M,3.4,M*29
$HCHDG,61.6,0.0,E,,*18
$HCHDG,61.6,0.0,E,,*18
$IIVHW,,,,,00.0,N,,*19
$GPRMC,000037.4,A,4817.08880,N,12238.16616,W,000.01,304.3,180713,016.8,E,D*2A
$PGRME,2.4,M,2.4,M,3.4,M*29
$IIVLW,01916,N,025.9,N*52
$HCHDG,61.4,0.0,E,,*1A
$IIVWR,176,L,10.5,N,,,,*7B
$YXXDR,A,5.8,D,PTCH,A,3.0,D,ROLL*53
$IIDPT,006.3,-1.0,*45
$HCHDG,61.4,0.0,E,,*1A
$GPRMC,000037.6,A,4817.08880,N,12238.16616,W,000.01,304.3,180713,016.8,E,D*28
$GPRMB,A,0.00,L,OH,OH,4817.5980,N,12238.5140,W,0.6,336,0.01,V*0F
$PGRME,2.4,M,2.4,M,3.4,M*29
$IIGLL,4817.088,N,12238.166,W,000000,A,A*43
$HCHDG,61.4,0.0,E,,*1A
$PTAK,FFP1,HEEL,@*07
$IIMTW,+16.0,C*3F
$IIMWV,184,R,10.5,N,A*1A
$HCHDG,61.5,0.0,E,,*1B
$IIMWV,186,T,09.2,N,A*11
$GPRMC,000037.8,A,4817.08880,N,12238.16616,W,000.01,304.3,180713,016.8,E,D*26
$PGRME,2.4,M,2.4,M,3.4,M*29
$HCHDG,61.5,0.0,E,,*1B
$IIRMB,A,0.00,L,,OH  ,,,,,000.6,336,,V,A*40
$HCHDG,61.5,0.0,E,,*1B
$GPRMC,000038.0,A,4817.08881,N,12238.16617,W,000.01,304.3,180713,016.8,E,D*21
$PGRME,2.4,M,2.4,M,3.4,M*29
$YXXDR,A,5.9,D,PTCH,A,2.7,D,ROLL*54
$PTAK,FFD1,2.7*50
$HCHDG,61.4,0.0,E,,*1A
$HCHDG,61.5,0.0,E,,*1B
$GPRMC,000038.2,A,4817.08881,N,12238.16616,W,000.01,304.3,180713,016.8,E,D*22
$PGRME,2.4,M,2.4,M,3.4,M*29
$HCHDG,61.5,0.0,E,,*1B
$HCHDG,61.5,0.0,E,,*1B
$GPRMC,000038.4,A,4817.08881,N,12238.16616,W,000.00,304.3,180713,016.8,E,D*25
$PGRME,2.4,M,2.4,M,3.4,M*29
$HCHDG,61.5,0.0,E,,*1B
$IIRMC,000000,A,4817.088,N,12238.166,W,00.0,304,170713,16,E,A*1C
$IIVHW,,,,,00.0,N,,*19
$YXXDR,A,5.9,D,PTCH,A,2.6,D,ROLL*55
$IIVLW,01916,N,025.9,N*52
$HCHDG,61.4,0.0,E,,*1A
$GPRMC,000038.6,A,4817.08881,N,12238.16616,W,000.01,304.3,180713,016.8,E,D*26
$GPRMB,A,0.00,L,OH,OH,4817.5980,N,12238.5140,W,0.6,336,0.01,V*0F
$PGRME,2.4,M,2.4,M,3.4,M*29
$IIVWR,176,L,10.0,N,,,,*7E
$HCHDG,61.4,0.0,E,,*1A
$IIDPT,006.3,-1.0,*45
$HCHDG,61.4,0.0,E,,*1A
$IIGLL,4817.088,N,12238.166,W,000000,A,A*43
$GPRMC,000038.8,A,4817.08881,N,12238.16616,W,000.00,304.3,180713,016.8,E,D*29
$PGRME,2.4,M,2.4,M,3.4,M*29
$IIMTW,+16.0,C*3F
$HCHDG,61.5,0.0,E,,*1B
$IIMWV,184,R,10.0,N,A*1F
$IIMWV,184,T,10.5,N,A*1C
$HCHDG,61.5,0.0,E,,*1B
$GPRMC,000039.0,A,4817.08881,N,12238.16616,W,000.01,304.3,180713,016.8,E,D*21
$PGRME,2.4,M,2.4,M,3.4,M*29
$YXXDR,A,5.9,D,PTCH,A,2.6,D,ROLL*55
$HCHDG,61.4,0.0,E,,*1A
$HCHDG,61.5,0.0,E,,*1B
$GPRMC,000039.2,A,4817.08881,N,12238.16616,W,000.00,304.3,180713,016.8,E,D*22
$PGRME,2.4,M,2.4,M,3.4,M*29
$HCHDG,61.5,0.0,E,,*1B
$HCHDG,61.4,0.0,E,,*1A
$GPRMC,000039.4,A,4817.08881,N,12238.16616,W,000.00,304.3,180713,016.8,E,D*24
$PGRME,2.4,M,2.4,M,3.4,M*29
$IIRMB,A,0.00,L,,OH  ,,,,,000.6,336,,V,A*40
$HCHDG,61.4,0.0,E,,*1A
$YXXDR,A,5.9,D,PTCH,A,2.7,D,ROLL*54
$PTAK,FFD1,2.7*50
$IIRMC,000000,A,4817.088,N,12238.166,W,00.0,304,170713,16,E,A*1C
$HCHDG,61.4,0.0,E,,*1A
$GPRMC,000039.6,A,4817.08882,N,12238.16616,W,000.01,304.3,180713,016.8,E,D*24
$PGRME,2.4,M,2.4,M,3.4,M*29
$IIVHW,,,,,00.0,N,,*19
$HCHDG,61.4,0.0,E,,*1A
$IIVLW,01916,N,025.9,N*52
$IIVWR,176,L,10.1,N,,,,*7F
$HCHDG,61.4,0.0,E,,*1A
$IIDPT,006.3,-1.0,*45
$GPRMC,000039.8,A,4817.08882,N,12238.16616,W,000.00,304.3,180713,016.8,E,D*2B
$GPRMB,A,0.00,L,OH,OH,4817.5980,N,12238.5140,W,0.6,336,0.00,V*0E
$PGRME,2.4,M,2.4,M,3.4,M*29
$IIGLL,4817.088,N,12238.166,W,000000,A,A*43
$HCHDG,61.4,0.0,E,,*1A
$IIMTW,+16.0,C*3F
$HCHDG,61.4,0.0,E,,*1A
$GPRMC,000040.0,A,4817.08882,N,12238.16616,W,000.00,304.3,180713,016.8,E,D*2D
$PGRME,2.4,M,2.4,M,3.4,M*29
$YXXDR,A,5.9,D,PTCH,A,2.7,D,ROLL*54
$HCHDG,61.4,0.0,E,,*1A
$HCHDG,61.3,0.0,E,,*1D
$GPRMC,000040.2,A,4817.08882,N,12238.16616,W,000.00,304.3,180713,016.8,E,D*2F
$PGRME,2.4,M,2.4,M,3.4,M*29
$HCHDG,61.3,0.0,E,,*1D
$HCHDG,61.3,0.0,E,,*1D
$IIMWV,182,R,10.2,N,A*1B
$GPRMC,000040.4,A,4817.08882,N,12238.16616,W,000.00,304.3,180713,016.8,E,D*29
$PGRME,2.4,M,2.4,M,3.4,M*29
$IIMWV,184,T,10.1,N,A*18
$HCHDG,61.3,0.0,E,,*1D
$IIRMB,A,0.00,L,,OH  ,,,,,000.6,336,,V,A*40
$YXXDR,A,5.8,D,PTCH,A,2.9,D,ROLL*5B
$PTAK,FFD1,2.9*5E
$GPRMC,000040.6,A,4817.08882,N,12238.16616,W,000.00,304.3,180713,016.8,E,D*2B
$HCHDG,61.3,0.0,E,,*1D
$PGRME,2.4,M,2.4,M,3.4,M*29
$HCHDG,61.2,0.0,E,,*1C
$IIRMC,000000,A,4817.088,N,12238.166,W,00.0,304,170713,16,E,A*1C
$IIVHW,,,,,00.0,N,,*19
$HCHDG,61.1,0.0,E,,*1F
$IIVLW,01916,N,025.9,N*52
$GPRMC,000040.8,A,4817.08883,N,12238.16616,W,000.00,304.3,180713,016.8,E,D*24
$GPRMB,A,0.00,L,OH,OH,4817.5980,N,12238.5140,W,0.6,336,0.00,V*0E
$PGRME,2.4,M,2.4,M,3.4,M*29
$IIVWR,178,L,10.2,N,,,,*72
$HCHDG,61.1,0.0,E,,*1F
$IIDPT,006.3,-1.0,*45
$HCHDG,61.1,0.0,E,,*1F
$GPRMC,000041.0,A,4817.08883,N,12238.16616,W,000.01,304.3,180713,016.8,E,D*2C
$PGRME,2.4,M,2.4,M,3.4,M*29
$YXXDR,A,5.8,D,PTCH,A,2.9,D,ROLL*5B
$HCHDG,61.1,0.0,E,,*1F
$HCHDG,61.0,0.0,E,,*1E
$GPRMC,000041.2,A,4817.08883,N,12238.16616,W,000.01,304.3,180713,016.8,E,D*2E
$PGRME,2.4,M,2.4,M,3.4,M*29
$HCHDG,61.0,0.0,E,,*1E
$HCHDG,61.0,0.0,E,,*1E
$GPRMC,000041.4,A,4817.08883,N,12238.16616,W,000.01,304.3,180713,016.8,E,D*28
$PGRME,2.4,M,2.4,M,3.4,M*29
$IIGLL,4817.088,N,12238.166,W,000000,A,A*43
$IIMTW,+16.0,C*3F
$HCHDG,61.0,0.0,E,,*1E
$IIMWV,185,R,11.0,N,A*1F
$YXXDR,A,6.0,D,PTCH,A,3.0,D,ROLL*58
$IIMWV,182,T,10.2,N,A*1D
$GPRMC,000041.6,A,4817.08883,N,12238.16616,W,000.01,304.3,180713,016.8,E,D*2A
$HCHDG,60.9,0.0,E,,*16
$PGRME,2.4,M,2.4,M,3.4,M*29
$IIRMB,A,0.00,L,,OH  ,,,,,000.6,336,,V,A*40
$HCHDG,60.9,0.0,E,,*16
$HCHDG,60.9,0.0,E,,*16
$GPRMC,000041.8,A,4817.08883,N,12238.16616,W,000.00,304.3,180713,016.8,E,D*25
$PGRME,2.4,M,2.4,M,3.4,M*29
$IIRMC,000000,A,4817.088,N,12238.166,W,00.0,304,170713,16,E,A*1C
$IIVHW,,,,,00.0,N,,*19
$PTAK,FFP1,HEEL,@*07
$HCHDG,60.9,0.0,E,,*16
$IIVLW,01916,N,025.9,N*52
$HCHDG,60.9,0.0,E,,*16
$GPRMC,000042.0,A,4817.08883,N,12238.16616,W,000.01,304.3,180713,016.8,E,D*2F
$GPRMB,A,0.00,L,OH,OH,4817.5980,N,12238.5140,W,0.6,336,0.01,V*0F
$PGRME,2.4,M,2.4,M,3.4,M*29
$YXXDR,A,6.0,D,PTCH,A,3.0,D,ROLL*58
$PTAK,FFD1,3.0*56
$HCHDG,60.9,0.0,E,,*16
$HCHDG,60.9,0.0,E,,*16
$GPRMC,000042.2,A,4817.08883,N,12238.16616,W,000.01,304.3,180713,016.8,E,D*2D
$PGRME,2.4,M,2.4,M,3.4,M*29
$HCHDG,60.9,0.0,E,,*16
$HCHDG,60.9,0.0,E,,*16
$IIVWR,173,L,09.9,N,,,,*7A
$GPRMC,000042.4,A,4817.08883,N,12238.16616,W,000.01,304.3,180713,016.8,E,D*2B
$PGRME,2.4,M,2.4,M,3.4,M*29
$IIDPT,006.3,-1.0,*45
$HCHDG,61.0,0.0,E,,*1E
$IIGLL,4817.088,N,12238.166,W,000000,A,A*43
$YXXDR,A,6.0,D,PTCH,A,3.1,D,ROLL*59
$IIMTW,+16.0,C*3F
$HCHDG,61.0,0.0,E,,*1E
$GPRMC,000042.6,A,4817.08883,N,12238.16616,W,000.01,304.3,180713,016.8,E,D*29
$PGRME,2.4,M,2.4,M,3.4,M*29
$IIMWV,187,R,09.9,N,A*1D
$HCHDG,60.9,0.0,E,,*16
$IIMWV,185,T,11.0,N,A*19
$HCHDG,60.9,0.0,E,,*16
$IIRMB,A,0.00,L,,OH  ,,,,,000.6,336,,V,A*40
$GPRMC,000042.8,A,4817.08884,N,12238.16616,W,000.01,304.3,180713,016.8,E,D*20
$PGRME,2.4,M,2.4,M,3.4,M*29
$HCHDG,60.9,0.0,E,,*16
$IIRMC,000000,A,4817.088,N,12238.166,W,00.0,304,170713,16,E,A*1C
$HCHDG,60.9,0.0,E,,*16
$GPRMC,000043.0,A,4817.08884,N,12238.16616,W,000.01,304.3,180713,016.8,E,D*29
$PGRME,2.4,M,2.4,M,3.4,M*29
$YXXDR,A,6.0,D,PTCH,A,3.1,D,ROLL*59
$HCHDG,60.9,0.0,E,,*16
$HCHDG,60.9,0.0,E,,*16
$GPRMC,000043.2,A,4817.08884,N,12238.16616,W,000.01,304.3,180713,016.8,E,D*2B
$GPRMB,A,0.00,L,OH,OH,4817.5980,N,12238.5140,W,0.6,336,0.01,V*0F
$PGRME,2.4,M,2.4,M,3.4,M*29
$HCHDG,60.9,0.0,E,,*16
$HCHDG,60.9,0.0,E,,*16
$IIVHW,,,,,00.0,N,,*19
$GPRMC,000043.4,A,4817.08884,N,12238.16616,W,000.01,304.3,180713,016.8,E,D*2D
$PGRME,2.4,M,2.4,M,3.4,M*29
$IIVLW,01916,N,025.9,N*52
$HCHDG,60.9,0.0,E,,*16
$IIVWR,172,L,10.2,N,,,,*78
$IIDPT,006.3,-1.0,*45
$YXXDR,A,6.0,D,PTCH,A,3.0,D,ROLL*58
$PTAK,FFD1,3.0*56
$HCHDG,60.9,0.0,E,,*16
$GPRMC,000043.6,A,4817.08884,N,12238.16616,W,000.01,304.3,180713,016.8,E,D*2F
$PGRME,2.4,M,2.4,M,3.4,M*29
$IIGLL,4817.088,N,12238.166,W,000000,A,A*43
$HCHDG,60.8,0.0,E,,*17
$IIMTW,+16.0,C*3F
$IIMWV,188,R,10.2,N,A*11
$HCHDG,60.8,0.0,E,,*17
$IIMWV,187,T,09.9,N,A*1B
$GPRMC,000043.8,A,4817.08884,N,12238.16616,W,000.01,304.3,180713,016.8,E,D*21
$PGRME,2.4,M,2.4,M,3.4,M*29
$HCHDG,60.8,0.0,E,,*17
$IIRMB,A,0.00,L,,OH  ,,,,,000.6,336,,V,A*40
$HCHDG,60.8,0.0,E,,*17
$GPRMC,000044.0,A,4817.08884,N,12238.16616,W,000.01,304.3,180713,016.8,E,D*2E
$PGRME,2.4,M,2.4,M,3.4,M*29
$PGRMT,GPS 18x-5Hz software ver. 3.20,,,,,,,,*30
$YXXDR,A,6.0,D,PTCH,A,3.0,D,ROLL*58
$HCHDG,60.8,0.0,E,,*17
$HCHDG,60.8,0.0,E,,*17
$GPRMC,000044.2,A,4817.08884,N,12238.16616,W,000.01,304.3,180713,016.8,E,D*2C
$PGRME,2.4,M,2.4,M,3.4,M*29
$HCHDG,60.8,0.0,E,,*17
$HCHDG,60.8,0.0,E,,*17
$GPRMC,000044.4,A,4817.08884,N,12238.16616,W,000.01,304.3,180713,016.8,E,D*2A
$GPRMB,A,0.00,L,OH,OH,4817.5980,N,12238.5140,W,0.6,336,0.01,V*0F
$PGRME,2.4,M,2.4,M,3.4,M*29
$IIRMC,000000,A,4817.088,N,12238.166,W,00.0,304,170713,16,E,A*1C
$HCHDG,60.8,0.0,E,,*17
$IIVHW,,,,,00.0,N,,*19
$YXXDR,A,6.0,D,PTCH,A,3.0,D,ROLL*58
$PTAK,FFD1,3.0*56
$IIVLW,01916,N,025.9,N*52
$GPRMC,000044.6,A,4817.08884,N,12238.16616,W,000.01,304.3,180713,016.8,E,D*28
$HCHDG,60.8,0.0,E,,*17
$PGRME,2.4,M,2.4,M,3.4,M*29
$IIVWR,174,L,10.5,N,,,,*79
$HCHDG,60.8,0.0,E,,*17
$IIDPT,006.3,-1.0,*45
$HCHDG,60.8,0.0,E,,*17
$IIGLL,4817.088,N,12238.166,W,000000,A,A*43
$GPRMC,000044.8,A,4817.08884,N,12238.16616,W,000.01,304.3,180713,016.8,E,D*26
$PGRME,2.4,M,2.4,M,3.4,M*29
$IIMTW,+16.0,C*3F
$IIMWV,186,R,10.5,N,A*18
$HCHDG,60.8,0.0,E,,*17
$IIMWV,188,T,10.2,N,A*17
$HCHDG,60.8,0.0,E,,*17
$GPRMC,000045.0,A,4817.08884,N,12238.16616,W,000.01,304.3,180713,016.8,E,D*2F
$PGRME,2.4,M,2.4,M,3.4,M*29
$YXXDR,A,5.8,D,PTCH,A,3.0,D,ROLL*53
$HCHDG,60.8,0.0,E,,*17
$HCHDG,60.9,0.0,E,,*16
$GPRMC,000045.2,A,4817.08884,N,12238.16616,W,000.01,304.3,180713,016.8,E,D*2D
$PGRME,2.4,M,2.4,M,3.4,M*29
$HCHDG,60.9,0.0,E,,*16
$HCHDG,60.9,0.0,E,,*16
$GPRMC,000045.4,A,4817.08884,N,12238.16616,W,000.01,304.3,180713,016.8,E,D*2B
$PGRME,2.4,M,2.4,M,3.4,M*29
$IIRMB,A,0.00,L,,OH  ,,,,,000.6,336,,V,A*40
$HCHDG,60.9,0.0,E,,*16
$YXXDR,A,5.8,D,PTCH,A,2.9,D,ROLL*5B
$IIRMC,000000,A,4817.088,N,12238.166,W,00.0,304,170713,16,E,A*1C
$GPRMC,000045.6,A,4817.08884,N,12238.16616,W,000.01,304.3,180713,016.8,E,D*29
$GPRMB,A,0.00,L,OH,OH,4817.5980,N,12238.5140,W,0.6,336,0.01,V*0F
$HCHDG,60.9,0.0,E,,*16
$PGRME,2.4,M,2.4,M,3.4,M*29
$IIVHW,,,,,00.0,N,,*19
$IIVLW,01916,N,025.9,N*52
$HCHDG,60.9,0.0,E,,*16
$IIVWR,175,L,11.1,N,,,,*7D
$HCHDG,60.9,0.0,E,,*16
$IIDPT,006.3,-1.0,*45
$GPRMC,000045.8,A,4817.08884,N,12238.16616,W,000.01,304.3,180713,016.8,E,D*27
$PGRME,2.4,M,2.4,M,3.4,M*29
$HCHDG,60.9,0.0,E,,*16
$PTAK,FFP1,HEEL,@*07
$IIGLL,4817.088,N,12238.166,W,000000,A,A*43
$IIMTW,+16.0,C*3F
$HCHDG,60.9,0.0,E,,*16
$GPRMC,000046.0,A,4817.08884,N,12238.16616,W,000.01,304.3,180713,016.8,E,D*2C
$PGRME,2.4,M,2.4,M,3.4,M*29
$YXXDR,A,5.9,D,PTCH,A,2.7,D,ROLL*54
$PTAK,FFD1,2.7*50
$HCHDG,61.0,0.0,E,,*1E
$HCHDG,61.0,0.0,E,,*1E
$GPRMC,000046.2,A,4817.08884,N,12238.16616,W,000.01,304.3,180713,016.8,E,D*2E
$PGRME,2.4,M,2.4,M,3.4,M*29
$HCHDG,60.9,0.0,E,,*16
$HCHDG,60.9,0.0,E,,*16
$IIMWV,187,R,11.1,N,A*1C
$GPRMC,000046.4,A,4817.08884,N,12238.16617,W,000.01,304.3,180713,016.8,E,D*29
$PGRME,2.4,M,2.4,M,3.4,M*29
$IIMWV,185,T,11.1,N,A*18
$HCHDG,60.9,0.0,E,,*16
$IIRMB,A,0.00,L,,OH  ,,,,,000.6,336,,V,A*40
$YXXDR,A,5.9,D,PTCH,A,2.7,D,ROLL*54
$HCHDG,60.9,0.0,E,,*16
$GPRMC,000046.6,A,4817.08884,N,12238.16617,W,000.01,304.3,180713,016.8,E,D*2B
$GPRMB,A,0.00,L,OH,OH,4817.5980,N,12238.5140,W,0.6,336,0.01,V*0F
$PGRME,2.4,M,2.4,M,3.4,M*29
$HCHDG,61.0,0.0,E,,*1E
$IIRMC,000000,A,4817.088,N,12238.166,W,00.0,304,170713,16,E,A*1C
$IIVHW,,,,,00.0,N,,*19
$HCHDG,61.0,0.0,E,,*1E
$IIVLW,01916,N,025.9,N*52
$GPRMC,000046.8,A,4817.08884,N,12238.16617,W,000.01,304.3,180713,016.8,E,D*25
$PGRME,2.4,M,2.4,M,3.4,M*29
$IIVWR,173,L,11.1,N,,,,*7B
$HCHDG,61.0,0.0,E,,*1E
$IIDPT,006.3,-1.0,*45
$HCHDG,61.0,0.0,E,,*1E
$GPRMC,000047.0,A,4817.08884,N,12238.16617,W,000.01,304.3,180713,016.8,E,D*2C
$PGRME,2.4,M,2.4,M,3.4,M*29
$YXXDR,A,5.9,D,PTCH,A,2.6,D,ROLL*55
$PTAK,FFD1,2.6*51
$HCHDG,61.0,0.0,E,,*1E
$HCHDG,61.0,0.0,E,,*1E
$GPRMC,000047.2,A,4817.08884,N,12238.16617,W,000.02,304.3,180713,016.8,E,D*2D
$PGRME,2.4,M,2.4,M,3.4,M*29
$HCHDG,61.1,0.0,E,,*1F
$HCHDG,61.1,0.0,E,,*1F
$GPRMC,000047.4,A,4817.08885,N,12238.16617,W,000.01,304.3,180713,016.8,E,D*29
$PGRME,2.4,M,2.4,M,3.4,M*29
$IIGLL,4817.088,N,12238.166,W,000000,A,A*43
$IIMTW,+16.0,C*3F
$HCHDG,61.0,0.0,E,,*1E
$IIMWV,187,R,11.7,N,A*1A
$YXXDR,A,5.9,D,PTCH,A,2.7,D,ROLL*54
$IIMWV,187,T,11.1,N,A*1A
$HCHDG,61.0,0.0,E,,*1E
$GPRMC,000047.6,A,4817.08885,N,12238.16617,W,000.01,304.3,180713,016.8,E,D*2B
$GPRMB,A,0.00,L,OH,OH,4817.5980,N,12238.5140,W,0.6,336,0.01,V*0F
$PGRME,2.4,M,2.4,M,3.4,M*29
$IIRMB,A,0.00,L,,OH  ,,,,,000.6,336,,V,A*40
$HCHDG,61.0,0.0,E,,*1E
$HCHDG,61.0,0.0,E,,*1E
$GPRMC,000047.8,A,4817.08885,N,12238.16617,W,000.00,304.3,180713,016.8,E,D*24
$IIRMC,000000,A,4817.088,N,12238.166,W,00.0,304,170713,16,E,A*1C
$PGRME,2.4,M,2.4,M,3.4,M*29
$IIVHW,,,,,00.0,N,,*19
$HCHDG,61.0,0.0,E,,*1E
$IIVLW,01916,N,025.9,N*52
$HCHDG,61.0,0.0,E,,*1E
$GPRMC,000048.0,A,4817.08885,N,12238.16617,W,000.01,304.3,180713,016.8,E,D*22
$PGRME,2.4,M,2.4,M,3.4,M*29
$YXXDR,A,5.9,D,PTCH,A,2.7,D,ROLL*54
$HCHDG,61.0,0.0,E,,*1E
$HCHDG,61.0,0.0,E,,*1E
$GPRMC,000048.2,A,4817.08885,N,12238.16618,W,000.01,304.3,180713,016.8,E,D*2F
$PGRME,2.4,M,2.4,M,3.4,M*29
$HCHDG,61.1,0.0,E,,*1F
$HCHDG,61.3,0.0,E,,*1D
$IIVWR,175,L,11.6,N,,,,*7A
$GPRMC,000048.4,A,4817.08885,N,12238.16618,W,000.01,304.3,180713,016.8,E,D*29
$PGRME,2.4,M,2.4,M,3.4,M*29
$IIDPT,006.3,-1.0,*45
$HCHDG,61.3,0.0,E,,*1D
$IIGLL,4817.088,N,12238.166,W,000000,A,A*43
$YXXDR,A,5.8,D,PTCH,A,2.9,D,ROLL*5B
$PTAK,FFD1,2.9*5E
$IIMTW,+16.0,C*3F
$HCHDG,61.3,0.0,E,,*1D
$GPRMC,000048.6,A,4817.08885,N,12238.16618,W,000.01,304.3,180713,016.8,E,D*2B
$GPRMB,A,0.00,L,OH,OH,4817.5980,N,12238.5140,W,0.6,336,0.01,V*0F
$PGRME,2.4,M,2.4,M,3.4,M*29
$IIMWV,185,R,11.6,N,A*19
$HCHDG,61.2,0.0,E,,*1C
$IIMWV,187,T,11.7,N,A*1C
$HCHDG,61.3,0.0,E,,*1D
$IIRMB,A,0.00,L,,OH  ,,,,,000.6,336,,V,A*40
$GPRMC,000048.8,A,4817.08885,N,12238.16618,W,000.00,304.3,180713,016.8,E,D*24
$PGRME,2.4,M,2.4,M,3.4,M*29
$HCHDG,61.2,0.0,E,,*1C
$IIRMC,000000,A,4817.088,N,12238.166,W,00.0,304,170713,16,E,A*1C
$HCHDG,61.2,0.0,E,,*1C
$GPRMC,000049.0,A,4817.08885,N,12238.16618,W,000.00,304.3,180713,016.8,E,D*2D
$PGRME,2.4,M,2.4,M,3.4,M*29
$YXXDR,A,5.9,D,PTCH,A,3.1,D,ROLL*53
$HCHDG,61.4,0.0,E,,*1A
$HCHDG,61.4,0.0,E,,*1A
$GPRMC,000049.2,A,4817.08885,N,12238.16618,W,000.00,304.3,180713,016.8,E,D*2F
$PGRME,2.4,M,2.4,M,3.4,M*29
$HCHDG,61.3,0.0,E,,*1D
$HCHDG,61.4,0.0,E,,*1A
$IIVHW,,,,,00.0,N,,*19
$GPRMC,000049.4,A,4817.08885,N,12238.16618,W,000.00,304.3,180713,016.8,E,D*29
$PGRME,2.4,M,2.4,M,3.4,M*29
$IIVLW,01916,N,025.9,N*52
$HCHDG,61.3,0.0,E,,*1D
$IIVWR,175,L,11.9,N,,,,*75
$IIDPT,006.3,-1.0,*45
$YXXDR,A,6.0,D,PTCH,A,3.2,D,ROLL*5A
$PTAK,FFD1,3.2*54
$HCHDG,61.3,0.0,E,,*1D
$GPRMC,000049.6,A,4817.08885,N,12238.16618,W,000.00,304.3,180713,016.8,E,D*2B
$GPRMB,A,0.00,L,OH,OH,4817.5980,N,12238.5140,W,0.6,336,0.00,V*0E
$PGRME,2.4,M,2.4,M,3.4,M*29
$IIGLL,4817.088,N,12238.166,W,000000,A,A*43
$HCHDG,61.4,0.0,E,,*1A
$IIMTW,+16.0,C*3F
$IIMWV,185,R,11.9,N,A*16
$HCHDG,61.4,0.0,E,,*1A
$IIMWV,185,T,11.6,N,A*1F
$GPRMC,000049.8,A,4817.08885,N,12238.16618,W,000.01,304.3,180713,016.8,E,D*24
$PGRME,2.4,M,2.4,M,3.4,M*29
$HCHDG,61.4,0.0,E,,*1A
$PTAK,FFP1,HEEL,@*07
$IIRMB,A,0.00,L,,OH  ,,,,,000.6,336,,V,A*40
$HCHDG,61.4,0.0,E,,*1A
$GPRMC,000050.0,A,4817.08885,N,12238.16618,W,000.00,304.3,180713,016.8,E,D*25
$PGRME,2.4,M,2.4,M,3.4,M*29
$YXXDR,A,5.9,D,PTCH,A,3.1,D,ROLL*53
$HCHDG,61.4,0.0,E,,*1A
$HCHDG,61.4,0.0,E,,*1A
$GPRMC,000050.2,A,4817.08885,N,12238.16618,W,000.00,304.3,180713,016.8,E,D*27
$PGRME,2.4,M,2.4,M,3.4,M*29
