$GPRMB,A,0.16,L,,OH,4817.5980,N,12238.5140,W,0.6,345,0.29,V*01
$HCHDG,241.4,0.0,E,,*2A
$PTAK,FFP1,HEEL,@*07
$PGRME,3.0,M,3.0,M,4.3,M*29
$IIDPT,005.5,-1.0,*40
$IIGLL,4817.014,N,12238.273,W,171200,A,A*44
$HCHDG,241.4,0.0,E,,*2A
$IIMTW,+15.0,C*3C
$IIMWV,007,R,15.3,N,A*13
$GPRMC,171247.8,A,4817.01426,N,12238.27849,W,005.76,256.7,150713,016.8,E,A*24
$GPRMB,A,0.16,L,,OH,4817.5980,N,12238.5140,W,0.6,345,0.17,V*0C
$HCHDG,241.4,0.0,E,,*2A
$PGRME,3.0,M,3.0,M,4.3,M*29
$IIMWV,009,T,11.1,N,A*1D
$YXXDR,A,6.3,D,PTCH,A,2.4,D,ROLL*5E
$PTAK,FFD1,2.4*53
$HCHDG,241.4,0.0,E,,*2A
$IIRMC,171200,A,4817.014,N,12238.273,W,05.7,257,150713,16,E,A*1C
$GPRMC,171248.0,A,4817.01419,N,12238.27891,W,005.75,257.7,150713,016.8,E,A*28
$GPRMB,A,0.16,L,,OH,4817.5980,N,12238.5140,W,0.6,345,0.27,V*0F
$HCHDG,241.4,0.0,E,,*2A
$PGRME,3.0,M,3.0,M,4.3,M*29
$IIVHW,,,,,03.3,N,,*19
$IIVLW,01830,N,000.0,N*59
$HCHDG,241.4,0.0,E,,*2A
$GPRMC,171248.2,A,4817.01408,N,12238.27937,W,005.70,257.2,150713,016.8,E,A*27
$HCHDG,241.3,0.0,E,,*2D
$PGRME,3.0,M,3.0,M,4.3,M*29
$HCHDG,241.3,0.0,E,,*2D
$YXXDR,A,6.3,D,PTCH,A,2.4,D,ROLL*5E
$PTAK,FFD1,2.4*53
$GPRMC,171248.4,A,4817.01398,N,12238.27986,W,005.70,257.4,150713,016.8,E,A*23
$PGRME,3.0,M,3.0,M,4.3,M*29
$HCHDG,241.3,0.0,E,,*2D
$HCHDG,241.3,0.0,E,,*2D
$IIVWR,008,R,15.2,N,,,,*6F
$GPRMC,171248.6,A,4817.01380,N,12238.28041,W,005.74,257.1,150713,016.8,E,A*24
$HCHDG,241.4,0.0,E,,*2A
$PGRME,3.0,M,3.0,M,4.3,M*29
$IIDPT,005.5,-1.0,*40
$IIGLL,4817.014,N,12238.273,W,171200,A,A*44
$HCHDG,241.4,0.0,E,,*2A
$IIMTW,+15.0,C*3C
$IIMWV,008,R,15.2,N,A*1D
$GPRMC,171248.8,A,4817.01375,N,12238.28095,W,005.71,257.2,150713,016.8,E,A*2F
$HCHDG,241.4,0.0,E,,*2A
$PGRME,3.0,M,3.0,M,4.3,M*29
$IIMWV,009,T,11.8,N,A*14
$YXXDR,A,6.6,D,PTCH,A,2.4,D,ROLL*5B
$HCHDG,241.4,0.0,E,,*2A
$IIRMC,171200,A,4817.014,N,12238.273,W,05.7,257,150713,16,E,A*1C
$GPRMC,171249.0,A,4817.01373,N,12238.28147,W,005.70,257.0,150713,016.8,E,A*2D
$HCHDG,241.4,0.0,E,,*2A
$PGRME,3.0,M,3.0,M,4.3,M*29
$IIVHW,,,,,03.3,N,,*19
$IIVLW,01830,N,000.0,N*59
$HCHDG,241.4,0.0,E,,*2A
$GPRMC,171249.2,A,4817.01364,N,12238.28196,W,005.71,256.5,150713,016.8,E,A*20
$HCHDG,241.3,0.0,E,,*2D
$PGRME,3.0,M,3.0,M,4.3,M*29
$HCHDG,241.2,0.0,E,,*2C
$YXXDR,A,6.5,D,PTCH,A,2.6,D,ROLL*5A
$GPRMC,171249.4,A,4817.01354,N,12238.28250,W,005.74,257.3,150713,016.8,E,A*2E
$GPRMB,A,0.15,L,,OH,4817.5980,N,12238.5140,W,0.6,345,0.21,V*0A
$PGRME,3.0,M,3.0,M,4.3,M*29
$HCHDG,241.3,0.0,E,,*2D
$HCHDG,241.6,0.0,E,,*28
$IIVWR,009,R,15.9,N,,,,*65
$GPRMC,171249.6,A,4817.01344,N,12238.28299,W,005.69,257.2,150713,016.8,E,A*25
$PGRME,3.0,M,3.0,M,4.3,M*29
$HCHDG,241.6,0.0,E,,*28
$IIDPT,005.5,-1.0,*40
$IIGLL,4817.013,N,12238.279,W,171200,A,A*49
$HCHDG,241.6,0.0,E,,*28
$IIMTW,+15.0,C*3C
$IIMWV,009,R,15.9,N,A*17
$GPRMC,171249.8,A,4817.01336,N,12238.28347,W,005.73,256.5,150713,016.8,E,A*21
$PGRME,3.0,M,3.0,M,4.3,M*29
$HCHDG,241.6,0.0,E,,*28
$IIMWV,010,T,11.8,N,A*1C
$YXXDR,A,6.4,D,PTCH,A,2.8,D,ROLL*55
$PTAK,FFD1,2.8*5F
$HCHDG,241.6,0.0,E,,*28
$IIRMC,171200,A,4817.013,N,12238.279,W,05.7,257,150713,16,E,A*11
$GPRMC,171250.0,A,4817.01325,N,12238.28403,W,005.67,257.1,150713,016.8,E,A*24
$PGRME,3.0,M,3.0,M,4.3,M*29
$HCHDG,241.4,0.0,E,,*2A
$IIVHW,,,,,03.7,N,,*1D
$IIVLW,01830,N,000.0,N*59
$HCHDG,241.5,0.0,E,,*2B
$GPRMC,171250.2,A,4817.01311,N,12238.28458,W,005.71,257.7,150713,016.8,E,A*2E
$PGRME,3.0,M,3.0,M,4.3,M*29
$HCHDG,241.5,0.0,E,,*2B
$HCHDG,241.4,0.0,E,,*2A
$YXXDR,A,6.4,D,PTCH,A,2.6,D,ROLL*5B
$GPRMC,171250.4,A,4817.01310,N,12238.28508,W,005.69,256.7,150713,016.8,E,A*25
$PGRME,3.0,M,3.0,M,4.3,M*29
$HCHDG,241.7,0.0,E,,*29
$HCHDG,241.8,0.0,E,,*26
$IIVWR,009,R,15.9,N,,,,*65
$GPRMC,171250.6,A,4817.01301,N,12238.28550,W,005.71,257.5,150713,016.8,E,A*20
$GPRMB,A,0.15,L,,OH,4817.5980,N,12238.5140,W,0.6,345,0.21,V*0A
$HCHDG,241.9,0.0,E,,*27
$PGRME,3.0,M,3.0,M,4.3,M*29
$IIDPT,005.5,-1.0,*40
$IIGLL,4817.013,N,12238.279,W,171200,A,A*49
$HCHDG,241.9,0.0,E,,*27
$PTAK,FFP1,HEEL,@*07
$IIMTW,+15.0,C*3C
$IIMWV,009,R,15.9,N,A*17
$GPRMC,171250.8,A,4817.01296,N,12238.28589,W,005.73,258.1,150713,016.8,E,A*2C
$HCHDG,241.8,0.0,E,,*26
$PGRME,3.0,M,3.0,M,4.3,M*29
$IIMWV,012,T,12.2,N,A*17
$YXXDR,A,6.5,D,PTCH,A,2.1,D,ROLL*5D
$HCHDG,241.8,0.0,E,,*26
$IIRMB,A,0.16,L,,OH  ,,,,,000.6,345,,V,A*43
$GPRMC,171251.0,A,4817.01289,N,12238.28634,W,005.73,258.1,150713,016.8,E,A*2E
$HCHDG,241.8,0.0,E,,*26
$PGRME,3.0,M,3.0,M,4.3,M*29
$IIRMC,171200,A,4817.013,N,12238.279,W,05.7,257,150713,16,E,A*11
$HCHDG,241.8,0.0,E,,*26
$GPRMC,171251.2,A,4817.01277,N,12238.28681,W,005.74,258.3,150713,016.8,E,A*26
$PGRME,3.0,M,3.0,M,4.3,M*29
$HCHDG,241.6,0.0,E,,*28
$HCHDG,241.9,0.0,E,,*27
$YXXDR,A,6.1,D,PTCH,A,2.6,D,ROLL*5E
$GPRMC,171251.4,A,4817.01269,N,12238.28722,W,005.77,257.6,150713,016.8,E,A*2E
$PGRME,3.0,M,3.0,M,4.3,M*29
$HCHDG,241.9,0.0,E,,*27
$HCHDG,241.8,0.0,E,,*26
$IIVHW,,,,,03.9,N,,*13
$GPRMC,171251.6,A,4817.01262,N,12238.28758,W,005.70,257.6,150713,016.8,E,A*2D
$PGRME,3.0,M,3.0,M,4.3,M*29
$HCHDG,241.7,0.0,E,,*29
$IIVLW,01830,N,000.0,N*59
$IIVWR,011,R,16.3,N,,,,*65
$HCHDG,241.7,0.0,E,,*29
$IIDPT,005.5,-1.0,*40
$GPRMC,171251.8,A,4817.01249,N,12238.28800,W,005.68,257.8,150713,016.8,E,A*2F
$PGRME,3.0,M,3.0,M,4.3,M*29
$HCHDG,241.7,0.0,E,,*29
$IIGLL,4817.013,N,12238.285,W,171200,A,A*4A
$IIMTW,+15.0,C*3C
$YXXDR,A,6.2,D,PTCH,A,2.7,D,ROLL*5C
$IIMWV,011,R,16.3,N,A*17
$HCHDG,241.6,0.0,E,,*28
$IIMWV,012,T,12.1,N,A*14
$GPRMC,171252.0,A,4817.01238,N,12238.28847,W,005.76,256.2,150713,016.8,E,A*25
$PGRME,3.0,M,3.0,M,4.3,M*29
$HCHDG,241.7,0.0,E,,*29
$IIRMB,A,0.15,L,,OH  ,,,,,000.6,345,,V,A*40
$HCHDG,241.7,0.0,E,,*29
$GPRMC,171252.2,A,4817.01225,N,12238.28896,W,005.72,257.9,150713,016.8,E,A*29
$PGRME,3.0,M,3.0,M,4.3,M*29
$HCHDG,241.3,0.0,E,,*2D
$HCHDG,241.4,0.0,E,,*2A
$YXXDR,A,6.0,D,PTCH,A,3.1,D,ROLL*59
$PTAK,FFD1,3.1*57
$GPRMC,171252.4,A,4817.01222,N,12238.28953,W,005.73,257.8,150713,016.8,E,A*20
$PGRME,3.0,M,3.0,M,4.3,M*29
$HCHDG,241.3,0.0,E,,*2D
$HCHDG,241.1,0.0,E,,*2F
$GPRMC,171252.6,A,4817.01220,N,12238.29001,W,005.67,257.7,150713,016.8,E,A*25
$HCHDG,241.1,0.0,E,,*2F
$PGRME,3.0,M,3.0,M,4.3,M*29
$IIRMC,171200,A,4817.012,N,12238.287,W,05.7,257,150713,16,E,A*11
$IIVHW,,,,,04.3,N,,*1E
$HCHDG,241.1,0.0,E,,*2F
$IIVLW,01830,N,000.0,N*59
$GPRMC,171252.8,A,4817.01220,N,12238.29048,W,005.71,257.5,150713,016.8,E,A*23
$GPRMB,A,0.15,L,,OH,4817.5980,N,12238.5140,W,0.6,346,0.17,V*0C
$HCHDG,241.1,0.0,E,,*2F
$IIVWR,011,R,16.5,N,,,,*63
$PGRME,3.0,M,3.0,M,4.3,M*29
$IIDPT,005.5,-1.0,*40
$YXXDR,A,6.2,D,PTCH,A,2.9,D,ROLL*52
$HCHDG,241.2,0.0,E,,*2C
$IIGLL,4817.012,N,12238.287,W,171200,A,A*49
$IIMTW,+15.0,C*3C
$GPRMC,171253.0,A,4817.01213,N,12238.29095,W,005.70,257.4,150713,016.8,E,A*2A
$HCHDG,241.2,0.0,E,,*2C
$PGRME,3.0,M,3.0,M,4.3,M*29
$IIMWV,011,R,16.5,N,A*11
$IIMWV,014,T,12.2,N,A*11
$HCHDG,241.1,0.0,E,,*2F
$GPRMC,171253.2,A,4817.01209,N,12238.29139,W,005.73,256.8,150713,016.8,E,A*2A
$HCHDG,241.1,0.0,E,,*2F
$PGRME,3.0,M,3.0,M,4.3,M*29
$HCHDG,241.0,0.0,E,,*2E
$YXXDR,A,6.3,D,PTCH,A,3.5,D,ROLL*5E
$GPRMC,171253.4,A,4817.01195,N,12238.29187,W,005.67,256.0,150713,016.8,E,A*22
$PGRME,3.0,M,3.0,M,4.3,M*29
$HCHDG,240.9,0.0,E,,*26
$HCHDG,241.0,0.0,E,,*2E
$IIRMB,A,0.15,L,,OH  ,,,,,000.6,346,,V,A*43
$GPRMC,171253.6,A,4817.01188,N,12238.29226,W,005.70,257.1,150713,016.8,E,A*22
$PGRME,3.0,M,3.0,M,4.3,M*29
$HCHDG,240.7,0.0,E,,*28
$HCHDG,240.7,0.0,E,,*28
$IIRMC,171200,A,4817.012,N,12238.289,W,05.7,257,150713,16,E,A*1F
$IIVHW,,,,,04.3,N,,*1E
$GPRMC,171253.8,A,4817.01183,N,12238.29268,W,005.74,256.1,150713,016.8,E,A*28
$PGRME,3.0,M,3.0,M,4.3,M*29
$HCHDG,240.7,0.0,E,,*28
$IIVLW,01830,N,000.0,N*59
$YXXDR,A,6.3,D,PTCH,A,3.5,D,ROLL*5E
$PTAK,FFD1,3.5*53
$IIVWR,012,R,17.0,N,,,,*64
$HCHDG,240.7,0.0,E,,*28
$IIDPT,005.5,-1.0,*40
$GPRMC,171254.0,A,4817.01175,N,12238.29306,W,005.69,255.7,150713,016.8,E,A*2E
$GPRMB,A,0.15,L,,OH,4817.5980,N,12238.5140,W,0.6,346,-0.02,V*25
$PGRME,3.0,M,3.0,M,4.3,M*29
$HCHDG,240.7,0.0,E,,*28
$IIGLL,4817.012,N,12238.289,W,171200,A,A*47
$IIMTW,+15.0,C*3C
$HCHDG,240.7,0.0,E,,*28
$GPRMC,171254.2,A,4817.01171,N,12238.29351,W,005.70,256.1,150713,016.8,E,A*27
$HCHDG,240.7,0.0,E,,*28
$PGRME,3.0,M,3.0,M,4.3,M*29
$HCHDG,240.7,0.0,E,,*28
$YXXDR,A,6.2,D,PTCH,A,3.2,D,ROLL*58
$GPRMC,171254.4,A,4817.01168,N,12238.29402,W,005.71,256.1,150713,016.8,E,A*29
$PGRME,3.0,M,3.0,M,4.3,M*29
$HCHDG,240.6,0.0,E,,*29
$HCHDG,240.7,0.0,E,,*28
$IIMWV,013,R,16.6,N,A*10
$GPRMC,171254.6,A,4817.01159,N,12238.29440,W,005.69,255.8,150713,016.8,E,A*2C
$HCHDG,240.8,0.0,E,,*27
$PGRME,3.0,M,3.0,M,4.3,M*29
$IIMWV,016,T,12.7,N,A*16
$HCHDG,240.7,0.0,E,,*28
$IIRMB,A,0.15,L,,OH  ,,,,,000.6,346,,V,A*43
$GPRMC,171254.8,A,4817.01149,N,12238.29475,W,005.68,255.2,150713,016.8,E,A*2E
$HCHDG,240.9,0.0,E,,*26
$PGRME,3.0,M,3.0,M,4.3,M*29
$IIRMC,171200,A,4817.011,N,12238.291,W,05.6,256,150713,16,E,A*15
$YXXDR,A,5.9,D,PTCH,A,2.6,D,ROLL*55
$IIVHW,,,,,04.2,N,,*1F
$HCHDG,240.6,0.0,E,,*29
$IIVLW,01830,N,000.0,N*59
$GPRMC,171255.0,A,4817.01140,N,12238.29514,W,005.75,256.3,150713,016.8,E,A*26
$IIVWR,013,R,16.6,N,,,,*62
$PGRME,3.0,M,3.0,M,4.3,M*29
$HCHDG,240.6,0.0,E,,*29
$IIDPT,005.5,-1.0,*40
$HCHDG,240.8,0.0,E,,*27
$GPRMC,171255.2,A,4817.01131,N,12238.29553,W,005.66,256.0,150713,016.8,E,A*20
$GPRMB,A,0.15,L,,OH,4817.5980,N,12238.5140,W,0.6,346,-0.01,V*26
$HCHDG,240.8,0.0,E,,*27
$PGRME,3.0,M,3.0,M,4.3,M*29
$HCHDG,240.7,0.0,E,,*28
$YXXDR,A,5.9,D,PTCH,A,1.9,D,ROLL*59
$PTAK,FFD1,1.9*5D
$GPRMC,171255.4,A,4817.01129,N,12238.29586,W,005.70,256.4,150713,016.8,E,A*24
$PGRME,3.0,M,3.0,M,4.3,M*29
$HCHDG,240.9,0.0,E,,*26
$HCHDG,240.5,0.0,E,,*2A
$GPRMC,171255.6,A,4817.01124,N,12238.29623,W,005.69,256.2,150713,016.8,E,A*29
$IIGLL,4817.011,N,12238.294,W,171200,A,A*48
$PGRME,3.0,M,3.0,M,4.3,M*29
$HCHDG,240.7,0.0,E,,*28
$IIMTW,+15.0,C*3C
$IIMWV,015,R,16.3,N,A*13
$HCHDG,240.7,0.0,E,,*28
$IIMWV,017,T,12.3,N,A*13
$GPRMC,171255.8,A,4817.01130,N,12238.29662,W,005.71,256.6,150713,016.8,E,A*2A
$PGRME,3.0,M,3.0,M,4.3,M*29
$HCHDG,240.8,0.0,E,,*27
$IIRMB,A,0.15,L,,OH  ,,,,,000.6,346,,V,A*43
$YXXDR,A,5.8,D,PTCH,A,1.7,D,ROLL*56
$HCHDG,240.9,0.0,E,,*26
$IIRMC,171200,A,4817.011,N,12238.294,W,05.7,256,150713,16,E,A*11
$GPRMC,171256.0,A,4817.01113,N,12238.29726,W,005.69,256.7,150713,016.8,E,A*29
$PGRME,3.0,M,3.0,M,4.3,M*29
$HCHDG,240.8,0.0,E,,*27
$IIVHW,,,,,03.9,N,,*13
$IIVLW,01830,N,000.0,N*59
$HCHDG,240.9,0.0,E,,*26
$PTAK,FFP1,HEEL,@*07
$GPRMC,171256.2,A,4817.01103,N,12238.29783,W,005.65,256.8,150713,016.8,E,A*26
$GPRMB,A,0.14,L,,OH,4817.5980,N,12238.5140,W,0.6,346,0.06,V*0D
$HCHDG,241.3,0.0,E,,*2D
$PGRME,3.0,M,3.0,M,4.3,M*29
$HCHDG,241.3,0.0,E,,*2D
$YXXDR,A,6.2,D,PTCH,A,1.8,D,ROLL*50
$GPRMC,171256.4,A,4817.01092,N,12238.29835,W,005.70,257.0,150713,016.8,E,A*26
$PGRME,3.0,M,3.0,M,4.3,M*29
$HCHDG,241.3,0.0,E,,*2D
$HCHDG,241.4,0.0,E,,*2A
$IIVWR,015,R,15.8,N,,,,*69
$GPRMC,171256.6,A,4817.01090,N,12238.29882,W,005.71,257.2,150713,016.8,E,A*29
$PGRME,3.0,M,3.0,M,4.3,M*29
$HCHDG,241.3,0.0,E,,*2D
$IIDPT,005.5,-1.0,*40
$IIGLL,4817.011,N,12238.295,W,171200,A,A*49
$HCHDG,241.8,0.0,E,,*26
$IIMTW,+15.0,C*3C
$IIMWV,015,R,15.8,N,A*1B
$GPRMC,171256.8,A,4817.01093,N,12238.29928,W,005.70,258.3,150713,016.8,E,A*2A
$HCHDG,241.8,0.0,E,,*26
$PGRME,3.0,M,3.0,M,4.3,M*29
$IIMWV,020,T,12.6,N,A*12
$YXXDR,A,6.3,D,PTCH,A,1.7,D,ROLL*5E
$PTAK,FFD1,1.7*53
$HCHDG,241.8,0.0,E,,*26
$IIRMB,A,0.15,L,,OH  ,,,,,000.6,346,,V,A*43
$GPRMC,171257.0,A,4817.01091,N,12238.29960,W,005.66,258.7,150713,016.8,E,A*2E
$PGRME,3.0,M,3.0,M,4.3,M*29
$HCHDG,241.9,0.0,E,,*27
$IIRMC,171200,A,4817.011,N,12238.295,W,05.7,256,150713,16,E,A*10
$HCHDG,241.8,0.0,E,,*26
$GPRMC,171257.2,A,4817.01090,N,12238.30000,W,005.73,257.2,150713,016.8,E,A*24
$PGRME,3.0,M,3.0,M,4.3,M*29
$HCHDG,241.8,0.0,E,,*26
$HCHDG,241.8,0.0,E,,*26
$YXXDR,A,6.1,D,PTCH,A,1.6,D,ROLL*5D
$GPRMC,171257.4,A,4817.01085,N,12238.30043,W,005.68,259.2,150713,016.8,E,A*25
$GPRMB,A,0.14,L,,OH,4817.5980,N,12238.5140,W,0.6,346,0.28,V*01
$PGRME,3.0,M,3.0,M,4.3,M*29
$HCHDG,241.8,0.0,E,,*26
$HCHDG,241.8,0.0,E,,*26
$IIVHW,,,,,03.6,N,,*1C
$GPRMC,171257.6,A,4817.01070,N,12238.30080,W,005.70,258.3,150713,016.8,E,A*2B
$PGRME,3.0,M,3.0,M,4.3,M*29
$IIVLW,01830,N,000.0,N*59
$HCHDG,241.7,0.0,E,,*29
$IIVWR,015,R,15.0,N,,,,*61
$HCHDG,241.7,0.0,E,,*29
$IIDPT,005.5,-1.0,*40
$GPRMC,171257.8,A,4817.01057,N,12238.30124,W,005.70,257.4,150713,016.8,E,A*27
$PGRME,3.0,M,3.0,M,4.3,M*29
$IIGLL,4817.010,N,12238.298,W,171200,A,A*45
$HCHDG,241.6,0.0,E,,*28
$IIMTW,+15.0,C*3C
$YXXDR,A,6.2,D,PTCH,A,2.3,D,ROLL*58
$PTAK,FFD1,2.3*54
$IIMWV,015,R,15.0,N,A*13
$HCHDG,241.6,0.0,E,,*28
$IIMWV,020,T,12.3,N,A*17
$GPRMC,171258.0,A,4817.01048,N,12238.30165,W,005.64,257.4,150713,016.8,E,A*2E
$PGRME,3.0,M,3.0,M,4.3,M*29
$HCHDG,241.5,0.0,E,,*2B
$IIRMB,A,0.14,L,,OH  ,,,,,000.6,346,,V,A*42
$HCHDG,241.5,0.0,E,,*2B
$GPRMC,171258.2,A,4817.01044,N,12238.30208,W,005.72,256.6,150713,016.8,E,A*2C
$PGRME,3.0,M,3.0,M,4.3,M*29
$HCHDG,241.3,0.0,E,,*2D
$HCHDG,241.3,0.0,E,,*2D
$YXXDR,A,6.0,D,PTCH,A,3.1,D,ROLL*59
$GPRMC,171258.4,A,4817.01042,N,12238.30236,W,005.68,256.0,150713,016.8,E,A*2C
$GPRMB,A,0.14,L,,OH,4817.5980,N,12238.5140,W,0.6,347,-0.05,V*22
$PGRME,3.0,M,3.0,M,4.3,M*29
$HCHDG,241.4,0.0,E,,*2A
$HCHDG,241.4,0.0,E,,*2A
$GPRMC,171258.6,A,4817.01037,N,12238.30275,W,005.66,256.9,150713,016.8,E,A*2C
$PGRME,3.0,M,3.0,M,4.3,M*29
$HCHDG,241.4,0.0,E,,*2A
$IIRMC,171200,A,4817.010,N,12238.300,W,05.7,258,150713,16,E,A*12
$IIVHW,,,,,03.4,N,,*1E
$HCHDG,241.3,0.0,E,,*2D
$IIVLW,01830,N,000.0,N*59
$GPRMC,171258.8,A,4817.01032,N,12238.30318,W,005.69,256.8,150713,016.8,E,A*23
$IIVWR,015,R,14.9,N,,,,*69
$PGRME,3.0,M,3.0,M,4.3,M*29
$HCHDG,241.1,0.0,E,,*2F
$IIDPT,005.6,-1.0,*43
$YXXDR,A,6.0,D,PTCH,A,2.9,D,ROLL*50
$PTAK,FFD1,2.9*5E
$HCHDG,241.3,0.0,E,,*2D
$IIGLL,4817.010,N,12238.300,W,171200,A,A*45
$IIMTW,+15.0,C*3C
$GPRMC,171259.0,A,4817.01010,N,12238.30372,W,005.62,255.6,150713,016.8,E,A*20
$PGRME,3.0,M,3.0,M,4.3,M*29
$HCHDG,241.3,0.0,E,,*2D
$IIMWV,015,R,14.9,N,A*1B
$IIMWV,020,T,11.5,N,A*12
$HCHDG,241.6,0.0,E,,*28
$GPRMC,171259.2,A,4817.00998,N,12238.30423,W,005.66,257.8,150713,016.8,E,A*21
$HCHDG,241.7,0.0,E,,*29
$PGRME,3.0,M,3.0,M,4.3,M*29
$HCHDG,241.7,0.0,E,,*29
$YXXDR,A,6.3,D,PTCH,A,2.5,D,ROLL*5F
$GPRMC,171259.4,A,4817.00987,N,12238.30474,W,005.69,256.5,150713,016.8,E,A*28
$PGRME,3.0,M,3.0,M,4.3,M*29
$HCHDG,241.9,0.0,E,,*27
$HCHDG,241.9,0.0,E,,*27
$IIRMB,A,0.14,L,,OH  ,,,,,000.6,347,,V,A*43
$GPRMC,171259.6,A,4817.00980,N,12238.30525,W,005.67,256.6,150713,016.8,E,A*25
$PGRME,3.0,M,3.0,M,4.3,M*29
$HCHDG,242.1,0.0,E,,*2C
$HCHDG,242.0,0.0,E,,*2D
$IIRMC,171200,A,4817.010,N,12238.302,W,05.6,256,150713,16,E,A*1F
$IIVHW,,,,,03.4,N,,*1E
$GPRMC,171259.8,A,4817.00975,N,12238.30579,W,005.66,257.5,150713,016.8,E,A*2B
$GPRMB,A,0.14,L,,OH,4817.5980,N,12238.5140,W,0.6,347,0.07,V*0D
$PGRME,3.0,M,3.0,M,4.3,M*29
$HCHDG,242.2,0.0,E,,*2F
$IIVLW,01830,N,000.0,N*59
$YXXDR,A,6.3,D,PTCH,A,2.3,D,ROLL*59
$IIVWR,014,R,15.3,N,,,,*63
$HCHDG,242.1,0.0,E,,*2C
$IIDPT,005.7,-1.0,*42
$GPRMC,171300.0,A,4817.00968,N,12238.30630,W,005.67,256.5,150713,016.8,E,A*2C
$PGRME,3.0,M,3.0,M,4.3,M*29
$HCHDG,242.2,0.0,E,,*2F
$IIGLL,4817.010,N,12238.302,W,171200,A,A*47
$IIMTW,+15.0,C*3C
$HCHDG,242.2,0.0,E,,*2F
$PTAK,FFP1,HEEL,@*07
$GPRMC,171300.2,A,4817.00968,N,12238.30676,W,005.68,257.3,150713,016.8,E,A*24
$PGRME,3.0,M,3.0,M,4.3,M*29
$HCHDG,242.4,0.0,E,,*29
$HCHDG,242.4,0.0,E,,*29
$YXXDR,A,6.3,D,PTCH,A,2.1,D,ROLL*5B
$PTAK,FFD1,2.1*56
$GPRMC,171300.4,A,4817.00967,N,12238.30718,W,005.68,257.9,150713,016.8,E,A*2E
$PGRME,3.0,M,3.0,M,4.3,M*29
$HCHDG,242.5,0.0,E,,*28
$HCHDG,242.5,0.0,E,,*28
$IIMWV,013,R,15.6,N,A*13
$GPRMC,171300.6,A,4817.00962,N,12238.30769,W,005.68,258.4,150713,016.8,E,A*2D
$PGRME,3.0,M,3.0,M,4.3,M*29
$IIMWV,017,T,11.9,N,A*1A
$HCHDG,242.5,0.0,E,,*28
$IIRMB,A,0.14,L,,OH  ,,,,,000.6,347,,V,A*43
$HCHDG,242.8,0.0,E,,*25
$GPRMC,171300.8,A,4817.00956,N,12238.30817,W,005.68,258.7,150713,016.8,E,A*21
$PGRME,3.0,M,3.0,M,4.3,M*29
$HCHDG,242.9,0.0,E,,*24
$IIRMC,171200,A,4817.009,N,12238.305,W,05.6,256,150713,16,E,A*10
$YXXDR,A,6.2,D,PTCH,A,1.7,D,ROLL*5F
$IIVHW,,,,,03.3,N,,*19
$HCHDG,243.0,0.0,E,,*2C
$IIVLW,01830,N,000.0,N*59
$GPRMC,171301.0,A,4817.00947,N,12238.30862,W,005.69,258.9,150713,016.8,E,A*25
$GPRMB,A,0.14,L,,OH,4817.5980,N,12238.5140,W,0.6,347,0.20,V*08
$IIVWR,013,R,15.6,N,,,,*61
$PGRME,3.0,M,3.0,M,4.3,M*29
$HCHDG,242.9,0.0,E,,*24
$IIDPT,005.7,-1.0,*42
$HCHDG,243.0,0.0,E,,*2C
$GPRMC,171301.2,A,4817.00942,N,12238.30899,W,005.62,259.7,150713,016.8,E,A*22
$PGRME,3.0,M,3.0,M,4.3,M*29
$HCHDG,243.1,0.0,E,,*2D
$HCHDG,243.1,0.0,E,,*2D
$YXXDR,A,6.3,D,PTCH,A,1.7,D,ROLL*5E
$GPRMC,171301.4,A,4817.00940,N,12238.30929,W,005.66,258.6,150713,016.8,E,A*28
$PGRME,3.0,M,3.0,M,4.3,M*29
$HCHDG,243.0,0.0,E,,*2C
$HCHDG,243.0,0.0,E,,*2C
$IIGLL,4817.009,N,12238.308,W,171300,A,A*44
$GPRMC,171301.6,A,4817.00929,N,12238.30973,W,005.69,259.6,150713,016.8,E,A*24
$PGRME,3.0,M,3.0,M,4.3,M*29
$HCHDG,243.0,0.0,E,,*2C
$IIMTW,+15.0,C*3C
$IIMWV,012,R,15.7,N,A*13
$HCHDG,243.0,0.0,E,,*2C
$IIMWV,016,T,12.2,N,A*13
$GPRMC,171301.8,A,4817.00926,N,12238.31024,W,005.68,258.8,150713,016.8,E,A*21
$PGRME,3.0,M,3.0,M,4.3,M*29
$HCHDG,243.0,0.0,E,,*2C
$IIRMB,A,0.14,L,,OH  ,,,,,000.6,347,,V,A*43
$YXXDR,A,6.3,D,PTCH,A,2.1,D,ROLL*5B
$PTAK,FFD1,2.1*56
$HCHDG,243.1,0.0,E,,*2D
$IIRMC,171300,A,4817.009,N,12238.308,W,05.6,258,150713,16,E,A*12
$GPRMC,171302.0,A,4817.00915,N,12238.31063,W,005.67,259.7,150713,016.8,E,A*28
$GPRMB,A,0.14,L,,OH,4817.5980,N,12238.5140,W,0.6,347,0.26,V*0E
$PGRME,3.0,M,3.0,M,4.3,M*29
$HCHDG,243.0,0.0,E,,*2C
$IIVHW,,,,,03.3,N,,*19
$IIVLW,01830,N,000.0,N*59
$HCHDG,242.7,0.0,E,,*2A
$GPRMC,171302.2,A,4817.00920,N,12238.31104,W,005.65,258.1,150713,016.8,E,A*29
$HCHDG,242.6,0.0,E,,*2B
$PGRME,3.0,M,3.0,M,4.3,M*29
$HCHDG,242.6,0.0,E,,*2B
$YXXDR,A,6.3,D,PTCH,A,2.9,D,ROLL*53
$GPRMC,171302.4,A,4817.00915,N,12238.31138,W,005.71,258.5,150713,016.8,E,A*27
$PGRME,3.0,M,3.0,M,4.3,M*29
$HCHDG,242.4,0.0,E,,*29
$HCHDG,242.3,0.0,E,,*2E
$IIVWR,014,R,16.3,N,,,,*60
$GPRMC,171302.6,A,4817.00910,N,12238.31180,W,005.69,256.9,150713,016.8,E,A*28
$HCHDG,242.3,0.0,E,,*2E
$PGRME,3.0,M,3.0,M,4.3,M*29
$IIDPT,005.6,-1.0,*43
$IIGLL,4817.009,N,12238.310,W,171300,A,A*4D
$HCHDG,242.3,0.0,E,,*2E
$IIMTW,+15.0,C*3C
$IIMWV,014,R,16.3,N,A*12
$GPRMC,171302.8,A,4817.00906,N,12238.31234,W,005.68,257.6,150713,016.8,E,A*22
$HCHDG,242.2,0.0,E,,*2F
$PGRME,3.0,M,3.0,M,4.3,M*29
$IIMWV,015,T,12.4,N,A*16
$YXXDR,A,6.0,D,PTCH,A,3.5,D,ROLL*5D
$PTAK,FFD1,3.5*53
$HCHDG,242.4,0.0,E,,*29
$IIRMB,A,0.14,L,,OH  ,,,,,000.6,347,,V,A*43
$GPRMC,171303.0,A,4817.00897,N,12238.31294,W,005.66,257.2,150713,016.8,E,A*22
$HCHDG,242.3,0.0,E,,*2E
$PGRME,3.0,M,3.0,M,4.3,M*29
$IIRMC,171300,A,4817.009,N,12238.310,W,05.6,258,150713,16,E,A*1B
$HCHDG,242.4,0.0,E,,*29
$GPRMC,171303.2,A,4817.00886,N,12238.31356,W,005.67,257.9,150713,016.8,E,A*25
$GPRMB,A,0.13,L,,OH,4817.5980,N,12238.5140,W,0.6,347,0.06,V*0B
$HCHDG,242.4,0.0,E,,*29
$PGRME,3.0,M,3.0,M,4.3,M*29
$HCHDG,242.4,0.0,E,,*29
$YXXDR,A,6.3,D,PTCH,A,3.3,D,ROLL*58
$GPRMC,171303.4,A,4817.00876,N,12238.31411,W,005.67,257.7,150713,016.8,E,A*26
$PGRME,3.0,M,3.0,M,4.3,M*29
$HCHDG,242.5,0.0,E,,*28
$HCHDG,242.4,0.0,E,,*29
$IIVHW,,,,,03.6,N,,*1C
$GPRMC,171303.6,A,4817.00872,N,12238.31469,W,005.67,257.4,150713,016.8,E,A*2C
$HCHDG,242.5,0.0,E,,*28
$IIVLW,01830,N,000.0,N*59
$PGRME,3.0,M,3.0,M,4.3,M*29
$IIVWR,014,R,16.2,N,,,,*61
$HCHDG,242.5,0.0,E,,*28
$IIDPT,005.6,-1.0,*43
$GPRMC,171303.8,A,4817.00874,N,12238.31518,W,005.67,257.9,150713,016.8,E,A*2E
$HCHDG,242.6,0.0,E,,*2B
$IIGLL,4817.009,N,12238.312,W,171300,A,A*4F
$PGRME,3.0,M,3.0,M,4.3,M*29
$IIMTW,+15.0,C*3C
$YXXDR,A,6.3,D,PTCH,A,3.2,D,ROLL*59
$PTAK,FFD1,3.2*54
$IIMWV,014,R,16.2,N,A*13
$HCHDG,242.6,0.0,E,,*2B
$IIMWV,017,T,12.9,N,A*19
$GPRMC,171304.0,A,4817.00873,N,12238.31559,W,005.67,257.8,150713,016.8,E,A*22
$HCHDG,242.4,0.0,E,,*29
$PGRME,3.0,M,3.0,M,4.3,M*29
$IIRMB,A,0.14,L,,OH  ,,,,,000.6,347,,V,A*43
$HCHDG,242.5,0.0,E,,*28
$GPRMC,171304.2,A,4817.00869,N,12238.31608,W,005.67,257.2,150713,016.8,E,A*26
$PTAK,FFP1,HEEL,@*07
$HCHDG,242.6,0.0,E,,*2B
$PGRME,3.0,M,3.0,M,4.3,M*29
$HCHDG,242.6,0.0,E,,*2B
$YXXDR,A,6.1,D,PTCH,A,3.0,D,ROLL*59
$GPRMC,171304.4,A,4817.00865,N,12238.31656,W,005.67,257.6,150713,016.8,E,A*23
$GPRMB,A,0.13,L,,OH,4817.5980,N,12238.5140,W,0.6,347,0.02,V*0F
$PGRME,3.0,M,3.0,M,4.3,M*29
$HCHDG,242.5,0.0,E,,*28
$HCHDG,242.5,0.0,E,,*28
$GPRMC,171304.6,A,4817.00859,N,12238.31700,W,005.66,257.2,150713,016.8,E,A*29
$PGRME,3.0,M,3.0,M,4.3,M*29
$HCHDG,242.6,0.0,E,,*2B
$IIRMC,171300,A,4817.008,N,12238.315,W,05.6,257,150713,16,E,A*10
$IIVHW,,,,,03.7,N,,*1D
$HCHDG,242.5,0.0,E,,*28
$IIVLW,01830,N,000.0,N*59
$GPRMC,171304.8,A,4817.00853,N,12238.31744,W,005.66,257.6,150713,016.8,E,A*29
$HCHDG,242.3,0.0,E,,*2E
$IIVWR,013,R,16.1,N,,,,*65
$PGRME,3.0,M,3.0,M,4.3,M*29
$IIDPT,005.6,-1.0,*43
$YXXDR,A,5.8,D,PTCH,A,2.9,D,ROLL*5B
$HCHDG,242.3,0.0,E,,*2E
$IIGLL,4817.008,N,12238.315,W,171300,A,A*49
$IIMTW,+15.0,C*3C
$GPRMC,171305.0,A,4817.00846,N,12238.31795,W,005.67,258.0,150713,016.8,E,A*20
$HCHDG,242.4,0.0,E,,*29
$PGRME,3.0,M,3.0,M,4.3,M*29
$IIMWV,013,R,16.1,N,A*17
$IIMWV,017,T,12.6,N,A*16
$HCHDG,242.5,0.0,E,,*28
$GPRMC,171305.2,A,4817.00847,N,12238.31836,W,005.67,257.6,150713,016.8,E,A*2C
$HCHDG,242.5,0.0,E,,*28
$PGRME,3.0,M,3.0,M,4.3,M*29
$HCHDG,242.4,0.0,E,,*29
$YXXDR,A,6.1,D,PTCH,A,2.3,D,ROLL*5B
$PTAK,FFD1,2.3*54
$GPRMC,171305.4,A,4817.00839,N,12238.31877,W,005.66,257.1,150713,016.8,E,A*20
$GPRMB,A,0.13,L,,OH,4817.5980,N,12238.5140,W,0.6,348,-0.05,V*2A
$PGRME,3.0,M,3.0,M,4.3,M*29
$HCHDG,242.5,0.0,E,,*28
$HCHDG,242.6,0.0,E,,*2B
$IIRMB,A,0.13,L,,OH  ,,,,,000.6,347,,V,A*44
$GPRMC,171305.6,A,4817.00835,N,12238.31921,W,005.66,257.9,150713,016.8,E,A*24
$HCHDG,242.7,0.0,E,,*2A
$PGRME,3.0,M,3.0,M,4.3,M*29
$HCHDG,242.7,0.0,E,,*2A
$IIRMC,171300,A,4817.008,N,12238.317,W,05.6,257,150713,16,E,A*12
$IIVHW,,,,,04.2,N,,*1F
$GPRMC,171305.8,A,4817.00822,N,12238.31960,W,005.67,257.9,150713,016.8,E,A*28
$HCHDG,242.8,0.0,E,,*25
$PGRME,3.0,M,3.0,M,4.3,M*29
$IIVLW,01830,N,000.0,N*59
$YXXDR,A,6.1,D,PTCH,A,2.4,D,ROLL*5C
$IIVWR,013,R,16.0,N,,,,*64
$HCHDG,242.8,0.0,E,,*25
$IIDPT,005.6,-1.0,*43
$GPRMC,171306.0,A,4817.00814,N,12238.32007,W,005.66,257.8,150713,016.8,E,A*2D
$HCHDG,242.9,0.0,E,,*24
$PGRME,3.0,M,3.0,M,4.3,M*29
$IIGLL,4817.008,N,12238.317,W,171300,A,A*4B
$IIMTW,+15.0,C*3C
$HCHDG,242.9,0.0,E,,*24
$GPRMC,171306.2,A,4817.00808,N,12238.32051,W,005.67,258.3,150713,016.8,E,A*24
$HCHDG,243.1,0.0,E,,*2D
$PGRME,3.0,M,3.0,M,4.3,M*29
$HCHDG,243.1,0.0,E,,*2D
$YXXDR,A,6.2,D,PTCH,A,2.1,D,ROLL*5A
$PTAK,FFD1,2.1*56
$GPRMC,171306.4,A,4817.00807,N,12238.32090,W,005.67,257.0,150713,016.8,E,A*2C
$PGRME,3.0,M,3.0,M,4.3,M*29
$HCHDG,243.1,0.0,E,,*2D
$HCHDG,243.1,0.0,E,,*2D
$IIMWV,014,R,15.9,N,A*1B
$GPRMC,171306.6,A,4817.00805,N,12238.32148,W,005.65,258.8,150713,016.8,E,A*2D
$GPRMB,A,0.13,L,,OH,4817.5980,N,12238.5140,W,0.6,348,0.10,V*03
$HCHDG,243.1,0.0,E,,*2D
$PGRME,3.0,M,3.0,M,4.3,M*29
$IIMWV,017,T,11.8,N,A*1B
$IIRMB,A,0.13,L,,OH  ,,,,,000.6,348,,V,A*4B
$HCHDG,243.2,0.0,E,,*2E
$GPRMC,171306.8,A,4817.00801,N,12238.32191,W,005.66,258.0,150713,016.8,E,A*28
$PGRME,3.0,M,3.0,M,4.3,M*29
$HCHDG,243.3,0.0,E,,*2F
$IIRMC,171300,A,4817.008,N,12238.319,W,05.6,257,150713,16,E,A*1C
$YXXDR,A,6.0,D,PTCH,A,2.2,D,ROLL*5B
$IIVHW,,,,,04.3,N,,*1E
$HCHDG,243.2,0.0,E,,*2E
$IIVLW,01830,N,000.0,N*59
$GPRMC,171307.0,A,4817.00794,N,12238.32238,W,005.66,258.3,150713,016.8,E,A*21
$IIVWR,014,R,15.9,N,,,,*69
$PGRME,3.0,M,3.0,M,4.3,M*29
$HCHDG,243.4,0.0,E,,*28
$IIDPT,005.7,-1.0,*42
$HCHDG,243.4,0.0,E,,*28
$GPRMC,171307.2,A,4817.00783,N,12238.32292,W,005.65,258.8,150713,016.8,E,A*2D
$PGRME,3.0,M,3.0,M,4.3,M*29
$HCHDG,243.4,0.0,E,,*28
$HCHDG,243.5,0.0,E,,*29
$YXXDR,A,6.0,D,PTCH,A,2.2,D,ROLL*5B
$PTAK,FFD1,2.2*55
$GPRMC,171307.4,A,4817.00772,N,12238.32344,W,005.66,258.4,150713,016.8,E,A*20
$PGRME,3.0,M,3.0,M,4.3,M*29
$HCHDG,243.6,0.0,E,,*2A
$HCHDG,243.6,0.0,E,,*2A
$IIGLL,4817.008,N,12238.321,W,171300,A,A*4E
$GPRMC,171307.6,A,4817.00766,N,12238.32392,W,005.66,259.1,150713,016.8,E,A*28
$GPRMB,A,0.13,L,,OH,4817.5980,N,12238.5140,W,0.6,348,0.12,V*01
$HCHDG,243.5,0.0,E,,*29
$PGRME,3.0,M,3.0,M,4.3,M*29
$IIMTW,+15.0,C*3C
$IIMWV,013,R,15.5,N,A*10
$HCHDG,243.7,0.0,E,,*2B
$IIMWV,019,T,11.6,N,A*1B
$GPRMC,171307.8,A,4817.00763,N,12238.32434,W,005.66,258.6,150713,016.8,E,A*2E
$HCHDG,243.6,0.0,E,,*2A
$PGRME,3.0,M,3.0,M,4.3,M*29
$IIRMB,A,0.13,L,,OH  ,,,,,000.6,348,,V,A*4B
$YXXDR,A,5.6,D,PTCH,A,2.2,D,ROLL*5E
$HCHDG,243.7,0.0,E,,*2B
$IIRMC,171300,A,4817.008,N,12238.321,W,05.6,258,150713,16,E,A*18
$GPRMC,171308.0,A,4817.00761,N,12238.32480,W,005.67,259.5,150713,016.8,E,A*27
$HCHDG,243.7,0.0,E,,*2B
$PGRME,3.0,M,3.0,M,4.3,M*29
$IIVHW,,,,,04.3,N,,*1E
$IIVLW,01830,N,000.0,N*59
$HCHDG,243.8,0.0,E,,*24
$GPRMC,171308.2,A,4817.00753,N,12238.32527,W,005.67,258.9,150713,016.8,E,A*25
$PTAK,FFP1,HEEL,@*07
$HCHDG,243.5,0.0,E,,*29
$PGRME,3.0,M,3.0,M,4.3,M*29
$HCHDG,243.6,0.0,E,,*2A
$YXXDR,A,6.0,D,PTCH,A,1.8,D,ROLL*52
$GPRMC,171308.4,A,4817.00738,N,12238.32580,W,005.67,258.4,150713,016.8,E,A*2E
$PGRME,3.0,M,3.0,M,4.3,M*29
$HCHDG,244.0,0.0,E,,*2B
$HCHDG,244.0,0.0,E,,*2B
$IIVWR,014,R,15.6,N,,,,*66
$GPRMC,171308.6,A,4817.00729,N,12238.32623,W,005.68,259.4,150713,016.8,E,A*28
$HCHDG,244.0,0.0,E,,*2B
$IIDPT,005.7,-1.0,*42
$PGRME,3.0,M,3.0,M,4.3,M*29
$IIGLL,4817.007,N,12238.324,W,171300,A,A*44
$HCHDG,244.0,0.0,E,,*2B
$IIMTW,+15.0,C*3C
$IIMWV,014,R,15.6,N,A*14
$GPRMC,171308.8,A,4817.00719,N,12238.32668,W,005.66,260.1,150713,016.8,E,A*2B
$GPRMB,A,0.12,L,,OH,4817.5980,N,12238.5140,W,0.6,348,0.20,V*01
$HCHDG,244.0,0.0,E,,*2B
$PGRME,3.0,M,3.0,M,4.3,M*29
$IIMWV,018,T,11.1,N,A*1D
$YXXDR,A,6.1,D,PTCH,A,1.6,D,ROLL*5D
$PTAK,FFD1,1.6*52
$HCHDG,244.0,0.0,E,,*2B
$IIRMB,A,0.13,L,,OH  ,,,,,000.6,348,,V,A*4B
$GPRMC,171309.0,A,4817.00715,N,12238.32707,W,005.66,260.3,150713,016.8,E,A*24
$HCHDG,244.0,0.0,E,,*2B
$PGRME,3.0,M,3.0,M,4.3,M*29
$IIRMC,171300,A,4817.007,N,12238.324,W,05.6,258,150713,16,E,A*12
$HCHDG,244.0,0.0,E,,*2B
$GPRMC,171309.2,A,4817.00709,N,12238.32749,W,005.66,261.2,150713,016.8,E,A*21
$HCHDG,244.0,0.0,E,,*2B
$PGRME,3.0,M,3.0,M,4.3,M*29
$HCHDG,244.0,0.0,E,,*2B
$YXXDR,A,6.1,D,PTCH,A,1.2,D,ROLL*59
$GPRMC,171309.4,A,4817.00704,N,12238.32788,W,005.66,259.3,150713,016.8,E,A*2D
$PGRME,3.0,M,3.0,M,4.3,M*29
$HCHDG,244.0,0.0,E,,*2B
$HCHDG,244.0,0.0,E,,*2B
$IIVHW,,,,,04.7,N,,*1A
$GPRMC,171309.6,A,4817.00696,N,12238.32840,W,005.66,261.2,150713,016.8,E,A*24
$HCHDG,244.1,0.0,E,,*2A
$IIVLW,01830,N,000.1,N*58
$PGRME,3.0,M,3.0,M,4.3,M*29
$IIVWR,015,R,15.7,N,,,,*66
$IIDPT,005.7,-1.0,*42
$HCHDG,244.0,0.0,E,,*2B
$GPRMC,171309.8,A,4817.00688,N,12238.32894,W,005.65,259.7,150713,016.8,E,A*21
$HCHDG,244.0,0.0,E,,*2B
$IIGLL,4817.007,N,12238.326,W,171300,A,A*46
$PGRME,3.0,M,3.0,M,4.3,M*29
$IIMTW,+15.0,C*3C
$YXXDR,A,6.0,D,PTCH,A,1.5,D,ROLL*5F
$IIMWV,015,R,15.7,N,A*14
$HCHDG,243.9,0.0,E,,*25
$IIMWV,020,T,11.0,N,A*17
$GPRMC,171310.0,A,4817.00685,N,12238.32949,W,005.65,260.2,150713,016.8,E,A*22
$GPRMB,A,0.12,L,,OH,4817.5980,N,12238.5140,W,0.6,348,0.19,V*0B
$HCHDG,243.8,0.0,E,,*24
$PGRME,3.0,M,3.0,M,4.3,M*29
$IIRMB,A,0.12,L,,OH  ,,,,,000.6,348,,V,A*4A
$HCHDG,243.8,0.0,E,,*24
$GPRMC,171310.2,A,4817.00676,N,12238.33004,W,005.65,260.5,150713,016.8,E,A*2A
$HCHDG,243.7,0.0,E,,*2B
$PGRME,3.0,M,3.0,M,4.3,M*29
$HCHDG,243.7,0.0,E,,*2B
$YXXDR,A,6.2,D,PTCH,A,1.8,D,ROLL*50
$PTAK,FFD1,1.8*5C
$GPRMC,171310.4,A,4817.00670,N,12238.33057,W,005.64,260.5,150713,016.8,E,A*2D
$PGRME,3.0,M,3.0,M,4.3,M*29
$HCHDG,243.6,0.0,E,,*2A
$HCHDG,243.4,0.0,E,,*28
$GPRMC,171310.6,A,4817.00669,N,12238.33104,W,005.64,259.1,150713,016.8,E,A*2E
$HCHDG,243.4,0.0,E,,*28
$PGRME,3.0,M,3.0,M,4.3,M*29
$IIRMC,171300,A,4817.006,N,12238.328,W,05.6,259,150713,16,E,A*1E
$IIVHW,,,,,04.6,N,,*1B
$HCHDG,243.4,0.0,E,,*28
$IIVLW,01830,N,000.1,N*58
$GPRMC,171310.8,A,4817.00658,N,12238.33153,W,005.65,259.4,150713,016.8,E,A*24
$IIVWR,015,R,15.5,N,,,,*64
$PGRME,3.0,M,3.0,M,4.3,M*29
$HCHDG,243.5,0.0,E,,*29
$IIDPT,005.7,-1.0,*42
$YXXDR,A,6.3,D,PTCH,A,2.3,D,ROLL*59
$HCHDG,243.5,0.0,E,,*29
$IIGLL,4817.006,N,12238.328,W,171300,A,A*49
$IIMTW,+15.0,C*3C
$GPRMC,171311.0,A,4817.00649,N,12238.33198,W,005.64,259.4,150713,016.8,E,A*2B
$GPRMB,A,0.12,L,,OH,4817.5980,N,12238.5140,W,0.6,348,0.10,V*02
$PGRME,3.0,M,3.0,M,4.3,M*29
$HCHDG,243.5,0.0,E,,*29
$IIMWV,015,R,15.5,N,A*16
$IIMWV,021,T,11.2,N,A*14
$HCHDG,243.4,0.0,E,,*28
$GPRMC,171311.2,A,4817.00643,N,12238.33237,W,005.65,259.3,150713,016.8,E,A*23
$PGRME,3.0,M,3.0,M,4.3,M*29
$HCHDG,243.4,0.0,E,,*28
$HCHDG,243.4,0.0,E,,*28
$YXXDR,A,6.3,D,PTCH,A,2.2,D,ROLL*58
$PTAK,FFD1,2.2*55
$GPRMC,171311.4,A,4817.00638,N,12238.33285,W,005.65,258.9,150713,016.8,E,A*2B
$PGRME,3.0,M,3.0,M,4.3,M*29
$HCHDG,243.4,0.0,E,,*28
$HCHDG,243.4,0.0,E,,*28
$IIRMB,A,0.12,L,,OH  ,,,,,000.6,348,,V,A*4A
$GPRMC,171311.6,A,4817.00638,N,12238.33316,W,005.66,259.3,150713,016.8,E,A*2A
$HCHDG,243.3,0.0,E,,*2F
$PGRME,3.0,M,3.0,M,4.3,M*29
$HCHDG,243.4,0.0,E,,*28
$IIRMC,171300,A,4817.006,N,12238.331,W,05.6,259,150713,16,E,A*16
$IIVHW,,,,,04.5,N,,*18
$GPRMC,171311.8,A,4817.00625,N,12238.33352,W,005.66,258.6,150713,016.8,E,A*2C
$HCHDG,243.1,0.0,E,,*2D
$PGRME,3.0,M,3.0,M,4.3,M*29
$IIVLW,01830,N,000.1,N*58
$YXXDR,A,5.9,D,PTCH,A,2.3,D,ROLL*50
$IIVWR,016,R,15.6,N,,,,*64
$HCHDG,243.1,0.0,E,,*2D
$IIDPT,005.7,-1.0,*42
$GPRMC,171312.0,A,4817.00621,N,12238.33402,W,005.67,259.0,150713,016.8,E,A*27
$HCHDG,243.1,0.0,E,,*2D
$PGRME,3.0,M,3.0,M,4.3,M*29
$IIGLL,4817.006,N,12238.331,W,171300,A,A*41
$IIMTW,+15.0,C*3C
$HCHDG,243.1,0.0,E,,*2D
$GPRMC,171312.2,A,4817.00614,N,12238.33443,W,005.65,259.1,150713,016.8,E,A*25
$GPRMB,A,0.12,L,,OH,4817.5980,N,12238.5140,W,0.6,349,0.05,V*07
$PTAK,FFP1,HEEL,@*07
$HCHDG,243.1,0.0,E,,*2D
$PGRME,3.0,M,3.0,M,4.3,M*29
$HCHDG,243.1,0.0,E,,*2D
$YXXDR,A,5.8,D,PTCH,A,2.1,D,ROLL*53
$PTAK,FFD1,2.1*56
$GPRMC,171312.4,A,4817.00609,N,12238.33478,W,005.66,258.6,150713,016.8,E,A*22
$PGRME,3.0,M,3.0,M,4.3,M*29
$HCHDG,243.1,0.0,E,,*2D
$HCHDG,243.1,0.0,E,,*2D
$IIMWV,016,R,15.4,N,A*14
$GPRMC,171312.6,A,4817.00600,N,12238.33526,W,005.67,258.8,150713,016.8,E,A*2C
$HCHDG,243.1,0.0,E,,*2D
$PGRME,3.0,M,3.0,M,4.3,M*29
$IIMWV,023,T,11.2,N,A*16
$IIRMB,A,0.12,L,,OH  ,,,,,000.6,348,,V,A*4A
$HCHDG,243.1,0.0,E,,*2D
$GPRMC,171312.8,A,4817.00592,N,12238.33576,W,005.66,258.6,150713,016.8,E,A*20
$HCHDG,243.1,0.0,E,,*2D
$PGRME,3.0,M,3.0,M,4.3,M*29
$IIRMC,171300,A,4817.006,N,12238.333,W,05.6,258,150713,16,E,A*15
$YXXDR,A,6.0,D,PTCH,A,2.0,D,ROLL*59
$IIVHW,,,,,04.2,N,,*1F
$HCHDG,243.2,0.0,E,,*2E
$IIVLW,01830,N,000.1,N*58
$GPRMC,171313.0,A,4817.00596,N,12238.33610,W,005.66,259.2,150713,016.8,E,A*2B
$HCHDG,243.2,0.0,E,,*2E
$IIVWR,016,R,15.4,N,,,,*66
$PGRME,3.0,M,3.0,M,4.3,M*29
$IIDPT,005.7,-1.0,*42
$HCHDG,243.2,0.0,E,,*2E
$GPRMC,171313.2,A,4817.00596,N,12238.33646,W,005.67,258.6,150713,016.8,E,A*2E
$HCHDG,243.2,0.0,E,,*2E
$PGRME,3.0,M,3.0,M,4.3,M*29
$HCHDG,243.2,0.0,E,,*2E
$YXXDR,A,6.3,D,PTCH,A,1.3,D,ROLL*5A
$PTAK,FFD1,1.3*57
$GPRMC,171313.4,A,4817.00593,N,12238.33684,W,005.66,260.2,150713,016.8,E,A*2D
$GPRMB,A,0.12,L,,OH,4817.5980,N,12238.5140,W,0.6,349,0.14,V*07
$PGRME,3.0,M,3.0,M,4.3,M*29
$HCHDG,243.3,0.0,E,,*2F
$HCHDG,243.5,0.0,E,,*29
$IIGLL,4817.005,N,12238.335,W,171300,A,A*46
$GPRMC,171313.6,A,4817.00595,N,12238.33727,W,005.66,258.8,150713,016.8,E,A*20
$HCHDG,243.5,0.0,E,,*29
$PGRME,3.0,M,3.0,M,4.3,M*29
$IIMTW,+15.0,C*3C
$IIMWV,016,R,15.2,N,A*12
$HCHDG,243.5,0.0,E,,*29
$IIMWV,023,T,11.2,N,A*16
$GPRMC,171313.8,A,4817.00581,N,12238.33786,W,005.68,259.2,150713,016.8,E,A*25
$HCHDG,243.6,0.0,E,,*2A
$PGRME,3.0,M,3.0,M,4.3,M*29
$IIRMB,A,0.12,L,,OH  ,,,,,000.6,349,,V,A*4B
$YXXDR,A,6.0,D,PTCH,A,1.5,D,ROLL*5F
$HCHDG,243.5,0.0,E,,*29
$IIRMC,171300,A,4817.005,N,12238.335,W,05.6,258,150713,16,E,A*10
$GPRMC,171314.0,A,4817.00568,N,12238.33842,W,005.66,259.1,150713,016.8,E,A*27
$HCHDG,243.5,0.0,E,,*29
$PGRME,3.0,M,3.0,M,4.3,M*29
$IIVHW,,,,,04.2,N,,*1F
$IIVLW,01830,N,000.1,N*58
$HCHDG,243.5,0.0,E,,*29
$GPRMC,171314.2,A,4817.00560,N,12238.33893,W,005.67,259.8,150713,016.8,E,A*29
$HCHDG,243.5,0.0,E,,*29
$PGRME,3.0,M,3.0,M,4.3,M*29
$HCHDG,243.5,0.0,E,,*29
$YXXDR,A,6.1,D,PTCH,A,1.4,D,ROLL*5F
$GPRMC,171314.4,A,4817.00559,N,12238.33942,W,005.66,258.9,150713,016.8,E,A*29
$PGRME,3.0,M,3.0,M,4.3,M*29
$HCHDG,243.6,0.0,E,,*2A
$HCHDG,243.6,0.0,E,,*2A
$IIVWR,015,R,14.8,N,,,,*68
$GPRMC,171314.6,A,4817.00560,N,12238.33981,W,005.67,259.3,150713,016.8,E,A*24
$HCHDG,243.6,0.0,E,,*2A
$IIDPT,005.7,-1.0,*42
$PGRME,3.0,M,3.0,M,4.3,M*29
$IIGLL,4817.005,N,12238.337,W,171300,A,A*44
$HCHDG,243.6,0.0,E,,*2A
$IIMTW,+15.0,C*3C
$IIMWV,015,R,14.8,N,A*1A
$GPRMC,171314.8,A,4817.00555,N,12238.34023,W,005.66,260.2,150713,016.8,E,A*20
$GPRMB,A,0.12,L,,OH,4817.5980,N,12238.5140,W,0.6,349,0.12,V*01
$HCHDG,243.6,0.0,E,,*2A
$PGRME,3.0,M,3.0,M,4.3,M*29
$IIMWV,022,T,11.0,N,A*15
$YXXDR,A,6.2,D,PTCH,A,1.8,D,ROLL*50
$PTAK,FFD1,1.8*5C
$HCHDG,243.7,0.0,E,,*2B
$IIRMB,A,0.12,L,,OH  ,,,,,000.6,349,,V,A*4B
$GPRMC,171315.0,A,4817.00551,N,12238.34064,W,005.67,260.2,150713,016.8,E,A*2F
$HCHDG,243.7,0.0,E,,*2B
$PGRME,3.0,M,3.0,M,4.3,M*29
$IIRMC,171300,A,4817.005,N,12238.337,W,05.6,259,150713,16,E,A*13
$HCHDG,243.7,0.0,E,,*2B
$GPRMC,171315.2,A,4817.00541,N,12238.34098,W,005.67,261.3,150713,016.8,E,A*2F
$HCHDG,244.0,0.0,E,,*2B
$PGRME,3.0,M,3.0,M,4.3,M*29
$HCHDG,244.0,0.0,E,,*2B
$YXXDR,A,6.2,D,PTCH,A,1.6,D,ROLL*5E
$GPRMC,171315.4,A,4817.00531,N,12238.34125,W,005.67,261.1,150713,016.8,E,A*2B
$PGRME,3.0,M,3.0,M,4.3,M*29
$HCHDG,244.0,0.0,E,,*2B
$HCHDG,244.0,0.0,E,,*2B
$IIVHW,,,,,03.8,N,,*12
$GPRMC,171315.6,A,4817.00520,N,12238.34171,W,005.68,261.1,150713,016.8,E,A*27
$HCHDG,243.9,0.0,E,,*25
$IIVLW,01830,N,000.1,N*58
$PGRME,3.0,M,3.0,M,4.3,M*29
$IIVWR,014,R,14.8,N,,,,*69
$IIDPT,005.7,-1.0,*42
$HCHDG,243.9,0.0,E,,*25
$GPRMC,171315.8,A,4817.00514,N,12238.34220,W,005.68,261.9,150713,016.8,E,A*21
$HCHDG,243.7,0.0,E,,*2B
$IIGLL,4817.005,N,12238.340,W,171300,A,A*44
$PGRME,3.0,M,3.0,M,4.3,M*29
$IIMTW,+15.0,C*3C
$YXXDR,A,6.3,D,PTCH,A,1.6,D,ROLL*5F
$IIMWV,014,R,14.8,N,A*1B
$HCHDG,243.7,0.0,E,,*2B
$IIMWV,020,T,10.8,N,A*1E
$GPRMC,171316.0,A,4817.00510,N,12238.34257,W,005.68,261.1,150713,016.8,E,A*26
$GPRMB,A,0.11,L,,OH,4817.5980,N,12238.5140,W,0.6,349,0.20,V*03
$HCHDG,243.7,0.0,E,,*2B
$PTAK,FFP1,HEEL,@*07
$PGRME,3.0,M,3.0,M,4.3,M*29
$IIRMB,A,0.12,L,,OH  ,,,,,000.6,349,,V,A*4B
$HCHDG,243.7,0.0,E,,*2B
$GPRMC,171316.2,A,4817.00499,N,12238.34301,W,005.69,260.8,150713,016.8,E,A*2F
$HCHDG,243.6,0.0,E,,*2A
$PGRME,3.0,M,3.0,M,4.3,M*29
$HCHDG,243.4,0.0,E,,*28
$YXXDR,A,6.4,D,PTCH,A,2.4,D,ROLL*59
$PTAK,FFD1,2.4*53
$GPRMC,171316.4,A,4817.00490,N,12238.34347,W,005.70,260.7,150713,016.8,E,A*25
$PGRME,3.0,M,3.0,M,4.3,M*29
$HCHDG,243.2,0.0,E,,*2E
$HCHDG,243.2,0.0,E,,*2E
$GPRMC,171316.6,A,4817.00486,N,12238.34390,W,005.70,260.2,150713,016.8,E,A*2F
$HCHDG,243.0,0.0,E,,*2C
$PGRME,3.0,M,3.0,M,4.3,M*29
$IIRMC,171300,A,4817.005,N,12238.340,W,05.6,260,150713,16,E,A*19
$IIVHW,,,,,04.1,N,,*1C
$HCHDG,243.1,0.0,E,,*2D
$IIVLW,01830,N,000.1,N*58
$GPRMC,171316.8,A,4817.00472,N,12238.34448,W,005.70,259.3,150713,016.8,E,A*23
$IIVWR,015,R,14.5,N,,,,*65
$PGRME,3.0,M,3.0,M,4.3,M*29
$HCHDG,242.9,0.0,E,,*24
$IIDPT,005.7,-1.0,*42
$YXXDR,A,6.3,D,PTCH,A,3.1,D,ROLL*5A
$HCHDG,242.7,0.0,E,,*2A
$IIGLL,4817.005,N,12238.340,W,171300,A,A*44
$IIMTW,+15.0,C*3C
$GPRMC,171317.0,A,4817.00464,N,12238.34507,W,005.70,259.0,150713,016.8,E,A*24
$GPRMB,A,0.11,L,,OH,4817.5980,N,12238.5140,W,0.6,349,-0.03,V*2F
$PGRME,3.0,M,3.0,M,4.3,M*29
$HCHDG,242.6,0.0,E,,*2B
$IIMWV,015,R,14.5,N,A*17
$IIMWV,019,T,10.9,N,A*15
$HCHDG,242.6,0.0,E,,*2B
$GPRMC,171317.2,A,4817.00461,N,12238.34557,W,005.71,259.4,150713,016.8,E,A*23
$PGRME,3.0,M,3.0,M,4.3,M*29
$HCHDG,242.6,0.0,E,,*2B
$HCHDG,242.3,0.0,E,,*2E
$YXXDR,A,6.3,D,PTCH,A,2.9,D,ROLL*53
$PTAK,FFD1,2.9*5E
$GPRMC,171317.4,A,4817.00459,N,12238.34612,W,005.71,258.1,150713,016.8,E,A*28
$PGRME,3.0,M,3.0,M,4.3,M*29
$HCHDG,242.4,0.0,E,,*29
$HCHDG,242.4,0.0,E,,*29
$IIRMB,A,0.11,L,,OH  ,,,,,000.6,349,,V,A*48
$GPRMC,171317.6,A,4817.00461,N,12238.34662,W,005.71,259.4,150713,016.8,E,A*22
$PGRME,3.0,M,3.0,M,4.3,M*29
$HCHDG,242.3,0.0,E,,*2E
$HCHDG,242.3,0.0,E,,*2E
$IIRMC,171300,A,4817.004,N,12238.344,W,05.7,259,150713,16,E,A*17
$IIVHW,,,,,04.3,N,,*1E
$GPRMC,171317.8,A,4817.00453,N,12238.34710,W,005.71,258.3,150713,016.8,E,A*2F
$HCHDG,242.2,0.0,E,,*2F
$PGRME,3.0,M,3.0,M,4.3,M*29
$IIVLW,01830,N,000.1,N*58
$YXXDR,A,6.3,D,PTCH,A,2.9,D,ROLL*53
$IIVWR,015,R,14.3,N,,,,*63
$HCHDG,242.2,0.0,E,,*2F
$IIDPT,005.7,-1.0,*42
$GPRMC,171318.0,A,4817.00443,N,12238.34755,W,005.72,258.9,150713,016.8,E,A*21
$HCHDG,242.4,0.0,E,,*29
$PGRME,3.0,M,3.0,M,4.3,M*29
$IIGLL,4817.004,N,12238.344,W,171300,A,A*41
$IIMTW,+15.0,C*3C
$HCHDG,242.3,0.0,E,,*2E
$GPRMC,171318.2,A,4817.00435,N,12238.34808,W,005.70,257.9,150713,016.8,E,A*28
$GPRMB,A,0.11,L,,OH,4817.5980,N,12238.5140,W,0.6,349,-0.16,V*2B
$HCHDG,242.3,0.0,E,,*2E
$PGRME,3.0,M,3.0,M,4.3,M*29
$HCHDG,242.2,0.0,E,,*2F
$YXXDR,A,6.3,D,PTCH,A,3.1,D,ROLL*5A
$PTAK,FFD1,3.1*57
$GPRMC,171318.4,A,4817.00423,N,12238.34861,W,005.72,258.1,150713,016.8,E,A*23
$PGRME,3.0,M,3.0,M,4.3,M*29
$HCHDG,242.2,0.0,E,,*2F
$HCHDG,242.0,0.0,E,,*2D
$IIMWV,016,R,14.6,N,A*17
$GPRMC,171318.6,A,4817.00410,N,12238.34908,W,005.70,258.0,150713,016.8,E,A*2C
$PGRME,3.0,M,3.0,M,4.3,M*29
$HCHDG,242.0,0.0,E,,*2D
$IIMWV,021,T,10.1,N,A*16
$IIRMB,A,0.11,L,,OH  ,,,,,000.6,349,,V,A*48
$HCHDG,242.0,0.0,E,,*2D
$GPRMC,171318.8,A,4817.00403,N,12238.34947,W,005.70,257.7,150713,016.8,E,A*23
$HCHDG,242.1,0.0,E,,*2C
$PGRME,3.0,M,3.0,M,4.3,M*29
$IIRMC,171300,A,4817.004,N,12238.347,W,05.7,258,150713,16,E,A*15
$YXXDR,A,6.3,D,PTCH,A,2.9,D,ROLL*53
$IIVHW,,,,,03.9,N,,*13
$HCHDG,242.0,0.0,E,,*2D
$IIVLW,01830,N,000.1,N*58
$GPRMC,171319.0,A,4817.00394,N,12238.34987,W,005.70,257.6,150713,016.8,E,A*2E
$HCHDG,242.1,0.0,E,,*2C
$IIVWR,016,R,14.6,N,,,,*65
$PGRME,3.0,M,3.0,M,4.3,M*29
$IIDPT,005.7,-1.0,*42
$HCHDG,241.8,0.0,E,,*26
$GPRMC,171319.2,A,4817.00383,N,12238.35028,W,005.70,257.5,150713,016.8,E,A*24
$GPRMB,A,0.11,L,,OH,4817.5980,N,12238.5140,W,0.6,350,-0.21,V*27
$HCHDG,241.7,0.0,E,,*29
$PGRME,3.0,M,3.0,M,4.3,M*29
$HCHDG,241.6,0.0,E,,*28
$YXXDR,A,6.1,D,PTCH,A,2.6,D,ROLL*5E
$GPRMC,171319.4,A,4817.00366,N,12238.35085,W,005.70,258.0,150713,016.8,E,A*24
$PGRME,3.0,M,3.0,M,4.3,M*29
$HCHDG,241.6,0.0,E,,*28
$HCHDG,241.5,0.0,E,,*2B
$IIGLL,4817.004,N,12238.349,W,171300,A,A*4C
$GPRMC,171319.6,A,4817.00358,N,12238.35126,W,005.70,257.1,150713,016.8,E,A*2D
$HCHDG,241.6,0.0,E,,*28
$PGRME,3.0,M,3.0,M,4.3,M*29
$IIMTW,+15.0,C*3C
$IIMWV,015,R,14.3,N,A*11
$HCHDG,241.5,0.0,E,,*2B
$IIMWV,021,T,10.8,N,A*1F
$GPRMC,171319.8,A,4817.00354,N,12238.35181,W,005.70,258.2,150713,016.8,E,A*2E
$HCHDG,241.5,0.0,E,,*2B
$PGRME,3.0,M,3.0,M,4.3,M*29
$IIRMB,A,0.11,L,,OH  ,,,,,000.6,349,,V,A*48
$YXXDR,A,6.2,D,PTCH,A,2.8,D,ROLL*53
$PTAK,FFD1,2.8*5F
$HCHDG,241.4,0.0,E,,*2A
$IIRMC,171300,A,4817.004,N,12238.349,W,05.7,257,150713,16,E,A*14
$GPRMC,171320.0,A,4817.00347,N,12238.35231,W,005.71,257.0,150713,016.8,E,A*2A
$HCHDG,241.3,0.0,E,,*2D
$PGRME,3.0,M,3.0,M,4.3,M*29
$IIVHW,,,,,03.8,N,,*12
$IIVLW,01830,N,000.1,N*58
$HCHDG,241.2,0.0,E,,*2C
$GPRMC,171320.2,A,4817.00339,N,12238.35277,W,005.70,256.9,150713,016.8,E,A*2A
$GPRMB,A,0.11,L,,OH,4817.5980,N,12238.5140,W,0.6,350,-0.29,V*2F
$HCHDG,241.2,0.0,E,,*2C
$PTAK,FFP1,HEEL,@*07
$PGRME,3.0,M,3.0,M,4.3,M*29
$HCHDG,241.1,0.0,E,,*2F
$YXXDR,A,6.1,D,PTCH,A,2.6,D,ROLL*5E
$GPRMC,171320.4,A,4817.00329,N,12238.35331,W,005.71,256.9,150713,016.8,E,A*2F
$PGRME,3.0,M,3.0,M,4.3,M*29
$HCHDG,241.1,0.0,E,,*2F
$HCHDG,241.1,0.0,E,,*2F
$IIVWR,016,R,14.2,N,,,,*61
$GPRMC,171320.6,A,4817.00325,N,12238.35381,W,005.70,257.4,150713,016.8,E,A*27
$HCHDG,241.2,0.0,E,,*2C
$IIDPT,005.7,-1.0,*42
$PGRME,3.0,M,3.0,M,4.3,M*29
$IIGLL,4817.003,N,12238.351,W,171300,A,A*42
$HCHDG,241.2,0.0,E,,*2C
$IIMTW,+15.0,C*3C
$IIMWV,016,R,14.2,N,A*13
$GPRMC,171320.8,A,4817.00320,N,12238.35427,W,005.71,256.9,150713,016.8,E,A*2A
$PGRME,3.0,M,3.0,M,4.3,M*29
$HCHDG,241.2,0.0,E,,*2C
$IIMWV,020,T,10.5,N,A*13
$YXXDR,A,6.0,D,PTCH,A,2.6,D,ROLL*5F
$HCHDG,241.2,0.0,E,,*2C
$IIRMB,A,0.11,L,,OH  ,,,,,000.6,349,,V,A*48
$GPRMC,171321.0,A,4817.00313,N,12238.35475,W,005.70,256.9,150713,016.8,E,A*25
$PGRME,3.0,M,3.0,M,4.3,M*29
$HCHDG,241.1,0.0,E,,*2F
$IIRMC,171300,A,4817.003,N,12238.351,W,05.7,258,150713,16,E,A*15
$HCHDG,240.8,0.0,E,,*27
$GPRMC,171321.2,A,4817.00309,N,12238.35530,W,005.71,256.3,150713,016.8,E,A*27
$GPRMB,A,0.11,L,,OH,4817.5980,N,12238.5140,W,0.6,350,-0.36,V*21
$PGRME,3.0,M,3.0,M,4.3,M*29
$HCHDG,240.8,0.0,E,,*27
$HCHDG,240.8,0.0,E,,*27
$YXXDR,A,6.1,D,PTCH,A,2.6,D,ROLL*5E
$PTAK,FFD1,2.6*51
$GPRMC,171321.4,A,4817.00311,N,12238.35576,W,005.71,257.2,150713,016.8,E,A*2A
$PGRME,3.0,M,3.0,M,4.3,M*29
$HCHDG,240.7,0.0,E,,*28
$HCHDG,240.7,0.0,E,,*28
$IIVHW,,,,,03.0,N,,*1A
$GPRMC,171321.6,A,4817.00307,N,12238.35617,W,005.71,256.5,150713,016.8,E,A*2D
$IIVLW,01830,N,000.1,N*58
$PGRME,3.0,M,3.0,M,4.3,M*29
$HCHDG,240.7,0.0,E,,*28
$IIVWR,016,R,14.1,N,,,,*62
$HCHDG,240.6,0.0,E,,*29
$IIDPT,005.7,-1.0,*42
$GPRMC,171321.8,A,4817.00303,N,12238.35652,W,005.72,257.0,150713,016.8,E,A*21
$HCHDG,240.7,0.0,E,,*28
$IIGLL,4817.003,N,12238.354,W,171300,A,A*47
$PGRME,3.0,M,3.0,M,4.3,M*29
$IIMTW,+15.0,C*3C
$YXXDR,A,6.2,D,PTCH,A,2.7,D,ROLL*5C
$IIMWV,016,R,14.1,N,A*10
$HCHDG,240.6,0.0,E,,*29
$IIMWV,021,T,10.8,N,A*1F
$GPRMC,171322.0,A,4817.00294,N,12238.35693,W,005.71,256.6,150713,016.8,E,A*2C
$HCHDG,240.6,0.0,E,,*29
$PGRME,3.0,M,3.0,M,4.3,M*29
$IIRMB,A,0.11,L,,OH  ,,,,,000.6,350,,V,A*40
$HCHDG,240.5,0.0,E,,*2A
$GPRMC,171322.2,A,4817.00277,N,12238.35729,W,005.72,256.6,150713,016.8,E,A*20
$HCHDG,240.5,0.0,E,,*2A
$PGRME,3.0,M,3.0,M,4.3,M*29
$HCHDG,240.5,0.0,E,,*2A
$YXXDR,A,6.3,D,PTCH,A,2.6,D,ROLL*5C
$GPRMC,171322.4,A,4817.00266,N,12238.35775,W,005.72,257.0,150713,016.8,E,A*28
$GPRMB,A,0.10,L,,OH,4817.5980,N,12238.5140,W,0.6,350,-0.31,V*27
$PGRME,3.0,M,3.0,M,4.3,M*29
$HCHDG,240.5,0.0,E,,*2A
$HCHDG,240.8,0.0,E,,*27
$GPRMC,171322.6,A,4817.00257,N,12238.35820,W,005.71,255.5,150713,016.8,E,A*23
$HCHDG,240.7,0.0,E,,*28
$PGRME,3.0,M,3.0,M,4.3,M*29
$IIRMC,171300,A,4817.003,N,12238.356,W,05.7,257,150713,16,E,A*1D
$IIVHW,,,,,02.9,N,,*12
$HCHDG,240.7,0.0,E,,*28
$IIVLW,01830,N,000.1,N*58
$GPRMC,171322.8,A,4817.00250,N,12238.35872,W,005.72,257.0,150713,016.8,E,A*29
$HCHDG,240.7,0.0,E,,*28
$IIVWR,016,R,14.1,N,,,,*62
$PGRME,3.0,M,3.0,M,4.3,M*29
$IIDPT,005.7,-1.0,*42
$YXXDR,A,6.3,D,PTCH,A,2.7,D,ROLL*5D
$PTAK,FFD1,2.7*50
$HCHDG,240.6,0.0,E,,*29
$IIGLL,4817.003,N,12238.356,W,171300,A,A*45
$IIMTW,+15.0,C*3C
$GPRMC,171323.0,A,4817.00248,N,12238.35923,W,005.72,256.5,150713,016.8,E,A*28
$HCHDG,240.6,0.0,E,,*29
$PGRME,3.0,M,3.0,M,4.3,M*29
$IIMWV,016,R,14.1,N,A*10
$IIMWV,020,T,11.2,N,A*15
$HCHDG,240.5,0.0,E,,*2A
$GPRMC,171323.2,A,4817.00242,N,12238.35967,W,005.72,256.3,150713,016.8,E,A*26
$HCHDG,240.5,0.0,E,,*2A
$PGRME,3.0,M,3.0,M,4.3,M*29
$HCHDG,240.5,0.0,E,,*2A
$YXXDR,A,6.3,D,PTCH,A,2.6,D,ROLL*5C
$GPRMC,171323.4,A,4817.00230,N,12238.36027,W,005.73,256.4,150713,016.8,E,A*2D
$PGRME,3.0,M,3.0,M,4.3,M*29
$HCHDG,240.4,0.0,E,,*2B
$HCHDG,240.4,0.0,E,,*2B
$IIRMB,A,0.10,L,,OH  ,,,,,000.6,350,,V,A*41
$GPRMC,171323.6,A,4817.00217,N,12238.36082,W,005.72,256.4,150713,016.8,E,A*24
$GPRMB,A,0.10,L,,OH,4817.5980,N,12238.5140,W,0.6,350,-0.39,V*2F
$HCHDG,240.3,0.0,E,,*2C
$PGRME,3.0,M,3.0,M,4.3,M*29
$HCHDG,240.3,0.0,E,,*2C
$IIRMC,171300,A,4817.002,N,12238.358,W,05.7,257,150713,16,E,A*12
$IIVHW,,,,,03.1,N,,*1B
$GPRMC,171323.8,A,4817.00208,N,12238.36130,W,005.72,255.9,150713,016.8,E,A*22
$HCHDG,240.2,0.0,E,,*2D
$PGRME,3.0,M,3.0,M,4.3,M*29
$IIVLW,01830,N,000.1,N*58
$YXXDR,A,6.1,D,PTCH,A,2.4,D,ROLL*5C
$PTAK,FFD1,2.4*53
$IIVWR,016,R,14.3,N,,,,*60
$HCHDG,240.2,0.0,E,,*2D
$IIDPT,005.7,-1.0,*42
$GPRMC,171324.0,A,4817.00205,N,12238.36185,W,005.73,256.4,150713,016.8,E,A*21
$PGRME,3.0,M,3.0,M,4.3,M*29
$HCHDG,240.2,0.0,E,,*2D
$IIGLL,4817.002,N,12238.358,W,171300,A,A*4A
$IIMTW,+15.0,C*3C
$HCHDG,240.1,0.0,E,,*2E
$GPRMC,171324.2,A,4817.00201,N,12238.36240,W,005.72,256.3,150713,016.8,E,A*2B
$PGRME,3.0,M,3.0,M,4.3,M*29
$HCHDG,240.1,0.0,E,,*2E
$HCHDG,240.0,0.0,E,,*2F
$YXXDR,A,6.3,D,PTCH,A,2.4,D,ROLL*5E
$GPRMC,171324.4,A,4817.00196,N,12238.36292,W,005.73,255.5,150713,016.8,E,A*2B
$PTAK,FFP1,HEEL,@*07
$PGRME,3.0,M,3.0,M,4.3,M*29
$HCHDG,240.0,0.0,E,,*2F
$HCHDG,240.0,0.0,E,,*2F
$IIMWV,016,R,14.3,N,A*12
$GPRMC,171324.6,A,4817.00184,N,12238.36344,W,005.72,255.7,150713,016.8,E,A*23
$PGRME,3.0,M,3.0,M,4.3,M*29
$IIMWV,021,T,11.2,N,A*14
$HCHDG,240.0,0.0,E,,*2F
$IIRMB,A,0.10,L,,OH  ,,,,,000.6,350,,V,A*41
$HCHDG,240.0,0.0,E,,*2F
$GPRMC,171324.8,A,4817.00174,N,12238.36386,W,005.73,256.4,150713,016.8,E,A*2D
$GPRMB,A,0.10,L,,OH,4817.5980,N,12238.5140,W,0.6,350,-0.41,V*20
$HCHDG,240.0,0.0,E,,*2F
$PGRME,3.0,M,3.0,M,4.3,M*29
$IIRMC,171300,A,4817.002,N,12238.361,W,05.7,255,150713,16,E,A*1A
$YXXDR,A,6.4,D,PTCH,A,2.3,D,ROLL*5E
$PTAK,FFD1,2.3*54
$IIVHW,,,,,03.5,N,,*1F
$HCHDG,239.9,0.0,E,,*28
$IIVLW,01830,N,000.1,N*58
$GPRMC,171325.0,A,4817.00162,N,12238.36426,W,005.73,256.2,150713,016.8,E,A*28
$HCHDG,239.9,0.0,E,,*28
$IIVWR,016,R,14.3,N,,,,*60
$PGRME,3.0,M,3.0,M,4.3,M*29
$IIDPT,005.7,-1.0,*42
$HCHDG,239.8,0.0,E,,*29
$GPRMC,171325.2,A,4817.00152,N,12238.36465,W,005.73,255.6,150713,016.8,E,A*29
$HCHDG,239.8,0.0,E,,*29
$PGRME,3.0,M,3.0,M,4.3,M*29
$HCHDG,239.9,0.0,E,,*28
$YXXDR,A,6.5,D,PTCH,A,2.1,D,ROLL*5D
$GPRMC,171325.4,A,4817.00143,N,12238.36510,W,005.73,256.4,150713,016.8,E,A*2D
$PGRME,3.0,M,3.0,M,4.3,M*29
$HCHDG,239.8,0.0,E,,*29
$HCHDG,239.8,0.0,E,,*29
$IIGLL,4817.001,N,12238.363,W,171300,A,A*41
$GPRMC,171325.6,A,4817.00135,N,12238.36551,W,005.74,256.3,150713,016.8,E,A*2B
$HCHDG,239.7,0.0,E,,*26
$PGRME,3.0,M,3.0,M,4.3,M*29
$IIMTW,+15.0,C*3C
$IIMWV,015,R,14.5,N,A*17
$HCHDG,239.7,0.0,E,,*26
$IIMWV,021,T,10.8,N,A*1F
$GPRMC,171325.8,A,4817.00123,N,12238.36594,W,005.73,255.4,150713,016.8,E,A*28
$GPRMB,A,0.10,L,,OH,4817.5980,N,12238.5140,W,0.6,351,-0.52,V*23
$PGRME,3.0,M,3.0,M,4.3,M*29
$HCHDG,239.7,0.0,E,,*26
$IIRMB,A,0.10,L,,OH  ,,,,,000.6,350,,V,A*41
$YXXDR,A,6.1,D,PTCH,A,2.0,D,ROLL*58
$HCHDG,239.8,0.0,E,,*29
$IIRMC,171300,A,4817.001,N,12238.363,W,05.7,256,150713,16,E,A*18
$GPRMC,171326.0,A,4817.00109,N,12238.36635,W,005.73,256.5,150713,016.8,E,A*21
$HCHDG,239.8,0.0,E,,*29
$PGRME,3.0,M,3.0,M,4.3,M*29
$IIVHW,,,,,04.0,N,,*1D
$IIVLW,01830,N,000.1,N*58
$HCHDG,239.9,0.0,E,,*28
$GPRMC,171326.2,A,4817.00093,N,12238.36684,W,005.74,255.8,150713,016.8,E,A*22
$HCHDG,239.9,0.0,E,,*28
$PGRME,3.0,M,3.0,M,4.3,M*29
$HCHDG,239.9,0.0,E,,*28
$YXXDR,A,6.1,D,PTCH,A,2.2,D,ROLL*5A
$PTAK,FFD1,2.2*55
$GPRMC,171326.4,A,4817.00084,N,12238.36730,W,005.74,255.5,150713,016.8,E,A*21
$PGRME,3.0,M,3.0,M,4.3,M*29
$HCHDG,239.9,0.0,E,,*28
$HCHDG,239.8,0.0,E,,*29
$IIVWR,015,R,14.4,N,,,,*64
$GPRMC,171326.6,A,4817.00075,N,12238.36773,W,005.73,256.0,150713,016.8,E,A*2B
$HCHDG,239.8,0.0,E,,*29
$IIDPT,005.7,-1.0,*42
$PGRME,3.0,M,3.0,M,4.3,M*29
$IIGLL,4817.001,N,12238.365,W,171300,A,A*47
$HCHDG,239.8,0.0,E,,*29
$IIMTW,+15.0,C*3C
$IIMWV,015,R,14.4,N,A*16
$GPRMC,171326.8,A,4817.00067,N,12238.36824,W,005.74,256.0,150713,016.8,E,A*2C
$GPRMB,A,0.10,L,,OH,4817.5980,N,12238.5140,W,0.6,351,-0.48,V*28
$HCHDG,239.5,0.0,E,,*24
$PGRME,3.0,M,3.0,M,4.3,M*29
$IIMWV,020,T,10.6,N,A*10
$YXXDR,A,6.3,D,PTCH,A,2.4,D,ROLL*5E
$HCHDG,239.5,0.0,E,,*24
$IIRMB,A,0.10,L,,OH  ,,,,,000.6,351,,V,A*40
$GPRMC,171327.0,A,4817.00062,N,12238.36873,W,005.73,255.9,150713,016.8,E,A*2F
$PGRME,3.0,M,3.0,M,4.3,M*29
$HCHDG,239.3,0.0,E,,*22
$IIRMC,171300,A,4817.001,N,12238.365,W,05.7,255,150713,16,E,A*1D
$HCHDG,239.4,0.0,E,,*25
$GPRMC,171327.2,A,4817.00059,N,12238.36927,W,005.73,255.7,150713,016.8,E,A*2B
$HCHDG,239.4,0.0,E,,*25
$PGRME,3.0,M,3.0,M,4.3,M*29
$HCHDG,239.4,0.0,E,,*25
$YXXDR,A,6.2,D,PTCH,A,2.3,D,ROLL*58
$GPRMC,171327.4,A,4817.00049,N,12238.36989,W,005.73,256.0,150713,016.8,E,A*2C
$PGRME,3.0,M,3.0,M,4.3,M*29
$HCHDG,239.4,0.0,E,,*25
$HCHDG,239.4,0.0,E,,*25
$IIVHW,,,,,04.3,N,,*1E
$GPRMC,171327.6,A,4817.00036,N,12238.37047,W,005.73,255.6,150713,016.8,E,A*29
$HCHDG,239.4,0.0,E,,*25
$IIVLW,01830,N,000.1,N*58
$PGRME,3.0,M,3.0,M,4.3,M*29
$IIVWR,015,R,14.5,N,,,,*65
$IIDPT,005.7,-1.0,*42
$HCHDG,239.4,0.0,E,,*25
$GPRMC,171327.8,A,4817.00026,N,12238.37101,W,005.71,255.6,150713,016.8,E,A*27
$HCHDG,239.4,0.0,E,,*25
$IIGLL,4817.000,N,12238.368,W,171300,A,A*4B
$PGRME,3.0,M,3.0,M,4.3,M*29
$IIMTW,+15.0,C*3C
$YXXDR,A,6.1,D,PTCH,A,2.6,D,ROLL*5E
$PTAK,FFD1,2.6*51
$IIMWV,015,R,14.5,N,A*17
$HCHDG,239.3,0.0,E,,*22
$IIMWV,021,T,10.2,N,A*15
$GPRMC,171328.0,A,4817.00022,N,12238.37148,W,005.72,255.8,150713,016.8,E,A*24
$GPRMB,A,0.09,L,,OH,4817.5980,N,12238.5140,W,0.6,351,-0.52,V*2B
$HCHDG,239.1,0.0,E,,*20
$PGRME,3.0,M,3.0,M,4.3,M*29
$IIRMB,A,0.10,L,,OH  ,,,,,000.6,351,,V,A*40
$HCHDG,239.1,0.0,E,,*20
$GPRMC,171328.2,A,4817.00019,N,12238.37188,W,005.73,255.6,150713,016.8,E,A*2D
$HCHDG,239.1,0.0,E,,*20
$PGRME,3.0,M,3.0,M,4.3,M*29
$HCHDG,239.0,0.0,E,,*21
$YXXDR,A,6.2,D,PTCH,A,2.7,D,ROLL*5C
$GPRMC,171328.4,A,4817.00010,N,12238.37237,W,005.72,255.6,150713,016.8,E,A*24
$PGRME,3.0,M,3.0,M,4.3,M*29
$HCHDG,239.0,0.0,E,,*21
$PTAK,FFP1,HEEL,@*07
$HCHDG,239.0,0.0,E,,*21
$GPRMC,171328.6,A,4816.99998,N,12238.37282,W,005.73,255.9,150713,016.8,E,A*2E
$HCHDG,239.0,0.0,E,,*21
$PGRME,3.0,M,3.0,M,4.3,M*29
$IIRMC,171300,A,4817.000,N,12238.371,W,05.7,255,150713,16,E,A*19
$IIVHW,,,,,04.0,N,,*1D
$HCHDG,238.9,0.0,E,,*29
$IIVLW,01830,N,000.1,N*58
$GPRMC,171328.8,A,4816.99986,N,12238.37328,W,005.72,254.6,150713,016.8,E,A*21
$IIVWR,016,R,14.7,N,,,,*64
$PGRME,3.0,M,3.0,M,4.3,M*29
$HCHDG,238.9,0.0,E,,*29
$IIDPT,005.8,-1.0,*4D
$YXXDR,A,6.6,D,PTCH,A,2.4,D,ROLL*5B
$HCHDG,238.9,0.0,E,,*29
$IIGLL,4817.000,N,12238.371,W,171300,A,A*43
$IIMTW,+15.0,C*3C
$GPRMC,171329.0,A,4816.99976,N,12238.37364,W,005.71,255.7,150713,016.8,E,A*2C
$GPRMB,A,0.09,L,,OH,4817.5980,N,12238.5140,W,0.6,351,-0.54,V*2D
$PGRME,3.0,M,3.0,M,4.3,M*29
$HCHDG,239.1,0.0,E,,*20
$IIMWV,016,R,14.7,N,A*16
$IIMWV,021,T,10.2,N,A*15
$HCHDG,239.1,0.0,E,,*20
$GPRMC,171329.2,A,4816.99969,N,12238.37397,W,005.72,254.6,150713,016.8,E,A*2F
$PGRME,3.0,M,3.0,M,4.3,M*29
$HCHDG,239.0,0.0,E,,*21
$HCHDG,239.0,0.0,E,,*21
$YXXDR,A,6.4,D,PTCH,A,2.4,D,ROLL*59
$PTAK,FFD1,2.4*53
$GPRMC,171329.4,A,4816.99962,N,12238.37428,W,005.72,255.4,150713,016.8,E,A*22
$PGRME,3.0,M,3.0,M,4.3,M*29
$HCHDG,238.9,0.0,E,,*29
$HCHDG,238.9,0.0,E,,*29
$IIRMB,A,0.09,L,,OH  ,,,,,000.6,351,,V,A*48
$GPRMC,171329.6,A,4816.99953,N,12238.37462,W,005.73,255.5,150713,016.8,E,A*2C
$PGRME,3.0,M,3.0,M,4.3,M*29
$HCHDG,238.9,0.0,E,,*29
$HCHDG,238.9,0.0,E,,*29
$IIRMC,171300,A,4816.999,N,12238.373,W,05.7,254,150713,16,E,A*12
$IIVHW,,,,,03.6,N,,*1C
$GPRMC,171329.8,A,4816.99945,N,12238.37502,W,005.73,254.6,150713,016.8,E,A*20
$HCHDG,238.8,0.0,E,,*28
$PGRME,3.0,M,3.0,M,4.3,M*29
$IIVLW,01830,N,000.1,N*58
$YXXDR,A,6.2,D,PTCH,A,2.3,D,ROLL*58
$IIVWR,016,R,14.5,N,,,,*66
$HCHDG,238.7,0.0,E,,*27
$IIDPT,005.8,-1.0,*4D
$GPRMC,171330.0,A,4816.99923,N,12238.37547,W,005.72,254.4,150713,016.8,E,A*22
$HCHDG,238.4,0.0,E,,*24
$PGRME,3.0,M,3.0,M,4.3,M*29
$IIGLL,4816.999,N,12238.373,W,171300,A,A*49
$IIMTW,+15.0,C*3C
$HCHDG,238.3,0.0,E,,*23
$GPRMC,171330.2,A,4816.99908,N,12238.37597,W,005.72,254.6,150713,016.8,E,A*26
$GPRMB,A,0.09,L,,OH,4817.5980,N,12238.5140,W,0.6,351,-0.67,V*2D
$HCHDG,238.3,0.0,E,,*23
$PGRME,3.0,M,3.0,M,4.3,M*29
$HCHDG,238.2,0.0,E,,*22
$YXXDR,A,6.2,D,PTCH,A,2.3,D,ROLL*58
$PTAK,FFD1,2.3*54
$GPRMC,171330.4,A,4816.99893,N,12238.37652,W,005.73,254.7,150713,016.8,E,A*29
$PGRME,3.0,M,3.0,M,4.3,M*29
$HCHDG,238.2,0.0,E,,*22
$HCHDG,238.3,0.0,E,,*23
$IIMWV,016,R,14.6,N,A*17
$GPRMC,171330.6,A,4816.99886,N,12238.37705,W,005.73,255.2,150713,016.8,E,A*28
$HCHDG,238.2,0.0,E,,*22
$PGRME,3.0,M,3.0,M,4.3,M*29
$IIMWV,021,T,11.0,N,A*16
$IIRMB,A,0.09,L,,OH  ,,,,,000.6,351,,V,A*48
$HCHDG,238.2,0.0,E,,*22
$GPRMC,171330.8,A,4816.99885,N,12238.37755,W,005.73,253.9,150713,016.8,E,A*2D
$HCHDG,238.1,0.0,E,,*21
$PGRME,3.0,M,3.0,M,4.3,M*29
$IIRMC,171300,A,4816.999,N,12238.375,W,05.7,254,150713,16,E,A*14
$YXXDR,A,6.3,D,PTCH,A,2.1,D,ROLL*5B
$IIVHW,,,,,03.0,N,,*1A
$HCHDG,238.2,0.0,E,,*22
$IIVLW,01830,N,000.1,N*58
$GPRMC,171331.0,A,4816.99879,N,12238.37808,W,005.72,254.4,150713,016.8,E,A*2B
$HCHDG,238.2,0.0,E,,*22
$IIVWR,016,R,14.6,N,,,,*65
$PGRME,3.0,M,3.0,M,4.3,M*29
$IIDPT,005.8,-1.0,*4D
$HCHDG,238.2,0.0,E,,*22
$GPRMC,171331.2,A,4816.99871,N,12238.37854,W,005.71,254.1,150713,016.8,E,A*2E
$GPRMB,A,0.09,L,,OH,4817.5980,N,12238.5140,W,0.6,351,-0.73,V*28
$HCHDG,238.1,0.0,E,,*21
$PGRME,3.0,M,3.0,M,4.3,M*29
$HCHDG,238.1,0.0,E,,*21
$YXXDR,A,6.0,D,PTCH,A,2.2,D,ROLL*5B
$PTAK,FFD1,2.2*55
$GPRMC,171331.4,A,4816.99851,N,12238.37908,W,005.71,254.4,150713,016.8,E,A*27
$PGRME,3.0,M,3.0,M,4.3,M*29
$HCHDG,238.1,0.0,E,,*21
$HCHDG,238.1,0.0,E,,*21
$IIGLL,4816.998,N,12238.377,W,171300,A,A*4C
$GPRMC,171331.6,A,4816.99836,N,12238.37955,W,005.70,254.0,150713,016.8,E,A*29
$HCHDG,238.0,0.0,E,,*20
$PGRME,3.0,M,3.0,M,4.3,M*29
$IIMTW,+15.0,C*3C
$IIMWV,016,R,14.8,N,A*19
$HCHDG,238.3,0.0,E,,*23
$IIMWV,020,T,11.7,N,A*10
$GPRMC,171331.8,A,4816.99826,N,12238.37999,W,005.71,253.8,150713,016.8,E,A*28
$HCHDG,238.2,0.0,E,,*22
$PGRME,3.0,M,3.0,M,4.3,M*29
$IIRMB,A,0.09,L,,OH  ,,,,,000.6,351,,V,A*48
$YXXDR,A,6.2,D,PTCH,A,2.3,D,ROLL*58
$HCHDG,238.2,0.0,E,,*22
$IIRMC,171300,A,4816.998,N,12238.377,W,05.7,253,150713,16,E,A*10
$GPRMC,171332.0,A,4816.99815,N,12238.38038,W,005.70,254.4,150713,016.8,E,A*24
$PGRME,3.0,M,3.0,M,4.3,M*29
$HCHDG,238.2,0.0,E,,*22
$IIVHW,,,,,03.0,N,,*1A
$IIVLW,01830,N,000.1,N*58
$HCHDG,238.2,0.0,E,,*22
$GPRMC,171332.2,A,4816.99814,N,12238.38083,W,005.71,253.6,150713,016.8,E,A*23
$GPRMB,A,0.09,L,,OH,4817.5980,N,12238.5140,W,0.6,352,-0.79,V*21
$PGRME,3.0,M,3.0,M,4.3,M*29
$HCHDG,238.1,0.0,E,,*21
$HCHDG,238.1,0.0,E,,*21
$YXXDR,A,6.1,D,PTCH,A,2.4,D,ROLL*5C
$PTAK,FFD1,2.4*53
$GPRMC,171332.4,A,4816.99810,N,12238.38107,W,005.70,253.9,150713,016.8,E,A*22
$PGRME,3.0,M,3.0,M,4.3,M*29
$HCHDG,238.2,0.0,E,,*22
$PTAK,FFP1,HEEL,@*07
$HCHDG,238.2,0.0,E,,*22
$IIVWR,016,R,15.0,N,,,,*62
$GPRMC,171332.6,A,4816.99802,N,12238.38146,W,005.72,253.9,150713,016.8,E,A*24
$PGRME,3.0,M,3.0,M,4.3,M*29
$IIDPT,005.8,-1.0,*4D
$HCHDG,238.0,0.0,E,,*20
$IIGLL,4816.998,N,12238.379,W,171300,A,A*42
$HCHDG,237.9,0.0,E,,*26
$IIMTW,+15.0,C*3C
$IIMWV,016,R,15.0,N,A*10
$GPRMC,171332.8,A,4816.99790,N,12238.38188,W,005.72,253.8,150713,016.8,E,A*2D
$HCHDG,237.9,0.0,E,,*26
$PGRME,3.0,M,3.0,M,4.3,M*29
$IIMWV,020,T,11.9,N,A*1E
$YXXDR,A,6.2,D,PTCH,A,2.3,D,ROLL*58
$HCHDG,237.9,0.0,E,,*26
$IIRMB,A,0.09,L,,OH  ,,,,,000.6,351,,V,A*48
$GPRMC,171333.0,A,4816.99768,N,12238.38225,W,005.71,253.2,150713,016.8,E,A*2E
$PGRME,3.0,M,3.0,M,4.3,M*29
$HCHDG,237.9,0.0,E,,*26
$IIRMC,171300,A,4816.998,N,12238.379,W,05.7,253,150713,16,E,A*1E
$HCHDG,237.9,0.0,E,,*26
$GPRMC,171333.2,A,4816.99756,N,12238.38263,W,005.72,254.1,150713,016.8,E,A*24
$HCHDG,237.9,0.0,E,,*26
$PGRME,3.0,M,3.0,M,4.3,M*29
$HCHDG,237.7,0.0,E,,*28
$YXXDR,A,6.1,D,PTCH,A,2.6,D,ROLL*5E
$GPRMC,171333.4,A,4816.99747,N,12238.38307,W,005.71,254.0,150713,016.8,E,A*23
$GPRMB,A,0.09,L,,OH,4817.5980,N,12238.5140,W,0.6,352,-0.77,V*2F
$PGRME,3.0,M,3.0,M,4.3,M*29
$HCHDG,237.7,0.0,E,,*28
$HCHDG,237.7,0.0,E,,*28
$IIVHW,,,,,03.3,N,,*19
$GPRMC,171333.6,A,4816.99744,N,12238.38355,W,005.71,252.6,150713,016.8,E,A*25
$IIVLW,01830,N,000.1,N*58
$PGRME,3.0,M,3.0,M,4.3,M*29
$HCHDG,237.7,0.0,E,,*28
$IIVWR,016,R,15.0,N,,,,*62
$IIDPT,005.8,-1.0,*4D
$HCHDG,237.9,0.0,E,,*26
$GPRMC,171333.8,A,4816.99747,N,12238.38409,W,005.71,254.0,150713,016.8,E,A*26
$HCHDG,237.9,0.0,E,,*26
$IIGLL,4816.997,N,12238.381,W,171300,A,A*4A
$PGRME,3.0,M,3.0,M,4.3,M*29
$IIMTW,+15.0,C*3C
$YXXDR,A,6.3,D,PTCH,A,2.7,D,ROLL*5D
$PTAK,FFD1,2.7*50
$IIMWV,016,R,15.0,N,A*10
$HCHDG,237.9,0.0,E,,*26
$IIMWV,021,T,11.9,N,A*1F
$GPRMC,171334.0,A,4816.99744,N,12238.38464,W,005.72,252.9,150713,016.8,E,A*2D
$HCHDG,237.8,0.0,E,,*27
$PGRME,3.0,M,3.0,M,4.3,M*29
$IIRMB,A,0.09,L,,OH  ,,,,,000.6,352,,V,A*4B
$HCHDG,237.8,0.0,E,,*27
$GPRMC,171334.2,A,4816.99737,N,12238.38514,W,005.71,253.7,150713,016.8,E,A*21
$HCHDG,237.8,0.0,E,,*27
$PGRME,3.0,M,3.0,M,4.3,M*29
$HCHDG,237.5,0.0,E,,*2A
$YXXDR,A,6.3,D,PTCH,A,2.3,D,ROLL*59
$GPRMC,171334.4,A,4816.99725,N,12238.38558,W,005.72,253.5,150713,016.8,E,A*2D
$GPRMB,A,0.09,L,,OH,4817.5980,N,12238.5140,W,0.6,352,-0.84,V*23
$PGRME,3.0,M,3.0,M,4.3,M*29
$HCHDG,237.5,0.0,E,,*2A
$HCHDG,237.4,0.0,E,,*2B
$HCHDG,237.4,0.0,E,,*2B
$GPRMC,171334.6,A,4816.99716,N,12238.38605,W,005.72,253.7,150713,016.8,E,A*26
$PGRME,3.0,M,3.0,M,4.3,M*29
$IIRMC,171300,A,4816.997,N,12238.384,W,05.7,254,150713,16,E,A*14
$IIVHW,,,,,03.6,N,,*1C
$HCHDG,237.4,0.0,E,,*2B
$IIVLW,01830,N,000.1,N*58
$IIVWR,016,R,15.0,N,,,,*62
$GPRMC,171334.8,A,4816.99709,N,12238.38653,W,005.71,253.6,150713,016.8,E,A*27
$HCHDG,237.1,0.0,E,,*2E
$PGRME,3.0,M,3.0,M,4.3,M*29
$IIDPT,005.8,-1.0,*4D
$YXXDR,A,6.1,D,PTCH,A,2.3,D,ROLL*5B
$HCHDG,237.3,0.0,E,,*2C
$IIGLL,4816.997,N,12238.384,W,171300,A,A*4F
$IIMTW,+15.0,C*3C
$GPRMC,171335.0,A,4816.99700,N,12238.38698,W,005.70,253.3,150713,016.8,E,A*24
$HCHDG,237.3,0.0,E,,*2C
$PGRME,3.0,M,3.0,M,4.3,M*29
$IIMWV,016,R,15.0,N,A*10
$IIMWV,021,T,11.7,N,A*11
$HCHDG,237.2,0.0,E,,*2D
$HCHDG,237.2,0.0,E,,*2D
$GPRMC,171335.2,A,4816.99696,N,12238.38752,W,005.72,253.5,150713,016.8,E,A*2B
$PGRME,3.0,M,3.0,M,4.3,M*29
$HCHDG,237.1,0.0,E,,*2E
$YXXDR,A,6.1,D,PTCH,A,2.2,D,ROLL*5A
$PTAK,FFD1,2.2*55
$GPRMC,171335.4,A,4816.99695,N,12238.38787,W,005.72,253.2,150713,016.8,E,A*21
$GPRMB,A,0.08,L,,OH,4817.5980,N,12238.5140,W,0.6,352,-0.88,V*2E
$PGRME,3.0,M,3.0,M,4.3,M*29
$HCHDG,237.1,0.0,E,,*2E
$HCHDG,237.2,0.0,E,,*2D
$IIRMB,A,0.09,L,,OH  ,,,,,000.6,352,,V,A*4B
$GPRMC,171335.6,A,4816.99682,N,12238.38830,W,005.70,254.1,150713,016.8,E,A*20
$HCHDG,237.1,0.0,E,,*2E
$PGRME,3.0,M,3.0,M,4.3,M*29
$HCHDG,237.1,0.0,E,,*2E
$IIRMC,171300,A,4816.997,N,12238.386,W,05.7,253,150713,16,E,A*11
$IIVHW,,,,,04.0,N,,*1D
$GPRMC,171335.8,A,4816.99665,N,12238.38875,W,005.70,253.5,150713,016.8,E,A*25
$HCHDG,237.0,0.0,E,,*2F
$PGRME,3.0,M,3.0,M,4.3,M*29
$IIVLW,01830,N,000.1,N*58
$YXXDR,A,5.8,D,PTCH,A,1.9,D,ROLL*58
$IIVWR,015,R,15.0,N,,,,*61
$HCHDG,237.2,0.0,E,,*2D
$IIDPT,005.8,-1.0,*4D
$GPRMC,171336.0,A,4816.99648,N,12238.38914,W,005.70,253.2,150713,016.8,E,A*20
$HCHDG,237.1,0.0,E,,*2E
$PGRME,3.0,M,3.0,M,4.3,M*29
$IIGLL,4816.997,N,12238.386,W,171300,A,A*4D
$IIMTW,+15.0,C*3C
$HCHDG,237.1,0.0,E,,*2E
$GPRMC,171336.2,A,4816.99643,N,12238.38954,W,005.71,253.6,150713,016.8,E,A*28
$HCHDG,237.0,0.0,E,,*2F
$PGRME,3.0,M,3.0,M,4.3,M*29
$HCHDG,236.9,0.0,E,,*27
$YXXDR,A,6.0,D,PTCH,A,2.1,D,ROLL*58
$PTAK,FFD1,2.1*56
$GPRMC,171336.4,A,4816.99634,N,12238.38983,W,005.70,253.1,150713,016.8,E,A*22
$GPRMB,A,0.08,L,,OH,4817.5980,N,12238.5140,W,0.6,352,-0.90,V*27
$PGRME,3.0,M,3.0,M,4.3,M*29
$HCHDG,237.2,0.0,E,,*2D
$PTAK,FFP1,HEEL,@*07
$HCHDG,237.1,0.0,E,,*2E
$IIMWV,015,R,14.8,N,A*1A
$GPRMC,171336.6,A,4816.99624,N,12238.39021,W,005.70,253.6,150713,016.8,E,A*26
$HCHDG,237.1,0.0,E,,*2E
$IIMWV,020,T,11.2,N,A*15
$PGRME,3.0,M,3.0,M,4.3,M*29
$IIRMB,A,0.09,L,,OH  ,,,,,000.6,352,,V,A*4B
$HCHDG,237.0,0.0,E,,*2F
$GPRMC,171336.8,A,4816.99616,N,12238.39071,W,005.70,252.5,150713,016.8,E,A*2E
$HCHDG,237.0,0.0,E,,*2F
