$GPRMB,A,0.03,L,,OH,4817.5980,N,12238.5140,W,0.6,357,-1.29,V*2A
$PGRME,3.0,M,7.3,M,7.9,M*27
$YXXDR,A,6.2,D,PTCH,A,3.1,D,ROLL*5B
$PTAK,FFD1,3.1*57
$PTAK,FFP1,HEEL,@*07
$HCHDG,236.1,0.0,E,,*2F
$HCHDG,236.1,0.0,E,,*2F
$GPRMC,172636.4,A,4816.96255,N,12238.46645,W,005.80,253.2,180713,016.8,E,A*25
$GPRMB,A,0.03,L,,OH,4817.5980,N,12238.5140,W,0.6,357,-1.40,V*25
$PGRME,3.0,M,6.9,M,7.6,M*23
$HCHDG,235.9,0.0,E,,*24
$HCHDG,235.9,0.0,E,,*24
$GPRMC,172636.6,A,4816.96247,N,12238.46694,W,005.77,252.4,180713,016.8,E,A*27
$PGRME,3.0,M,6.6,M,7.3,M*29
$HCHDG,235.8,0.0,E,,*25
$YXXDR,A,6.1,D,PTCH,A,3.3,D,ROLL*5A
$GPRMC,172636.8,A,4816.96242,N,12238.46741,W,005.71,252.2,180713,016.8,E,A*25
$PGRME,3.0,M,6.3,M,7.0,M*2F
$HCHDG,235.7,0.0,E,,*2A
$HCHDG,235.6,0.0,E,,*2B
$HCHDG,235.5,0.0,E,,*28
$GPRMC,172637.0,A,4816.96233,N,12238.46785,W,005.69,253.1,180713,016.8,E,A*29
$PGRME,3.0,M,6.1,M,6.8,M*24
$HCHDG,235.4,0.0,E,,*29
$GPRMC,172637.2,A,4816.96218,N,12238.46824,W,005.78,252.3,180713,016.8,E,A*25
$HCHDG,235.3,0.0,E,,*2E
$PGRME,3.0,M,5.8,M,6.6,M*20
$YXXDR,A,6.2,D,PTCH,A,2.9,D,ROLL*52
$HCHDG,235.3,0.0,E,,*2E
$GPRMC,172637.4,A,4816.96198,N,12238.46854,W,005.75,251.9,180713,016.8,E,A*2B
$PGRME,3.0,M,5.6,M,6.4,M*2C
$HCHDG,235.3,0.0,E,,*2E
$HCHDG,235.2,0.0,E,,*2F
$HCHDG,235.1,0.0,E,,*2C
$GPRMC,172637.6,A,4816.96183,N,12238.46893,W,005.76,252.0,180713,016.8,E,A*21
$PGRME,3.0,M,5.4,M,6.2,M*28
$HCHDG,235.0,0.0,E,,*2D
$YXXDR,A,6.2,D,PTCH,A,2.7,D,ROLL*5C
$PTAK,FFD1,2.7*50
$GPRMC,172637.8,A,4816.96173,N,12238.46942,W,005.69,251.0,180713,016.8,E,A*20
$GPRMB,A,0.03,L,,OH,4817.5980,N,12238.5140,W,0.6,357,-1.60,V*27
$PGRME,3.0,M,5.2,M,6.0,M*2C
$HCHDG,235.0,0.0,E,,*2D
$HCHDG,234.9,0.0,E,,*25
$HCHDG,234.9,0.0,E,,*25
$GPRMC,172638.0,A,4816.96164,N,12238.46992,W,005.74,251.3,180713,016.8,E,A*23
$PGRME,3.0,M,5.0,M,5.8,M*25
$HCHDG,234.8,0.0,E,,*24
$HCHDG,234.7,0.0,E,,*2B
$GPRMC,172638.2,A,4816.96151,N,12238.47027,W,005.77,251.6,180713,016.8,E,A*27
$PGRME,3.0,M,4.8,M,5.7,M*23
$YXXDR,A,6.2,D,PTCH,A,2.2,D,ROLL*59
$HCHDG,234.7,0.0,E,,*2B
$HCHDG,234.8,0.0,E,,*24
$GPRMC,172638.4,A,4816.96141,N,12238.47057,W,005.78,249.7,180713,016.8,E,A*20
$PGRME,3.0,M,4.7,M,5.6,M*2D
$HCHDG,234.7,0.0,E,,*2B
$HCHDG,234.6,0.0,E,,*2A
$GPRMC,172638.6,A,4816.96127,N,12238.47095,W,005.75,251.6,180713,016.8,E,A*29
$PGRME,3.0,M,4.5,M,5.4,M*2D
$HCHDG,234.6,0.0,E,,*2A
$YXXDR,A,6.3,D,PTCH,A,1.7,D,ROLL*5E
$PTAK,FFD1,1.7*53
$GPRMC,172638.8,A,4816.96116,N,12238.47135,W,005.78,250.3,180713,016.8,E,A*27
$GPRMB,A,0.03,L,,OH,4817.5980,N,12238.5140,W,0.6,357,-1.70,V*26
$PGRME,3.0,M,4.4,M,5.3,M*2B
$HCHDG,234.6,0.0,E,,*2A
$HCHDG,234.5,0.0,E,,*29
$HCHDG,234.5,0.0,E,,*29
$GPRMC,172639.0,A,4816.96110,N,12238.47174,W,005.73,250.4,180713,016.8,E,A*21
$PGRME,3.0,M,4.2,M,5.2,M*2C
$HCHDG,234.3,0.0,E,,*2F
$GPRMC,172639.2,A,4816.96097,N,12238.47221,W,005.77,250.2,180713,016.8,E,A*2C
$HCHDG,234.1,0.0,E,,*2D
$PGRME,3.0,M,4.1,M,5.1,M*2C
$YXXDR,A,6.0,D,PTCH,A,1.3,D,ROLL*59
$HCHDG,234.3,0.0,E,,*2F
$HCHDG,234.2,0.0,E,,*2E
$GPRMC,172639.4,A,4816.96082,N,12238.47271,W,005.77,250.3,180713,016.8,E,A*2A
$PGRME,3.0,M,4.0,M,5.0,M*2C
$HCHDG,234.2,0.0,E,,*2E
$HCHDG,234.0,0.0,E,,*2C
$GPRMC,172639.6,A,4816.96068,N,12238.47319,W,005.74,251.2,180713,016.8,E,A*20
$PGRME,3.0,M,3.9,M,4.9,M*2A
$HCHDG,234.0,0.0,E,,*2C
$YXXDR,A,6.0,D,PTCH,A,1.3,D,ROLL*59
$GPRMC,172639.8,A,4816.96055,N,12238.47356,W,005.78,252.0,180713,016.8,E,A*26
$PGRME,3.0,M,3.8,M,4.8,M*2A
$HCHDG,234.0,0.0,E,,*2C
$HCHDG,233.8,0.0,E,,*23
$HCHDG,233.8,0.0,E,,*23
$GPRMC,172640.0,A,4816.96046,N,12238.47399,W,005.69,251.3,180713,016.8,E,A*21
$GPRMB,A,0.03,L,,OH,4817.5980,N,12238.5140,W,0.6,358,-1.60,V*28
$PGRME,3.0,M,3.7,M,4.8,M*25
$HCHDG,233.8,0.0,E,,*23
$HCHDG,234.0,0.0,E,,*2C
$GPRMC,172640.2,A,4816.96036,N,12238.47443,W,005.75,250.8,180713,016.8,E,A*23
$PGRME,3.0,M,3.6,M,4.7,M*2B
$YXXDR,A,6.0,D,PTCH,A,1.2,D,ROLL*58
$PTAK,FFD1,1.2*56
$HCHDG,233.9,0.0,E,,*22
$HCHDG,233.6,0.0,E,,*2D
$GPRMC,172640.4,A,4816.96026,N,12238.47486,W,005.67,251.7,180713,016.8,E,A*20
$PGRME,3.0,M,3.5,M,4.6,M*29
$HCHDG,233.6,0.0,E,,*2D
$GPRMC,172640.6,A,4816.96012,N,12238.47536,W,005.78,250.8,180713,016.8,E,A*2F
$HCHDG,233.6,0.0,E,,*2D
$PGRME,3.0,M,3.4,M,4.6,M*28
$HCHDG,233.4,0.0,E,,*2F
$PTAK,FFP1,HEEL,@*07
$YXXDR,A,6.0,D,PTCH,A,2.2,D,ROLL*5B
$GPRMC,172640.8,A,4816.95998,N,12238.47578,W,005.74,250.7,180713,016.8,E,A*20
$PGRME,3.0,M,3.3,M,4.5,M*2C
$HCHDG,233.4,0.0,E,,*2F
$HCHDG,233.4,0.0,E,,*2F
$GPRMC,172641.0,A,4816.95980,N,12238.47623,W,005.75,250.5,180713,016.8,E,A*2E
$HCHDG,233.2,0.0,E,,*29
$PGRME,3.0,M,3.2,M,4.4,M*2C
$HCHDG,233.0,0.0,E,,*2B
$HCHDG,232.8,0.0,E,,*22
$GPRMC,172641.2,A,4816.95971,N,12238.47675,W,005.67,250.2,180713,016.8,E,A*25
$GPRMB,A,0.02,L,,OH,4817.5980,N,12238.5140,W,0.6,358,-1.71,V*29
$PGRME,3.0,M,3.2,M,4.4,M*2C
$YXXDR,A,6.0,D,PTCH,A,2.7,D,ROLL*5E
$PTAK,FFD1,2.7*50
$HCHDG,232.9,0.0,E,,*23
$HCHDG,232.9,0.0,E,,*23
$GPRMC,172641.4,A,4816.95960,N,12238.47725,W,005.73,250.1,180713,016.8,E,A*21
$PGRME,3.0,M,3.1,M,4.3,M*28
$HCHDG,232.8,0.0,E,,*22
$HCHDG,232.4,0.0,E,,*2E
$GPRMC,172641.6,A,4816.95948,N,12238.47771,W,005.74,249.8,180713,016.8,E,A*2E
$PGRME,3.0,M,3.0,M,4.3,M*29
$HCHDG,232.3,0.0,E,,*29
$YXXDR,A,6.0,D,PTCH,A,3.1,D,ROLL*59
$GPRMC,172641.8,A,4816.95937,N,12238.47810,W,005.69,250.1,180713,016.8,E,A*2D
$PGRME,3.0,M,3.0,M,4.3,M*29
$HCHDG,232.2,0.0,E,,*28
$HCHDG,232.2,0.0,E,,*28
$HCHDG,232.1,0.0,E,,*2B
$GPRMC,172642.0,A,4816.95923,N,12238.47859,W,005.82,249.4,180713,016.8,E,A*26
$PGRME,3.0,M,3.0,M,4.3,M*29
$HCHDG,232.4,0.0,E,,*2E
$HCHDG,232.2,0.0,E,,*28
$GPRMC,172642.2,A,4816.95913,N,12238.47900,W,005.65,249.0,180713,016.8,E,A*27
$PGRME,3.0,M,3.0,M,4.3,M*29
$YXXDR,A,6.0,D,PTCH,A,3.4,D,ROLL*5C
$HCHDG,232.1,0.0,E,,*2B
$HCHDG,232.1,0.0,E,,*2B
$GPRMC,172642.4,A,4816.95899,N,12238.47941,W,005.74,249.2,180713,016.8,E,A*25
$GPRMB,A,0.02,L,,OH,4817.5980,N,12238.5140,W,0.6,358,-1.84,V*23
$PGRME,3.0,M,3.0,M,4.3,M*29
$HCHDG,231.9,0.0,E,,*20
$HCHDG,231.7,0.0,E,,*2E
$GPRMC,172642.6,A,4816.95891,N,12238.47995,W,005.82,248.3,180713,016.8,E,A*2F
$PGRME,3.0,M,3.0,M,4.3,M*29
$HCHDG,231.7,0.0,E,,*2E
$YXXDR,A,6.2,D,PTCH,A,4.1,D,ROLL*5C
$PTAK,FFD1,4.1*50
$GPRMC,172642.8,A,4816.95885,N,12238.48046,W,005.73,248.0,180713,016.8,E,A*21
$PGRME,3.0,M,3.0,M,4.3,M*29
$HCHDG,231.5,0.0,E,,*2C
$HCHDG,231.5,0.0,E,,*2C
$GPRMC,172643.0,A,4816.95879,N,12238.48092,W,005.80,248.5,180713,016.8,E,A*2B
$HCHDG,231.5,0.0,E,,*2C
$PGRME,3.0,M,3.0,M,4.3,M*29
$HCHDG,231.2,0.0,E,,*2B
$GPRMC,172643.2,A,4816.95867,N,12238.48126,W,005.67,248.1,180713,016.8,E,A*25
$HCHDG,231.1,0.0,E,,*28
$PGRME,3.0,M,3.0,M,4.3,M*29
$YXXDR,A,6.0,D,PTCH,A,3.1,D,ROLL*59
$HCHDG,231.0,0.0,E,,*29
$GPRMC,172643.4,A,4816.95858,N,12238.48167,W,005.72,247.1,180713,016.8,E,A*21
$HCHDG,231.1,0.0,E,,*28
$PGRME,3.0,M,3.0,M,4.3,M*29
$HCHDG,230.9,0.0,E,,*21
$GPRMC,172643.6,A,4816.95845,N,12238.48219,W,005.80,246.8,180713,016.8,E,A*20
$GPRMB,A,0.02,L,,OH,4817.5980,N,12238.5140,W,0.6,358,-2.11,V*2C
$HCHDG,230.7,0.0,E,,*2F
$PGRME,3.0,M,3.0,M,4.3,M*29
$HCHDG,230.4,0.0,E,,*2C
$YXXDR,A,6.2,D,PTCH,A,3.8,D,ROLL*52
$PTAK,FFD1,3.8*5E
$GPRMC,172643.8,A,4816.95835,N,12238.48267,W,005.71,246.6,180713,016.8,E,A*20
$PGRME,3.0,M,3.0,M,4.3,M*29
$HCHDG,230.3,0.0,E,,*2B
$HCHDG,230.1,0.0,E,,*29
$HCHDG,230.1,0.0,E,,*29
$GPRMC,172644.0,A,4816.95820,N,12238.48320,W,005.78,245.6,180713,016.8,E,A*23
$PGRME,3.0,M,3.0,M,4.3,M*29
$PGRMT,GPS 18x-5Hz software ver. 3.20,,,,,,,,*30
$HCHDG,229.9,0.0,E,,*29
$HCHDG,229.9,0.0,E,,*29
$GPRMC,172644.2,A,4816.95815,N,12238.48374,W,005.67,246.0,180713,016.8,E,A*2D
$PGRME,3.0,M,3.0,M,4.3,M*29
$YXXDR,A,6.3,D,PTCH,A,3.5,D,ROLL*5E
$HCHDG,230.0,0.0,E,,*28
$HCHDG,229.9,0.0,E,,*29
$GPRMC,172644.4,A,4816.95803,N,12238.48429,W,005.73,244.8,180713,016.8,E,A*2C
$PGRME,3.0,M,3.0,M,4.3,M*29
$HCHDG,229.9,0.0,E,,*29
$HCHDG,229.8,0.0,E,,*28
$GPRMC,172644.6,A,4816.95792,N,12238.48466,W,005.67,244.7,180713,016.8,E,A*28
$GPRMB,A,0.02,L,,OH,4817.5980,N,12238.5140,W,0.6,358,-2.27,V*29
$PGRME,3.0,M,3.0,M,4.3,M*29
$HCHDG,230.0,0.0,E,,*28
$PTAK,FFP1,HEEL,@*07
$YXXDR,A,6.3,D,PTCH,A,3.2,D,ROLL*59
$GPRMC,172644.8,A,4816.95765,N,12238.48503,W,005.80,245.1,180713,016.8,E,A*22
$PGRME,3.0,M,3.0,M,4.3,M*29
$HCHDG,230.0,0.0,E,,*28
$HCHDG,230.1,0.0,E,,*29
$HCHDG,230.1,0.0,E,,*29
$GPRMC,172645.0,A,4816.95755,N,12238.48553,W,005.76,243.7,180713,016.8,E,A*24
$PGRME,3.0,M,3.0,M,4.3,M*29
$HCHDG,230.1,0.0,E,,*29
$HCHDG,230.2,0.0,E,,*2A
$GPRMC,172645.2,A,4816.95740,N,12238.48608,W,005.68,244.5,180713,016.8,E,A*25
$PGRME,3.0,M,3.0,M,4.3,M*29
$YXXDR,A,6.1,D,PTCH,A,2.6,D,ROLL*5E
$PTAK,FFD1,2.6*51
$HCHDG,230.4,0.0,E,,*2C
$HCHDG,230.5,0.0,E,,*2D
$GPRMC,172645.4,A,4816.95721,N,12238.48656,W,005.85,243.8,180713,016.8,E,A*26
$PGRME,3.0,M,3.0,M,4.3,M*29
$HCHDG,230.5,0.0,E,,*2D
$HCHDG,230.6,0.0,E,,*2E
$GPRMC,172645.6,A,4816.95707,N,12238.48694,W,005.67,244.1,180713,016.8,E,A*2C
$PGRME,3.0,M,3.0,M,4.3,M*29
$HCHDG,230.8,0.0,E,,*20
$YXXDR,A,6.1,D,PTCH,A,2.6,D,ROLL*5E
$GPRMC,172645.8,A,4816.95691,N,12238.48739,W,005.80,243.8,180713,016.8,E,A*2D
$GPRMB,A,0.02,L,,OH,4817.5980,N,12238.5140,W,0.6,358,-2.42,V*2A
$PGRME,3.0,M,3.0,M,4.3,M*29
$HCHDG,231.0,0.0,E,,*29
$HCHDG,231.2,0.0,E,,*2B
$HCHDG,231.4,0.0,E,,*2D
$GPRMC,172646.0,A,4816.95674,N,12238.48782,W,005.68,245.4,180713,016.8,E,A*21
$PGRME,3.0,M,3.0,M,4.3,M*29
$HCHDG,231.7,0.0,E,,*2E
$HCHDG,231.8,0.0,E,,*21
$GPRMC,172646.2,A,4816.95650,N,12238.48814,W,005.75,245.0,180713,016.8,E,A*2D
$PGRME,3.0,M,3.0,M,4.3,M*29
$YXXDR,A,6.1,D,PTCH,A,1.6,D,ROLL*5D
$PTAK,FFD1,1.6*52
$HCHDG,232.1,0.0,E,,*2B
$HCHDG,232.3,0.0,E,,*29
$GPRMC,172646.4,A,4816.95634,N,12238.48862,W,005.77,246.0,180713,016.8,E,A*29
$PGRME,3.0,M,3.0,M,4.3,M*29
$HCHDG,232.4,0.0,E,,*2E
$GPRMC,172646.6,A,4816.95629,N,12238.48920,W,005.65,246.5,180713,016.8,E,A*26
$HCHDG,232.3,0.0,E,,*29
$PGRME,3.0,M,3.0,M,4.3,M*29
$HCHDG,232.4,0.0,E,,*2E
$YXXDR,A,6.3,D,PTCH,A,1.0,D,ROLL*59
$GPRMC,172646.8,A,4816.95621,N,12238.48973,W,005.67,246.8,180713,016.8,E,A*29
$GPRMB,A,0.02,L,,OH,4817.5980,N,12238.5140,W,0.6,359,-2.10,V*2C
$PGRME,3.0,M,3.0,M,4.3,M*29
$HCHDG,232.4,0.0,E,,*2E
$HCHDG,232.7,0.0,E,,*2D
$IIGLL,4816.956,N,12238.488,W,172600,A,A*4F
$HCHDG,232.8,0.0,E,,*22
$GPRMC,172647.0,A,4816.95606,N,12238.49019,W,005.75,246.7,180713,016.8,E,A*2D
$PGRME,3.0,M,3.0,M,4.3,M*29
$IIMWV,192,R,04.8,N,A*15
$HCHDG,233.1,0.0,E,,*2A
$IIRMB,A,0.02,L,,OH  ,,,,,000.6,358,,V,A*4A
$HCHDG,233.0,0.0,E,,*2B
$GPRMC,172647.2,A,4816.95592,N,12238.49059,W,005.68,248.4,180713,016.8,E,A*24
$PGRME,3.0,M,3.0,M,4.3,M*29
$IIRMC,172600,A,4816.956,N,12238.488,W,05.7,245,180713,16,E,A*19
$YXXDR,A,6.0,D,PTCH,A,1.2,D,ROLL*58
$PTAK,FFD1,1.2*56
$IIVWR,168,L,04.8,N,,,,*7C
$HCHDG,233.1,0.0,E,,*2A
$HCHDG,233.3,0.0,E,,*28
$GPRMC,172647.4,A,4816.95582,N,12238.49102,W,005.71,247.7,180713,016.8,E,A*28
$PGRME,3.0,M,3.0,M,4.3,M*29
$HCHDG,233.3,0.0,E,,*28
$HCHDG,233.5,0.0,E,,*2E
$GPRMC,172647.6,A,4816.95568,N,12238.49142,W,005.73,248.2,180713,016.8,E,A*22
$PGRME,3.0,M,3.0,M,4.3,M*29
$HCHDG,233.7,0.0,E,,*2C
$YXXDR,A,6.0,D,PTCH,A,1.6,D,ROLL*5C
$GPRMC,172647.8,A,4816.95558,N,12238.49180,W,005.72,248.3,180713,016.8,E,A*21
$GPRMB,A,0.01,L,,OH,4817.5980,N,12238.5140,W,0.6,359,-1.99,V*2D
$PGRME,3.0,M,3.0,M,4.3,M*29
$HCHDG,233.8,0.0,E,,*23
$HCHDG,233.8,0.0,E,,*23
$IIGLL,4816.955,N,12238.490,W,172600,A,A*45
$GPRMC,172648.0,A,4816.95553,N,12238.49221,W,005.67,248.5,180713,016.8,E,A*27
$HCHDG,234.1,0.0,E,,*2D
$PGRME,3.0,M,3.0,M,4.3,M*29
$IIMTW,+00.0,C*38
$IIMWV,032,R,11.3,N,A*11
$HCHDG,234.2,0.0,E,,*2E
$IIMWV,185,T,10.4,N,A*1C
$GPRMC,172648.2,A,4816.95546,N,12238.49272,W,005.72,248.4,180713,016.8,E,A*22
$HCHDG,234.2,0.0,E,,*2E
$PGRME,3.0,M,3.0,M,4.3,M*29
$IIRMB,A,0.02,L,,OH  ,,,,,000.6,359,,V,A*4B
$YXXDR,A,6.1,D,PTCH,A,2.3,D,ROLL*5B
$HCHDG,234.4,0.0,E,,*28
$IIRMC,172600,A,4816.955,N,12238.490,W,05.6,248,180713,16,E,A*1F
$IIVHW,,,,,01.3,N,,*1B
$GPRMC,172648.4,A,4816.95536,N,12238.49316,W,005.69,249.6,180713,016.8,E,A*29
$HCHDG,234.5,0.0,E,,*29
$PTAK,FFP1,HEEL,@*07
$PGRME,3.0,M,3.0,M,4.3,M*29
$IIVLW,01916,N,000.0,N*5C
$HCHDG,234.7,0.0,E,,*2B
$HCHDG,234.7,0.0,E,,*2B
$GPRMC,172648.6,A,4816.95528,N,12238.49362,W,005.78,249.4,180713,016.8,E,A*25
$GPRMB,A,0.01,L,,OH,4817.5980,N,12238.5140,W,0.6,359,-1.92,V*26
$PGRME,3.0,M,3.0,M,4.3,M*29
$HCHDG,234.8,0.0,E,,*24
$YXXDR,A,6.2,D,PTCH,A,2.9,D,ROLL*52
$PTAK,FFD1,2.9*5E
$GPRMC,172648.8,A,4816.95524,N,12238.49405,W,005.65,248.7,180713,016.8,E,A*2F
$PGRME,3.0,M,3.0,M,4.3,M*29
$HCHDG,234.8,0.0,E,,*24
$HCHDG,234.9,0.0,E,,*25
$IIVWR,024,R,13.3,N,,,,*66
$HCHDG,234.9,0.0,E,,*25
$GPRMC,172649.0,A,4816.95517,N,12238.49442,W,005.70,249.6,180713,016.8,E,A*21
$PGRME,3.0,M,3.0,M,4.3,M*29
$IIGLL,4816.955,N,12238.492,W,172600,A,A*47
$IIMTW,+15.5,C*39
$HCHDG,235.0,0.0,E,,*2D
$IIMWV,024,R,13.3,N,A*14
$IIMWV,036,T,10.1,N,A*10
$HCHDG,235.1,0.0,E,,*2C
$GPRMC,172649.2,A,4816.95509,N,12238.49486,W,005.67,250.2,180713,016.8,E,A*2E
$PGRME,3.0,M,3.0,M,4.3,M*29
$IIRMB,A,0.02,L,,OH  ,,,,,000.6,359,,V,A*4B
$YXXDR,A,6.1,D,PTCH,A,2.9,D,ROLL*51
$HCHDG,235.0,0.0,E,,*2D
$HCHDG,235.1,0.0,E,,*2C
$GPRMC,172649.4,A,4816.95496,N,12238.49525,W,005.72,249.5,180713,016.8,E,A*2C
$IIRMC,172600,A,4816.955,N,12238.492,W,05.7,248,180713,16,E,A*1C
$PGRME,3.0,M,3.0,M,4.3,M*29
$IIVHW,,,,,03.0,N,,*1A
$HCHDG,235.2,0.0,E,,*2F
$HCHDG,235.1,0.0,E,,*2C
$GPRMC,172649.6,A,4816.95485,N,12238.49558,W,005.69,250.1,180713,016.8,E,A*20
$PGRME,3.0,M,3.0,M,4.3,M*29
$HCHDG,235.2,0.0,E,,*2F
$YXXDR,A,6.0,D,PTCH,A,2.9,D,ROLL*50
$GPRMC,172649.8,A,4816.95470,N,12238.49604,W,005.72,250.2,180713,016.8,E,A*27
$PGRME,3.0,M,3.0,M,4.3,M*29
$HCHDG,235.3,0.0,E,,*2E
$HCHDG,235.3,0.0,E,,*2E
$IIVLW,01916,N,000.0,N*5C
$IIVWR,025,R,14.3,N,,,,*60
$HCHDG,235.4,0.0,E,,*29
$GPRMC,172650.0,A,4816.95460,N,12238.49645,W,005.68,250.5,180713,016.8,E,A*2F
$GPRMB,A,0.01,L,,OH,4817.5980,N,12238.5140,W,0.6,359,-1.80,V*25
$PGRME,3.0,M,3.0,M,4.3,M*29
$IIGLL,4816.955,N,12238.494,W,172600,A,A*41
$HCHDG,235.2,0.0,E,,*2F
$IIMTW,+15.5,C*39
$IIMWV,025,R,14.3,N,A*12
$HCHDG,235.2,0.0,E,,*2F
$GPRMC,172650.2,A,4816.95455,N,12238.49683,W,005.72,250.3,180713,016.8,E,A*2C
$PGRME,3.0,M,3.0,M,4.3,M*29
$IIMWV,031,T,10.4,N,A*12
$YXXDR,A,6.0,D,PTCH,A,2.6,D,ROLL*5F
$PTAK,FFD1,2.6*51
$IIRMB,A,0.01,L,,OH  ,,,,,000.6,359,,V,A*48
$HCHDG,235.3,0.0,E,,*2E
$HCHDG,235.3,0.0,E,,*2E
$GPRMC,172650.4,A,4816.95460,N,12238.49714,W,005.67,250.0,180713,016.8,E,A*24
$PGRME,3.0,M,3.0,M,4.3,M*29
$IIRMC,172600,A,4816.955,N,12238.494,W,05.6,250,180713,16,E,A*12
$HCHDG,235.5,0.0,E,,*28
$GPRMC,172650.6,A,4816.95457,N,12238.49749,W,005.63,251.4,180713,016.8,E,A*2B
$HCHDG,235.6,0.0,E,,*2B
$PGRME,3.0,M,3.0,M,4.3,M*29
$HCHDG,235.5,0.0,E,,*28
$YXXDR,A,6.2,D,PTCH,A,2.3,D,ROLL*58
$GPRMC,172650.8,A,4816.95444,N,12238.49799,W,005.76,250.4,180713,016.8,E,A*2F
$PGRME,3.0,M,3.0,M,4.3,M*29
$HCHDG,235.8,0.0,E,,*25
$HCHDG,235.9,0.0,E,,*24
$GPRMC,172651.0,A,4816.95429,N,12238.49847,W,005.69,250.4,180713,016.8,E,A*2F
$HCHDG,235.8,0.0,E,,*25
$PGRME,3.0,M,3.0,M,4.3,M*29
$HCHDG,235.7,0.0,E,,*2A
$GPRMC,172651.2,A,4816.95415,N,12238.49886,W,005.77,251.0,180713,016.8,E,A*25
$GPRMB,A,0.01,L,,OH,4817.5980,N,12238.5140,W,0.6,359,-1.79,V*23
$HCHDG,235.8,0.0,E,,*25
$PGRME,3.0,M,3.0,M,4.3,M*29
$YXXDR,A,6.0,D,PTCH,A,2.0,D,ROLL*59
$PTAK,FFD1,2.0*57
$HCHDG,235.8,0.0,E,,*25
$HCHDG,235.7,0.0,E,,*2A
$GPRMC,172651.4,A,4816.95407,N,12238.49929,W,005.65,251.6,180713,016.8,E,A*21
$PGRME,3.0,M,3.0,M,4.3,M*29
$HCHDG,235.9,0.0,E,,*24
$HCHDG,236.0,0.0,E,,*2E
$GPRMC,172651.6,A,4816.95400,N,12238.49983,W,005.76,250.8,180713,016.8,E,A*29
$PGRME,3.0,M,3.0,M,4.3,M*29
$HCHDG,235.8,0.0,E,,*25
$YXXDR,A,6.1,D,PTCH,A,1.6,D,ROLL*5D
$GPRMC,172651.8,A,4816.95391,N,12238.50025,W,005.67,251.8,180713,016.8,E,A*24
$PGRME,3.0,M,3.0,M,4.3,M*29
$HCHDG,235.9,0.0,E,,*24
$HCHDG,235.9,0.0,E,,*24
$IIVHW,,,,,05.7,N,,*1B
$IIVLW,01916,N,000.0,N*5C
$HCHDG,235.8,0.0,E,,*25
$GPRMC,172652.0,A,4816.95375,N,12238.50070,W,005.73,251.3,180713,016.8,E,A*2B
$PGRME,3.0,M,3.0,M,4.3,M*29
$IIVWR,027,R,13.7,N,,,,*61
$IIDPT,004.2,-1.0,*46
$HCHDG,235.8,0.0,E,,*25
$IIGLL,4816.954,N,12238.496,W,172600,A,A*42
$HCHDG,235.9,0.0,E,,*24
$GPRMC,172652.2,A,4816.95360,N,12238.50109,W,005.69,251.5,180713,016.8,E,A*2F
$GPRMB,A,0.01,L,,OH,4817.5980,N,12238.5140,W,0.6,359,-1.73,V*29
$PGRME,3.0,M,3.0,M,4.3,M*29
$IIMTW,+15.5,C*39
$IIMWV,027,R,13.7,N,A*13
$YXXDR,A,6.1,D,PTCH,A,1.6,D,ROLL*5D
$PTAK,FFD1,1.6*52
$IIMWV,036,T,10.2,N,A*13
$HCHDG,236.0,0.0,E,,*2E
$HCHDG,236.0,0.0,E,,*2E
$GPRMC,172652.4,A,4816.95352,N,12238.50149,W,005.66,252.8,180713,016.8,E,A*2D
$PGRME,3.0,M,3.0,M,4.3,M*29
$IIRMB,A,0.01,L,,OH  ,,,,,000.6,359,,V,A*48
$HCHDG,235.9,0.0,E,,*24
$HCHDG,236.1,0.0,E,,*2F
$GPRMC,172652.6,A,4816.95351,N,12238.50176,W,005.63,252.2,180713,016.8,E,A*2F
$PGRME,3.0,M,3.0,M,4.3,M*29
$HCHDG,236.2,0.0,E,,*2C
$YXXDR,A,6.0,D,PTCH,A,2.0,D,ROLL*59
$GPRMC,172652.8,A,4816.95342,N,12238.50224,W,005.73,252.8,180713,016.8,E,A*2C
$PGRME,3.0,M,3.0,M,4.3,M*29
$HCHDG,236.2,0.0,E,,*2C
$PTAK,FFP1,HEEL,@*07
$HCHDG,236.3,0.0,E,,*2D
$HCHDG,236.1,0.0,E,,*2F
$GPRMC,172653.0,A,4816.95331,N,12238.50271,W,005.67,251.6,180713,016.8,E,A*29
$PGRME,3.0,M,3.0,M,4.3,M*29
$IIRMC,172600,A,4816.953,N,12238.501,W,05.6,251,180713,16,E,A*18
$IIVHW,,,,,05.4,N,,*18
$HCHDG,236.2,0.0,E,,*2C
$IIVLW,01916,N,000.0,N*5C
$IIVWR,026,R,14.3,N,,,,*63
$HCHDG,236.2,0.0,E,,*2C
$GPRMC,172653.2,A,4816.95326,N,12238.50316,W,005.59,252.9,180713,016.8,E,A*2C
$PGRME,3.0,M,3.0,M,4.3,M*29
$IIDPT,004.2,-1.0,*46
$YXXDR,A,6.0,D,PTCH,A,2.5,D,ROLL*5C
$IIGLL,4816.953,N,12238.501,W,172600,A,A*4A
$HCHDG,236.2,0.0,E,,*2C
$IIMTW,+16.0,C*3F
$HCHDG,236.2,0.0,E,,*2C
$GPRMC,172653.4,A,4816.95322,N,12238.50357,W,005.71,252.8,180713,016.8,E,A*20
$GPRMB,A,0.01,L,,OH,4817.5980,N,12238.5140,W,0.6,359,-1.63,V*28
$PGRME,3.0,M,3.0,M,4.3,M*29
$IIMWV,026,R,14.3,N,A*11
$IIMWV,044,T,09.6,N,A*1A
$HCHDG,236.1,0.0,E,,*2F
$HCHDG,236.1,0.0,E,,*2F
$GPRMC,172653.6,A,4816.95304,N,12238.50403,W,005.69,253.1,180713,016.8,E,A*21
$PGRME,3.0,M,3.0,M,4.3,M*29
$HCHDG,236.2,0.0,E,,*2C
$YXXDR,A,6.0,D,PTCH,A,3.0,D,ROLL*58
$PTAK,FFD1,3.0*56
$GPRMC,172653.8,A,4816.95296,N,12238.50446,W,005.60,252.4,180713,016.8,E,A*29
$PGRME,3.0,M,3.0,M,4.3,M*29
$HCHDG,236.0,0.0,E,,*2E
$HCHDG,235.9,0.0,E,,*24
$IIRMB,A,0.01,L,,OH  ,,,,,000.6,359,,V,A*48
$HCHDG,235.9,0.0,E,,*24
$GPRMC,172654.0,A,4816.95286,N,12238.50495,W,005.65,252.9,180713,016.8,E,A*21
$PGRME,3.0,M,3.0,M,4.3,M*29
$HCHDG,235.9,0.0,E,,*24
$IIRMC,172600,A,4816.953,N,12238.503,W,05.5,252,180713,16,E,A*1A
$IIVHW,,,,,05.5,N,,*19
$HCHDG,235.7,0.0,E,,*2A
$GPRMC,172654.2,A,4816.95275,N,12238.50545,W,005.68,251.6,180713,016.8,E,A*22
$PGRME,3.0,M,3.0,M,4.3,M*29
$IIVLW,01916,N,000.0,N*5C
$IIVWR,023,R,13.8,N,,,,*6A
$YXXDR,A,6.3,D,PTCH,A,3.5,D,ROLL*5E
$IIDPT,004.1,-1.0,*45
$HCHDG,235.7,0.0,E,,*2A
$HCHDG,235.8,0.0,E,,*25
$GPRMC,172654.4,A,4816.95267,N,12238.50595,W,005.61,251.9,180713,016.8,E,A*2C
$GPRMB,A,0.01,L,,OH,4817.5980,N,12238.5140,W,0.6,360,-1.70,V*20
$PGRME,3.0,M,3.0,M,4.3,M*29
$IIGLL,4816.953,N,12238.503,W,172600,A,A*48
$IIMTW,+16.0,C*3F
$HCHDG,235.9,0.0,E,,*24
$HCHDG,235.9,0.0,E,,*24
$GPRMC,172654.6,A,4816.95257,N,12238.50644,W,005.65,251.9,180713,016.8,E,A*26
$PGRME,3.0,M,3.0,M,4.3,M*29
$HCHDG,235.7,0.0,E,,*2A
$YXXDR,A,6.3,D,PTCH,A,3.3,D,ROLL*58
$PTAK,FFD1,3.3*55
$GPRMC,172654.8,A,4816.95249,N,12238.50687,W,005.64,252.6,180713,016.8,E,A*25
$PGRME,3.0,M,3.0,M,4.3,M*29
$HCHDG,235.8,0.0,E,,*25
$HCHDG,235.7,0.0,E,,*2A
$IIMWV,022,R,13.9,N,A*18
$IIMWV,037,T,08.7,N,A*1E
$HCHDG,235.8,0.0,E,,*25
$GPRMC,172655.0,A,4816.95237,N,12238.50727,W,005.54,251.7,180713,016.8,E,A*2F
$PGRME,3.0,M,3.0,M,4.3,M*29
$IIRMB,A,0.01,L,,OH  ,,,,,000.6,359,,V,A*48
$HCHDG,235.8,0.0,E,,*25
$HCHDG,235.8,0.0,E,,*25
$GPRMC,172655.2,A,4816.95233,N,12238.50766,W,005.64,252.2,180713,016.8,E,A*29
$PGRME,3.0,M,3.0,M,4.3,M*29
$IIRMC,172600,A,4816.952,N,12238.505,W,05.6,251,180713,16,E,A*1D
$IIVHW,,,,,05.4,N,,*18
$YXXDR,A,6.1,D,PTCH,A,3.2,D,ROLL*5B
$IIVLW,01916,N,000.0,N*5C
$HCHDG,235.8,0.0,E,,*25
$IIVWR,022,R,13.9,N,,,,*6A
$HCHDG,235.7,0.0,E,,*2A
$GPRMC,172655.4,A,4816.95237,N,12238.50819,W,005.64,251.5,180713,016.8,E,A*28
$GPRMB,A,0.00,L,,OH,4817.5980,N,12238.5140,W,0.6,360,-1.76,V*27
$PGRME,3.0,M,3.0,M,4.3,M*29
$IIDPT,004.1,-1.0,*45
$HCHDG,235.8,0.0,E,,*25
$HCHDG,235.6,0.0,E,,*2B
$GPRMC,172655.6,A,4816.95236,N,12238.50866,W,005.59,251.1,180713,016.8,E,A*29
$PGRME,3.0,M,3.0,M,4.3,M*29
$HCHDG,235.6,0.0,E,,*2B
$YXXDR,A,6.1,D,PTCH,A,3.3,D,ROLL*5A
$GPRMC,172655.8,A,4816.95226,N,12238.50901,W,005.63,251.2,180713,016.8,E,A*2C
$PGRME,3.0,M,3.0,M,4.3,M*29
$HCHDG,235.5,0.0,E,,*28
$HCHDG,235.7,0.0,E,,*2A
$IIGLL,4816.952,N,12238.507,W,172600,A,A*4D
$GPRMC,172656.0,A,4816.95216,N,12238.50947,W,005.59,251.2,180713,016.8,E,A*2F
$HCHDG,235.7,0.0,E,,*2A
$IIMTW,+16.0,C*3F
$PGRME,3.0,M,3.0,M,4.3,M*29
$IIMWV,024,R,14.0,N,A*10
$HCHDG,235.8,0.0,E,,*25
$IIMWV,035,T,08.9,N,A*12
$GPRMC,172656.2,A,4816.95209,N,12238.50994,W,005.65,250.7,180713,016.8,E,A*26
$HCHDG,235.8,0.0,E,,*25
$IIRMB,A,0.00,L,,OH  ,,,,,000.6,359,,V,A*49
$PGRME,3.0,M,3.0,M,4.3,M*29
$YXXDR,A,6.3,D,PTCH,A,2.9,D,ROLL*53
$PTAK,FFD1,2.9*5E
$HCHDG,235.8,0.0,E,,*25
$IIRMC,172600,A,4816.952,N,12238.507,W,05.6,252,180713,16,E,A*1C
$IIVHW,,,,,05.3,N,,*1F
$GPRMC,172656.4,A,4816.95200,N,12238.51031,W,005.56,251.6,180713,016.8,E,A*2E
$HCHDG,235.7,0.0,E,,*2A
$PGRME,3.0,M,3.0,M,4.3,M*29
$IIVLW,01916,N,000.0,N*5C
$HCHDG,235.6,0.0,E,,*2B
$HCHDG,235.7,0.0,E,,*2A
$GPRMC,172656.6,A,4816.95191,N,12238.51076,W,005.64,250.5,180713,016.8,E,A*27
$GPRMB,A,0.00,L,,OH,4817.5980,N,12238.5140,W,0.6,360,-1.86,V*28
$PGRME,3.0,M,3.0,M,4.3,M*29
$HCHDG,235.7,0.0,E,,*2A
$YXXDR,A,6.3,D,PTCH,A,2.4,D,ROLL*5E
$GPRMC,172656.8,A,4816.95185,N,12238.51128,W,005.60,251.0,180713,016.8,E,A*26
$PGRME,3.0,M,3.0,M,4.3,M*29
$HCHDG,235.8,0.0,E,,*25
$PTAK,FFP1,HEEL,@*07
$HCHDG,235.8,0.0,E,,*25
$IIVWR,024,R,13.7,N,,,,*62
$IIDPT,004.1,-1.0,*45
$HCHDG,235.9,0.0,E,,*24
$GPRMC,172657.0,A,4816.95178,N,12238.51177,W,005.61,251.6,180713,016.8,E,A*20
$PGRME,3.0,M,3.0,M,4.3,M*29
$IIGLL,4816.952,N,12238.509,W,172600,A,A*43
$HCHDG,236.0,0.0,E,,*2E
$IIMTW,+16.0,C*3F
$IIMWV,024,R,13.7,N,A*10
$HCHDG,235.9,0.0,E,,*24
$GPRMC,172657.2,A,4816.95167,N,12238.51230,W,005.57,250.8,180713,016.8,E,A*26
$PGRME,3.0,M,3.0,M,4.3,M*29
$IIMWV,038,T,09.3,N,A*14
$YXXDR,A,6.0,D,PTCH,A,2.0,D,ROLL*59
$IIRMB,A,0.00,L,,OH  ,,,,,000.6,359,,V,A*49
$HCHDG,236.0,0.0,E,,*2E
$HCHDG,236.0,0.0,E,,*2E
$GPRMC,172657.4,A,4816.95155,N,12238.51269,W,005.60,251.4,180713,016.8,E,A*24
$PGRME,3.0,M,3.0,M,4.3,M*29
$IIRMC,172600,A,4816.952,N,12238.509,W,05.6,250,180713,16,E,A*10
$HCHDG,236.2,0.0,E,,*2C
$HCHDG,236.3,0.0,E,,*2D
$GPRMC,172657.6,A,4816.95150,N,12238.51314,W,005.57,251.6,180713,016.8,E,A*2E
$PGRME,3.0,M,3.0,M,4.3,M*29
$HCHDG,236.3,0.0,E,,*2D
$YXXDR,A,6.2,D,PTCH,A,1.8,D,ROLL*50
$PTAK,FFD1,1.8*5C
$GPRMC,172657.8,A,4816.95145,N,12238.51362,W,005.65,252.1,180713,016.8,E,A*20
$GPRMB,A,0.00,L,,OH,4817.5980,N,12238.5140,W,0.6,360,-1.73,V*22
$PGRME,3.0,M,3.0,M,4.3,M*29
$HCHDG,236.5,0.0,E,,*2B
$HCHDG,236.6,0.0,E,,*28
$IIVHW,,,,,04.6,N,,*1B
$IIVLW,01916,N,000.0,N*5C
$HCHDG,236.6,0.0,E,,*28
$GPRMC,172658.0,A,4816.95134,N,12238.51412,W,005.54,252.3,180713,016.8,E,A*21
$PGRME,3.0,M,3.0,M,4.3,M*29
$IIVWR,023,R,13.8,N,,,,*6A
$IIDPT,004.1,-1.0,*45
$HCHDG,236.7,0.0,E,,*29
$IIGLL,4816.951,N,12238.512,W,172600,A,A*4A
$HCHDG,237.0,0.0,E,,*2F
$GPRMC,172658.2,A,4816.95125,N,12238.51456,W,005.66,252.5,180713,016.8,E,A*24
$PGRME,3.0,M,3.0,M,4.3,M*29
$IIMTW,+16.0,C*3F
$YXXDR,A,6.3,D,PTCH,A,2.1,D,ROLL*5B
$IIMWV,023,R,13.8,N,A*18
$HCHDG,236.9,0.0,E,,*27
$IIMWV,036,T,09.5,N,A*1C
$HCHDG,237.1,0.0,E,,*2E
$GPRMC,172658.4,A,4816.95115,N,12238.51503,W,005.56,252.1,180713,016.8,E,A*27
$PGRME,3.0,M,3.0,M,4.3,M*29
$IIRMB,A,0.00,L,,OH  ,,,,,000.6,359,,V,A*49
$HCHDG,237.1,0.0,E,,*2E
$HCHDG,237.0,0.0,E,,*2F
$GPRMC,172658.6,A,4816.95105,N,12238.51552,W,005.60,252.3,180713,016.8,E,A*27
$PGRME,3.0,M,3.0,M,4.3,M*29
$HCHDG,237.1,0.0,E,,*2E
$YXXDR,A,6.2,D,PTCH,A,2.2,D,ROLL*59
$PTAK,FFD1,2.2*55
$GPRMC,172658.8,A,4816.95092,N,12238.51592,W,005.57,252.4,180713,016.8,E,A*29
$GPRMB,A,-0.00,L,OH,OH,4817.5980,N,12238.5140,W,0.6,0,-1.69,V*06
$PGRME,3.0,M,3.0,M,4.3,M*29
$HCHDG,237.1,0.0,E,,*2E
$HCHDG,237.1,0.0,E,,*2E
$HCHDG,237.2,0.0,E,,*2D
$GPRMC,172659.0,A,4816.95085,N,12238.51636,W,005.66,252.4,180713,016.8,E,A*29
$PGRME,3.0,M,3.0,M,4.3,M*29
$IIRMC,172600,A,4816.951,N,12238.514,W,05.6,252,180713,16,E,A*1D
$IIVHW,,,,,04.9,N,,*14
$HCHDG,237.2,0.0,E,,*2D
$IIVLW,01916,N,000.0,N*5C
$IIVWR,025,R,14.2,N,,,,*61
$HCHDG,237.3,0.0,E,,*2C
$GPRMC,172659.2,A,4816.95079,N,12238.51684,W,005.57,252.7,180713,016.8,E,A*20
$PGRME,3.0,M,3.0,M,4.3,M*29
$IIDPT,004.1,-1.0,*45
$YXXDR,A,6.0,D,PTCH,A,2.1,D,ROLL*58
$IIGLL,4816.951,N,12238.514,W,172600,A,A*4C
$HCHDG,237.3,0.0,E,,*2C
$IIMTW,+16.0,C*3F
$HCHDG,237.4,0.0,E,,*2B
$GPRMC,172659.4,A,4816.95069,N,12238.51729,W,005.55,252.8,180713,016.8,E,A*2C
$PGRME,3.0,M,3.0,M,4.3,M*29
$IIMWV,025,R,14.2,N,A*13
$IIMWV,034,T,09.5,N,A*1E
$HCHDG,237.4,0.0,E,,*2B
$HCHDG,237.6,0.0,E,,*29
$GPRMC,172659.6,A,4816.95056,N,12238.51773,W,005.59,253.2,180713,016.8,E,A*2A
$PGRME,3.0,M,3.0,M,4.3,M*29
$HCHDG,237.5,0.0,E,,*2A
$YXXDR,A,6.3,D,PTCH,A,2.0,D,ROLL*5A
$GPRMC,172659.8,A,4816.95048,N,12238.51808,W,005.63,254.1,180713,016.8,E,A*25
$PGRME,3.0,M,3.0,M,4.3,M*29
$HCHDG,237.5,0.0,E,,*2A
$HCHDG,237.6,0.0,E,,*29
$IIRMB,A,0.00,L,,OH  ,,,,,000.6,359,,V,A*49
$GPRMC,172700.0,A,4816.95041,N,12238.51858,W,005.57,253.5,180713,016.8,E,A*28
$GPRMB,A,-0.00,L,OH,OH,4817.5980,N,12238.5140,W,0.6,0,-1.61,V*0E
$HCHDG,237.7,0.0,E,,*28
$PGRME,3.0,M,3.0,M,4.3,M*29
$IIRMC,172600,A,4816.950,N,12238.516,W,05.5,252,180713,16,E,A*1D
$HCHDG,237.8,0.0,E,,*27
$IIVHW,,,,,05.3,N,,*1F
$GPRMC,172700.2,A,4816.95037,N,12238.51902,W,005.57,252.6,180713,016.8,E,A*27
$HCHDG,237.8,0.0,E,,*27
$PGRME,3.0,M,3.0,M,4.3,M*29
$IIVLW,01916,N,000.0,N*5C
$IIVWR,026,R,14.2,N,,,,*62
$YXXDR,A,6.2,D,PTCH,A,2.3,D,ROLL*58
$PTAK,FFD1,2.3*54
$IIDPT,004.1,-1.0,*45
$HCHDG,237.7,0.0,E,,*28
$GPRMC,172700.4,A,4816.95030,N,12238.51951,W,005.59,252.6,180713,016.8,E,A*2E
$HCHDG,237.8,0.0,E,,*27
$PGRME,3.0,M,3.0,M,4.3,M*29
$IIGLL,4816.950,N,12238.516,W,172600,A,A*4F
$IIMTW,+16.0,C*3F
$HCHDG,237.8,0.0,E,,*27
$HCHDG,237.8,0.0,E,,*27
$GPRMC,172700.6,A,4816.95023,N,12238.52002,W,005.62,253.8,180713,016.8,E,A*25
$PGRME,3.0,M,3.0,M,4.3,M*29
$HCHDG,237.8,0.0,E,,*27
$YXXDR,A,6.3,D,PTCH,A,2.9,D,ROLL*53
$GPRMC,172700.8,A,4816.95016,N,12238.52046,W,005.58,253.3,180713,016.8,E,A*2F
$PGRME,3.0,M,3.0,M,4.3,M*29
$HCHDG,237.7,0.0,E,,*28
$HCHDG,237.9,0.0,E,,*26
$PTAK,FFP1,HEEL,@*07
$IIMWV,028,R,14.2,N,A*1E
$IIMWV,040,T,09.5,N,A*1D
$HCHDG,238.0,0.0,E,,*20
$GPRMC,172701.0,A,4816.95004,N,12238.52085,W,005.56,254.0,180713,016.8,E,A*20
$GPRMB,A,-0.00,L,OH,OH,4817.5980,N,12238.5140,W,0.6,0,-1.57,V*0B
$PGRME,3.0,M,3.0,M,4.3,M*29
$IIRMB,A,0.00,L,,OH  ,,,,,000.6,000,,V,A*46
$HCHDG,238.0,0.0,E,,*20
$HCHDG,238.0,0.0,E,,*20
$GPRMC,172701.2,A,4816.94992,N,12238.52133,W,005.60,253.0,180713,016.8,E,A*2B
$PGRME,3.0,M,3.0,M,4.3,M*29
$IIRMC,172700,A,4816.950,N,12238.519,W,05.5,252,180713,16,E,A*13
$IIVHW,,,,,05.0,N,,*1C
$YXXDR,A,6.3,D,PTCH,A,2.4,D,ROLL*5E
$IIVLW,01916,N,000.0,N*5C
$HCHDG,238.0,0.0,E,,*20
$IIVWR,028,R,14.2,N,,,,*6C
$HCHDG,238.1,0.0,E,,*21
$GPRMC,172701.4,A,4816.94986,N,12238.52176,W,005.56,254.2,180713,016.8,E,A*29
$PGRME,3.0,M,3.0,M,4.3,M*29
$IIDPT,004.1,-1.0,*45
$HCHDG,238.1,0.0,E,,*21
$HCHDG,238.2,0.0,E,,*22
$GPRMC,172701.6,A,4816.94977,N,12238.52221,W,005.61,253.7,180713,016.8,E,A*22
$PGRME,3.0,M,3.0,M,4.3,M*29
$HCHDG,238.3,0.0,E,,*23
$YXXDR,A,6.1,D,PTCH,A,2.4,D,ROLL*5C
$PTAK,FFD1,2.4*53
$GPRMC,172701.8,A,4816.94969,N,12238.52271,W,005.57,255.1,180713,016.8,E,A*23
$PGRME,3.0,M,3.0,M,4.3,M*29
$HCHDG,238.4,0.0,E,,*24
$HCHDG,238.5,0.0,E,,*25
$IIGLL,4816.950,N,12238.519,W,172700,A,A*41
$HCHDG,238.4,0.0,E,,*24
$GPRMC,172702.0,A,4816.94959,N,12238.52308,W,005.57,255.1,180713,016.8,E,A*24
$PGRME,3.0,M,3.0,M,4.3,M*29
$IIMTW,+16.0,C*3F
$IIMWV,029,R,13.8,N,A*12
$HCHDG,238.5,0.0,E,,*25
$IIMWV,042,T,09.9,N,A*13
$HCHDG,238.6,0.0,E,,*26
$GPRMC,172702.2,A,4816.94950,N,12238.52344,W,005.59,254.3,180713,016.8,E,A*2A
$GPRMB,A,-0.00,L,OH,OH,4817.5980,N,12238.5140,W,0.6,1,-1.56,V*0B
$IIRMB,A,0.00,L,,OH  ,,,,,000.6,000,,V,A*46
$PGRME,3.0,M,3.0,M,4.3,M*29
$YXXDR,A,6.1,D,PTCH,A,2.6,D,ROLL*5E
$HCHDG,238.6,0.0,E,,*26
$IIRMC,172700,A,4816.950,N,12238.519,W,05.5,252,180713,16,E,A*13
$HCHDG,238.6,0.0,E,,*26
$IIVHW,,,,,04.9,N,,*14
$GPRMC,172702.4,A,4816.94941,N,12238.52375,W,005.59,254.8,180713,016.8,E,A*25
$PGRME,3.0,M,3.0,M,4.3,M*29
$IIVLW,01916,N,000.0,N*5C
$HCHDG,238.6,0.0,E,,*26
$GPRMC,172702.6,A,4816.94937,N,12238.52427,W,005.59,254.7,180713,016.8,E,A*29
$HCHDG,238.7,0.0,E,,*27
$PGRME,3.0,M,3.0,M,4.3,M*29
$HCHDG,238.7,0.0,E,,*27
$YXXDR,A,6.1,D,PTCH,A,3.1,D,ROLL*58
$PTAK,FFD1,3.1*57
$GPRMC,172702.8,A,4816.94927,N,12238.52477,W,005.58,253.9,180713,016.8,E,A*2B
$PGRME,3.0,M,3.0,M,4.3,M*29
$HCHDG,238.6,0.0,E,,*26
$HCHDG,238.7,0.0,E,,*27
$IIVWR,029,R,13.5,N,,,,*6D
$IIDPT,004.1,-1.0,*45
$HCHDG,238.7,0.0,E,,*27
$GPRMC,172703.0,A,4816.94925,N,12238.52521,W,005.58,254.2,180713,016.8,E,A*2E
$PGRME,3.0,M,3.0,M,4.3,M*29
$IIGLL,4816.949,N,12238.523,W,172700,A,A*40
$HCHDG,238.5,0.0,E,,*25
$IIMTW,+16.0,C*3F
$IIMWV,029,R,13.5,N,A*1F
$HCHDG,238.6,0.0,E,,*26
$GPRMC,172703.2,A,4816.94918,N,12238.52560,W,005.56,254.0,180713,016.8,E,A*2B
$GPRMB,A,-0.00,L,OH,OH,4817.5980,N,12238.5140,W,0.6,1,-1.60,V*0E
$PGRME,3.0,M,3.0,M,4.3,M*29
$IIMWV,043,T,09.6,N,A*1D
$YXXDR,A,6.1,D,PTCH,A,3.0,D,ROLL*59
$PTAK,FFD1,3.0*56
$IIRMB,A,0.00,L,,OH  ,,,,,000.6,001,,V,A*47
$HCHDG,238.7,0.0,E,,*27
$HCHDG,238.7,0.0,E,,*27
$GPRMC,172703.4,A,4816.94912,N,12238.52604,W,005.60,254.4,180713,016.8,E,A*27
$PGRME,3.0,M,3.0,M,4.3,M*29
$IIRMC,172700,A,4816.949,N,12238.523,W,05.5,254,180713,16,E,A*14
$HCHDG,238.9,0.0,E,,*29
$HCHDG,238.9,0.0,E,,*29
$GPRMC,172703.6,A,4816.94905,N,12238.52642,W,005.57,255.0,180713,016.8,E,A*20
$PGRME,3.0,M,3.0,M,4.3,M*29
$HCHDG,239.0,0.0,E,,*21
$YXXDR,A,6.2,D,PTCH,A,2.7,D,ROLL*5C
$GPRMC,172703.8,A,4816.94896,N,12238.52676,W,005.58,254.4,180713,016.8,E,A*28
$PGRME,3.0,M,3.0,M,4.3,M*29
$HCHDG,239.1,0.0,E,,*20
$HCHDG,239.1,0.0,E,,*20
$IIVHW,,,,,05.7,N,,*1B
$IIVLW,01916,N,000.0,N*5C
$HCHDG,239.2,0.0,E,,*23
$GPRMC,172704.0,A,4816.94884,N,12238.52723,W,005.57,254.8,180713,016.8,E,A*26
$PGRME,3.0,M,3.0,M,4.3,M*29
$IIVWR,030,R,13.7,N,,,,*67
$IIDPT,004.1,-1.0,*45
$HCHDG,239.3,0.0,E,,*22
$IIGLL,4816.949,N,12238.525,W,172700,A,A*46
$HCHDG,239.4,0.0,E,,*25
$GPRMC,172704.2,A,4816.94880,N,12238.52777,W,005.58,254.0,180713,016.8,E,A*26
$PGRME,3.0,M,3.0,M,4.3,M*29
$IIMTW,+16.0,C*3F
$IIMWV,030,R,13.7,N,A*15
$YXXDR,A,6.2,D,PTCH,A,2.9,D,ROLL*52
$HCHDG,239.5,0.0,E,,*24
$IIMWV,045,T,09.1,N,A*1C
$HCHDG,239.3,0.0,E,,*22
$GPRMC,172704.4,A,4816.94873,N,12238.52824,W,005.57,254.4,180713,016.8,E,A*2E
$GPRMB,A,-0.00,L,OH,OH,4817.5980,N,12238.5140,W,0.6,1,-1.58,V*05
$PGRME,3.0,M,3.0,M,4.3,M*29
$IIRMB,A,0.00,L,,OH  ,,,,,000.6,001,,V,A*47
$HCHDG,239.4,0.0,E,,*25
$HCHDG,239.5,0.0,E,,*24
$GPRMC,172704.6,A,4816.94868,N,12238.52868,W,005.58,254.2,180713,016.8,E,A*27
$PGRME,3.0,M,3.0,M,4.3,M*29
$HCHDG,239.5,0.0,E,,*24
$YXXDR,A,6.1,D,PTCH,A,3.1,D,ROLL*58
$GPRMC,172704.8,A,4816.94857,N,12238.52911,W,005.57,254.7,180713,016.8,E,A*20
$PGRME,3.0,M,3.0,M,4.3,M*29
$HCHDG,239.5,0.0,E,,*24
$HCHDG,239.6,0.0,E,,*27
$PTAK,FFP1,HEEL,@*07
$GPRMC,172705.0,A,4816.94847,N,12238.52960,W,005.58,253.8,180713,016.8,E,A*29
$HCHDG,239.7,0.0,E,,*26
$PGRME,3.0,M,3.0,M,4.3,M*29
$IIRMC,172700,A,4816.948,N,12238.527,W,05.5,254,180713,16,E,A*11
$IIVHW,,,,,05.3,N,,*1F
$HCHDG,239.9,0.0,E,,*28
$IIVLW,01916,N,000.0,N*5C
$IIVWR,030,R,13.4,N,,,,*64
$HCHDG,240.0,0.0,E,,*2F
$GPRMC,172705.2,A,4816.94843,N,12238.53010,W,005.58,255.1,180713,016.8,E,A*2F
$PGRME,3.0,M,3.0,M,4.3,M*29
$IIDPT,004.1,-1.0,*45
$YXXDR,A,6.4,D,PTCH,A,2.4,D,ROLL*59
$PTAK,FFD1,2.4*53
$IIGLL,4816.948,N,12238.527,W,172700,A,A*45
$HCHDG,240.1,0.0,E,,*2E
$IIMTW,+16.0,C*3F
$HCHDG,240.3,0.0,E,,*2C
$GPRMC,172705.4,A,4816.94838,N,12238.53065,W,005.57,255.5,180713,016.8,E,A*2C
$IIMWV,030,R,13.4,N,A*16
$PGRME,3.0,M,3.0,M,4.3,M*29
$IIMWV,048,T,09.2,N,A*12
$HCHDG,240.5,0.0,E,,*2A
$HCHDG,240.6,0.0,E,,*29
$GPRMC,172705.6,A,4816.94837,N,12238.53125,W,005.54,257.0,180713,016.8,E,A*20
$GPRMB,A,-0.00,L,OH,OH,4817.5980,N,12238.5140,W,0.7,1,-1.34,V*0E
$PGRME,3.0,M,3.0,M,4.3,M*29
$HCHDG,240.7,0.0,E,,*28
$YXXDR,A,6.3,D,PTCH,A,2.1,D,ROLL*5B
$GPRMC,172705.8,A,4816.94832,N,12238.53182,W,005.56,256.6,180713,016.8,E,A*23
$PGRME,3.0,M,3.0,M,4.3,M*29
$HCHDG,240.9,0.0,E,,*26
$HCHDG,241.0,0.0,E,,*2E
$IIRMB,A,0.00,L,,OH  ,,,,,000.6,001,,V,A*47
$HCHDG,241.1,0.0,E,,*2F
$GPRMC,172706.0,A,4816.94819,N,12238.53223,W,005.55,257.0,180713,016.8,E,A*2D
$PGRME,3.0,M,3.0,M,4.3,M*29
$HCHDG,241.1,0.0,E,,*2F
$IIRMC,172700,A,4816.948,N,12238.530,W,05.5,255,180713,16,E,A*16
$IIVHW,,,,,04.4,N,,*19
$HCHDG,241.2,0.0,E,,*2C
$GPRMC,172706.2,A,4816.94809,N,12238.53242,W,005.54,258.1,180713,016.8,E,A*26
$PGRME,3.0,M,3.0,M,4.3,M*29
$IIVLW,01916,N,000.0,N*5C
$IIVWR,027,R,13.6,N,,,,*60
$YXXDR,A,6.1,D,PTCH,A,2.4,D,ROLL*5C
$PTAK,FFD1,2.4*53
$IIDPT,004.1,-1.0,*45
$HCHDG,241.1,0.0,E,,*2F
$HCHDG,241.2,0.0,E,,*2C
$GPRMC,172706.4,A,4816.94802,N,12238.53285,W,005.55,256.0,180713,016.8,E,A*2E
$PGRME,3.0,M,3.0,M,4.3,M*29
$IIGLL,4816.948,N,12238.530,W,172700,A,A*43
$IIMTW,+16.0,C*3F
$HCHDG,241.1,0.0,E,,*2F
$HCHDG,241.0,0.0,E,,*2E
$GPRMC,172706.6,A,4816.94798,N,12238.53328,W,005.56,256.5,180713,016.8,E,A*20
$GPRMB,A,-0.00,L,OH,OH,4817.5980,N,12238.5140,W,0.7,1,-1.40,V*0D
$PGRME,3.0,M,3.0,M,4.3,M*29
$HCHDG,241.1,0.0,E,,*2F
$YXXDR,A,6.1,D,PTCH,A,2.6,D,ROLL*5E
$GPRMC,172706.8,A,4816.94798,N,12238.53372,W,005.56,255.9,180713,016.8,E,A*2E
$PGRME,3.0,M,3.0,M,4.3,M*29
$HCHDG,241.1,0.0,E,,*2F
$HCHDG,241.3,0.0,E,,*2D
$IIMWV,025,R,13.5,N,A*13
$IIMWV,039,T,09.7,N,A*11
$HCHDG,241.2,0.0,E,,*2C
$GPRMC,172707.0,A,4816.94790,N,12238.53413,W,005.57,257.4,180713,016.8,E,A*21
$PGRME,3.0,M,3.0,M,4.3,M*29
$IIRMB,A,0.00,L,,OH  ,,,,,000.7,001,,V,A*46
$HCHDG,241.2,0.0,E,,*2C
$HCHDG,241.4,0.0,E,,*2A
$GPRMC,172707.2,A,4816.94783,N,12238.53458,W,005.57,258.0,180713,016.8,E,A*25
$PGRME,3.0,M,3.0,M,4.3,M*29
$IIRMC,172700,A,4816.948,N,12238.532,W,05.5,258,180713,16,E,A*19
$IIVHW,,,,,03.8,N,,*12
$YXXDR,A,6.3,D,PTCH,A,1.8,D,ROLL*51
$IIVLW,01916,N,000.0,N*5C
$HCHDG,241.4,0.0,E,,*2A
$IIVWR,025,R,13.5,N,,,,*61
$HCHDG,241.5,0.0,E,,*2B
$GPRMC,172707.4,A,4816.94773,N,12238.53497,W,005.58,257.7,180713,016.8,E,A*28
$PGRME,3.0,M,3.0,M,4.3,M*29
$IIDPT,004.1,-1.0,*45
$HCHDG,241.4,0.0,E,,*2A
$HCHDG,241.4,0.0,E,,*2A
$GPRMC,172707.6,A,4816.94759,N,12238.53535,W,005.58,258.8,180713,016.8,E,A*2B
$GPRMB,A,-0.00,L,OH,OH,4817.5980,N,12238.5140,W,0.7,1,-1.20,V*0B
$PGRME,3.0,M,3.0,M,4.3,M*29
$HCHDG,241.4,0.0,E,,*2A
$YXXDR,A,6.1,D,PTCH,A,2.0,D,ROLL*58
$PTAK,FFD1,2.0*57
$GPRMC,172707.8,A,4816.94751,N,12238.53572,W,005.57,258.6,180713,016.8,E,A*2F
$PGRME,3.0,M,3.0,M,4.3,M*29
$HCHDG,241.3,0.0,E,,*2D
$HCHDG,241.2,0.0,E,,*2C
$IIGLL,4816.947,N,12238.534,W,172700,A,A*48
$HCHDG,241.1,0.0,E,,*2F
$GPRMC,172708.0,A,4816.94747,N,12238.53625,W,005.57,257.9,180713,016.8,E,A*2E
$PGRME,3.0,M,3.0,M,4.3,M*29
$IIMTW,+16.0,C*3F
$IIMWV,023,R,13.0,N,A*10
$HCHDG,241.0,0.0,E,,*2E
$IIMWV,034,T,10.0,N,A*13
$HCHDG,241.0,0.0,E,,*2E
$GPRMC,172708.2,A,4816.94740,N,12238.53677,W,005.59,257.1,180713,016.8,E,A*2A
$PGRME,3.0,M,3.0,M,4.3,M*29
$IIRMB,A,0.00,L,,OH  ,,,,,000.7,001,,V,A*46
$YXXDR,A,6.0,D,PTCH,A,2.4,D,ROLL*5D
$HCHDG,240.8,0.0,E,,*27
$IIRMC,172700,A,4816.947,N,12238.534,W,05.5,258,180713,16,E,A*10
$IIVHW,,,,,04.4,N,,*19
$HCHDG,240.9,0.0,E,,*26
$GPRMC,172708.4,A,4816.94735,N,12238.53722,W,005.58,257.9,180713,016.8,E,A*26
$PGRME,3.0,M,3.0,M,4.3,M*29
$IIVLW,01916,N,000.0,N*5C
$HCHDG,240.5,0.0,E,,*2A
$HCHDG,240.5,0.0,E,,*2A
$GPRMC,172708.6,A,4816.94719,N,12238.53761,W,005.56,256.7,180713,016.8,E,A*2C
$PGRME,3.0,M,3.0,M,4.3,M*29
$HCHDG,240.2,0.0,E,,*2D
$YXXDR,A,5.6,D,PTCH,A,2.3,D,ROLL*5F
$GPRMC,172708.8,A,4816.94708,N,12238.53808,W,005.56,258.0,180713,016.8,E,A*2B
$GPRMB,A,-0.00,L,OH,OH,4817.5980,N,12238.5140,W,0.7,1,-1.29,V*02
$PGRME,3.0,M,3.0,M,4.3,M*29
$HCHDG,240.1,0.0,E,,*2E
$PTAK,FFP1,HEEL,@*07
$HCHDG,240.3,0.0,E,,*2C
$IIVWR,023,R,12.9,N,,,,*6A
$IIDPT,004.1,-1.0,*45
$GPRMC,172709.0,A,4816.94700,N,12238.53854,W,005.53,257.6,180713,016.8,E,A*2F
$HCHDG,240.4,0.0,E,,*2B
$PGRME,3.0,M,3.0,M,4.3,M*29
$IIGLL,4816.947,N,12238.536,W,172700,A,A*4A
$HCHDG,240.3,0.0,E,,*2C
$IIMTW,+16.0,C*3F
$IIMWV,023,R,12.9,N,A*18
$HCHDG,240.3,0.0,E,,*2C
$GPRMC,172709.2,A,4816.94687,N,12238.53894,W,005.52,257.3,180713,016.8,E,A*2B
$PGRME,3.0,M,3.0,M,4.3,M*29
$IIMWV,034,T,09.0,N,A*1B
$YXXDR,A,5.8,D,PTCH,A,2.3,D,ROLL*51
$PTAK,FFD1,2.3*54
$IIRMB,A,0.00,L,,OH  ,,,,,000.7,001,,V,A*46
$HCHDG,240.2,0.0,E,,*2D
$HCHDG,240.1,0.0,E,,*2E
$GPRMC,172709.4,A,4816.94681,N,12238.53935,W,005.53,257.0,180713,016.8,E,A*23
$PGRME,3.0,M,3.0,M,4.3,M*29
$IIRMC,172700,A,4816.947,N,12238.536,W,05.5,257,180713,16,E,A*1D
$HCHDG,240.0,0.0,E,,*2F
$HCHDG,240.1,0.0,E,,*2E
$GPRMC,172709.6,A,4816.94676,N,12238.53975,W,005.54,255.3,180713,016.8,E,A*2B
$PGRME,3.0,M,3.0,M,4.3,M*29
$HCHDG,240.1,0.0,E,,*2E
$YXXDR,A,6.1,D,PTCH,A,3.0,D,ROLL*59
$GPRMC,172709.8,A,4816.94671,N,12238.54021,W,005.54,255.7,180713,016.8,E,A*29
$PGRME,3.0,M,3.0,M,4.3,M*29
$HCHDG,240.1,0.0,E,,*2E
$HCHDG,240.1,0.0,E,,*2E
$IIVHW,,,,,05.4,N,,*18
$IIVLW,01916,N,000.0,N*5C
$HCHDG,240.2,0.0,E,,*2D
$GPRMC,172710.0,A,4816.94660,N,12238.54060,W,005.55,256.7,180713,016.8,E,A*2E
$GPRMB,A,-0.00,L,OH,OH,4817.5980,N,12238.5140,W,0.7,2,-1.42,V*0C
$PGRME,3.0,M,3.0,M,4.3,M*29
$IIVWR,023,R,13.1,N,,,,*63
$IIDPT,004.1,-1.0,*45
$HCHDG,240.4,0.0,E,,*2B
$IIGLL,4816.946,N,12238.538,W,172700,A,A*45
$HCHDG,240.5,0.0,E,,*2A
$GPRMC,172710.2,A,4816.94650,N,12238.54101,W,005.55,255.9,180713,016.8,E,A*24
$PGRME,3.0,M,3.0,M,4.3,M*29
$IIMTW,+16.0,C*3F
$IIMWV,023,R,13.1,N,A*11
$YXXDR,A,6.0,D,PTCH,A,2.9,D,ROLL*50
$PTAK,FFD1,2.9*5E
$IIMWV,037,T,08.3,N,A*1A
$HCHDG,240.6,0.0,E,,*29
$HCHDG,240.7,0.0,E,,*28
$GPRMC,172710.4,A,4816.94643,N,12238.54159,W,005.54,257.1,180713,016.8,E,A*26
$PGRME,3.0,M,3.0,M,4.3,M*29
$IIRMB,A,0.00,L,,OH  ,,,,,000.7,001,,V,A*46
$HCHDG,240.9,0.0,E,,*26
$HCHDG,240.7,0.0,E,,*28
$GPRMC,172710.6,A,4816.94645,N,12238.54202,W,005.55,256.7,180713,016.8,E,A*29
$PGRME,3.0,M,3.0,M,4.3,M*29
$HCHDG,240.7,0.0,E,,*28
$YXXDR,A,6.2,D,PTCH,A,2.2,D,ROLL*59
$GPRMC,172710.8,A,4816.94641,N,12238.54239,W,005.55,258.6,180713,016.8,E,A*24
$PGRME,3.0,M,3.0,M,4.3,M*29
$HCHDG,240.8,0.0,E,,*27
$HCHDG,240.9,0.0,E,,*26
$GPRMC,172711.0,A,4816.94635,N,12238.54275,W,005.56,258.0,180713,016.8,E,A*23
$HCHDG,240.9,0.0,E,,*26
$PGRME,3.0,M,3.0,M,4.3,M*29
$IIRMC,172700,A,4816.946,N,12238.541,W,05.5,255,180713,16,E,A*1E
$IIVHW,,,,,04.6,N,,*1B
$HCHDG,241.2,0.0,E,,*2C
$IIVLW,01916,N,000.0,N*5C
$IIVWR,025,R,12.7,N,,,,*62
$HCHDG,241.0,0.0,E,,*2E
$GPRMC,172711.2,A,4816.94628,N,12238.54324,W,005.56,257.3,180713,016.8,E,A*24
$GPRMB,A,-0.00,L,OH,OH,4817.5980,N,12238.5140,W,0.7,2,-1.38,V*01
$PGRME,3.0,M,3.0,M,4.3,M*29
$IIDPT,004.1,-1.0,*45
$YXXDR,A,6.3,D,PTCH,A,2.4,D,ROLL*5E
$PTAK,FFD1,2.4*53
$IIGLL,4816.946,N,12238.541,W,172700,A,A*4B
$HCHDG,240.9,0.0,E,,*26
$IIMTW,+16.0,C*3F
$HCHDG,240.9,0.0,E,,*26
$GPRMC,172711.4,A,4816.94621,N,12238.54381,W,005.58,256.7,180713,016.8,E,A*2F
$IIMWV,025,R,12.7,N,A*10
$PGRME,3.0,M,3.0,M,4.3,M*29
$IIMWV,038,T,08.2,N,A*14
$HCHDG,240.8,0.0,E,,*27
$HCHDG,240.7,0.0,E,,*28
$GPRMC,172711.6,A,4816.94614,N,12238.54433,W,005.59,256.0,180713,016.8,E,A*23
$PGRME,3.0,M,3.0,M,4.3,M*29
$HCHDG,240.7,0.0,E,,*28
$YXXDR,A,6.3,D,PTCH,A,2.9,D,ROLL*53
$GPRMC,172711.8,A,4816.94614,N,12238.54485,W,005.57,257.9,180713,016.8,E,A*26
$PGRME,3.0,M,3.0,M,4.3,M*29
$HCHDG,241.0,0.0,E,,*2E
$HCHDG,241.1,0.0,E,,*2F
$IIRMB,A,0.00,L,,OH  ,,,,,000.7,002,,V,A*45
$HCHDG,241.1,0.0,E,,*2F
$GPRMC,172712.0,A,4816.94606,N,12238.54535,W,005.57,257.1,180713,016.8,E,A*2C
$PGRME,3.0,M,3.0,M,4.3,M*29
$HCHDG,240.9,0.0,E,,*26
$IIRMC,172700,A,4816.946,N,12238.543,W,05.5,257,180713,16,E,A*1E
$IIVHW,,,,,04.2,N,,*1F
$HCHDG,240.9,0.0,E,,*26
$GPRMC,172712.2,A,4816.94598,N,12238.54582,W,005.56,257.7,180713,016.8,E,A*21
$PGRME,3.0,M,3.0,M,4.3,M*29
$IIVLW,01916,N,000.0,N*5C
$IIVWR,025,R,11.9,N,,,,*6F
$YXXDR,A,6.1,D,PTCH,A,2.2,D,ROLL*5A
$IIDPT,004.1,-1.0,*45
$HCHDG,240.9,0.0,E,,*26
$HCHDG,240.8,0.0,E,,*27
$GPRMC,172712.4,A,4816.94586,N,12238.54623,W,005.56,256.9,180713,016.8,E,A*2F
$IIGLL,4816.946,N,12238.543,W,172700,A,A*49
$PGRME,3.0,M,3.0,M,4.3,M*29
$IIMTW,+16.0,C*3F
$HCHDG,241.1,0.0,E,,*2F
$HCHDG,241.0,0.0,E,,*2E
$GPRMC,172712.6,A,4816.94577,N,12238.54655,W,005.57,256.7,180713,016.8,E,A*2D
$GPRMB,A,-0.00,L,OH,OH,4817.5980,N,12238.5140,W,0.7,2,-1.46,V*08
$PGRME,3.0,M,3.0,M,4.3,M*29
$HCHDG,240.9,0.0,E,,*26
$YXXDR,A,6.1,D,PTCH,A,2.3,D,ROLL*5B
$PTAK,FFD1,2.3*54
$GPRMC,172712.8,A,4816.94573,N,12238.54720,W,005.59,255.8,180713,016.8,E,A*26
$PGRME,3.0,M,3.0,M,4.3,M*29
$HCHDG,240.8,0.0,E,,*27
$HCHDG,240.8,0.0,E,,*27
$IIMWV,026,R,11.6,N,A*11
$IIMWV,037,T,08.1,N,A*18
$HCHDG,240.7,0.0,E,,*28
$PTAK,FFP1,HEEL,@*07
$GPRMC,172713.0,A,4816.94570,N,12238.54782,W,005.60,257.4,180713,016.8,E,A*20
$PGRME,3.0,M,3.0,M,4.3,M*29
$IIRMB,A,0.00,L,,OH  ,,,,,000.7,002,,V,A*45
$HCHDG,240.8,0.0,E,,*27
$HCHDG,240.9,0.0,E,,*26
$GPRMC,172713.2,A,4816.94561,N,12238.54832,W,005.59,257.0,180713,016.8,E,A*28
$PGRME,3.0,M,3.0,M,4.3,M*29
$IIRMC,172700,A,4816.945,N,12238.545,W,05.5,257,180713,16,E,A*1B
$IIVHW,,,,,04.2,N,,*1F
$YXXDR,A,6.1,D,PTCH,A,1.8,D,ROLL*53
$IIVLW,01916,N,000.0,N*5C
$HCHDG,240.9,0.0,E,,*26
$IIVWR,026,R,11.6,N,,,,*63
$HCHDG,241.0,0.0,E,,*2E
$GPRMC,172713.4,A,4816.94555,N,12238.54866,W,005.58,257.8,180713,016.8,E,A*21
$PGRME,3.0,M,3.0,M,4.3,M*29
$IIDPT,004.1,-1.0,*45
$HCHDG,240.8,0.0,E,,*27
$HCHDG,240.9,0.0,E,,*26
$GPRMC,172713.6,A,4816.94543,N,12238.54915,W,005.56,257.8,180713,016.8,E,A*2F
$PGRME,3.0,M,3.0,M,4.3,M*29
$HCHDG,241.0,0.0,E,,*2E
$YXXDR,A,6.1,D,PTCH,A,1.6,D,ROLL*5D
$GPRMC,172713.8,A,4816.94528,N,12238.54956,W,005.57,257.2,180713,016.8,E,A*20
$GPRMB,A,-0.00,L,OH,OH,4817.5980,N,12238.5140,W,0.7,2,-1.43,V*0D
$PGRME,3.0,M,3.0,M,4.3,M*29
$HCHDG,241.0,0.0,E,,*2E
$HCHDG,241.1,0.0,E,,*2F
$IIGLL,4816.945,N,12238.548,W,172700,A,A*41
$HCHDG,241.1,0.0,E,,*2F
$GPRMC,172714.0,A,4816.94526,N,12238.54992,W,005.58,259.2,180713,016.8,E,A*28
$IIMTW,+16.0,C*3F
$PGRME,3.0,M,3.0,M,4.3,M*29
$IIMWV,027,R,11.4,N,A*12
$HCHDG,241.2,0.0,E,,*2C
$IIMWV,039,T,08.0,N,A*17
$HCHDG,241.2,0.0,E,,*2C
$GPRMC,172714.2,A,4816.94529,N,12238.55044,W,005.61,257.9,180713,016.8,E,A*29
$PGRME,3.0,M,3.0,M,4.3,M*29
$IIRMB,A,0.00,L,,OH  ,,,,,000.7,002,,V,A*45
$YXXDR,A,6.0,D,PTCH,A,1.8,D,ROLL*52
$PTAK,FFD1,1.8*5C
$HCHDG,241.2,0.0,E,,*2C
$IIRMC,172700,A,4816.945,N,12238.548,W,05.5,257,180713,16,E,A*16
$IIVHW,,,,,04.5,N,,*18
$GPRMC,172714.4,A,4816.94526,N,12238.55105,W,005.61,258.7,180713,016.8,E,A*25
$HCHDG,241.2,0.0,E,,*2C
$PGRME,3.0,M,3.0,M,4.3,M*29
$IIVLW,01916,N,000.0,N*5C
$HCHDG,241.1,0.0,E,,*2F
$GPRMC,172714.6,A,4816.94516,N,12238.55160,W,005.61,258.0,180713,016.8,E,A*20
$HCHDG,241.2,0.0,E,,*2C
$PGRME,3.0,M,3.0,M,4.3,M*29
$HCHDG,241.1,0.0,E,,*2F
$YXXDR,A,6.2,D,PTCH,A,2.1,D,ROLL*5A
$GPRMC,172714.8,A,4816.94506,N,12238.55187,W,005.59,258.3,180713,016.8,E,A*2E
$GPRMB,A,-0.00,L,OH,OH,4817.5980,N,12238.5140,W,0.7,2,-1.34,V*0D
$PGRME,3.0,M,3.0,M,4.3,M*29
$HCHDG,241.2,0.0,E,,*2C
$HCHDG,241.2,0.0,E,,*2C
$IIVWR,029,R,11.4,N,,,,*6E
$IIDPT,004.1,-1.0,*45
$HCHDG,241.2,0.0,E,,*2C
$GPRMC,172715.0,A,4816.94490,N,12238.55220,W,005.60,258.4,180713,016.8,E,A*2A
$PGRME,3.0,M,3.0,M,4.3,M*29
$IIGLL,4816.945,N,12238.550,W,172700,A,A*48
$HCHDG,241.3,0.0,E,,*2D
$IIMTW,+16.0,C*3F
$IIMWV,029,R,11.4,N,A*1C
$HCHDG,241.2,0.0,E,,*2C
$GPRMC,172715.2,A,4816.94482,N,12238.55275,W,005.60,257.6,180713,016.8,E,A*26
$PGRME,3.0,M,3.0,M,4.3,M*29
$IIMWV,043,T,07.5,N,A*10
$YXXDR,A,5.9,D,PTCH,A,2.4,D,ROLL*57
$IIRMB,A,0.00,L,,OH  ,,,,,000.7,002,,V,A*45
$HCHDG,241.2,0.0,E,,*2C
$HCHDG,241.0,0.0,E,,*2E
$GPRMC,172715.4,A,4816.94474,N,12238.55324,W,005.60,258.1,180713,016.8,E,A*24
$PGRME,3.0,M,3.0,M,4.3,M*29
$IIRMC,172700,A,4816.945,N,12238.550,W,05.6,257,180713,16,E,A*1C
$HCHDG,241.2,0.0,E,,*2C
$HCHDG,241.2,0.0,E,,*2C
$GPRMC,172715.6,A,4816.94477,N,12238.55367,W,005.62,257.4,180713,016.8,E,A*2A
$PGRME,3.0,M,3.0,M,4.3,M*29
$HCHDG,241.2,0.0,E,,*2C
$YXXDR,A,6.0,D,PTCH,A,2.9,D,ROLL*50
$PTAK,FFD1,2.9*5E
$GPRMC,172715.8,A,4816.94462,N,12238.55428,W,005.61,258.1,180713,016.8,E,A*25
$PGRME,3.0,M,3.0,M,4.3,M*29
$HCHDG,241.1,0.0,E,,*2F
$HCHDG,241.1,0.0,E,,*2F
$IIVHW,,,,,04.2,N,,*1F
$IIVLW,01916,N,000.0,N*5C
$HCHDG,241.1,0.0,E,,*2F
$GPRMC,172716.0,A,4816.94449,N,12238.55467,W,005.61,257.9,180713,016.8,E,A*2B
$GPRMB,A,-0.00,L,OH,OH,4817.5980,N,12238.5140,W,0.7,2,-1.40,V*0E
$PGRME,3.0,M,3.0,M,4.3,M*29
$IIVWR,034,R,11.8,N,,,,*6E
$IIDPT,004.1,-1.0,*45
$HCHDG,241.1,0.0,E,,*2F
$IIGLL,4816.944,N,12238.553,W,172700,A,A*4A
$HCHDG,241.1,0.0,E,,*2F
$GPRMC,172716.2,A,4816.94436,N,12238.55517,W,005.60,257.7,180713,016.8,E,A*28
$PGRME,3.0,M,3.0,M,4.3,M*29
$IIMTW,+16.0,C*3F
$IIMWV,034,R,11.8,N,A*1C
$YXXDR,A,6.1,D,PTCH,A,2.6,D,ROLL*5E
$HCHDG,240.9,0.0,E,,*26
$IIMWV,045,T,07.6,N,A*15
$HCHDG,240.8,0.0,E,,*27
$GPRMC,172716.4,A,4816.94429,N,12238.55544,W,005.59,257.9,180713,016.8,E,A*22
$PGRME,3.0,M,3.0,M,4.3,M*29
$IIRMB,A,0.00,L,,OH  ,,,,,000.7,002,,V,A*45
$HCHDG,240.8,0.0,E,,*27
$HCHDG,240.8,0.0,E,,*27
$GPRMC,172716.6,A,4816.94418,N,12238.55587,W,005.59,257.7,180713,016.8,E,A*23
$PGRME,3.0,M,3.0,M,4.3,M*29
$HCHDG,240.7,0.0,E,,*28
$YXXDR,A,6.0,D,PTCH,A,2.7,D,ROLL*5E
$PTAK,FFD1,2.7*50
$GPRMC,172716.8,A,4816.94410,N,12238.55640,W,005.61,257.0,180713,016.8,E,A*21
$PGRME,3.0,M,3.0,M,4.3,M*29
$HCHDG,240.5,0.0,E,,*2A
$HCHDG,240.5,0.0,E,,*2A
$HCHDG,240.8,0.0,E,,*27
$GPRMC,172717.0,A,4816.94400,N,12238.55697,W,005.59,257.2,180713,016.8,E,A*2A
$PTAK,FFP1,HEEL,@*07
$PGRME,3.0,M,3.0,M,4.3,M*29
$IIRMC,172700,A,4816.944,N,12238.555,W,05.5,257,180713,16,E,A*1B
$IIVHW,,,,,04.2,N,,*1F
$HCHDG,240.8,0.0,E,,*27
$IIVLW,01916,N,000.0,N*5C
$IIVWR,036,R,12.0,N,,,,*67
$HCHDG,240.9,0.0,E,,*26
$GPRMC,172717.2,A,4816.94399,N,12238.55747,W,005.60,256.8,180713,016.8,E,A*22
$GPRMB,A,-0.00,L,OH,OH,4817.5980,N,12238.5140,W,0.7,3,-1.52,V*0C
$PGRME,3.0,M,3.0,M,4.3,M*29
$IIDPT,004.1,-1.0,*45
$YXXDR,A,6.1,D,PTCH,A,2.3,D,ROLL*5B
$IIGLL,4816.944,N,12238.555,W,172700,A,A*4C
$HCHDG,240.6,0.0,E,,*29
$IIMTW,+16.0,C*3F
$HCHDG,240.7,0.0,E,,*28
$GPRMC,172717.4,A,4816.94388,N,12238.55797,W,005.59,258.0,180713,016.8,E,A*25
$IIMWV,036,R,12.0,N,A*15
$PGRME,3.0,M,3.0,M,4.3,M*29
$IIMWV,051,T,08.5,N,A*1C
$HCHDG,240.8,0.0,E,,*27
$HCHDG,240.8,0.0,E,,*27
$GPRMC,172717.6,A,4816.94382,N,12238.55847,W,005.60,257.0,180713,016.8,E,A*2A
$PGRME,3.0,M,3.0,M,4.3,M*29
$HCHDG,240.8,0.0,E,,*27
$YXXDR,A,6.2,D,PTCH,A,2.1,D,ROLL*5A
$GPRMC,172717.8,A,4816.94379,N,12238.55885,W,005.59,257.8,180713,016.8,E,A*2C
$PGRME,3.0,M,3.0,M,4.3,M*29
$HCHDG,240.8,0.0,E,,*27
$HCHDG,241.0,0.0,E,,*2E
$IIRMB,A,0.00,L,,OH  ,,,,,000.7,003,,V,A*44
$HCHDG,240.9,0.0,E,,*26
$GPRMC,172718.0,A,4816.94371,N,12238.55924,W,005.62,257.0,180713,016.8,E,A*29
$PGRME,3.0,M,3.0,M,4.3,M*29
$HCHDG,240.9,0.0,E,,*26
$IIRMC,172700,A,4816.943,N,12238.557,W,05.5,258,180713,16,E,A*11
$IIVHW,,,,,04.2,N,,*1F
$HCHDG,240.9,0.0,E,,*26
$GPRMC,172718.2,A,4816.94361,N,12238.55965,W,005.60,256.8,180713,016.8,E,A*24
$IIVLW,01916,N,000.0,N*5C
$PGRME,3.0,M,3.0,M,4.3,M*29
$IIVWR,038,R,12.1,N,,,,*68
$YXXDR,A,5.9,D,PTCH,A,2.4,D,ROLL*57
$PTAK,FFD1,2.4*53
$IIDPT,004.1,-1.0,*45
$HCHDG,240.9,0.0,E,,*26
$HCHDG,240.9,0.0,E,,*26
$GPRMC,172718.4,A,4816.94353,N,12238.56007,W,005.60,257.8,180713,016.8,E,A*2C
$GPRMB,A,-0.00,L,OH,OH,4817.5980,N,12238.5140,W,0.7,3,-1.44,V*0B
$IIGLL,4816.943,N,12238.557,W,172700,A,A*49
$PGRME,3.0,M,3.0,M,4.3,M*29
$IIMTW,+16.0,C*3F
$HCHDG,240.8,0.0,E,,*27
$HCHDG,240.8,0.0,E,,*27
$GPRMC,172718.6,A,4816.94349,N,12238.56054,W,005.60,258.2,180713,016.8,E,A*26
$PGRME,3.0,M,3.0,M,4.3,M*29
$HCHDG,240.8,0.0,E,,*27
$YXXDR,A,6.0,D,PTCH,A,1.9,D,ROLL*53
$GPRMC,172718.8,A,4816.94345,N,12238.56101,W,005.60,257.6,180713,016.8,E,A*2E
$PGRME,3.0,M,3.0,M,4.3,M*29
$HCHDG,241.0,0.0,E,,*2E
$HCHDG,240.9,0.0,E,,*26
$IIMWV,040,R,11.8,N,A*1F
$IIMWV,055,T,09.1,N,A*1D
$HCHDG,240.9,0.0,E,,*26
$GPRMC,172719.0,A,4816.94341,N,12238.56151,W,005.60,256.9,180713,016.8,E,A*28
$PGRME,3.0,M,3.0,M,4.3,M*29
$IIRMB,A,0.00,L,,OH  ,,,,,000.7,003,,V,A*44
$HCHDG,240.9,0.0,E,,*26
$HCHDG,240.9,0.0,E,,*26
$GPRMC,172719.2,A,4816.94340,N,12238.56211,W,005.62,256.7,180713,016.8,E,A*20
$PGRME,3.0,M,3.0,M,4.3,M*29
$IIRMC,172700,A,4816.943,N,12238.560,W,05.6,257,180713,16,E,A*19
$IIVHW,,,,,04.6,N,,*1B
$YXXDR,A,5.8,D,PTCH,A,2.6,D,ROLL*54
$IIVLW,01916,N,000.0,N*5C
$HCHDG,240.9,0.0,E,,*26
$IIVWR,040,R,11.8,N,,,,*6D
$HCHDG,240.8,0.0,E,,*27
$GPRMC,172719.4,A,4816.94347,N,12238.56251,W,005.63,257.9,180713,016.8,E,A*2B
$PGRME,3.0,M,3.0,M,4.3,M*29
$IIDPT,004.1,-1.0,*45
$HCHDG,240.8,0.0,E,,*27
$HCHDG,240.8,0.0,E,,*27
$GPRMC,172719.6,A,4816.94337,N,12238.56295,W,005.62,258.0,180713,016.8,E,A*21
$GPRMB,A,-0.00,L,OH,OH,4817.5980,N,12238.5140,W,0.7,3,-1.44,V*0B
$PGRME,3.0,M,3.0,M,4.3,M*29
$HCHDG,240.9,0.0,E,,*26
$YXXDR,A,6.0,D,PTCH,A,2.2,D,ROLL*5B
$PTAK,FFD1,2.2*55
$GPRMC,172719.8,A,4816.94335,N,12238.56328,W,005.61,257.4,180713,016.8,E,A*22
$PGRME,3.0,M,3.0,M,4.3,M*29
$HCHDG,240.9,0.0,E,,*26
$HCHDG,240.9,0.0,E,,*26
$IIGLL,4816.943,N,12238.562,W,172700,A,A*4F
$HCHDG,241.0,0.0,E,,*2E
$GPRMC,172720.0,A,4816.94327,N,12238.56378,W,005.61,257.5,180713,016.8,E,A*27
$IIMTW,+16.0,C*3F
$PGRME,3.0,M,3.0,M,4.3,M*29
$IIMWV,038,R,11.7,N,A*1F
$HCHDG,241.0,0.0,E,,*2E
$IIMWV,059,T,08.6,N,A*17
$HCHDG,241.1,0.0,E,,*2F
$GPRMC,172720.2,A,4816.94321,N,12238.56421,W,005.61,257.4,180713,016.8,E,A*29
$IIRMB,A,0.00,L,,OH  ,,,,,000.7,003,,V,A*44
$PGRME,3.0,M,3.0,M,4.3,M*29
$YXXDR,A,5.9,D,PTCH,A,2.4,D,ROLL*57
$HCHDG,241.0,0.0,E,,*2E
$IIRMC,172700,A,4816.943,N,12238.562,W,05.6,258,180713,16,E,A*14
$IIVHW,,,,,04.7,N,,*1A
$HCHDG,241.0,0.0,E,,*2E
$GPRMC,172720.4,A,4816.94315,N,12238.56462,W,005.63,256.9,180713,016.8,E,A*21
$PGRME,3.0,M,3.0,M,4.3,M*29
$IIVLW,01916,N,000.0,N*5C
$HCHDG,241.0,0.0,E,,*2E
$HCHDG,241.2,0.0,E,,*2C
$GPRMC,172720.6,A,4816.94312,N,12238.56512,W,005.65,258.2,180713,016.8,E,A*21
$PGRME,3.0,M,3.0,M,4.3,M*29
$HCHDG,241.2,0.0,E,,*2C
$YXXDR,A,6.0,D,PTCH,A,2.6,D,ROLL*5F
$GPRMC,172720.8,A,4816.94306,N,12238.56566,W,005.64,257.5,180713,016.8,E,A*20
$GPRMB,A,-0.00,L,OH,OH,4817.5980,N,12238.5140,W,0.7,3,-1.51,V*0F
$PGRME,3.0,M,3.0,M,4.3,M*29
$HCHDG,241.2,0.0,E,,*2C
$HCHDG,241.3,0.0,E,,*2D
$IIVWR,040,R,11.9,N,,,,*6C
$IIDPT,004.1,-1.0,*45
$HCHDG,241.3,0.0,E,,*2D
$PTAK,FFP1,HEEL,@*07
$GPRMC,172721.0,A,4816.94302,N,12238.56606,W,005.64,257.9,180713,016.8,E,A*24
$PGRME,3.0,M,3.0,M,4.3,M*29
$IIGLL,4816.943,N,12238.565,W,172700,A,A*48
$HCHDG,241.1,0.0,E,,*2F
$IIMTW,+16.0,C*3F
$IIMWV,040,R,11.9,N,A*1E
$HCHDG,241.2,0.0,E,,*2C
$GPRMC,172721.2,A,4816.94290,N,12238.56633,W,005.63,256.7,180713,016.8,E,A*22
$PGRME,3.0,M,3.0,M,4.3,M*29
$IIMWV,058,T,08.4,N,A*14
$YXXDR,A,6.1,D,PTCH,A,2.6,D,ROLL*5E
$PTAK,FFD1,2.6*51
$IIRMB,A,0.00,L,,OH  ,,,,,000.7,003,,V,A*44
$HCHDG,241.1,0.0,E,,*2F
$HCHDG,241.1,0.0,E,,*2F
$GPRMC,172721.4,A,4816.94295,N,12238.56674,W,005.62,257.1,180713,016.8,E,A*24
$PGRME,3.0,M,3.0,M,4.3,M*29
$IIRMC,172700,A,4816.943,N,12238.565,W,05.6,258,180713,16,E,A*13
$HCHDG,241.1,0.0,E,,*2F
$HCHDG,241.1,0.0,E,,*2F
$GPRMC,172721.6,A,4816.94292,N,12238.56734,W,005.63,257.8,180713,016.8,E,A*2C
$PGRME,3.0,M,3.0,M,4.3,M*29
$HCHDG,241.2,0.0,E,,*2C
$YXXDR,A,6.1,D,PTCH,A,2.2,D,ROLL*5A
$GPRMC,172721.8,A,4816.94278,N,12238.56783,W,005.64,258.5,180713,016.8,E,A*2F
$GPRMB,A,-0.00,L,OH,OH,4817.5980,N,12238.5140,W,0.7,3,-1.42,V*0D
$PGRME,3.0,M,3.0,M,4.3,M*29
$HCHDG,241.3,0.0,E,,*2D
$HCHDG,241.3,0.0,E,,*2D
$IIVHW,,,,,05.0,N,,*1C
$IIVLW,01916,N,000.0,N*5C
$HCHDG,241.3,0.0,E,,*2D
$GPRMC,172722.0,A,4816.94268,N,12238.56828,W,005.64,258.3,180713,016.8,E,A*2D
$PGRME,3.0,M,3.0,M,4.3,M*29
$IIVWR,042,R,12.7,N,,,,*63
$IIDPT,004.1,-1.0,*45
$HCHDG,241.4,0.0,E,,*2A
$IIGLL,4816.942,N,12238.567,W,172700,A,A*4B
$HCHDG,241.4,0.0,E,,*2A
$GPRMC,172722.2,A,4816.94255,N,12238.56870,W,005.64,257.1,180713,016.8,E,A*21
$PGRME,3.0,M,3.0,M,4.3,M*29
$IIMTW,+16.0,C*3F
$IIMWV,042,R,12.7,N,A*11
$YXXDR,A,6.0,D,PTCH,A,2.5,D,ROLL*5C
$PTAK,FFD1,2.5*52
$HCHDG,241.3,0.0,E,,*2D
$IIMWV,063,T,08.4,N,A*1C
$HCHDG,241.4,0.0,E,,*2A
$GPRMC,172722.4,A,4816.94242,N,12238.56916,W,005.63,256.5,180713,016.8,E,A*22
$PGRME,3.0,M,3.0,M,4.3,M*29
$IIRMB,A,0.00,L,,OH  ,,,,,000.7,003,,V,A*44
$HCHDG,241.2,0.0,E,,*2C
$HCHDG,241.3,0.0,E,,*2D
$GPRMC,172722.6,A,4816.94227,N,12238.56954,W,005.63,257.5,180713,016.8,E,A*24
$PGRME,3.0,M,3.0,M,4.3,M*29
$HCHDG,241.4,0.0,E,,*2A
$YXXDR,A,6.0,D,PTCH,A,2.8,D,ROLL*51
$GPRMC,172722.8,A,4816.94220,N,12238.56992,W,005.65,258.2,180713,016.8,E,A*29
$PGRME,3.0,M,3.0,M,4.3,M*29
$HCHDG,241.6,0.0,E,,*28
$HCHDG,241.6,0.0,E,,*28
$HCHDG,241.7,0.0,E,,*29
$GPRMC,172723.0,A,4816.94218,N,12238.57056,W,005.62,258.1,180713,016.8,E,A*2F
$GPRMB,A,-0.00,L,OH,OH,4817.5980,N,12238.5140,W,0.7,3,-1.47,V*08
$PGRME,3.0,M,3.0,M,4.3,M*29
$IIRMC,172700,A,4816.942,N,12238.569,W,05.6,257,180713,16,E,A*11
$IIVHW,,,,,05.5,N,,*19
$HCHDG,241.8,0.0,E,,*26
$IIVLW,01916,N,000.0,N*5C
$IIVWR,039,R,13.0,N,,,,*69
$GPRMC,172723.2,A,4816.94217,N,12238.57113,W,005.63,257.7,180713,016.8,E,A*2A
$HCHDG,241.8,0.0,E,,*26
$PGRME,3.0,M,3.0,M,4.3,M*29
$IIDPT,004.1,-1.0,*45
$YXXDR,A,6.1,D,PTCH,A,2.3,D,ROLL*5B
$PTAK,FFD1,2.3*54
$IIGLL,4816.942,N,12238.569,W,172700,A,A*45
$HCHDG,241.8,0.0,E,,*26
$IIMTW,+16.0,C*3F
$HCHDG,241.8,0.0,E,,*26
$GPRMC,172723.4,A,4816.94210,N,12238.57162,W,005.63,257.8,180713,016.8,E,A*22
$IIMWV,039,R,13.0,N,A*1B
$PGRME,3.0,M,3.0,M,4.3,M*29
$IIMWV,063,T,09.5,N,A*1C
$HCHDG,241.7,0.0,E,,*29
$HCHDG,241.7,0.0,E,,*29
$GPRMC,172723.6,A,4816.94203,N,12238.57189,W,005.63,257.6,180713,016.8,E,A*29
$PGRME,3.0,M,3.0,M,4.3,M*29
$HCHDG,241.7,0.0,E,,*29
$YXXDR,A,6.0,D,PTCH,A,2.9,D,ROLL*50
$GPRMC,172723.8,A,4816.94193,N,12238.57233,W,005.63,258.5,180713,016.8,E,A*23
$PGRME,3.0,M,3.0,M,4.3,M*29
$HCHDG,241.8,0.0,E,,*26
$HCHDG,241.8,0.0,E,,*26
$IIRMB,A,0.00,L,,OH  ,,,,,000.7,003,,V,A*44
$HCHDG,241.9,0.0,E,,*27
$GPRMC,172724.0,A,4816.94184,N,12238.57283,W,005.61,258.1,180713,016.8,E,A*27
$GPRMB,A,-0.00,L,OH,OH,4817.5980,N,12238.5140,W,0.7,3,-1.48,V*07
$PGRME,3.0,M,3.0,M,4.3,M*29
$HCHDG,242.0,0.0,E,,*2D
$IIRMC,172700,A,4816.942,N,12238.571,W,05.6,257,180713,16,E,A*18
$IIVHW,,,,,04.9,N,,*14
$HCHDG,242.0,0.0,E,,*2D
$GPRMC,172724.2,A,4816.94176,N,12238.57320,W,005.60,258.9,180713,016.8,E,A*29
$PGRME,3.0,M,3.0,M,4.3,M*29
$IIVLW,01916,N,000.0,N*5C
$IIVWR,030,R,13.2,N,,,,*62
$YXXDR,A,6.0,D,PTCH,A,2.4,D,ROLL*5D
$IIDPT,004.1,-1.0,*45
$HCHDG,242.0,0.0,E,,*2D
$HCHDG,242.0,0.0,E,,*2D
$GPRMC,172724.4,A,4816.94176,N,12238.57370,W,005.60,257.8,180713,016.8,E,A*24
$IIGLL,4816.942,N,12238.571,W,172700,A,A*4C
$PGRME,3.0,M,3.0,M,4.3,M*29
$IIMTW,+16.0,C*3F
$HCHDG,242.0,0.0,E,,*2D
$HCHDG,242.0,0.0,E,,*2D
$GPRMC,172724.6,A,4816.94166,N,12238.57429,W,005.61,259.0,180713,016.8,E,A*2B
$PGRME,3.0,M,3.0,M,4.3,M*29
$HCHDG,242.0,0.0,E,,*2D
$YXXDR,A,6.3,D,PTCH,A,2.9,D,ROLL*53
$PTAK,FFD1,2.9*5E
$GPRMC,172724.8,A,4816.94159,N,12238.57474,W,005.62,259.2,180713,016.8,E,A*20
$PGRME,3.0,M,3.0,M,4.3,M*29
$HCHDG,242.2,0.0,E,,*2F
$HCHDG,242.1,0.0,E,,*2C
$IIMWV,027,R,12.8,N,A*1D
$IIMWV,045,T,09.2,N,A*1F
$HCHDG,242.2,0.0,E,,*2F
$GPRMC,172725.0,A,4816.94149,N,12238.57512,W,005.63,258.6,180713,016.8,E,A*2D
$GPRMB,A,-0.00,L,OH,OH,4817.5980,N,12238.5140,W,0.7,4,-1.45,V*0D
$PGRME,3.0,M,3.0,M,4.3,M*29
$IIRMB,A,0.00,L,,OH  ,,,,,000.7,003,,V,A*44
$HCHDG,241.9,0.0,E,,*27
$PTAK,FFP1,HEEL,@*07
$GPRMC,172725.2,A,4816.94149,N,12238.57548,W,005.60,258.4,180713,016.8,E,A*21
$HCHDG,242.0,0.0,E,,*2D
$PGRME,3.0,M,3.0,M,4.3,M*29
$IIRMC,172700,A,4816.941,N,12238.574,W,05.6,259,180713,16,E,A*10
$IIVHW,,,,,05.0,N,,*1C
$YXXDR,A,6.0,D,PTCH,A,3.0,D,ROLL*58
$IIVLW,01916,N,000.0,N*5C
$HCHDG,242.0,0.0,E,,*2D
$IIVWR,027,R,12.8,N,,,,*6F
$HCHDG,242.2,0.0,E,,*2F
$GPRMC,172725.4,A,4816.94146,N,12238.57595,W,005.62,259.1,180713,016.8,E,A*2E
$PGRME,3.0,M,3.0,M,4.3,M*29
$IIDPT,004.1,-1.0,*45
$HCHDG,242.1,0.0,E,,*2C
$HCHDG,242.1,0.0,E,,*2C
$GPRMC,172725.6,A,4816.94140,N,12238.57645,W,005.61,259.1,180713,016.8,E,A*27
$PGRME,3.0,M,3.0,M,4.3,M*29
$HCHDG,242.2,0.0,E,,*2F
$YXXDR,A,6.0,D,PTCH,A,3.0,D,ROLL*58
$PTAK,FFD1,3.0*56
$GPRMC,172725.8,A,4816.94133,N,12238.57693,W,005.63,258.2,180713,016.8,E,A*26
$PGRME,3.0,M,3.0,M,4.3,M*29
$HCHDG,242.0,0.0,E,,*2D
$HCHDG,242.0,0.0,E,,*2D
$IIGLL,4816.941,N,12238.576,W,172700,A,A*48
$HCHDG,242.0,0.0,E,,*2D
$GPRMC,172726.0,A,4816.94131,N,12238.57742,W,005.63,259.3,180713,016.8,E,A*22
$GPRMB,A,-0.00,L,OH,OH,4817.5980,N,12238.5140,W,0.7,4,-1.40,V*08
$IIMTW,+16.0,C*3F
$PGRME,3.0,M,3.0,M,4.3,M*29
$IIMWV,025,R,13.1,N,A*17
$HCHDG,241.9,0.0,E,,*27
$IIMWV,042,T,08.4,N,A*1F
$HCHDG,242.2,0.0,E,,*2F
$GPRMC,172726.2,A,4816.94126,N,12238.57795,W,005.63,258.7,180713,016.8,E,A*29
$IIRMB,A,0.00,L,,OH  ,,,,,000.7,004,,V,A*43
$PGRME,3.0,M,3.0,M,4.3,M*29
$YXXDR,A,5.7,D,PTCH,A,3.4,D,ROLL*58
$HCHDG,242.2,0.0,E,,*2F
$IIRMC,172700,A,4816.941,N,12238.576,W,05.6,259,180713,16,E,A*12
$IIVHW,,,,,04.7,N,,*1A
$HCHDG,242.4,0.0,E,,*29
$GPRMC,172726.4,A,4816.94122,N,12238.57850,W,005.63,260.0,180713,016.8,E,A*21
$PGRME,3.0,M,3.0,M,4.3,M*29
$IIVLW,01916,N,000.0,N*5C
$HCHDG,242.4,0.0,E,,*29
$GPRMC,172726.6,A,4816.94122,N,12238.57894,W,005.64,258.7,180713,016.8,E,A*20
$HCHDG,242.2,0.0,E,,*2F
$PGRME,3.0,M,3.0,M,4.3,M*29
$HCHDG,242.2,0.0,E,,*2F
$YXXDR,A,5.6,D,PTCH,A,2.9,D,ROLL*55
$PTAK,FFD1,2.9*5E
$GPRMC,172726.8,A,4816.94120,N,12238.57936,W,005.62,258.7,180713,016.8,E,A*23
$PGRME,3.0,M,3.0,M,4.3,M*29
$HCHDG,242.2,0.0,E,,*2F
$HCHDG,242.1,0.0,E,,*2C
$IIVWR,014,R,12.6,N,,,,*61
$IIDPT,004.1,-1.0,*45
$GPRMC,172727.0,A,4816.94115,N,12238.57983,W,005.62,257.3,180713,016.8,E,A*29
$HCHDG,242.2,0.0,E,,*2F
$PGRME,3.0,M,3.0,M,4.3,M*29
$IIGLL,4816.941,N,12238.578,W,172700,A,A*46
$HCHDG,242.2,0.0,E,,*2F
$IIMTW,+16.0,C*3F
$IIMWV,014,R,12.6,N,A*13
$HCHDG,242.2,0.0,E,,*2F
$GPRMC,172727.2,A,4816.94113,N,12238.58032,W,005.63,259.5,180713,016.8,E,A*28
$GPRMB,A,-0.00,L,OH,OH,4817.5980,N,12238.5140,W,0.7,4,-1.39,V*06
$PGRME,3.0,M,3.0,M,4.3,M*29
$IIMWV,037,T,09.0,N,A*18
$YXXDR,A,6.0,D,PTCH,A,2.7,D,ROLL*5E
$IIRMB,A,0.00,L,,OH  ,,,,,000.7,004,,V,A*43
$HCHDG,242.3,0.0,E,,*2E
$HCHDG,242.3,0.0,E,,*2E
$GPRMC,172727.4,A,4816.94110,N,12238.58078,W,005.61,259.1,180713,016.8,E,A*25
$PGRME,3.0,M,3.0,M,4.3,M*29
$IIRMC,172700,A,4816.941,N,12238.578,W,05.6,258,180713,16,E,A*1D
$HCHDG,242.3,0.0,E,,*2E
$HCHDG,242.3,0.0,E,,*2E
$GPRMC,172727.6,A,4816.94101,N,12238.58121,W,005.63,258.1,180713,016.8,E,A*29
$PGRME,3.0,M,3.0,M,4.3,M*29
$HCHDG,242.3,0.0,E,,*2E
$YXXDR,A,6.0,D,PTCH,A,3.5,D,ROLL*5D
$GPRMC,172727.8,A,4816.94095,N,12238.58186,W,005.61,259.8,180713,016.8,E,A*2C
$PGRME,3.0,M,3.0,M,4.3,M*29
$HCHDG,242.2,0.0,E,,*2F
$HCHDG,242.5,0.0,E,,*28
$IIVHW,,,,,05.1,N,,*1D
$IIVLW,01916,N,000.0,N*5C
$HCHDG,242.5,0.0,E,,*28
$GPRMC,172728.0,A,4816.94095,N,12238.58246,W,005.61,259.4,180713,016.8,E,A*28
$PGRME,3.0,M,3.0,M,4.3,M*29
$IIVWR,012,R,13.4,N,,,,*64
