$IIDPT,019.4,-1.0,*4C
$HCHDG,27.7,0.0,E,,*1B
$GPRMC,000001.0,A,4814.73774,N,12239.04444,W,007.78,046.4,190713,016.8,E,D*2D
$HCHDG,27.7,0.0,E,,*1B
$PGRME,2.4,M,2.4,M,3.4,M*29
$HCHDG,27.4,0.0,E,,*18
$YXXDR,A,5.6,D,PTCH,A,3.0,D,ROLL*5D
$GPRMC,000001.2,A,4814.73800,N,12239.04399,W,007.80,045.5,190713,016.8,E,D*21
$PGRME,2.4,M,2.4,M,3.4,M*29
$HCHDG,27.5,0.0,E,,*19
$HCHDG,27.3,0.0,E,,*1F
$IIGLL,4814.736,N,12239.045,W,000000,A,A*43
$GPRMC,000001.4,A,4814.73822,N,12239.04366,W,007.82,046.5,190713,016.8,E,D*26
$IIMTW,+16.5,C*3A
$PGRME,2.4,M,2.4,M,3.4,M*29
$HCHDG,27.3,0.0,E,,*1F
$IIMWV,243,R,06.7,N,A*17
$HCHDG,27.4,0.0,E,,*18
$IIMWV,212,T,11.7,N,A*13
$GPRMC,000001.6,A,4814.73849,N,12239.04320,W,007.85,047.3,190713,016.8,E,D*2B
$GPRMB,A,-0.00,L,OH,OH,4817.5980,N,12238.5140,W,2.9,7,5.99,V*2A
$HCHDG,27.2,0.0,E,,*1E
$IIRMB,A,0.00,L,,OH  ,,,,,002.9,007,,V,A*4C
$PGRME,2.4,M,2.4,M,3.4,M*29
$YXXDR,A,5.6,D,PTCH,A,2.7,D,ROLL*5B
$PTAK,FFD1,2.7*50
$HCHDG,27.3,0.0,E,,*1F
$IIRMC,000000,A,4814.736,N,12239.045,W,07.7,046,180713,16,E,A*16
$IIVHW,,,,,07.1,N,,*1F
$GPRMC,000001.8,A,4814.73881,N,12239.04275,W,007.85,047.9,190713,016.8,E,D*2A
$HCHDG,27.1,0.0,E,,*1D
$PGRME,2.4,M,2.4,M,3.4,M*29
$IIVLW,01947,N,031.0,N*5A
$HCHDG,26.8,0.0,E,,*15
$GPRMC,000002.0,A,4814.73914,N,12239.04225,W,007.86,047.4,190713,016.8,E,D*27
$PGRME,2.4,M,2.4,M,3.4,M*29
$HCHDG,26.9,0.0,E,,*14
$HCHDG,26.9,0.0,E,,*14
$YXXDR,A,5.6,D,PTCH,A,2.3,D,ROLL*5F
$GPRMC,000002.2,A,4814.73946,N,12239.04169,W,007.84,047.0,190713,016.8,E,D*2F
$PTAK,FFP1,HEEL,@*07
$PGRME,2.4,M,2.4,M,3.4,M*29
$HCHDG,27.0,0.0,E,,*1C
$HCHDG,27.0,0.0,E,,*1C
$IIVWR,121,L,06.5,N,,,,*7E
$IIDPT,019.6,-1.0,*4E
$GPRMC,000002.4,A,4814.73969,N,12239.04129,W,007.85,047.0,190713,016.8,E,D*21
$PGRME,2.4,M,2.4,M,3.4,M*29
$HCHDG,27.4,0.0,E,,*18
$IIGLL,4814.738,N,12239.043,W,000000,A,A*4B
$IIMTW,+16.5,C*3A
$HCHDG,27.3,0.0,E,,*1F
$IIMWV,239,R,06.5,N,A*18
$GPRMC,000002.6,A,4814.74012,N,12239.04085,W,007.87,046.8,190713,016.8,E,D*2D
$GPRMB,A,-0.00,L,OH,OH,4817.5980,N,12238.5140,W,2.9,7,6.05,V*2C
$PGRME,2.4,M,2.4,M,3.4,M*29
$IIMWV,210,T,11.7,N,A*11
$HCHDG,27.4,0.0,E,,*18
$YXXDR,A,5.8,D,PTCH,A,3.2,D,ROLL*51
$IIRMB,A,0.00,L,,OH  ,,,,,002.9,007,,V,A*4C
$HCHDG,27.4,0.0,E,,*18
$GPRMC,000002.8,A,4814.74046,N,12239.04038,W,007.89,045.9,190713,016.8,E,D*28
$PGRME,2.4,M,2.4,M,3.4,M*29
$HCHDG,27.5,0.0,E,,*19
$IIRMC,000000,A,4814.738,N,12239.043,W,07.8,046,180713,16,E,A*11
$HCHDG,27.5,0.0,E,,*19
$GPRMC,000003.0,A,4814.74077,N,12239.03985,W,007.92,045.7,190713,016.8,E,D*2F
$PGRME,2.4,M,2.4,M,3.4,M*29
$HCHDG,27.5,0.0,E,,*19
$HCHDG,27.7,0.0,E,,*1B
$YXXDR,A,5.7,D,PTCH,A,3.5,D,ROLL*59
$PTAK,FFD1,3.5*53
$GPRMC,000003.2,A,4814.74105,N,12239.03939,W,007.92,045.7,190713,016.8,E,D*2E
$PGRME,2.4,M,2.4,M,3.4,M*29
$HCHDG,27.7,0.0,E,,*1B
$HCHDG,27.6,0.0,E,,*1A
$IIVHW,,,,,07.1,N,,*1F
$IIVLW,01947,N,031.0,N*5A
$GPRMC,000003.4,A,4814.74133,N,12239.03889,W,007.94,046.0,190713,016.8,E,D*25
$PGRME,2.4,M,2.4,M,3.4,M*29
$HCHDG,27.6,0.0,E,,*1A
$IIVWR,127,L,06.5,N,,,,*78
$IIDPT,019.6,-1.0,*4E
$HCHDG,27.5,0.0,E,,*19
$IIGLL,4814.739,N,12239.041,W,000000,A,A*48
$GPRMC,000003.6,A,4814.74170,N,12239.03842,W,007.95,045.8,190713,016.8,E,D*2D
$GPRMB,A,-0.00,L,OH,OH,4817.5980,N,12238.5140,W,2.9,7,6.19,V*21
$PGRME,2.4,M,2.4,M,3.4,M*29
$IIMTW,+16.5,C*3A
$HCHDG,27.5,0.0,E,,*19
$IIMWV,233,R,06.5,N,A*12
$YXXDR,A,5.7,D,PTCH,A,3.3,D,ROLL*5F
$IIMWV,208,T,11.8,N,A*17
$HCHDG,27.5,0.0,E,,*19
$GPRMC,000003.8,A,4814.74198,N,12239.03808,W,007.97,045.8,190713,016.8,E,D*29
$PGRME,2.4,M,2.4,M,3.4,M*29
$IIRMB,A,0.00,L,,OH  ,,,,,002.9,007,,V,A*4C
$HCHDG,27.5,0.0,E,,*19
$HCHDG,27.4,0.0,E,,*18
$GPRMC,000004.0,A,4814.74222,N,12239.03754,W,008.00,046.5,190713,016.8,E,D*2D
$PGRME,2.4,M,2.4,M,3.4,M*29
$HCHDG,27.4,0.0,E,,*18
$HCHDG,27.3,0.0,E,,*1F
$YXXDR,A,6.0,D,PTCH,A,3.2,D,ROLL*5A
$GPRMC,000004.2,A,4814.74246,N,12239.03699,W,008.05,046.2,190713,016.8,E,D*2F
$PGRME,2.4,M,2.4,M,3.4,M*29
$HCHDG,27.2,0.0,E,,*1E
$HCHDG,27.2,0.0,E,,*1E
$GPRMC,000004.4,A,4814.74275,N,12239.03644,W,008.08,046.5,190713,016.8,E,D*23
$HCHDG,27.2,0.0,E,,*1E
$IIRMC,000000,A,4814.741,N,12239.038,W,07.9,046,180713,16,E,A*12
$PGRME,2.4,M,2.4,M,3.4,M*29
$IIVHW,,,,,07.3,N,,*1D
$HCHDG,27.1,0.0,E,,*1D
$IIVLW,01947,N,031.0,N*5A
$IIVWR,130,L,06.5,N,,,,*7E
$GPRMC,000004.6,A,4814.74311,N,12239.03587,W,008.10,046.7,190713,016.8,E,D*25
$PGRME,2.4,M,2.4,M,3.4,M*29
$HCHDG,27.1,0.0,E,,*1D
$IIDPT,019.6,-1.0,*4E
$YXXDR,A,5.7,D,PTCH,A,3.4,D,ROLL*58
$PTAK,FFD1,3.4*52
$IIGLL,4814.741,N,12239.038,W,000000,A,A*49
$HCHDG,27.1,0.0,E,,*1D
$IIMTW,+16.5,C*3A
$GPRMC,000004.8,A,4814.74345,N,12239.03541,W,008.13,045.9,190713,016.8,E,D*2E
$GPRMB,A,-0.00,L,OH,OH,4817.5980,N,12238.5140,W,2.9,7,6.32,V*28
$IIMWV,230,R,06.5,N,A*11
$PGRME,2.4,M,2.4,M,3.4,M*29
$HCHDG,27.3,0.0,E,,*1F
$IIMWV,205,T,12.2,N,A*13
$HCHDG,27.3,0.0,E,,*1F
$GPRMC,000005.0,A,4814.74366,N,12239.03495,W,008.15,046.4,190713,016.8,E,D*26
$PGRME,2.4,M,2.4,M,3.4,M*29
$HCHDG,27.2,0.0,E,,*1E
$HCHDG,27.4,0.0,E,,*18
$YXXDR,A,5.8,D,PTCH,A,3.6,D,ROLL*55
$GPRMC,000005.2,A,4814.74397,N,12239.03441,W,008.17,046.1,190713,016.8,E,D*24
$PGRME,2.4,M,2.4,M,3.4,M*29
$HCHDG,27.4,0.0,E,,*18
$HCHDG,27.3,0.0,E,,*1F
$IIRMB,A,0.00,L,,OH  ,,,,,002.9,007,,V,A*4C
$GPRMC,000005.4,A,4814.74427,N,12239.03390,W,008.19,047.0,190713,016.8,E,D*2B
$PGRME,2.4,M,2.4,M,3.4,M*29
$HCHDG,27.3,0.0,E,,*1F
$IIRMC,000000,A,4814.742,N,12239.036,W,08.0,046,180713,16,E,A*19
$HCHDG,27.2,0.0,E,,*1E
$IIVHW,,,,,07.2,N,,*1C
$GPRMC,000005.6,A,4814.74457,N,12239.03334,W,008.23,046.6,190713,016.8,E,D*2E
$IIVLW,01947,N,031.0,N*5A
$PGRME,2.4,M,2.4,M,3.4,M*29
$HCHDG,27.2,0.0,E,,*1E
$IIVWR,135,L,06.5,N,,,,*7B
$YXXDR,A,5.6,D,PTCH,A,4.0,D,ROLL*5A
$PTAK,FFD1,4.0*51
$IIDPT,019.6,-1.0,*4E
$HCHDG,27.4,0.0,E,,*18
$GPRMC,000005.8,A,4814.74500,N,12239.03274,W,008.22,047.0,190713,016.8,E,D*20
$IIGLL,4814.742,N,12239.036,W,000000,A,A*44
$PGRME,2.4,M,2.4,M,3.4,M*29
$HCHDG,27.4,0.0,E,,*18
$IIMTW,+16.5,C*3A
$HCHDG,27.4,0.0,E,,*18
$GPRMC,000006.0,A,4814.74524,N,12239.03223,W,008.24,046.5,190713,016.8,E,D*2D
$GPRMB,A,-0.00,L,OH,OH,4817.5980,N,12238.5140,W,2.9,7,6.35,V*2F
$PGRME,2.4,M,2.4,M,3.4,M*29
$HCHDG,27.3,0.0,E,,*1F
$HCHDG,27.3,0.0,E,,*1F
$YXXDR,A,5.8,D,PTCH,A,3.9,D,ROLL*5A
$GPRMC,000006.2,A,4814.74550,N,12239.03169,W,008.26,046.9,190713,016.8,E,D*2F
$PTAK,FFP1,HEEL,@*07
$PGRME,2.4,M,2.4,M,3.4,M*29
$HCHDG,27.3,0.0,E,,*1F
$HCHDG,27.6,0.0,E,,*1A
$IIMWV,223,R,06.6,N,A*10
$IIMWV,201,T,12.7,N,A*12
$GPRMC,000006.4,A,4814.74577,N,12239.03125,W,008.27,047.5,190713,016.8,E,D*28
$PGRME,2.4,M,2.4,M,3.4,M*29
$HCHDG,27.6,0.0,E,,*1A
$IIRMB,A,0.00,L,,OH  ,,,,,002.9,007,,V,A*4C
$HCHDG,27.7,0.0,E,,*1B
$GPRMC,000006.6,A,4814.74615,N,12239.03070,W,008.28,047.2,190713,016.8,E,D*24
$IIRMC,000000,A,4814.744,N,12239.033,W,08.1,047,180713,16,E,A*1A
$PGRME,2.4,M,2.4,M,3.4,M*29
$HCHDG,27.7,0.0,E,,*1B
$IIVHW,,,,,07.2,N,,*1C
$YXXDR,A,5.8,D,PTCH,A,3.9,D,ROLL*5A
$PTAK,FFD1,3.9*5F
$IIVLW,01947,N,031.0,N*5A
$HCHDG,27.7,0.0,E,,*1B
$IIVWR,137,L,06.6,N,,,,*7A
$GPRMC,000006.8,A,4814.74639,N,12239.03016,W,008.28,047.2,190713,016.8,E,D*24
$HCHDG,27.7,0.0,E,,*1B
$PGRME,2.4,M,2.4,M,3.4,M*29
$IIDPT,019.6,-1.0,*4E
$HCHDG,27.6,0.0,E,,*1A
$GPRMC,000007.0,A,4814.74663,N,12239.02966,W,008.28,047.3,190713,016.8,E,D*2C
$PGRME,2.4,M,2.4,M,3.4,M*29
$HCHDG,27.8,0.0,E,,*14
$HCHDG,27.8,0.0,E,,*14
$YXXDR,A,5.6,D,PTCH,A,4.1,D,ROLL*5B
$GPRMC,000007.2,A,4814.74688,N,12239.02912,W,008.29,046.9,190713,016.8,E,D*22
$GPRMB,A,-0.00,L,OH,OH,4817.5980,N,12238.5140,W,2.9,7,6.35,V*2F
$PGRME,2.4,M,2.4,M,3.4,M*29
$HCHDG,27.8,0.0,E,,*14
$HCHDG,27.9,0.0,E,,*15
$IIGLL,4814.745,N,12239.031,W,000000,A,A*44
$GPRMC,000007.4,A,4814.74715,N,12239.02859,W,008.29,047.4,190713,016.8,E,D*23
$HCHDG,28.1,0.0,E,,*12
$IIMTW,+16.5,C*3A
$PGRME,2.4,M,2.4,M,3.4,M*29
$IIMWV,220,R,06.6,N,A*13
$HCHDG,28.2,0.0,E,,*11
$IIMWV,200,T,12.7,N,A*13
$GPRMC,000007.6,A,4814.74743,N,12239.02806,W,008.27,047.6,190713,016.8,E,D*24
$IIRMB,A,0.00,L,,OH  ,,,,,002.9,007,,V,A*4C
$PGRME,2.4,M,2.4,M,3.4,M*29
$HCHDG,28.2,0.0,E,,*11
$YXXDR,A,5.5,D,PTCH,A,4.3,D,ROLL*5A
$HCHDG,28.1,0.0,E,,*12
$IIRMC,000000,A,4814.745,N,12239.031,W,08.2,047,180713,16,E,A*1A
$IIVHW,,,,,06.8,N,,*17
$GPRMC,000007.8,A,4814.74768,N,12239.02757,W,008.29,047.0,190713,016.8,E,D*20
$HCHDG,28.3,0.0,E,,*10
$PGRME,2.4,M,2.4,M,3.4,M*29
$IIVLW,01947,N,031.0,N*5A
$HCHDG,28.3,0.0,E,,*10
$GPRMC,000008.0,A,4814.74798,N,12239.02705,W,008.27,047.3,190713,016.8,E,D*22
$HCHDG,28.2,0.0,E,,*11
$PGRME,2.4,M,2.4,M,3.4,M*29
$HCHDG,28.4,0.0,E,,*17
$YXXDR,A,5.6,D,PTCH,A,4.4,D,ROLL*5E
$PTAK,FFD1,4.4*55
$GPRMC,000008.2,A,4814.74828,N,12239.02649,W,008.27,047.6,190713,016.8,E,D*28
$GPRMB,A,-0.00,L,OH,OH,4817.5980,N,12238.5140,W,2.9,7,6.26,V*2D
$PGRME,2.4,M,2.4,M,3.4,M*29
$HCHDG,28.3,0.0,E,,*10
$HCHDG,28.6,0.0,E,,*15
$IIVWR,141,L,06.9,N,,,,*74
$IIDPT,019.8,-1.0,*40
$GPRMC,000008.4,A,4814.74864,N,12239.02590,W,008.25,048.4,190713,016.8,E,D*2E
$HCHDG,28.5,0.0,E,,*16
$PGRME,2.4,M,2.4,M,3.4,M*29
$IIGLL,4814.747,N,12239.028,W,000000,A,A*4E
$HCHDG,28.7,0.0,E,,*14
$IIMTW,+16.5,C*3A
$IIMWV,219,R,06.9,N,A*16
$GPRMC,000008.6,A,4814.74892,N,12239.02546,W,008.22,047.7,190713,016.8,E,D*25
$PGRME,2.4,M,2.4,M,3.4,M*29
$HCHDG,28.6,0.0,E,,*15
$IIMWV,200,T,12.5,N,A*11
$YXXDR,A,5.5,D,PTCH,A,4.9,D,ROLL*50
$IIRMB,A,0.00,L,,OH  ,,,,,002.9,007,,V,A*4C
$HCHDG,28.7,0.0,E,,*14
$GPRMC,000008.8,A,4814.74921,N,12239.02493,W,008.19,047.7,190713,016.8,E,D*23
$HCHDG,28.9,0.0,E,,*1A
$PGRME,2.4,M,2.4,M,3.4,M*29
$IIRMC,000000,A,4814.747,N,12239.028,W,08.2,047,180713,16,E,A*10
$HCHDG,28.7,0.0,E,,*14
$GPRMC,000009.0,A,4814.74950,N,12239.02436,W,008.19,048.0,190713,016.8,E,D*2B
$HCHDG,29.0,0.0,E,,*12
$PGRME,2.4,M,2.4,M,3.4,M*29
$HCHDG,28.9,0.0,E,,*1A
$YXXDR,A,5.6,D,PTCH,A,5.1,D,ROLL*5A
$PTAK,FFD1,5.1*51
$GPRMC,000009.2,A,4814.74980,N,12239.02379,W,008.16,048.6,190713,016.8,E,D*21
$GPRMB,A,-0.00,L,OH,OH,4817.5980,N,12238.5140,W,2.9,7,6.08,V*21
$PGRME,2.4,M,2.4,M,3.4,M*29
$HCHDG,28.7,0.0,E,,*14
$HCHDG,29.0,0.0,E,,*12
$IIVHW,,,,,07.0,N,,*1E
$IIVLW,01947,N,031.0,N*5A
$GPRMC,000009.4,A,4814.75007,N,12239.02330,W,008.13,048.3,190713,016.8,E,D*2D
$PGRME,2.4,M,2.4,M,3.4,M*29
$HCHDG,29.1,0.0,E,,*13
$IIVWR,142,L,07.1,N,,,,*7E
$IIDPT,019.8,-1.0,*40
$HCHDG,29.2,0.0,E,,*10
$IIGLL,4814.748,N,12239.025,W,000000,A,A*4C
$GPRMC,000009.6,A,4814.75035,N,12239.02281,W,008.09,048.7,190713,016.8,E,D*2A
$PGRME,2.4,M,2.4,M,3.4,M*29
$HCHDG,29.2,0.0,E,,*10
$IIMTW,+16.5,C*3A
$IIMWV,218,R,07.1,N,A*1E
$YXXDR,A,5.5,D,PTCH,A,5.8,D,ROLL*50
$IIMWV,200,T,12.9,N,A*1D
$HCHDG,29.3,0.0,E,,*11
$GPRMC,000009.8,A,4814.75062,N,12239.02234,W,008.07,047.6,190713,016.8,E,D*28
$HCHDG,29.7,0.0,E,,*15
$PGRME,2.4,M,2.4,M,3.4,M*29
$IIRMB,A,0.00,L,,OH  ,,,,,002.9,007,,V,A*4C
$HCHDG,29.6,0.0,E,,*14
$GPRMC,000010.0,A,4814.75090,N,12239.02193,W,008.05,048.0,190713,016.8,E,D*20
$HCHDG,29.7,0.0,E,,*15
$PGRME,2.4,M,2.4,M,3.4,M*29
$HCHDG,29.7,0.0,E,,*15
$YXXDR,A,5.2,D,PTCH,A,6.3,D,ROLL*5F
$PTAK,FFD1,6.3*50
$GPRMC,000010.2,A,4814.75119,N,12239.02153,W,008.01,048.4,190713,016.8,E,D*2E
$GPRMB,A,-0.00,L,OH,OH,4817.5980,N,12238.5140,W,2.9,7,5.99,V*2A
$PGRME,2.4,M,2.4,M,3.4,M*29
$HCHDG,29.7,0.0,E,,*15
$PTAK,FFP1,HEEL,@*07
$HCHDG,29.7,0.0,E,,*15
$GPRMC,000010.4,A,4814.75143,N,12239.02106,W,007.99,048.7,190713,016.8,E,D*2A
$IIRMC,000000,A,4814.750,N,12239.023,W,08.1,048,180713,16,E,A*11
$PGRME,2.4,M,2.4,M,3.4,M*29
$HCHDG,29.8,0.0,E,,*1A
$IIVHW,,,,,07.3,N,,*1D
$IIVLW,01947,N,031.0,N*5A
$HCHDG,29.6,0.0,E,,*14
$IIVWR,139,L,06.9,N,,,,*7B
$GPRMC,000010.6,A,4814.75169,N,12239.02062,W,007.99,048.4,190713,016.8,E,D*20
$PGRME,2.4,M,2.4,M,3.4,M*29
$HCHDG,29.7,0.0,E,,*15
$IIDPT,019.8,-1.0,*40
$YXXDR,A,5.5,D,PTCH,A,6.5,D,ROLL*5E
$IIGLL,4814.750,N,12239.023,W,000000,A,A*43
$HCHDG,29.8,0.0,E,,*1A
$IIMTW,+16.5,C*3A
$GPRMC,000010.8,A,4814.75192,N,12239.02019,W,007.97,049.3,190713,016.8,E,D*2E
$IIMWV,221,R,06.9,N,A*1D
$PGRME,2.4,M,2.4,M,3.4,M*29
$HCHDG,29.8,0.0,E,,*1A
$IIMWV,199,T,13.3,N,A*15
$HCHDG,30.0,0.0,E,,*1A
$GPRMC,000011.0,A,4814.75220,N,12239.01983,W,007.96,048.5,190713,016.8,E,D*22
$PGRME,2.4,M,2.4,M,3.4,M*29
$HCHDG,30.0,0.0,E,,*1A
$HCHDG,30.0,0.0,E,,*1A
$YXXDR,A,5.4,D,PTCH,A,7.2,D,ROLL*59
$PTAK,FFD1,7.2*50
$GPRMC,000011.2,A,4814.75248,N,12239.01940,W,007.94,048.9,190713,016.8,E,D*2F
$GPRMB,A,-0.00,L,OH,OH,4817.5980,N,12238.5140,W,2.9,7,5.89,V*2B
$PGRME,2.4,M,2.4,M,3.4,M*29
$HCHDG,30.0,0.0,E,,*1A
$HCHDG,30.0,0.0,E,,*1A
$IIRMB,A,0.00,L,,OH  ,,,,,002.9,007,,V,A*4C
$GPRMC,000011.4,A,4814.75271,N,12239.01878,W,007.92,047.9,190713,016.8,E,D*20
$PGRME,2.4,M,2.4,M,3.4,M*29
$HCHDG,30.1,0.0,E,,*1B
$IIRMC,000000,A,4814.751,N,12239.021,W,07.9,048,180713,16,E,A*15
$HCHDG,30.1,0.0,E,,*1B
$IIVHW,,,,,07.1,N,,*1F
$GPRMC,000011.6,A,4814.75291,N,12239.01824,W,007.91,048.8,190713,016.8,E,D*28
$IIVLW,01947,N,031.0,N*5A
$PGRME,2.4,M,2.4,M,3.4,M*29
$HCHDG,30.1,0.0,E,,*1B
$IIVWR,134,L,06.9,N,,,,*76
$YXXDR,A,5.8,D,PTCH,A,7.8,D,ROLL*5F
$IIDPT,019.8,-1.0,*40
$HCHDG,30.2,0.0,E,,*18
$GPRMC,000011.8,A,4814.75319,N,12239.01778,W,007.91,048.2,190713,016.8,E,D*2B
$IIGLL,4814.751,N,12239.021,W,000000,A,A*40
$PGRME,2.4,M,2.4,M,3.4,M*29
$HCHDG,30.0,0.0,E,,*1A
$IIMTW,+16.5,C*3A
$HCHDG,30.1,0.0,E,,*1B
$GPRMC,000012.0,A,4814.75350,N,12239.01732,W,007.94,048.1,190713,016.8,E,D*25
$PGRME,2.4,M,2.4,M,3.4,M*29
$HCHDG,30.1,0.0,E,,*1B
$HCHDG,30.2,0.0,E,,*18
$YXXDR,A,5.7,D,PTCH,A,8.3,D,ROLL*54
$PTAK,FFD1,8.3*5E
$GPRMC,000012.2,A,4814.75383,N,12239.01689,W,007.96,047.7,190713,016.8,E,D*23
$GPRMB,A,-0.00,L,OH,OH,4817.5980,N,12238.5140,W,2.9,7,6.01,V*28
$PGRME,2.4,M,2.4,M,3.4,M*29
$HCHDG,30.3,0.0,E,,*19
$HCHDG,30.2,0.0,E,,*18
$IIMWV,233,R,07.0,N,A*16
$IIMWV,203,T,12.7,N,A*10
$GPRMC,000012.4,A,4814.75413,N,12239.01641,W,007.97,047.9,190713,016.8,E,D*20
$HCHDG,30.2,0.0,E,,*18
$PGRME,2.4,M,2.4,M,3.4,M*29
$IIRMB,A,0.00,L,,OH  ,,,,,002.9,007,,V,A*4C
$HCHDG,30.1,0.0,E,,*1B
$GPRMC,000012.6,A,4814.75436,N,12239.01587,W,008.00,048.5,190713,016.8,E,D*2E
$IIRMC,000000,A,4814.752,N,12239.018,W,07.9,047,180713,16,E,A*13
$PGRME,2.4,M,2.4,M,3.4,M*29
$HCHDG,30.1,0.0,E,,*1B
$IIVHW,,,,,07.0,N,,*1E
$YXXDR,A,5.6,D,PTCH,A,7.6,D,ROLL*5F
$IIVLW,01947,N,031.0,N*5A
$HCHDG,30.0,0.0,E,,*1A
$IIVWR,127,L,07.0,N,,,,*7C
$GPRMC,000012.8,A,4814.75468,N,12239.01531,W,008.01,048.5,190713,016.8,E,D*27
$HCHDG,29.8,0.0,E,,*1A
$PGRME,2.4,M,2.4,M,3.4,M*29
$IIDPT,019.8,-1.0,*40
$HCHDG,30.0,0.0,E,,*1A
$GPRMC,000013.0,A,4814.75499,N,12239.01481,W,008.04,048.1,190713,016.8,E,D*2B
$HCHDG,29.9,0.0,E,,*1B
$PGRME,2.4,M,2.4,M,3.4,M*29
$HCHDG,29.8,0.0,E,,*1A
$YXXDR,A,5.9,D,PTCH,A,7.8,D,ROLL*5E
$GPRMC,000013.2,A,4814.75529,N,12239.01435,W,008.07,047.9,190713,016.8,E,D*28
$PGRME,2.4,M,2.4,M,3.4,M*29
$HCHDG,29.6,0.0,E,,*14
$HCHDG,29.8,0.0,E,,*1A
$IIGLL,4814.754,N,12239.016,W,000000,A,A*41
$GPRMC,000013.4,A,4814.75557,N,12239.01386,W,008.10,047.4,190713,016.8,E,D*23
$GPRMB,A,-0.00,L,OH,OH,4817.5980,N,12238.5140,W,2.9,7,6.14,V*2C
$HCHDG,29.6,0.0,E,,*14
$IIMTW,+16.5,C*3A
$PGRME,2.4,M,2.4,M,3.4,M*29
$IIMWV,234,R,07.3,N,A*12
$HCHDG,29.7,0.0,E,,*15
$IIMWV,207,T,12.5,N,A*16
$GPRMC,000013.6,A,4814.75586,N,12239.01325,W,008.11,047.9,190713,016.8,E,D*28
$IIRMB,A,0.00,L,,OH  ,,,,,002.9,007,,V,A*4C
$PGRME,2.4,M,2.4,M,3.4,M*29
$HCHDG,29.7,0.0,E,,*15
$YXXDR,A,5.8,D,PTCH,A,7.8,D,ROLL*5F
$PTAK,FFD1,7.8*5A
$HCHDG,29.6,0.0,E,,*14
$IIRMC,000000,A,4814.754,N,12239.016,W,07.9,047,180713,16,E,A*1B
$IIVHW,,,,,06.6,N,,*19
$GPRMC,000013.8,A,4814.75615,N,12239.01272,W,008.13,047.3,190713,016.8,E,D*24
$PGRME,2.4,M,2.4,M,3.4,M*29
$HCHDG,29.6,0.0,E,,*14
$IIVLW,01947,N,031.0,N*5A
$HCHDG,29.7,0.0,E,,*15
$GPRMC,000014.0,A,4814.75645,N,12239.01227,W,008.13,047.6,190713,016.8,E,D*2B
$HCHDG,29.9,0.0,E,,*1B
$PGRME,2.4,M,2.4,M,3.4,M*29
$HCHDG,29.9,0.0,E,,*1B
$YXXDR,A,5.7,D,PTCH,A,7.7,D,ROLL*5F
$GPRMC,000014.2,A,4814.75664,N,12239.01168,W,008.14,047.6,190713,016.8,E,D*25
$PGRME,2.4,M,2.4,M,3.4,M*29
$HCHDG,29.9,0.0,E,,*1B
$HCHDG,29.8,0.0,E,,*1A
$IIVWR,127,L,07.4,N,,,,*78
$IIDPT,020.0,-1.0,*42
$GPRMC,000014.4,A,4814.75686,N,12239.01108,W,008.14,047.6,190713,016.8,E,D*29
$GPRMB,A,-0.00,L,OH,OH,4817.5980,N,12238.5140,W,2.9,7,6.15,V*2D
$PTAK,FFP1,HEEL,@*07
$HCHDG,29.7,0.0,E,,*15
$PGRME,2.4,M,2.4,M,3.4,M*29
$IIGLL,4814.755,N,12239.013,W,000000,A,A*45
$HCHDG,29.7,0.0,E,,*15
$IIMTW,+16.5,C*3A
$IIMWV,233,R,07.4,N,A*12
$GPRMC,000014.6,A,4814.75715,N,12239.01045,W,008.12,048.2,190713,016.8,E,D*25
$PGRME,2.4,M,2.4,M,3.4,M*29
$HCHDG,29.7,0.0,E,,*15
$IIMWV,208,T,12.4,N,A*18
$YXXDR,A,5.5,D,PTCH,A,7.8,D,ROLL*52
$PTAK,FFD1,7.8*5A
$IIRMB,A,0.00,L,,OH  ,,,,,002.9,007,,V,A*4C
$HCHDG,29.7,0.0,E,,*15
$GPRMC,000014.8,A,4814.75744,N,12239.00991,W,008.09,047.6,190713,016.8,E,D*2F
$PGRME,2.4,M,2.4,M,3.4,M*29
$HCHDG,29.9,0.0,E,,*1B
$IIRMC,000000,A,4814.755,N,12239.013,W,08.1,047,180713,16,E,A*18
$HCHDG,29.7,0.0,E,,*15
$GPRMC,000015.0,A,4814.75783,N,12239.00942,W,008.07,048.0,190713,016.8,E,D*24
$HCHDG,30.0,0.0,E,,*1A
$PGRME,2.4,M,2.4,M,3.4,M*29
$HCHDG,30.1,0.0,E,,*1B
$YXXDR,A,5.2,D,PTCH,A,8.5,D,ROLL*57
$GPRMC,000015.2,A,4814.75812,N,12239.00887,W,008.05,047.6,190713,016.8,E,D*22
$PGRME,2.4,M,2.4,M,3.4,M*29
$HCHDG,30.2,0.0,E,,*18
$HCHDG,30.1,0.0,E,,*1B
$IIVHW,,,,,06.8,N,,*17
$IIVLW,01947,N,031.0,N*5A
$GPRMC,000015.4,A,4814.75840,N,12239.00824,W,008.04,047.3,190713,016.8,E,D*2E
$GPRMB,A,-0.00,L,OH,OH,4817.5980,N,12238.5140,W,2.9,7,6.10,V*28
$PGRME,2.4,M,2.4,M,3.4,M*29
$HCHDG,30.1,0.0,E,,*1B
$IIVWR,123,L,07.1,N,,,,*79
$IIDPT,020.0,-1.0,*42
$HCHDG,30.2,0.0,E,,*18
$IIGLL,4814.756,N,12239.011,W,000000,A,A*44
$GPRMC,000015.6,A,4814.75866,N,12239.00773,W,008.02,048.3,190713,016.8,E,D*2C
$PGRME,2.4,M,2.4,M,3.4,M*29
$HCHDG,30.2,0.0,E,,*18
$IIMTW,+16.5,C*3A
$IIMWV,237,R,07.1,N,A*13
$YXXDR,A,5.5,D,PTCH,A,9.3,D,ROLL*57
$PTAK,FFD1,9.3*5F
$IIMWV,207,T,12.8,N,A*1B
$HCHDG,30.4,0.0,E,,*1E
$GPRMC,000015.8,A,4814.75893,N,12239.00729,W,007.86,048.1,190713,016.8,E,D*26
$PGRME,2.4,M,2.4,M,3.4,M*29
$HCHDG,30.2,0.0,E,,*18
$IIRMB,A,0.00,L,,OH  ,,,,,002.9,007,,V,A*4C
$HCHDG,30.2,0.0,E,,*18
$GPRMC,000016.0,A,4814.75919,N,12239.00681,W,007.90,048.1,190713,016.8,E,D*2A
$PGRME,2.4,M,2.4,M,3.4,M*29
$HCHDG,30.1,0.0,E,,*1B
$HCHDG,29.9,0.0,E,,*1B
$YXXDR,A,5.5,D,PTCH,A,9.6,D,ROLL*52
$GPRMC,000016.2,A,4814.75944,N,12239.00625,W,007.90,048.7,190713,016.8,E,D*28
$PGRME,2.4,M,2.4,M,3.4,M*29
$HCHDG,29.9,0.0,E,,*1B
$HCHDG,29.8,0.0,E,,*1A
$GPRMC,000016.4,A,4814.75965,N,12239.00571,W,008.12,047.5,190713,016.8,E,D*27
$IIRMC,000000,A,4814.758,N,12239.008,W,08.0,047,180713,16,E,A*1E
$PGRME,2.4,M,2.4,M,3.4,M*29
$HCHDG,29.6,0.0,E,,*14
$IIVHW,,,,,07.2,N,,*1C
$HCHDG,29.6,0.0,E,,*14
$IIVLW,01947,N,031.0,N*5A
$IIVWR,119,L,06.8,N,,,,*78
$GPRMC,000016.6,A,4814.75993,N,12239.00521,W,008.10,047.2,190713,016.8,E,D*2C
$GPRMB,A,-0.00,L,OH,OH,4817.5980,N,12238.5140,W,2.9,7,6.15,V*2D
$PGRME,2.4,M,2.4,M,3.4,M*29
$HCHDG,29.9,0.0,E,,*1B
$IIDPT,020.0,-1.0,*42
$YXXDR,A,5.5,D,PTCH,A,10.3,D,ROLL*6F
$PTAK,FFD1,10.3*67
$IIGLL,4814.758,N,12239.008,W,000000,A,A*42
$HCHDG,29.9,0.0,E,,*1B
$IIMTW,+16.5,C*3A
$GPRMC,000016.8,A,4814.76019,N,12239.00480,W,007.91,047.4,190713,016.8,E,D*20
$HCHDG,29.9,0.0,E,,*1B
$IIMWV,241,R,06.8,N,A*1A
$PGRME,2.4,M,2.4,M,3.4,M*29
$IIMWV,209,T,12.2,N,A*1F
$HCHDG,29.9,0.0,E,,*1B
$GPRMC,000017.0,A,4814.76050,N,12239.00428,W,007.93,047.7,190713,016.8,E,D*27
$PGRME,2.4,M,2.4,M,3.4,M*29
$HCHDG,29.9,0.0,E,,*1B
$HCHDG,29.9,0.0,E,,*1B
$YXXDR,A,5.4,D,PTCH,A,10.6,D,ROLL*6B
$GPRMC,000017.2,A,4814.76087,N,12239.00377,W,007.95,047.3,190713,016.8,E,D*20
$PGRME,2.4,M,2.4,M,3.4,M*29
$HCHDG,29.9,0.0,E,,*1B
$HCHDG,29.6,0.0,E,,*14
$IIRMB,A,0.00,L,,OH  ,,,,,002.9,007,,V,A*4C
$GPRMC,000017.4,A,4814.76123,N,12239.00330,W,007.96,047.3,190713,016.8,E,D*29
$PGRME,2.4,M,2.4,M,3.4,M*29
$HCHDG,29.7,0.0,E,,*15
$IIRMC,000000,A,4814.759,N,12239.005,W,08.1,047,180713,16,E,A*13
$HCHDG,29.5,0.0,E,,*17
$IIVHW,,,,,07.0,N,,*1E
$GPRMC,000017.6,A,4814.76173,N,12239.00277,W,007.97,047.1,190713,016.8,E,D*2F
$IIVLW,01947,N,031.0,N*5A
$PGRME,2.4,M,2.4,M,3.4,M*29
$HCHDG,29.5,0.0,E,,*17
$IIVWR,117,L,06.4,N,,,,*7A
$YXXDR,A,5.4,D,PTCH,A,11.1,D,ROLL*6D
$IIDPT,020.0,-1.0,*42
$HCHDG,29.6,0.0,E,,*14
$GPRMC,000017.8,A,4814.76211,N,12239.00233,W,007.95,047.3,190713,016.8,E,D*26
$GPRMB,A,-0.00,L,OH,OH,4817.5980,N,12238.5140,W,2.9,7,6.02,V*2B
$IIGLL,4814.759,N,12239.005,W,000000,A,A*4E
$PGRME,2.4,M,2.4,M,3.4,M*29
$HCHDG,29.5,0.0,E,,*17
$IIMTW,+16.5,C*3A
$HCHDG,29.7,0.0,E,,*15
$GPRMC,000018.0,A,4814.76241,N,12239.00192,W,007.96,046.7,190713,016.8,E,D*2A
$HCHDG,29.7,0.0,E,,*15
$PGRME,2.4,M,2.4,M,3.4,M*29
$HCHDG,29.5,0.0,E,,*17
$YXXDR,A,5.6,D,PTCH,A,10.9,D,ROLL*66
$PTAK,FFD1,10.9*6D
$GPRMC,000018.2,A,4814.76270,N,12239.00143,W,007.93,047.0,190713,016.8,E,D*25
$PGRME,2.4,M,2.4,M,3.4,M*29
$HCHDG,29.4,0.0,E,,*16
$HCHDG,29.6,0.0,E,,*14
$IIMWV,245,R,06.2,N,A*14
$IIMWV,210,T,11.3,N,A*15
$GPRMC,000018.4,A,4814.76310,N,12239.00080,W,008.10,045.8,190713,016.8,E,D*24
$PTAK,FFP1,HEEL,@*07
$PGRME,2.4,M,2.4,M,3.4,M*29
$HCHDG,29.5,0.0,E,,*17
$IIRMB,A,0.00,L,,OH  ,,,,,002.9,007,,V,A*4C
$HCHDG,29.4,0.0,E,,*16
$GPRMC,000018.6,A,4814.76352,N,12239.00023,W,007.92,045.7,190713,016.8,E,D*23
$IIRMC,000000,A,4814.761,N,12239.002,W,07.9,047,180713,16,E,A*18
$PGRME,2.4,M,2.4,M,3.4,M*29
$HCHDG,29.7,0.0,E,,*15
$IIVHW,,,,,07.1,N,,*1F
$YXXDR,A,5.3,D,PTCH,A,11.0,D,ROLL*6B
$IIVLW,01947,N,031.0,N*5A
$HCHDG,29.7,0.0,E,,*15
$IIVWR,115,L,06.2,N,,,,*7E
$GPRMC,000018.8,A,4814.76393,N,12238.99971,W,008.00,046.4,190713,016.8,E,D*2B
$GPRMB,A,-0.00,L,OH,OH,4817.5980,N,12238.5140,W,2.9,7,6.14,V*2C
$PGRME,2.4,M,2.4,M,3.4,M*29
$HCHDG,29.3,0.0,E,,*11
$IIDPT,020.0,-1.0,*42
$HCHDG,29.3,0.0,E,,*11
$GPRMC,000019.0,A,4814.76425,N,12238.99925,W,008.04,046.3,190713,016.8,E,D*2A
$PGRME,2.4,M,2.4,M,3.4,M*29
$HCHDG,29.2,0.0,E,,*10
$HCHDG,29.3,0.0,E,,*11
$YXXDR,A,5.4,D,PTCH,A,9.9,D,ROLL*5C
$GPRMC,000019.2,A,4814.76459,N,12238.99880,W,007.85,047.0,190713,016.8,E,D*29
$PGRME,2.4,M,2.4,M,3.4,M*29
$HCHDG,29.3,0.0,E,,*11
$HCHDG,29.1,0.0,E,,*13
$IIGLL,4814.763,N,12239.000,W,000000,A,A*42
$GPRMC,000019.4,A,4814.76499,N,12238.99844,W,008.10,046.5,190713,016.8,E,D*2C
$IIMTW,+16.5,C*3A
$PGRME,2.4,M,2.4,M,3.4,M*29
$HCHDG,29.0,0.0,E,,*12
$IIMWV,250,R,06.3,N,A*11
$IIMWV,210,T,11.2,N,A*14
$HCHDG,28.8,0.0,E,,*1B
$GPRMC,000019.6,A,4814.76537,N,12238.99799,W,008.07,046.5,190713,016.8,E,D*22
$IIRMB,A,0.00,L,,OH  ,,,,,002.9,007,,V,A*4C
$PGRME,2.4,M,2.4,M,3.4,M*29
$HCHDG,28.9,0.0,E,,*1A
$YXXDR,A,5.4,D,PTCH,A,9.3,D,ROLL*56
$PTAK,FFD1,9.3*5F
$HCHDG,28.5,0.0,E,,*16
$IIRMC,000000,A,4814.763,N,12239.000,W,07.9,045,180713,16,E,A*1A
$IIVHW,,,,,06.8,N,,*17
$GPRMC,000019.8,A,4814.76576,N,12238.99748,W,008.11,046.6,190713,016.8,E,D*21
$GPRMB,A,-0.00,L,OH,OH,4817.5980,N,12238.5140,W,2.9,6,6.20,V*2A
$PGRME,2.4,M,2.4,M,3.4,M*29
$HCHDG,28.6,0.0,E,,*15
$IIVLW,01947,N,031.0,N*5A
$HCHDG,28.4,0.0,E,,*17
$GPRMC,000020.0,A,4814.76606,N,12238.99701,W,007.95,046.5,190713,016.8,E,D*2A
$PGRME,2.4,M,2.4,M,3.4,M*29
$HCHDG,28.4,0.0,E,,*17
$HCHDG,28.1,0.0,E,,*12
$YXXDR,A,5.5,D,PTCH,A,9.1,D,ROLL*55
$GPRMC,000020.2,A,4814.76645,N,12238.99660,W,007.98,046.5,190713,016.8,E,D*24
$PGRME,2.4,M,2.4,M,3.4,M*29
$HCHDG,28.2,0.0,E,,*11
$HCHDG,28.2,0.0,E,,*11
$IIVWR,109,L,06.4,N,,,,*75
$IIDPT,020.0,-1.0,*42
$GPRMC,000020.4,A,4814.76683,N,12238.99620,W,008.04,045.8,190713,016.8,E,D*28
$PGRME,2.4,M,2.4,M,3.4,M*29
$HCHDG,28.2,0.0,E,,*11
$IIGLL,4814.765,N,12238.997,W,000000,A,A*42
$IIMTW,+16.5,C*3A
$HCHDG,28.5,0.0,E,,*16
$IIMWV,251,R,06.4,N,A*17
$GPRMC,000020.6,A,4814.76717,N,12238.99558,W,008.03,045.6,190713,016.8,E,D*23
$PGRME,2.4,M,2.4,M,3.4,M*29
$HCHDG,28.5,0.0,E,,*16
$IIMWV,213,T,10.7,N,A*13
$YXXDR,A,5.6,D,PTCH,A,9.7,D,ROLL*50
$IIRMB,A,0.00,L,,OH  ,,,,,002.9,006,,V,A*4D
$HCHDG,28.4,0.0,E,,*17
$GPRMC,000020.8,A,4814.76749,N,12238.99501,W,008.05,046.8,190713,016.8,E,D*21
$PGRME,2.4,M,2.4,M,3.4,M*29
$HCHDG,28.1,0.0,E,,*12
$IIRMC,000000,A,4814.765,N,12238.997,W,08.0,046,180713,16,E,A*1F
$HCHDG,28.2,0.0,E,,*11
$GPRMC,000021.0,A,4814.76778,N,12238.99446,W,008.10,046.0,190713,016.8,E,D*24
$GPRMB,A,-0.00,L,OH,OH,4817.5980,N,12238.5140,W,2.9,6,6.25,V*2F
$PGRME,2.4,M,2.4,M,3.4,M*29
$HCHDG,28.2,0.0,E,,*11
$HCHDG,27.9,0.0,E,,*15
$YXXDR,A,5.5,D,PTCH,A,9.3,D,ROLL*57
$PTAK,FFD1,9.3*5F
$GPRMC,000021.2,A,4814.76817,N,12238.99393,W,008.12,045.9,190713,016.8,E,D*27
$PGRME,2.4,M,2.4,M,3.4,M*29
$HCHDG,28.0,0.0,E,,*13
$HCHDG,28.0,0.0,E,,*13
$IIVHW,,,,,06.4,N,,*1B
$IIVLW,01947,N,031.0,N*5A
$GPRMC,000021.4,A,4814.76857,N,12238.99347,W,008.12,046.0,190713,016.8,E,D*26
$PGRME,2.4,M,2.4,M,3.4,M*29
$HCHDG,27.9,0.0,E,,*15
$IIVWR,107,L,06.5,N,,,,*7A
$IIDPT,020.0,-1.0,*42
$HCHDG,27.9,0.0,E,,*15
$IIGLL,4814.767,N,12238.995,W,000000,A,A*42
$GPRMC,000021.6,A,4814.76890,N,12238.99297,W,008.12,046.0,190713,016.8,E,D*23
$PGRME,2.4,M,2.4,M,3.4,M*29
$IIMTW,+16.5,C*3A
$HCHDG,27.8,0.0,E,,*14
$IIMWV,253,R,06.5,N,A*14
$YXXDR,A,5.4,D,PTCH,A,9.9,D,ROLL*5C
$IIMWV,214,T,10.6,N,A*15
$HCHDG,28.0,0.0,E,,*13
$GPRMC,000021.8,A,4814.76922,N,12238.99236,W,008.10,045.7,190713,016.8,E,D*28
$PGRME,2.4,M,2.4,M,3.4,M*29
$IIRMB,A,0.00,L,,OH  ,,,,,002.9,006,,V,A*4D
$HCHDG,27.9,0.0,E,,*15
$HCHDG,28.0,0.0,E,,*13
$GPRMC,000022.0,A,4814.76957,N,12238.99185,W,008.28,045.8,190713,016.8,E,D*2E
$GPRMB,A,-0.00,L,OH,OH,4817.5980,N,12238.5140,W,2.8,6,6.40,V*2D
$PGRME,2.4,M,2.4,M,3.4,M*29
$HCHDG,27.9,0.0,E,,*15
$HCHDG,27.9,0.0,E,,*15
$YXXDR,A,5.5,D,PTCH,A,10.3,D,ROLL*6F
$GPRMC,000022.2,A,4814.76991,N,12238.99136,W,008.20,046.1,190713,016.8,E,D*2C
$PGRME,2.4,M,2.4,M,3.4,M*29
$HCHDG,27.6,0.0,E,,*1A
$HCHDG,27.7,0.0,E,,*1B
$GPRMC,000022.4,A,4814.77031,N,12238.99088,W,008.18,046.4,190713,016.8,E,D*22
$IIRMC,000000,A,4814.768,N,12238.992,W,08.1,046,180713,16,E,A*16
$PGRME,2.4,M,2.4,M,3.4,M*29
$HCHDG,27.6,0.0,E,,*1A
$PTAK,FFP1,HEEL,@*07
$IIVHW,,,,,06.8,N,,*17
$IIVLW,01947,N,031.0,N*5A
$HCHDG,27.5,0.0,E,,*19
$IIVWR,107,L,06.3,N,,,,*7C
$GPRMC,000022.6,A,4814.77059,N,12238.99037,W,008.15,045.1,190713,016.8,E,D*21
$PGRME,2.4,M,2.4,M,3.4,M*29
$IIDPT,020.0,-1.0,*42
$HCHDG,27.4,0.0,E,,*18
$YXXDR,A,5.1,D,PTCH,A,11.1,D,ROLL*68
$PTAK,FFD1,11.1*64
$IIGLL,4814.768,N,12238.992,W,000000,A,A*4A
$HCHDG,27.8,0.0,E,,*14
$IIMTW,+16.5,C*3A
$GPRMC,000022.8,A,4814.77089,N,12238.98971,W,008.12,045.4,190713,016.8,E,D*2A
$IIMWV,253,R,06.3,N,A*12
$PGRME,2.4,M,2.4,M,3.4,M*29
$HCHDG,27.9,0.0,E,,*15
$IIMWV,217,T,10.3,N,A*13
$HCHDG,27.9,0.0,E,,*15
$GPRMC,000023.0,A,4814.77119,N,12238.98920,W,008.14,044.6,190713,016.8,E,D*2A
$PGRME,2.4,M,2.4,M,3.4,M*29
$HCHDG,28.0,0.0,E,,*13
$HCHDG,27.7,0.0,E,,*1B
$YXXDR,A,5.4,D,PTCH,A,11.7,D,ROLL*6B
$GPRMC,000023.2,A,4814.77153,N,12238.98872,W,008.12,044.8,190713,016.8,E,D*28
$GPRMB,A,-0.00,L,OH,OH,4817.5980,N,12238.5140,W,2.8,6,6.36,V*2C
$PGRME,2.4,M,2.4,M,3.4,M*29
$HCHDG,27.7,0.0,E,,*1B
$HCHDG,27.6,0.0,E,,*1A
$IIRMB,A,0.00,L,,OH  ,,,,,002.9,006,,V,A*4D
$GPRMC,000023.4,A,4814.77182,N,12238.98814,W,008.12,045.3,190713,016.8,E,D*28
$PGRME,2.4,M,2.4,M,3.4,M*29
$HCHDG,27.6,0.0,E,,*1A
$IIRMC,000000,A,4814.770,N,12238.990,W,08.1,045,180713,16,E,A*1E
$HCHDG,27.3,0.0,E,,*1F
$IIVHW,,,,,07.2,N,,*1C
$GPRMC,000023.6,A,4814.77212,N,12238.98766,W,008.14,044.3,190713,016.8,E,D*2D
$IIVLW,01947,N,031.0,N*5A
$PGRME,2.4,M,2.4,M,3.4,M*29
$HCHDG,27.5,0.0,E,,*19
$IIVWR,102,L,06.4,N,,,,*7E
$YXXDR,A,5.4,D,PTCH,A,11.4,D,ROLL*68
$PTAK,FFD1,11.4*61
$IIDPT,020.2,-1.0,*40
$HCHDG,27.4,0.0,E,,*18
$GPRMC,000023.8,A,4814.77248,N,12238.98716,W,008.18,044.3,190713,016.8,E,D*27
$IIGLL,4814.770,N,12238.990,W,000000,A,A*41
$PGRME,2.4,M,2.4,M,3.4,M*29
$HCHDG,27.4,0.0,E,,*18
$IIMTW,+16.5,C*3A
$HCHDG,27.5,0.0,E,,*19
$GPRMC,000024.0,A,4814.77282,N,12238.98660,W,008.19,044.4,190713,016.8,E,D*28
$PGRME,2.4,M,2.4,M,3.4,M*29
$HCHDG,27.5,0.0,E,,*19
$HCHDG,27.6,0.0,E,,*1A
$YXXDR,A,5.7,D,PTCH,A,12.3,D,ROLL*6F
$GPRMC,000024.2,A,4814.77320,N,12238.98615,W,008.21,043.7,190713,016.8,E,D*2E
$PGRME,2.4,M,2.4,M,3.4,M*29
$HCHDG,27.4,0.0,E,,*18
$HCHDG,27.3,0.0,E,,*1F
$IIMWV,261,R,06.4,N,A*14
$IIMWV,216,T,10.5,N,A*14
$GPRMC,000024.4,A,4814.77356,N,12238.98566,W,008.24,044.2,190713,016.8,E,D*29
$GPRMB,A,-0.00,L,OH,OH,4817.5980,N,12238.5140,W,2.8,6,6.51,V*2D
$HCHDG,27.0,0.0,E,,*1C
$PGRME,2.4,M,2.4,M,3.4,M*29
$IIRMB,A,0.00,L,,OH  ,,,,,002.8,006,,V,A*4C
$HCHDG,26.9,0.0,E,,*14
$GPRMC,000024.6,A,4814.77394,N,12238.98506,W,008.23,044.2,190713,016.8,E,D*24
$IIRMC,000000,A,4814.772,N,12238.987,W,08.1,044,180713,16,E,A*1B
$PGRME,2.4,M,2.4,M,3.4,M*29
$HCHDG,26.7,0.0,E,,*1A
$IIVHW,,,,,07.5,N,,*1B
$YXXDR,A,5.4,D,PTCH,A,11.6,D,ROLL*6A
$PTAK,FFD1,11.6*63
$IIVLW,01947,N,031.0,N*5A
$HCHDG,26.9,0.0,E,,*14
$IIVWR,099,L,06.4,N,,,,*7D
$GPRMC,000024.8,A,4814.77424,N,12238.98455,W,008.21,043.6,190713,016.8,E,D*20
$PGRME,2.4,M,2.4,M,3.4,M*29
$HCHDG,26.9,0.0,E,,*14
$IIDPT,020.2,-1.0,*40
$HCHDG,26.8,0.0,E,,*15
$GPRMC,000025.0,A,4814.77464,N,12238.98406,W,008.22,043.6,190713,016.8,E,D*28
$HCHDG,26.7,0.0,E,,*1A
$PGRME,2.4,M,2.4,M,3.4,M*29
$HCHDG,26.9,0.0,E,,*14
$YXXDR,A,5.4,D,PTCH,A,11.4,D,ROLL*68
$GPRMC,000025.2,A,4814.77495,N,12238.98366,W,008.22,043.5,190713,016.8,E,D*26
$PGRME,2.4,M,2.4,M,3.4,M*29
$HCHDG,27.0,0.0,E,,*1C
$HCHDG,26.6,0.0,E,,*1B
$IIGLL,4814.773,N,12238.985,W,000000,A,A*46
$GPRMC,000025.4,A,4814.77530,N,12238.98310,W,008.26,043.6,190713,016.8,E,D*28
$IIMTW,+16.5,C*3A
$PGRME,2.4,M,2.4,M,3.4,M*29
$HCHDG,26.7,0.0,E,,*1A
$IIMWV,260,R,06.7,N,A*16
$HCHDG,26.6,0.0,E,,*1B
$IIMWV,216,T,10.6,N,A*17
$GPRMC,000025.6,A,4814.77554,N,12238.98264,W,008.28,043.2,190713,016.8,E,D*20
$GPRMB,A,-0.00,L,OH,OH,4817.5980,N,12238.5140,W,2.8,6,6.62,V*2D
$IIRMB,A,0.00,L,,OH  ,,,,,002.8,006,,V,A*4C
$PGRME,2.4,M,2.4,M,3.4,M*29
$HCHDG,26.6,0.0,E,,*1B
$YXXDR,A,5.5,D,PTCH,A,10.6,D,ROLL*6A
$PTAK,FFD1,10.6*62
$HCHDG,26.5,0.0,E,,*18
$IIRMC,000000,A,4814.773,N,12238.985,W,08.2,044,180713,16,E,A*1B
$IIVHW,,,,,07.3,N,,*1D
$GPRMC,000025.8,A,4814.77585,N,12238.98219,W,008.27,043.4,190713,016.8,E,D*21
$PGRME,2.4,M,2.4,M,3.4,M*29
$HCHDG,26.6,0.0,E,,*1B
$IIVLW,01947,N,031.0,N*5A
$HCHDG,26.5,0.0,E,,*18
$GPRMC,000026.0,A,4814.77618,N,12238.98168,W,008.26,043.8,190713,016.8,E,D*25
$HCHDG,26.6,0.0,E,,*1B
$PGRME,2.4,M,2.4,M,3.4,M*29
$HCHDG,26.5,0.0,E,,*18
$YXXDR,A,5.5,D,PTCH,A,10.3,D,ROLL*6F
$GPRMC,000026.2,A,4814.77651,N,12238.98117,W,008.24,043.3,190713,016.8,E,D*2B
$PGRME,2.4,M,2.4,M,3.4,M*29
$HCHDG,26.5,0.0,E,,*18
$HCHDG,26.7,0.0,E,,*1A
$IIVWR,100,L,06.6,N,,,,*7E
$IIDPT,020.2,-1.0,*40
$GPRMC,000026.4,A,4814.77686,N,12238.98072,W,008.21,043.4,190713,016.8,E,D*27
$PGRME,2.4,M,2.4,M,3.4,M*29
$HCHDG,26.6,0.0,E,,*1B
$IIGLL,4814.775,N,12238.982,W,000000,A,A*47
$IIMTW,+16.5,C*3A
$HCHDG,26.4,0.0,E,,*19
$PTAK,FFP1,HEEL,@*07
$IIMWV,260,R,06.6,N,A*17
$GPRMC,000026.6,A,4814.77718,N,12238.98029,W,008.23,044.0,190713,016.8,E,D*2C
$GPRMB,A,-0.00,L,OH,OH,4817.5980,N,12238.5140,W,2.8,6,6.51,V*2D
$PGRME,2.4,M,2.4,M,3.4,M*29
$HCHDG,26.3,0.0,E,,*1E
$IIMWV,218,T,10.6,N,A*19
$YXXDR,A,5.3,D,PTCH,A,9.6,D,ROLL*54
$IIRMB,A,0.00,L,,OH  ,,,,,002.8,006,,V,A*4C
$HCHDG,26.3,0.0,E,,*1E
$GPRMC,000026.8,A,4814.77755,N,12238.97981,W,008.20,044.4,190713,016.8,E,D*28
$PGRME,2.4,M,2.4,M,3.4,M*29
$HCHDG,26.1,0.0,E,,*1C
$IIRMC,000000,A,4814.775,N,12238.982,W,08.2,043,180713,16,E,A*1D
$HCHDG,26.0,0.0,E,,*1D
$GPRMC,000027.0,A,4814.77788,N,12238.97935,W,008.20,043.9,190713,016.8,E,D*24
$PGRME,2.4,M,2.4,M,3.4,M*29
$HCHDG,25.9,0.0,E,,*17
$HCHDG,26.1,0.0,E,,*1C
$YXXDR,A,5.7,D,PTCH,A,9.1,D,ROLL*57
$PTAK,FFD1,9.1*5D
$GPRMC,000027.2,A,4814.77824,N,12238.97884,W,008.19,044.1,190713,016.8,E,D*21
$PGRME,2.4,M,2.4,M,3.4,M*29
$HCHDG,26.0,0.0,E,,*1D
$HCHDG,26.2,0.0,E,,*1F
$IIVHW,,,,,07.0,N,,*1E
$IIVLW,01947,N,031.0,N*5A
$GPRMC,000027.4,A,4814.77854,N,12238.97841,W,008.20,044.2,190713,016.8,E,D*20
$PGRME,2.4,M,2.4,M,3.4,M*29
$HCHDG,25.9,0.0,E,,*17
$IIVWR,100,L,06.6,N,,,,*7E
$IIDPT,020.2,-1.0,*40
$HCHDG,26.1,0.0,E,,*1C
$IIGLL,4814.777,N,12238.980,W,000000,A,A*47
$GPRMC,000027.6,A,4814.77892,N,12238.97795,W,008.19,043.0,190713,016.8,E,D*21
$GPRMB,A,-0.00,L,OH,OH,4817.5980,N,12238.5140,W,2.8,6,6.56,V*2A
$PGRME,2.4,M,2.4,M,3.4,M*29
$HCHDG,26.1,0.0,E,,*1C
$IIMTW,+16.5,C*3A
$IIMWV,260,R,06.6,N,A*17
$YXXDR,A,5.5,D,PTCH,A,9.1,D,ROLL*55
$IIMWV,217,T,10.5,N,A*15
$HCHDG,26.3,0.0,E,,*1E
$GPRMC,000027.8,A,4814.77928,N,12238.97753,W,008.17,042.8,190713,016.8,E,D*22
$PGRME,2.4,M,2.4,M,3.4,M*29
$HCHDG,26.1,0.0,E,,*1C
$IIRMB,A,0.00,L,,OH  ,,,,,002.8,006,,V,A*4C
$HCHDG,26.1,0.0,E,,*1C
$GPRMC,000028.0,A,4814.77965,N,12238.97701,W,008.16,043.2,190713,016.8,E,D*21
$PGRME,2.4,M,2.4,M,3.4,M*29
$HCHDG,26.0,0.0,E,,*1D
$HCHDG,26.0,0.0,E,,*1D
$YXXDR,A,5.6,D,PTCH,A,8.4,D,ROLL*52
$GPRMC,000028.2,A,4814.77993,N,12238.97658,W,008.14,045.0,190713,016.8,E,D*21
$PGRME,2.4,M,2.4,M,3.4,M*29
$HCHDG,26.0,0.0,E,,*1D
$HCHDG,26.0,0.0,E,,*1D
$GPRMC,000028.4,A,4814.78024,N,12238.97606,W,008.10,043.5,190713,016.8,E,D*21
$IIRMC,000000,A,4814.778,N,12238.977,W,08.1,043,180713,16,E,A*19
$PGRME,2.4,M,2.4,M,3.4,M*29
$HCHDG,26.0,0.0,E,,*1D
$IIVHW,,,,,07.3,N,,*1D
$HCHDG,26.0,0.0,E,,*1D
$IIVLW,01947,N,031.0,N*5A
$IIVWR,101,L,06.5,N,,,,*7C
$GPRMC,000028.6,A,4814.78057,N,12238.97562,W,008.09,043.0,190713,016.8,E,D*2B
$PGRME,2.4,M,2.4,M,3.4,M*29
$HCHDG,26.0,0.0,E,,*1D
$IIDPT,020.2,-1.0,*40
$YXXDR,A,5.2,D,PTCH,A,7.7,D,ROLL*5A
$PTAK,FFD1,7.7*55
$IIGLL,4814.778,N,12238.977,W,000000,A,A*40
$HCHDG,26.0,0.0,E,,*1D
$IIMTW,+16.5,C*3A
$GPRMC,000028.8,A,4814.78093,N,12238.97519,W,008.07,043.3,190713,016.8,E,D*2C
$GPRMB,A,-0.00,L,OH,OH,4817.5980,N,12238.5140,W,2.8,6,6.44,V*29
$IIMWV,259,R,06.5,N,A*1E
$PGRME,2.4,M,2.4,M,3.4,M*29
$HCHDG,26.0,0.0,E,,*1D
$IIMWV,218,T,10.4,N,A*1B
$HCHDG,25.9,0.0,E,,*17
$GPRMC,000029.0,A,4814.78139,N,12238.97459,W,008.07,043.3,190713,016.8,E,D*21
$PGRME,2.4,M,2.4,M,3.4,M*29
$HCHDG,25.9,0.0,E,,*17
$HCHDG,25.8,0.0,E,,*16
$YXXDR,A,5.6,D,PTCH,A,7.0,D,ROLL*59
$GPRMC,000029.2,A,4814.78173,N,12238.97401,W,008.05,043.7,190713,016.8,E,D*26
$PGRME,2.4,M,2.4,M,3.4,M*29
$HCHDG,25.8,0.0,E,,*16
$HCHDG,25.5,0.0,E,,*1B
$IIRMB,A,0.00,L,,OH  ,,,,,002.8,006,,V,A*4C
$GPRMC,000029.4,A,4814.78211,N,12238.97352,W,008.06,043.6,190713,016.8,E,D*24
$HCHDG,25.5,0.0,E,,*1B
$PGRME,2.4,M,2.4,M,3.4,M*29
$IIRMC,000000,A,4814.780,N,12238.975,W,08.0,043,180713,16,E,A*1D
$HCHDG,25.6,0.0,E,,*18
$IIVHW,,,,,07.0,N,,*1E
$GPRMC,000029.6,A,4814.78249,N,12238.97309,W,008.05,042.2,190713,016.8,E,D*23
$IIVLW,01947,N,031.0,N*5A
$PGRME,2.4,M,2.4,M,3.4,M*29
$HCHDG,25.6,0.0,E,,*18
$IIVWR,101,L,06.4,N,,,,*7D
$YXXDR,A,5.6,D,PTCH,A,6.1,D,ROLL*59
$PTAK,FFD1,6.1*52
$IIDPT,020.3,-1.0,*41
$HCHDG,25.7,0.0,E,,*19
$GPRMC,000029.8,A,4814.78288,N,12238.97266,W,008.06,042.7,190713,016.8,E,D*2E
$IIGLL,4814.780,N,12238.975,W,000000,A,A*45
$PGRME,2.4,M,2.4,M,3.4,M*29
$HCHDG,25.9,0.0,E,,*17
$IIMTW,+16.5,C*3A
$HCHDG,25.7,0.0,E,,*19
$GPRMC,000030.0,A,4814.78317,N,12238.97219,W,008.05,043.5,190713,016.8,E,D*21
$GPRMB,A,-0.00,L,OH,OH,4817.5980,N,12238.5140,W,2.8,6,6.40,V*2D
$PGRME,2.4,M,2.4,M,3.4,M*29
$HCHDG,25.5,0.0,E,,*1B
$HCHDG,25.4,0.0,E,,*1A
$YXXDR,A,5.6,D,PTCH,A,5.0,D,ROLL*5B
$GPRMC,000030.2,A,4814.78342,N,12238.97168,W,008.03,043.4,190713,016.8,E,D*21
$PGRME,2.4,M,2.4,M,3.4,M*29
$HCHDG,25.1,0.0,E,,*1F
$HCHDG,25.2,0.0,E,,*1C
$IIMWV,259,R,06.6,N,A*1D
$IIMWV,217,T,10.2,N,A*12
$GPRMC,000030.4,A,4814.78373,N,12238.97131,W,008.03,042.6,190713,016.8,E,D*2A
$PGRME,2.4,M,2.4,M,3.4,M*29
$HCHDG,25.0,0.0,E,,*1E
$IIRMB,A,0.00,L,,OH  ,,,,,002.8,006,,V,A*4C
$HCHDG,25.2,0.0,E,,*1C
$GPRMC,000030.6,A,4814.78404,N,12238.97092,W,008.01,045.0,190713,016.8,E,D*24
$PTAK,FFP1,HEEL,@*07
$IIRMC,000000,A,4814.782,N,12238.972,W,08.0,042,180713,16,E,A*19
$PGRME,2.4,M,2.4,M,3.4,M*29
$HCHDG,25.0,0.0,E,,*1E
$IIVHW,,,,,07.1,N,,*1F
$YXXDR,A,5.8,D,PTCH,A,4.4,D,ROLL*50
$PTAK,FFD1,4.4*55
$IIVLW,01947,N,031.0,N*5A
$HCHDG,24.7,0.0,E,,*18
$IIVWR,101,L,06.6,N,,,,*7F
$GPRMC,000030.8,A,4814.78435,N,12238.97047,W,008.03,044.6,190713,016.8,E,D*25
$PGRME,2.4,M,2.4,M,3.4,M*29
$HCHDG,24.5,0.0,E,,*1A
$IIDPT,020.3,-1.0,*41
$HCHDG,24.3,0.0,E,,*1C
$GPRMC,000031.0,A,4814.78466,N,12238.96995,W,008.06,043.3,190713,016.8,E,D*2A
$GPRMB,A,-0.00,L,OH,OH,4817.5980,N,12238.5140,W,2.8,6,6.42,V*2F
$PGRME,2.4,M,2.4,M,3.4,M*29
$HCHDG,24.3,0.0,E,,*1C
$HCHDG,24.3,0.0,E,,*1C
$YXXDR,A,5.5,D,PTCH,A,3.4,D,ROLL*5A
$GPRMC,000031.2,A,4814.78498,N,12238.96949,W,008.03,044.3,190713,016.8,E,D*2A
$PGRME,2.4,M,2.4,M,3.4,M*29
$HCHDG,24.2,0.0,E,,*1D
$HCHDG,24.2,0.0,E,,*1D
$IIGLL,4814.784,N,12238.970,W,000000,A,A*44
$GPRMC,000031.4,A,4814.78523,N,12238.96899,W,008.02,043.7,190713,016.8,E,D*23
$IIMTW,+16.5,C*3A
$PGRME,2.4,M,2.4,M,3.4,M*29
$HCHDG,24.2,0.0,E,,*1D
$IIMWV,262,R,06.6,N,A*15
$IIMWV,217,T,10.5,N,A*15
$HCHDG,24.1,0.0,E,,*1E
$GPRMC,000031.6,A,4814.78563,N,12238.96861,W,008.00,043.3,190713,016.8,E,D*24
$IIRMB,A,0.00,L,,OH  ,,,,,002.8,006,,V,A*4C
$PGRME,2.4,M,2.4,M,3.4,M*29
$HCHDG,24.1,0.0,E,,*1E
$YXXDR,A,5.4,D,PTCH,A,3.5,D,ROLL*5A
$PTAK,FFD1,3.5*53
$HCHDG,24.1,0.0,E,,*1E
$IIRMC,000000,A,4814.784,N,12238.970,W,08.0,044,180713,16,E,A*1B
$IIVHW,,,,,07.2,N,,*1C
$GPRMC,000031.8,A,4814.78589,N,12238.96825,W,007.97,043.5,190713,016.8,E,D*29
$PGRME,2.4,M,2.4,M,3.4,M*29
$HCHDG,23.9,0.0,E,,*11
$IIVLW,01947,N,031.0,N*5A
$HCHDG,23.7,0.0,E,,*1F
$GPRMC,000032.0,A,4814.78615,N,12238.96776,W,007.94,043.7,190713,016.8,E,D*2C
$GPRMB,A,-0.00,L,OH,OH,4817.5980,N,12238.5140,W,2.8,6,6.29,V*22
$PGRME,2.4,M,2.4,M,3.4,M*29
$HCHDG,23.7,0.0,E,,*1F
$HCHDG,23.7,0.0,E,,*1F
$YXXDR,A,5.5,D,PTCH,A,3.4,D,ROLL*5A
$GPRMC,000032.2,A,4814.78642,N,12238.96732,W,007.92,043.1,190713,016.8,E,D*2C
$PGRME,2.4,M,2.4,M,3.4,M*29
$HCHDG,23.7,0.0,E,,*1F
$HCHDG,23.5,0.0,E,,*1D
$IIVWR,093,L,06.6,N,,,,*75
$IIDPT,020.3,-1.0,*41
$GPRMC,000032.4,A,4814.78670,N,12238.96693,W,007.90,042.7,190713,016.8,E,D*24
$PGRME,2.4,M,2.4,M,3.4,M*29
$HCHDG,23.6,0.0,E,,*1E
$IIGLL,4814.785,N,12238.968,W,000000,A,A*4C
$IIMTW,+16.5,C*3A
$HCHDG,23.7,0.0,E,,*1F
$IIMWV,267,R,06.6,N,A*10
$GPRMC,000032.6,A,4814.78700,N,12238.96651,W,007.90,042.7,190713,016.8,E,D*2E
$PGRME,2.4,M,2.4,M,3.4,M*29
$IIMWV,219,T,10.3,N,A*1D
$HCHDG,23.4,0.0,E,,*1C
$YXXDR,A,5.6,D,PTCH,A,3.8,D,ROLL*55
$IIRMB,A,0.00,L,,OH  ,,,,,002.8,006,,V,A*4C
$HCHDG,23.4,0.0,E,,*1C
$GPRMC,000032.8,A,4814.78733,N,12238.96610,W,007.90,043.2,190713,016.8,E,D*21
$PGRME,2.4,M,2.4,M,3.4,M*29
$HCHDG,23.2,0.0,E,,*1A
$IIRMC,000000,A,4814.785,N,12238.968,W,07.9,043,180713,16,E,A*12
$HCHDG,23.1,0.0,E,,*19
$GPRMC,000033.0,A,4814.78761,N,12238.96567,W,007.90,041.8,190713,016.8,E,D*24
$PGRME,2.4,M,2.4,M,3.4,M*29
$HCHDG,23.2,0.0,E,,*1A
$HCHDG,23.1,0.0,E,,*19
$YXXDR,A,5.6,D,PTCH,A,4.2,D,ROLL*58
$PTAK,FFD1,4.2*53
$GPRMC,000033.2,A,4814.78787,N,12238.96527,W,007.86,042.6,190713,016.8,E,D*20
$GPRMB,A,-0.00,L,OH,OH,4817.5980,N,12238.5140,W,2.8,6,6.32,V*28
$PGRME,2.4,M,2.4,M,3.4,M*29
$HCHDG,22.9,0.0,E,,*10
$HCHDG,23.1,0.0,E,,*19
$IIVHW,,,,,07.4,N,,*1A
$IIVLW,01947,N,031.0,N*5A
$GPRMC,000033.4,A,4814.78821,N,12238.96483,W,007.85,041.3,190713,016.8,E,D*2F
$PGRME,2.4,M,2.4,M,3.4,M*29
$HCHDG,23.1,0.0,E,,*19
$IIVWR,090,L,06.3,N,,,,*73
$IIDPT,020.3,-1.0,*41
$HCHDG,22.9,0.0,E,,*10
$IIGLL,4814.787,N,12238.966,W,000000,A,A*40
$GPRMC,000033.6,A,4814.78849,N,12238.96445,W,007.84,042.1,190713,016.8,E,D*29
$HCHDG,22.9,0.0,E,,*10
$PGRME,2.4,M,2.4,M,3.4,M*29
$IIMTW,+16.5,C*3A
$IIMWV,270,R,06.3,N,A*13
$YXXDR,A,5.7,D,PTCH,A,5.0,D,ROLL*5A
$IIMWV,220,T,10.2,N,A*16
$HCHDG,22.9,0.0,E,,*10
$GPRMC,000033.8,A,4814.78881,N,12238.96409,W,007.82,041.4,190713,016.8,E,D*2B
$PGRME,2.4,M,2.4,M,3.4,M*29
$HCHDG,22.7,0.0,E,,*1E
$IIRMB,A,0.00,L,,OH  ,,,,,002.8,006,,V,A*4C
$HCHDG,22.6,0.0,E,,*1F
$GPRMC,000034.0,A,4814.78908,N,12238.96367,W,007.81,040.8,190713,016.8,E,D*25
$PGRME,2.4,M,2.4,M,3.4,M*29
$HCHDG,22.7,0.0,E,,*1E
$HCHDG,22.7,0.0,E,,*1E
$YXXDR,A,5.6,D,PTCH,A,5.6,D,ROLL*5D
$GPRMC,000034.2,A,4814.78936,N,12238.96325,W,007.80,040.4,190713,016.8,E,D*21
$PGRME,2.4,M,2.4,M,3.4,M*29
$HCHDG,22.7,0.0,E,,*1E
$HCHDG,22.7,0.0,E,,*1E
$GPRMC,000034.4,A,4814.78964,N,12238.96291,W,007.53,041.1,190713,016.8,E,D*24
$GPRMB,A,-0.00,L,OH,OH,4817.5980,N,12238.5140,W,2.8,6,6.17,V*2F
$IIRMC,000000,A,4814.788,N,12238.964,W,07.8,041,180713,16,E,A*10
$PGRME,2.4,M,2.4,M,3.4,M*29
$HCHDG,22.8,0.0,E,,*11
$PTAK,FFP1,HEEL,@*07
$IIVHW,,,,,07.3,N,,*1D
$HCHDG,22.7,0.0,E,,*1E
$IIVLW,01947,N,031.0,N*5A
$IIVWR,089,L,06.3,N,,,,*7B
$GPRMC,000034.6,A,4814.78991,N,12238.96245,W,007.56,040.0,190713,016.8,E,D*20
$PGRME,2.4,M,2.4,M,3.4,M*29
$HCHDG,22.6,0.0,E,,*1F
$IIDPT,020.3,-1.0,*41
$YXXDR,A,5.4,D,PTCH,A,6.0,D,ROLL*5A
$PTAK,FFD1,6.0*53
$IIGLL,4814.788,N,12238.964,W,000000,A,A*4D
$HCHDG,22.7,0.0,E,,*1E
$IIMTW,+16.5,C*3A
$GPRMC,000034.8,A,4814.79013,N,12238.96198,W,007.60,039.9,190713,016.8,E,D*2D
$IIMWV,271,R,06.3,N,A*12
$PGRME,2.4,M,2.4,M,3.4,M*29
$HCHDG,22.7,0.0,E,,*1E
$IIMWV,220,T,09.7,N,A*1B
$HCHDG,22.4,0.0,E,,*1D
$GPRMC,000035.0,A,4814.79035,N,12238.96161,W,007.66,039.8,190713,016.8,E,D*21
$PGRME,2.4,M,2.4,M,3.4,M*29
$HCHDG,22.2,0.0,E,,*1B
$HCHDG,22.0,0.0,E,,*19
$YXXDR,A,5.9,D,PTCH,A,5.6,D,ROLL*52
$GPRMC,000035.2,A,4814.79068,N,12238.96123,W,007.67,039.5,190713,016.8,E,D*21
$PGRME,2.4,M,2.4,M,3.4,M*29
$HCHDG,22.0,0.0,E,,*19
$HCHDG,21.9,0.0,E,,*13
$IIRMB,A,0.00,L,,OH  ,,,,,002.8,006,,V,A*4C
$GPRMC,000035.4,A,4814.79102,N,12238.96089,W,007.61,039.8,190713,016.8,E,D*20
$GPRMB,A,-0.00,L,OH,OH,4817.5980,N,12238.5140,W,2.8,6,6.33,V*29
$PGRME,2.4,M,2.4,M,3.4,M*29
$HCHDG,22.0,0.0,E,,*19
$IIRMC,000000,A,4814.790,N,12238.961,W,07.6,039,180713,16,E,A*1D
$HCHDG,22.0,0.0,E,,*19
$IIVHW,,,,,07.1,N,,*1F
$GPRMC,000035.6,A,4814.79133,N,12238.96063,W,007.63,038.5,190713,016.8,E,D*2A
$IIVLW,01947,N,031.0,N*5A
$PGRME,2.4,M,2.4,M,3.4,M*29
$HCHDG,22.0,0.0,E,,*19
$IIVWR,087,L,06.2,N,,,,*74
$YXXDR,A,5.5,D,PTCH,A,6.5,D,ROLL*5E
$IIDPT,020.3,-1.0,*41
$HCHDG,22.2,0.0,E,,*1B
$GPRMC,000035.8,A,4814.79164,N,12238.96034,W,007.58,038.5,190713,016.8,E,D*2C
$IIGLL,4814.790,N,12238.961,W,000000,A,A*41
$PGRME,2.4,M,2.4,M,3.4,M*29
$HCHDG,22.0,0.0,E,,*19
$IIMTW,+16.5,C*3A
$HCHDG,22.2,0.0,E,,*1B
$GPRMC,000036.0,A,4814.79195,N,12238.96016,W,007.55,038.3,190713,016.8,E,D*22
$PGRME,2.4,M,2.4,M,3.4,M*29
$HCHDG,22.0,0.0,E,,*19
$HCHDG,21.9,0.0,E,,*13
$YXXDR,A,5.6,D,PTCH,A,6.2,D,ROLL*5A
$PTAK,FFD1,6.2*51
$GPRMC,000036.2,A,4814.79225,N,12238.95982,W,007.54,038.8,190713,016.8,E,D*25
$PGRME,2.4,M,2.4,M,3.4,M*29
$HCHDG,21.8,0.0,E,,*12
$HCHDG,21.6,0.0,E,,*1C
$IIMWV,275,R,06.0,N,A*15
$IIMWV,222,T,09.2,N,A*1C
$GPRMC,000036.4,A,4814.79259,N,12238.95944,W,007.53,038.3,190713,016.8,E,D*2E
$GPRMB,A,-0.00,L,OH,OH,4817.5980,N,12238.5140,W,2.8,6,6.37,V*2D
$HCHDG,21.4,0.0,E,,*1E
$PGRME,2.4,M,2.4,M,3.4,M*29
$IIRMB,A,0.00,L,,OH  ,,,,,002.8,006,,V,A*4C
$HCHDG,21.3,0.0,E,,*19
$GPRMC,000036.6,A,4814.79288,N,12238.95910,W,007.50,038.4,190713,016.8,E,D*25
$IIRMC,000000,A,4814.791,N,12238.960,W,07.5,038,180713,16,E,A*1F
$PGRME,2.4,M,2.4,M,3.4,M*29
$HCHDG,21.5,0.0,E,,*1F
$IIVHW,,,,,07.1,N,,*1F
$YXXDR,A,5.6,D,PTCH,A,5.9,D,ROLL*52
$IIVLW,01947,N,031.0,N*5A
$HCHDG,21.5,0.0,E,,*1F
$IIVWR,085,L,06.0,N,,,,*74
$GPRMC,000036.8,A,4814.79312,N,12238.95888,W,007.47,038.4,190713,016.8,E,D*2F
$PGRME,2.4,M,2.4,M,3.4,M*29
$HCHDG,21.5,0.0,E,,*1F
$IIDPT,020.3,-1.0,*41
$HCHDG,21.4,0.0,E,,*1E
$GPRMC,000037.0,A,4814.79343,N,12238.95858,W,007.45,038.3,190713,016.8,E,D*2A
$PGRME,2.4,M,2.4,M,3.4,M*29
$HCHDG,21.1,0.0,E,,*1B
$HCHDG,21.1,0.0,E,,*1B
$YXXDR,A,5.7,D,PTCH,A,5.5,D,ROLL*5F
$PTAK,FFD1,5.5*55
$GPRMC,000037.2,A,4814.79366,N,12238.95821,W,007.45,038.4,190713,016.8,E,D*26
$PGRME,2.4,M,2.4,M,3.4,M*29
$HCHDG,20.9,0.0,E,,*12
$HCHDG,20.7,0.0,E,,*1C
$IIGLL,4814.793,N,12238.958,W,000000,A,A*48
$GPRMC,000037.4,A,4814.79390,N,12238.95794,W,007.45,038.6,190713,016.8,E,D*2A
$IIMTW,+16.5,C*3A
$PGRME,2.4,M,2.4,M,3.4,M*29
$HCHDG,20.7,0.0,E,,*1C
$IIMWV,276,R,05.9,N,A*1C
$IIMWV,222,T,08.9,N,A*16
$HCHDG,20.6,0.0,E,,*1D
$GPRMC,000037.6,A,4814.79420,N,12238.95764,W,007.44,039.1,190713,016.8,E,D*2C
$GPRMB,A,-0.00,L,OH,OH,4817.5980,N,12238.5140,W,2.8,6,6.23,V*28
$IIRMB,A,0.00,L,,OH  ,,,,,002.8,006,,V,A*4C
$PGRME,2.4,M,2.4,M,3.4,M*29
$HCHDG,20.7,0.0,E,,*1C
$YXXDR,A,5.5,D,PTCH,A,4.7,D,ROLL*5E
$HCHDG,20.7,0.0,E,,*1C
$IIRMC,000000,A,4814.793,N,12238.958,W,07.4,038,180713,16,E,A*17
$IIVHW,,,,,06.8,N,,*17
$GPRMC,000037.8,A,4814.79447,N,12238.95736,W,007.42,038.8,190713,016.8,E,D*2A
$PGRME,2.4,M,2.4,M,3.4,M*29
$HCHDG,20.8,0.0,E,,*13
$IIVLW,01947,N,031.0,N*5A
$HCHDG,20.8,0.0,E,,*13
$GPRMC,000038.0,A,4814.79482,N,12238.95702,W,007.40,038.5,190713,016.8,E,D*2C
$PGRME,2.4,M,2.4,M,3.4,M*29
$HCHDG,20.8,0.0,E,,*13
$HCHDG,20.6,0.0,E,,*1D
$YXXDR,A,5.7,D,PTCH,A,4.8,D,ROLL*53
$PTAK,FFD1,4.8*59
$GPRMC,000038.2,A,4814.79519,N,12238.95666,W,007.39,038.6,190713,016.8,E,D*23
$PGRME,2.4,M,2.4,M,3.4,M*29
$HCHDG,20.9,0.0,E,,*12
$HCHDG,20.7,0.0,E,,*1C
$IIVWR,087,L,05.8,N,,,,*7D
$IIDPT,020.3,-1.0,*41
$GPRMC,000038.4,A,4814.79544,N,12238.95629,W,007.15,039.5,190713,016.8,E,D*2A
$PGRME,2.4,M,2.4,M,3.4,M*29
$HCHDG,20.7,0.0,E,,*1C
$IIGLL,4814.794,N,12238.957,W,000000,A,A*40
$IIMTW,+16.5,C*3A
$HCHDG,20.7,0.0,E,,*1C
$IIMWV,273,R,05.8,N,A*18
$GPRMC,000038.6,A,4814.79570,N,12238.95600,W,007.44,039.1,190713,016.8,E,D*24
$GPRMB,A,-0.00,L,OH,OH,4817.5980,N,12238.5140,W,2.8,6,6.23,V*28
$PGRME,2.4,M,2.4,M,3.4,M*29
$HCHDG,20.7,0.0,E,,*1C
$PTAK,FFP1,HEEL,@*07
$IIMWV,222,T,08.6,N,A*19
$YXXDR,A,5.4,D,PTCH,A,3.8,D,ROLL*57
$IIRMB,A,0.00,L,,OH  ,,,,,002.8,006,,V,A*4C
$HCHDG,20.6,0.0,E,,*1D
$GPRMC,000038.8,A,4814.79604,N,12238.95569,W,007.43,039.4,190713,016.8,E,D*24
$PGRME,2.4,M,2.4,M,3.4,M*29
$HCHDG,20.6,0.0,E,,*1D
$IIRMC,000000,A,4814.794,N,12238.957,W,07.4,038,180713,16,E,A*1F
$HCHDG,20.5,0.0,E,,*1E
$GPRMC,000039.0,A,4814.79632,N,12238.95544,W,007.39,040.7,190713,016.8,E,D*27
$PGRME,2.4,M,2.4,M,3.4,M*29
$HCHDG,20.4,0.0,E,,*1F
$HCHDG,20.0,0.0,E,,*1B
$YXXDR,A,5.8,D,PTCH,A,2.4,D,ROLL*56
$PTAK,FFD1,2.4*53
$GPRMC,000039.2,A,4814.79657,N,12238.95512,W,007.40,039.9,190713,016.8,E,D*2B
$PGRME,2.4,M,2.4,M,3.4,M*29
$HCHDG,20.0,0.0,E,,*1B
$HCHDG,19.9,0.0,E,,*18
$IIVHW,,,,,06.4,N,,*1B
$IIVLW,01947,N,031.0,N*5A
$GPRMC,000039.4,A,4814.79687,N,12238.95458,W,007.44,040.0,190713,016.8,E,D*2C
$PGRME,2.4,M,2.4,M,3.4,M*29
$HCHDG,19.5,0.0,E,,*14
$IIVWR,092,L,05.5,N,,,,*74
$IIDPT,020.5,-1.0,*47
$HCHDG,19.7,0.0,E,,*16
$IIGLL,4814.796,N,12238.955,W,000000,A,A*40
$GPRMC,000039.6,A,4814.79713,N,12238.95414,W,007.41,040.3,190713,016.8,E,D*2C
$GPRMB,A,-0.00,L,OH,OH,4817.5980,N,12238.5140,W,2.8,6,6.12,V*2A
$PGRME,2.4,M,2.4,M,3.4,M*29
$HCHDG,19.6,0.0,E,,*17
$IIMTW,+16.5,C*3A
$IIMWV,268,R,05.5,N,A*1F
$YXXDR,A,6.0,D,PTCH,A,3.0,D,ROLL*58
$IIMWV,221,T,08.8,N,A*14
$HCHDG,19.6,0.0,E,,*17
$GPRMC,000039.8,A,4814.79736,N,12238.95375,W,007.45,039.7,190713,016.8,E,D*2B
$PGRME,2.4,M,2.4,M,3.4,M*29
$HCHDG,19.7,0.0,E,,*16
$IIRMB,A,0.00,L,,OH  ,,,,,002.8,006,,V,A*4C
$HCHDG,19.8,0.0,E,,*19
$GPRMC,000040.0,A,4814.79755,N,12238.95336,W,007.49,039.4,190713,016.8,E,D*20
$HCHDG,19.9,0.0,E,,*18
$PGRME,2.4,M,2.4,M,3.4,M*29
$HCHDG,19.9,0.0,E,,*18
$YXXDR,A,6.0,D,PTCH,A,3.8,D,ROLL*50
$PTAK,FFD1,3.8*5E
$GPRMC,000040.2,A,4814.79783,N,12238.95295,W,007.54,039.2,190713,016.8,E,D*2B
$PGRME,2.4,M,2.4,M,3.4,M*29
$HCHDG,20.0,0.0,E,,*1B
$HCHDG,20.1,0.0,E,,*1A
$GPRMC,000040.4,A,4814.79812,N,12238.95257,W,007.57,039.1,190713,016.8,E,D*24
$IIRMC,000000,A,4814.797,N,12238.953,W,07.4,039,180713,16,E,A*19
$PGRME,2.4,M,2.4,M,3.4,M*29
$HCHDG,20.2,0.0,E,,*19
$IIVHW,,,,,06.4,N,,*1B
$IIVLW,01947,N,031.0,N*5A
$HCHDG,20.0,0.0,E,,*1B
$IIVWR,091,L,05.5,N,,,,*77
$GPRMC,000040.6,A,4814.79841,N,12238.95216,W,007.59,039.1,190713,016.8,E,D*2B
$PGRME,2.4,M,2.4,M,3.4,M*29
$IIDPT,020.5,-1.0,*47
$HCHDG,20.1,0.0,E,,*1A
$YXXDR,A,5.8,D,PTCH,A,3.4,D,ROLL*57
$IIGLL,4814.797,N,12238.953,W,000000,A,A*47
$HCHDG,19.9,0.0,E,,*18
$IIMTW,+16.5,C*3A
$GPRMC,000040.8,A,4814.79876,N,12238.95189,W,007.59,039.4,190713,016.8,E,D*21
$GPRMB,A,-0.00,L,OH,OH,4817.5980,N,12238.5140,W,2.8,6,6.33,V*29
$IIMWV,269,R,05.5,N,A*1E
$PGRME,2.4,M,2.4,M,3.4,M*29
$HCHDG,19.9,0.0,E,,*18
$IIMWV,220,T,08.5,N,A*18
$HCHDG,19.8,0.0,E,,*19
$GPRMC,000041.0,A,4814.79905,N,12238.95154,W,007.62,038.4,190713,016.8,E,D*24
$PGRME,2.4,M,2.4,M,3.4,M*29
$HCHDG,19.8,0.0,E,,*19
$HCHDG,19.7,0.0,E,,*16
$YXXDR,A,5.8,D,PTCH,A,2.9,D,ROLL*5B
$PTAK,FFD1,2.9*5E
$GPRMC,000041.2,A,4814.79932,N,12238.95108,W,007.78,038.3,190713,016.8,E,D*27
$PGRME,2.4,M,2.4,M,3.4,M*29
$HCHDG,19.8,0.0,E,,*19
$HCHDG,19.9,0.0,E,,*18
$IIRMB,A,0.00,L,,OH  ,,,,,002.8,006,,V,A*4C
$GPRMC,000041.4,A,4814.79955,N,12238.95063,W,007.81,039.8,190713,016.8,E,D*20
$PGRME,2.4,M,2.4,M,3.4,M*29
$HCHDG,19.7,0.0,E,,*16
$IIRMC,000000,A,4814.798,N,12238.951,W,07.5,039,180713,16,E,A*15
$HCHDG,19.9,0.0,E,,*18
$IIVHW,,,,,06.1,N,,*1E
$GPRMC,000041.6,A,4814.79986,N,12238.95022,W,007.80,039.3,190713,016.8,E,D*23
$IIVLW,01947,N,031.0,N*5A
$PGRME,2.4,M,2.4,M,3.4,M*29
$HCHDG,19.5,0.0,E,,*14
$IIVWR,093,L,05.7,N,,,,*77
$YXXDR,A,5.9,D,PTCH,A,2.6,D,ROLL*55
$IIDPT,020.5,-1.0,*47
$HCHDG,19.4,0.0,E,,*15
$GPRMC,000041.8,A,4814.80017,N,12238.94984,W,007.50,040.0,190713,016.8,E,D*2E
$IIGLL,4814.798,N,12238.951,W,000000,A,A*4A
$PGRME,2.4,M,2.4,M,3.4,M*29
$HCHDG,19.3,0.0,E,,*12
$IIMTW,+16.5,C*3A
$HCHDG,19.1,0.0,E,,*10
$GPRMC,000042.0,A,4814.80044,N,12238.94954,W,007.70,040.1,190713,016.8,E,D*2D
$GPRMB,A,-0.00,L,OH,OH,4817.5980,N,12238.5140,W,2.8,6,6.37,V*2D
$PGRME,2.4,M,2.4,M,3.4,M*29
$HCHDG,19.2,0.0,E,,*13
$HCHDG,19.2,0.0,E,,*13
$YXXDR,A,5.7,D,PTCH,A,2.4,D,ROLL*59
$PTAK,FFD1,2.4*53
$GPRMC,000042.2,A,4814.80064,N,12238.94918,W,007.71,039.3,190713,016.8,E,D*28
$PGRME,2.4,M,2.4,M,3.4,M*29
$HCHDG,19.2,0.0,E,,*13
$HCHDG,19.4,0.0,E,,*15
$IIMWV,264,R,05.5,N,A*13
$IIMWV,222,T,08.5,N,A*1A
$GPRMC,000042.4,A,4814.80093,N,12238.94874,W,007.93,037.4,190713,016.8,E,D*28
$PGRME,2.4,M,2.4,M,3.4,M*29
$HCHDG,19.5,0.0,E,,*14
$IIRMB,A,0.00,L,,OH  ,,,,,002.8,006,,V,A*4C
$HCHDG,19.6,0.0,E,,*17
$GPRMC,000042.6,A,4814.80123,N,12238.94832,W,007.89,038.3,190713,016.8,E,D*21
$IIRMC,000000,A,4814.800,N,12238.949,W,07.5,040,180713,16,E,A*1C
$PGRME,2.4,M,2.4,M,3.4,M*29
$HCHDG,19.6,0.0,E,,*17
$IIVHW,,,,,06.5,N,,*1A
$YXXDR,A,6.0,D,PTCH,A,3.1,D,ROLL*59
$IIVLW,01947,N,031.0,N*5A
$HCHDG,19.7,0.0,E,,*16
$IIVWR,096,L,05.5,N,,,,*70
$GPRMC,000042.8,A,4814.80157,N,12238.94784,W,007.86,038.2,190713,016.8,E,D*20
$PTAK,FFP1,HEEL,@*07
$PGRME,2.4,M,2.4,M,3.4,M*29
$HCHDG,19.8,0.0,E,,*19
$IIDPT,020.5,-1.0,*47
$HCHDG,19.5,0.0,E,,*14
$GPRMC,000043.0,A,4814.80198,N,12238.94737,W,007.89,038.1,190713,016.8,E,D*2E
$GPRMB,A,-0.00,L,OH,OH,4817.5980,N,12238.5140,W,2.8,6,6.68,V*27
$PGRME,2.4,M,2.4,M,3.4,M*29
$HCHDG,19.5,0.0,E,,*14
$HCHDG,19.6,0.0,E,,*17
$YXXDR,A,6.0,D,PTCH,A,3.1,D,ROLL*59
$PTAK,FFD1,3.1*57
$GPRMC,000043.2,A,4814.80228,N,12238.94706,W,007.86,038.5,190713,016.8,E,D*2D
$PGRME,2.4,M,2.4,M,3.4,M*29
$HCHDG,19.6,0.0,E,,*17
$HCHDG,19.6,0.0,E,,*17
$IIGLL,4814.801,N,12238.947,W,000000,A,A*42
$GPRMC,000043.4,A,4814.80262,N,12238.94659,W,007.79,039.0,190713,016.8,E,D*2A
$IIMTW,+16.5,C*3A
$PGRME,2.4,M,2.4,M,3.4,M*29
$HCHDG,19.5,0.0,E,,*14
$IIMWV,256,R,05.5,N,A*12
$IIMWV,217,T,08.9,N,A*10
$HCHDG,19.2,0.0,E,,*13
$GPRMC,000043.6,A,4814.80292,N,12238.94626,W,007.80,038.9,190713,016.8,E,D*21
$IIRMB,A,0.00,L,,OH  ,,,,,002.8,006,,V,A*4C
$PGRME,2.4,M,2.4,M,3.4,M*29
$HCHDG,19.5,0.0,E,,*14
$YXXDR,A,5.7,D,PTCH,A,3.5,D,ROLL*59
$HCHDG,19.6,0.0,E,,*17
$IIRMC,000000,A,4814.801,N,12238.947,W,07.8,038,180713,16,E,A*11
$IIVHW,,,,,06.6,N,,*19
$GPRMC,000043.8,A,4814.80326,N,12238.94582,W,007.79,038.8,190713,016.8,E,D*2B
$PGRME,2.4,M,2.4,M,3.4,M*29
$HCHDG,19.5,0.0,E,,*14
$IIVLW,01947,N,031.0,N*5A
$HCHDG,19.7,0.0,E,,*16
$GPRMC,000044.0,A,4814.80354,N,12238.94540,W,007.77,038.6,190713,016.8,E,D*2F
$PGRME,2.4,M,2.4,M,3.4,M*29
$HCHDG,19.7,0.0,E,,*16
$PGRMT,GPS 18x-5Hz software ver. 3.20,,,,,,,,*30
$HCHDG,19.9,0.0,E,,*18
$YXXDR,A,5.8,D,PTCH,A,4.3,D,ROLL*57
$GPRMC,000044.2,A,4814.80385,N,12238.94505,W,007.74,039.3,190713,016.8,E,D*27
$GPRMB,A,-0.00,L,OH,OH,4817.5980,N,12238.5140,W,2.8,6,6.46,V*2B
$PGRME,2.4,M,2.4,M,3.4,M*29
$HCHDG,20.0,0.0,E,,*1B
$HCHDG,20.0,0.0,E,,*1B
$IIVWR,108,L,05.3,N,,,,*70
$IIDPT,020.5,-1.0,*47
$GPRMC,000044.4,A,4814.80418,N,12238.94476,W,007.75,038.5,190713,016.8,E,D*21
$PGRME,2.4,M,2.4,M,3.4,M*29
$HCHDG,19.9,0.0,E,,*18
$IIGLL,4814.803,N,12238.945,W,000000,A,A*42
$IIMTW,+16.5,C*3A
$HCHDG,20.1,0.0,E,,*1A
$IIMWV,252,R,05.3,N,A*10
$GPRMC,000044.6,A,4814.80446,N,12238.94439,W,007.71,039.2,190713,016.8,E,D*21
$PGRME,2.4,M,2.4,M,3.4,M*29
$HCHDG,20.1,0.0,E,,*1A
$IIMWV,213,T,09.5,N,A*19
$YXXDR,A,5.7,D,PTCH,A,4.8,D,ROLL*53
$PTAK,FFD1,4.8*59
$IIRMB,A,0.00,L,,OH  ,,,,,002.8,006,,V,A*4C
$HCHDG,20.0,0.0,E,,*1B
$GPRMC,000044.8,A,4814.80476,N,12238.94404,W,007.88,039.0,190713,016.8,E,D*26
$PGRME,2.4,M,2.4,M,3.4,M*29
$HCHDG,19.9,0.0,E,,*18
$IIRMC,000000,A,4814.803,N,12238.945,W,07.7,038,180713,16,E,A*1E
$HCHDG,20.0,0.0,E,,*1B
$GPRMC,000045.0,A,4814.80506,N,12238.94368,W,007.86,038.7,190713,016.8,E,D*2C
$PGRME,2.4,M,2.4,M,3.4,M*29
$HCHDG,20.1,0.0,E,,*1A
$HCHDG,20.0,0.0,E,,*1B
$YXXDR,A,6.0,D,PTCH,A,5.2,D,ROLL*5C
$GPRMC,000045.2,A,4814.80538,N,12238.94338,W,007.71,039.2,190713,016.8,E,D*2A
$GPRMB,A,-0.00,L,OH,OH,4817.5980,N,12238.5140,W,2.8,6,6.44,V*29
$PGRME,2.4,M,2.4,M,3.4,M*29
$HCHDG,20.1,0.0,E,,*1A
$HCHDG,20.1,0.0,E,,*1A
$IIVHW,,,,,07.1,N,,*1F
$IIVLW,01947,N,031.0,N*5A
$GPRMC,000045.4,A,4814.80574,N,12238.94307,W,007.67,039.2,190713,016.8,E,D*2F
$PGRME,2.4,M,2.4,M,3.4,M*29
$HCHDG,20.2,0.0,E,,*19
$IIVWR,106,L,05.2,N,,,,*7F
$IIDPT,020.5,-1.0,*47
$HCHDG,20.3,0.0,E,,*18
$IIGLL,4814.804,N,12238.944,W,000000,A,A*44
$GPRMC,000045.6,A,4814.80610,N,12238.94269,W,007.66,039.4,190713,016.8,E,D*22
$PGRME,2.4,M,2.4,M,3.4,M*29
$HCHDG,20.4,0.0,E,,*1F
$IIMTW,+16.5,C*3A
$IIMWV,254,R,05.2,N,A*17
$YXXDR,A,5.6,D,PTCH,A,5.9,D,ROLL*52
$PTAK,FFD1,5.9*59
$IIMWV,210,T,10.0,N,A*17
$HCHDG,20.4,0.0,E,,*1F
$GPRMC,000045.8,A,4814.80636,N,12238.94235,W,007.69,039.2,190713,016.8,E,D*28
$PGRME,2.4,M,2.4,M,3.4,M*29
$HCHDG,20.4,0.0,E,,*1F
$IIRMB,A,0.00,L,,OH  ,,,,,002.8,006,,V,A*4C
$HCHDG,20.4,0.0,E,,*1F
$GPRMC,000046.0,A,4814.80668,N,12238.94201,W,007.65,039.4,190713,016.8,E,D*25
$PGRME,2.4,M,2.4,M,3.4,M*29
$HCHDG,20.4,0.0,E,,*1F
$HCHDG,20.4,0.0,E,,*1F
$YXXDR,A,5.8,D,PTCH,A,6.4,D,ROLL*52
$GPRMC,000046.2,A,4814.80705,N,12238.94169,W,007.63,039.5,190713,016.8,E,D*27
$PGRME,2.4,M,2.4,M,3.4,M*29
$HCHDG,20.4,0.0,E,,*1F
$HCHDG,20.3,0.0,E,,*18
$GPRMC,000046.4,A,4814.80730,N,12238.94124,W,007.63,038.7,190713,016.8,E,D*2D
$GPRMB,A,-0.00,L,OH,OH,4817.5980,N,12238.5140,W,2.8,6,6.41,V*2C
$IIRMC,000000,A,4814.806,N,12238.942,W,07.6,039,180713,16,E,A*1C
$PGRME,2.4,M,2.4,M,3.4,M*29
$HCHDG,20.4,0.0,E,,*1F
$IIVHW,,,,,07.2,N,,*1C
$IIVLW,01947,N,031.0,N*5A
$HCHDG,20.5,0.0,E,,*1E
$IIVWR,103,L,05.4,N,,,,*7C
$GPRMC,000046.6,A,4814.80751,N,12238.94083,W,007.62,038.8,190713,016.8,E,D*2A
$PGRME,2.4,M,2.4,M,3.4,M*29
$IIDPT,020.5,-1.0,*47
$HCHDG,20.5,0.0,E,,*1E
$YXXDR,A,5.7,D,PTCH,A,6.6,D,ROLL*5F
$PTAK,FFD1,6.6*55
$IIGLL,4814.806,N,12238.942,W,000000,A,A*40
$HCHDG,20.7,0.0,E,,*1C
$IIMTW,+16.5,C*3A
$GPRMC,000046.8,A,4814.80777,N,12238.94045,W,007.58,038.7,190713,016.8,E,D*2C
$IIMWV,257,R,05.4,N,A*12
$PTAK,FFP1,HEEL,@*07
$PGRME,2.4,M,2.4,M,3.4,M*29
$HCHDG,20.9,0.0,E,,*12
$IIMWV,210,T,09.8,N,A*17
$HCHDG,21.1,0.0,E,,*1B
$GPRMC,000047.0,A,4814.80804,N,12238.94008,W,007.58,039.1,190713,016.8,E,D*20
$PGRME,2.4,M,2.4,M,3.4,M*29
$HCHDG,20.9,0.0,E,,*12
$HCHDG,20.8,0.0,E,,*13
$YXXDR,A,5.9,D,PTCH,A,6.2,D,ROLL*55
$GPRMC,000047.2,A,4814.80831,N,12238.93968,W,007.57,039.7,190713,016.8,E,D*25
$PGRME,2.4,M,2.4,M,3.4,M*29
$HCHDG,20.9,0.0,E,,*12
$HCHDG,20.8,0.0,E,,*13
$IIRMB,A,0.00,L,,OH  ,,,,,002.8,006,,V,A*4C
$GPRMC,000047.4,A,4814.80864,N,12238.93929,W,007.56,038.3,190713,016.8,E,D*22
$GPRMB,A,-0.00,L,OH,OH,4817.5980,N,12238.5140,W,2.8,6,6.38,V*22
$PGRME,2.4,M,2.4,M,3.4,M*29
$HCHDG,20.8,0.0,E,,*13
$IIRMC,000000,A,4814.807,N,12238.940,W,07.5,038,180713,16,E,A*1D
$HCHDG,20.6,0.0,E,,*1D
$IIVHW,,,,,06.9,N,,*16
$GPRMC,000047.6,A,4814.80886,N,12238.93891,W,007.56,038.9,190713,016.8,E,D*24
$IIVLW,01947,N,031.0,N*5A
$PGRME,2.4,M,2.4,M,3.4,M*29
$HCHDG,20.6,0.0,E,,*1D
$IIVWR,102,L,05.5,N,,,,*7C
$YXXDR,A,5.8,D,PTCH,A,6.0,D,ROLL*56
$IIDPT,020.5,-1.0,*47
$HCHDG,20.8,0.0,E,,*13
$GPRMC,000047.8,A,4814.80915,N,12238.93849,W,007.55,039.5,190713,016.8,E,D*2A
$IIGLL,4814.807,N,12238.940,W,000000,A,A*43
$PGRME,2.4,M,2.4,M,3.4,M*29
$HCHDG,20.7,0.0,E,,*1C
$IIMTW,+16.5,C*3A
$HCHDG,20.7,0.0,E,,*1C
$GPRMC,000048.0,A,4814.80952,N,12238.93807,W,007.57,039.1,190713,016.8,E,D*22
$PGRME,2.4,M,2.4,M,3.4,M*29
$HCHDG,20.6,0.0,E,,*1D
$HCHDG,20.5,0.0,E,,*1E
$YXXDR,A,6.0,D,PTCH,A,6.0,D,ROLL*5D
$PTAK,FFD1,6.0*53
$GPRMC,000048.2,A,4814.80987,N,12238.93776,W,007.58,039.0,190713,016.8,E,D*2F
$PGRME,2.4,M,2.4,M,3.4,M*29
$HCHDG,20.6,0.0,E,,*1D
$HCHDG,20.5,0.0,E,,*1E
$IIMWV,261,R,05.6,N,A*15
$IIMWV,213,T,09.5,N,A*19
$GPRMC,000048.4,A,4814.81012,N,12238.93742,W,007.54,039.2,190713,016.8,E,D*24
$GPRMB,A,-0.00,L,OH,OH,4817.5980,N,12238.5140,W,2.8,6,6.29,V*22
$PGRME,2.4,M,2.4,M,3.4,M*29
$HCHDG,20.7,0.0,E,,*1C
$IIRMB,A,0.00,L,,OH  ,,,,,002.8,006,,V,A*4C
$HCHDG,20.7,0.0,E,,*1C
$GPRMC,000048.6,A,4814.81034,N,12238.93689,W,007.51,039.4,190713,016.8,E,D*27
$IIRMC,000000,A,4814.809,N,12238.938,W,07.5,039,180713,16,E,A*1D
$PGRME,2.4,M,2.4,M,3.4,M*29
$HCHDG,20.7,0.0,E,,*1C
$IIVHW,,,,,06.7,N,,*18
$YXXDR,A,5.7,D,PTCH,A,5.7,D,ROLL*5D
$IIVLW,01947,N,031.0,N*5A
$HCHDG,20.7,0.0,E,,*1C
$IIVWR,099,L,05.6,N,,,,*7C
$GPRMC,000048.8,A,4814.81062,N,12238.93647,W,007.48,039.1,190713,016.8,E,D*25
$PGRME,2.4,M,2.4,M,3.4,M*29
$HCHDG,20.7,0.0,E,,*1C
$IIDPT,020.5,-1.0,*47
$HCHDG,20.9,0.0,E,,*12
$GPRMC,000049.0,A,4814.81084,N,12238.93610,W,007.44,038.9,190713,016.8,E,D*23
$PGRME,2.4,M,2.4,M,3.4,M*29
$HCHDG,20.9,0.0,E,,*12
$HCHDG,20.9,0.0,E,,*12
$YXXDR,A,5.9,D,PTCH,A,5.6,D,ROLL*52
$GPRMC,000049.2,A,4814.81110,N,12238.93564,W,007.44,038.9,190713,016.8,E,D*2D
$PGRME,2.4,M,2.4,M,3.4,M*29
$HCHDG,20.9,0.0,E,,*12
$HCHDG,21.0,0.0,E,,*1A
$IIGLL,4814.810,N,12238.936,W,000000,A,A*44
$GPRMC,000049.4,A,4814.81139,N,12238.93519,W,007.43,039.4,190713,016.8,E,D*21
$IIMTW,+16.5,C*3A
$PGRME,2.4,M,2.4,M,3.4,M*29
$HCHDG,20.7,0.0,E,,*1C
$IIMWV,266,R,05.8,N,A*1C
$IIMWV,216,T,09.3,N,A*1A
$HCHDG,20.7,0.0,E,,*1C
$GPRMC,000049.6,A,4814.81165,N,12238.93468,W,007.41,039.7,190713,016.8,E,D*2C
$GPRMB,A,-0.00,L,OH,OH,4817.5980,N,12238.5140,W,2.8,6,6.15,V*2D
$IIRMB,A,0.00,L,,OH  ,,,,,002.8,006,,V,A*4C
$PGRME,2.4,M,2.4,M,3.4,M*29
$HCHDG,20.9,0.0,E,,*12
$YXXDR,A,5.8,D,PTCH,A,4.8,D,ROLL*5C
$PTAK,FFD1,4.8*59
$HCHDG,20.8,0.0,E,,*13
$IIRMC,000000,A,4814.810,N,12238.936,W,07.4,039,180713,16,E,A*1A
$IIVHW,,,,,06.7,N,,*18
$GPRMC,000049.8,A,4814.81202,N,12238.93419,W,007.40,038.7,190713,016.8,E,D*26
$PGRME,2.4,M,2.4,M,3.4,M*29
$HCHDG,21.0,0.0,E,,*1A
$IIVLW,01947,N,031.0,N*5A
$HCHDG,20.8,0.0,E,,*13
$GPRMC,000050.0,A,4814.81235,N,12238.93380,W,007.40,038.8,190713,016.8,E,D*2A
$PGRME,2.4,M,2.4,M,3.4,M*29
$HCHDG,21.0,0.0,E,,*1A
$HCHDG,21.1,0.0,E,,*1B
$YXXDR,A,5.6,D,PTCH,A,4.4,D,ROLL*5E
$GPRMC,000050.2,A,4814.81261,N,12238.93342,W,007.39,038.8,190713,016.8,E,D*29
$PGRME,2.4,M,2.4,M,3.4,M*29
$HCHDG,21.2,0.0,E,,*18
$HCHDG,21.1,0.0,E,,*1B
$IIVWR,092,L,06.0,N,,,,*72
$IIDPT,020.7,-1.0,*45
$GPRMC,000050.4,A,4814.81291,N,12238.93296,W,007.37,039.1,190713,016.8,E,D*2E
$HCHDG,21.2,0.0,E,,*18
$PGRME,2.4,M,2.4,M,3.4,M*29
$IIGLL,4814.812,N,12238.934,W,000000,A,A*44
$IIMTW,+16.5,C*3A
$HCHDG,21.1,0.0,E,,*1B
