$GPRMB,A,-0.23,L,,OH,4817.5980,N,12238.5140,W,0.8,16,-6.07,V*36
$PTAK,FFP1,HEEL,@*07
$PGRME,5.0,M,14.7,M,15.5,M*28
$HCHDG,183.0,0.0,E,,*23
$PTAK,FFP1,HEEL,@*07
$HCHDG,183.0,0.0,E,,*23
$GPRMC,172536.4,A,4816.78417,N,12238.85430,W,005.84,201.5,160713,016.8,E,A*23
$GPRMB,A,-0.23,L,,OH,4817.5980,N,12238.5140,W,0.8,16,-5.81,V*3B
$PGRME,4.9,M,14.0,M,14.9,M*2A
$HCHDG,182.9,0.0,E,,*2B
$HCHDG,182.9,0.0,E,,*2B
$GPRMC,172536.6,A,4816.78379,N,12238.85459,W,005.88,201.6,160713,016.8,E,A*2E
$PGRME,4.8,M,13.5,M,14.3,M*23
$YXXDR,A,6.1,D,PTCH,A,4.1,D,ROLL*5F
$PTAK,FFD1,4.1*50
$HCHDG,182.7,0.0,E,,*25
$HCHDG,182.4,0.0,E,,*26
$GPRMC,172536.8,A,4816.78347,N,12238.85471,W,005.86,201.3,160713,016.8,E,A*2C
$PGRME,4.7,M,13.0,M,13.9,M*24
$HCHDG,182.2,0.0,E,,*20
$HCHDG,182.2,0.0,E,,*20
$GPRMC,172537.0,A,4816.78333,N,12238.85481,W,005.86,200.9,160713,016.8,E,A*22
$PGRME,4.7,M,12.6,M,13.4,M*2E
$HCHDG,181.9,0.0,E,,*28
$YXXDR,A,6.1,D,PTCH,A,4.5,D,ROLL*5B
$HCHDG,181.7,0.0,E,,*26
$GPRMC,172537.2,A,4816.78314,N,12238.85498,W,005.85,200.4,160713,016.8,E,A*23
$PGRME,4.6,M,12.2,M,13.0,M*2F
$HCHDG,181.3,0.0,E,,*22
$HCHDG,181.0,0.0,E,,*21
$GPRMC,172537.4,A,4816.78275,N,12238.85506,W,005.85,198.7,160713,016.8,E,A*24
$PGRME,4.5,M,11.7,M,12.5,M*2E
$HCHDG,180.7,0.0,E,,*27
$HCHDG,180.6,0.0,E,,*26
$GPRMC,172537.6,A,4816.78247,N,12238.85519,W,005.96,199.1,160713,016.8,E,A*2C
$GPRMB,A,-0.23,L,,OH,4817.5980,N,12238.5140,W,0.8,16,-5.95,V*3E
$YXXDR,A,6.3,D,PTCH,A,5.2,D,ROLL*5F
$PTAK,FFD1,5.2*52
$PGRME,4.4,M,11.1,M,11.9,M*26
$HCHDG,180.4,0.0,E,,*24
$HCHDG,180.1,0.0,E,,*21
$GPRMC,172537.8,A,4816.78213,N,12238.85521,W,005.99,198.0,160713,016.8,E,A*27
$PGRME,4.4,M,10.7,M,11.6,M*2E
$HCHDG,180.1,0.0,E,,*21
$HCHDG,180.0,0.0,E,,*20
$GPRMC,172538.0,A,4816.78180,N,12238.85529,W,005.74,197.2,160713,016.8,E,A*2F
$PGRME,4.3,M,10.4,M,11.2,M*2E
$HCHDG,179.8,0.0,E,,*2E
$YXXDR,A,6.2,D,PTCH,A,5.4,D,ROLL*58
$HCHDG,179.5,0.0,E,,*23
$GPRMC,172538.2,A,4816.78141,N,12238.85540,W,005.83,198.6,160713,016.8,E,A*2C
$PGRME,4.3,M,10.0,M,10.9,M*20
$HCHDG,179.5,0.0,E,,*23
$HCHDG,179.4,0.0,E,,*22
$GPRMC,172538.4,A,4816.78126,N,12238.85549,W,005.89,197.5,160713,016.8,E,A*24
$PGRME,4.2,M,9.7,M,10.6,M*11
$HCHDG,179.3,0.0,E,,*25
$HCHDG,179.3,0.0,E,,*25
$GPRMC,172538.6,A,4816.78110,N,12238.85567,W,005.75,197.3,160713,016.8,E,A*2A
$YXXDR,A,5.9,D,PTCH,A,5.0,D,ROLL*54
$PGRME,4.2,M,9.5,M,10.4,M*11
$HCHDG,179.3,0.0,E,,*25
$HCHDG,179.3,0.0,E,,*25
$GPRMC,172538.8,A,4816.78081,N,12238.85591,W,005.77,198.4,160713,016.8,E,A*2E
$PGRME,4.1,M,9.1,M,9.9,M*23
$HCHDG,179.3,0.0,E,,*25
$HCHDG,179.3,0.0,E,,*25
$GPRMC,172539.0,A,4816.78059,N,12238.85603,W,006.01,197.3,160713,016.8,E,A*20
$PGRME,4.0,M,8.9,M,9.7,M*25
$HCHDG,179.3,0.0,E,,*25
$YXXDR,A,6.1,D,PTCH,A,4.6,D,ROLL*58
$HCHDG,179.1,0.0,E,,*27
$GPRMC,172539.2,A,4816.78032,N,12238.85621,W,005.89,196.7,160713,016.8,E,A*29
$PGRME,4.0,M,8.7,M,9.5,M*29
$HCHDG,179.1,0.0,E,,*27
$HCHDG,179.1,0.0,E,,*27
$GPRMC,172539.4,A,4816.77991,N,12238.85619,W,005.91,195.9,160713,016.8,E,A*2F
$PGRME,4.0,M,8.5,M,9.4,M*2A
$HCHDG,179.1,0.0,E,,*27
$HCHDG,179.0,0.0,E,,*26
$GPRMC,172539.6,A,4816.77947,N,12238.85621,W,005.85,195.8,160713,016.8,E,A*29
$YXXDR,A,6.0,D,PTCH,A,4.7,D,ROLL*58
$PGRME,3.9,M,8.3,M,9.2,M*24
$HCHDG,178.9,0.0,E,,*2E
$HCHDG,178.8,0.0,E,,*2F
$GPRMC,172539.8,A,4816.77902,N,12238.85627,W,005.96,195.8,160713,016.8,E,A*22
$GPRMB,A,-0.23,L,,OH,4817.5980,N,12238.5140,W,0.9,16,-5.96,V*3C
$PGRME,3.9,M,8.1,M,9.0,M*24
$HCHDG,178.7,0.0,E,,*20
$HCHDG,178.6,0.0,E,,*21
$GPRMC,172540.0,A,4816.77864,N,12238.85635,W,005.76,196.0,160713,016.8,E,A*23
$PGRME,3.8,M,8.0,M,8.8,M*2D
$HCHDG,178.6,0.0,E,,*21
$YXXDR,A,6.4,D,PTCH,A,4.1,D,ROLL*5A
$PTAK,FFD1,4.1*50
$HCHDG,178.8,0.0,E,,*2F
$GPRMC,172540.2,A,4816.77837,N,12238.85653,W,005.79,196.3,160713,016.8,E,A*2B
$PGRME,3.8,M,7.8,M,8.7,M*25
$HCHDG,178.9,0.0,E,,*2E
$HCHDG,178.8,0.0,E,,*2F
$GPRMC,172540.4,A,4816.77827,N,12238.85661,W,005.91,196.3,160713,016.8,E,A*2B
$PGRME,3.8,M,7.7,M,8.5,M*28
$HCHDG,178.8,0.0,E,,*2F
$HCHDG,178.7,0.0,E,,*20
$GPRMC,172540.6,A,4816.77825,N,12238.85671,W,005.80,195.8,160713,016.8,E,A*22
$YXXDR,A,6.0,D,PTCH,A,4.3,D,ROLL*5C
$PTAK,FFP1,HEEL,@*07
$PGRME,3.7,M,7.5,M,8.4,M*24
$HCHDG,178.7,0.0,E,,*20
$HCHDG,178.7,0.0,E,,*20
$GPRMC,172540.8,A,4816.77816,N,12238.85687,W,005.94,195.8,160713,016.8,E,A*20
$PGRME,3.7,M,7.4,M,8.3,M*22
$HCHDG,178.7,0.0,E,,*20
$HCHDG,178.7,0.0,E,,*20
$GPRMC,172541.0,A,4816.77770,N,12238.85700,W,005.89,196.4,160713,016.8,E,A*2B
$GPRMB,A,-0.23,L,,OH,4817.5980,N,12238.5140,W,0.9,16,-5.89,V*32
$PGRME,3.7,M,7.3,M,8.1,M*27
$HCHDG,178.7,0.0,E,,*20
$YXXDR,A,6.0,D,PTCH,A,4.8,D,ROLL*57
$PTAK,FFD1,4.8*59
$HCHDG,178.8,0.0,E,,*2F
$GPRMC,172541.2,A,4816.77736,N,12238.85719,W,005.91,195.5,160713,016.8,E,A*28
$PGRME,3.6,M,7.2,M,8.0,M*26
$HCHDG,178.9,0.0,E,,*2E
$HCHDG,178.7,0.0,E,,*20
$GPRMC,172541.4,A,4816.77696,N,12238.85721,W,005.84,195.4,160713,016.8,E,A*2B
$PGRME,3.6,M,7.0,M,7.9,M*22
$HCHDG,178.7,0.0,E,,*20
$HCHDG,178.7,0.0,E,,*20
$GPRMC,172541.6,A,4816.77657,N,12238.85726,W,005.95,195.4,160713,016.8,E,A*23
$YXXDR,A,6.3,D,PTCH,A,5.1,D,ROLL*5C
$PGRME,3.6,M,6.9,M,7.8,M*2B
$HCHDG,178.7,0.0,E,,*20
$HCHDG,178.8,0.0,E,,*2F
$GPRMC,172541.8,A,4816.77616,N,12238.85743,W,005.96,195.7,160713,016.8,E,A*2B
$PGRME,3.5,M,6.8,M,7.7,M*26
$HCHDG,178.9,0.0,E,,*2E
$HCHDG,178.9,0.0,E,,*2E
$GPRMC,172542.0,A,4816.77606,N,12238.85752,W,005.93,196.3,160713,016.8,E,A*23
$GPRMB,A,-0.23,L,,OH,4817.5980,N,12238.5140,W,0.9,16,-5.93,V*39
$PGRME,3.5,M,6.7,M,7.6,M*28
$HCHDG,179.1,0.0,E,,*27
$YXXDR,A,6.1,D,PTCH,A,5.1,D,ROLL*5E
$HCHDG,178.8,0.0,E,,*2F
$GPRMC,172542.2,A,4816.77597,N,12238.85762,W,005.98,196.0,160713,016.8,E,A*21
$PGRME,3.5,M,6.6,M,7.5,M*2A
$HCHDG,178.9,0.0,E,,*2E
$HCHDG,179.0,0.0,E,,*26
$GPRMC,172542.4,A,4816.77579,N,12238.85785,W,005.99,195.5,160713,016.8,E,A*29
$PGRME,3.5,M,6.5,M,7.4,M*28
$HCHDG,179.0,0.0,E,,*26
$HCHDG,178.8,0.0,E,,*2F
$GPRMC,172542.6,A,4816.77555,N,12238.85807,W,005.96,195.6,160713,016.8,E,A*2C
$YXXDR,A,6.1,D,PTCH,A,5.3,D,ROLL*5C
$PTAK,FFD1,5.3*53
$PGRME,3.4,M,6.4,M,7.3,M*2F
$HCHDG,178.7,0.0,E,,*20
$HCHDG,178.7,0.0,E,,*20
$GPRMC,172542.8,A,4816.77526,N,12238.85823,W,005.90,195.6,160713,016.8,E,A*26
$PGRME,3.4,M,6.3,M,7.1,M*2A
$HCHDG,178.8,0.0,E,,*2F
$HCHDG,178.8,0.0,E,,*2F
$GPRMC,172543.0,A,4816.77487,N,12238.85830,W,006.02,196.0,160713,016.8,E,A*2A
$PGRME,3.4,M,6.2,M,7.0,M*2A
$HCHDG,178.8,0.0,E,,*2F
$YXXDR,A,5.8,D,PTCH,A,5.0,D,ROLL*55
$HCHDG,179.0,0.0,E,,*26
$GPRMC,172543.2,A,4816.77441,N,12238.85841,W,005.97,195.5,160713,016.8,E,A*2D
$GPRMB,A,-0.23,L,,OH,4817.5980,N,12238.5140,W,0.9,16,-5.97,V*3D
$PGRME,3.3,M,6.1,M,6.9,M*26
$HCHDG,178.9,0.0,E,,*2E
$HCHDG,178.8,0.0,E,,*2F
$GPRMC,172543.4,A,4816.77390,N,12238.85862,W,005.81,195.3,160713,016.8,E,A*20
$PGRME,3.3,M,6.0,M,6.8,M*26
$HCHDG,178.5,0.0,E,,*22
$HCHDG,178.5,0.0,E,,*22
$GPRMC,172543.6,A,4816.77356,N,12238.85876,W,005.94,195.0,160713,016.8,E,A*2A
$YXXDR,A,6.3,D,PTCH,A,5.1,D,ROLL*5C
$PGRME,3.3,M,5.9,M,6.8,M*2C
$HCHDG,178.7,0.0,E,,*20
$HCHDG,178.7,0.0,E,,*20
$GPRMC,172543.8,A,4816.77327,N,12238.85888,W,005.98,194.7,160713,016.8,E,A*29
$PGRME,3.3,M,5.8,M,6.7,M*22
$HCHDG,178.6,0.0,E,,*21
$HCHDG,178.6,0.0,E,,*21
$GPRMC,172544.0,A,4816.77310,N,12238.85902,W,006.15,195.4,160713,016.8,E,A*25
$PGRME,3.2,M,5.7,M,6.6,M*2D
$PGRMT,GPS 18x-5Hz software ver. 3.20,,,,,,,,*30
$HCHDG,178.5,0.0,E,,*22
$YXXDR,A,5.8,D,PTCH,A,4.5,D,ROLL*51
$PTAK,FFD1,4.5*54
$HCHDG,178.6,0.0,E,,*21
$GPRMC,172544.2,A,4816.77290,N,12238.85913,W,006.03,195.1,160713,016.8,E,A*2C
$GPRMB,A,-0.23,L,,OH,4817.5980,N,12238.5140,W,0.9,16,-6.03,V*33
$PGRME,3.2,M,5.7,M,6.5,M*2E
$HCHDG,178.5,0.0,E,,*22
$HCHDG,178.4,0.0,E,,*23
$GPRMC,172544.4,A,4816.77270,N,12238.85933,W,006.01,194.7,160713,016.8,E,A*23
$PGRME,3.2,M,5.6,M,6.5,M*2F
$HCHDG,178.5,0.0,E,,*22
$HCHDG,178.4,0.0,E,,*23
$GPRMC,172544.6,A,4816.77236,N,12238.85950,W,005.97,194.7,160713,016.8,E,A*2A
$PGRME,3.2,M,5.5,M,6.4,M*2D
$YXXDR,A,6.0,D,PTCH,A,4.2,D,ROLL*5D
$PTAK,FFP1,HEEL,@*07
$HCHDG,178.4,0.0,E,,*23
$HCHDG,178.5,0.0,E,,*22
$GPRMC,172544.8,A,4816.77207,N,12238.85971,W,005.97,194.9,160713,016.8,E,A*2B
$PGRME,3.2,M,5.5,M,6.3,M*2A
$HCHDG,178.4,0.0,E,,*23
$HCHDG,178.4,0.0,E,,*23
$GPRMC,172545.0,A,4816.77171,N,12238.85982,W,005.94,195.3,160713,016.8,E,A*24
$PGRME,3.2,M,5.4,M,6.3,M*2B
$HCHDG,178.3,0.0,E,,*24
$YXXDR,A,5.9,D,PTCH,A,3.7,D,ROLL*55
$HCHDG,178.3,0.0,E,,*24
$GPRMC,172545.2,A,4816.77138,N,12238.85987,W,005.93,194.9,160713,016.8,E,A*22
$GPRMB,A,-0.23,L,,OH,4817.5980,N,12238.5140,W,0.9,16,-5.93,V*39
$PGRME,3.1,M,5.3,M,6.2,M*2E
$HCHDG,178.4,0.0,E,,*23
$HCHDG,178.3,0.0,E,,*24
$GPRMC,172545.4,A,4816.77095,N,12238.86000,W,005.96,194.9,160713,016.8,E,A*22
$PGRME,3.1,M,5.3,M,6.1,M*2D
$HCHDG,178.3,0.0,E,,*24
$HCHDG,178.3,0.0,E,,*24
$GPRMC,172545.6,A,4816.77065,N,12238.86013,W,005.94,194.4,160713,016.8,E,A*22
$YXXDR,A,5.6,D,PTCH,A,3.7,D,ROLL*5A
$PTAK,FFD1,3.7*51
$PGRME,3.1,M,5.2,M,6.1,M*2C
$HCHDG,178.3,0.0,E,,*24
$HCHDG,178.2,0.0,E,,*25
$GPRMC,172545.8,A,4816.77038,N,12238.86020,W,005.87,194.5,160713,016.8,E,A*27
$PGRME,3.1,M,5.2,M,6.0,M*2D
$HCHDG,178.4,0.0,E,,*23
$HCHDG,178.4,0.0,E,,*23
$GPRMC,172546.0,A,4816.77012,N,12238.86030,W,005.85,194.9,160713,016.8,E,A*2B
$PGRME,3.1,M,5.1,M,6.0,M*2E
$HCHDG,178.4,0.0,E,,*23
$YXXDR,A,5.9,D,PTCH,A,3.6,D,ROLL*54
$HCHDG,178.8,0.0,E,,*2F
$GPRMC,172546.2,A,4816.76988,N,12238.86050,W,005.91,195.3,160713,016.8,E,A*2A
$GPRMB,A,-0.23,L,,OH,4817.5980,N,12238.5140,W,0.9,16,-5.91,V*3B
$PGRME,3.1,M,5.1,M,5.9,M*24
$HCHDG,178.8,0.0,E,,*2F
$HCHDG,178.8,0.0,E,,*2F
$GPRMC,172546.4,A,4816.76958,N,12238.86067,W,005.73,194.4,160713,016.8,E,A*2F
$PGRME,3.0,M,5.0,M,5.9,M*24
$HCHDG,178.9,0.0,E,,*2E
$HCHDG,178.9,0.0,E,,*2E
$GPRMC,172546.6,A,4816.76917,N,12238.86080,W,005.92,194.4,160713,016.8,E,A*20
$YXXDR,A,5.7,D,PTCH,A,4.2,D,ROLL*59
$PTAK,FFD1,4.2*53
$PGRME,3.0,M,5.0,M,5.8,M*25
$HCHDG,179.0,0.0,E,,*26
$HCHDG,179.0,0.0,E,,*26
$GPRMC,172546.8,A,4816.76891,N,12238.86092,W,005.89,194.5,160713,016.8,E,A*29
$PGRME,3.0,M,4.9,M,5.8,M*2D
$HCHDG,179.0,0.0,E,,*26
$HCHDG,179.4,0.0,E,,*22
$GPRMC,172547.0,A,4816.76848,N,12238.86099,W,006.00,195.6,160713,016.8,E,A*2F
$PGRME,3.0,M,4.9,M,5.8,M*2D
$HCHDG,179.3,0.0,E,,*25
$YXXDR,A,5.8,D,PTCH,A,3.5,D,ROLL*56
$HCHDG,179.6,0.0,E,,*20
$GPRMC,172547.2,A,4816.76805,N,12238.86110,W,005.82,196.6,160713,016.8,E,A*2E
$PGRME,3.0,M,4.8,M,5.7,M*23
$HCHDG,179.8,0.0,E,,*2E
$HCHDG,179.7,0.0,E,,*21
$GPRMC,172547.4,A,4816.76751,N,12238.86117,W,005.90,196.2,160713,016.8,E,A*26
$GPRMB,A,-0.23,L,,OH,4817.5980,N,12238.5140,W,0.9,16,-5.90,V*3A
$PGRME,3.0,M,4.8,M,5.7,M*23
$HCHDG,179.9,0.0,E,,*2F
$HCHDG,179.8,0.0,E,,*2E
$YXXDR,A,5.9,D,PTCH,A,2.7,D,ROLL*54
$PTAK,FFD1,2.7*50
$GPRMC,172547.6,A,4816.76718,N,12238.86129,W,005.94,195.5,160713,016.8,E,A*24
$PGRME,3.0,M,4.8,M,5.6,M*22
$HCHDG,179.8,0.0,E,,*2E
$HCHDG,179.8,0.0,E,,*2E
$GPRMC,172547.8,A,4816.76685,N,12238.86138,W,005.91,195.1,160713,016.8,E,A*2E
$PGRME,3.0,M,4.7,M,5.6,M*2D
$HCHDG,179.7,0.0,E,,*21
$HCHDG,179.8,0.0,E,,*2E
$GPRMC,172548.0,A,4816.76666,N,12238.86147,W,005.92,195.2,160713,016.8,E,A*2C
$PGRME,3.0,M,4.7,M,5.6,M*2D
$HCHDG,179.7,0.0,E,,*21
$YXXDR,A,6.0,D,PTCH,A,2.8,D,ROLL*51
$HCHDG,179.8,0.0,E,,*2E
$GPRMC,172548.2,A,4816.76634,N,12238.86156,W,005.99,195.5,160713,016.8,E,A*25
$PGRME,3.0,M,4.6,M,5.5,M*2F
$HCHDG,179.6,0.0,E,,*20
$HCHDG,179.8,0.0,E,,*2E
$GPRMC,172548.4,A,4816.76606,N,12238.86174,W,005.97,196.1,160713,016.8,E,A*2B
$PGRME,3.0,M,4.6,M,5.5,M*2F
$HCHDG,179.8,0.0,E,,*2E
$HCHDG,180.1,0.0,E,,*21
$GPRMC,172548.6,A,4816.76571,N,12238.86183,W,006.07,196.7,160713,016.8,E,A*2E
$GPRMB,A,-0.23,L,,OH,4817.5980,N,12238.5140,W,0.9,16,-6.07,V*37
$YXXDR,A,5.8,D,PTCH,A,1.9,D,ROLL*58
$PTAK,FFP1,HEEL,@*07
$PGRME,3.0,M,4.5,M,5.5,M*2C
$HCHDG,180.1,0.0,E,,*21
$HCHDG,180.4,0.0,E,,*24
$GPRMC,172548.8,A,4816.76533,N,12238.86192,W,005.78,196.3,160713,016.8,E,A*29
$PGRME,3.0,M,4.5,M,5.4,M*2D
$HCHDG,180.3,0.0,E,,*23
$HCHDG,180.3,0.0,E,,*23
$GPRMC,172549.0,A,4816.76485,N,12238.86197,W,006.03,195.5,160713,016.8,E,A*23
$PGRME,3.0,M,4.4,M,5.4,M*2C
$HCHDG,180.3,0.0,E,,*23
$YXXDR,A,5.5,D,PTCH,A,2.0,D,ROLL*5F
$PTAK,FFD1,2.0*57
$HCHDG,180.2,0.0,E,,*22
$GPRMC,172549.2,A,4816.76449,N,12238.86213,W,005.85,196.1,160713,016.8,E,A*24
$PGRME,3.0,M,4.4,M,5.3,M*2B
$HCHDG,180.3,0.0,E,,*23
$HCHDG,180.4,0.0,E,,*24
$GPRMC,172549.4,A,4816.76416,N,12238.86216,W,006.02,196.5,160713,016.8,E,A*25
$PGRME,3.0,M,4.4,M,5.3,M*2B
$HCHDG,180.4,0.0,E,,*24
$HCHDG,180.4,0.0,E,,*24
$GPRMC,172549.6,A,4816.76385,N,12238.86224,W,005.87,197.2,160713,016.8,E,A*23
$GPRMB,A,-0.23,L,,OH,4817.5980,N,12238.5140,W,0.9,16,-5.87,V*3C
$PGRME,3.0,M,4.3,M,5.3,M*2C
$YXXDR,A,5.9,D,PTCH,A,2.0,D,ROLL*53
$HCHDG,180.5,0.0,E,,*25
$HCHDG,180.7,0.0,E,,*27
$GPRMC,172549.8,A,4816.76345,N,12238.86244,W,006.04,197.6,160713,016.8,E,A*2B
$PGRME,3.0,M,4.3,M,5.3,M*2C
$HCHDG,180.7,0.0,E,,*27
$HCHDG,181.0,0.0,E,,*21
$GPRMC,172550.0,A,4816.76313,N,12238.86269,W,005.93,197.7,160713,016.8,E,A*2B
$PGRME,3.0,M,4.3,M,5.2,M*2D
$HCHDG,181.1,0.0,E,,*20
$YXXDR,A,5.6,D,PTCH,A,2.0,D,ROLL*5C
$HCHDG,181.1,0.0,E,,*20
$GPRMC,172550.2,A,4816.76268,N,12238.86282,W,005.96,198.1,160713,016.8,E,A*2D
$PGRME,3.0,M,4.2,M,5.2,M*2C
$HCHDG,181.0,0.0,E,,*21
$HCHDG,181.2,0.0,E,,*23
$GPRMC,172550.4,A,4816.76233,N,12238.86300,W,006.03,198.1,160713,016.8,E,A*21
$PGRME,3.0,M,4.1,M,5.1,M*2C
$HCHDG,181.1,0.0,E,,*20
$HCHDG,181.2,0.0,E,,*23
$GPRMC,172550.6,A,4816.76180,N,12238.86325,W,006.04,198.6,160713,016.8,E,A*2F
$YXXDR,A,6.0,D,PTCH,A,2.6,D,ROLL*5F
$PTAK,FFD1,2.6*51
$PGRME,3.0,M,4.1,M,5.1,M*2C
$HCHDG,181.2,0.0,E,,*23
$HCHDG,181.1,0.0,E,,*20
$GPRMC,172550.8,A,4816.76142,N,12238.86339,W,005.89,199.8,160713,016.8,E,A*2B
$GPRMB,A,-0.23,L,,OH,4817.5980,N,12238.5140,W,0.9,16,-5.87,V*3C
$PGRME,3.0,M,4.0,M,5.1,M*2D
$HCHDG,181.2,0.0,E,,*23
$HCHDG,181.1,0.0,E,,*20
$GPRMC,172551.0,A,4816.76089,N,12238.86356,W,006.02,198.5,160713,016.8,E,A*21
$PGRME,3.0,M,4.0,M,5.0,M*2C
$HCHDG,180.9,0.0,E,,*29
$YXXDR,A,5.8,D,PTCH,A,3.0,D,ROLL*53
$HCHDG,181.0,0.0,E,,*21
$GPRMC,172551.2,A,4816.76052,N,12238.86363,W,006.20,198.0,160713,016.8,E,A*26
$PGRME,3.0,M,3.9,M,5.0,M*22
$HCHDG,180.8,0.0,E,,*28
$HCHDG,180.7,0.0,E,,*27
$GPRMC,172551.4,A,4816.76020,N,12238.86365,W,005.96,199.0,160713,016.8,E,A*2C
$PGRME,3.0,M,3.9,M,4.9,M*2A
$HCHDG,180.4,0.0,E,,*24
$HCHDG,180.5,0.0,E,,*25
$GPRMC,172551.6,A,4816.75988,N,12238.86386,W,006.07,198.7,160713,016.8,E,A*26
$YXXDR,A,5.8,D,PTCH,A,3.6,D,ROLL*55
$PTAK,FFD1,3.6*50
$PGRME,3.0,M,3.8,M,4.9,M*2B
$HCHDG,180.5,0.0,E,,*25
$HCHDG,180.4,0.0,E,,*24
$GPRMC,172551.8,A,4816.75957,N,12238.86399,W,005.99,198.2,160713,016.8,E,A*25
$PGRME,3.0,M,3.8,M,4.9,M*2B
$HCHDG,180.4,0.0,E,,*24
$HCHDG,180.1,0.0,E,,*21
$GPRMC,172552.0,A,4816.75936,N,12238.86420,W,006.07,198.4,160713,016.8,E,A*2E
$GPRMB,A,-0.23,L,,OH,4817.5980,N,12238.5140,W,0.9,16,-6.06,V*36
$PGRME,3.0,M,3.7,M,4.8,M*25
$HCHDG,179.8,0.0,E,,*2E
$YXXDR,A,5.6,D,PTCH,A,4.0,D,ROLL*5A
$HCHDG,179.6,0.0,E,,*20
$GPRMC,172552.2,A,4816.75900,N,12238.86436,W,006.21,198.7,160713,016.8,E,A*29
$PGRME,3.0,M,3.7,M,4.8,M*25
$HCHDG,179.4,0.0,E,,*22
$HCHDG,179.5,0.0,E,,*23
$GPRMC,172552.4,A,4816.75859,N,12238.86460,W,006.08,197.2,160713,016.8,E,A*20
$PGRME,3.0,M,3.7,M,4.8,M*25
$HCHDG,179.3,0.0,E,,*25
$HCHDG,179.4,0.0,E,,*22
$GPRMC,172552.6,A,4816.75822,N,12238.86472,W,006.04,198.2,160713,016.8,E,A*2E
$YXXDR,A,5.7,D,PTCH,A,4.4,D,ROLL*5F
$PGRME,3.0,M,3.6,M,4.7,M*2B
$HCHDG,179.1,0.0,E,,*27
$HCHDG,178.8,0.0,E,,*2F
$GPRMC,172552.8,A,4816.75782,N,12238.86484,W,005.92,198.2,160713,016.8,E,A*20
$PGRME,3.0,M,3.6,M,4.7,M*2B
$HCHDG,179.0,0.0,E,,*26
$PTAK,FFP1,HEEL,@*07
$HCHDG,178.7,0.0,E,,*20
$GPRMC,172553.0,A,4816.75744,N,12238.86501,W,006.16,197.4,160713,016.8,E,A*29
$PGRME,3.0,M,3.5,M,4.7,M*28
$HCHDG,178.7,0.0,E,,*20
$YXXDR,A,5.6,D,PTCH,A,5.0,D,ROLL*5B
$PTAK,FFD1,5.0*50
$HCHDG,178.4,0.0,E,,*23
$GPRMC,172553.2,A,4816.75710,N,12238.86523,W,005.91,196.5,160713,016.8,E,A*26
$GPRMB,A,-0.23,L,,OH,4817.5980,N,12238.5140,W,0.9,16,-5.91,V*3B
$PGRME,3.0,M,3.5,M,4.7,M*28
$HCHDG,178.3,0.0,E,,*24
$HCHDG,178.1,0.0,E,,*26
$GPRMC,172553.4,A,4816.75676,N,12238.86545,W,006.17,196.8,160713,016.8,E,A*21
$PGRME,3.0,M,3.5,M,4.6,M*29
$HCHDG,177.9,0.0,E,,*21
$HCHDG,177.8,0.0,E,,*20
$GPRMC,172553.6,A,4816.75656,N,12238.86564,W,006.10,196.3,160713,016.8,E,A*2E
$YXXDR,A,5.9,D,PTCH,A,5.4,D,ROLL*50
$PGRME,3.0,M,3.4,M,4.6,M*28
$HCHDG,177.6,0.0,E,,*2E
$HCHDG,177.5,0.0,E,,*2D
$GPRMC,172553.8,A,4816.75629,N,12238.86579,W,006.04,195.7,160713,016.8,E,A*26
$PGRME,3.0,M,3.4,M,4.6,M*28
$HCHDG,177.3,0.0,E,,*2B
$HCHDG,177.0,0.0,E,,*28
$GPRMC,172554.0,A,4816.75603,N,12238.86601,W,006.09,195.7,160713,016.8,E,A*20
$PGRME,3.0,M,3.4,M,4.6,M*28
$HCHDG,177.2,0.0,E,,*2A
$YXXDR,A,5.9,D,PTCH,A,5.6,D,ROLL*52
$HCHDG,177.0,0.0,E,,*28
$GPRMC,172554.2,A,4816.75575,N,12238.86623,W,005.89,195.8,160713,016.8,E,A*24
$PGRME,3.0,M,3.3,M,4.5,M*2C
$HCHDG,177.1,0.0,E,,*29
$HCHDG,176.7,0.0,E,,*2E
$GPRMC,172554.4,A,4816.75551,N,12238.86638,W,006.09,195.7,160713,016.8,E,A*2A
$GPRMB,A,-0.23,L,,OH,4817.5980,N,12238.5140,W,0.9,16,-6.09,V*39
$PGRME,3.0,M,3.2,M,4.4,M*2C
$HCHDG,176.7,0.0,E,,*2E
$HCHDG,176.6,0.0,E,,*2F
$GPRMC,172554.6,A,4816.75515,N,12238.86659,W,006.14,194.9,160713,016.8,E,A*2C
$YXXDR,A,5.9,D,PTCH,A,5.6,D,ROLL*52
$PTAK,FFD1,5.6*56
$PGRME,3.0,M,3.2,M,4.4,M*2C
$HCHDG,176.5,0.0,E,,*2C
$HCHDG,176.5,0.0,E,,*2C
$GPRMC,172554.8,A,4816.75485,N,12238.86671,W,006.15,195.2,160713,016.8,E,A*2B
$PGRME,3.0,M,3.2,M,4.4,M*2C
$HCHDG,176.4,0.0,E,,*2D
$HCHDG,176.1,0.0,E,,*28
$GPRMC,172555.0,A,4816.75453,N,12238.86688,W,006.04,195.4,160713,016.8,E,A*29
$PGRME,3.0,M,3.1,M,4.4,M*2F
$HCHDG,176.0,0.0,E,,*29
$YXXDR,A,5.6,D,PTCH,A,5.3,D,ROLL*58
$HCHDG,176.0,0.0,E,,*29
$GPRMC,172555.2,A,4816.75431,N,12238.86705,W,005.98,192.9,160713,016.8,E,A*27
$PGRME,3.0,M,3.1,M,4.3,M*28
$HCHDG,175.9,0.0,E,,*23
$HCHDG,175.7,0.0,E,,*2D
$GPRMC,172555.4,A,4816.75397,N,12238.86724,W,006.21,194.4,160713,016.8,E,A*23
$GPRMB,A,-0.24,L,,OH,4817.5980,N,12238.5140,W,0.9,16,-6.21,V*34
$PGRME,3.0,M,3.1,M,4.3,M*28
$HCHDG,175.7,0.0,E,,*2D
$HCHDG,175.5,0.0,E,,*2F
$GPRMC,172555.6,A,4816.75379,N,12238.86742,W,006.00,194.1,160713,016.8,E,A*27
$YXXDR,A,5.9,D,PTCH,A,5.2,D,ROLL*56
$PTAK,FFD1,5.2*52
$PGRME,3.0,M,3.0,M,4.3,M*29
$HCHDG,175.4,0.0,E,,*2E
$HCHDG,175.6,0.0,E,,*2C
$GPRMC,172555.8,A,4816.75356,N,12238.86758,W,005.97,194.1,160713,016.8,E,A*22
$PGRME,3.0,M,3.0,M,4.3,M*29
$HCHDG,175.4,0.0,E,,*2E
$HCHDG,175.2,0.0,E,,*28
$GPRMC,172556.0,A,4816.75330,N,12238.86764,W,006.10,192.6,160713,016.8,E,A*2B
$PGRME,3.0,M,3.0,M,4.3,M*29
$HCHDG,175.2,0.0,E,,*28
$YXXDR,A,6.0,D,PTCH,A,4.9,D,ROLL*56
$HCHDG,175.0,0.0,E,,*2A
$GPRMC,172556.2,A,4816.75297,N,12238.86769,W,006.11,193.0,160713,016.8,E,A*2E
$PGRME,3.0,M,3.0,M,4.3,M*29
$HCHDG,174.8,0.0,E,,*23
$HCHDG,174.7,0.0,E,,*2C
$GPRMC,172556.4,A,4816.75262,N,12238.86780,W,006.00,193.2,160713,016.8,E,A*27
$GPRMB,A,-0.24,L,,OH,4817.5980,N,12238.5140,W,0.9,16,-5.99,V*34
$PGRME,3.0,M,3.0,M,4.3,M*29
$HCHDG,174.5,0.0,E,,*2E
$HCHDG,174.4,0.0,E,,*2F
$GPRMC,172556.6,A,4816.75237,N,12238.86791,W,005.79,193.5,160713,016.8,E,A*2F
$PGRME,3.0,M,3.0,M,4.3,M*29
$YXXDR,A,6.0,D,PTCH,A,4.8,D,ROLL*57
$PTAK,FFD1,4.8*59
$HCHDG,174.6,0.0,E,,*2D
$HCHDG,174.5,0.0,E,,*2E
$GPRMC,172556.8,A,4816.75202,N,12238.86807,W,006.13,193.1,160713,016.8,E,A*2C
$PGRME,3.0,M,3.0,M,4.3,M*29
$HCHDG,174.3,0.0,E,,*28
$PTAK,FFP1,HEEL,@*07
$HCHDG,174.5,0.0,E,,*2E
$GPRMC,172557.0,A,4816.75174,N,12238.86816,W,006.14,193.7,160713,016.8,E,A*26
$PGRME,3.0,M,3.0,M,4.3,M*29
$HCHDG,174.3,0.0,E,,*28
$YXXDR,A,5.8,D,PTCH,A,4.5,D,ROLL*51
$HCHDG,174.2,0.0,E,,*29
$GPRMC,172557.2,A,4816.75152,N,12238.86831,W,006.00,192.9,160713,016.8,E,A*2F
$PGRME,3.0,M,3.0,M,4.3,M*29
$HCHDG,174.2,0.0,E,,*29
$HCHDG,174.0,0.0,E,,*2B
$GPRMC,172557.4,A,4816.75136,N,12238.86839,W,006.13,191.9,160713,016.8,E,A*22
$PGRME,3.0,M,3.0,M,4.3,M*29
$HCHDG,173.9,0.0,E,,*25
$HCHDG,173.7,0.0,E,,*2B
$GPRMC,172557.6,A,4816.75105,N,12238.86849,W,005.98,192.9,160713,016.8,E,A*24
$GPRMB,A,-0.24,L,,OH,4817.5980,N,12238.5140,W,0.9,16,-5.97,V*3A
$YXXDR,A,6.0,D,PTCH,A,5.0,D,ROLL*5E
$PTAK,FFD1,5.0*50
$PGRME,3.0,M,3.0,M,4.3,M*29
$HCHDG,173.8,0.0,E,,*24
$HCHDG,173.6,0.0,E,,*2A
$GPRMC,172557.8,A,4816.75071,N,12238.86849,W,006.02,192.7,160713,016.8,E,A*26
$PGRME,3.0,M,3.0,M,4.3,M*29
$HCHDG,173.6,0.0,E,,*2A
$HCHDG,173.5,0.0,E,,*29
$GPRMC,172558.0,A,4816.75043,N,12238.86860,W,005.90,192.7,160713,016.8,E,A*23
$PGRME,3.0,M,3.0,M,4.3,M*29
$HCHDG,173.3,0.0,E,,*2F
$YXXDR,A,5.8,D,PTCH,A,5.0,D,ROLL*55
$HCHDG,173.1,0.0,E,,*2D
$GPRMC,172558.2,A,4816.75016,N,12238.86866,W,005.96,192.0,160713,016.8,E,A*26
$PGRME,3.0,M,3.0,M,4.3,M*29
$HCHDG,172.9,0.0,E,,*24
$HCHDG,172.9,0.0,E,,*24
$GPRMC,172558.4,A,4816.74995,N,12238.86883,W,006.15,192.4,160713,016.8,E,A*24
$PGRME,3.0,M,3.0,M,4.3,M*29
$HCHDG,172.8,0.0,E,,*25
$IIVWR,126,L,03.7,N,,,,*7E
$HCHDG,172.7,0.0,E,,*2A
$IIMWV,234,R,03.7,N,A*12
$GPRMC,172558.6,A,4816.74962,N,12238.86898,W,006.10,191.9,160713,016.8,E,A*2F
$GPRMB,A,-0.24,L,,OH,4817.5980,N,12238.5140,W,0.9,16,-6.09,V*3E
$YXXDR,A,5.9,D,PTCH,A,5.0,D,ROLL*54
$PTAK,FFD1,5.0*50
$PGRME,3.0,M,3.0,M,4.3,M*29
$IIRMB,A,,,,OH  ,,,,,000.9,016,,V,A*1C
$HCHDG,172.7,0.0,E,,*2A
$HCHDG,172.7,0.0,E,,*2A
$GPRMC,172558.8,A,4816.74932,N,12238.86915,W,006.02,191.0,160713,016.8,E,A*2A
$PGRME,3.0,M,3.0,M,4.3,M*29
$HCHDG,172.3,0.0,E,,*2E
$HCHDG,172.2,0.0,E,,*2F
$GPRMC,172559.0,A,4816.74900,N,12238.86933,W,006.08,190.4,160713,016.8,E,A*29
$PGRME,3.0,M,3.0,M,4.3,M*29
$HCHDG,171.8,0.0,E,,*26
$YXXDR,A,5.7,D,PTCH,A,5.5,D,ROLL*5F
$HCHDG,171.8,0.0,E,,*26
$GPRMC,172559.2,A,4816.74875,N,12238.86943,W,006.00,190.8,160713,016.8,E,A*2B
$PGRME,3.0,M,3.0,M,4.3,M*29
$HCHDG,171.5,0.0,E,,*2B
$HCHDG,171.5,0.0,E,,*2B
$GPRMC,172559.4,A,4816.74852,N,12238.86951,W,006.08,190.3,160713,016.8,E,A*28
$PGRME,3.0,M,3.0,M,4.3,M*29
$HCHDG,171.3,0.0,E,,*2D
$IIVWR,067,R,08.1,N,,,,*69
$HCHDG,171.4,0.0,E,,*2A
$GPRMC,172559.6,A,4816.74823,N,12238.86960,W,005.98,189.6,160713,016.8,E,A*29
$YXXDR,A,6.0,D,PTCH,A,5.4,D,ROLL*5A
$PGRME,3.0,M,3.0,M,4.3,M*29
$IIGLL,4816.749,N,12238.868,W,172500,A,A*4E
$IIMTW,+00.0,C*38
$HCHDG,171.0,0.0,E,,*2E
$IIMWV,067,R,08.1,N,A*1B
$HCHDG,171.0,0.0,E,,*2E
$IIRMB,A,,,,OH  ,,,,,000.9,016,,V,A*1C
$GPRMC,172559.8,A,4816.74801,N,12238.86969,W,006.03,189.4,160713,016.8,E,A*2D
$GPRMB,A,-0.24,L,,OH,4817.5980,N,12238.5140,W,0.9,16,-6.00,V*37
$PGRME,3.0,M,3.0,M,4.3,M*29
$HCHDG,170.7,0.0,E,,*28
$HCHDG,170.7,0.0,E,,*28
$IIRMC,172500,A,4816.749,N,12238.868,W,06.1,192,160713,16,E,A*1A
$IIVHW,,,,,01.2,N,,*1A
$GPRMC,172600.0,A,4816.74775,N,12238.86976,W,006.16,189.9,160713,016.8,E,A*21
$PGRME,3.0,M,3.0,M,4.3,M*29
$HCHDG,170.7,0.0,E,,*28
$IIVLW,01856,N,000.0,N*59
$YXXDR,A,5.9,D,PTCH,A,6.0,D,ROLL*57
$PTAK,FFD1,6.0*53
$HCHDG,170.6,0.0,E,,*29
$GPRMC,172600.2,A,4816.74750,N,12238.86986,W,006.02,190.6,160713,016.8,E,A*29
$PGRME,3.0,M,3.0,M,4.3,M*29
$HCHDG,170.6,0.0,E,,*29
$HCHDG,170.6,0.0,E,,*29
$GPRMC,172600.4,A,4816.74730,N,12238.87003,W,006.12,189.5,160713,016.8,E,A*26
$PGRME,3.0,M,3.0,M,4.3,M*29
$HCHDG,170.5,0.0,E,,*2A
$IIVWR,062,R,09.0,N,,,,*6C
$HCHDG,170.1,0.0,E,,*2E
$GPRMC,172600.6,A,4816.74699,N,12238.87009,W,006.43,189.5,160713,016.8,E,A*28
$YXXDR,A,5.6,D,PTCH,A,6.2,D,ROLL*5A
$PGRME,3.0,M,3.0,M,4.3,M*29
$IIGLL,4816.748,N,12238.869,W,172500,A,A*4E
$IIMTW,+15.0,C*3C
$HCHDG,169.8,0.0,E,,*2F
$IIMWV,062,R,09.0,N,A*1E
$HCHDG,169.9,0.0,E,,*2E
$IIMWV,075,T,07.6,N,A*16
$GPRMC,172600.8,A,4816.74663,N,12238.87022,W,005.86,188.6,160713,016.8,E,A*22
$PGRME,3.0,M,3.0,M,4.3,M*29
$HCHDG,169.6,0.0,E,,*21
$PTAK,FFP1,HEEL,@*07
$IIRMB,A,,,,OH  ,,,,,000.9,016,,V,A*1C
$HCHDG,169.5,0.0,E,,*22
$IIRMC,172500,A,4816.748,N,12238.869,W,05.9,189,160713,16,E,A*1B
$GPRMC,172601.0,A,4816.74631,N,12238.87027,W,006.29,188.3,160713,016.8,E,A*2A
$GPRMB,A,-0.24,L,,OH,4817.5980,N,12238.5140,W,0.9,16,-6.24,V*31
$PGRME,3.0,M,3.0,M,4.3,M*29
$HCHDG,169.7,0.0,E,,*20
$IIVHW,,,,,02.7,N,,*1C
$YXXDR,A,6.1,D,PTCH,A,6.9,D,ROLL*55
$PTAK,FFD1,6.9*5A
$HCHDG,169.4,0.0,E,,*23
$GPRMC,172601.2,A,4816.74596,N,12238.87029,W,006.10,187.1,160713,016.8,E,A*2F
$PGRME,3.0,M,3.0,M,4.3,M*29
$HCHDG,169.0,0.0,E,,*27
$HCHDG,168.9,0.0,E,,*2F
$GPRMC,172601.4,A,4816.74559,N,12238.87035,W,006.06,186.9,160713,016.8,E,A*29
$PGRME,3.0,M,3.0,M,4.3,M*29
$HCHDG,168.8,0.0,E,,*2E
$IIVLW,01856,N,000.0,N*59
$HCHDG,168.7,0.0,E,,*21
$IIVWR,066,R,10.0,N,,,,*60
$GPRMC,172601.6,A,4816.74527,N,12238.87049,W,005.93,188.0,160713,016.8,E,A*21
$YXXDR,A,6.1,D,PTCH,A,7.4,D,ROLL*59
$PGRME,3.0,M,3.0,M,4.3,M*29
$HCHDG,168.6,0.0,E,,*20
$IIGLL,4816.746,N,12238.870,W,172600,A,A*4B
$IIMTW,+15.0,C*3C
$HCHDG,168.6,0.0,E,,*20
$IIMWV,066,R,10.0,N,A*12
$GPRMC,172601.8,A,4816.74492,N,12238.87062,W,005.99,186.2,160713,016.8,E,A*2F
$PGRME,3.0,M,3.0,M,4.3,M*29
$IIMWV,080,T,08.0,N,A*15
$HCHDG,168.4,0.0,E,,*22
$IIRMB,A,,,,OH  ,,,,,000.9,016,,V,A*1C
$HCHDG,168.5,0.0,E,,*23
$GPRMC,172602.0,A,4816.74453,N,12238.87070,W,006.16,186.8,160713,016.8,E,A*24
$PGRME,3.0,M,3.0,M,4.3,M*29
$HCHDG,168.2,0.0,E,,*24
$IIRMC,172600,A,4816.746,N,12238.870,W,06.4,189,160713,16,E,A*10
$YXXDR,A,5.6,D,PTCH,A,7.4,D,ROLL*5D
$HCHDG,168.1,0.0,E,,*27
$GPRMC,172602.2,A,4816.74413,N,12238.87083,W,005.97,185.9,160713,016.8,E,A*26
$GPRMB,A,-0.24,L,,OH,4817.5980,N,12238.5140,W,0.9,16,-5.89,V*35
$PGRME,3.0,M,3.0,M,4.3,M*29
$HCHDG,167.9,0.0,E,,*20
$HCHDG,167.9,0.0,E,,*20
$GPRMC,172602.4,A,4816.74380,N,12238.87087,W,006.01,185.5,160713,016.8,E,A*29
$PGRME,3.0,M,3.0,M,4.3,M*29
$HCHDG,167.8,0.0,E,,*21
$IIVHW,,,,,05.7,N,,*1B
$HCHDG,167.8,0.0,E,,*21
$IIVLW,01856,N,000.0,N*59
$GPRMC,172602.6,A,4816.74350,N,12238.87094,W,006.05,185.7,160713,016.8,E,A*22
$YXXDR,A,6.3,D,PTCH,A,7.6,D,ROLL*59
$PTAK,FFD1,7.6*54
$PGRME,3.0,M,3.0,M,4.3,M*29
$IIVWR,066,R,09.8,N,,,,*60
$HCHDG,167.5,0.0,E,,*2C
$IIDPT,005.2,-1.0,*47
$HCHDG,167.5,0.0,E,,*2C
$IIGLL,4816.746,N,12238.870,W,172600,A,A*4B
$GPRMC,172602.8,A,4816.74319,N,12238.87095,W,006.05,185.9,160713,016.8,E,A*2E
$IIMTW,+15.0,C*3C
$PGRME,3.0,M,3.0,M,4.3,M*29
$HCHDG,167.5,0.0,E,,*2C
$IIMWV,066,R,09.8,N,A*12
$IIMWV,092,T,09.1,N,A*16
$HCHDG,167.4,0.0,E,,*2D
$IIRMB,A,,,,OH  ,,,,,000.9,016,,V,A*1C
$GPRMC,172603.0,A,4816.74288,N,12238.87099,W,006.01,186.0,160713,016.8,E,A*2C
$PGRME,3.0,M,3.0,M,4.3,M*29
$HCHDG,167.3,0.0,E,,*2A
$YXXDR,A,5.7,D,PTCH,A,7.3,D,ROLL*5B
$HCHDG,167.2,0.0,E,,*2B
$GPRMC,172603.2,A,4816.74258,N,12238.87101,W,006.02,185.4,160713,016.8,E,A*27
$GPRMB,A,-0.24,L,,OH,4817.5980,N,12238.5140,W,0.9,16,-5.93,V*3E
$PGRME,3.0,M,3.0,M,4.3,M*29
$HCHDG,167.2,0.0,E,,*2B
$HCHDG,167.0,0.0,E,,*29
$GPRMC,172603.4,A,4816.74226,N,12238.87110,W,005.95,184.1,160713,016.8,E,A*21
$PGRME,3.0,M,3.0,M,4.3,M*29
$HCHDG,166.9,0.0,E,,*21
$HCHDG,166.5,0.0,E,,*2D
$GPRMC,172603.6,A,4816.74193,N,12238.87108,W,005.99,183.9,160713,016.8,E,A*24
$IIRMC,172600,A,4816.743,N,12238.870,W,06.0,185,160713,16,E,A*1D
$PGRME,3.0,M,3.0,M,4.3,M*29
$YXXDR,A,5.6,D,PTCH,A,7.1,D,ROLL*58
$IIVHW,,,,,05.8,N,,*14
$HCHDG,166.4,0.0,E,,*2C
$IIVLW,01856,N,000.0,N*59
$HCHDG,166.5,0.0,E,,*2D
$IIVWR,067,R,09.6,N,,,,*6F
$GPRMC,172603.8,A,4816.74157,N,12238.87120,W,005.97,185.2,160713,016.8,E,A*2B
$PGRME,3.0,M,3.0,M,4.3,M*29
$IIDPT,005.2,-1.0,*47
$HCHDG,166.4,0.0,E,,*2C
$IIGLL,4816.743,N,12238.870,W,172600,A,A*4E
$HCHDG,166.2,0.0,E,,*2A
$IIMTW,+15.0,C*3C
$IIMWV,067,R,09.6,N,A*1D
$GPRMC,172604.0,A,4816.74130,N,12238.87115,W,005.94,184.0,160713,016.8,E,A*23
$PGRME,3.0,M,3.0,M,4.3,M*29
$HCHDG,166.3,0.0,E,,*2B
$IIMWV,101,T,09.0,N,A*1C
$YXXDR,A,5.5,D,PTCH,A,6.6,D,ROLL*5D
$PTAK,FFD1,6.6*55
$HCHDG,166.1,0.0,E,,*29
$GPRMC,172604.2,A,4816.74099,N,12238.87120,W,005.69,183.5,160713,016.8,E,A*25
$PGRME,3.0,M,3.0,M,4.3,M*29
$HCHDG,165.9,0.0,E,,*22
$HCHDG,165.9,0.0,E,,*22
$GPRMC,172604.4,A,4816.74064,N,12238.87121,W,005.99,183.8,160713,016.8,E,A*22
$GPRMB,A,-0.24,L,,OH,4817.5980,N,12238.5140,W,0.9,15,-5.87,V*38
$PGRME,3.0,M,3.0,M,4.3,M*29
$HCHDG,166.1,0.0,E,,*29
$HCHDG,166.0,0.0,E,,*28
$IIRMB,A,,,,OH  ,,,,,000.9,016,,V,A*1C
$GPRMC,172604.6,A,4816.74030,N,12238.87126,W,005.99,182.3,160713,016.8,E,A*2C
$YXXDR,A,5.9,D,PTCH,A,6.6,D,ROLL*51
$PGRME,3.0,M,3.0,M,4.3,M*29
$HCHDG,165.7,0.0,E,,*2C
$IIRMC,172600,A,4816.741,N,12238.871,W,05.9,185,160713,16,E,A*14
$HCHDG,165.8,0.0,E,,*23
$IIVHW,,,,,05.4,N,,*18
$IIVLW,01856,N,000.0,N*59
$GPRMC,172604.8,A,4816.73996,N,12238.87128,W,006.28,183.1,160713,016.8,E,A*24
$PGRME,3.0,M,3.0,M,4.3,M*29
$HCHDG,165.7,0.0,E,,*2C
$PTAK,FFP1,HEEL,@*07
$IIVWR,072,R,10.0,N,,,,*65
$IIDPT,005.2,-1.0,*47
$HCHDG,165.6,0.0,E,,*2D
$IIGLL,4816.741,N,12238.871,W,172600,A,A*4D
$GPRMC,172605.0,A,4816.73960,N,12238.87129,W,006.22,182.3,160713,016.8,E,A*2C
$PGRME,3.0,M,3.0,M,4.3,M*29
$HCHDG,165.5,0.0,E,,*2E
$IIMTW,+15.0,C*3C
$IIMWV,072,R,10.0,N,A*17
$YXXDR,A,6.1,D,PTCH,A,7.0,D,ROLL*5D
$PTAK,FFD1,7.0*52
$HCHDG,165.1,0.0,E,,*2A
$GPRMC,172605.2,A,4816.73936,N,12238.87126,W,006.04,181.8,160713,016.8,E,A*2E
$PGRME,3.0,M,3.0,M,4.3,M*29
$HCHDG,165.3,0.0,E,,*28
$HCHDG,165.2,0.0,E,,*29
$GPRMC,172605.4,A,4816.73908,N,12238.87125,W,006.05,182.3,160713,016.8,E,A*2F
$GPRMB,A,-0.24,L,,OH,4817.5980,N,12238.5140,W,0.9,15,-5.89,V*36
$PGRME,3.0,M,3.0,M,4.3,M*29
$HCHDG,165.1,0.0,E,,*2A
$IIMWV,104,T,09.7,N,A*1E
$HCHDG,165.0,0.0,E,,*2B
$IIRMB,A,,,,OH  ,,,,,000.9,015,,V,A*1F
$GPRMC,172605.6,A,4816.73883,N,12238.87122,W,006.05,182.0,160713,016.8,E,A*2B
$PGRME,3.0,M,3.0,M,4.3,M*29
$YXXDR,A,5.7,D,PTCH,A,6.7,D,ROLL*5E
$HCHDG,164.9,0.0,E,,*23
$HCHDG,164.9,0.0,E,,*23
$IIRMC,172600,A,4816.739,N,12238.871,W,06.2,183,160713,16,E,A*15
$IIVHW,,,,,05.3,N,,*1F
$GPRMC,172605.8,A,4816.73849,N,12238.87119,W,006.11,180.7,160713,016.8,E,A*2B
$PGRME,3.0,M,3.0,M,4.3,M*29
$HCHDG,164.8,0.0,E,,*22
$IIVLW,01856,N,000.0,N*59
$IIVWR,073,R,10.7,N,,,,*63
$HCHDG,164.6,0.0,E,,*2C
$IIDPT,005.2,-1.0,*47
$GPRMC,172606.0,A,4816.73812,N,12238.87114,W,006.12,181.5,160713,016.8,E,A*23
$PGRME,3.0,M,3.0,M,4.3,M*29
$HCHDG,164.7,0.0,E,,*2D
$IIGLL,4816.739,N,12238.871,W,172600,A,A*42
$IIMTW,+15.0,C*3C
$YXXDR,A,5.9,D,PTCH,A,6.4,D,ROLL*53
$HCHDG,164.7,0.0,E,,*2D
$GPRMC,172606.2,A,4816.73781,N,12238.87118,W,006.04,181.1,160713,016.8,E,A*2B
$PGRME,3.0,M,3.0,M,4.3,M*29
$HCHDG,164.6,0.0,E,,*2C
$HCHDG,164.6,0.0,E,,*2C
$GPRMC,172606.4,A,4816.73745,N,12238.87123,W,006.10,181.3,160713,016.8,E,A*2A
$PGRME,3.0,M,3.0,M,4.3,M*29
$HCHDG,164.7,0.0,E,,*2D
$IIMWV,070,R,10.5,N,A*10
$HCHDG,164.6,0.0,E,,*2C
$IIMWV,103,T,10.4,N,A*12
$GPRMC,172606.6,A,4816.73712,N,12238.87115,W,006.09,180.1,160713,016.8,E,A*24
$GPRMB,A,-0.24,L,,OH,4817.5980,N,12238.5140,W,0.9,15,-5.87,V*38
$YXXDR,A,6.0,D,PTCH,A,5.9,D,ROLL*57
$PTAK,FFD1,5.9*59
$PGRME,3.0,M,3.0,M,4.3,M*29
$IIRMB,A,,,,OH  ,,,,,000.9,015,,V,A*1F
$HCHDG,164.6,0.0,E,,*2C
$HCHDG,164.4,0.0,E,,*2E
$IIRMC,172600,A,4816.738,N,12238.871,W,06.1,180,160713,16,E,A*14
$GPRMC,172606.8,A,4816.73691,N,12238.87118,W,006.09,180.6,160713,016.8,E,A*2A
$PGRME,3.0,M,3.0,M,4.3,M*29
$HCHDG,164.6,0.0,E,,*2C
$IIVHW,,,,,04.9,N,,*14
$IIVLW,01856,N,000.0,N*59
$HCHDG,164.5,0.0,E,,*2F
$IIVWR,070,R,10.5,N,,,,*62
$GPRMC,172607.0,A,4816.73665,N,12238.87128,W,006.09,179.7,160713,016.8,E,A*2C
$IIDPT,005.2,-1.0,*47
$PGRME,3.0,M,3.0,M,4.3,M*29
$HCHDG,164.7,0.0,E,,*2D
$YXXDR,A,6.1,D,PTCH,A,5.5,D,ROLL*5A
$HCHDG,165.0,0.0,E,,*2B
$GPRMC,172607.2,A,4816.73629,N,12238.87135,W,006.10,181.4,160713,016.8,E,A*26
$PGRME,3.0,M,3.0,M,4.3,M*29
$HCHDG,164.9,0.0,E,,*23
$HCHDG,165.0,0.0,E,,*2B
$GPRMC,172607.4,A,4816.73582,N,12238.87139,W,006.12,180.3,160713,016.8,E,A*2A
$PGRME,3.0,M,3.0,M,4.3,M*29
$HCHDG,165.1,0.0,E,,*2A
$HCHDG,165.2,0.0,E,,*29
$IIGLL,4816.736,N,12238.871,W,172600,A,A*4D
$IIMTW,+15.0,C*3C
$GPRMC,172607.6,A,4816.73538,N,12238.87134,W,006.13,180.6,160713,016.8,E,A*20
$GPRMB,A,-0.24,L,,OH,4817.5980,N,12238.5140,W,0.9,15,-5.93,V*3D
$YXXDR,A,6.0,D,PTCH,A,4.3,D,ROLL*5C
$PTAK,FFD1,4.3*52
$PGRME,3.0,M,3.0,M,4.3,M*29
$IIMWV,071,R,10.0,N,A*14
$HCHDG,165.3,0.0,E,,*28
$IIMWV,099,T,09.9,N,A*15
$HCHDG,165.5,0.0,E,,*2E
$IIRMB,A,,,,OH  ,,,,,000.9,015,,V,A*1F
$GPRMC,172607.8,A,4816.73507,N,12238.87125,W,006.14,181.1,160713,016.8,E,A*23
$PGRME,3.0,M,3.0,M,4.3,M*29
$HCHDG,165.6,0.0,E,,*2D
$IIRMC,172600,A,4816.736,N,12238.871,W,06.0,180,160713,16,E,A*1B
$HCHDG,165.5,0.0,E,,*2E
$IIVHW,,,,,04.9,N,,*14
$GPRMC,172608.0,A,4816.73474,N,12238.87122,W,006.12,180.6,160713,016.8,E,A*26
$PGRME,3.0,M,3.0,M,4.3,M*29
$IIVLW,01856,N,000.0,N*59
$HCHDG,165.4,0.0,E,,*2F
$YXXDR,A,6.1,D,PTCH,A,4.0,D,ROLL*5E
$HCHDG,165.4,0.0,E,,*2F
$GPRMC,172608.2,A,4816.73439,N,12238.87114,W,006.11,181.4,160713,016.8,E,A*28
$PGRME,3.0,M,3.0,M,4.3,M*29
$HCHDG,165.3,0.0,E,,*28
$HCHDG,165.7,0.0,E,,*2C
$GPRMC,172608.4,A,4816.73411,N,12238.87123,W,006.12,180.7,160713,016.8,E,A*21
$PGRME,3.0,M,3.0,M,4.3,M*29
$HCHDG,165.5,0.0,E,,*2E
$IIVWR,074,R,09.2,N,,,,*69
$HCHDG,165.6,0.0,E,,*2D
$IIDPT,005.2,-1.0,*47
$GPRMC,172608.6,A,4816.73374,N,12238.87135,W,006.13,180.5,160713,016.8,E,A*23
$YXXDR,A,6.2,D,PTCH,A,3.6,D,ROLL*5C
$PGRME,3.0,M,3.0,M,4.3,M*29
$HCHDG,165.7,0.0,E,,*2C
$IIGLL,4816.735,N,12238.871,W,172600,A,A*4E
$IIMTW,+15.0,C*3C
$HCHDG,165.5,0.0,E,,*2E
$IIMWV,074,R,09.2,N,A*1B
$GPRMC,172608.8,A,4816.73349,N,12238.87141,W,006.14,180.6,160713,016.8,E,A*24
$GPRMB,A,-0.24,L,,OH,4817.5980,N,12238.5140,W,0.9,15,-5.94,V*3A
$PGRME,3.0,M,3.0,M,4.3,M*29
$IIMWV,099,T,09.6,N,A*1A
$HCHDG,165.4,0.0,E,,*2F
$PTAK,FFP1,HEEL,@*07
$IIRMB,A,,,,OH  ,,,,,000.9,015,,V,A*1F
$HCHDG,165.5,0.0,E,,*2E
$GPRMC,172609.0,A,4816.73328,N,12238.87144,W,006.15,180.6,160713,016.8,E,A*2E
$PGRME,3.0,M,3.0,M,4.3,M*29
$HCHDG,165.3,0.0,E,,*28
$IIRMC,172600,A,4816.735,N,12238.871,W,06.1,181,160713,16,E,A*18
$YXXDR,A,5.8,D,PTCH,A,4.1,D,ROLL*55
$PTAK,FFD1,4.1*50
$HCHDG,165.5,0.0,E,,*2E
$GPRMC,172609.2,A,4816.73303,N,12238.87134,W,006.12,181.5,160713,016.8,E,A*27
$PGRME,3.0,M,3.0,M,4.3,M*29
$HCHDG,165.7,0.0,E,,*2C
$HCHDG,165.8,0.0,E,,*23
$GPRMC,172609.4,A,4816.73278,N,12238.87127,W,006.10,181.3,160713,016.8,E,A*2A
$PGRME,3.0,M,3.0,M,4.3,M*29
$HCHDG,166.0,0.0,E,,*28
$IIVHW,,,,,03.9,N,,*13
$HCHDG,165.9,0.0,E,,*22
$IIVLW,01856,N,000.0,N*59
$GPRMC,172609.6,A,4816.73232,N,12238.87124,W,006.13,181.6,160713,016.8,E,A*23
$YXXDR,A,5.5,D,PTCH,A,3.4,D,ROLL*5A
$PGRME,3.0,M,3.0,M,4.3,M*29
$IIVWR,078,R,09.4,N,,,,*63
$HCHDG,165.9,0.0,E,,*22
$IIDPT,005.2,-1.0,*47
$HCHDG,165.9,0.0,E,,*22
$IIGLL,4816.733,N,12238.871,W,172600,A,A*48
$GPRMC,172609.8,A,4816.73191,N,12238.87122,W,006.13,180.2,160713,016.8,E,A*24
$GPRMB,A,-0.24,L,,OH,4817.5980,N,12238.5140,W,0.9,15,-5.92,V*3C
$IIMTW,+15.0,C*3C
$PGRME,3.0,M,3.0,M,4.3,M*29
$HCHDG,166.0,0.0,E,,*28
$IIMWV,078,R,09.4,N,A*11
$IIMWV,101,T,08.9,N,A*14
$HCHDG,165.7,0.0,E,,*2C
$IIRMB,A,,,,OH  ,,,,,000.9,015,,V,A*1F
$GPRMC,172610.0,A,4816.73155,N,12238.87129,W,006.15,180.3,160713,016.8,E,A*20
$PGRME,3.0,M,3.0,M,4.3,M*29
$HCHDG,165.5,0.0,E,,*2E
$YXXDR,A,5.9,D,PTCH,A,5.2,D,ROLL*56
$PTAK,FFD1,5.2*52
$HCHDG,165.6,0.0,E,,*2D
$GPRMC,172610.2,A,4816.73124,N,12238.87132,W,006.16,180.4,160713,016.8,E,A*2A
$GPRMB,A,-0.24,L,,OH,4817.5980,N,12238.5140,W,0.9,15,-5.95,V*3B
$PGRME,3.0,M,3.0,M,4.3,M*29
$HCHDG,165.3,0.0,E,,*28
$HCHDG,165.5,0.0,E,,*2E
$GPRMC,172610.4,A,4816.73099,N,12238.87133,W,006.13,180.1,160713,016.8,E,A*2A
$PGRME,3.0,M,3.0,M,4.3,M*29
$HCHDG,165.6,0.0,E,,*2D
$HCHDG,165.6,0.0,E,,*2D
$IIRMC,172600,A,4816.731,N,12238.871,W,06.1,180,160713,16,E,A*1D
$GPRMC,172610.6,A,4816.73079,N,12238.87150,W,006.09,180.5,160713,016.8,E,A*2C
$PGRME,3.0,M,3.0,M,4.3,M*29
$YXXDR,A,5.8,D,PTCH,A,4.8,D,ROLL*5C
$IIVHW,,,,,03.8,N,,*12
$HCHDG,165.8,0.0,E,,*23
$IIVLW,01856,N,000.0,N*59
$HCHDG,165.8,0.0,E,,*23
$IIVWR,080,R,09.5,N,,,,*65
$GPRMC,172610.8,A,4816.73055,N,12238.87161,W,006.09,180.3,160713,016.8,E,A*28
$PGRME,3.0,M,3.0,M,4.3,M*29
$IIDPT,005.2,-1.0,*47
$HCHDG,166.0,0.0,E,,*28
$IIGLL,4816.731,N,12238.871,W,172600,A,A*4A
$HCHDG,166.3,0.0,E,,*2B
$IIMTW,+15.0,C*3C
$IIMWV,080,R,09.5,N,A*17
$GPRMC,172611.0,A,4816.73024,N,12238.87158,W,006.09,180.6,160713,016.8,E,A*28
$PGRME,3.0,M,3.0,M,4.3,M*29
$HCHDG,166.3,0.0,E,,*2B
$IIMWV,102,T,09.4,N,A*1B
$YXXDR,A,5.8,D,PTCH,A,4.4,D,ROLL*50
$HCHDG,166.5,0.0,E,,*2D
$GPRMC,172611.2,A,4816.72988,N,12238.87147,W,006.11,181.1,160713,016.8,E,A*25
$PGRME,3.0,M,3.0,M,4.3,M*29
$HCHDG,166.4,0.0,E,,*2C
$HCHDG,166.5,0.0,E,,*2D
$GPRMC,172611.4,A,4816.72950,N,12238.87132,W,006.12,181.1,160713,016.8,E,A*27
$PGRME,3.0,M,3.0,M,4.3,M*29
$HCHDG,166.7,0.0,E,,*2F
$HCHDG,166.6,0.0,E,,*2E
$IIRMB,A,,,,OH  ,,,,,000.9,015,,V,A*1F
$GPRMC,172611.6,A,4816.72908,N,12238.87129,W,006.14,181.7,160713,016.8,E,A*22
$YXXDR,A,5.9,D,PTCH,A,4.3,D,ROLL*56
$PGRME,3.0,M,3.0,M,4.3,M*29
$HCHDG,166.9,0.0,E,,*21
$IIRMC,172600,A,4816.730,N,12238.871,W,06.0,180,160713,16,E,A*1D
$HCHDG,166.9,0.0,E,,*21
$IIVHW,,,,,04.1,N,,*1C
$IIVLW,01856,N,000.0,N*59
$GPRMC,172611.8,A,4816.72876,N,12238.87125,W,006.13,182.1,160713,016.8,E,A*2A
$PGRME,3.0,M,3.0,M,4.3,M*29
$HCHDG,167.1,0.0,E,,*28
$IIVWR,082,R,09.6,N,,,,*64
$IIDPT,005.2,-1.0,*47
$HCHDG,167.1,0.0,E,,*28
$IIGLL,4816.730,N,12238.871,W,172600,A,A*4B
$GPRMC,172612.0,A,4816.72856,N,12238.87119,W,006.12,182.1,160713,016.8,E,A*2D
$GPRMB,A,-0.24,L,,OH,4817.5980,N,12238.5140,W,0.9,15,-5.96,V*38
$PGRME,3.0,M,3.0,M,4.3,M*29
$HCHDG,167.3,0.0,E,,*2A
$IIMTW,+15.0,C*3C
$IIMWV,082,R,09.6,N,A*16
$YXXDR,A,5.9,D,PTCH,A,3.6,D,ROLL*54
$PTAK,FFD1,3.6*50
$HCHDG,167.3,0.0,E,,*2A
$GPRMC,172612.2,A,4816.72834,N,12238.87132,W,006.11,181.8,160713,016.8,E,A*2B
$PGRME,3.0,M,3.0,M,4.3,M*29
$HCHDG,167.4,0.0,E,,*2D
$HCHDG,167.5,0.0,E,,*2C
$GPRMC,172612.4,A,4816.72809,N,12238.87143,W,006.10,182.6,160713,016.8,E,A*29
$PGRME,3.0,M,3.0,M,4.3,M*29
$HCHDG,167.4,0.0,E,,*2D
$IIMWV,106,T,09.9,N,A*12
$HCHDG,167.8,0.0,E,,*21
$IIRMB,A,,,,OH  ,,,,,000.9,015,,V,A*1F
$GPRMC,172612.6,A,4816.72766,N,12238.87155,W,006.09,183.0,160713,016.8,E,A*25
$PGRME,3.0,M,3.0,M,4.3,M*29
$YXXDR,A,6.3,D,PTCH,A,3.4,D,ROLL*5F
$HCHDG,167.7,0.0,E,,*2E
$HCHDG,167.9,0.0,E,,*20
$IIRMC,172600,A,4816.728,N,12238.871,W,06.1,182,160713,16,E,A*17
$IIVHW,,,,,04.4,N,,*19
$GPRMC,172612.8,A,4816.72729,N,12238.87165,W,006.10,183.1,160713,016.8,E,A*2A
$PGRME,3.0,M,3.0,M,4.3,M*29
$HCHDG,168.2,0.0,E,,*24
$IIVLW,01856,N,000.0,N*59
$IIVWR,081,R,09.1,N,,,,*60
$HCHDG,168.2,0.0,E,,*24
$IIDPT,005.2,-1.0,*47
$GPRMC,172613.0,A,4816.72697,N,12238.87175,W,006.09,182.7,160713,016.8,E,A*29
$PGRME,3.0,M,3.0,M,4.3,M*29
$HCHDG,168.2,0.0,E,,*24
$PTAK,FFP1,HEEL,@*07
$IIGLL,4816.728,N,12238.871,W,172600,A,A*42
$IIMTW,+15.0,C*3C
$YXXDR,A,5.8,D,PTCH,A,3.2,D,ROLL*51
$HCHDG,168.2,0.0,E,,*24
$GPRMC,172613.2,A,4816.72666,N,12238.87178,W,006.10,183.7,160713,016.8,E,A*21
$GPRMB,A,-0.24,L,,OH,4817.5980,N,12238.5140,W,0.9,15,-5.98,V*36
$PGRME,3.0,M,3.0,M,4.3,M*29
$HCHDG,168.2,0.0,E,,*24
$HCHDG,168.5,0.0,E,,*23
$GPRMC,172613.4,A,4816.72637,N,12238.87164,W,006.11,183.9,160713,016.8,E,D*24
$PGRME,2.4,M,2.4,M,3.4,M*29
$HCHDG,168.5,0.0,E,,*23
$IIMWV,084,R,08.8,N,A*1F
$HCHDG,168.6,0.0,E,,*20
$IIMWV,109,T,09.5,N,A*11
$YXXDR,A,5.8,D,PTCH,A,3.3,D,ROLL*50
$PTAK,FFD1,3.3*55
$GPRMC,172613.6,A,4816.72613,N,12238.87154,W,006.11,183.8,160713,016.8,E,D*22
$PGRME,2.4,M,2.4,M,3.4,M*29
$IIRMB,A,,,,OH  ,,,,,000.9,015,,V,A*1F
$HCHDG,168.8,0.0,E,,*2E
$HCHDG,168.8,0.0,E,,*2E
$IIRMC,172600,A,4816.727,N,12238.871,W,06.1,183,160713,16,E,A*19
$GPRMC,172613.8,A,4816.72578,N,12238.87156,W,006.14,184.8,160713,016.8,E,D*22
$PGRME,2.4,M,2.4,M,3.4,M*29
$HCHDG,168.8,0.0,E,,*2E
$IIVHW,,,,,04.6,N,,*1B
$IIVLW,01856,N,000.0,N*59
$HCHDG,168.9,0.0,E,,*2F
$IIVWR,084,R,08.8,N,,,,*6D
$IIDPT,005.2,-1.0,*47
$GPRMC,172614.0,A,4816.72541,N,12238.87161,W,006.15,184.3,160713,016.8,E,D*29
$PGRME,2.4,M,2.4,M,3.4,M*29
$HCHDG,169.1,0.0,E,,*26
$YXXDR,A,5.8,D,PTCH,A,3.5,D,ROLL*56
$HCHDG,168.9,0.0,E,,*2F
$GPRMC,172614.2,A,4816.72499,N,12238.87159,W,006.17,184.2,160713,016.8,E,D*27
$PGRME,2.4,M,2.4,M,3.4,M*29
$HCHDG,169.0,0.0,E,,*27
$HCHDG,169.0,0.0,E,,*27
$GPRMC,172614.4,A,4816.72458,N,12238.87165,W,006.18,185.0,160713,016.8,E,D*2F
$GPRMB,A,-0.24,L,,OH,4817.5980,N,12238.5140,W,0.9,15,-6.08,V*3C
$PGRME,2.4,M,2.4,M,3.4,M*29
$HCHDG,169.0,0.0,E,,*27
$HCHDG,169.2,0.0,E,,*25
$IIGLL,4816.727,N,12238.871,W,172600,A,A*4D
$IIMTW,+15.0,C*3C
$YXXDR,A,5.9,D,PTCH,A,3.6,D,ROLL*54
$PTAK,FFD1,3.6*50
$GPRMC,172614.6,A,4816.72428,N,12238.87164,W,006.15,185.8,160713,016.8,E,D*2E
$PGRME,2.4,M,2.4,M,3.4,M*29
$IIMWV,082,R,08.7,N,A*16
$HCHDG,169.0,0.0,E,,*27
$IIMWV,113,T,09.4,N,A*1B
$HCHDG,169.0,0.0,E,,*27
$IIRMB,A,,,,OH  ,,,,,000.9,015,,V,A*1F
$GPRMC,172614.8,A,4816.72395,N,12238.87172,W,006.16,185.8,160713,016.8,E,D*25
$PGRME,2.4,M,2.4,M,3.4,M*29
$HCHDG,169.1,0.0,E,,*26
$IIRMC,172600,A,4816.727,N,12238.871,W,06.1,183,160713,16,E,A*19
$HCHDG,169.1,0.0,E,,*26
$IIVHW,,,,,04.8,N,,*15
$GPRMC,172615.0,A,4816.72360,N,12238.87177,W,006.16,185.8,160713,016.8,E,D*23
$PGRME,2.4,M,2.4,M,3.4,M*29
$IIVLW,01856,N,000.0,N*59
$HCHDG,169.1,0.0,E,,*26
$YXXDR,A,6.2,D,PTCH,A,3.6,D,ROLL*5C
$HCHDG,168.9,0.0,E,,*2F
$GPRMC,172615.2,A,4816.72327,N,12238.87192,W,006.15,185.2,160713,016.8,E,D*20
$PGRME,2.4,M,2.4,M,3.4,M*29
$HCHDG,168.9,0.0,E,,*2F
$HCHDG,168.6,0.0,E,,*20
$GPRMC,172615.4,A,4816.72286,N,12238.87198,W,006.14,186.0,160713,016.8,E,D*26
$GPRMB,A,-0.24,L,,OH,4817.5980,N,12238.5140,W,0.9,15,-6.06,V*32
$PGRME,2.4,M,2.4,M,3.4,M*29
$HCHDG,168.5,0.0,E,,*23
$IIVWR,082,R,08.7,N,,,,*64
$HCHDG,168.6,0.0,E,,*20
$IIDPT,005.2,-1.0,*47
$GPRMC,172615.6,A,4816.72243,N,12238.87188,W,006.14,184.9,160713,016.8,E,D*27
$YXXDR,A,6.1,D,PTCH,A,4.5,D,ROLL*5B
$PTAK,FFD1,4.5*54
$PGRME,2.4,M,2.4,M,3.4,M*29
$IIGLL,4816.723,N,12238.871,W,172600,A,A*49
$HCHDG,168.2,0.0,E,,*24
$IIMTW,+15.0,C*3C
$HCHDG,168.0,0.0,E,,*26
$IIMWV,082,R,08.7,N,A*16
$GPRMC,172615.8,A,4816.72201,N,12238.87186,W,006.15,184.9,160713,016.8,E,D*20
$IIMWV,113,T,09.3,N,A*1C
$PGRME,2.4,M,2.4,M,3.4,M*29
$HCHDG,168.0,0.0,E,,*26
$IIRMB,A,,,,OH  ,,,,,000.9,015,,V,A*1F
$HCHDG,167.7,0.0,E,,*2E
$GPRMC,172616.0,A,4816.72164,N,12238.87183,W,006.15,183.7,160713,016.8,E,D*27
$PGRME,2.4,M,2.4,M,3.4,M*29
$IIRMC,172600,A,4816.723,N,12238.871,W,06.1,185,160713,16,E,A*1B
$HCHDG,167.6,0.0,E,,*2F
$YXXDR,A,6.0,D,PTCH,A,4.9,D,ROLL*56
$HCHDG,167.6,0.0,E,,*2F
$GPRMC,172616.2,A,4816.72133,N,12238.87182,W,006.14,184.2,160713,016.8,E,D*25
$PGRME,2.4,M,2.4,M,3.4,M*29
$HCHDG,167.7,0.0,E,,*2E
$HCHDG,167.5,0.0,E,,*2C
$GPRMC,172616.4,A,4816.72100,N,12238.87191,W,006.13,184.1,160713,016.8,E,D*25
$PGRME,2.4,M,2.4,M,3.4,M*29
$HCHDG,167.5,0.0,E,,*2C
$IIVHW,,,,,05.2,N,,*1E
$HCHDG,167.4,0.0,E,,*2D
$IIVLW,01856,N,000.0,N*59
$YXXDR,A,5.8,D,PTCH,A,5.0,D,ROLL*55
$GPRMC,172616.6,A,4816.72066,N,12238.87191,W,006.09,184.5,160713,016.8,E,D*29
$GPRMB,A,-0.24,L,,OH,4817.5980,N,12238.5140,W,0.9,15,-5.98,V*36
$PGRME,2.4,M,2.4,M,3.4,M*29
$IIVWR,081,R,09.7,N,,,,*66
$HCHDG,167.4,0.0,E,,*2D
$IIDPT,005.2,-1.0,*47
$HCHDG,167.5,0.0,E,,*2C
$IIGLL,4816.722,N,12238.871,W,172600,A,A*48
$IIMTW,+15.0,C*3C
$GPRMC,172616.8,A,4816.72027,N,12238.87188,W,006.08,184.1,160713,016.8,E,D*2F
$PGRME,2.4,M,2.4,M,3.4,M*29
$HCHDG,167.6,0.0,E,,*2F
$IIMWV,081,R,09.7,N,A*14
$IIMWV,115,T,09.4,N,A*1D
$HCHDG,167.4,0.0,E,,*2D
$IIRMB,A,,,,OH  ,,,,,000.9,015,,V,A*1F
$GPRMC,172617.0,A,4816.71985,N,12238.87189,W,006.08,183.3,160713,016.8,E,D*20
$PGRME,2.4,M,2.4,M,3.4,M*29
$HCHDG,167.4,0.0,E,,*2D
$PTAK,FFP1,HEEL,@*07
$YXXDR,A,5.8,D,PTCH,A,4.8,D,ROLL*5C
$PTAK,FFD1,4.8*59
$HCHDG,167.4,0.0,E,,*2D
$GPRMC,172617.2,A,4816.71939,N,12238.87200,W,006.08,183.7,160713,016.8,E,D*23
$PGRME,2.4,M,2.4,M,3.4,M*29
$HCHDG,167.5,0.0,E,,*2C
$HCHDG,167.2,0.0,E,,*2B
$GPRMC,172617.4,A,4816.71903,N,12238.87201,W,006.10,183.6,160713,016.8,E,D*25
$PGRME,2.4,M,2.4,M,3.4,M*29
$HCHDG,167.2,0.0,E,,*2B
$HCHDG,167.2,0.0,E,,*2B
$IIRMC,172600,A,4816.720,N,12238.871,W,06.0,184,160713,16,E,A*18
$YXXDR,A,6.1,D,PTCH,A,4.6,D,ROLL*58
$GPRMC,172617.6,A,4816.71870,N,12238.87204,W,006.09,185.1,160713,016.8,E,D*2E
$GPRMB,A,-0.24,L,,OH,4817.5980,N,12238.5140,W,0.9,15,-6.00,V*34
$PGRME,2.4,M,2.4,M,3.4,M*29
$IIVHW,,,,,05.3,N,,*1F
$HCHDG,167.4,0.0,E,,*2D
$IIVLW,01856,N,000.0,N*59
$HCHDG,167.4,0.0,E,,*2D
$IIVWR,080,R,09.7,N,,,,*67
$GPRMC,172617.8,A,4816.71832,N,12238.87204,W,006.10,183.0,160713,016.8,E,D*29
$IIDPT,005.2,-1.0,*47
$PGRME,2.4,M,2.4,M,3.4,M*29
$HCHDG,167.3,0.0,E,,*2A
$IIGLL,4816.720,N,12238.871,W,172600,A,A*4A
$HCHDG,167.3,0.0,E,,*2A
$IIMTW,+15.0,C*3C
$IIMWV,080,R,09.7,N,A*15
$GPRMC,172618.0,A,4816.71792,N,12238.87215,W,006.09,183.3,160713,016.8,E,D*20
$PGRME,2.4,M,2.4,M,3.4,M*29
$HCHDG,167.3,0.0,E,,*2A
$IIMWV,111,T,10.3,N,A*16
$YXXDR,A,6.0,D,PTCH,A,4.6,D,ROLL*59
$PTAK,FFD1,4.6*57
$HCHDG,167.0,0.0,E,,*29
$GPRMC,172618.2,A,4816.71755,N,12238.87225,W,006.07,183.1,160713,016.8,E,D*26
$PGRME,2.4,M,2.4,M,3.4,M*29
$HCHDG,167.0,0.0,E,,*29
$HCHDG,167.2,0.0,E,,*2B
$GPRMC,172618.4,A,4816.71715,N,12238.87231,W,006.05,182.6,160713,016.8,E,D*25
$PGRME,2.4,M,2.4,M,3.4,M*29
$HCHDG,167.2,0.0,E,,*2B
$HCHDG,167.1,0.0,E,,*28
$IIRMB,A,,,,OH  ,,,,,000.9,015,,V,A*1F
$YXXDR,A,5.9,D,PTCH,A,4.3,D,ROLL*56
$GPRMC,172618.6,A,4816.71684,N,12238.87223,W,006.03,184.4,160713,016.8,E,D*2F
$PGRME,2.4,M,2.4,M,3.4,M*29
$HCHDG,167.4,0.0,E,,*2D
$IIRMC,172600,A,4816.718,N,12238.872,W,06.1,183,160713,16,E,A*16
$HCHDG,167.7,0.0,E,,*2E
$IIVHW,,,,,05.3,N,,*1F
$IIVLW,01856,N,000.0,N*59
$GPRMC,172618.8,A,4816.71651,N,12238.87233,W,006.02,184.6,160713,016.8,E,D*2B
$GPRMB,A,-0.24,L,,OH,4817.5980,N,12238.5140,W,0.9,15,-5.92,V*3C
$PGRME,2.4,M,2.4,M,3.4,M*29
$HCHDG,167.6,0.0,E,,*2F
$IIVWR,081,R,09.6,N,,,,*67
$IIDPT,005.2,-1.0,*47
$HCHDG,167.7,0.0,E,,*2E
$IIGLL,4816.718,N,12238.872,W,172600,A,A*42
$GPRMC,172619.0,A,4816.71618,N,12238.87241,W,006.00,184.8,160713,016.8,E,D*26
$PGRME,2.4,M,2.4,M,3.4,M*29
$IIMTW,+15.0,C*3C
$HCHDG,167.8,0.0,E,,*21
$IIMWV,081,R,09.6,N,A*15
$YXXDR,A,5.8,D,PTCH,A,3.9,D,ROLL*5A
$PTAK,FFD1,3.9*5F
$HCHDG,167.8,0.0,E,,*21
$GPRMC,172619.2,A,4816.71581,N,12238.87230,W,005.98,184.6,160713,016.8,E,D*2D
$PGRME,2.4,M,2.4,M,3.4,M*29
$HCHDG,167.8,0.0,E,,*21
$HCHDG,168.0,0.0,E,,*26
$GPRMC,172619.4,A,4816.71542,N,12238.87225,W,005.99,184.8,160713,016.8,E,D*2F
$PGRME,2.4,M,2.4,M,3.4,M*29
$HCHDG,168.2,0.0,E,,*24
$IIMWV,112,T,10.2,N,A*14
$HCHDG,168.1,0.0,E,,*27
$IIRMB,A,,,,OH  ,,,,,000.9,015,,V,A*1F
$YXXDR,A,6.0,D,PTCH,A,3.5,D,ROLL*5D
$GPRMC,172619.6,A,4816.71505,N,12238.87230,W,005.99,185.3,160713,016.8,E,D*20
$PGRME,2.4,M,2.4,M,3.4,M*29
$HCHDG,168.4,0.0,E,,*22
$HCHDG,168.4,0.0,E,,*22
$IIRMC,172600,A,4816.716,N,12238.872,W,06.0,184,160713,16,E,A*1E
$IIVHW,,,,,05.2,N,,*1E
$GPRMC,172619.8,A,4816.71470,N,12238.87231,W,005.99,184.2,160713,016.8,E,D*2C
$PGRME,2.4,M,2.4,M,3.4,M*29
$HCHDG,168.3,0.0,E,,*25
$IIVLW,01856,N,000.0,N*59
$IIVWR,082,R,09.9,N,,,,*6B
$HCHDG,168.1,0.0,E,,*27
$IIDPT,005.2,-1.0,*47
$GPRMC,172620.0,A,4816.71441,N,12238.87233,W,005.99,185.2,160713,016.8,E,D*2F
$GPRMB,A,-0.24,L,,OH,4817.5980,N,12238.5140,W,0.9,15,-5.90,V*3E
$PGRME,2.4,M,2.4,M,3.4,M*29
$HCHDG,168.1,0.0,E,,*27
$IIGLL,4816.716,N,12238.872,W,172600,A,A*4C
$IIMTW,+15.0,C*3C
$YXXDR,A,6.2,D,PTCH,A,4.3,D,ROLL*5E
$PTAK,FFD1,4.3*52
$HCHDG,168.2,0.0,E,,*24
$GPRMC,172620.2,A,4816.71419,N,12238.87224,W,006.00,184.4,160713,016.8,E,D*22
$PGRME,2.4,M,2.4,M,3.4,M*29
$HCHDG,168.2,0.0,E,,*24
$HCHDG,168.2,0.0,E,,*24
$GPRMC,172620.4,A,4816.71397,N,12238.87214,W,006.00,184.4,160713,016.8,E,D*26
$PGRME,2.4,M,2.4,M,3.4,M*29
$HCHDG,168.3,0.0,E,,*25
$IIMWV,081,R,10.1,N,A*1A
$HCHDG,168.4,0.0,E,,*22
$IIMWV,112,T,10.5,N,A*13
$YXXDR,A,6.0,D,PTCH,A,4.2,D,ROLL*5D
$GPRMC,172620.6,A,4816.71367,N,12238.87214,W,006.02,184.5,160713,016.8,E,D*28
$PGRME,2.4,M,2.4,M,3.4,M*29
$IIRMB,A,,,,OH  ,,,,,000.9,015,,V,A*1F
$HCHDG,168.4,0.0,E,,*22
$HCHDG,168.5,0.0,E,,*23
$IIRMC,172600,A,4816.714,N,12238.872,W,05.9,184,160713,16,E,A*16
$GPRMC,172620.8,A,4816.71337,N,12238.87218,W,006.03,184.9,160713,016.8,E,D*22
$PGRME,2.4,M,2.4,M,3.4,M*29
$HCHDG,168.7,0.0,E,,*21
$IIVHW,,,,,04.6,N,,*1B
$IIVLW,01856,N,000.0,N*59
$HCHDG,168.7,0.0,E,,*21
$IIVWR,081,R,10.1,N,,,,*68
$IIDPT,005.2,-1.0,*47
$GPRMC,172621.0,A,4816.71305,N,12238.87229,W,006.07,186.1,160713,016.8,E,D*26
$GPRMB,A,-0.24,L,,OH,4817.5980,N,12238.5140,W,0.9,15,-6.00,V*34
$PGRME,2.4,M,2.4,M,3.4,M*29
$HCHDG,168.7,0.0,E,,*21
$PTAK,FFP1,HEEL,@*07
$YXXDR,A,6.0,D,PTCH,A,4.0,D,ROLL*5F
$HCHDG,168.9,0.0,E,,*2F
$GPRMC,172621.2,A,4816.71277,N,12238.87246,W,006.06,186.2,160713,016.8,E,D*2B
$PGRME,2.4,M,2.4,M,3.4,M*29
$HCHDG,169.2,0.0,E,,*25
$HCHDG,169.2,0.0,E,,*25
$GPRMC,172621.4,A,4816.71254,N,12238.87249,W,006.05,185.9,160713,016.8,E,D*28
$PGRME,2.4,M,2.4,M,3.4,M*29
$HCHDG,169.1,0.0,E,,*26
$HCHDG,169.2,0.0,E,,*25
$IIGLL,4816.713,N,12238.872,W,172600,A,A*49
$IIMTW,+15.0,C*3C
$GPRMC,172621.6,A,4816.71232,N,12238.87257,W,006.05,185.4,160713,016.8,E,D*28
$YXXDR,A,6.0,D,PTCH,A,4.1,D,ROLL*5E
$PTAK,FFD1,4.1*50
$PGRME,2.4,M,2.4,M,3.4,M*29
$IIMWV,081,R,09.8,N,A*1B
$HCHDG,169.3,0.0,E,,*24
$IIMWV,107,T,10.3,N,A*11
$HCHDG,169.1,0.0,E,,*26
$IIRMB,A,,,,OH  ,,,,,000.9,015,,V,A*1F
$GPRMC,172621.8,A,4816.71207,N,12238.87255,W,006.04,185.8,160713,016.8,E,D*2F
$PGRME,2.4,M,2.4,M,3.4,M*29
$HCHDG,169.3,0.0,E,,*24
$IIRMC,172600,A,4816.713,N,12238.872,W,06.0,184,160713,16,E,A*1B
$HCHDG,169.1,0.0,E,,*26
$IIVHW,,,,,04.0,N,,*1D
$GPRMC,172622.0,A,4816.71175,N,12238.87260,W,006.07,185.5,160713,016.8,E,D*2A
$PGRME,2.4,M,2.4,M,3.4,M*29
$HCHDG,169.2,0.0,E,,*25
$IIVLW,01856,N,000.0,N*59
$YXXDR,A,5.6,D,PTCH,A,4.5,D,ROLL*5F
$HCHDG,169.3,0.0,E,,*24
$GPRMC,172622.2,A,4816.71136,N,12238.87257,W,006.08,186.2,160713,016.8,E,D*20
$GPRMB,A,-0.24,L,,OH,4817.5980,N,12238.5140,W,0.9,15,-6.01,V*35
$PGRME,2.4,M,2.4,M,3.4,M*29
$HCHDG,169.4,0.0,E,,*23
$HCHDG,169.4,0.0,E,,*23
$GPRMC,172622.4,A,4816.71099,N,12238.87263,W,006.11,186.0,160713,016.8,E,D*2F
$PGRME,2.4,M,2.4,M,3.4,M*29
$HCHDG,169.4,0.0,E,,*23
$IIVWR,080,R,09.6,N,,,,*66
$HCHDG,169.5,0.0,E,,*22
$IIDPT,005.2,-1.0,*47
$YXXDR,A,5.9,D,PTCH,A,4.3,D,ROLL*56
$GPRMC,172622.6,A,4816.71058,N,12238.87266,W,006.12,185.4,160713,016.8,E,D*21
$PGRME,2.4,M,2.4,M,3.4,M*29
$HCHDG,169.5,0.0,E,,*22
$IIGLL,4816.712,N,12238.872,W,172600,A,A*48
$IIMTW,+15.0,C*3C
$HCHDG,169.5,0.0,E,,*22
$IIMWV,080,R,09.6,N,A*14
$GPRMC,172622.8,A,4816.71020,N,12238.87271,W,006.12,186.1,160713,016.8,E,D*20
$IIMWV,105,T,10.0,N,A*10
$PGRME,2.4,M,2.4,M,3.4,M*29
$HCHDG,169.8,0.0,E,,*2F
$IIRMB,A,,,,OH  ,,,,,000.9,015,,V,A*1F
$HCHDG,169.9,0.0,E,,*2E
$GPRMC,172623.0,A,4816.70990,N,12238.87268,W,006.10,186.3,160713,016.8,E,D*22
$PGRME,2.4,M,2.4,M,3.4,M*29
$IIRMC,172600,A,4816.712,N,12238.872,W,06.0,185,160713,16,E,A*1B
$HCHDG,169.8,0.0,E,,*2F
$YXXDR,A,5.5,D,PTCH,A,3.8,D,ROLL*56
$PTAK,FFD1,3.8*5E
$HCHDG,169.7,0.0,E,,*20
$GPRMC,172623.2,A,4816.70963,N,12238.87279,W,006.10,186.8,160713,016.8,E,D*27
$GPRMB,A,-0.24,L,,OH,4817.5980,N,12238.5140,W,0.9,15,-6.04,V*30
$PGRME,2.4,M,2.4,M,3.4,M*29
$HCHDG,169.9,0.0,E,,*2E
$HCHDG,169.8,0.0,E,,*2F
$GPRMC,172623.4,A,4816.70940,N,12238.87299,W,006.09,186.9,160713,016.8,E,D*27
$PGRME,2.4,M,2.4,M,3.4,M*29
$HCHDG,169.7,0.0,E,,*20
$IIVHW,,,,,04.2,N,,*1F
$HCHDG,170.0,0.0,E,,*2F
$IIVLW,01856,N,000.0,N*59
$GPRMC,172623.6,A,4816.70905,N,12238.87321,W,006.09,186.6,160713,016.8,E,D*29
$YXXDR,A,6.0,D,PTCH,A,3.4,D,ROLL*5C
$PGRME,2.4,M,2.4,M,3.4,M*29
$IIVWR,080,R,09.5,N,,,,*65
$HCHDG,169.8,0.0,E,,*2F
$IIDPT,005.2,-1.0,*47
$HCHDG,169.9,0.0,E,,*2E
$IIGLL,4816.710,N,12238.872,W,172600,A,A*4A
$IIMTW,+15.0,C*3C
$GPRMC,172623.8,A,4816.70868,N,12238.87330,W,006.10,186.8,160713,016.8,E,D*2B
$PGRME,2.4,M,2.4,M,3.4,M*29
$HCHDG,169.8,0.0,E,,*2F
$IIMWV,080,R,09.5,N,A*17
$IIMWV,105,T,09.7,N,A*1F
$HCHDG,169.9,0.0,E,,*2E
$IIRMB,A,,,,OH  ,,,,,000.9,015,,V,A*1F
$GPRMC,172624.0,A,4816.70828,N,12238.87333,W,006.10,187.0,160713,016.8,E,D*2A
$PGRME,2.4,M,2.4,M,3.4,M*29
$HCHDG,170.0,0.0,E,,*2F
$YXXDR,A,5.5,D,PTCH,A,3.1,D,ROLL*5F
$HCHDG,170.2,0.0,E,,*2D
$GPRMC,172624.2,A,4816.70795,N,12238.87341,W,006.08,186.9,160713,016.8,E,D*25
$PGRME,2.4,M,2.4,M,3.4,M*29
$HCHDG,170.0,0.0,E,,*2F
$HCHDG,170.0,0.0,E,,*2F
$GPRMC,172624.4,A,4816.70763,N,12238.87334,W,006.10,186.6,160713,016.8,E,D*2E
$GPRMB,A,-0.24,L,,OH,4817.5980,N,12238.5140,W,0.9,15,-6.03,V*37
$PGRME,2.4,M,2.4,M,3.4,M*29
$HCHDG,169.9,0.0,E,,*2E
$HCHDG,170.1,0.0,E,,*2E
$IIRMC,172600,A,4816.710,N,12238.872,W,06.1,186,160713,16,E,A*1B
$YXXDR,A,5.4,D,PTCH,A,2.8,D,ROLL*56
$PTAK,FFD1,2.8*5F
$GPRMC,172624.6,A,4816.70732,N,12238.87329,W,006.10,185.7,160713,016.8,E,D*26
$PGRME,2.4,M,2.4,M,3.4,M*29
$IIVHW,,,,,04.2,N,,*1F
$HCHDG,170.0,0.0,E,,*2F
$IIVLW,01856,N,000.0,N*59
$HCHDG,169.5,0.0,E,,*22
$IIVWR,080,R,09.1,N,,,,*61
$IIDPT,005.2,-1.0,*47
$GPRMC,172624.8,A,4816.70705,N,12238.87330,W,006.11,185.9,160713,016.8,E,D*2B
$PGRME,2.4,M,2.4,M,3.4,M*29
$HCHDG,169.3,0.0,E,,*24
$IIGLL,4816.710,N,12238.872,W,172600,A,A*4A
$HCHDG,169.3,0.0,E,,*24
$IIMTW,+15.0,C*3C
$IIMWV,080,R,09.1,N,A*13
$GPRMC,172625.0,A,4816.70673,N,12238.87337,W,006.14,186.4,160713,016.8,E,D*2E
$PGRME,2.4,M,2.4,M,3.4,M*29
$HCHDG,169.3,0.0,E,,*24
$IIMWV,106,T,09.6,N,A*1D
$YXXDR,A,6.2,D,PTCH,A,3.5,D,ROLL*5F
$HCHDG,169.6,0.0,E,,*21
$GPRMC,172625.2,A,4816.70630,N,12238.87356,W,006.15,185.9,160713,016.8,E,D*23
$PGRME,2.4,M,2.4,M,3.4,M*29
$HCHDG,169.5,0.0,E,,*22
$PTAK,FFP1,HEEL,@*07
$HCHDG,169.6,0.0,E,,*21
$GPRMC,172625.4,A,4816.70595,N,12238.87372,W,006.15,186.4,160713,016.8,E,D*21
$GPRMB,A,-0.24,L,,OH,4817.5980,N,12238.5140,W,0.9,15,-6.08,V*3C
$PGRME,2.4,M,2.4,M,3.4,M*29
$HCHDG,169.7,0.0,E,,*20
$HCHDG,169.7,0.0,E,,*20
$IIRMB,A,,,,OH  ,,,,,000.9,015,,V,A*1F
$GPRMC,172625.6,A,4816.70562,N,12238.87380,W,006.17,186.0,160713,016.8,E,D*20
$YXXDR,A,6.0,D,PTCH,A,3.1,D,ROLL*59
$PTAK,FFD1,3.1*57
$PGRME,2.4,M,2.4,M,3.4,M*29
$HCHDG,169.7,0.0,E,,*20
$IIRMC,172600,A,4816.710,N,12238.872,W,06.1,186,160713,16,E,A*1B
$HCHDG,169.9,0.0,E,,*2E
$IIVHW,,,,,04.4,N,,*19
$IIVLW,01856,N,000.0,N*59
$GPRMC,172625.8,A,4816.70527,N,12238.87381,W,006.15,186.4,160713,016.8,E,D*28
$PGRME,2.4,M,2.4,M,3.4,M*29
$HCHDG,169.9,0.0,E,,*2E
$IIVWR,079,R,09.3,N,,,,*65
$IIDPT,005.3,-1.0,*46
$HCHDG,170.0,0.0,E,,*2F
$IIGLL,4816.710,N,12238.872,W,172600,A,A*4A
$GPRMC,172626.0,A,4816.70489,N,12238.87379,W,006.14,186.3,160713,016.8,E,D*27
$PGRME,2.4,M,2.4,M,3.4,M*29
$IIMTW,+15.5,C*39
$HCHDG,170.0,0.0,E,,*2F
$IIMWV,079,R,09.3,N,A*17
$YXXDR,A,5.8,D,PTCH,A,2.9,D,ROLL*5B
$HCHDG,169.9,0.0,E,,*2E
$GPRMC,172626.2,A,4816.70456,N,12238.87378,W,006.13,185.8,160713,016.8,E,D*29
$PGRME,2.4,M,2.4,M,3.4,M*29
$HCHDG,169.9,0.0,E,,*2E
$HCHDG,170.3,0.0,E,,*2C
$GPRMC,172626.4,A,4816.70423,N,12238.87380,W,006.12,186.9,160713,016.8,E,D*29
$GPRMB,A,-0.24,L,,OH,4817.5980,N,12238.5140,W,0.9,15,-6.06,V*32
$PGRME,2.4,M,2.4,M,3.4,M*29
$HCHDG,170.2,0.0,E,,*2D
$IIMWV,107,T,09.4,N,A*1E
$HCHDG,170.3,0.0,E,,*2C
$IIRMB,A,,,,OH  ,,,,,000.9,015,,V,A*1F
$YXXDR,A,6.0,D,PTCH,A,3.0,D,ROLL*58
$GPRMC,172626.6,A,4816.70384,N,12238.87373,W,006.13,185.5,160713,016.8,E,D*23
$PGRME,2.4,M,2.4,M,3.4,M*29
$HCHDG,170.3,0.0,E,,*2C
$HCHDG,170.1,0.0,E,,*2E
$IIRMC,172600,A,4816.705,N,12238.873,W,06.1,186,160713,16,E,A*1E
$IIVHW,,,,,04.1,N,,*1C
$GPRMC,172626.8,A,4816.70342,N,12238.87387,W,006.15,186.4,160713,016.8,E,D*28
$PGRME,2.4,M,2.4,M,3.4,M*29
$HCHDG,170.4,0.0,E,,*2B
$IIVLW,01856,N,000.0,N*59
$IIVWR,078,R,09.0,N,,,,*67
$HCHDG,170.4,0.0,E,,*2B
$IIDPT,005.3,-1.0,*46
$GPRMC,172627.0,A,4816.70311,N,12238.87401,W,006.16,187.0,160713,016.8,E,D*28
$PGRME,2.4,M,2.4,M,3.4,M*29
$HCHDG,170.7,0.0,E,,*28
$IIGLL,4816.705,N,12238.873,W,172600,A,A*4F
$IIMTW,+15.5,C*39
$YXXDR,A,6.0,D,PTCH,A,2.5,D,ROLL*5C
$PTAK,FFD1,2.5*52
$HCHDG,170.7,0.0,E,,*28
$GPRMC,172627.2,A,4816.70278,N,12238.87424,W,006.16,187.1,160713,016.8,E,D*22
$PGRME,2.4,M,2.4,M,3.4,M*29
$HCHDG,170.9,0.0,E,,*26
$HCHDG,171.0,0.0,E,,*2E
$GPRMC,172627.4,A,4816.70242,N,12238.87442,W,006.15,187.6,160713,016.8,E,D*29
$PGRME,2.4,M,2.4,M,3.4,M*29
$HCHDG,171.1,0.0,E,,*2F
$IIMWV,077,R,09.2,N,A*18
$HCHDG,171.1,0.0,E,,*2F
$IIMWV,105,T,09.0,N,A*18
$YXXDR,A,5.9,D,PTCH,A,2.6,D,ROLL*55
$GPRMC,172627.6,A,4816.70205,N,12238.87452,W,006.14,186.3,160713,016.8,E,D*2C
$GPRMB,A,-0.24,L,,OH,4817.5980,N,12238.5140,W,0.9,15,-6.07,V*33
$PGRME,2.4,M,2.4,M,3.4,M*29
$IIRMB,A,,,,OH  ,,,,,000.9,015,,V,A*1F
$HCHDG,171.2,0.0,E,,*2C
$HCHDG,171.2,0.0,E,,*2C
$IIRMC,172600,A,4816.703,N,12238.873,W,06.1,186,160713,16,E,A*18
$GPRMC,172627.8,A,4816.70171,N,12238.87464,W,006.14,187.0,160713,016.8,E,D*25
$PGRME,2.4,M,2.4,M,3.4,M*29
$HCHDG,171.1,0.0,E,,*2F
$IIVHW,,,,,04.0,N,,*1D
$IIVLW,01856,N,000.0,N*59
$HCHDG,171.2,0.0,E,,*2C
$IIVWR,077,R,09.2,N,,,,*6A
$IIDPT,005.3,-1.0,*46
$GPRMC,172628.0,A,4816.70134,N,12238.87454,W,006.15,187.7,160713,016.8,E,D*26
$PGRME,2.4,M,2.4,M,3.4,M*29
$HCHDG,171.5,0.0,E,,*2B
$YXXDR,A,5.8,D,PTCH,A,2.3,D,ROLL*51
$HCHDG,171.8,0.0,E,,*26
$GPRMC,172628.2,A,4816.70107,N,12238.87450,W,006.16,188.2,160713,016.8,E,D*29
$PGRME,2.4,M,2.4,M,3.4,M*29
$HCHDG,171.8,0.0,E,,*26
$HCHDG,171.8,0.0,E,,*26
$GPRMC,172628.4,A,4816.70077,N,12238.87449,W,006.16,188.3,160713,016.8,E,D*20
$PGRME,2.4,M,2.4,M,3.4,M*29
$HCHDG,172.0,0.0,E,,*2D
$HCHDG,172.2,0.0,E,,*2F
$IIGLL,4816.701,N,12238.874,W,172600,A,A*4C
$IIMTW,+15.5,C*39
$YXXDR,A,5.7,D,PTCH,A,2.2,D,ROLL*5F
$PTAK,FFD1,2.2*55
$GPRMC,172628.6,A,4816.70047,N,12238.87450,W,006.16,188.6,160713,016.8,E,D*2C
$GPRMB,A,-0.24,L,,OH,4817.5980,N,12238.5140,W,0.9,15,-6.12,V*37
$PGRME,2.4,M,2.4,M,3.4,M*29
$IIMWV,076,R,09.3,N,A*18
$HCHDG,172.3,0.0,E,,*2E
$IIMWV,103,T,09.1,N,A*1F
$HCHDG,172.3,0.0,E,,*2E
$IIRMB,A,,,,OH  ,,,,,000.9,015,,V,A*1F
$GPRMC,172628.8,A,4816.70016,N,12238.87467,W,006.12,190.3,160713,016.8,E,D*2A
$PGRME,2.4,M,2.4,M,3.4,M*29
$HCHDG,172.6,0.0,E,,*2B
$IIRMC,172600,A,4816.701,N,12238.874,W,06.1,187,160713,16,E,A*1C
$HCHDG,172.6,0.0,E,,*2B
$IIVHW,,,,,03.3,N,,*19
$GPRMC,172629.0,A,4816.69987,N,12238.87485,W,006.13,189.6,160713,016.8,E,D*2A
$PGRME,2.4,M,2.4,M,3.4,M*29
$IIVLW,01856,N,000.0,N*59
$HCHDG,172.7,0.0,E,,*2A
$YXXDR,A,5.7,D,PTCH,A,2.1,D,ROLL*5C
$HCHDG,173.0,0.0,E,,*2C
$GPRMC,172629.2,A,4816.69957,N,12238.87507,W,006.15,190.0,160713,016.8,E,D*26
$PGRME,2.4,M,2.4,M,3.4,M*29
$HCHDG,172.7,0.0,E,,*2A
$HCHDG,172.7,0.0,E,,*2A
$PTAK,FFP1,HEEL,@*07
$GPRMC,172629.4,A,4816.69924,N,12238.87529,W,006.14,190.7,160713,016.8,E,D*2E
$PGRME,2.4,M,2.4,M,3.4,M*29
$HCHDG,172.7,0.0,E,,*2A
$IIVWR,075,R,09.4,N,,,,*6E
$HCHDG,172.6,0.0,E,,*2B
$IIDPT,005.3,-1.0,*46
$YXXDR,A,5.5,D,PTCH,A,2.9,D,ROLL*56
$GPRMC,172629.6,A,4816.69886,N,12238.87545,W,006.15,190.5,160713,016.8,E,D*2C
$PGRME,2.4,M,2.4,M,3.4,M*29
$HCHDG,172.6,0.0,E,,*2B
$IIGLL,4816.700,N,12238.874,W,172600,A,A*4D
$IIMTW,+15.5,C*39
$HCHDG,172.5,0.0,E,,*28
$IIMWV,075,R,09.4,N,A*1C
$IIMWV,098,T,09.0,N,A*1D
$GPRMC,172629.8,A,4816.69853,N,12238.87546,W,006.17,191.0,160713,016.8,E,D*2F
$GPRMB,A,-0.24,L,,OH,4817.5980,N,12238.5140,W,0.9,15,-6.16,V*33
$PGRME,2.4,M,2.4,M,3.4,M*29
$HCHDG,172.6,0.0,E,,*2B
$IIRMB,A,,,,OH  ,,,,,000.9,015,,V,A*1F
$HCHDG,172.8,0.0,E,,*25
$GPRMC,172630.0,A,4816.69824,N,12238.87546,W,006.15,191.4,160713,016.8,E,D*29
$PGRME,2.4,M,2.4,M,3.4,M*29
$IIRMC,172600,A,4816.700,N,12238.874,W,06.1,190,160713,16,E,A*1B
$HCHDG,172.5,0.0,E,,*28
$YXXDR,A,5.5,D,PTCH,A,3.1,D,ROLL*5F
$PTAK,FFD1,3.1*57
$HCHDG,172.7,0.0,E,,*2A
$GPRMC,172630.2,A,4816.69795,N,12238.87540,W,006.15,191.6,160713,016.8,E,D*2A
$PGRME,2.4,M,2.4,M,3.4,M*29
$HCHDG,172.5,0.0,E,,*28
$HCHDG,172.4,0.0,E,,*29
$GPRMC,172630.4,A,4816.69751,N,12238.87541,W,006.15,191.3,160713,016.8,E,D*20
$PGRME,2.4,M,2.4,M,3.4,M*29
$HCHDG,172.4,0.0,E,,*29
$IIVHW,,,,,03.9,N,,*13
$HCHDG,172.2,0.0,E,,*2F
