$YXXDR,A,5.8,D,PTCH,A,2.1,D,ROLL*53
$IIDPT,018.1,-1.0,*48
$HCHDG,355.0,0.0,E,,*2A
$HCHDG,355.0,0.0,E,,*2A
$IIGLL,4815.402,N,12238.629,W,235900,A,A*46
$GPRMC,000000.2,A,4815.40488,N,12238.62825,W,005.88,016.5,170713,016.8,E,D*22
$IIMTW,+16.0,C*3F
$PGRME,2.4,M,2.4,M,3.4,M*29
$HCHDG,355.0,0.0,E,,*2A
$IIMWV,348,R,11.7,N,A*1B
$IIMWV,335,T,05.5,N,A*10
$HCHDG,355.0,0.0,E,,*2A
$IIRMB,A,,,,OH  ,,,,,002.2,002,,V,A*10
$GPRMC,000000.4,A,4815.40508,N,12238.62821,W,005.92,016.6,170713,016.8,E,D*21
$GPRMB,A,-0.08,L,,OH,4817.5980,N,12238.5140,W,2.2,2,5.73,V*2F
$PGRME,2.4,M,2.4,M,3.4,M*29
$HCHDG,355.0,0.0,E,,*2A
$YXXDR,A,6.5,D,PTCH,A,2.0,D,ROLL*5C
$HCHDG,354.9,0.0,E,,*22
$GPRMC,000000.6,A,4815.40533,N,12238.62787,W,005.96,017.0,170713,016.8,E,D*2B
$PGRME,2.4,M,2.4,M,3.4,M*29
$HCHDG,354.9,0.0,E,,*22
$HCHDG,354.8,0.0,E,,*23
$GPRMC,000000.8,A,4815.40560,N,12238.62775,W,006.00,016.3,170713,016.8,E,D*20
$PGRME,2.4,M,2.4,M,3.4,M*29
$HCHDG,354.8,0.0,E,,*23
$HCHDG,354.8,0.0,E,,*23
$IIRMC,000000,A,4815.404,N,12238.628,W,05.8,016,160713,16,E,A*1F
$GPRMC,000001.0,A,4815.40595,N,12238.62755,W,005.99,016.8,170713,016.8,E,D*29
$PGRME,2.4,M,2.4,M,3.4,M*29
$YXXDR,A,6.0,D,PTCH,A,2.0,D,ROLL*59
$PTAK,FFD1,2.0*57
$IIVHW,,,,,06.6,N,,*19
$HCHDG,354.6,0.0,E,,*2D
$IIVLW,01888,N,031.8,N*50
$HCHDG,354.6,0.0,E,,*2D
$IIVWR,014,L,11.7,N,,,,*7D
$GPRMC,000001.2,A,4815.40621,N,12238.62736,W,005.99,016.4,170713,016.8,E,D*2E
$IIDPT,018.1,-1.0,*48
$PGRME,2.4,M,2.4,M,3.4,M*29
$HCHDG,354.9,0.0,E,,*22
$IIGLL,4815.404,N,12238.628,W,000000,A,A*4C
$IIMTW,+16.0,C*3F
$HCHDG,354.8,0.0,E,,*23
$IIMWV,346,R,11.7,N,A*15
$GPRMC,000001.4,A,4815.40649,N,12238.62715,W,006.00,015.6,170713,016.8,E,D*25
$PGRME,2.4,M,2.4,M,3.4,M*29
$IIMWV,334,T,05.5,N,A*11
$HCHDG,354.8,0.0,E,,*23
$YXXDR,A,6.2,D,PTCH,A,2.2,D,ROLL*59
$HCHDG,354.8,0.0,E,,*23
$GPRMC,000001.6,A,4815.40683,N,12238.62701,W,005.99,016.6,170713,016.8,E,D*24
$GPRMB,A,-0.08,L,,OH,4817.5980,N,12238.5140,W,2.2,2,5.80,V*23
$PGRME,2.4,M,2.4,M,3.4,M*29
$HCHDG,354.6,0.0,E,,*2D
$HCHDG,354.6,0.0,E,,*2D
$GPRMC,000001.8,A,4815.40720,N,12238.62682,W,005.99,016.3,170713,016.8,E,D*2D
$PGRME,2.4,M,2.4,M,3.4,M*29
$HCHDG,354.4,0.0,E,,*2F
$IIRMB,A,,,,OH  ,,,,,002.2,002,,V,A*10
$HCHDG,354.4,0.0,E,,*2F
$GPRMC,000002.0,A,4815.40757,N,12238.62665,W,006.01,015.5,170713,016.8,E,D*28
$PGRME,2.4,M,2.4,M,3.4,M*29
$YXXDR,A,6.4,D,PTCH,A,1.9,D,ROLL*57
$IIRMC,000000,A,4815.406,N,12238.627,W,05.9,016,160713,16,E,A*13
$HCHDG,354.4,0.0,E,,*2F
$IIVHW,,,,,06.4,N,,*1B
$HCHDG,354.3,0.0,E,,*28
$IIVLW,01888,N,031.8,N*50
$GPRMC,000002.2,A,4815.40796,N,12238.62657,W,006.00,016.2,170713,016.8,E,D*23
$PGRME,2.4,M,2.4,M,3.4,M*29
$IIVWR,014,L,11.5,N,,,,*7F
$HCHDG,354.3,0.0,E,,*28
$IIDPT,018.0,-1.0,*49
$HCHDG,354.1,0.0,E,,*2A
$IIGLL,4815.406,N,12238.627,W,000000,A,A*41
$GPRMC,000002.4,A,4815.40832,N,12238.62652,W,005.99,014.9,170713,016.8,E,D*2B
$PGRME,2.4,M,2.4,M,3.4,M*29
$IIMTW,+16.0,C*3F
$HCHDG,354.1,0.0,E,,*2A
$IIMWV,346,R,11.5,N,A*17
$YXXDR,A,6.1,D,PTCH,A,2.0,D,ROLL*58
$PTAK,FFD1,2.0*57
$HCHDG,354.1,0.0,E,,*2A
$GPRMC,000002.6,A,4815.40867,N,12238.62631,W,006.00,015.9,170713,016.8,E,D*2E
$GPRMB,A,-0.07,L,,OH,4817.5980,N,12238.5140,W,2.2,2,5.82,V*2E
$PGRME,2.4,M,2.4,M,3.4,M*29
$HCHDG,353.9,0.0,E,,*25
$PTAK,FFP1,HEEL,@*07
$HCHDG,353.8,0.0,E,,*24
$GPRMC,000002.8,A,4815.40906,N,12238.62613,W,006.02,015.0,170713,016.8,E,D*2D
$PGRME,2.4,M,2.4,M,3.4,M*29
$HCHDG,353.7,0.0,E,,*2B
$IIMWV,330,T,05.4,N,A*14
$HCHDG,353.5,0.0,E,,*29
$IIRMB,A,,,,OH  ,,,,,002.2,002,,V,A*10
$GPRMC,000003.0,A,4815.40939,N,12238.62602,W,006.01,015.2,170713,016.8,E,D*29
$PGRME,2.4,M,2.4,M,3.4,M*29
$YXXDR,A,6.3,D,PTCH,A,2.1,D,ROLL*5B
$HCHDG,353.4,0.0,E,,*28
$IIRMC,000000,A,4815.407,N,12238.626,W,06.0,016,160713,16,E,A*19
$HCHDG,353.3,0.0,E,,*2F
$IIVHW,,,,,06.1,N,,*1E
$GPRMC,000003.2,A,4815.40967,N,12238.62595,W,006.02,014.9,170713,016.8,E,D*24
$PGRME,2.4,M,2.4,M,3.4,M*29
$IIVLW,01888,N,031.8,N*50
$HCHDG,353.4,0.0,E,,*28
$IIVWR,013,L,11.4,N,,,,*79
$IIDPT,018.0,-1.0,*49
$HCHDG,353.3,0.0,E,,*2F
$GPRMC,000003.4,A,4815.40994,N,12238.62573,W,006.00,015.0,170713,016.8,E,D*2C
$PGRME,2.4,M,2.4,M,3.4,M*29
$IIGLL,4815.407,N,12238.626,W,000000,A,A*41
$HCHDG,353.2,0.0,E,,*2E
$IIMTW,+16.0,C*3F
$YXXDR,A,6.8,D,PTCH,A,2.4,D,ROLL*55
$HCHDG,353.2,0.0,E,,*2E
$GPRMC,000003.6,A,4815.41022,N,12238.62559,W,006.00,015.0,170713,016.8,E,D*23
$PGRME,2.4,M,2.4,M,3.4,M*29
$HCHDG,353.0,0.0,E,,*2C
$HCHDG,353.1,0.0,E,,*2D
$GPRMC,000003.8,A,4815.41047,N,12238.62548,W,006.00,014.5,170713,016.8,E,D*2A
$GPRMB,A,-0.07,L,,OH,4817.5980,N,12238.5140,W,2.2,2,5.86,V*2A
$PGRME,2.4,M,2.4,M,3.4,M*29
$HCHDG,352.8,0.0,E,,*25
$IIMWV,348,R,11.5,N,A*19
$HCHDG,353.0,0.0,E,,*2C
$IIMWV,333,T,05.4,N,A*17
$GPRMC,000004.0,A,4815.41081,N,12238.62542,W,005.99,013.7,170713,016.8,E,D*23
$PGRME,2.4,M,2.4,M,3.4,M*29
$YXXDR,A,6.1,D,PTCH,A,2.9,D,ROLL*51
$PTAK,FFD1,2.9*5E
$IIRMB,A,,,,OH  ,,,,,002.2,002,,V,A*10
$HCHDG,352.8,0.0,E,,*25
$HCHDG,353.1,0.0,E,,*2D
$IIRMC,000000,A,4815.409,N,12238.625,W,06.0,015,160713,16,E,A*17
$GPRMC,000004.2,A,4815.41113,N,12238.62533,W,006.00,013.2,170713,016.8,E,D*2B
$PGRME,2.4,M,2.4,M,3.4,M*29
$IIVHW,,,,,05.8,N,,*14
$HCHDG,352.8,0.0,E,,*25
$IIVLW,01888,N,031.8,N*50
$IIVWR,012,L,11.5,N,,,,*79
$HCHDG,352.8,0.0,E,,*25
$IIDPT,018.0,-1.0,*49
$GPRMC,000004.4,A,4815.41154,N,12238.62518,W,005.99,012.8,170713,016.8,E,D*2F
$PGRME,2.4,M,2.4,M,3.4,M*29
$HCHDG,352.7,0.0,E,,*2A
$YXXDR,A,6.0,D,PTCH,A,3.3,D,ROLL*5B
$HCHDG,352.8,0.0,E,,*25
$GPRMC,000004.6,A,4815.41196,N,12238.62508,W,005.98,012.6,170713,016.8,E,D*2D
$PGRME,2.4,M,2.4,M,3.4,M*29
$HCHDG,352.7,0.0,E,,*2A
$HCHDG,352.4,0.0,E,,*29
$GPRMC,000004.8,A,4815.41228,N,12238.62509,W,005.98,012.6,170713,016.8,E,D*24
$PGRME,2.4,M,2.4,M,3.4,M*29
$HCHDG,352.2,0.0,E,,*2F
$IIGLL,4815.411,N,12238.625,W,000000,A,A*45
$HCHDG,352.5,0.0,E,,*28
$IIMTW,+16.0,C*3F
$GPRMC,000005.0,A,4815.41268,N,12238.62511,W,005.98,011.7,170713,016.8,E,D*22
$GPRMB,A,-0.07,L,,OH,4817.5980,N,12238.5140,W,2.2,2,5.89,V*25
$PGRME,2.4,M,2.4,M,3.4,M*29
$YXXDR,A,6.5,D,PTCH,A,3.0,D,ROLL*5D
$PTAK,FFD1,3.0*56
$IIMWV,348,R,11.0,N,A*1C
$HCHDG,352.2,0.0,E,,*2F
$IIMWV,336,T,05.9,N,A*1F
$HCHDG,352.0,0.0,E,,*2D
$IIRMB,A,,,,OH  ,,,,,002.2,002,,V,A*10
$GPRMC,000005.2,A,4815.41300,N,12238.62497,W,005.97,012.1,170713,016.8,E,D*2A
$PGRME,2.4,M,2.4,M,3.4,M*29
$HCHDG,352.0,0.0,E,,*2D
$IIRMC,000000,A,4815.411,N,12238.625,W,05.9,012,160713,16,E,A*13
$HCHDG,351.8,0.0,E,,*26
$IIVHW,,,,,05.8,N,,*14
$GPRMC,000005.4,A,4815.41333,N,12238.62481,W,005.98,011.4,170713,016.8,E,D*22
$PGRME,2.4,M,2.4,M,3.4,M*29
$IIVLW,01888,N,031.8,N*50
$HCHDG,351.6,0.0,E,,*28
$YXXDR,A,5.8,D,PTCH,A,2.9,D,ROLL*5B
$HCHDG,351.5,0.0,E,,*2B
$GPRMC,000005.6,A,4815.41362,N,12238.62477,W,005.97,011.9,170713,016.8,E,D*2F
$PGRME,2.4,M,2.4,M,3.4,M*29
$HCHDG,351.6,0.0,E,,*28
$HCHDG,351.4,0.0,E,,*2A
$GPRMC,000005.8,A,4815.41392,N,12238.62474,W,005.98,011.1,170713,016.8,E,D*2A
$PGRME,2.4,M,2.4,M,3.4,M*29
$HCHDG,351.4,0.0,E,,*2A
$IIVWR,013,L,11.1,N,,,,*7C
$HCHDG,351.3,0.0,E,,*2D
$IIDPT,017.6,-1.0,*40
$GPRMC,000006.0,A,4815.41426,N,12238.62460,W,005.97,011.6,170713,016.8,E,D*24
$PGRME,2.4,M,2.4,M,3.4,M*29
$YXXDR,A,6.4,D,PTCH,A,2.6,D,ROLL*5B
$IIGLL,4815.413,N,12238.624,W,000000,A,A*46
$HCHDG,351.2,0.0,E,,*2C
$IIMTW,+16.0,C*3F
$IIMWV,347,R,11.1,N,A*12
$HCHDG,350.8,0.0,E,,*27
$GPRMC,000006.2,A,4815.41466,N,12238.62454,W,005.97,011.2,170713,016.8,E,D*21
$GPRMB,A,-0.07,L,,OH,4817.5980,N,12238.5140,W,2.2,2,5.89,V*25
$IIMWV,334,T,05.3,N,A*17
$PGRME,2.4,M,2.4,M,3.4,M*29
$HCHDG,350.7,0.0,E,,*28
$IIRMB,A,,,,OH  ,,,,,002.2,002,,V,A*10
$HCHDG,350.6,0.0,E,,*29
$GPRMC,000006.4,A,4815.41501,N,12238.62467,W,005.93,011.1,170713,016.8,E,D*20
$PGRME,2.4,M,2.4,M,3.4,M*29
$IIRMC,000000,A,4815.413,N,12238.624,W,05.9,011,160713,16,E,A*13
$HCHDG,350.6,0.0,E,,*29
$YXXDR,A,6.7,D,PTCH,A,2.6,D,ROLL*58
$PTAK,FFD1,2.6*51
$HCHDG,350.5,0.0,E,,*2A
$GPRMC,000006.6,A,4815.41534,N,12238.62473,W,005.90,010.9,170713,016.8,E,D*2B
$PGRME,2.4,M,2.4,M,3.4,M*29
$HCHDG,350.4,0.0,E,,*2B
$HCHDG,350.2,0.0,E,,*2D
$GPRMC,000006.8,A,4815.41565,N,12238.62463,W,005.86,010.9,170713,016.8,E,D*27
$PGRME,2.4,M,2.4,M,3.4,M*29
$HCHDG,350.2,0.0,E,,*2D
$PTAK,FFP1,HEEL,@*07
$IIVHW,,,,,06.4,N,,*1B
$HCHDG,349.9,0.0,E,,*2E
$IIVLW,01888,N,031.8,N*50
$GPRMC,000007.0,A,4815.41602,N,12238.62463,W,005.84,009.9,170713,016.8,E,D*26
$PGRME,2.4,M,2.4,M,3.4,M*29
$IIVWR,013,L,11.1,N,,,,*7C
$YXXDR,A,6.5,D,PTCH,A,2.6,D,ROLL*5A
$IIDPT,017.6,-1.0,*40
$HCHDG,349.9,0.0,E,,*2E
$HCHDG,349.8,0.0,E,,*2F
$IIGLL,4815.415,N,12238.624,W,000000,A,A*40
$GPRMC,000007.2,A,4815.41640,N,12238.62463,W,005.82,010.5,170713,016.8,E,D*20
$GPRMB,A,-0.07,L,,OH,4817.5980,N,12238.5140,W,2.2,2,5.76,V*25
$IIMTW,+16.0,C*3F
$PGRME,2.4,M,2.4,M,3.4,M*29
$HCHDG,349.7,0.0,E,,*20
$IIMWV,347,R,11.1,N,A*12
$IIMWV,333,T,05.1,N,A*12
$HCHDG,349.6,0.0,E,,*21
$IIRMB,A,,,,OH  ,,,,,002.2,002,,V,A*10
$GPRMC,000007.4,A,4815.41667,N,12238.62463,W,005.80,009.2,170713,016.8,E,D*2E
$PGRME,2.4,M,2.4,M,3.4,M*29
$HCHDG,349.5,0.0,E,,*22
$YXXDR,A,6.7,D,PTCH,A,2.7,D,ROLL*59
$HCHDG,349.5,0.0,E,,*22
$GPRMC,000007.6,A,4815.41693,N,12238.62451,W,005.79,009.8,170713,016.8,E,D*2A
$PGRME,2.4,M,2.4,M,3.4,M*29
$HCHDG,349.5,0.0,E,,*22
$HCHDG,349.3,0.0,E,,*24
$GPRMC,000007.8,A,4815.41726,N,12238.62453,W,005.80,009.1,170713,016.8,E,D*26
$PGRME,2.4,M,2.4,M,3.4,M*29
$HCHDG,349.1,0.0,E,,*26
$HCHDG,349.0,0.0,E,,*27
$IIRMC,000000,A,4815.416,N,12238.624,W,05.8,009,160713,16,E,A*1E
$GPRMC,000008.0,A,4815.41757,N,12238.62449,W,005.79,008.7,170713,016.8,E,D*2D
$PGRME,2.4,M,2.4,M,3.4,M*29
$YXXDR,A,6.5,D,PTCH,A,2.6,D,ROLL*5A
$PTAK,FFD1,2.6*51
$IIVHW,,,,,06.5,N,,*1A
$HCHDG,348.9,0.0,E,,*2F
$IIVLW,01888,N,031.8,N*50
$IIVWR,012,L,11.2,N,,,,*7E
$HCHDG,348.8,0.0,E,,*2E
$GPRMC,000008.2,A,4815.41774,N,12238.62442,W,005.79,008.6,170713,016.8,E,D*24
$GPRMB,A,-0.07,L,,OH,4817.5980,N,12238.5140,W,2.2,2,5.75,V*26
$IIDPT,017.6,-1.0,*40
$PGRME,2.4,M,2.4,M,3.4,M*29
$HCHDG,348.7,0.0,E,,*21
$IIGLL,4815.416,N,12238.624,W,000000,A,A*43
$IIMTW,+16.0,C*3F
$HCHDG,348.6,0.0,E,,*20
$IIMWV,348,R,11.2,N,A*1E
$GPRMC,000008.4,A,4815.41800,N,12238.62425,W,005.78,007.7,170713,016.8,E,D*20
$PGRME,2.4,M,2.4,M,3.4,M*29
$IIMWV,331,T,04.9,N,A*19
$HCHDG,348.5,0.0,E,,*23
$YXXDR,A,6.4,D,PTCH,A,2.8,D,ROLL*55
$HCHDG,348.3,0.0,E,,*25
$GPRMC,000008.6,A,4815.41832,N,12238.62410,W,005.78,007.8,170713,016.8,E,D*2A
$PGRME,2.4,M,2.4,M,3.4,M*29
$HCHDG,348.4,0.0,E,,*22
$HCHDG,348.2,0.0,E,,*24
$GPRMC,000008.8,A,4815.41871,N,12238.62394,W,005.77,007.3,170713,016.8,E,D*2C
$PGRME,2.4,M,2.4,M,3.4,M*29
$HCHDG,348.2,0.0,E,,*24
$IIRMB,A,,,,OH  ,,,,,002.2,002,,V,A*10
$HCHDG,348.0,0.0,E,,*26
$GPRMC,000009.0,A,4815.41906,N,12238.62398,W,005.78,007.3,170713,016.8,E,D*27
$PGRME,2.4,M,2.4,M,3.4,M*29
$YXXDR,A,6.8,D,PTCH,A,2.8,D,ROLL*59
$IIRMC,000000,A,4815.418,N,12238.624,W,05.7,007,160713,16,E,A*11
$HCHDG,347.6,0.0,E,,*2F
$IIVHW,,,,,06.6,N,,*19
$HCHDG,347.4,0.0,E,,*2D
$IIVLW,01888,N,031.8,N*50
$GPRMC,000009.2,A,4815.41943,N,12238.62400,W,005.79,007.0,170713,016.8,E,D*20
$GPRMB,A,-0.07,L,,OH,4817.5980,N,12238.5140,W,2.2,2,5.77,V*24
$PGRME,2.4,M,2.4,M,3.4,M*29
$IIVWR,011,L,11.5,N,,,,*7A
$HCHDG,347.5,0.0,E,,*2C
$IIDPT,017.6,-1.0,*40
$HCHDG,347.3,0.0,E,,*2A
$IIGLL,4815.418,N,12238.624,W,000000,A,A*4D
$GPRMC,000009.4,A,4815.41983,N,12238.62404,W,005.77,006.5,170713,016.8,E,D*24
$PGRME,2.4,M,2.4,M,3.4,M*29
$IIMTW,+16.0,C*3F
$HCHDG,347.1,0.0,E,,*28
$IIMWV,349,R,11.5,N,A*18
$YXXDR,A,6.6,D,PTCH,A,3.2,D,ROLL*5C
$PTAK,FFD1,3.2*54
$HCHDG,346.9,0.0,E,,*21
$GPRMC,000009.6,A,4815.42021,N,12238.62389,W,005.77,006.1,170713,016.8,E,D*22
$PGRME,2.4,M,2.4,M,3.4,M*29
$HCHDG,346.9,0.0,E,,*21
$HCHDG,346.7,0.0,E,,*2F
$GPRMC,000009.8,A,4815.42050,N,12238.62388,W,005.78,005.8,170713,016.8,E,D*2E
$PGRME,2.4,M,2.4,M,3.4,M*29
$HCHDG,346.8,0.0,E,,*20
$IIMWV,335,T,04.9,N,A*1D
$HCHDG,346.7,0.0,E,,*2F
$IIRMB,A,,,,OH  ,,,,,002.2,002,,V,A*10
$GPRMC,000010.0,A,4815.42083,N,12238.62388,W,005.77,004.9,170713,016.8,E,D*2F
$PGRME,2.4,M,2.4,M,3.4,M*29
$YXXDR,A,6.1,D,PTCH,A,2.9,D,ROLL*51
$HCHDG,346.6,0.0,E,,*2E
$IIRMC,000000,A,4815.419,N,12238.624,W,05.7,006,160713,16,E,A*11
$HCHDG,346.4,0.0,E,,*2C
$IIVHW,,,,,06.4,N,,*1B
$GPRMC,000010.2,A,4815.42110,N,12238.62385,W,005.77,005.0,170713,016.8,E,D*23
$PGRME,2.4,M,2.4,M,3.4,M*29
$IIVLW,01888,N,031.8,N*50
$HCHDG,346.5,0.0,E,,*2D
$IIVWR,011,L,11.5,N,,,,*7A
$IIDPT,017.6,-1.0,*40
$HCHDG,346.2,0.0,E,,*2A
$GPRMC,000010.4,A,4815.42128,N,12238.62362,W,005.77,005.0,170713,016.8,E,D*27
$GPRMB,A,-0.07,L,,OH,4817.5980,N,12238.5140,W,2.2,2,5.76,V*25
$PGRME,2.4,M,2.4,M,3.4,M*29
$IIGLL,4815.419,N,12238.624,W,000000,A,A*4C
$HCHDG,346.1,0.0,E,,*29
$IIMTW,+16.0,C*3F
$YXXDR,A,6.6,D,PTCH,A,2.7,D,ROLL*58
$PTAK,FFD1,2.7*50
$HCHDG,345.8,0.0,E,,*23
$GPRMC,000010.6,A,4815.42159,N,12238.62363,W,005.77,004.5,170713,016.8,E,D*26
$PGRME,2.4,M,2.4,M,3.4,M*29
$HCHDG,345.5,0.0,E,,*2E
$HCHDG,345.5,0.0,E,,*2E
$GPRMC,000010.8,A,4815.42189,N,12238.62356,W,005.75,004.8,170713,016.8,E,D*2C
$PGRME,2.4,M,2.4,M,3.4,M*29
$HCHDG,345.3,0.0,E,,*28
$PTAK,FFP1,HEEL,@*07
$IIMWV,350,R,11.8,N,A*1D
$HCHDG,345.2,0.0,E,,*29
$IIMWV,336,T,05.2,N,A*14
$GPRMC,000011.0,A,4815.42217,N,12238.62354,W,005.76,004.5,170713,016.8,E,D*2D
$PGRME,2.4,M,2.4,M,3.4,M*29
$YXXDR,A,6.4,D,PTCH,A,2.3,D,ROLL*5E
$IIRMB,A,,,,OH  ,,,,,002.2,002,,V,A*10
$HCHDG,345.0,0.0,E,,*2B
$HCHDG,344.9,0.0,E,,*23
$IIRMC,000000,A,4815.421,N,12238.623,W,05.7,005,160713,16,E,A*1E
$GPRMC,000011.2,A,4815.42246,N,12238.62338,W,005.77,004.5,170713,016.8,E,D*20
$PGRME,2.4,M,2.4,M,3.4,M*29
$IIVHW,,,,,06.2,N,,*1D
$HCHDG,344.8,0.0,E,,*22
$IIVLW,01888,N,031.9,N*51
$IIVWR,010,L,11.8,N,,,,*76
$HCHDG,344.6,0.0,E,,*2C
$IIDPT,017.6,-1.0,*40
$GPRMC,000011.4,A,4815.42281,N,12238.62336,W,005.76,004.3,170713,016.8,E,D*24
$GPRMB,A,-0.07,L,,OH,4817.5980,N,12238.5140,W,2.2,2,5.76,V*25
$PGRME,2.4,M,2.4,M,3.4,M*29
$HCHDG,344.3,0.0,E,,*29
$YXXDR,A,6.4,D,PTCH,A,2.3,D,ROLL*5E
$HCHDG,344.1,0.0,E,,*2B
$GPRMC,000011.6,A,4815.42314,N,12238.62328,W,005.76,004.2,170713,016.8,E,D*25
$PGRME,2.4,M,2.4,M,3.4,M*29
$HCHDG,344.2,0.0,E,,*28
$HCHDG,344.0,0.0,E,,*2A
$GPRMC,000011.8,A,4815.42345,N,12238.62320,W,005.75,004.0,170713,016.8,E,D*26
$PGRME,2.4,M,2.4,M,3.4,M*29
$HCHDG,343.9,0.0,E,,*24
$HCHDG,344.0,0.0,E,,*2A
$IIGLL,4815.422,N,12238.623,W,000000,A,A*43
$IIMTW,+16.0,C*3F
$GPRMC,000012.0,A,4815.42377,N,12238.62311,W,005.74,003.4,170713,016.8,E,D*2C
$PGRME,2.4,M,2.4,M,3.4,M*29
$YXXDR,A,6.4,D,PTCH,A,2.4,D,ROLL*59
$PTAK,FFD1,2.4*53
$IIMWV,350,R,11.6,N,A*13
$HCHDG,343.8,0.0,E,,*25
$IIMWV,339,T,05.6,N,A*1F
$HCHDG,343.8,0.0,E,,*25
$IIRMB,A,,,,OH  ,,,,,002.2,002,,V,A*10
$GPRMC,000012.2,A,4815.42413,N,12238.62317,W,005.75,002.7,170713,016.8,E,D*2E
$PGRME,2.4,M,2.4,M,3.4,M*29
$HCHDG,343.6,0.0,E,,*2B
$IIRMC,000000,A,4815.422,N,12238.623,W,05.7,004,160713,16,E,A*1C
$HCHDG,343.7,0.0,E,,*2A
$IIVHW,,,,,06.1,N,,*1E
$GPRMC,000012.4,A,4815.42445,N,12238.62316,W,005.79,003.6,170713,016.8,E,D*26
$PGRME,2.4,M,2.4,M,3.4,M*29
$IIVLW,01888,N,031.9,N*51
$HCHDG,343.5,0.0,E,,*28
$YXXDR,A,6.8,D,PTCH,A,2.4,D,ROLL*55
$HCHDG,343.2,0.0,E,,*2F
$GPRMC,000012.6,A,4815.42480,N,12238.62317,W,005.81,002.4,170713,016.8,E,D*28
$GPRMB,A,-0.07,L,,OH,4817.5980,N,12238.5140,W,2.2,2,5.81,V*2D
$PGRME,2.4,M,2.4,M,3.4,M*29
$HCHDG,343.0,0.0,E,,*2D
$HCHDG,342.9,0.0,E,,*25
$GPRMC,000012.8,A,4815.42511,N,12238.62320,W,005.83,002.3,170713,016.8,E,D*2E
$PGRME,2.4,M,2.4,M,3.4,M*29
$HCHDG,342.8,0.0,E,,*24
$IIVWR,010,L,11.9,N,,,,*77
$HCHDG,342.6,0.0,E,,*2A
$IIDPT,017.4,-1.0,*42
$GPRMC,000013.0,A,4815.42536,N,12238.62323,W,005.82,002.5,170713,016.8,E,D*26
$PGRME,2.4,M,2.4,M,3.4,M*29
$YXXDR,A,6.4,D,PTCH,A,2.4,D,ROLL*59
$PTAK,FFD1,2.4*53
$IIGLL,4815.424,N,12238.623,W,000000,A,A*45
$HCHDG,342.6,0.0,E,,*2A
$IIMTW,+16.0,C*3F
$IIMWV,350,R,11.9,N,A*1C
$HCHDG,342.5,0.0,E,,*29
$GPRMC,000013.2,A,4815.42562,N,12238.62319,W,005.82,001.1,170713,016.8,E,D*2B
$IIMWV,340,T,05.5,N,A*12
$PGRME,2.4,M,2.4,M,3.4,M*29
$HCHDG,342.5,0.0,E,,*29
$IIRMB,A,,,,OH  ,,,,,002.2,002,,V,A*10
$HCHDG,342.3,0.0,E,,*2F
$GPRMC,000013.4,A,4815.42586,N,12238.62322,W,005.83,001.5,170713,016.8,E,D*2A
$PGRME,2.4,M,2.4,M,3.4,M*29
$IIRMC,000000,A,4815.424,N,12238.623,W,05.7,003,160713,16,E,A*1D
$HCHDG,342.4,0.0,E,,*28
$YXXDR,A,6.6,D,PTCH,A,2.9,D,ROLL*56
$HCHDG,342.3,0.0,E,,*2F
$GPRMC,000013.6,A,4815.42612,N,12238.62322,W,005.80,001.5,170713,016.8,E,D*25
$GPRMB,A,-0.07,L,,OH,4817.5980,N,12238.5140,W,2.2,2,5.80,V*2C
$PGRME,2.4,M,2.4,M,3.4,M*29
$HCHDG,342.2,0.0,E,,*2E
$HCHDG,341.9,0.0,E,,*26
$GPRMC,000013.8,A,4815.42642,N,12238.62324,W,005.82,000.3,170713,016.8,E,D*2D
$PGRME,2.4,M,2.4,M,3.4,M*29
$HCHDG,341.7,0.0,E,,*28
$IIVHW,,,,,05.9,N,,*15
$HCHDG,341.6,0.0,E,,*29
$IIVLW,01888,N,031.9,N*51
$GPRMC,000014.0,A,4815.42676,N,12238.62319,W,005.83,000.3,170713,016.8,E,D*2A
$PGRME,2.4,M,2.4,M,3.4,M*29
$IIVWR,010,L,12.0,N,,,,*7D
$YXXDR,A,6.4,D,PTCH,A,2.8,D,ROLL*55
$PTAK,FFD1,2.8*5F
$IIDPT,017.4,-1.0,*42
$HCHDG,341.5,0.0,E,,*2A
$HCHDG,341.5,0.0,E,,*2A
$IIGLL,4815.425,N,12238.623,W,000000,A,A*44
$IIMTW,+16.0,C*3F
$GPRMC,000014.2,A,4815.42709,N,12238.62322,W,005.83,359.7,170713,016.8,E,D*22
$PGRME,2.4,M,2.4,M,3.4,M*29
$HCHDG,341.4,0.0,E,,*2B
$IIMWV,350,R,12.0,N,A*16
$IIMWV,340,T,05.7,N,A*10
$HCHDG,341.3,0.0,E,,*2C
$IIRMB,A,,,,OH  ,,,,,002.2,002,,V,A*10
$GPRMC,000014.4,A,4815.42742,N,12238.62326,W,005.83,359.5,170713,016.8,E,D*2D
$PGRME,2.4,M,2.4,M,3.4,M*29
$HCHDG,341.3,0.0,E,,*2C
$YXXDR,A,6.4,D,PTCH,A,2.9,D,ROLL*54
$HCHDG,341.2,0.0,E,,*2D
$GPRMC,000014.6,A,4815.42761,N,12238.62332,W,005.85,359.0,170713,016.8,E,D*28
$PGRME,2.4,M,2.4,M,3.4,M*29
$HCHDG,341.0,0.0,E,,*2F
$HCHDG,340.9,0.0,E,,*27
$GPRMC,000014.8,A,4815.42788,N,12238.62331,W,005.85,358.5,170713,016.8,E,D*26
$GPRMB,A,-0.07,L,,OH,4817.5980,N,12238.5140,W,2.2,2,5.84,V*28
$PGRME,2.4,M,2.4,M,3.4,M*29
$HCHDG,340.9,0.0,E,,*27
$PTAK,FFP1,HEEL,@*07
$HCHDG,340.8,0.0,E,,*26
$IIRMC,000000,A,4815.427,N,12238.623,W,05.8,359,160713,16,E,A*1D
$GPRMC,000015.0,A,4815.42813,N,12238.62333,W,005.86,357.7,170713,016.8,E,D*2E
$PGRME,2.4,M,2.4,M,3.4,M*29
$YXXDR,A,6.6,D,PTCH,A,3.0,D,ROLL*5E
$PTAK,FFD1,3.0*56
$IIVHW,,,,,06.0,N,,*1F
$HCHDG,341.1,0.0,E,,*2E
$IIVLW,01888,N,031.9,N*51
$IIVWR,010,L,12.1,N,,,,*7C
$HCHDG,341.0,0.0,E,,*2F
$GPRMC,000015.2,A,4815.42839,N,12238.62337,W,005.85,358.2,170713,016.8,E,D*29
$IIDPT,017.4,-1.0,*42
$PGRME,2.4,M,2.4,M,3.4,M*29
$HCHDG,341.0,0.0,E,,*2F
$IIGLL,4815.427,N,12238.623,W,000000,A,A*46
$IIMTW,+16.0,C*3F
$HCHDG,340.9,0.0,E,,*27
$IIMWV,350,R,12.1,N,A*17
$GPRMC,000015.4,A,4815.42866,N,12238.62338,W,005.86,357.2,170713,016.8,E,D*26
$PGRME,2.4,M,2.4,M,3.4,M*29
$IIMWV,340,T,06.0,N,A*14
$HCHDG,340.9,0.0,E,,*27
$YXXDR,A,6.6,D,PTCH,A,2.7,D,ROLL*58
$HCHDG,340.6,0.0,E,,*28
$GPRMC,000015.6,A,4815.42899,N,12238.62339,W,005.85,358.2,170713,016.8,E,D*29
$PGRME,2.4,M,2.4,M,3.4,M*29
$HCHDG,340.4,0.0,E,,*2A
$HCHDG,340.3,0.0,E,,*2D
$GPRMC,000015.8,A,4815.42932,N,12238.62337,W,005.83,357.4,170713,016.8,E,D*26
$GPRMB,A,-0.07,L,,OH,4817.5980,N,12238.5140,W,2.2,2,5.81,V*2D
$PGRME,2.4,M,2.4,M,3.4,M*29
$HCHDG,340.2,0.0,E,,*2C
$IIRMB,A,,,,OH  ,,,,,002.2,002,,V,A*10
$HCHDG,340.1,0.0,E,,*2F
$GPRMC,000016.0,A,4815.42961,N,12238.62355,W,005.84,357.6,170713,016.8,E,D*2A
$PGRME,2.4,M,2.4,M,3.4,M*29
$YXXDR,A,7.0,D,PTCH,A,2.3,D,ROLL*5B
$PTAK,FFD1,2.3*54
$IIRMC,000000,A,4815.428,N,12238.623,W,05.8,357,160713,16,E,A*1C
$HCHDG,340.2,0.0,E,,*2C
$IIVHW,,,,,05.9,N,,*15
$HCHDG,339.8,0.0,E,,*28
$IIVLW,01888,N,031.9,N*51
$GPRMC,000016.2,A,4815.43003,N,12238.62364,W,005.85,358.0,170713,016.8,E,D*2E
$PGRME,2.4,M,2.4,M,3.4,M*29
$IIVWR,011,L,12.1,N,,,,*7D
$HCHDG,340.0,0.0,E,,*2E
$IIDPT,017.4,-1.0,*42
$HCHDG,340.0,0.0,E,,*2E
$IIGLL,4815.428,N,12238.623,W,000000,A,A*49
$GPRMC,000016.4,A,4815.43037,N,12238.62370,W,005.86,357.1,170713,016.8,E,D*27
$PGRME,2.4,M,2.4,M,3.4,M*29
$IIMTW,+16.0,C*3F
$HCHDG,339.8,0.0,E,,*28
$IIMWV,349,R,12.1,N,A*1F
$YXXDR,A,6.2,D,PTCH,A,2.2,D,ROLL*59
$HCHDG,339.8,0.0,E,,*28
$GPRMC,000016.6,A,4815.43075,N,12238.62367,W,005.85,357.8,170713,016.8,E,D*2F
$PGRME,2.4,M,2.4,M,3.4,M*29
$HCHDG,339.8,0.0,E,,*28
$HCHDG,339.6,0.0,E,,*26
$GPRMC,000016.8,A,4815.43106,N,12238.62384,W,005.85,357.4,170713,016.8,E,D*25
$PGRME,2.4,M,2.4,M,3.4,M*29
$HCHDG,339.5,0.0,E,,*25
$IIMWV,339,T,06.2,N,A*18
$HCHDG,339.6,0.0,E,,*26
$IIRMB,A,,,,OH  ,,,,,002.2,002,,V,A*10
$GPRMC,000017.0,A,4815.43140,N,12238.62384,W,005.83,357.6,170713,016.8,E,D*2A
$GPRMB,A,-0.07,L,,OH,4817.5980,N,12238.5140,W,2.2,2,5.81,V*2D
$PGRME,2.4,M,2.4,M,3.4,M*29
$YXXDR,A,6.1,D,PTCH,A,2.0,D,ROLL*58
$PTAK,FFD1,2.0*57
$HCHDG,339.7,0.0,E,,*27
$IIRMC,000000,A,4815.430,N,12238.623,W,05.8,357,160713,16,E,A*15
$HCHDG,339.7,0.0,E,,*27
$IIVHW,,,,,06.2,N,,*1D
$GPRMC,000017.2,A,4815.43165,N,12238.62380,W,005.82,357.6,170713,016.8,E,D*2A
$PGRME,2.4,M,2.4,M,3.4,M*29
$IIVLW,01888,N,031.9,N*51
$HCHDG,339.5,0.0,E,,*25
$IIVWR,011,L,12.2,N,,,,*7E
$IIDPT,017.4,-1.0,*42
$HCHDG,339.6,0.0,E,,*26
$GPRMC,000017.4,A,4815.43195,N,12238.62379,W,005.82,357.2,170713,016.8,E,D*21
$PGRME,2.4,M,2.4,M,3.4,M*29
$IIGLL,4815.430,N,12238.623,W,000000,A,A*40
$HCHDG,339.8,0.0,E,,*28
$IIMTW,+16.0,C*3F
$YXXDR,A,6.4,D,PTCH,A,1.9,D,ROLL*57
$HCHDG,339.9,0.0,E,,*29
$GPRMC,000017.6,A,4815.43225,N,12238.62392,W,005.82,357.8,170713,016.8,E,D*24
$PGRME,2.4,M,2.4,M,3.4,M*29
$HCHDG,339.8,0.0,E,,*28
$HCHDG,340.0,0.0,E,,*2E
$GPRMC,000017.8,A,4815.43259,N,12238.62395,W,005.82,357.2,170713,016.8,E,D*2C
$PGRME,2.4,M,2.4,M,3.4,M*29
$HCHDG,340.0,0.0,E,,*2E
$IIMWV,349,R,11.8,N,A*15
$HCHDG,339.9,0.0,E,,*29
$IIMWV,338,T,06.0,N,A*1B
$GPRMC,000018.0,A,4815.43295,N,12238.62403,W,005.84,358.5,170713,016.8,E,D*2D
$PGRME,2.4,M,2.4,M,3.4,M*29
$YXXDR,A,6.6,D,PTCH,A,1.6,D,ROLL*5A
$IIRMB,A,,,,OH  ,,,,,002.2,002,,V,A*10
$HCHDG,340.0,0.0,E,,*2E
$HCHDG,340.0,0.0,E,,*2E
$IIRMC,000000,A,4815.431,N,12238.623,W,05.8,357,160713,16,E,A*14
$GPRMC,000018.2,A,4815.43338,N,12238.62411,W,005.84,358.5,170713,016.8,E,D*2A
$GPRMB,A,-0.07,L,,OH,4817.5980,N,12238.5140,W,2.2,2,5.83,V*2F
$PGRME,2.4,M,2.4,M,3.4,M*29
$IIVHW,,,,,06.2,N,,*1D
$HCHDG,339.9,0.0,E,,*29
$IIVLW,01888,N,031.9,N*51
$IIVWR,011,L,11.8,N,,,,*77
$HCHDG,339.7,0.0,E,,*27
$IIDPT,017.4,-1.0,*42
$GPRMC,000018.4,A,4815.43375,N,12238.62412,W,005.83,358.5,170713,016.8,E,D*21
$PGRME,2.4,M,2.4,M,3.4,M*29
$HCHDG,339.7,0.0,E,,*27
$YXXDR,A,6.0,D,PTCH,A,1.1,D,ROLL*5B
$PTAK,FFD1,1.1*55
$HCHDG,339.8,0.0,E,,*28
$GPRMC,000018.6,A,4815.43410,N,12238.62405,W,005.83,359.6,170713,016.8,E,D*23
$PGRME,2.4,M,2.4,M,3.4,M*29
$HCHDG,339.5,0.0,E,,*25
$HCHDG,339.5,0.0,E,,*25
$GPRMC,000018.8,A,4815.43444,N,12238.62396,W,005.80,358.9,170713,016.8,E,D*2C
$PGRME,2.4,M,2.4,M,3.4,M*29
$HCHDG,339.3,0.0,E,,*23
$IIGLL,4815.433,N,12238.624,W,000000,A,A*44
$HCHDG,339.4,0.0,E,,*24
$IIMTW,+16.0,C*3F
$GPRMC,000019.0,A,4815.43486,N,12238.62393,W,005.80,359.0,170713,016.8,E,D*26
$PTAK,FFP1,HEEL,@*07
$PGRME,2.4,M,2.4,M,3.4,M*29
$YXXDR,A,6.5,D,PTCH,A,0.9,D,ROLL*57
$IIMWV,348,R,11.9,N,A*15
$HCHDG,339.2,0.0,E,,*22
$IIMWV,337,T,05.7,N,A*10
$HCHDG,339.4,0.0,E,,*24
$IIRMB,A,,,,OH  ,,,,,002.2,002,,V,A*10
$GPRMC,000019.2,A,4815.43524,N,12238.62399,W,005.80,359.5,170713,016.8,E,D*22
$PGRME,2.4,M,2.4,M,3.4,M*29
$HCHDG,339.3,0.0,E,,*23
$IIRMC,000000,A,4815.433,N,12238.624,W,05.8,358,160713,16,E,A*1E
$HCHDG,339.2,0.0,E,,*22
$IIVHW,,,,,06.1,N,,*1E
$GPRMC,000019.4,A,4815.43555,N,12238.62390,W,005.78,359.4,170713,016.8,E,D*2D
$GPRMB,A,-0.07,L,,OH,4817.5980,N,12238.5140,W,2.2,2,5.77,V*24
$PGRME,2.4,M,2.4,M,3.4,M*29
$IIVLW,01888,N,031.9,N*51
$HCHDG,339.2,0.0,E,,*22
$YXXDR,A,6.0,D,PTCH,A,1.0,D,ROLL*5A
$PTAK,FFD1,1.0*54
$HCHDG,339.2,0.0,E,,*22
$GPRMC,000019.6,A,4815.43581,N,12238.62378,W,005.78,000.3,170713,016.8,E,D*28
$PGRME,2.4,M,2.4,M,3.4,M*29
$HCHDG,339.3,0.0,E,,*23
$HCHDG,339.3,0.0,E,,*23
$GPRMC,000019.8,A,4815.43610,N,12238.62376,W,005.75,359.1,170713,016.8,E,D*23
$PGRME,2.4,M,2.4,M,3.4,M*29
$HCHDG,339.3,0.0,E,,*23
$IIVWR,010,L,12.1,N,,,,*7C
$HCHDG,339.3,0.0,E,,*23
$IIDPT,017.2,-1.0,*44
$GPRMC,000020.0,A,4815.43642,N,12238.62370,W,005.74,359.8,170713,016.8,E,D*28
$PGRME,2.4,M,2.4,M,3.4,M*29
$YXXDR,A,6.5,D,PTCH,A,1.3,D,ROLL*5C
$IIGLL,4815.435,N,12238.623,W,000000,A,A*45
$HCHDG,339.0,0.0,E,,*20
$IIMTW,+16.0,C*3F
$IIMWV,350,R,12.1,N,A*17
$HCHDG,338.9,0.0,E,,*28
$GPRMC,000020.2,A,4815.43679,N,12238.62364,W,005.71,359.4,170713,016.8,E,D*2E
$IIMWV,337,T,06.0,N,A*14
$PGRME,2.4,M,2.4,M,3.4,M*29
$HCHDG,339.2,0.0,E,,*22
$IIRMB,A,,,,OH  ,,,,,002.2,002,,V,A*10
$HCHDG,339.1,0.0,E,,*21
$GPRMC,000020.4,A,4815.43713,N,12238.62367,W,005.70,359.8,170713,016.8,E,D*2B
$PGRME,2.4,M,2.4,M,3.4,M*29
$IIRMC,000000,A,4815.435,N,12238.623,W,05.7,359,160713,16,E,A*11
$HCHDG,338.8,0.0,E,,*29
$YXXDR,A,6.3,D,PTCH,A,1.5,D,ROLL*5C
$HCHDG,338.7,0.0,E,,*26
$GPRMC,000020.6,A,4815.43744,N,12238.62367,W,005.69,359.3,170713,016.8,E,D*28
$GPRMB,A,-0.07,L,,OH,4817.5980,N,12238.5140,W,2.2,2,5.68,V*2A
$PGRME,2.4,M,2.4,M,3.4,M*29
$HCHDG,338.5,0.0,E,,*24
$HCHDG,338.7,0.0,E,,*26
$GPRMC,000020.8,A,4815.43776,N,12238.62365,W,005.69,359.2,170713,016.8,E,D*24
$PGRME,2.4,M,2.4,M,3.4,M*29
$HCHDG,338.6,0.0,E,,*27
$IIVHW,,,,,05.8,N,,*14
$HCHDG,338.7,0.0,E,,*26
$IIVLW,01888,N,031.9,N*51
$GPRMC,000021.0,A,4815.43810,N,12238.62374,W,005.69,359.1,170713,016.8,E,D*21
$PGRME,2.4,M,2.4,M,3.4,M*29
$IIVWR,009,L,12.5,N,,,,*70
$YXXDR,A,6.4,D,PTCH,A,1.9,D,ROLL*57
$PTAK,FFD1,1.9*5D
$IIDPT,017.2,-1.0,*44
$HCHDG,338.4,0.0,E,,*25
$IIGLL,4815.437,N,12238.623,W,000000,A,A*47
$HCHDG,338.5,0.0,E,,*24
$GPRMC,000021.2,A,4815.43848,N,12238.62390,W,005.70,358.9,170713,016.8,E,D*25
$IIMTW,+16.0,C*3F
$PGRME,2.4,M,2.4,M,3.4,M*29
$HCHDG,338.2,0.0,E,,*23
$IIMWV,351,R,12.5,N,A*12
$IIMWV,341,T,06.2,N,A*17
$HCHDG,338.0,0.0,E,,*21
$IIRMB,A,,,,OH  ,,,,,002.2,002,,V,A*10
$GPRMC,000021.4,A,4815.43886,N,12238.62387,W,005.69,358.5,170713,016.8,E,D*23
$PGRME,2.4,M,2.4,M,3.4,M*29
$HCHDG,338.3,0.0,E,,*22
$YXXDR,A,6.6,D,PTCH,A,2.3,D,ROLL*5C
$HCHDG,338.0,0.0,E,,*21
$GPRMC,000021.6,A,4815.43898,N,12238.62381,W,005.67,357.7,170713,016.8,E,D*2B
$GPRMB,A,-0.07,L,,OH,4817.5980,N,12238.5140,W,2.2,2,5.65,V*27
$PGRME,2.4,M,2.4,M,3.4,M*29
$HCHDG,338.0,0.0,E,,*21
$HCHDG,338.0,0.0,E,,*21
$GPRMC,000021.8,A,4815.43921,N,12238.62384,W,005.67,357.8,170713,016.8,E,D*2C
$PGRME,2.4,M,2.4,M,3.4,M*29
$HCHDG,338.0,0.0,E,,*21
$HCHDG,337.8,0.0,E,,*26
$IIRMC,000000,A,4815.438,N,12238.623,W,05.6,358,160713,16,E,A*1C
$GPRMC,000022.0,A,4815.43951,N,12238.62387,W,005.68,357.6,170713,016.8,E,D*22
$PGRME,2.4,M,2.4,M,3.4,M*29
$YXXDR,A,6.8,D,PTCH,A,3.0,D,ROLL*50
$PTAK,FFD1,3.0*56
$IIVHW,,,,,05.9,N,,*15
$HCHDG,337.8,0.0,E,,*26
$IIVLW,01888,N,031.9,N*51
$HCHDG,337.8,0.0,E,,*26
$IIVWR,008,L,12.4,N,,,,*70
$GPRMC,000022.2,A,4815.43979,N,12238.62390,W,005.67,356.9,170713,016.8,E,D*2D
$IIDPT,017.2,-1.0,*44
$PGRME,2.4,M,2.4,M,3.4,M*29
$HCHDG,337.6,0.0,E,,*28
$IIGLL,4815.438,N,12238.623,W,000000,A,A*48
$IIMTW,+16.0,C*3F
$HCHDG,337.6,0.0,E,,*28
$IIMWV,352,R,12.4,N,A*10
$GPRMC,000022.4,A,4815.44004,N,12238.62394,W,005.69,356.6,170713,016.8,E,D*2A
$PGRME,2.4,M,2.4,M,3.4,M*29
$IIMWV,343,T,06.7,N,A*10
$HCHDG,337.4,0.0,E,,*2A
$YXXDR,A,6.6,D,PTCH,A,3.0,D,ROLL*5E
$HCHDG,337.4,0.0,E,,*2A
$GPRMC,000022.6,A,4815.44037,N,12238.62401,W,005.72,356.2,170713,016.8,E,D*2D
$PGRME,2.4,M,2.4,M,3.4,M*29
$HCHDG,337.2,0.0,E,,*2C
$HCHDG,337.4,0.0,E,,*2A
$GPRMC,000022.8,A,4815.44067,N,12238.62402,W,005.71,356.0,170713,016.8,E,D*24
$GPRMB,A,-0.07,L,,OH,4817.5980,N,12238.5140,W,2.2,2,5.68,V*2A
$PGRME,2.4,M,2.4,M,3.4,M*29
$HCHDG,337.3,0.0,E,,*2D
$IIRMB,A,,,,OH  ,,,,,002.2,002,,V,A*10
$HCHDG,337.2,0.0,E,,*2C
$PTAK,FFP1,HEEL,@*07
$GPRMC,000023.0,A,4815.44097,N,12238.62398,W,005.72,355.6,170713,016.8,E,D*20
$PGRME,2.4,M,2.4,M,3.4,M*29
$YXXDR,A,6.6,D,PTCH,A,3.1,D,ROLL*5F
$IIRMC,000000,A,4815.440,N,12238.623,W,05.6,356,160713,16,E,A*1D
$HCHDG,337.5,0.0,E,,*2B
$IIVHW,,,,,05.9,N,,*15
$HCHDG,337.4,0.0,E,,*2A
$IIVLW,01888,N,031.9,N*51
$GPRMC,000023.2,A,4815.44132,N,12238.62397,W,005.76,355.1,170713,016.8,E,D*20
$PGRME,2.4,M,2.4,M,3.4,M*29
$IIVWR,009,L,12.3,N,,,,*76
$HCHDG,337.3,0.0,E,,*2D
$IIDPT,017.2,-1.0,*44
$HCHDG,337.3,0.0,E,,*2D
$IIGLL,4815.440,N,12238.623,W,000000,A,A*47
$GPRMC,000023.4,A,4815.44166,N,12238.62402,W,005.77,354.9,170713,016.8,E,D*24
$PGRME,2.4,M,2.4,M,3.4,M*29
$IIMTW,+16.0,C*3F
$HCHDG,337.1,0.0,E,,*2F
$IIMWV,351,R,12.3,N,A*14
$YXXDR,A,6.7,D,PTCH,A,2.4,D,ROLL*5A
$PTAK,FFD1,2.4*53
$HCHDG,336.9,0.0,E,,*26
$GPRMC,000023.6,A,4815.44197,N,12238.62404,W,005.78,354.8,170713,016.8,E,D*20
$PGRME,2.4,M,2.4,M,3.4,M*29
$HCHDG,336.8,0.0,E,,*27
$HCHDG,336.9,0.0,E,,*26
$GPRMC,000023.8,A,4815.44231,N,12238.62407,W,005.80,354.5,170713,016.8,E,D*28
$GPRMB,A,-0.07,L,,OH,4817.5980,N,12238.5140,W,2.2,2,5.75,V*26
$PGRME,2.4,M,2.4,M,3.4,M*29
$HCHDG,336.9,0.0,E,,*26
$IIMWV,343,T,06.4,N,A*13
$HCHDG,336.7,0.0,E,,*28
$IIRMB,A,,,,OH  ,,,,,002.2,002,,V,A*10
$GPRMC,000024.0,A,4815.44259,N,12238.62401,W,005.79,353.6,170713,016.8,E,D*2D
$PGRME,2.4,M,2.4,M,3.4,M*29
$YXXDR,A,6.4,D,PTCH,A,2.3,D,ROLL*5E
$HCHDG,336.5,0.0,E,,*2A
$IIRMC,000000,A,4815.441,N,12238.624,W,05.7,354,160713,16,E,A*18
$HCHDG,336.4,0.0,E,,*2B
$IIVHW,,,,,06.0,N,,*1F
$GPRMC,000024.2,A,4815.44286,N,12238.62399,W,005.78,353.8,170713,016.8,E,D*24
$PGRME,2.4,M,2.4,M,3.4,M*29
$IIVLW,01888,N,031.9,N*51
$HCHDG,336.5,0.0,E,,*2A
$IIVWR,009,L,12.3,N,,,,*76
$IIDPT,016.9,-1.0,*4E
$HCHDG,336.5,0.0,E,,*2A
$GPRMC,000024.4,A,4815.44313,N,12238.62399,W,005.78,352.6,170713,016.8,E,D*20
$PGRME,2.4,M,2.4,M,3.4,M*29
$IIGLL,4815.441,N,12238.624,W,000000,A,A*41
$HCHDG,336.2,0.0,E,,*2D
$IIMTW,+16.0,C*3F
$YXXDR,A,6.7,D,PTCH,A,2.1,D,ROLL*5F
$HCHDG,336.2,0.0,E,,*2D
$GPRMC,000024.6,A,4815.44341,N,12238.62393,W,005.77,352.5,170713,016.8,E,D*23
$PGRME,2.4,M,2.4,M,3.4,M*29
$HCHDG,336.2,0.0,E,,*2D
$HCHDG,336.2,0.0,E,,*2D
$GPRMC,000024.8,A,4815.44373,N,12238.62391,W,005.76,352.6,170713,016.8,E,D*2C
$PGRME,2.4,M,2.4,M,3.4,M*29
$HCHDG,336.3,0.0,E,,*2C
$IIMWV,351,R,12.2,N,A*15
$HCHDG,336.3,0.0,E,,*2C
$IIMWV,343,T,06.3,N,A*14
$GPRMC,000025.0,A,4815.44408,N,12238.62393,W,005.73,352.5,170713,016.8,E,D*2A
$GPRMB,A,-0.07,L,,OH,4817.5980,N,12238.5140,W,2.2,2,5.65,V*27
$PGRME,2.4,M,2.4,M,3.4,M*29
$YXXDR,A,6.2,D,PTCH,A,2.2,D,ROLL*59
$PTAK,FFD1,2.2*55
$IIRMB,A,,,,OH  ,,,,,002.2,002,,V,A*10
$HCHDG,336.3,0.0,E,,*2C
$HCHDG,336.1,0.0,E,,*2E
$IIRMC,000000,A,4815.441,N,12238.624,W,05.7,354,160713,16,E,A*18
$GPRMC,000025.2,A,4815.44445,N,12238.62401,W,005.73,352.7,170713,016.8,E,D*2F
$PGRME,2.4,M,2.4,M,3.4,M*29
$IIVHW,,,,,06.0,N,,*1F
$HCHDG,336.1,0.0,E,,*2E
$IIVLW,01888,N,031.9,N*51
$IIVWR,009,L,12.2,N,,,,*77
$HCHDG,336.1,0.0,E,,*2E
$IIDPT,016.9,-1.0,*4E
$GPRMC,000025.4,A,4815.44480,N,12238.62415,W,005.71,352.0,170713,016.8,E,D*20
$PGRME,2.4,M,2.4,M,3.4,M*29
$HCHDG,336.2,0.0,E,,*2D
$YXXDR,A,6.6,D,PTCH,A,2.0,D,ROLL*5F
$HCHDG,336.2,0.0,E,,*2D
$GPRMC,000025.6,A,4815.44519,N,12238.62410,W,005.71,352.6,170713,016.8,E,D*20
$PGRME,2.4,M,2.4,M,3.4,M*29
$HCHDG,336.1,0.0,E,,*2E
$HCHDG,336.1,0.0,E,,*2E
$GPRMC,000025.8,A,4815.44555,N,12238.62414,W,005.69,352.0,170713,016.8,E,D*2D
$PGRME,2.4,M,2.4,M,3.4,M*29
$HCHDG,336.2,0.0,E,,*2D
$IIGLL,4815.443,N,12238.623,W,000000,A,A*44
$HCHDG,336.2,0.0,E,,*2D
$IIMTW,+16.0,C*3F
$GPRMC,000026.0,A,4815.44595,N,12238.62419,W,005.69,352.7,170713,016.8,E,D*20
$GPRMB,A,-0.07,L,,OH,4817.5980,N,12238.5140,W,2.2,2,5.62,V*20
$PGRME,2.4,M,2.4,M,3.4,M*29
$YXXDR,A,6.7,D,PTCH,A,2.0,D,ROLL*5E
$IIMWV,351,R,12.2,N,A*15
$HCHDG,336.4,0.0,E,,*2B
$IIMWV,343,T,06.2,N,A*15
$HCHDG,336.5,0.0,E,,*2A
$IIRMB,A,,,,OH  ,,,,,002.2,002,,V,A*10
$GPRMC,000026.2,A,4815.44633,N,12238.62421,W,005.69,352.5,170713,016.8,E,D*24
$PGRME,2.4,M,2.4,M,3.4,M*29
$HCHDG,336.4,0.0,E,,*2B
$IIRMC,000000,A,4815.443,N,12238.623,W,05.7,352,160713,16,E,A*1B
$HCHDG,336.4,0.0,E,,*2B
$IIVHW,,,,,06.2,N,,*1D
$GPRMC,000026.4,A,4815.44666,N,12238.62413,W,005.69,352.5,170713,016.8,E,D*23
$PGRME,2.4,M,2.4,M,3.4,M*29
$IIVLW,01888,N,031.9,N*51
$HCHDG,336.3,0.0,E,,*2C
$YXXDR,A,6.3,D,PTCH,A,1.6,D,ROLL*5F
$PTAK,FFD1,1.6*52
$HCHDG,336.5,0.0,E,,*2A
$GPRMC,000026.6,A,4815.44697,N,12238.62424,W,005.68,352.2,170713,016.8,E,D*2D
$PGRME,2.4,M,2.4,M,3.4,M*29
$HCHDG,336.5,0.0,E,,*2A
$HCHDG,336.6,0.0,E,,*29
$GPRMC,000026.8,A,4815.44728,N,12238.62434,W,005.69,353.0,170713,016.8,E,D*25
$PGRME,2.4,M,2.4,M,3.4,M*29
$HCHDG,336.5,0.0,E,,*2A
$IIVWR,010,L,12.2,N,,,,*7F
$HCHDG,336.6,0.0,E,,*29
$IIDPT,016.9,-1.0,*4E
$GPRMC,000027.0,A,4815.44762,N,12238.62443,W,005.69,353.0,170713,016.8,E,D*22
$PGRME,2.4,M,2.4,M,3.4,M*29
$YXXDR,A,6.4,D,PTCH,A,1.3,D,ROLL*5D
$PTAK,FFP1,HEEL,@*07
$IIGLL,4815.446,N,12238.624,W,000000,A,A*46
$HCHDG,336.6,0.0,E,,*29
$IIMTW,+16.0,C*3F
$IIMWV,350,R,12.2,N,A*14
$HCHDG,336.7,0.0,E,,*28
$GPRMC,000027.2,A,4815.44793,N,12238.62446,W,005.70,352.9,170713,016.8,E,D*2B
$GPRMB,A,-0.07,L,,OH,4817.5980,N,12238.5140,W,2.2,2,5.63,V*21
$IIMWV,342,T,06.1,N,A*17
$PGRME,2.4,M,2.4,M,3.4,M*29
$HCHDG,336.8,0.0,E,,*27
$IIRMB,A,,,,OH  ,,,,,002.2,002,,V,A*10
$HCHDG,336.8,0.0,E,,*27
$GPRMC,000027.4,A,4815.44825,N,12238.62460,W,005.71,354.0,170713,016.8,E,D*25
$PGRME,2.4,M,2.4,M,3.4,M*29
$IIRMC,000000,A,4815.446,N,12238.624,W,05.6,352,160713,16,E,A*18
$HCHDG,337.0,0.0,E,,*2E
$YXXDR,A,6.4,D,PTCH,A,1.1,D,ROLL*5F
$PTAK,FFD1,1.1*55
$HCHDG,337.1,0.0,E,,*2F
$GPRMC,000027.6,A,4815.44857,N,12238.62470,W,005.71,353.9,170713,016.8,E,D*2D
$PGRME,2.4,M,2.4,M,3.4,M*29
$HCHDG,337.2,0.0,E,,*2C
$HCHDG,337.1,0.0,E,,*2F
$GPRMC,000027.8,A,4815.44891,N,12238.62479,W,005.73,354.6,170713,016.8,E,D*2A
$PGRME,2.4,M,2.4,M,3.4,M*29
$HCHDG,337.0,0.0,E,,*2E
$IIVHW,,,,,06.0,N,,*1F
$HCHDG,337.2,0.0,E,,*2C
$IIVLW,01888,N,031.9,N*51
$GPRMC,000028.0,A,4815.44930,N,12238.62507,W,005.71,354.4,170713,016.8,E,D*2F
$PGRME,2.4,M,2.4,M,3.4,M*29
$IIVWR,011,L,12.2,N,,,,*7E
$YXXDR,A,6.7,D,PTCH,A,0.7,D,ROLL*5B
$IIDPT,016.9,-1.0,*4E
$HCHDG,337.3,0.0,E,,*2D
$HCHDG,337.3,0.0,E,,*2D
$IIGLL,4815.448,N,12238.624,W,000000,A,A*48
$GPRMC,000028.2,A,4815.44972,N,12238.62521,W,005.72,354.6,170713,016.8,E,D*2E
$GPRMB,A,-0.07,L,,OH,4817.5980,N,12238.5140,W,2.2,2,5.67,V*25
$IIMTW,+16.0,C*3F
$PGRME,2.4,M,2.4,M,3.4,M*29
$HCHDG,337.5,0.0,E,,*2B
$IIMWV,349,R,12.2,N,A*1C
$IIMWV,340,T,06.0,N,A*14
$HCHDG,337.4,0.0,E,,*2A
$IIRMB,A,,,,OH  ,,,,,002.2,002,,V,A*10
$GPRMC,000028.4,A,4815.45002,N,12238.62516,W,005.71,355.3,170713,016.8,E,D*24
$PGRME,2.4,M,2.4,M,3.4,M*29
$HCHDG,337.7,0.0,E,,*29
$YXXDR,A,6.3,D,PTCH,A,0.6,D,ROLL*5E
$PTAK,FFD1,0.6*53
$HCHDG,337.5,0.0,E,,*2B
$GPRMC,000028.6,A,4815.45021,N,12238.62507,W,005.71,355.8,170713,016.8,E,D*2C
$PGRME,2.4,M,2.4,M,3.4,M*29
$HCHDG,337.6,0.0,E,,*28
$HCHDG,337.7,0.0,E,,*29
$GPRMC,000028.8,A,4815.45048,N,12238.62507,W,005.74,356.5,170713,016.8,E,D*26
$PGRME,2.4,M,2.4,M,3.4,M*29
$HCHDG,338.0,0.0,E,,*21
$HCHDG,338.1,0.0,E,,*20
$IIRMC,000000,A,4815.450,N,12238.625,W,05.7,355,160713,16,E,A*18
$GPRMC,000029.0,A,4815.45084,N,12238.62510,W,005.76,356.0,170713,016.8,E,D*2E
$PGRME,2.4,M,2.4,M,3.4,M*29
$YXXDR,A,6.3,D,PTCH,A,1.2,D,ROLL*5B
$IIVHW,,,,,05.8,N,,*14
$HCHDG,338.2,0.0,E,,*23
$IIVLW,01888,N,031.9,N*51
$HCHDG,338.3,0.0,E,,*22
$IIVWR,011,L,12.2,N,,,,*7E
$GPRMC,000029.2,A,4815.45109,N,12238.62503,W,005.76,356.2,170713,016.8,E,D*28
$IIDPT,016.8,-1.0,*4F
$PGRME,2.4,M,2.4,M,3.4,M*29
$HCHDG,338.3,0.0,E,,*22
$IIGLL,4815.450,N,12238.625,W,000000,A,A*40
$IIMTW,+16.0,C*3F
$HCHDG,338.3,0.0,E,,*22
$IIMWV,349,R,12.2,N,A*1C
$GPRMC,000029.4,A,4815.45136,N,12238.62514,W,005.77,356.3,170713,016.8,E,D*24
$GPRMB,A,-0.07,L,,OH,4817.5980,N,12238.5140,W,2.1,2,5.74,V*24
$PGRME,2.4,M,2.4,M,3.4,M*29
$IIMWV,339,T,06.3,N,A*19
$HCHDG,338.4,0.0,E,,*25
$YXXDR,A,6.4,D,PTCH,A,1.2,D,ROLL*5C
$PTAK,FFD1,1.2*56
$HCHDG,338.4,0.0,E,,*25
$GPRMC,000029.6,A,4815.45164,N,12238.62527,W,005.76,357.0,170713,016.8,E,D*22
$PGRME,2.4,M,2.4,M,3.4,M*29
$HCHDG,338.6,0.0,E,,*27
$HCHDG,338.7,0.0,E,,*26
$GPRMC,000029.8,A,4815.45190,N,12238.62531,W,005.77,356.9,170713,016.8,E,D*29
$PGRME,2.4,M,2.4,M,3.4,M*29
$HCHDG,338.8,0.0,E,,*29
$IIRMB,A,,,,OH  ,,,,,002.1,002,,V,A*13
$HCHDG,338.8,0.0,E,,*29
$GPRMC,000030.0,A,4815.45217,N,12238.62523,W,005.77,357.8,170713,016.8,E,D*26
$PGRME,2.4,M,2.4,M,3.4,M*29
$YXXDR,A,6.8,D,PTCH,A,1.5,D,ROLL*57
$IIRMC,000000,A,4815.450,N,12238.625,W,05.7,355,160713,16,E,A*18
$HCHDG,338.8,0.0,E,,*29
$IIVHW,,,,,05.9,N,,*15
$HCHDG,338.7,0.0,E,,*26
$IIVLW,01888,N,031.9,N*51
$GPRMC,000030.2,A,4815.45245,N,12238.62536,W,005.77,357.8,170713,016.8,E,D*27
$PGRME,2.4,M,2.4,M,3.4,M*29
$IIVWR,011,L,11.8,N,,,,*77
$HCHDG,339.0,0.0,E,,*20
$IIDPT,016.7,-1.0,*40
$HCHDG,339.0,0.0,E,,*20
$IIGLL,4815.450,N,12238.625,W,000000,A,A*40
$GPRMC,000030.4,A,4815.45275,N,12238.62545,W,005.76,357.6,170713,016.8,E,D*29
$PGRME,2.4,M,2.4,M,3.4,M*29
$IIMTW,+16.0,C*3F
$HCHDG,339.0,0.0,E,,*20
$IIMWV,349,R,11.8,N,A*15
$YXXDR,A,6.3,D,PTCH,A,1.5,D,ROLL*5C
$HCHDG,339.1,0.0,E,,*21
$GPRMC,000030.6,A,4815.45301,N,12238.62556,W,005.75,357.6,170713,016.8,E,D*28
$GPRMB,A,-0.07,L,,OH,4817.5980,N,12238.5140,W,2.1,2,5.73,V*23
$PGRME,2.4,M,2.4,M,3.4,M*29
$HCHDG,339.1,0.0,E,,*21
$HCHDG,339.4,0.0,E,,*24
$GPRMC,000030.8,A,4815.45341,N,12238.62535,W,005.76,358.1,170713,016.8,E,D*2C
$PTAK,FFP1,HEEL,@*07
$PGRME,2.4,M,2.4,M,3.4,M*29
$HCHDG,339.4,0.0,E,,*24
$IIMWV,338,T,05.9,N,A*11
$HCHDG,339.5,0.0,E,,*25
$IIRMB,A,,,,OH  ,,,,,002.1,002,,V,A*13
$GPRMC,000031.0,A,4815.45373,N,12238.62543,W,005.76,358.4,170713,016.8,E,D*20
$GPRMB,A,-0.07,L,,OH,4817.5980,N,12238.5140,W,2.1,2,5.75,V*25
$PGRME,2.4,M,2.4,M,3.4,M*29
$YXXDR,A,6.3,D,PTCH,A,2.0,D,ROLL*5A
$PTAK,FFD1,2.0*57
$HCHDG,339.6,0.0,E,,*26
$IIRMC,000000,A,4815.453,N,12238.625,W,05.7,357,160713,16,E,A*19
$HCHDG,339.6,0.0,E,,*26
$IIVHW,,,,,06.1,N,,*1E
$GPRMC,000031.2,A,4815.45403,N,12238.62556,W,005.76,358.3,170713,016.8,E,D*21
$PGRME,2.4,M,2.4,M,3.4,M*29
$IIVLW,01888,N,031.9,N*51
$HCHDG,339.6,0.0,E,,*26
$IIVWR,010,L,12.0,N,,,,*7D
$IIDPT,016.7,-1.0,*40
$HCHDG,339.7,0.0,E,,*27
$GPRMC,000031.4,A,4815.45423,N,12238.62551,W,005.74,358.3,170713,016.8,E,D*20
$PGRME,2.4,M,2.4,M,3.4,M*29
$IIGLL,4815.453,N,12238.625,W,000000,A,A*43
$HCHDG,339.9,0.0,E,,*29
$IIMTW,+16.0,C*3F
$YXXDR,A,6.3,D,PTCH,A,1.8,D,ROLL*51
$HCHDG,340.1,0.0,E,,*2F
$GPRMC,000031.6,A,4815.45449,N,12238.62533,W,005.75,359.2,170713,016.8,E,D*2B
$PGRME,2.4,M,2.4,M,3.4,M*29
$HCHDG,340.1,0.0,E,,*2F
$HCHDG,340.3,0.0,E,,*2D
$GPRMC,000031.8,A,4815.45475,N,12238.62531,W,005.76,358.8,170713,016.8,E,D*20
$PGRME,2.4,M,2.4,M,3.4,M*29
$HCHDG,340.3,0.0,E,,*2D
$HCHDG,340.5,0.0,E,,*2B
$GPRMC,000032.0,A,4815.45505,N,12238.62533,W,005.75,358.7,170713,016.8,E,D*23
$PGRME,2.4,M,2.4,M,3.4,M*29
$YXXDR,A,6.4,D,PTCH,A,1.9,D,ROLL*57
$HCHDG,340.5,0.0,E,,*2B
$HCHDG,340.6,0.0,E,,*28
$GPRMC,000032.2,A,4815.45548,N,12238.62532,W,005.77,359.0,170713,016.8,E,D*2D
$PGRME,2.4,M,2.4,M,3.4,M*29
$HCHDG,340.7,0.0,E,,*29
$HCHDG,340.8,0.0,E,,*26
$GPRMC,000032.4,A,4815.45591,N,12238.62537,W,005.78,359.2,170713,016.8,E,D*27
$PGRME,2.4,M,2.4,M,3.4,M*29
$HCHDG,340.8,0.0,E,,*26
$YXXDR,A,6.3,D,PTCH,A,1.8,D,ROLL*51
$HCHDG,340.9,0.0,E,,*27
$GPRMC,000032.6,A,4815.45638,N,12238.62528,W,005.78,358.9,170713,016.8,E,D*21
$PGRME,2.4,M,2.4,M,3.4,M*29
$HCHDG,340.9,0.0,E,,*27
$HCHDG,340.9,0.0,E,,*27
$GPRMC,000032.8,A,4815.45669,N,12238.62523,W,005.78,359.7,170713,016.8,E,D*2F
$PGRME,2.4,M,2.4,M,3.4,M*29
$HCHDG,341.1,0.0,E,,*2E
$IIMWV,349,R,12.1,N,A*1F
$HCHDG,341.1,0.0,E,,*2E
$IIMWV,340,T,05.9,N,A*1E
$GPRMC,000033.0,A,4815.45701,N,12238.62517,W,005.77,359.5,170713,016.8,E,D*23
$PGRME,2.4,M,2.4,M,3.4,M*29
$YXXDR,A,6.4,D,PTCH,A,1.5,D,ROLL*5B
$IIRMB,A,,,,OH  ,,,,,002.1,002,,V,A*13
$HCHDG,341.3,0.0,E,,*2C
$HCHDG,341.4,0.0,E,,*2B
$IIRMC,000000,A,4815.454,N,12238.625,W,05.7,359,160713,16,E,A*10
$GPRMC,000033.2,A,4815.45737,N,12238.62514,W,005.77,000.3,170713,016.8,E,D*2E
$GPRMB,A,-0.07,L,,OH,4817.5980,N,12238.5140,W,2.1,2,5.77,V*27
$PGRME,2.4,M,2.4,M,3.4,M*29
$IIVHW,,,,,06.1,N,,*1E
$HCHDG,341.4,0.0,E,,*2B
$IIVLW,01888,N,031.9,N*51
$IIVWR,011,L,12.1,N,,,,*7D
$HCHDG,341.5,0.0,E,,*2A
$IIDPT,016.5,-1.0,*42
$GPRMC,000033.4,A,4815.45774,N,12238.62506,W,005.76,000.1,170713,016.8,E,D*2F
$PGRME,2.4,M,2.4,M,3.4,M*29
$HCHDG,341.5,0.0,E,,*2A
$YXXDR,A,6.9,D,PTCH,A,1.4,D,ROLL*57
$PTAK,FFD1,1.4*50
$HCHDG,341.7,0.0,E,,*28
$GPRMC,000033.6,A,4815.45790,N,12238.62513,W,005.72,000.7,170713,016.8,E,D*21
$PGRME,2.4,M,2.4,M,3.4,M*29
$HCHDG,341.7,0.0,E,,*28
$HCHDG,341.8,0.0,E,,*27
$GPRMC,000033.8,A,4815.45822,N,12238.62511,W,005.72,001.1,170713,016.8,E,D*2C
$PGRME,2.4,M,2.4,M,3.4,M*29
$HCHDG,341.5,0.0,E,,*2A
$IIGLL,4815.457,N,12238.625,W,000000,A,A*47
$HCHDG,341.8,0.0,E,,*27
$IIMTW,+16.0,C*3F
$GPRMC,000034.0,A,4815.45859,N,12238.62515,W,005.70,000.8,170713,016.8,E,D*21
$PGRME,2.4,M,2.4,M,3.4,M*29
$YXXDR,A,6.8,D,PTCH,A,1.1,D,ROLL*53
$IIMWV,349,R,12.2,N,A*1C
$HCHDG,341.9,0.0,E,,*26
$IIMWV,337,T,06.4,N,A*10
$HCHDG,342.1,0.0,E,,*2D
$IIRMB,A,,,,OH  ,,,,,002.1,002,,V,A*13
$GPRMC,000034.2,A,4815.45891,N,12238.62510,W,005.67,000.9,170713,016.8,E,D*25
$PGRME,2.4,M,2.4,M,3.4,M*29
$HCHDG,342.1,0.0,E,,*2D
$IIRMC,000000,A,4815.457,N,12238.625,W,05.7,000,160713,16,E,A*1C
$HCHDG,342.3,0.0,E,,*2F
$IIVHW,,,,,06.0,N,,*1F
$GPRMC,000034.4,A,4815.45922,N,12238.62514,W,005.69,001.6,170713,016.8,E,D*2E
$GPRMB,A,-0.07,L,,OH,4817.5980,N,12238.5140,W,2.1,2,5.69,V*28
$PGRME,2.4,M,2.4,M,3.4,M*29
$IIVLW,01888,N,031.9,N*51
$HCHDG,342.3,0.0,E,,*2F
$YXXDR,A,6.9,D,PTCH,A,1.3,D,ROLL*50
$PTAK,FFD1,1.3*57
$HCHDG,342.4,0.0,E,,*28
$GPRMC,000034.6,A,4815.45959,N,12238.62516,W,005.69,001.7,170713,016.8,E,D*23
$PGRME,2.4,M,2.4,M,3.4,M*29
$HCHDG,342.5,0.0,E,,*29
$HCHDG,342.6,0.0,E,,*2A
$GPRMC,000034.8,A,4815.45997,N,12238.62526,W,005.68,001.0,170713,016.8,E,D*2A
$PGRME,2.4,M,2.4,M,3.4,M*29
$HCHDG,342.7,0.0,E,,*2B
$IIVWR,011,L,12.2,N,,,,*7E
$HCHDG,342.8,0.0,E,,*24
$IIDPT,016.4,-1.0,*43
$GPRMC,000035.0,A,4815.46040,N,12238.62535,W,005.69,002.4,170713,016.8,E,D*27
$PGRME,2.4,M,2.4,M,3.4,M*29
$YXXDR,A,6.5,D,PTCH,A,1.3,D,ROLL*5C
$IIGLL,4815.457,N,12238.625,W,000000,A,A*47
$HCHDG,342.7,0.0,E,,*2B
$IIMTW,+16.0,C*3F
$IIMWV,349,R,12.2,N,A*1C
$HCHDG,342.8,0.0,E,,*24
$GPRMC,000035.2,A,4815.46084,N,12238.62544,W,005.70,002.0,170713,016.8,E,D*27
$IIMWV,339,T,06.3,N,A*19
$PGRME,2.4,M,2.4,M,3.4,M*29
$HCHDG,342.8,0.0,E,,*24
$IIRMB,A,,,,OH  ,,,,,002.1,002,,V,A*13
$HCHDG,342.9,0.0,E,,*25
$GPRMC,000035.4,A,4815.46117,N,12238.62546,W,005.69,002.4,170713,016.8,E,D*24
$PGRME,2.4,M,2.4,M,3.4,M*29
$IIRMC,000000,A,4815.457,N,12238.625,W,05.7,000,160713,16,E,A*1C
$HCHDG,343.0,0.0,E,,*2D
$YXXDR,A,6.4,D,PTCH,A,1.2,D,ROLL*5C
$HCHDG,343.0,0.0,E,,*2D
$PTAK,FFP1,HEEL,@*07
$GPRMC,000035.6,A,4815.46146,N,12238.62556,W,005.71,002.2,170713,016.8,E,D*2C
$GPRMB,A,-0.07,L,,OH,4817.5980,N,12238.5140,W,2.1,2,5.71,V*21
$PGRME,2.4,M,2.4,M,3.4,M*29
$HCHDG,343.1,0.0,E,,*2C
$HCHDG,343.1,0.0,E,,*2C
$GPRMC,000035.8,A,4815.46175,N,12238.62557,W,005.70,003.1,170713,016.8,E,D*20
$PGRME,2.4,M,2.4,M,3.4,M*29
$HCHDG,343.1,0.0,E,,*2C
$IIVHW,,,,,06.3,N,,*1C
$HCHDG,343.1,0.0,E,,*2C
$IIVLW,01888,N,031.9,N*51
$GPRMC,000036.0,A,4815.46206,N,12238.62560,W,005.71,003.1,170713,016.8,E,D*29
$PGRME,2.4,M,2.4,M,3.4,M*29
$IIVWR,012,L,12.2,N,,,,*7D
$YXXDR,A,6.4,D,PTCH,A,1.2,D,ROLL*5C
$PTAK,FFD1,1.2*56
$IIDPT,016.3,-1.0,*44
$HCHDG,343.0,0.0,E,,*2D
$HCHDG,343.0,0.0,E,,*2D
$IIGLL,4815.461,N,12238.625,W,000000,A,A*42
$GPRMC,000036.2,A,4815.46230,N,12238.62562,W,005.71,002.5,170713,016.8,E,D*29
$IIMTW,+16.0,C*3F
$PGRME,2.4,M,2.4,M,3.4,M*29
$HCHDG,343.4,0.0,E,,*29
$IIMWV,348,R,12.2,N,A*1D
$IIMWV,338,T,06.0,N,A*1B
$HCHDG,343.5,0.0,E,,*28
$IIRMB,A,,,,OH  ,,,,,002.1,002,,V,A*13
$GPRMC,000036.4,A,4815.46264,N,12238.62570,W,005.71,003.1,170713,016.8,E,D*28
$PGRME,2.4,M,2.4,M,3.4,M*29
$HCHDG,343.5,0.0,E,,*28
$YXXDR,A,6.3,D,PTCH,A,1.3,D,ROLL*5A
$HCHDG,343.5,0.0,E,,*28
$GPRMC,000036.6,A,4815.46297,N,12238.62571,W,005.72,003.7,170713,016.8,E,D*22
$GPRMB,A,-0.07,L,,OH,4817.5980,N,12238.5140,W,2.1,2,5.72,V*22
$PGRME,2.4,M,2.4,M,3.4,M*29
$HCHDG,343.6,0.0,E,,*2B
$HCHDG,343.7,0.0,E,,*2A
$GPRMC,000036.8,A,4815.46331,N,12238.62563,W,005.72,003.4,170713,016.8,E,D*21
$PGRME,2.4,M,2.4,M,3.4,M*29
$HCHDG,343.8,0.0,E,,*25
$HCHDG,343.7,0.0,E,,*2A
$IIRMC,000000,A,4815.462,N,12238.625,W,05.7,003,160713,16,E,A*19
$GPRMC,000037.0,A,4815.46369,N,12238.62560,W,005.72,003.5,170713,016.8,E,D*27
$PGRME,2.4,M,2.4,M,3.4,M*29
$YXXDR,A,6.3,D,PTCH,A,1.3,D,ROLL*5A
$PTAK,FFD1,1.3*57
$IIVHW,,,,,06.3,N,,*1C
$HCHDG,343.8,0.0,E,,*25
$IIVLW,01888,N,031.9,N*51
$IIVWR,012,L,12.7,N,,,,*78
$HCHDG,343.8,0.0,E,,*25
$GPRMC,000037.2,A,4815.46412,N,12238.62573,W,005.73,004.0,170713,016.8,E,D*2F
$PGRME,2.4,M,2.4,M,3.4,M*29
$IIDPT,016.3,-1.0,*44
$HCHDG,344.1,0.0,E,,*2B
$IIGLL,4815.462,N,12238.625,W,000000,A,A*41
$IIMTW,+16.0,C*3F
$HCHDG,344.1,0.0,E,,*2B
$IIMWV,348,R,12.7,N,A*18
$GPRMC,000037.4,A,4815.46445,N,12238.62576,W,005.72,003.5,170713,016.8,E,D*2D
$PGRME,2.4,M,2.4,M,3.4,M*29
$IIMWV,335,T,06.0,N,A*16
$HCHDG,344.1,0.0,E,,*2B
$YXXDR,A,6.5,D,PTCH,A,1.9,D,ROLL*56
$HCHDG,344.2,0.0,E,,*28
$GPRMC,000037.6,A,4815.46477,N,12238.62566,W,005.72,004.1,170713,016.8,E,D*2C
$PGRME,2.4,M,2.4,M,3.4,M*29
$HCHDG,344.4,0.0,E,,*2E
$HCHDG,344.4,0.0,E,,*2E
$GPRMC,000037.8,A,4815.46515,N,12238.62558,W,005.72,004.3,170713,016.8,E,D*28
$GPRMB,A,-0.07,L,,OH,4817.5980,N,12238.5140,W,2.1,2,5.72,V*22
$PGRME,2.4,M,2.4,M,3.4,M*29
$HCHDG,344.4,0.0,E,,*2E
$IIRMB,A,,,,OH  ,,,,,002.1,002,,V,A*13
$HCHDG,344.4,0.0,E,,*2E
$GPRMC,000038.0,A,4815.46544,N,12238.62574,W,005.71,003.7,170713,016.8,E,D*25
$PGRME,2.4,M,2.4,M,3.4,M*29
$YXXDR,A,6.4,D,PTCH,A,1.9,D,ROLL*57
$IIRMC,000000,A,4815.464,N,12238.625,W,05.7,004,160713,16,E,A*18
$HCHDG,344.7,0.0,E,,*2D
$IIVHW,,,,,06.3,N,,*1C
$HCHDG,344.6,0.0,E,,*2C
$IIVLW,01888,N,031.9,N*51
$GPRMC,000038.2,A,4815.46570,N,12238.62575,W,005.71,004.3,170713,016.8,E,D*22
$PGRME,2.4,M,2.4,M,3.4,M*29
$IIVWR,012,L,12.5,N,,,,*7A
$HCHDG,344.6,0.0,E,,*2C
$IIDPT,016.1,-1.0,*46
$HCHDG,344.7,0.0,E,,*2D
$IIGLL,4815.464,N,12238.625,W,000000,A,A*47
$GPRMC,000038.4,A,4815.46592,N,12238.62561,W,005.72,003.6,170713,016.8,E,D*2C
$PGRME,2.4,M,2.4,M,3.4,M*29
$IIMTW,+16.0,C*3F
$HCHDG,345.0,0.0,E,,*2B
$IIMWV,348,R,12.5,N,A*1A
$YXXDR,A,6.3,D,PTCH,A,2.1,D,ROLL*5B
$PTAK,FFD1,2.1*56
$HCHDG,345.0,0.0,E,,*2B
$GPRMC,000038.6,A,4815.46624,N,12238.62547,W,005.73,004.4,170713,016.8,E,D*20
$PGRME,2.4,M,2.4,M,3.4,M*29
$HCHDG,344.9,0.0,E,,*23
$HCHDG,344.9,0.0,E,,*23
$GPRMC,000038.8,A,4815.46654,N,12238.62545,W,005.75,004.3,170713,016.8,E,D*2A
$PGRME,2.4,M,2.4,M,3.4,M*29
$HCHDG,345.0,0.0,E,,*2B
$IIMWV,336,T,06.4,N,A*11
$HCHDG,345.0,0.0,E,,*2B
$IIRMB,A,,,,OH  ,,,,,002.1,002,,V,A*13
$GPRMC,000039.0,A,4815.46686,N,12238.62552,W,005.74,004.1,170713,016.8,E,D*29
$GPRMB,A,-0.07,L,,OH,4817.5980,N,12238.5140,W,2.1,2,5.74,V*24
$PGRME,2.4,M,2.4,M,3.4,M*29
$YXXDR,A,6.3,D,PTCH,A,2.0,D,ROLL*5A
$HCHDG,344.9,0.0,E,,*23
$IIRMC,000000,A,4815.466,N,12238.625,W,05.7,004,160713,16,E,A*1A
$HCHDG,345.0,0.0,E,,*2B
$IIVHW,,,,,06.3,N,,*1C
$GPRMC,000039.2,A,4815.46723,N,12238.62552,W,005.76,004.5,170713,016.8,E,D*23
$PGRME,2.4,M,2.4,M,3.4,M*29
$IIVLW,01888,N,031.9,N*51
$HCHDG,345.0,0.0,E,,*2B
$IIVWR,013,L,12.8,N,,,,*76
$IIDPT,016.1,-1.0,*46
$HCHDG,345.0,0.0,E,,*2B
$GPRMC,000039.4,A,4815.46764,N,12238.62551,W,005.76,005.2,170713,016.8,E,D*23
$PGRME,2.4,M,2.4,M,3.4,M*29
$IIGLL,4815.466,N,12238.625,W,000000,A,A*45
$HCHDG,345.0,0.0,E,,*2B
$IIMTW,+16.0,C*3F
$YXXDR,A,6.3,D,PTCH,A,1.8,D,ROLL*51
$HCHDG,345.1,0.0,E,,*2A
$PTAK,FFP1,HEEL,@*07
$GPRMC,000039.6,A,4815.46797,N,12238.62545,W,005.77,004.5,170713,016.8,E,D*2F
$PGRME,2.4,M,2.4,M,3.4,M*29
$HCHDG,345.0,0.0,E,,*2B
$HCHDG,345.3,0.0,E,,*28
$GPRMC,000039.8,A,4815.46833,N,12238.62543,W,005.77,004.9,170713,016.8,E,D*2A
$PGRME,2.4,M,2.4,M,3.4,M*29
$HCHDG,345.3,0.0,E,,*28
$IIMWV,346,R,12.6,N,A*17
$HCHDG,345.4,0.0,E,,*2F
$IIMWV,335,T,06.6,N,A*10
$GPRMC,000040.0,A,4815.46872,N,12238.62539,W,005.77,005.3,170713,016.8,E,D*2F
$PGRME,2.4,M,2.4,M,3.4,M*29
$YXXDR,A,6.1,D,PTCH,A,2.0,D,ROLL*58
$PTAK,FFD1,2.0*57
$IIRMB,A,,,,OH  ,,,,,002.1,002,,V,A*13
$HCHDG,345.4,0.0,E,,*2F
$HCHDG,345.4,0.0,E,,*2F
$IIRMC,000000,A,4815.467,N,12238.625,W,05.7,004,160713,16,E,A*1B
$GPRMC,000040.2,A,4815.46910,N,12238.62526,W,005.75,004.6,170713,016.8,E,D*20
$GPRMB,A,-0.07,L,,OH,4817.5980,N,12238.5140,W,2.1,2,5.74,V*24
$PGRME,2.4,M,2.4,M,3.4,M*29
$IIVHW,,,,,06.3,N,,*1C
$HCHDG,345.4,0.0,E,,*2F
$IIVLW,01888,N,031.9,N*51
$IIVWR,014,L,12.6,N,,,,*7F
$HCHDG,345.4,0.0,E,,*2F
$IIDPT,016.1,-1.0,*46
$GPRMC,000040.4,A,4815.46935,N,12238.62500,W,005.76,005.4,170713,016.8,E,D*25
$PGRME,2.4,M,2.4,M,3.4,M*29
$HCHDG,345.4,0.0,E,,*2F
$YXXDR,A,6.0,D,PTCH,A,2.0,D,ROLL*59
$HCHDG,345.4,0.0,E,,*2F
$GPRMC,000040.6,A,4815.46957,N,12238.62487,W,005.77,005.4,170713,016.8,E,D*2C
$PGRME,2.4,M,2.4,M,3.4,M*29
$HCHDG,345.4,0.0,E,,*2F
$HCHDG,345.6,0.0,E,,*2D
$GPRMC,000040.8,A,4815.46986,N,12238.62482,W,005.78,005.3,170713,016.8,E,D*23
$PGRME,2.4,M,2.4,M,3.4,M*29
$HCHDG,345.6,0.0,E,,*2D
$IIGLL,4815.469,N,12238.624,W,000000,A,A*4B
$HCHDG,345.6,0.0,E,,*2D
$IIMTW,+16.0,C*3F
$GPRMC,000041.0,A,4815.47019,N,12238.62478,W,005.78,005.2,170713,016.8,E,D*20
$PGRME,2.4,M,2.4,M,3.4,M*29
$YXXDR,A,6.5,D,PTCH,A,2.2,D,ROLL*5E
$PTAK,FFD1,2.2*55
$IIMWV,347,R,12.4,N,A*14
$HCHDG,345.6,0.0,E,,*2D
$IIMWV,333,T,06.5,N,A*15
$HCHDG,345.7,0.0,E,,*2C
$IIRMB,A,,,,OH  ,,,,,002.1,002,,V,A*13
$GPRMC,000041.2,A,4815.47049,N,12238.62477,W,005.78,005.4,170713,016.8,E,D*2E
$PGRME,2.4,M,2.4,M,3.4,M*29
$HCHDG,345.6,0.0,E,,*2D
$IIRMC,000000,A,4815.469,N,12238.624,W,05.7,005,160713,16,E,A*15
$HCHDG,345.6,0.0,E,,*2D
$IIVHW,,,,,06.3,N,,*1C
$GPRMC,000041.4,A,4815.47082,N,12238.62480,W,005.80,005.8,170713,016.8,E,D*2C
$GPRMB,A,-0.07,L,,OH,4817.5980,N,12238.5140,W,2.1,2,5.79,V*29
$PGRME,2.4,M,2.4,M,3.4,M*29
$IIVLW,01888,N,031.9,N*51
$HCHDG,345.6,0.0,E,,*2D
$YXXDR,A,6.6,D,PTCH,A,2.0,D,ROLL*5F
$HCHDG,345.6,0.0,E,,*2D
$GPRMC,000041.6,A,4815.47118,N,12238.62484,W,005.80,006.0,170713,016.8,E,D*23
$PGRME,2.4,M,2.4,M,3.4,M*29
$HCHDG,345.7,0.0,E,,*2C
$HCHDG,345.7,0.0,E,,*2C
$GPRMC,000041.8,A,4815.47150,N,12238.62481,W,005.83,005.7,170713,016.8,E,D*23
$PGRME,2.4,M,2.4,M,3.4,M*29
$HCHDG,345.5,0.0,E,,*2E
$IIVWR,015,L,12.8,N,,,,*70
$HCHDG,345.5,0.0,E,,*2E
$IIDPT,016.0,-1.0,*47
$GPRMC,000042.0,A,4815.47193,N,12238.62485,W,005.85,005.4,170713,016.8,E,D*26
$PGRME,2.4,M,2.4,M,3.4,M*29
$YXXDR,A,6.4,D,PTCH,A,1.9,D,ROLL*57
$PTAK,FFD1,1.9*5D
$IIGLL,4815.469,N,12238.624,W,000000,A,A*4B
$HCHDG,345.6,0.0,E,,*2D
$IIMTW,+16.0,C*3F
$IIMWV,345,R,12.8,N,A*1A
$HCHDG,345.7,0.0,E,,*2C
$GPRMC,000042.2,A,4815.47234,N,12238.62494,W,005.83,005.6,170713,016.8,E,D*2E
$IIMWV,334,T,06.2,N,A*15
$PGRME,2.4,M,2.4,M,3.4,M*29
$HCHDG,345.7,0.0,E,,*2C
$IIRMB,A,,,,OH  ,,,,,002.1,002,,V,A*13
$HCHDG,345.8,0.0,E,,*23
$GPRMC,000042.4,A,4815.47268,N,12238.62499,W,005.84,005.5,170713,016.8,E,D*28
$PGRME,2.4,M,2.4,M,3.4,M*29
$IIRMC,000000,A,4815.469,N,12238.624,W,05.7,005,160713,16,E,A*15
$HCHDG,345.8,0.0,E,,*23
$YXXDR,A,6.3,D,PTCH,A,2.0,D,ROLL*5A
$HCHDG,345.8,0.0,E,,*23
$GPRMC,000042.6,A,4815.47294,N,12238.62501,W,005.83,005.9,170713,016.8,E,D*22
$GPRMB,A,-0.07,L,,OH,4817.5980,N,12238.5140,W,2.1,2,5.82,V*2D
$PGRME,2.4,M,2.4,M,3.4,M*29
$HCHDG,345.8,0.0,E,,*23
$HCHDG,345.9,0.0,E,,*22
$GPRMC,000042.8,A,4815.47324,N,12238.62487,W,005.82,005.8,170713,016.8,E,D*29
$PGRME,2.4,M,2.4,M,3.4,M*29
$HCHDG,345.9,0.0,E,,*22
$IIVHW,,,,,06.4,N,,*1B
$HCHDG,345.7,0.0,E,,*2C
$IIVLW,01888,N,031.9,N*51
$GPRMC,000043.0,A,4815.47354,N,12238.62482,W,005.82,005.9,170713,016.8,E,D*23
$PGRME,2.4,M,2.4,M,3.4,M*29
$IIVWR,015,L,12.5,N,,,,*7D
$YXXDR,A,6.8,D,PTCH,A,1.5,D,ROLL*57
$PTAK,FFD1,1.5*51
$IIDPT,016.0,-1.0,*47
$HCHDG,345.8,0.0,E,,*23
$HCHDG,345.9,0.0,E,,*22
$IIGLL,4815.472,N,12238.625,W,000000,A,A*40
$GPRMC,000043.2,A,4815.47378,N,12238.62484,W,005.81,006.3,170713,016.8,E,D*23
$IIMTW,+16.0,C*3F
$PGRME,2.4,M,2.4,M,3.4,M*29
$IIMWV,345,R,12.5,N,A*17
$HCHDG,345.6,0.0,E,,*2D
$IIMWV,331,T,06.8,N,A*1A
$HCHDG,345.6,0.0,E,,*2D
$IIRMB,A,,,,OH  ,,,,,002.1,002,,V,A*13
$GPRMC,000043.4,A,4815.47406,N,12238.62478,W,005.80,006.4,170713,016.8,E,D*2E
$PGRME,2.4,M,2.4,M,3.4,M*29
$HCHDG,345.5,0.0,E,,*2E
$YXXDR,A,6.0,D,PTCH,A,1.4,D,ROLL*5E
$HCHDG,345.6,0.0,E,,*2D
$PTAK,FFP1,HEEL,@*07
$GPRMC,000043.6,A,4815.47441,N,12238.62467,W,005.79,006.7,170713,016.8,E,D*24
$GPRMB,A,-0.07,L,,OH,4817.5980,N,12238.5140,W,2.1,2,5.77,V*27
$PGRME,2.4,M,2.4,M,3.4,M*29
$HCHDG,345.4,0.0,E,,*2F
$HCHDG,345.4,0.0,E,,*2F
$GPRMC,000043.8,A,4815.47480,N,12238.62461,W,005.78,006.6,170713,016.8,E,D*21
$PGRME,2.4,M,2.4,M,3.4,M*29
$HCHDG,345.3,0.0,E,,*28
$HCHDG,345.4,0.0,E,,*2F
$IIRMC,000000,A,4815.474,N,12238.624,W,05.7,006,160713,16,E,A*1A
$GPRMC,000044.0,A,4815.47514,N,12238.62452,W,005.78,005.7,170713,016.8,E,D*20
$PGRME,2.4,M,2.4,M,3.4,M*29
$PGRMT,GPS 18x-5Hz software ver. 3.20,,,,,,,,*30
$YXXDR,A,6.6,D,PTCH,A,1.7,D,ROLL*5B
$PTAK,FFD1,1.7*53
$IIVHW,,,,,06.4,N,,*1B
$HCHDG,345.6,0.0,E,,*2D
$IIVLW,01888,N,031.9,N*51
$HCHDG,345.6,0.0,E,,*2D
$IIVWR,012,L,12.3,N,,,,*7C
$GPRMC,000044.2,A,4815.47551,N,12238.62452,W,005.80,005.7,170713,016.8,E,D*24
$IIDPT,016.0,-1.0,*47
$PGRME,2.4,M,2.4,M,3.4,M*29
$HCHDG,345.8,0.0,E,,*23
$IIGLL,4815.474,N,12238.624,W,000000,A,A*47
$IIMTW,+16.0,C*3F
$HCHDG,345.7,0.0,E,,*2C
$IIMWV,348,R,12.3,N,A*1C
$GPRMC,000044.4,A,4815.47591,N,12238.62448,W,005.79,005.6,170713,016.8,E,D*22
$PGRME,2.4,M,2.4,M,3.4,M*29
$IIMWV,331,T,06.5,N,A*17
$HCHDG,345.9,0.0,E,,*22
$YXXDR,A,6.0,D,PTCH,A,2.5,D,ROLL*5C
$HCHDG,345.8,0.0,E,,*23
$GPRMC,000044.6,A,4815.47634,N,12238.62440,W,005.76,004.2,170713,016.8,E,D*2E
$PGRME,2.4,M,2.4,M,3.4,M*29
$HCHDG,346.0,0.0,E,,*28
$HCHDG,345.9,0.0,E,,*22
$GPRMC,000044.8,A,4815.47669,N,12238.62438,W,005.76,004.7,170713,016.8,E,D*22
$GPRMB,A,-0.07,L,,OH,4817.5980,N,12238.5140,W,2.1,2,5.75,V*25
$PGRME,2.4,M,2.4,M,3.4,M*29
$HCHDG,345.7,0.0,E,,*2C
$IIRMB,A,,,,OH  ,,,,,002.1,002,,V,A*13
$HCHDG,346.0,0.0,E,,*28
$GPRMC,000045.0,A,4815.47701,N,12238.62439,W,005.75,004.0,170713,016.8,E,D*21
$PGRME,2.4,M,2.4,M,3.4,M*29
$YXXDR,A,6.2,D,PTCH,A,2.7,D,ROLL*5C
$IIRMC,000000,A,4815.476,N,12238.624,W,05.7,004,160713,16,E,A*1A
$HCHDG,346.0,0.0,E,,*28
$IIVHW,,,,,06.4,N,,*1B
$HCHDG,345.9,0.0,E,,*22
$IIVLW,01888,N,031.9,N*51
$GPRMC,000045.2,A,4815.47731,N,12238.62429,W,005.74,004.5,170713,016.8,E,D*25
$PGRME,2.4,M,2.4,M,3.4,M*29
$IIVWR,012,L,12.8,N,,,,*77
$HCHDG,345.9,0.0,E,,*22
$IIDPT,016.0,-1.0,*47
$HCHDG,345.8,0.0,E,,*23
$IIGLL,4815.476,N,12238.624,W,000000,A,A*45
$GPRMC,000045.4,A,4815.47757,N,12238.62413,W,005.73,004.5,170713,016.8,E,D*2D
$PGRME,2.4,M,2.4,M,3.4,M*29
$IIMTW,+16.0,C*3F
$HCHDG,345.8,0.0,E,,*23
$IIMWV,348,R,12.8,N,A*17
$YXXDR,A,6.3,D,PTCH,A,2.4,D,ROLL*5E
$PTAK,FFD1,2.4*53
$HCHDG,345.7,0.0,E,,*2C
$GPRMC,000045.6,A,4815.47783,N,12238.62414,W,005.74,004.0,170713,016.8,E,D*23
$PGRME,2.4,M,2.4,M,3.4,M*29
$HCHDG,345.7,0.0,E,,*2C
$HCHDG,345.7,0.0,E,,*2C
$GPRMC,000045.8,A,4815.47811,N,12238.62415,W,005.74,004.2,170713,016.8,E,D*2A
$PGRME,2.4,M,2.4,M,3.4,M*29
$HCHDG,345.7,0.0,E,,*2C
$IIMWV,337,T,06.6,N,A*12
$HCHDG,345.7,0.0,E,,*2C
$IIRMB,A,,,,OH  ,,,,,002.1,002,,V,A*13
$GPRMC,000046.0,A,4815.47837,N,12238.62409,W,005.74,004.3,170713,016.8,E,D*29
$GPRMB,A,-0.07,L,,OH,4817.5980,N,12238.5140,W,2.1,2,5.74,V*24
$PGRME,2.4,M,2.4,M,3.4,M*29
$YXXDR,A,6.2,D,PTCH,A,2.2,D,ROLL*59
$HCHDG,345.7,0.0,E,,*2C
$IIRMC,000000,A,4815.477,N,12238.624,W,05.7,004,160713,16,E,A*1B
$HCHDG,345.7,0.0,E,,*2C
$IIVHW,,,,,06.3,N,,*1C
$GPRMC,000046.2,A,4815.47869,N,12238.62404,W,005.76,004.4,170713,016.8,E,D*28
$PGRME,2.4,M,2.4,M,3.4,M*29
$IIVLW,01888,N,031.9,N*51
$HCHDG,345.8,0.0,E,,*23
$IIVWR,012,L,12.5,N,,,,*7A
$IIDPT,015.8,-1.0,*4C
$HCHDG,345.9,0.0,E,,*22
$GPRMC,000046.4,A,4815.47906,N,12238.62404,W,005.76,004.1,170713,016.8,E,D*23
$PGRME,2.4,M,2.4,M,3.4,M*29
$IIGLL,4815.477,N,12238.624,W,000000,A,A*44
$HCHDG,345.8,0.0,E,,*23
$IIMTW,+16.0,C*3F
$YXXDR,A,6.4,D,PTCH,A,1.9,D,ROLL*57
$HCHDG,345.6,0.0,E,,*2D
$GPRMC,000046.6,A,4815.47937,N,12238.62402,W,005.77,004.4,170713,016.8,E,D*21
$PGRME,2.4,M,2.4,M,3.4,M*29
$HCHDG,345.7,0.0,E,,*2C
$HCHDG,345.8,0.0,E,,*23
$GPRMC,000046.8,A,4815.47975,N,12238.62407,W,005.77,004.4,170713,016.8,E,D*2C
$PGRME,2.4,M,2.4,M,3.4,M*29
$HCHDG,345.6,0.0,E,,*2D
$IIMWV,348,R,12.3,N,A*1C
$HCHDG,345.7,0.0,E,,*2C
$IIMWV,336,T,06.4,N,A*11
$GPRMC,000047.0,A,4815.48013,N,12238.62418,W,005.76,004.2,170713,016.8,E,D*2A
$PGRME,2.4,M,2.4,M,3.4,M*29
$YXXDR,A,6.3,D,PTCH,A,1.8,D,ROLL*51
$PTAK,FFD1,1.8*5C
$IIRMB,A,,,,OH  ,,,,,002.1,002,,V,A*13
$HCHDG,345.8,0.0,E,,*23
$HCHDG,345.8,0.0,E,,*23
$IIRMC,000000,A,4815.479,N,12238.624,W,05.7,004,160713,16,E,A*15
$GPRMC,000047.2,A,4815.48049,N,12238.62407,W,005.75,004.6,170713,016.8,E,D*2E
$GPRMB,A,-0.07,L,,OH,4817.5980,N,12238.5140,W,2.1,2,5.74,V*24
$PGRME,2.4,M,2.4,M,3.4,M*29
$IIVHW,,,,,06.4,N,,*1B
$HCHDG,345.8,0.0,E,,*23
$IIVLW,01888,N,031.9,N*51
$IIVWR,012,L,12.3,N,,,,*7C
$HCHDG,345.9,0.0,E,,*22
$IIDPT,015.8,-1.0,*4C
$GPRMC,000047.4,A,4815.48078,N,12238.62406,W,005.75,004.7,170713,016.8,E,D*2A
$PGRME,2.4,M,2.4,M,3.4,M*29
$HCHDG,346.0,0.0,E,,*28
$YXXDR,A,6.3,D,PTCH,A,1.5,D,ROLL*5C
$HCHDG,346.0,0.0,E,,*28
$GPRMC,000047.6,A,4815.48111,N,12238.62415,W,005.74,004.8,170713,016.8,E,D*2A
$PTAK,FFP1,HEEL,@*07
$PGRME,2.4,M,2.4,M,3.4,M*29
$HCHDG,345.7,0.0,E,,*2C
$HCHDG,345.8,0.0,E,,*23
$GPRMC,000047.8,A,4815.48140,N,12238.62420,W,005.75,005.1,170713,016.8,E,D*2F
$PGRME,2.4,M,2.4,M,3.4,M*29
$HCHDG,345.9,0.0,E,,*22
$IIGLL,4815.481,N,12238.624,W,000000,A,A*4D
$HCHDG,345.9,0.0,E,,*22
$IIMTW,+16.0,C*3F
$GPRMC,000048.0,A,4815.48166,N,12238.62402,W,005.75,004.6,170713,016.8,E,D*2A
$PGRME,2.4,M,2.4,M,3.4,M*29
$YXXDR,A,6.3,D,PTCH,A,1.5,D,ROLL*5C
$IIMWV,348,R,12.6,N,A*19
$HCHDG,345.9,0.0,E,,*22
$IIMWV,336,T,06.1,N,A*14
$HCHDG,346.0,0.0,E,,*28
$IIRMB,A,,,,OH  ,,,,,002.1,002,,V,A*13
$GPRMC,000048.2,A,4815.48193,N,12238.62390,W,005.76,005.7,170713,016.8,E,D*2D
$PGRME,2.4,M,2.4,M,3.4,M*29
$HCHDG,345.8,0.0,E,,*23
$IIRMC,000000,A,4815.481,N,12238.624,W,05.7,004,160713,16,E,A*12
$HCHDG,345.8,0.0,E,,*23
$IIVHW,,,,,06.2,N,,*1D
$GPRMC,000048.4,A,4815.48226,N,12238.62395,W,005.77,004.4,170713,016.8,E,D*20
$GPRMB,A,-0.07,L,,OH,4817.5980,N,12238.5140,W,2.1,2,5.76,V*26
$PGRME,2.4,M,2.4,M,3.4,M*29
$IIVLW,01888,N,031.9,N*51
$HCHDG,345.9,0.0,E,,*22
$YXXDR,A,6.5,D,PTCH,A,1.6,D,ROLL*59
$PTAK,FFD1,1.6*52
$HCHDG,345.9,0.0,E,,*22
$GPRMC,000048.6,A,4815.48260,N,12238.62397,W,005.79,005.2,170713,016.8,E,D*2B
$PGRME,2.4,M,2.4,M,3.4,M*29
$HCHDG,346.0,0.0,E,,*28
$HCHDG,345.9,0.0,E,,*22
$GPRMC,000048.8,A,4815.48289,N,12238.62395,W,005.81,004.8,170713,016.8,E,D*2C
$PGRME,2.4,M,2.4,M,3.4,M*29
$HCHDG,345.9,0.0,E,,*22
$IIVWR,012,L,12.4,N,,,,*7B
$HCHDG,345.9,0.0,E,,*22
$IIDPT,015.6,-1.0,*42
$GPRMC,000049.0,A,4815.48327,N,12238.62394,W,005.83,005.0,170713,016.8,E,D*2A
$PGRME,2.4,M,2.4,M,3.4,M*29
$YXXDR,A,6.4,D,PTCH,A,1.7,D,ROLL*59
$IIGLL,4815.481,N,12238.624,W,000000,A,A*4D
$HCHDG,346.1,0.0,E,,*29
$IIMTW,+16.0,C*3F
$IIMWV,348,R,12.4,N,A*1B
$HCHDG,346.1,0.0,E,,*29
$GPRMC,000049.2,A,4815.48363,N,12238.62406,W,005.83,005.5,170713,016.8,E,D*21
$IIMWV,337,T,06.6,N,A*12
$PGRME,2.4,M,2.4,M,3.4,M*29
$HCHDG,346.1,0.0,E,,*29
$IIRMB,A,,,,OH  ,,,,,002.1,002,,V,A*13
$HCHDG,346.1,0.0,E,,*29
$GPRMC,000049.4,A,4815.48395,N,12238.62403,W,005.84,005.4,170713,016.8,E,D*2D
$PGRME,2.4,M,2.4,M,3.4,M*29
$IIRMC,000000,A,4815.481,N,12238.624,W,05.7,004,160713,16,E,A*12
$HCHDG,346.1,0.0,E,,*29
