$GPRMB,A,0.21,L,,OH,4817.5980,N,12238.5140,W,0.6,339,0.07,V*02
$PGRME,16.6,M,,M,176.0,M*31
$HCHDG,58.3,0.0,E,,*17
$PTAK,FFP1,HEEL,@*07
$HCHDG,58.4,0.0,E,,*10
$GPRMC,171323.4,A,4817.05075,N,12238.19488,W,000.12,000.0,170713,016.8,E,A*22
$GPRMB,A,0.21,L,,OH,4817.5980,N,12238.5140,W,0.6,339,0.11,V*05
$PGRME,16.3,M,,M,176.0,M*34
$HCHDG,58.3,0.0,E,,*17
$HCHDG,58.4,0.0,E,,*10
$YXXDR,A,5.8,D,PTCH,A,3.0,D,ROLL*53
$PTAK,FFD1,3.0*56
$GPRMC,171323.6,A,4817.05074,N,12238.19470,W,000.14,000.0,170713,016.8,E,A*20
$PGRME,16.0,M,,M,176.0,M*37
$HCHDG,58.3,0.0,E,,*17
$HCHDG,58.4,0.0,E,,*10
$GPRMC,171323.8,A,4817.05066,N,12238.19480,W,000.08,000.0,170713,016.8,E,A*2F
$PGRME,15.8,M,,M,176.0,M*3C
$HCHDG,58.4,0.0,E,,*10
$HCHDG,58.3,0.0,E,,*17
$GPRMC,171324.0,A,4817.05073,N,12238.19487,W,000.08,000.0,170713,016.8,E,A*23
$PGRME,15.6,M,,M,175.9,M*38
$HCHDG,58.4,0.0,E,,*10
$YXXDR,A,5.8,D,PTCH,A,2.9,D,ROLL*5B
$HCHDG,58.4,0.0,E,,*10
$GPRMC,171324.2,A,4817.05087,N,12238.19526,W,000.13,000.0,170713,016.8,E,A*2A
$PGRME,15.3,M,,M,175.9,M*3D
$HCHDG,58.3,0.0,E,,*17
$HCHDG,58.3,0.0,E,,*17
$GPRMC,171324.4,A,4817.05095,N,12238.19528,W,000.07,000.0,170713,016.8,E,A*24
$PGRME,15.2,M,,M,175.9,M*3C
$HCHDG,58.3,0.0,E,,*17
$HCHDG,58.3,0.0,E,,*17
$YXXDR,A,5.7,D,PTCH,A,2.8,D,ROLL*55
$GPRMC,171324.6,A,4817.05106,N,12238.19513,W,000.07,000.0,170713,016.8,E,A*25
$PGRME,15.0,M,,M,175.9,M*3E
$HCHDG,58.3,0.0,E,,*17
$HCHDG,58.2,0.0,E,,*16
$GPRMC,171324.8,A,4817.05111,N,12238.19522,W,000.13,000.0,170713,016.8,E,A*2A
$GPRMB,A,0.21,L,,OH,4817.5980,N,12238.5140,W,0.6,339,0.12,V*06
$PGRME,14.8,M,,M,175.9,M*37
$HCHDG,58.2,0.0,E,,*16
$HCHDG,58.3,0.0,E,,*17
$GPRMC,171325.0,A,4817.05112,N,12238.19518,W,000.06,000.0,170713,016.8,E,A*2D
$PGRME,14.5,M,,M,175.9,M*3A
$HCHDG,58.2,0.0,E,,*16
$YXXDR,A,5.7,D,PTCH,A,2.8,D,ROLL*55
$PTAK,FFD1,2.8*5F
$HCHDG,58.3,0.0,E,,*17
$GPRMC,171325.2,A,4817.05112,N,12238.19487,W,000.11,000.0,170713,016.8,E,A*2E
$PGRME,14.3,M,,M,175.9,M*3C
$HCHDG,58.3,0.0,E,,*17
$HCHDG,58.2,0.0,E,,*16
$GPRMC,171325.4,A,4817.05111,N,12238.19490,W,000.04,000.0,170713,016.8,E,A*29
$GPRMB,A,0.21,L,,OH,4817.5980,N,12238.5140,W,0.6,339,0.04,V*01
$PGRME,14.2,M,,M,175.9,M*3D
$HCHDG,58.2,0.0,E,,*16
$HCHDG,58.1,0.0,E,,*15
$YXXDR,A,5.6,D,PTCH,A,3.0,D,ROLL*5D
$PTAK,FFD1,3.0*56
$GPRMC,171325.6,A,4817.05114,N,12238.19474,W,000.07,000.0,170713,016.8,E,A*27
$PGRME,14.0,M,,M,175.9,M*3F
$HCHDG,58.1,0.0,E,,*15
$HCHDG,58.1,0.0,E,,*15
$GPRMC,171325.8,A,4817.05130,N,12238.19480,W,000.10,000.0,170713,016.8,E,A*22
$PGRME,13.9,M,,M,175.9,M*31
$HCHDG,58.1,0.0,E,,*15
$HCHDG,58.0,0.0,E,,*14
$GPRMC,171326.0,A,4817.05139,N,12238.19488,W,000.05,000.0,170713,016.8,E,A*2C
$PGRME,13.8,M,,M,175.9,M*30
$HCHDG,58.0,0.0,E,,*14
$YXXDR,A,5.7,D,PTCH,A,2.7,D,ROLL*5A
$HCHDG,58.0,0.0,E,,*14
$HCHDG,58.1,0.0,E,,*15
$GPRMC,171326.2,A,4817.09058,N,12238.16385,W,000.03,000.0,170713,016.8,E,A*27
$PGRME,4.8,M,25.3,M,25.7,M*26
$HCHDG,58.0,0.0,E,,*14
$HCHDG,58.0,0.0,E,,*14
$GPRMC,171326.4,A,4817.09083,N,12238.16365,W,000.03,000.0,170713,016.8,E,A*29
$PGRME,3.8,M,19.0,M,19.4,M*21
$HCHDG,57.9,0.0,E,,*12
$YXXDR,A,5.7,D,PTCH,A,2.6,D,ROLL*5B
$GPRMC,171326.6,A,4817.09067,N,12238.16409,W,000.02,000.0,170713,016.8,E,A*2D
$PGRME,3.3,M,15.7,M,16.0,M*2A
$HCHDG,57.9,0.0,E,,*12
$HCHDG,57.8,0.0,E,,*13
$HCHDG,57.8,0.0,E,,*13
$GPRMC,171326.8,A,4817.09074,N,12238.16439,W,000.05,000.0,170713,016.8,E,A*25
$PGRME,3.0,M,13.7,M,14.0,M*2D
$HCHDG,57.8,0.0,E,,*13
$HCHDG,57.8,0.0,E,,*13
$GPRMC,171327.0,A,4817.09077,N,12238.16468,W,000.06,000.0,170713,016.8,E,A*28
$PGRME,3.0,M,12.2,M,12.6,M*29
$YXXDR,A,5.7,D,PTCH,A,2.6,D,ROLL*5B
$HCHDG,57.8,0.0,E,,*13
$HCHDG,57.7,0.0,E,,*1C
$GPRMC,171327.2,A,4817.09075,N,12238.16511,W,000.04,000.0,170713,016.8,E,A*25
$GPRMB,A,0.23,L,,OH,4817.5980,N,12238.5140,W,0.6,335,0.04,V*0F
$PGRME,3.0,M,11.1,M,11.5,M*29
$HCHDG,57.7,0.0,E,,*1C
$HCHDG,57.7,0.0,E,,*1C
$GPRMC,171327.4,A,4817.09060,N,12238.16520,W,000.04,000.0,170713,016.8,E,A*25
$PGRME,3.0,M,10.1,M,10.6,M*2A
$HCHDG,57.6,0.0,E,,*1D
$YXXDR,A,5.6,D,PTCH,A,3.0,D,ROLL*5D
$PTAK,FFD1,3.0*56
$GPRMC,171327.6,A,4817.09039,N,12238.16520,W,000.03,000.0,170713,016.8,E,A*2C
$PGRME,3.0,M,9.4,M,9.9,M*20
$HCHDG,57.6,0.0,E,,*1D
$PTAK,FFP1,HEEL,@*07
$HCHDG,57.8,0.0,E,,*13
$HCHDG,57.7,0.0,E,,*1C
$GPRMC,171327.8,A,4817.09026,N,12238.16546,W,000.04,000.0,170713,016.8,E,A*2B
$PGRME,3.0,M,8.8,M,9.3,M*27
$HCHDG,57.7,0.0,E,,*1C
$HCHDG,57.6,0.0,E,,*1D
$GPRMC,171328.0,A,4817.09019,N,12238.16559,W,000.07,000.0,170713,016.8,E,A*2D
$PGRME,3.0,M,8.3,M,8.8,M*26
$YXXDR,A,5.7,D,PTCH,A,3.1,D,ROLL*5D
$HCHDG,57.7,0.0,E,,*1C
$HCHDG,57.7,0.0,E,,*1C
$GPRMC,171328.2,A,4817.09012,N,12238.16583,W,000.04,000.0,170713,016.8,E,A*20
$GPRMB,A,0.23,L,,OH,4817.5980,N,12238.5140,W,0.6,335,0.04,V*0F
$PGRME,3.0,M,7.9,M,8.4,M*2F
$HCHDG,57.6,0.0,E,,*1D
$HCHDG,57.7,0.0,E,,*1C
$GPRMC,171328.4,A,4817.09004,N,12238.16594,W,000.06,000.0,170713,016.8,E,A*25
$PGRME,3.0,M,7.5,M,8.1,M*26
$HCHDG,57.5,0.0,E,,*1E
$YXXDR,A,5.7,D,PTCH,A,3.2,D,ROLL*5E
$PTAK,FFD1,3.2*54
$GPRMC,171328.6,A,4817.08999,N,12238.16596,W,000.07,000.0,170713,016.8,E,A*28
$PGRME,3.0,M,7.2,M,7.8,M*27
$HCHDG,57.8,0.0,E,,*13
$HCHDG,57.7,0.0,E,,*1C
$HCHDG,57.8,0.0,E,,*13
$GPRMC,171328.8,A,4817.08998,N,12238.16588,W,000.06,000.0,170713,016.8,E,A*29
$PGRME,3.0,M,6.9,M,7.5,M*20
$HCHDG,57.9,0.0,E,,*12
$HCHDG,58.0,0.0,E,,*14
$GPRMC,171329.0,A,4817.08996,N,12238.16588,W,000.08,000.0,170713,016.8,E,A*20
$PGRME,3.0,M,6.6,M,7.3,M*29
$YXXDR,A,5.6,D,PTCH,A,3.0,D,ROLL*5D
$HCHDG,57.7,0.0,E,,*1C
$HCHDG,57.8,0.0,E,,*13
$GPRMC,171329.2,A,4817.08998,N,12238.16590,W,000.03,000.0,170713,016.8,E,A*2E
$PGRME,3.0,M,6.4,M,7.1,M*29
$HCHDG,57.9,0.0,E,,*12
$HCHDG,57.9,0.0,E,,*12
$GPRMC,171329.4,A,4817.08994,N,12238.16589,W,000.01,000.0,170713,016.8,E,A*2E
$GPRMB,A,0.23,L,,OH,4817.5980,N,12238.5140,W,0.6,335,0.01,V*0A
$PGRME,3.0,M,6.2,M,6.9,M*26
$HCHDG,57.7,0.0,E,,*1C
$YXXDR,A,5.6,D,PTCH,A,2.4,D,ROLL*58
$PTAK,FFD1,2.4*53
$GPRMC,171329.6,A,4817.08991,N,12238.16589,W,000.05,000.0,170713,016.8,E,A*2D
$PGRME,3.0,M,5.9,M,6.7,M*20
$HCHDG,57.7,0.0,E,,*1C
$HCHDG,57.9,0.0,E,,*12
$HCHDG,57.8,0.0,E,,*13
$GPRMC,171329.8,A,4817.08987,N,12238.16595,W,000.03,000.0,170713,016.8,E,A*2F
$PGRME,3.0,M,5.7,M,6.5,M*2C
$HCHDG,57.7,0.0,E,,*1C
$HCHDG,57.7,0.0,E,,*1C
$GPRMC,171330.0,A,4817.08986,N,12238.16606,W,000.03,000.0,170713,016.8,E,A*27
$PGRME,3.0,M,5.6,M,6.3,M*2B
$YXXDR,A,5.6,D,PTCH,A,2.3,D,ROLL*5F
$HCHDG,57.8,0.0,E,,*13
$HCHDG,57.7,0.0,E,,*1C
$GPRMC,171330.2,A,4817.08982,N,12238.16610,W,000.03,000.0,170713,016.8,E,A*26
$PGRME,3.0,M,5.4,M,6.2,M*28
$HCHDG,57.8,0.0,E,,*13
$HCHDG,57.6,0.0,E,,*1D
$GPRMC,171330.4,A,4817.08981,N,12238.16614,W,000.03,000.0,170713,016.8,E,A*27
$GPRMB,A,0.23,L,,OH,4817.5980,N,12238.5140,W,0.6,336,0.03,V*0B
$PGRME,3.0,M,5.2,M,6.1,M*2D
$HCHDG,57.7,0.0,E,,*1C
$YXXDR,A,5.6,D,PTCH,A,2.2,D,ROLL*5E
$PTAK,FFD1,2.2*55
$GPRMC,171330.6,A,4817.08981,N,12238.16615,W,000.03,000.0,170713,016.8,E,A*24
$PGRME,3.0,M,5.1,M,5.9,M*25
$HCHDG,57.5,0.0,E,,*1E
$HCHDG,57.6,0.0,E,,*1D
$HCHDG,57.6,0.0,E,,*1D
$GPRMC,171330.8,A,4817.08974,N,12238.16619,W,000.02,000.0,170713,016.8,E,A*2D
$PGRME,3.0,M,4.9,M,5.8,M*2D
$HCHDG,57.6,0.0,E,,*1D
$HCHDG,57.6,0.0,E,,*1D
$GPRMC,171331.0,A,4817.08972,N,12238.16623,W,000.03,000.0,170713,016.8,E,A*2A
$PGRME,3.0,M,4.8,M,5.7,M*23
$YXXDR,A,5.6,D,PTCH,A,2.3,D,ROLL*5F
$HCHDG,57.8,0.0,E,,*13
$HCHDG,57.8,0.0,E,,*13
$GPRMC,171331.2,A,4817.08973,N,12238.16633,W,000.04,000.0,170713,016.8,E,A*2F
$PGRME,3.0,M,4.7,M,5.6,M*2D
$HCHDG,57.9,0.0,E,,*12
$HCHDG,57.9,0.0,E,,*12
$GPRMC,171331.4,A,4817.08971,N,12238.16639,W,000.02,000.0,170713,016.8,E,A*27
$GPRMB,A,0.23,L,,OH,4817.5980,N,12238.5140,W,0.6,336,0.02,V*0A
$PGRME,3.0,M,4.6,M,5.5,M*2F
$HCHDG,57.9,0.0,E,,*12
$YXXDR,A,5.6,D,PTCH,A,2.6,D,ROLL*5A
$GPRMC,171331.6,A,4817.08969,N,12238.16635,W,000.01,000.0,170713,016.8,E,A*23
$PGRME,3.0,M,4.4,M,5.4,M*2C
$HCHDG,58.1,0.0,E,,*15
$PTAK,FFP1,HEEL,@*07
$HCHDG,58.1,0.0,E,,*15
$HCHDG,58.1,0.0,E,,*15
$GPRMC,171331.8,A,4817.08967,N,12238.16632,W,000.04,000.0,170713,016.8,E,A*21
$PGRME,3.0,M,4.3,M,5.3,M*2C
$HCHDG,58.0,0.0,E,,*14
$HCHDG,58.1,0.0,E,,*15
$GPRMC,171332.0,A,4817.08965,N,12238.16639,W,000.03,000.0,170713,016.8,E,A*24
$PGRME,3.0,M,4.2,M,5.2,M*2C
$YXXDR,A,5.5,D,PTCH,A,2.5,D,ROLL*5A
$PTAK,FFD1,2.5*52
$HCHDG,58.2,0.0,E,,*16
$HCHDG,58.2,0.0,E,,*16
$GPRMC,171332.2,A,4817.08964,N,12238.16646,W,000.06,000.0,170713,016.8,E,A*2A
$PGRME,3.0,M,4.1,M,5.1,M*2C
$HCHDG,58.1,0.0,E,,*15
$HCHDG,58.3,0.0,E,,*17
$GPRMC,171332.4,A,4817.08960,N,12238.16661,W,000.02,000.0,170713,016.8,E,A*29
$PGRME,3.0,M,4.0,M,5.1,M*2D
$HCHDG,58.3,0.0,E,,*17
$YXXDR,A,5.6,D,PTCH,A,2.4,D,ROLL*58
$GPRMC,171332.6,A,4817.08960,N,12238.16662,W,000.01,000.0,170713,016.8,E,A*2B
$GPRMB,A,0.23,L,,OH,4817.5980,N,12238.5140,W,0.6,336,0.01,V*09
$PGRME,3.0,M,4.0,M,5.0,M*2C
$HCHDG,58.3,0.0,E,,*17
$HCHDG,58.2,0.0,E,,*16
$HCHDG,58.3,0.0,E,,*17
$GPRMC,171332.8,A,4817.08960,N,12238.16665,W,000.05,000.0,170713,016.8,E,A*26
$PGRME,3.0,M,3.9,M,4.9,M*2A
$HCHDG,58.3,0.0,E,,*17
$HCHDG,58.3,0.0,E,,*17
$GPRMC,171333.0,A,4817.08960,N,12238.16667,W,000.01,000.0,170713,016.8,E,A*29
$PGRME,3.0,M,3.8,M,4.9,M*2B
$YXXDR,A,5.5,D,PTCH,A,2.2,D,ROLL*5D
$PTAK,FFD1,2.2*55
$HCHDG,58.4,0.0,E,,*10
$HCHDG,58.5,0.0,E,,*11
$GPRMC,171333.2,A,4817.08957,N,12238.16671,W,000.01,000.0,170713,016.8,E,A*28
$PGRME,3.0,M,3.7,M,4.8,M*25
$HCHDG,58.3,0.0,E,,*17
$HCHDG,58.3,0.0,E,,*17
$GPRMC,171333.4,A,4817.08954,N,12238.16675,W,000.03,000.0,170713,016.8,E,A*2B
$PGRME,3.0,M,3.7,M,4.8,M*25
$HCHDG,58.4,0.0,E,,*10
$YXXDR,A,5.5,D,PTCH,A,2.2,D,ROLL*5D
$GPRMC,171333.6,A,4817.08953,N,12238.16688,W,000.02,000.0,170713,016.8,E,A*2D
$PGRME,3.0,M,3.6,M,4.7,M*2B
$HCHDG,58.4,0.0,E,,*10
$HCHDG,58.4,0.0,E,,*10
$HCHDG,58.3,0.0,E,,*17
$GPRMC,171333.8,A,4817.08956,N,12238.16701,W,000.05,000.0,170713,016.8,E,A*21
$GPRMB,A,0.23,L,,OH,4817.5980,N,12238.5140,W,0.6,336,0.05,V*0D
$PGRME,3.0,M,3.5,M,4.7,M*28
$HCHDG,58.3,0.0,E,,*17
$HCHDG,58.4,0.0,E,,*10
$GPRMC,171334.0,A,4817.08959,N,12238.16707,W,000.02,000.0,170713,016.8,E,A*20
$PGRME,3.0,M,3.5,M,4.6,M*29
$YXXDR,A,5.5,D,PTCH,A,2.5,D,ROLL*5A
$PTAK,FFD1,2.5*52
$HCHDG,58.6,0.0,E,,*12
$HCHDG,58.5,0.0,E,,*11
$GPRMC,171334.2,A,4817.08962,N,12238.16711,W,000.05,000.0,170713,016.8,E,A*2A
$PGRME,3.0,M,3.4,M,4.6,M*28
$HCHDG,58.5,0.0,E,,*11
$HCHDG,58.5,0.0,E,,*11
$GPRMC,171334.4,A,4817.08959,N,12238.16713,W,000.03,000.0,170713,016.8,E,A*20
$PGRME,3.0,M,3.3,M,4.5,M*2C
$HCHDG,58.4,0.0,E,,*10
$YXXDR,A,5.5,D,PTCH,A,2.7,D,ROLL*58
$GPRMC,171334.6,A,4817.08958,N,12238.16719,W,000.07,000.0,170713,016.8,E,A*2D
$PGRME,3.0,M,3.3,M,4.5,M*2C
$HCHDG,58.4,0.0,E,,*10
$HCHDG,58.3,0.0,E,,*17
$HCHDG,58.4,0.0,E,,*10
$GPRMC,171334.8,A,4817.08955,N,12238.16720,W,000.07,000.0,170713,016.8,E,A*24
$GPRMB,A,0.23,L,,OH,4817.5980,N,12238.5140,W,0.6,336,0.06,V*0E
$PGRME,3.0,M,3.2,M,4.4,M*2C
$HCHDG,58.4,0.0,E,,*10
$HCHDG,58.4,0.0,E,,*10
$GPRMC,171335.0,A,4817.08953,N,12238.16721,W,000.06,000.0,170713,016.8,E,A*2B
$PGRME,3.0,M,3.2,M,4.4,M*2C
$YXXDR,A,5.7,D,PTCH,A,2.7,D,ROLL*5A
$HCHDG,58.2,0.0,E,,*16
$HCHDG,58.2,0.0,E,,*16
$GPRMC,171335.2,A,4817.08950,N,12238.16730,W,000.09,000.0,170713,016.8,E,A*25
$PGRME,3.0,M,3.1,M,4.4,M*2F
$HCHDG,58.4,0.0,E,,*10
$HCHDG,58.3,0.0,E,,*17
$PTAK,FFP1,HEEL,@*07
$GPRMC,171335.4,A,4817.08948,N,12238.16731,W,000.08,000.0,170713,016.8,E,A*2A
$PGRME,3.0,M,3.1,M,4.3,M*28
$HCHDG,58.3,0.0,E,,*17
$YXXDR,A,5.7,D,PTCH,A,2.7,D,ROLL*5A
$PTAK,FFD1,2.7*50
$GPRMC,171335.6,A,4817.08949,N,12238.16735,W,000.07,000.0,170713,016.8,E,A*22
$PGRME,3.0,M,3.0,M,4.3,M*29
$HCHDG,58.3,0.0,E,,*17
$HCHDG,58.3,0.0,E,,*17
$HCHDG,58.3,0.0,E,,*17
$GPRMC,171335.8,A,4817.08945,N,12238.16740,W,000.11,000.0,170713,016.8,E,A*25
$GPRMB,A,0.23,L,,OH,4817.5980,N,12238.5140,W,0.6,336,0.10,V*09
$PGRME,3.0,M,3.0,M,4.3,M*29
$HCHDG,58.3,0.0,E,,*17
$HCHDG,58.3,0.0,E,,*17
$GPRMC,171336.0,A,4817.08944,N,12238.16738,W,000.07,000.0,170713,016.8,E,A*27
$PGRME,3.0,M,3.0,M,4.3,M*29
$YXXDR,A,5.6,D,PTCH,A,2.6,D,ROLL*5A
$HCHDG,58.3,0.0,E,,*17
$HCHDG,58.3,0.0,E,,*17
$GPRMC,171336.2,A,4817.08945,N,12238.16740,W,000.04,000.0,170713,016.8,E,A*28
$PGRME,3.0,M,3.0,M,4.3,M*29
$HCHDG,58.1,0.0,E,,*15
$HCHDG,58.1,0.0,E,,*15
$GPRMC,171336.4,A,4817.08942,N,12238.16738,W,000.07,000.0,170713,016.8,E,A*25
$PGRME,3.0,M,3.0,M,4.3,M*29
$HCHDG,58.0,0.0,E,,*14
$YXXDR,A,5.6,D,PTCH,A,2.6,D,ROLL*5A
$GPRMC,171336.6,A,4817.08939,N,12238.16736,W,000.06,000.0,170713,016.8,E,A*24
$PGRME,3.0,M,3.0,M,4.3,M*29
$HCHDG,58.0,0.0,E,,*14
$HCHDG,57.9,0.0,E,,*12
$HCHDG,57.9,0.0,E,,*12
$GPRMC,171336.8,A,4817.08939,N,12238.16746,W,000.04,000.0,170713,016.8,E,A*2F
$PGRME,3.0,M,3.0,M,4.3,M*29
$HCHDG,57.9,0.0,E,,*12
$HCHDG,57.9,0.0,E,,*12
$GPRMC,171337.0,A,4817.08943,N,12238.16752,W,000.06,000.0,170713,016.8,E,A*2C
$GPRMB,A,0.23,L,,OH,4817.5980,N,12238.5140,W,0.6,336,0.05,V*0D
$PGRME,3.0,M,3.0,M,4.3,M*29
$YXXDR,A,5.5,D,PTCH,A,2.7,D,ROLL*58
$PTAK,FFD1,2.7*50
$HCHDG,57.8,0.0,E,,*13
$HCHDG,57.9,0.0,E,,*12
$GPRMC,171337.2,A,4817.08944,N,12238.16756,W,000.03,000.0,170713,016.8,E,A*28
$PGRME,3.0,M,3.0,M,4.3,M*29
$HCHDG,57.9,0.0,E,,*12
$HCHDG,57.8,0.0,E,,*13
$GPRMC,171337.4,A,4817.08942,N,12238.16757,W,000.06,000.0,170713,016.8,E,A*2C
$PGRME,3.0,M,3.0,M,4.3,M*29
$HCHDG,57.8,0.0,E,,*13
$YXXDR,A,5.6,D,PTCH,A,2.9,D,ROLL*55
$GPRMC,171337.6,A,4817.08939,N,12238.16756,W,000.06,000.0,170713,016.8,E,A*23
$PGRME,3.0,M,3.0,M,4.3,M*29
$HCHDG,57.7,0.0,E,,*1C
$HCHDG,57.7,0.0,E,,*1C
$HCHDG,57.8,0.0,E,,*13
$GPRMC,171337.8,A,4817.08937,N,12238.16760,W,000.07,000.0,170713,016.8,E,A*27
$PGRME,3.0,M,3.0,M,4.3,M*29
$HCHDG,57.8,0.0,E,,*13
$HCHDG,57.7,0.0,E,,*1C
$GPRMC,171338.0,A,4817.08935,N,12238.16765,W,000.06,000.0,170713,016.8,E,A*26
$PGRME,3.0,M,3.0,M,4.3,M*29
$YXXDR,A,5.6,D,PTCH,A,2.9,D,ROLL*55
$HCHDG,57.7,0.0,E,,*1C
$HCHDG,57.6,0.0,E,,*1D
$GPRMC,171338.2,A,4817.08935,N,12238.16759,W,000.06,000.0,170713,016.8,E,A*2B
$GPRMB,A,0.23,L,,OH,4817.5980,N,12238.5140,W,0.6,336,0.05,V*0D
$PGRME,3.0,M,3.0,M,4.3,M*29
$HCHDG,57.6,0.0,E,,*1D
$HCHDG,57.6,0.0,E,,*1D
$GPRMC,171338.4,A,4817.08937,N,12238.16754,W,000.07,000.0,170713,016.8,E,A*23
$PGRME,3.0,M,3.0,M,4.3,M*29
$HCHDG,57.5,0.0,E,,*1E
$YXXDR,A,5.6,D,PTCH,A,3.0,D,ROLL*5D
$PTAK,FFD1,3.0*56
$GPRMC,171338.6,A,4817.08938,N,12238.16747,W,000.07,000.0,170713,016.8,E,A*2C
$PGRME,3.0,M,3.0,M,4.3,M*29
$HCHDG,57.7,0.0,E,,*1C
$HCHDG,57.7,0.0,E,,*1C
$HCHDG,57.6,0.0,E,,*1D
$GPRMC,171338.8,A,4817.08936,N,12238.16743,W,000.10,000.0,170713,016.8,E,A*2E
$PGRME,3.0,M,3.0,M,4.3,M*29
$HCHDG,57.6,0.0,E,,*1D
$HCHDG,57.8,0.0,E,,*13
$GPRMC,171339.0,A,4817.08935,N,12238.16737,W,000.07,000.0,170713,016.8,E,A*21
$PGRME,3.0,M,3.0,M,4.3,M*29
$YXXDR,A,5.5,D,PTCH,A,2.9,D,ROLL*56
$HCHDG,57.7,0.0,E,,*1C
$HCHDG,57.5,0.0,E,,*1E
$GPRMC,171339.2,A,4817.08934,N,12238.16738,W,000.14,000.0,170713,016.8,E,A*2F
$GPRMB,A,0.23,L,,OH,4817.5980,N,12238.5140,W,0.6,336,0.13,V*0A
$PGRME,3.0,M,3.0,M,4.3,M*29
$HCHDG,57.5,0.0,E,,*1E
$HCHDG,57.4,0.0,E,,*1F
$GPRMC,171339.4,A,4817.08933,N,12238.16738,W,000.10,000.0,170713,016.8,E,A*2A
$PGRME,3.0,M,3.0,M,4.3,M*29
$HCHDG,57.4,0.0,E,,*1F
$YXXDR,A,5.7,D,PTCH,A,3.1,D,ROLL*5D
$PTAK,FFD1,3.1*57
$GPRMC,171339.6,A,4817.08933,N,12238.16731,W,000.08,000.0,170713,016.8,E,A*28
$PGRME,3.0,M,3.0,M,4.3,M*29
$HCHDG,57.5,0.0,E,,*1E
$HCHDG,57.5,0.0,E,,*1E
$HCHDG,57.4,0.0,E,,*1F
$PTAK,FFP1,HEEL,@*07
$GPRMC,171339.8,A,4817.08930,N,12238.16730,W,000.05,000.0,170713,016.8,E,A*29
$PGRME,3.0,M,3.0,M,4.3,M*29
$HCHDG,57.4,0.0,E,,*1F
$HCHDG,57.5,0.0,E,,*1E
$GPRMC,171340.0,A,4817.08929,N,12238.16731,W,000.06,000.0,170713,016.8,E,A*25
$PGRME,3.0,M,3.0,M,4.3,M*29
$YXXDR,A,5.6,D,PTCH,A,3.5,D,ROLL*58
$HCHDG,57.5,0.0,E,,*1E
$HCHDG,57.4,0.0,E,,*1F
$GPRMC,171340.2,A,4817.08927,N,12238.16728,W,000.02,000.0,170713,016.8,E,A*25
$PGRME,3.0,M,3.0,M,4.3,M*29
$HCHDG,57.6,0.0,E,,*1D
$HCHDG,57.7,0.0,E,,*1C
$GPRMC,171340.4,A,4817.08924,N,12238.16722,W,000.03,000.0,170713,016.8,E,A*2B
$GPRMB,A,0.23,L,,OH,4817.5980,N,12238.5140,W,0.6,336,0.03,V*0B
$PGRME,3.0,M,3.0,M,4.3,M*29
$HCHDG,57.7,0.0,E,,*1C
$YXXDR,A,5.7,D,PTCH,A,3.2,D,ROLL*5E
$PTAK,FFD1,3.2*54
$GPRMC,171340.6,A,4817.08922,N,12238.16715,W,000.05,000.0,170713,016.8,E,A*2D
$PGRME,3.0,M,3.0,M,4.3,M*29
$HCHDG,57.7,0.0,E,,*1C
$HCHDG,57.7,0.0,E,,*1C
$HCHDG,57.7,0.0,E,,*1C
$GPRMC,171340.8,A,4817.08923,N,12238.16710,W,000.06,000.0,170713,016.8,E,A*24
$PGRME,3.0,M,3.0,M,4.3,M*29
$HCHDG,57.7,0.0,E,,*1C
$HCHDG,57.5,0.0,E,,*1E
$GPRMC,171341.0,A,4817.08922,N,12238.16709,W,000.06,000.0,170713,016.8,E,A*24
$PGRME,3.0,M,3.0,M,4.3,M*29
$YXXDR,A,5.7,D,PTCH,A,3.1,D,ROLL*5D
$HCHDG,57.6,0.0,E,,*1D
$HCHDG,57.6,0.0,E,,*1D
$GPRMC,171341.2,A,4817.08924,N,12238.16708,W,000.08,000.0,170713,016.8,E,A*2F
$PGRME,3.0,M,3.0,M,4.3,M*29
$HCHDG,57.6,0.0,E,,*1D
$HCHDG,57.5,0.0,E,,*1E
$GPRMC,171341.4,A,4817.08921,N,12238.16705,W,000.07,000.0,170713,016.8,E,A*2E
$GPRMB,A,0.23,L,,OH,4817.5980,N,12238.5140,W,0.6,336,0.06,V*0E
$PGRME,3.0,M,3.0,M,4.3,M*29
$HCHDG,57.5,0.0,E,,*1E
$YXXDR,A,5.6,D,PTCH,A,2.6,D,ROLL*5A
$GPRMC,171341.6,A,4817.08918,N,12238.16703,W,000.02,000.0,170713,016.8,E,A*25
$PGRME,3.0,M,3.0,M,4.3,M*29
$HCHDG,57.3,0.0,E,,*18
$HCHDG,57.2,0.0,E,,*19
$HCHDG,57.3,0.0,E,,*18
$GPRMC,171341.8,A,4817.08917,N,12238.16704,W,000.01,000.0,170713,016.8,E,A*20
$PGRME,3.0,M,3.0,M,4.3,M*29
$HCHDG,57.3,0.0,E,,*18
$HCHDG,57.1,0.0,E,,*1A
$GPRMC,171342.0,A,4817.08915,N,12238.16703,W,000.07,000.0,170713,016.8,E,A*28
$PGRME,3.0,M,3.0,M,4.3,M*29
$YXXDR,A,5.5,D,PTCH,A,2.5,D,ROLL*5A
$PTAK,FFD1,2.5*52
$HCHDG,57.1,0.0,E,,*1A
$HCHDG,57.2,0.0,E,,*19
$GPRMC,171342.2,A,4817.08913,N,12238.16704,W,000.03,000.0,170713,016.8,E,A*2F
$PGRME,3.0,M,3.0,M,4.3,M*29
$HCHDG,57.3,0.0,E,,*18
$HCHDG,57.3,0.0,E,,*18
$GPRMC,171342.4,A,4817.08916,N,12238.16708,W,000.07,000.0,170713,016.8,E,A*24
$PGRME,3.0,M,3.0,M,4.3,M*29
$HCHDG,57.3,0.0,E,,*18
$YXXDR,A,5.6,D,PTCH,A,2.6,D,ROLL*5A
$GPRMC,171342.6,A,4817.08917,N,12238.16721,W,000.06,000.0,170713,016.8,E,A*2D
$GPRMB,A,0.23,L,,OH,4817.5980,N,12238.5140,W,0.6,336,0.05,V*0D
$PGRME,3.0,M,3.0,M,4.3,M*29
$HCHDG,57.2,0.0,E,,*19
$HCHDG,57.2,0.0,E,,*19
$HCHDG,57.4,0.0,E,,*1F
$GPRMC,171342.8,A,4817.08914,N,12238.16735,W,000.05,000.0,170713,016.8,E,A*26
$PGRME,3.0,M,3.0,M,4.3,M*29
$HCHDG,57.4,0.0,E,,*1F
$HCHDG,57.3,0.0,E,,*18
$GPRMC,171343.0,A,4817.08908,N,12238.16745,W,000.08,000.0,170713,016.8,E,A*28
$PGRME,3.0,M,3.0,M,4.3,M*29
$YXXDR,A,5.6,D,PTCH,A,3.0,D,ROLL*5D
$HCHDG,57.3,0.0,E,,*18
$HCHDG,57.4,0.0,E,,*1F
$GPRMC,171343.2,A,4817.08905,N,12238.16749,W,000.08,000.0,170713,016.8,E,A*2B
$PGRME,3.0,M,3.0,M,4.3,M*29
$HCHDG,57.4,0.0,E,,*1F
$HCHDG,57.4,0.0,E,,*1F
$GPRMC,171343.4,A,4817.08900,N,12238.16750,W,000.07,000.0,170713,016.8,E,A*2F
$PGRME,3.0,M,3.0,M,4.3,M*29
$HCHDG,57.4,0.0,E,,*1F
$YXXDR,A,5.5,D,PTCH,A,3.1,D,ROLL*5F
$PTAK,FFD1,3.1*57
$GPRMC,171343.6,A,4817.08897,N,12238.16753,W,000.07,000.0,170713,016.8,E,A*21
$GPRMB,A,0.23,L,,OH,4817.5980,N,12238.5140,W,0.6,336,0.06,V*0E
$PGRME,3.0,M,3.0,M,4.3,M*29
$HCHDG,57.3,0.0,E,,*18
$PTAK,FFP1,HEEL,@*07
$HCHDG,57.3,0.0,E,,*18
$HCHDG,57.5,0.0,E,,*1E
$GPRMC,171343.8,A,4817.08893,N,12238.16755,W,000.05,000.0,170713,016.8,E,A*2F
$PGRME,3.0,M,3.0,M,4.3,M*29
$HCHDG,57.5,0.0,E,,*1E
$HCHDG,57.5,0.0,E,,*1E
$GPRMC,171344.0,A,4817.08892,N,12238.16754,W,000.04,000.0,170713,016.8,E,A*21
$PGRME,3.0,M,3.0,M,4.3,M*29
$PGRMT,GPS 18x-5Hz software ver. 3.20,,,,,,,,*30
$YXXDR,A,5.6,D,PTCH,A,3.0,D,ROLL*5D
$HCHDG,57.5,0.0,E,,*1E
$HCHDG,57.4,0.0,E,,*1F
$GPRMC,171344.2,A,4817.08891,N,12238.16757,W,000.03,000.0,170713,016.8,E,A*24
$PGRME,3.0,M,3.0,M,4.3,M*29
$HCHDG,57.4,0.0,E,,*1F
$HCHDG,57.4,0.0,E,,*1F
$GPRMC,171344.4,A,4817.08888,N,12238.16761,W,000.03,000.0,170713,016.8,E,A*2F
$PGRME,3.0,M,3.0,M,4.3,M*29
$HCHDG,57.3,0.0,E,,*18
$YXXDR,A,5.5,D,PTCH,A,2.5,D,ROLL*5A
$PTAK,FFD1,2.5*52
$GPRMC,171344.6,A,4817.08884,N,12238.16760,W,000.03,000.0,170713,016.8,E,A*20
$GPRMB,A,0.23,L,,OH,4817.5980,N,12238.5140,W,0.6,336,0.03,V*0B
$PGRME,3.0,M,3.0,M,4.3,M*29
$HCHDG,57.3,0.0,E,,*18
$HCHDG,57.3,0.0,E,,*18
$HCHDG,57.4,0.0,E,,*1F
$GPRMC,171344.8,A,4817.08881,N,12238.16759,W,000.07,000.0,170713,016.8,E,A*25
$PGRME,3.0,M,3.0,M,4.3,M*29
$HCHDG,57.4,0.0,E,,*1F
$HCHDG,57.4,0.0,E,,*1F
$GPRMC,171345.0,A,4817.08878,N,12238.16760,W,000.09,000.0,170713,016.8,E,A*2E
$PGRME,3.0,M,3.0,M,4.3,M*29
$YXXDR,A,5.5,D,PTCH,A,2.5,D,ROLL*5A
$HCHDG,57.4,0.0,E,,*1F
$HCHDG,57.1,0.0,E,,*1A
$GPRMC,171345.2,A,4817.08879,N,12238.16760,W,000.14,000.0,170713,016.8,E,A*21
$PGRME,3.0,M,3.0,M,4.3,M*29
$HCHDG,57.1,0.0,E,,*1A
$HCHDG,57.1,0.0,E,,*1A
$GPRMC,171345.4,A,4817.08880,N,12238.16762,W,000.09,000.0,170713,016.8,E,A*2F
$PGRME,3.0,M,3.0,M,4.3,M*29
$HCHDG,57.2,0.0,E,,*19
$YXXDR,A,5.4,D,PTCH,A,2.8,D,ROLL*56
$GPRMC,171345.6,A,4817.08881,N,12238.16763,W,000.03,000.0,170713,016.8,E,A*27
$PGRME,3.0,M,3.0,M,4.3,M*29
$HCHDG,57.1,0.0,E,,*1A
$HCHDG,57.1,0.0,E,,*1A
$HCHDG,57.1,0.0,E,,*1A
$GPRMC,171345.8,A,4817.08887,N,12238.16769,W,000.09,000.0,170713,016.8,E,A*2F
$GPRMB,A,0.23,L,,OH,4817.5980,N,12238.5140,W,0.6,336,0.08,V*00
$PGRME,3.0,M,3.0,M,4.3,M*29
$HCHDG,57.0,0.0,E,,*1B
$HCHDG,56.9,0.0,E,,*13
$GPRMC,171346.0,A,4817.08891,N,12238.16773,W,000.05,000.0,170713,016.8,E,A*24
$PGRME,3.0,M,3.0,M,4.3,M*29
$YXXDR,A,5.6,D,PTCH,A,3.0,D,ROLL*5D
$PTAK,FFD1,3.0*56
$HCHDG,57.0,0.0,E,,*1B
$HCHDG,57.1,0.0,E,,*1A
$GPRMC,171346.2,A,4817.08895,N,12238.16772,W,000.11,000.0,170713,016.8,E,A*26
$PGRME,3.0,M,3.0,M,4.3,M*29
$HCHDG,57.1,0.0,E,,*1A
$HCHDG,57.0,0.0,E,,*1B
$GPRMC,171346.4,A,4817.08900,N,12238.16768,W,000.04,000.0,170713,016.8,E,A*22
$PGRME,3.0,M,3.0,M,4.3,M*29
$HCHDG,57.1,0.0,E,,*1A
$YXXDR,A,5.7,D,PTCH,A,3.1,D,ROLL*5D
$GPRMC,171346.6,A,4817.08900,N,12238.16759,W,000.04,000.0,170713,016.8,E,A*22
$PGRME,3.0,M,3.0,M,4.3,M*29
$HCHDG,57.2,0.0,E,,*19
$HCHDG,57.1,0.0,E,,*1A
$HCHDG,57.1,0.0,E,,*1A
$GPRMC,171346.8,A,4817.08902,N,12238.16753,W,000.01,000.0,170713,016.8,E,A*21
$GPRMB,A,0.23,L,,OH,4817.5980,N,12238.5140,W,0.6,336,0.01,V*09
$PGRME,3.0,M,3.0,M,4.3,M*29
$HCHDG,57.1,0.0,E,,*1A
$HCHDG,57.1,0.0,E,,*1A
$GPRMC,171347.0,A,4817.08902,N,12238.16743,W,000.09,000.0,170713,016.8,E,A*21
$PGRME,3.0,M,3.0,M,4.3,M*29
$YXXDR,A,5.7,D,PTCH,A,3.1,D,ROLL*5D
$HCHDG,57.1,0.0,E,,*1A
$HCHDG,57.1,0.0,E,,*1A
$GPRMC,171347.2,A,4817.08902,N,12238.16728,W,000.06,000.0,170713,016.8,E,A*21
$PGRME,3.0,M,3.0,M,4.3,M*29
$HCHDG,57.1,0.0,E,,*1A
$HCHDG,57.1,0.0,E,,*1A
$GPRMC,171347.4,A,4817.08901,N,12238.16714,W,000.06,000.0,170713,016.8,E,A*2B
$PGRME,3.0,M,3.0,M,4.3,M*29
$HCHDG,57.0,0.0,E,,*1B
$YXXDR,A,5.7,D,PTCH,A,3.1,D,ROLL*5D
$PTAK,FFD1,3.1*57
$GPRMC,171347.6,A,4817.08899,N,12238.16705,W,000.07,000.0,170713,016.8,E,A*28
$PGRME,3.0,M,3.0,M,4.3,M*29
$HCHDG,57.1,0.0,E,,*1A
$HCHDG,57.1,0.0,E,,*1A
$HCHDG,57.1,0.0,E,,*1A
$GPRMC,171347.8,A,4817.08902,N,12238.16698,W,000.03,000.0,170713,016.8,E,A*24
$GPRMB,A,0.23,L,,OH,4817.5980,N,12238.5140,W,0.6,336,0.03,V*0B
$PTAK,FFP1,HEEL,@*07
$PGRME,3.0,M,3.0,M,4.3,M*29
$HCHDG,57.1,0.0,E,,*1A
$HCHDG,57.2,0.0,E,,*19
$GPRMC,171348.0,A,4817.08903,N,12238.16693,W,000.06,000.0,170713,016.8,E,A*2C
$PGRME,3.0,M,3.0,M,4.3,M*29
$YXXDR,A,5.5,D,PTCH,A,3.1,D,ROLL*5F
$HCHDG,57.2,0.0,E,,*19
$HCHDG,57.3,0.0,E,,*18
$GPRMC,171348.2,A,4817.08900,N,12238.16689,W,000.09,000.0,170713,016.8,E,A*29
$PGRME,3.0,M,3.0,M,4.3,M*29
$HCHDG,57.3,0.0,E,,*18
$HCHDG,57.3,0.0,E,,*18
$GPRMC,171348.4,A,4817.08897,N,12238.16683,W,000.09,000.0,170713,016.8,E,A*2A
$PGRME,3.0,M,3.0,M,4.3,M*29
$HCHDG,57.4,0.0,E,,*1F
$YXXDR,A,5.5,D,PTCH,A,3.1,D,ROLL*5F
$GPRMC,171348.6,A,4817.08893,N,12238.16681,W,000.06,000.0,170713,016.8,E,A*21
$PGRME,3.0,M,3.0,M,4.3,M*29
$HCHDG,57.4,0.0,E,,*1F
$HCHDG,57.3,0.0,E,,*18
$HCHDG,57.4,0.0,E,,*1F
$GPRMC,171348.8,A,4817.08892,N,12238.16683,W,000.06,000.0,170713,016.8,E,A*2C
$PGRME,3.0,M,3.0,M,4.3,M*29
$HCHDG,57.4,0.0,E,,*1F
$HCHDG,57.5,0.0,E,,*1E
$GPRMC,171349.0,A,4817.08895,N,12238.16685,W,000.07,000.0,170713,016.8,E,A*25
$GPRMB,A,0.23,L,,OH,4817.5980,N,12238.5140,W,0.6,336,0.06,V*0E
$PGRME,3.0,M,3.0,M,4.3,M*29
$YXXDR,A,5.5,D,PTCH,A,3.1,D,ROLL*5F
$PTAK,FFD1,3.1*57
$HCHDG,57.5,0.0,E,,*1E
$HCHDG,57.5,0.0,E,,*1E
$GPRMC,171349.2,A,4817.08896,N,12238.16687,W,000.05,000.0,170713,016.8,E,A*24
$PGRME,3.0,M,3.0,M,4.3,M*29
$HCHDG,57.5,0.0,E,,*1E
$HCHDG,57.5,0.0,E,,*1E
$GPRMC,171349.4,A,4817.08898,N,12238.16690,W,000.05,000.0,170713,016.8,E,A*2A
$PGRME,3.0,M,3.0,M,4.3,M*29
$HCHDG,57.5,0.0,E,,*1E
$YXXDR,A,5.5,D,PTCH,A,3.1,D,ROLL*5F
$GPRMC,171349.6,A,4817.08894,N,12238.16686,W,000.06,000.0,170713,016.8,E,A*20
$PGRME,3.0,M,3.0,M,4.3,M*29
$HCHDG,57.5,0.0,E,,*1E
$HCHDG,57.5,0.0,E,,*1E
$HCHDG,57.5,0.0,E,,*1E
$GPRMC,171349.8,A,4817.08894,N,12238.16684,W,000.01,000.0,170713,016.8,E,A*2B
$PGRME,3.0,M,3.0,M,4.3,M*29
$HCHDG,57.5,0.0,E,,*1E
$HCHDG,57.5,0.0,E,,*1E
$GPRMC,171350.0,A,4817.08890,N,12238.16679,W,000.05,000.0,170713,016.8,E,A*29
$PGRME,3.0,M,3.0,M,4.3,M*29
$YXXDR,A,5.5,D,PTCH,A,3.1,D,ROLL*5F
$HCHDG,57.6,0.0,E,,*1D
$HCHDG,57.6,0.0,E,,*1D
$GPRMC,171350.2,A,4817.08888,N,12238.16677,W,000.03,000.0,170713,016.8,E,A*2A
$GPRMB,A,0.23,L,,OH,4817.5980,N,12238.5140,W,0.6,336,0.03,V*0B
$PGRME,3.0,M,3.0,M,4.3,M*29
$HCHDG,57.6,0.0,E,,*1D
$HCHDG,57.6,0.0,E,,*1D
$GPRMC,171350.4,A,4817.08887,N,12238.16674,W,000.02,000.0,170713,016.8,E,A*21
$PGRME,3.0,M,3.0,M,4.3,M*29
$HCHDG,57.6,0.0,E,,*1D
$YXXDR,A,5.5,D,PTCH,A,3.1,D,ROLL*5F
$PTAK,FFD1,3.1*57
$GPRMC,171350.6,A,4817.08887,N,12238.16673,W,000.03,000.0,170713,016.8,E,A*25
$PGRME,3.0,M,3.0,M,4.3,M*29
$HCHDG,57.6,0.0,E,,*1D
$HCHDG,57.6,0.0,E,,*1D
$HCHDG,57.6,0.0,E,,*1D
$GPRMC,171350.8,A,4817.08885,N,12238.16673,W,000.03,000.0,170713,016.8,E,A*29
$PGRME,3.0,M,3.0,M,4.3,M*29
$HCHDG,57.6,0.0,E,,*1D
$HCHDG,57.6,0.0,E,,*1D
$GPRMC,171351.0,A,4817.08884,N,12238.16668,W,000.04,000.0,170713,016.8,E,A*2C
$PGRME,3.0,M,3.0,M,4.3,M*29
$YXXDR,A,5.4,D,PTCH,A,3.1,D,ROLL*5E
$HCHDG,57.6,0.0,E,,*1D
$HCHDG,57.6,0.0,E,,*1D
$GPRMC,171351.2,A,4817.08880,N,12238.16663,W,000.02,000.0,170713,016.8,E,A*27
$PGRME,3.0,M,3.0,M,4.3,M*29
$HCHDG,57.6,0.0,E,,*1D
$HCHDG,57.6,0.0,E,,*1D
$GPRMC,171351.4,A,4817.08881,N,12238.16663,W,000.05,000.0,170713,016.8,E,A*27
$GPRMB,A,0.23,L,,OH,4817.5980,N,12238.5140,W,0.6,336,0.05,V*0D
$PGRME,3.0,M,3.0,M,4.3,M*29
$HCHDG,57.6,0.0,E,,*1D
$YXXDR,A,5.5,D,PTCH,A,3.1,D,ROLL*5F
$PTAK,FFD1,3.1*57
$GPRMC,171351.6,A,4817.08883,N,12238.16656,W,000.04,000.0,170713,016.8,E,A*20
$PGRME,3.0,M,3.0,M,4.3,M*29
$HCHDG,57.6,0.0,E,,*1D
$HCHDG,57.6,0.0,E,,*1D
$HCHDG,57.8,0.0,E,,*13
$GPRMC,171351.8,A,4817.08883,N,12238.16657,W,000.04,000.0,170713,016.8,E,A*2F
$PGRME,3.0,M,3.0,M,4.3,M*29
$HCHDG,57.8,0.0,E,,*13
$PTAK,FFP1,HEEL,@*07
$HCHDG,57.8,0.0,E,,*13
$GPRMC,171352.0,A,4817.08885,N,12238.16659,W,000.05,000.0,170713,016.8,E,A*2D
$PGRME,3.0,M,3.0,M,4.3,M*29
$YXXDR,A,5.4,D,PTCH,A,3.3,D,ROLL*5C
$HCHDG,57.8,0.0,E,,*13
$HCHDG,57.8,0.0,E,,*13
$GPRMC,171352.2,A,4817.08890,N,12238.16665,W,000.05,000.0,170713,016.8,E,A*24
$PGRME,3.0,M,3.0,M,4.3,M*29
$HCHDG,57.6,0.0,E,,*1D
$HCHDG,57.6,0.0,E,,*1D
$GPRMC,171352.4,A,4817.08895,N,12238.16674,W,000.04,000.0,170713,016.8,E,A*26
$PGRME,3.0,M,3.0,M,4.3,M*29
$HCHDG,57.6,0.0,E,,*1D
$YXXDR,A,5.4,D,PTCH,A,3.3,D,ROLL*5C
$GPRMC,171352.6,A,4817.08899,N,12238.16676,W,000.03,000.0,170713,016.8,E,A*2D
$GPRMB,A,0.23,L,,OH,4817.5980,N,12238.5140,W,0.6,336,0.03,V*0B
$PGRME,3.0,M,3.0,M,4.3,M*29
$HCHDG,57.5,0.0,E,,*1E
$HCHDG,57.6,0.0,E,,*1D
$HCHDG,57.6,0.0,E,,*1D
$GPRMC,171352.8,A,4817.08903,N,12238.16678,W,000.02,000.0,170713,016.8,E,A*2E
$PGRME,3.0,M,3.0,M,4.3,M*29
$HCHDG,57.6,0.0,E,,*1D
$HCHDG,57.7,0.0,E,,*1C
$GPRMC,171353.0,A,4817.08907,N,12238.16676,W,000.02,000.0,170713,016.8,E,A*2D
$PGRME,3.0,M,3.0,M,4.3,M*29
$YXXDR,A,5.5,D,PTCH,A,3.1,D,ROLL*5F
$PTAK,FFD1,3.1*57
$HCHDG,57.7,0.0,E,,*1C
$HCHDG,57.6,0.0,E,,*1D
$GPRMC,171353.2,A,4817.08909,N,12238.16677,W,000.03,000.0,170713,016.8,E,A*21
$PGRME,3.0,M,3.0,M,4.3,M*29
$HCHDG,57.6,0.0,E,,*1D
$HCHDG,57.4,0.0,E,,*1F
$GPRMC,171353.4,A,4817.08911,N,12238.16670,W,000.03,000.0,170713,016.8,E,A*29
$PGRME,3.0,M,3.0,M,4.3,M*29
$HCHDG,57.4,0.0,E,,*1F
$YXXDR,A,5.5,D,PTCH,A,3.1,D,ROLL*5F
$GPRMC,171353.6,A,4817.08912,N,12238.16668,W,000.03,000.0,170713,016.8,E,A*21
$GPRMB,A,0.23,L,,OH,4817.5980,N,12238.5140,W,0.6,336,0.03,V*0B
$PGRME,3.0,M,3.0,M,4.3,M*29
$HCHDG,57.4,0.0,E,,*1F
$HCHDG,57.4,0.0,E,,*1F
$HCHDG,57.4,0.0,E,,*1F
$GPRMC,171353.8,A,4817.08914,N,12238.16664,W,000.05,000.0,170713,016.8,E,A*23
$PGRME,3.0,M,3.0,M,4.3,M*29
$HCHDG,57.4,0.0,E,,*1F
$HCHDG,57.4,0.0,E,,*1F
$GPRMC,171354.0,A,4817.08914,N,12238.16663,W,000.07,000.0,170713,016.8,E,A*29
$PGRME,3.0,M,3.0,M,4.3,M*29
$YXXDR,A,5.5,D,PTCH,A,3.3,D,ROLL*5D
$PTAK,FFD1,3.3*55
$HCHDG,57.3,0.0,E,,*18
$HCHDG,57.4,0.0,E,,*1F
$GPRMC,171354.2,A,4817.08914,N,12238.16663,W,000.06,000.0,170713,016.8,E,A*2A
$PGRME,3.0,M,3.0,M,4.3,M*29
$HCHDG,57.4,0.0,E,,*1F
$HCHDG,57.5,0.0,E,,*1E
$GPRMC,171354.4,A,4817.08914,N,12238.16663,W,000.05,000.0,170713,016.8,E,A*2F
$PGRME,3.0,M,3.0,M,4.3,M*29
$HCHDG,57.5,0.0,E,,*1E
$YXXDR,A,5.5,D,PTCH,A,3.4,D,ROLL*5A
$GPRMC,171354.6,A,4817.08915,N,12238.16663,W,000.07,000.0,170713,016.8,E,A*2E
$PGRME,3.0,M,3.0,M,4.3,M*29
$HCHDG,57.5,0.0,E,,*1E
$HCHDG,57.5,0.0,E,,*1E
$HCHDG,57.5,0.0,E,,*1E
$GPRMC,171354.8,A,4817.08915,N,12238.16663,W,000.03,000.0,170713,016.8,E,A*24
$GPRMB,A,0.23,L,,OH,4817.5980,N,12238.5140,W,0.6,336,0.03,V*0B
$PGRME,3.0,M,3.0,M,4.3,M*29
$HCHDG,57.4,0.0,E,,*1F
$HCHDG,57.5,0.0,E,,*1E
$GPRMC,171355.0,A,4817.08915,N,12238.16663,W,000.09,000.0,170713,016.8,E,A*27
$PGRME,3.0,M,3.0,M,4.3,M*29
$YXXDR,A,5.5,D,PTCH,A,3.4,D,ROLL*5A
$HCHDG,57.5,0.0,E,,*1E
$HCHDG,57.5,0.0,E,,*1E
$GPRMC,171355.2,A,4817.08915,N,12238.16663,W,000.05,000.0,170713,016.8,E,A*29
$PGRME,3.0,M,3.0,M,4.3,M*29
$HCHDG,57.5,0.0,E,,*1E
$HCHDG,57.7,0.0,E,,*1C
$GPRMC,171355.4,A,4817.08916,N,12238.16663,W,000.03,000.0,170713,016.8,E,A*2A
$PGRME,3.0,M,3.0,M,4.3,M*29
$HCHDG,57.8,0.0,E,,*13
$YXXDR,A,5.4,D,PTCH,A,3.3,D,ROLL*5C
$PTAK,FFD1,3.3*55
$GPRMC,171355.6,A,4817.08916,N,12238.16663,W,000.07,000.0,170713,016.8,E,A*2C
$PGRME,3.0,M,3.0,M,4.3,M*29
$HCHDG,57.8,0.0,E,,*13
$HCHDG,57.8,0.0,E,,*13
$HCHDG,57.7,0.0,E,,*1C
$GPRMC,171355.8,A,4817.08916,N,12238.16663,W,000.03,000.0,170713,016.8,E,A*26
$GPRMB,A,0.23,L,,OH,4817.5980,N,12238.5140,W,0.6,336,0.03,V*0B
$PGRME,3.0,M,3.0,M,4.3,M*29
$HCHDG,57.7,0.0,E,,*1C
$PTAK,FFP1,HEEL,@*07
$HCHDG,57.8,0.0,E,,*13
$GPRMC,171356.0,A,4817.08916,N,12238.16663,W,000.05,000.0,170713,016.8,E,A*2B
$PGRME,3.0,M,3.0,M,4.3,M*29
$YXXDR,A,5.4,D,PTCH,A,3.1,D,ROLL*5E
$HCHDG,57.7,0.0,E,,*1C
$HCHDG,57.8,0.0,E,,*13
$GPRMC,171356.2,A,4817.08917,N,12238.16663,W,000.06,000.0,170713,016.8,E,A*2B
$PGRME,3.0,M,3.0,M,4.3,M*29
$HCHDG,57.8,0.0,E,,*13
$HCHDG,57.6,0.0,E,,*1D
$GPRMC,171356.4,A,4817.08917,N,12238.16663,W,000.05,000.0,170713,016.8,E,A*2E
$PGRME,3.0,M,3.0,M,4.3,M*29
$HCHDG,57.7,0.0,E,,*1C
$YXXDR,A,5.5,D,PTCH,A,2.8,D,ROLL*57
$PTAK,FFD1,2.8*5F
$GPRMC,171356.6,A,4817.08917,N,12238.16662,W,000.03,000.0,170713,016.8,E,A*2B
$PGRME,3.0,M,3.0,M,4.3,M*29
$HCHDG,57.8,0.0,E,,*13
$HCHDG,57.8,0.0,E,,*13
$HCHDG,57.7,0.0,E,,*1C
$GPRMC,171356.8,A,4817.08917,N,12238.16662,W,000.03,000.0,170713,016.8,E,A*25
$GPRMB,A,0.23,L,,OH,4817.5980,N,12238.5140,W,0.6,336,0.03,V*0B
$PGRME,3.0,M,3.0,M,4.3,M*29
$HCHDG,57.7,0.0,E,,*1C
$HCHDG,57.8,0.0,E,,*13
$GPRMC,171357.0,A,4817.08917,N,12238.16663,W,000.01,000.0,170713,016.8,E,A*2F
$PGRME,3.0,M,3.0,M,4.3,M*29
$YXXDR,A,5.7,D,PTCH,A,2.6,D,ROLL*5B
$HCHDG,57.8,0.0,E,,*13
$HCHDG,57.9,0.0,E,,*12
$GPRMC,171357.2,A,4817.08917,N,12238.16663,W,000.04,000.0,170713,016.8,E,A*28
$GPRMB,A,0.23,L,,OH,4817.5980,N,12238.5140,W,0.6,336,0.04,V*0C
$PGRME,3.0,M,3.0,M,4.3,M*29
$HCHDG,57.8,0.0,E,,*13
$HCHDG,57.8,0.0,E,,*13
$GPRMC,171357.4,A,4817.08917,N,12238.16663,W,000.03,000.0,170713,016.8,E,A*29
$PGRME,3.0,M,3.0,M,4.3,M*29
$HCHDG,57.8,0.0,E,,*13
$YXXDR,A,5.6,D,PTCH,A,2.6,D,ROLL*5A
$PTAK,FFD1,2.6*51
$GPRMC,171357.6,A,4817.08917,N,12238.16663,W,000.06,000.0,170713,016.8,E,A*2E
$PGRME,3.0,M,3.0,M,4.3,M*29
$HCHDG,57.9,0.0,E,,*12
$HCHDG,57.7,0.0,E,,*1C
$HCHDG,57.8,0.0,E,,*13
$GPRMC,171357.8,A,4817.08917,N,12238.16662,W,000.03,000.0,170713,016.8,E,A*24
$PGRME,3.0,M,3.0,M,4.3,M*29
$HCHDG,57.8,0.0,E,,*13
$HCHDG,57.8,0.0,E,,*13
$GPRMC,171358.0,A,4817.08917,N,12238.16662,W,000.02,000.0,170713,016.8,E,A*22
$PGRME,3.0,M,3.0,M,4.3,M*29
$YXXDR,A,5.6,D,PTCH,A,2.6,D,ROLL*5A
$HCHDG,57.8,0.0,E,,*13
$HCHDG,57.8,0.0,E,,*13
$GPRMC,171358.2,A,4817.08917,N,12238.16662,W,000.04,000.0,170713,016.8,E,A*26
$PGRME,3.0,M,3.0,M,4.3,M*29
$HCHDG,57.8,0.0,E,,*13
$HCHDG,57.8,0.0,E,,*13
$GPRMC,171358.4,A,4817.08916,N,12238.16662,W,000.04,000.0,170713,016.8,E,A*21
$PGRME,3.0,M,3.0,M,4.3,M*29
$HCHDG,57.9,0.0,E,,*12
$YXXDR,A,5.6,D,PTCH,A,2.6,D,ROLL*5A
$GPRMC,171358.6,A,4817.08916,N,12238.16662,W,000.02,000.0,170713,016.8,E,A*25
$PGRME,3.0,M,3.0,M,4.3,M*29
$HCHDG,57.9,0.0,E,,*12
$HCHDG,57.8,0.0,E,,*13
$HCHDG,57.8,0.0,E,,*13
$GPRMC,171358.8,A,4817.08916,N,12238.16662,W,000.03,000.0,170713,016.8,E,A*2A
$PGRME,3.0,M,3.0,M,4.3,M*29
$HCHDG,57.8,0.0,E,,*13
$HCHDG,57.8,0.0,E,,*13
$GPRMC,171359.0,A,4817.08916,N,12238.16662,W,000.04,000.0,170713,016.8,E,A*24
$GPRMB,A,0.23,L,,OH,4817.5980,N,12238.5140,W,0.6,336,0.04,V*0C
$PGRME,3.0,M,3.0,M,4.3,M*29
$YXXDR,A,5.7,D,PTCH,A,2.7,D,ROLL*5A
$PTAK,FFD1,2.7*50
$HCHDG,57.8,0.0,E,,*13
$HCHDG,57.8,0.0,E,,*13
$GPRMC,171359.2,A,4817.08916,N,12238.16662,W,000.01,000.0,170713,016.8,E,A*23
$PGRME,3.0,M,3.0,M,4.3,M*29
$HCHDG,57.8,0.0,E,,*13
$HCHDG,57.8,0.0,E,,*13
$GPRMC,171359.4,A,4817.08916,N,12238.16662,W,000.03,000.0,170713,016.8,E,A*27
$PGRME,3.0,M,3.0,M,4.3,M*29
$HCHDG,57.8,0.0,E,,*13
$YXXDR,A,5.7,D,PTCH,A,2.7,D,ROLL*5A
$GPRMC,171359.6,A,4817.08916,N,12238.16662,W,000.01,000.0,170713,016.8,E,A*27
$PGRME,3.0,M,3.0,M,4.3,M*29
$HCHDG,57.8,0.0,E,,*13
$HCHDG,57.8,0.0,E,,*13
$HCHDG,57.8,0.0,E,,*13
$GPRMC,171359.8,A,4817.08916,N,12238.16662,W,000.05,000.0,170713,016.8,E,A*2D
$PGRME,3.0,M,3.0,M,4.3,M*29
$HCHDG,57.8,0.0,E,,*13
$HCHDG,57.7,0.0,E,,*1C
$GPRMC,171400.0,A,4817.08916,N,12238.16662,W,000.05,000.0,170713,016.8,E,A*2E
$PTAK,FFP1,HEEL,@*07
$PGRME,3.0,M,3.0,M,4.3,M*29
$YXXDR,A,5.6,D,PTCH,A,2.6,D,ROLL*5A
$HCHDG,57.5,0.0,E,,*1E
$HCHDG,57.5,0.0,E,,*1E
$GPRMC,171400.2,A,4817.08917,N,12238.16662,W,000.02,000.0,170713,016.8,E,A*2A
$GPRMB,A,0.23,L,,OH,4817.5980,N,12238.5140,W,0.6,336,0.02,V*0A
$PGRME,3.0,M,3.0,M,4.3,M*29
$HCHDG,57.5,0.0,E,,*1E
$HCHDG,57.5,0.0,E,,*1E
$GPRMC,171400.4,A,4817.08917,N,12238.16662,W,000.04,000.0,170713,016.8,E,A*2A
$PGRME,3.0,M,3.0,M,4.3,M*29
$HCHDG,57.5,0.0,E,,*1E
$YXXDR,A,5.5,D,PTCH,A,2.5,D,ROLL*5A
$PTAK,FFD1,2.5*52
$GPRMC,171400.6,A,4817.08916,N,12238.16661,W,000.05,000.0,170713,016.8,E,A*2B
$PGRME,3.0,M,3.0,M,4.3,M*29
$HCHDG,57.5,0.0,E,,*1E
$HCHDG,57.5,0.0,E,,*1E
$HCHDG,57.3,0.0,E,,*18
$GPRMC,171400.8,A,4817.08917,N,12238.16661,W,000.07,000.0,170713,016.8,E,A*26
$PGRME,3.0,M,3.0,M,4.3,M*29
$HCHDG,57.2,0.0,E,,*19
$HCHDG,57.3,0.0,E,,*18
$GPRMC,171401.0,A,4817.08917,N,12238.16660,W,000.07,000.0,170713,016.8,E,A*2E
$PGRME,3.0,M,3.0,M,4.3,M*29
$YXXDR,A,5.6,D,PTCH,A,2.6,D,ROLL*5A
$HCHDG,57.3,0.0,E,,*18
$HCHDG,57.3,0.0,E,,*18
$GPRMC,171401.2,A,4817.08917,N,12238.16660,W,000.03,000.0,170713,016.8,E,A*28
$PGRME,3.0,M,3.0,M,4.3,M*29
$HCHDG,57.4,0.0,E,,*1F
$HCHDG,57.3,0.0,E,,*18
$GPRMC,171401.4,A,4817.08917,N,12238.16660,W,000.04,000.0,170713,016.8,E,A*29
$GPRMB,A,0.23,L,,OH,4817.5980,N,12238.5140,W,0.6,336,0.04,V*0C
$PGRME,3.0,M,3.0,M,4.3,M*29
$HCHDG,57.3,0.0,E,,*18
$YXXDR,A,5.5,D,PTCH,A,2.7,D,ROLL*58
$PTAK,FFD1,2.7*50
$GPRMC,171401.6,A,4817.08917,N,12238.16660,W,000.03,000.0,170713,016.8,E,A*2C
$PGRME,3.0,M,3.0,M,4.3,M*29
$HCHDG,57.3,0.0,E,,*18
$HCHDG,57.3,0.0,E,,*18
$HCHDG,57.2,0.0,E,,*19
$GPRMC,171401.8,A,4817.08917,N,12238.16660,W,000.05,000.0,170713,016.8,E,A*24
$PGRME,3.0,M,3.0,M,4.3,M*29
$HCHDG,57.2,0.0,E,,*19
$HCHDG,57.2,0.0,E,,*19
$GPRMC,171402.0,A,4817.08918,N,12238.16659,W,000.05,000.0,170713,016.8,E,A*2A
$PGRME,3.0,M,3.0,M,4.3,M*29
$YXXDR,A,5.5,D,PTCH,A,2.7,D,ROLL*58
$HCHDG,57.2,0.0,E,,*19
$HCHDG,57.1,0.0,E,,*1A
$GPRMC,171402.2,A,4817.08918,N,12238.16659,W,000.02,000.0,170713,016.8,E,A*2F
$PGRME,3.0,M,3.0,M,4.3,M*29
$HCHDG,57.1,0.0,E,,*1A
$HCHDG,57.1,0.0,E,,*1A
$GPRMC,171402.4,A,4817.08918,N,12238.16659,W,000.05,000.0,170713,016.8,E,A*2E
$PGRME,3.0,M,3.0,M,4.3,M*29
$HCHDG,57.0,0.0,E,,*1B
$YXXDR,A,5.5,D,PTCH,A,2.7,D,ROLL*58
$GPRMC,171402.6,A,4817.08918,N,12238.16659,W,000.01,000.0,170713,016.8,E,A*28
$GPRMB,A,0.23,L,,OH,4817.5980,N,12238.5140,W,0.6,336,0.01,V*09
$PGRME,3.0,M,3.0,M,4.3,M*29
$HCHDG,57.0,0.0,E,,*1B
$HCHDG,57.0,0.0,E,,*1B
$HCHDG,57.0,0.0,E,,*1B
$GPRMC,171402.8,A,4817.08918,N,12238.16659,W,000.01,000.0,170713,016.8,E,A*26
$PGRME,3.0,M,3.0,M,4.3,M*29
$HCHDG,57.0,0.0,E,,*1B
$HCHDG,56.9,0.0,E,,*13
$GPRMC,171403.0,A,4817.08918,N,12238.16659,W,000.02,000.0,170713,016.8,E,A*2C
$PGRME,3.0,M,3.0,M,4.3,M*29
$YXXDR,A,5.5,D,PTCH,A,2.7,D,ROLL*58
$PTAK,FFD1,2.7*50
$HCHDG,56.9,0.0,E,,*13
$HCHDG,56.9,0.0,E,,*13
$GPRMC,171403.2,A,4817.08918,N,12238.16659,W,000.02,000.0,170713,016.8,E,A*2E
$PGRME,3.0,M,3.0,M,4.3,M*29
$HCHDG,56.9,0.0,E,,*13
$HCHDG,56.9,0.0,E,,*13
$GPRMC,171403.4,A,4817.08918,N,12238.16659,W,000.01,000.0,170713,016.8,E,A*2B
$PGRME,3.0,M,3.0,M,4.3,M*29
$HCHDG,56.9,0.0,E,,*13
$YXXDR,A,5.5,D,PTCH,A,2.7,D,ROLL*58
$GPRMC,171403.6,A,4817.08918,N,12238.16659,W,000.01,000.0,170713,016.8,E,A*29
$GPRMB,A,0.23,L,,OH,4817.5980,N,12238.5140,W,0.6,336,0.01,V*09
$PGRME,3.0,M,3.0,M,4.3,M*29
$HCHDG,56.9,0.0,E,,*13
$HCHDG,56.9,0.0,E,,*13
$HCHDG,56.8,0.0,E,,*12
$GPRMC,171403.8,A,4817.08918,N,12238.16659,W,000.02,000.0,170713,016.8,E,A*24
$PGRME,3.0,M,3.0,M,4.3,M*29
$HCHDG,56.8,0.0,E,,*12
$HCHDG,56.8,0.0,E,,*12
$GPRMC,171404.0,A,4817.08918,N,12238.16659,W,000.01,000.0,170713,016.8,E,A*28
$PTAK,FFP1,HEEL,@*07
$PGRME,3.0,M,3.0,M,4.3,M*29
$YXXDR,A,5.5,D,PTCH,A,2.7,D,ROLL*58
$PTAK,FFD1,2.7*50
$HCHDG,56.9,0.0,E,,*13
$HCHDG,56.9,0.0,E,,*13
$GPRMC,171404.2,A,4817.08918,N,12238.16659,W,000.01,000.0,170713,016.8,E,A*2A
$PGRME,3.0,M,3.0,M,4.3,M*29
$HCHDG,56.9,0.0,E,,*13
$HCHDG,56.9,0.0,E,,*13
$GPRMC,171404.4,A,4817.08918,N,12238.16659,W,000.01,000.0,170713,016.8,E,A*2C
$PGRME,3.0,M,3.0,M,4.3,M*29
$HCHDG,56.9,0.0,E,,*13
$YXXDR,A,5.4,D,PTCH,A,2.8,D,ROLL*56
$GPRMC,171404.6,A,4817.08918,N,12238.16659,W,000.01,000.0,170713,016.8,E,A*2E
$GPRMB,A,0.23,L,,OH,4817.5980,N,12238.5140,W,0.6,336,0.01,V*09
$PGRME,3.0,M,3.0,M,4.3,M*29
$HCHDG,57.1,0.0,E,,*1A
$HCHDG,57.1,0.0,E,,*1A
$HCHDG,57.0,0.0,E,,*1B
$GPRMC,171404.8,A,4817.08918,N,12238.16659,W,000.01,000.0,170713,016.8,E,A*20
$PGRME,3.0,M,3.0,M,4.3,M*29
$HCHDG,57.1,0.0,E,,*1A
$HCHDG,57.1,0.0,E,,*1A
$GPRMC,171405.0,A,4817.08918,N,12238.16659,W,000.01,000.0,170713,016.8,E,A*29
$PGRME,3.0,M,3.0,M,4.3,M*29
$YXXDR,A,5.5,D,PTCH,A,2.9,D,ROLL*56
$HCHDG,57.3,0.0,E,,*18
$HCHDG,57.1,0.0,E,,*1A
$GPRMC,171405.2,A,4817.08918,N,12238.16659,W,000.01,000.0,170713,016.8,E,A*2B
$PGRME,3.0,M,3.0,M,4.3,M*29
$HCHDG,57.2,0.0,E,,*19
$HCHDG,57.3,0.0,E,,*18
$GPRMC,171405.4,A,4817.08919,N,12238.16659,W,000.00,000.0,170713,016.8,E,A*2D
$PGRME,3.0,M,3.0,M,4.3,M*29
$HCHDG,57.2,0.0,E,,*19
$YXXDR,A,5.4,D,PTCH,A,3.1,D,ROLL*5E
$PTAK,FFD1,3.1*57
$GPRMC,171405.6,A,4817.08919,N,12238.16660,W,000.00,000.0,170713,016.8,E,A*25
$GPRMB,A,0.23,L,,OH,4817.5980,N,12238.5140,W,0.6,336,0.00,V*08
$PGRME,3.0,M,3.0,M,4.3,M*29
$HCHDG,57.3,0.0,E,,*18
$HCHDG,57.1,0.0,E,,*1A
$HCHDG,57.2,0.0,E,,*19
$GPRMC,171405.8,A,4817.08919,N,12238.16660,W,000.02,000.0,170713,016.8,E,A*29
$PGRME,3.0,M,3.0,M,4.3,M*29
$HCHDG,57.3,0.0,E,,*18
$HCHDG,57.3,0.0,E,,*18
$GPRMC,171406.0,A,4817.08919,N,12238.16660,W,000.01,000.0,170713,016.8,E,A*21
$PGRME,3.0,M,3.0,M,4.3,M*29
$YXXDR,A,5.5,D,PTCH,A,2.9,D,ROLL*56
$HCHDG,57.3,0.0,E,,*18
$HCHDG,57.4,0.0,E,,*1F
$GPRMC,171406.2,A,4817.08919,N,12238.16660,W,000.01,000.0,170713,016.8,E,A*23
$PGRME,3.0,M,3.0,M,4.3,M*29
$HCHDG,57.4,0.0,E,,*1F
$HCHDG,57.4,0.0,E,,*1F
$GPRMC,171406.4,A,4817.08918,N,12238.16660,W,000.00,000.0,170713,016.8,E,A*25
$PGRME,3.0,M,3.0,M,4.3,M*29
$HCHDG,57.3,0.0,E,,*18
$YXXDR,A,5.5,D,PTCH,A,2.8,D,ROLL*57
$GPRMC,171406.6,A,4817.08918,N,12238.16660,W,000.01,000.0,170713,016.8,E,A*26
$PGRME,3.0,M,3.0,M,4.3,M*29
$HCHDG,57.3,0.0,E,,*18
$HCHDG,57.3,0.0,E,,*18
$HCHDG,57.4,0.0,E,,*1F
$GPRMC,171406.8,A,4817.08918,N,12238.16659,W,000.01,000.0,170713,016.8,E,A*22
$GPRMB,A,0.23,L,,OH,4817.5980,N,12238.5140,W,0.6,336,0.01,V*09
$PGRME,3.0,M,3.0,M,4.3,M*29
$HCHDG,57.4,0.0,E,,*1F
$HCHDG,57.4,0.0,E,,*1F
$GPRMC,171407.0,A,4817.08918,N,12238.16659,W,000.01,000.0,170713,016.8,E,A*2B
$PGRME,3.0,M,3.0,M,4.3,M*29
$YXXDR,A,5.4,D,PTCH,A,2.8,D,ROLL*56
$PTAK,FFD1,2.8*5F
$HCHDG,57.4,0.0,E,,*1F
$HCHDG,57.4,0.0,E,,*1F
$GPRMC,171407.2,A,4817.08918,N,12238.16659,W,000.00,000.0,170713,016.8,E,A*28
$PGRME,3.0,M,3.0,M,4.3,M*29
$HCHDG,57.5,0.0,E,,*1E
$HCHDG,57.4,0.0,E,,*1F
$GPRMC,171407.4,A,4817.08918,N,12238.16659,W,000.00,000.0,170713,016.8,E,A*2E
$PGRME,3.0,M,3.0,M,4.3,M*29
$HCHDG,57.4,0.0,E,,*1F
$YXXDR,A,5.6,D,PTCH,A,2.7,D,ROLL*5B
$GPRMC,171407.6,A,4817.08918,N,12238.16659,W,000.01,000.0,170713,016.8,E,A*2D
$PGRME,3.0,M,3.0,M,4.3,M*29
$HCHDG,57.4,0.0,E,,*1F
$HCHDG,57.4,0.0,E,,*1F
$HCHDG,57.4,0.0,E,,*1F
$GPRMC,171407.8,A,4817.08918,N,12238.16659,W,000.01,000.0,170713,016.8,E,A*23
$GPRMB,A,0.23,L,,OH,4817.5980,N,12238.5140,W,0.6,336,0.01,V*09
$PGRME,3.0,M,3.0,M,4.3,M*29
$HCHDG,57.4,0.0,E,,*1F
$HCHDG,57.5,0.0,E,,*1E
$PTAK,FFP1,HEEL,@*07
$GPRMC,171408.0,A,4817.08918,N,12238.16659,W,000.01,000.0,170713,016.8,E,A*24
$PGRME,3.0,M,3.0,M,4.3,M*29
$YXXDR,A,5.6,D,PTCH,A,2.7,D,ROLL*5B
$PTAK,FFD1,2.7*50
$HCHDG,57.5,0.0,E,,*1E
$HCHDG,57.4,0.0,E,,*1F
$GPRMC,171408.2,A,4817.08918,N,12238.16659,W,000.00,000.0,170713,016.8,E,A*27
$PGRME,3.0,M,3.0,M,4.3,M*29
$HCHDG,57.4,0.0,E,,*1F
$HCHDG,57.4,0.0,E,,*1F
$GPRMC,171408.4,A,4817.08918,N,12238.16659,W,000.01,000.0,170713,016.8,E,A*20
$PGRME,3.0,M,3.0,M,4.3,M*29
$HCHDG,57.3,0.0,E,,*18
$YXXDR,A,5.6,D,PTCH,A,2.7,D,ROLL*5B
$GPRMC,171408.6,A,4817.08918,N,12238.16659,W,000.01,000.0,170713,016.8,E,A*22
$PGRME,3.0,M,3.0,M,4.3,M*29
$HCHDG,57.3,0.0,E,,*18
$HCHDG,57.3,0.0,E,,*18
$HCHDG,57.3,0.0,E,,*18
$GPRMC,171408.8,A,4817.08918,N,12238.16660,W,000.01,000.0,170713,016.8,E,A*26
$PGRME,3.0,M,3.0,M,4.3,M*29
$HCHDG,57.2,0.0,E,,*19
$HCHDG,57.2,0.0,E,,*19
$GPRMC,171409.0,A,4817.08918,N,12238.16660,W,000.02,000.0,170713,016.8,E,A*2C
$GPRMB,A,0.23,L,,OH,4817.5980,N,12238.5140,W,0.6,336,0.02,V*0A
$PGRME,3.0,M,3.0,M,4.3,M*29
$YXXDR,A,5.8,D,PTCH,A,2.9,D,ROLL*5B
$PTAK,FFD1,2.9*5E
$HCHDG,57.1,0.0,E,,*1A
$HCHDG,57.1,0.0,E,,*1A
$GPRMC,171409.2,A,4817.08919,N,12238.16660,W,000.02,000.0,170713,016.8,E,A*2F
$PGRME,3.0,M,3.0,M,4.3,M*29
$HCHDG,57.1,0.0,E,,*1A
$HCHDG,57.1,0.0,E,,*1A
$GPRMC,171409.4,A,4817.08920,N,12238.16660,W,000.01,000.0,170713,016.8,E,D*25
$PGRME,2.4,M,2.4,M,3.4,M*29
$HCHDG,57.1,0.0,E,,*1A
$YXXDR,A,5.6,D,PTCH,A,2.9,D,ROLL*55
$GPRMC,171409.6,A,4817.08919,N,12238.16655,W,000.01,000.0,170713,016.8,E,D*2B
$PGRME,2.4,M,2.4,M,3.4,M*29
$HCHDG,57.0,0.0,E,,*1B
$HCHDG,57.0,0.0,E,,*1B
$HCHDG,57.0,0.0,E,,*1B
$GPRMC,171409.8,A,4817.08917,N,12238.16648,W,000.01,000.0,170713,016.8,E,D*27
$PGRME,2.4,M,2.4,M,3.4,M*29
$HCHDG,57.0,0.0,E,,*1B
$HCHDG,57.0,0.0,E,,*1B
$GPRMC,171410.0,A,4817.08922,N,12238.16647,W,000.02,000.0,170713,016.8,E,D*2D
$PGRME,2.4,M,2.4,M,3.4,M*29
$YXXDR,A,5.5,D,PTCH,A,2.8,D,ROLL*57
$HCHDG,57.0,0.0,E,,*1B
$HCHDG,56.9,0.0,E,,*13
$GPRMC,171410.2,A,4817.08921,N,12238.16650,W,000.02,000.0,170713,016.8,E,D*2A
$GPRMB,A,0.23,L,,OH,4817.5980,N,12238.5140,W,0.6,336,0.02,V*0A
$PGRME,2.4,M,2.4,M,3.4,M*29
$HCHDG,56.9,0.0,E,,*13
$HCHDG,56.9,0.0,E,,*13
$GPRMC,171410.4,A,4817.08921,N,12238.16646,W,000.02,000.0,170713,016.8,E,D*2B
$PGRME,2.4,M,2.4,M,3.4,M*29
$HCHDG,56.9,0.0,E,,*13
$YXXDR,A,5.6,D,PTCH,A,2.7,D,ROLL*5B
$PTAK,FFD1,2.7*50
$GPRMC,171410.6,A,4817.08919,N,12238.16647,W,000.02,000.0,170713,016.8,E,D*23
$PGRME,2.4,M,2.4,M,3.4,M*29
$HCHDG,56.8,0.0,E,,*12
$HCHDG,56.8,0.0,E,,*12
$HCHDG,56.8,0.0,E,,*12
$GPRMC,171410.8,A,4817.08917,N,12238.16651,W,000.02,000.0,170713,016.8,E,D*24
$PGRME,2.4,M,2.4,M,3.4,M*29
$HCHDG,56.8,0.0,E,,*12
$HCHDG,56.8,0.0,E,,*12
$GPRMC,171411.0,A,4817.08919,N,12238.16652,W,000.02,000.0,170713,016.8,E,D*20
$PGRME,2.4,M,2.4,M,3.4,M*29
$YXXDR,A,5.6,D,PTCH,A,2.7,D,ROLL*5B
$HCHDG,56.8,0.0,E,,*12
$HCHDG,56.8,0.0,E,,*12
$GPRMC,171411.2,A,4817.08921,N,12238.16650,W,000.02,000.0,170713,016.8,E,D*2B
$GPRMB,A,0.23,L,,OH,4817.5980,N,12238.5140,W,0.6,336,0.02,V*0A
$PGRME,2.4,M,2.4,M,3.4,M*29
$HCHDG,56.8,0.0,E,,*12
$HCHDG,56.7,0.0,E,,*1D
$GPRMC,171411.4,A,4817.08923,N,12238.16653,W,000.02,000.0,170713,016.8,E,D*2C
$PGRME,2.4,M,2.4,M,3.4,M*29
$HCHDG,56.7,0.0,E,,*1D
$YXXDR,A,5.5,D,PTCH,A,2.7,D,ROLL*58
$PTAK,FFD1,2.7*50
$GPRMC,171411.6,A,4817.08928,N,12238.16657,W,000.01,000.0,170713,016.8,E,D*22
$PGRME,2.4,M,2.4,M,3.4,M*29
$HCHDG,56.7,0.0,E,,*1D
$HCHDG,56.8,0.0,E,,*12
$HCHDG,56.9,0.0,E,,*13
$GPRMC,171411.8,A,4817.08932,N,12238.16658,W,000.01,000.0,170713,016.8,E,D*28
$PGRME,2.4,M,2.4,M,3.4,M*29
$HCHDG,56.9,0.0,E,,*13
$HCHDG,56.9,0.0,E,,*13
$GPRMC,171412.0,A,4817.08936,N,12238.16664,W,000.01,000.0,170713,016.8,E,D*28
$PTAK,FFP1,HEEL,@*07
$PGRME,2.4,M,2.4,M,3.4,M*29
$YXXDR,A,5.5,D,PTCH,A,2.7,D,ROLL*58
$HCHDG,56.9,0.0,E,,*13
$HCHDG,56.9,0.0,E,,*13
$GPRMC,171412.2,A,4817.08941,N,12238.16667,W,000.01,000.0,170713,016.8,E,D*29
$PGRME,2.4,M,2.4,M,3.4,M*29
$HCHDG,56.9,0.0,E,,*13
$HCHDG,57.0,0.0,E,,*1B
$GPRMC,171412.4,A,4817.08945,N,12238.16669,W,000.01,000.0,170713,016.8,E,D*25
$GPRMB,A,0.23,L,,OH,4817.5980,N,12238.5140,W,0.6,336,0.01,V*09
$PGRME,2.4,M,2.4,M,3.4,M*29
$HCHDG,57.0,0.0,E,,*1B
$YXXDR,A,5.5,D,PTCH,A,2.7,D,ROLL*58
$PTAK,FFD1,2.7*50
$GPRMC,171412.6,A,4817.08951,N,12238.16672,W,000.01,000.0,170713,016.8,E,D*28
$PGRME,2.4,M,2.4,M,3.4,M*29
$HCHDG,56.9,0.0,E,,*13
$HCHDG,56.9,0.0,E,,*13
$HCHDG,56.9,0.0,E,,*13
$GPRMC,171412.8,A,4817.08957,N,12238.16673,W,000.01,000.0,170713,016.8,E,D*21
$PGRME,2.4,M,2.4,M,3.4,M*29
$HCHDG,56.9,0.0,E,,*13
$HCHDG,56.9,0.0,E,,*13
$GPRMC,171413.0,A,4817.08963,N,12238.16669,W,000.02,000.0,170713,016.8,E,D*27
$PGRME,2.4,M,2.4,M,3.4,M*29
$YXXDR,A,5.5,D,PTCH,A,2.7,D,ROLL*58
$HCHDG,56.9,0.0,E,,*13
$HCHDG,56.9,0.0,E,,*13
$GPRMC,171413.2,A,4817.08969,N,12238.16666,W,000.02,000.0,170713,016.8,E,D*20
$PGRME,2.4,M,2.4,M,3.4,M*29
$HCHDG,56.9,0.0,E,,*13
$HCHDG,56.9,0.0,E,,*13
$GPRMC,171413.4,A,4817.08973,N,12238.16664,W,000.02,000.0,170713,016.8,E,D*2F
$PGRME,2.4,M,2.4,M,3.4,M*29
$HCHDG,57.0,0.0,E,,*1B
$YXXDR,A,5.5,D,PTCH,A,2.5,D,ROLL*5A
$GPRMC,171413.6,A,4817.08976,N,12238.16659,W,000.03,000.0,170713,016.8,E,D*27
$GPRMB,A,0.23,L,,OH,4817.5980,N,12238.5140,W,0.6,336,0.03,V*0B
$PGRME,2.4,M,2.4,M,3.4,M*29
$HCHDG,57.0,0.0,E,,*1B
$HCHDG,57.0,0.0,E,,*1B
$HCHDG,57.0,0.0,E,,*1B
$GPRMC,171413.8,A,4817.08982,N,12238.16657,W,000.03,000.0,170713,016.8,E,D*2C
$PGRME,2.4,M,2.4,M,3.4,M*29
$HCHDG,57.1,0.0,E,,*1A
$HCHDG,57.1,0.0,E,,*1A
$GPRMC,171414.0,A,4817.08987,N,12238.16663,W,000.03,000.0,170713,016.8,E,D*21
$PGRME,2.4,M,2.4,M,3.4,M*29
$YXXDR,A,5.4,D,PTCH,A,2.4,D,ROLL*5A
$PTAK,FFD1,2.4*53
$HCHDG,57.1,0.0,E,,*1A
$HCHDG,57.1,0.0,E,,*1A
$GPRMC,171414.2,A,4817.08988,N,12238.16671,W,000.03,000.0,170713,016.8,E,D*2F
$PGRME,2.4,M,2.4,M,3.4,M*29
$HCHDG,57.1,0.0,E,,*1A
$HCHDG,57.2,0.0,E,,*19
$GPRMC,171414.4,A,4817.08990,N,12238.16676,W,000.03,000.0,170713,016.8,E,D*27
$PGRME,2.4,M,2.4,M,3.4,M*29
$HCHDG,57.1,0.0,E,,*1A
$YXXDR,A,5.4,D,PTCH,A,2.4,D,ROLL*5A
$GPRMC,171414.6,A,4817.08992,N,12238.16681,W,000.03,000.0,170713,016.8,E,D*2F
$GPRMB,A,0.23,L,,OH,4817.5980,N,12238.5140,W,0.6,336,0.03,V*0B
$PGRME,2.4,M,2.4,M,3.4,M*29
$HCHDG,57.2,0.0,E,,*19
$HCHDG,57.2,0.0,E,,*19
$HCHDG,57.2,0.0,E,,*19
$GPRMC,171414.8,A,4817.08997,N,12238.16683,W,000.03,000.0,170713,016.8,E,D*26
$PGRME,2.4,M,2.4,M,3.4,M*29
$HCHDG,57.2,0.0,E,,*19
$HCHDG,57.2,0.0,E,,*19
$GPRMC,171415.0,A,4817.09000,N,12238.16689,W,000.03,000.0,170713,016.8,E,D*23
$PGRME,2.4,M,2.4,M,3.4,M*29
$YXXDR,A,5.5,D,PTCH,A,2.5,D,ROLL*5A
$HCHDG,57.2,0.0,E,,*19
$HCHDG,57.2,0.0,E,,*19
$GPRMC,171415.2,A,4817.09005,N,12238.16690,W,000.03,000.0,170713,016.8,E,D*2C
$PGRME,2.4,M,2.4,M,3.4,M*29
$HCHDG,57.2,0.0,E,,*19
$HCHDG,57.2,0.0,E,,*19
$GPRMC,171415.4,A,4817.09011,N,12238.16694,W,000.04,000.0,170713,016.8,E,D*2C
$PGRME,2.4,M,2.4,M,3.4,M*29
$HCHDG,57.2,0.0,E,,*19
$YXXDR,A,5.5,D,PTCH,A,2.7,D,ROLL*58
$PTAK,FFD1,2.7*50
$GPRMC,171415.6,A,4817.09014,N,12238.16697,W,000.04,000.0,170713,016.8,E,D*28
$GPRMB,A,0.23,L,,OH,4817.5980,N,12238.5140,W,0.6,336,0.04,V*0C
$PGRME,2.4,M,2.4,M,3.4,M*29
$HCHDG,57.2,0.0,E,,*19
$HCHDG,57.3,0.0,E,,*18
$HCHDG,57.3,0.0,E,,*18
$GPRMC,171415.8,A,4817.09016,N,12238.16696,W,000.04,000.0,170713,016.8,E,D*25
$PGRME,2.4,M,2.4,M,3.4,M*29
$HCHDG,57.2,0.0,E,,*19
$HCHDG,57.2,0.0,E,,*19
$GPRMC,171416.0,A,4817.09019,N,12238.16697,W,000.04,000.0,170713,016.8,E,D*20
$PTAK,FFP1,HEEL,@*07
$PGRME,2.4,M,2.4,M,3.4,M*29
$YXXDR,A,5.5,D,PTCH,A,2.8,D,ROLL*57
$HCHDG,57.2,0.0,E,,*19
$HCHDG,57.3,0.0,E,,*18
$GPRMC,171416.2,A,4817.09018,N,12238.16703,W,000.04,000.0,170713,016.8,E,D*2F
$PGRME,2.4,M,2.4,M,3.4,M*29
$HCHDG,57.3,0.0,E,,*18
$HCHDG,57.3,0.0,E,,*18
$GPRMC,171416.4,A,4817.09014,N,12238.16703,W,000.03,000.0,170713,016.8,E,D*22
$PGRME,2.4,M,2.4,M,3.4,M*29
$HCHDG,57.3,0.0,E,,*18
$YXXDR,A,5.5,D,PTCH,A,2.9,D,ROLL*56
$PTAK,FFD1,2.9*5E
$GPRMC,171416.6,A,4817.09013,N,12238.16700,W,000.03,000.0,170713,016.8,E,D*24
$PGRME,2.4,M,2.4,M,3.4,M*29
$HCHDG,57.2,0.0,E,,*19
$HCHDG,57.2,0.0,E,,*19
$HCHDG,57.2,0.0,E,,*19
$GPRMC,171416.8,A,4817.09017,N,12238.16689,W,000.03,000.0,170713,016.8,E,D*2E
$GPRMB,A,0.23,L,,OH,4817.5980,N,12238.5140,W,0.6,336,0.03,V*0B
$PGRME,2.4,M,2.4,M,3.4,M*29
$HCHDG,57.3,0.0,E,,*18
$HCHDG,57.3,0.0,E,,*18
$GPRMC,171417.0,A,4817.09018,N,12238.16684,W,000.03,000.0,170713,016.8,E,D*25
$PGRME,2.4,M,2.4,M,3.4,M*29
$YXXDR,A,5.4,D,PTCH,A,2.8,D,ROLL*56
$HCHDG,57.3,0.0,E,,*18
$HCHDG,57.3,0.0,E,,*18
$GPRMC,171417.2,A,4817.09021,N,12238.16690,W,000.03,000.0,170713,016.8,E,D*28
$PGRME,2.4,M,2.4,M,3.4,M*29
$HCHDG,57.3,0.0,E,,*18
$HCHDG,57.3,0.0,E,,*18
$GPRMC,171417.4,A,4817.09023,N,12238.16690,W,000.02,000.0,170713,016.8,E,D*2D
$PGRME,2.4,M,2.4,M,3.4,M*29
$HCHDG,57.3,0.0,E,,*18
$YXXDR,A,5.4,D,PTCH,A,2.8,D,ROLL*56
$PTAK,FFD1,2.8*5F
$GPRMC,171417.6,A,4817.09025,N,12238.16688,W,000.02,000.0,170713,016.8,E,D*20
$PGRME,2.4,M,2.4,M,3.4,M*29
$HCHDG,57.3,0.0,E,,*18
$HCHDG,57.3,0.0,E,,*18
$HCHDG,57.3,0.0,E,,*18
$GPRMC,171417.8,A,4817.09027,N,12238.16688,W,000.02,000.0,170713,016.8,E,D*2C
$PGRME,2.4,M,2.4,M,3.4,M*29
$HCHDG,57.3,0.0,E,,*18
$HCHDG,57.3,0.0,E,,*18
$GPRMC,171418.0,A,4817.09029,N,12238.16683,W,000.02,000.0,170713,016.8,E,D*2E
$GPRMB,A,0.23,L,,OH,4817.5980,N,12238.5140,W,0.6,336,0.02,V*0A
$PGRME,2.4,M,2.4,M,3.4,M*29
$YXXDR,A,5.7,D,PTCH,A,2.7,D,ROLL*5A
$HCHDG,57.3,0.0,E,,*18
$HCHDG,57.2,0.0,E,,*19
$GPRMC,171418.2,A,4817.09031,N,12238.16679,W,000.02,000.0,170713,016.8,E,D*20
$PGRME,2.4,M,2.4,M,3.4,M*29
$HCHDG,57.2,0.0,E,,*19
$HCHDG,57.2,0.0,E,,*19
$GPRMC,171418.4,A,4817.09033,N,12238.16674,W,000.02,000.0,170713,016.8,E,D*29
$PGRME,2.4,M,2.4,M,3.4,M*29
$HCHDG,57.2,0.0,E,,*19
$YXXDR,A,5.6,D,PTCH,A,3.0,D,ROLL*5D
$GPRMC,171418.6,A,4817.09036,N,12238.16668,W,000.02,000.0,170713,016.8,E,D*23
$PGRME,2.4,M,2.4,M,3.4,M*29
$HCHDG,57.4,0.0,E,,*1F
$HCHDG,57.3,0.0,E,,*18
$HCHDG,57.3,0.0,E,,*18
$GPRMC,171418.8,A,4817.09039,N,12238.16668,W,000.02,000.0,170713,016.8,E,D*22
$PGRME,2.4,M,2.4,M,3.4,M*29
$HCHDG,57.3,0.0,E,,*18
$HCHDG,57.3,0.0,E,,*18
$GPRMC,171419.0,A,4817.09042,N,12238.16665,W,000.02,000.0,170713,016.8,E,D*2A
$PGRME,2.4,M,2.4,M,3.4,M*29
$YXXDR,A,5.6,D,PTCH,A,3.0,D,ROLL*5D
$PTAK,FFD1,3.0*56
$HCHDG,57.3,0.0,E,,*18
$HCHDG,57.3,0.0,E,,*18
$GPRMC,171419.2,A,4817.09046,N,12238.16665,W,000.03,000.0,170713,016.8,E,D*2D
$GPRMB,A,0.23,L,,OH,4817.5980,N,12238.5140,W,0.6,336,0.03,V*0B
$PGRME,2.4,M,2.4,M,3.4,M*29
$HCHDG,57.4,0.0,E,,*1F
$HCHDG,57.4,0.0,E,,*1F
$GPRMC,171419.4,A,4817.09053,N,12238.16668,W,000.03,000.0,170713,016.8,E,D*22
$PGRME,2.4,M,2.4,M,3.4,M*29
$HCHDG,57.4,0.0,E,,*1F
$YXXDR,A,5.7,D,PTCH,A,2.7,D,ROLL*5A
$GPRMC,171419.6,A,4817.09056,N,12238.16673,W,000.02,000.0,170713,016.8,E,D*2E
$PGRME,2.4,M,2.4,M,3.4,M*29
$HCHDG,57.2,0.0,E,,*19
$HCHDG,57.2,0.0,E,,*19
$HCHDG,57.3,0.0,E,,*18
$GPRMC,171419.8,A,4817.09060,N,12238.16675,W,000.02,000.0,170713,016.8,E,D*23
$PGRME,2.4,M,2.4,M,3.4,M*29
$HCHDG,57.3,0.0,E,,*18
$HCHDG,57.3,0.0,E,,*18
$GPRMC,171420.0,A,4817.09058,N,12238.16671,W,000.02,000.0,170713,016.8,E,D*2E
$PTAK,FFP1,HEEL,@*07
$PGRME,2.4,M,2.4,M,3.4,M*29
$YXXDR,A,5.7,D,PTCH,A,2.6,D,ROLL*5B
$PTAK,FFD1,2.6*51
$HCHDG,57.3,0.0,E,,*18
$HCHDG,57.3,0.0,E,,*18
$GPRMC,171420.2,A,4817.09056,N,12238.16670,W,000.01,000.0,170713,016.8,E,D*20
$PGRME,2.4,M,2.4,M,3.4,M*29
$HCHDG,57.3,0.0,E,,*18
$HCHDG,57.3,0.0,E,,*18
$GPRMC,171420.4,A,4817.09053,N,12238.16665,W,000.01,000.0,170713,016.8,E,D*27
$GPRMB,A,0.23,L,,OH,4817.5980,N,12238.5140,W,0.6,336,0.01,V*09
$PGRME,2.4,M,2.4,M,3.4,M*29
$HCHDG,57.3,0.0,E,,*18
$YXXDR,A,5.6,D,PTCH,A,2.6,D,ROLL*5A
$GPRMC,171420.6,A,4817.09050,N,12238.16660,W,000.01,000.0,170713,016.8,E,D*23
$PGRME,2.4,M,2.4,M,3.4,M*29
$HCHDG,57.3,0.0,E,,*18
$HCHDG,57.2,0.0,E,,*19
$HCHDG,57.1,0.0,E,,*1A
$GPRMC,171420.8,A,4817.09046,N,12238.16657,W,000.01,000.0,170713,016.8,E,D*2E
$PGRME,2.4,M,2.4,M,3.4,M*29
$HCHDG,57.0,0.0,E,,*1B
$HCHDG,57.0,0.0,E,,*1B
$GPRMC,171421.0,A,4817.09044,N,12238.16652,W,000.01,000.0,170713,016.8,E,D*20
$PGRME,2.4,M,2.4,M,3.4,M*29
$YXXDR,A,5.6,D,PTCH,A,2.6,D,ROLL*5A
$HCHDG,57.0,0.0,E,,*1B
$HCHDG,57.0,0.0,E,,*1B
$GPRMC,171421.2,A,4817.09043,N,12238.16651,W,000.01,000.0,170713,016.8,E,D*26
$PGRME,2.4,M,2.4,M,3.4,M*29
$HCHDG,57.0,0.0,E,,*1B
$HCHDG,57.0,0.0,E,,*1B
$GPRMC,171421.4,A,4817.09043,N,12238.16640,W,000.01,000.0,170713,016.8,E,D*20
$GPRMB,A,0.23,L,,OH,4817.5980,N,12238.5140,W,0.6,336,0.01,V*09
$PGRME,2.4,M,2.4,M,3.4,M*29
$HCHDG,57.0,0.0,E,,*1B
$YXXDR,A,5.7,D,PTCH,A,2.6,D,ROLL*5B
$PTAK,FFD1,2.6*51
$GPRMC,171421.6,A,4817.09040,N,12238.16639,W,000.01,000.0,170713,016.8,E,D*2F
$PGRME,2.4,M,2.4,M,3.4,M*29
$HCHDG,57.0,0.0,E,,*1B
$HCHDG,57.0,0.0,E,,*1B
$HCHDG,57.0,0.0,E,,*1B
$GPRMC,171421.8,A,4817.09040,N,12238.16638,W,000.01,000.0,170713,016.8,E,D*20
$PGRME,2.4,M,2.4,M,3.4,M*29
$HCHDG,56.9,0.0,E,,*13
$HCHDG,56.9,0.0,E,,*13
$GPRMC,171422.0,A,4817.09043,N,12238.16634,W,000.01,000.0,170713,016.8,E,D*24
$PGRME,2.4,M,2.4,M,3.4,M*29
$YXXDR,A,5.6,D,PTCH,A,2.6,D,ROLL*5A
$HCHDG,56.9,0.0,E,,*13
$HCHDG,56.9,0.0,E,,*13
$GPRMC,171422.2,A,4817.09042,N,12238.16632,W,000.01,000.0,170713,016.8,E,D*21
$PGRME,2.4,M,2.4,M,3.4,M*29
$HCHDG,56.9,0.0,E,,*13
$HCHDG,57.0,0.0,E,,*1B
$GPRMC,171422.4,A,4817.09040,N,12238.16634,W,000.01,000.0,170713,016.8,E,D*23
$PGRME,2.4,M,2.4,M,3.4,M*29
$HCHDG,57.0,0.0,E,,*1B
$YXXDR,A,5.6,D,PTCH,A,2.6,D,ROLL*5A
$GPRMC,171422.6,A,4817.09037,N,12238.16630,W,000.01,000.0,170713,016.8,E,D*25
$GPRMB,A,0.23,L,,OH,4817.5980,N,12238.5140,W,0.6,336,0.01,V*09
$PGRME,2.4,M,2.4,M,3.4,M*29
$HCHDG,57.0,0.0,E,,*1B
$HCHDG,56.9,0.0,E,,*13
$HCHDG,56.8,0.0,E,,*12
$GPRMC,171422.8,A,4817.09033,N,12238.16630,W,000.01,000.0,170713,016.8,E,D*2F
$PGRME,2.4,M,2.4,M,3.4,M*29
$HCHDG,56.8,0.0,E,,*12
$HCHDG,56.8,0.0,E,,*12
$GPRMC,171423.0,A,4817.09026,N,12238.16626,W,000.01,000.0,170713,016.8,E,D*25
$PGRME,2.4,M,2.4,M,3.4,M*29
$YXXDR,A,5.7,D,PTCH,A,2.5,D,ROLL*58
$PTAK,FFD1,2.5*52
$HCHDG,56.8,0.0,E,,*12
$HCHDG,56.8,0.0,E,,*12
$GPRMC,171423.2,A,4817.09018,N,12238.16627,W,000.01,000.0,170713,016.8,E,D*2B
$PGRME,2.4,M,2.4,M,3.4,M*29
$HCHDG,56.8,0.0,E,,*12
$HCHDG,56.7,0.0,E,,*1D
$GPRMC,171423.4,A,4817.09012,N,12238.16627,W,000.01,000.0,170713,016.8,E,D*27
$PGRME,2.4,M,2.4,M,3.4,M*29
$HCHDG,56.7,0.0,E,,*1D
$YXXDR,A,5.6,D,PTCH,A,2.6,D,ROLL*5A
$GPRMC,171423.6,A,4817.09006,N,12238.16623,W,000.01,000.0,170713,016.8,E,D*24
$GPRMB,A,0.23,L,,OH,4817.5980,N,12238.5140,W,0.6,336,0.01,V*09
$PGRME,2.4,M,2.4,M,3.4,M*29
$HCHDG,56.7,0.0,E,,*1D
$HCHDG,56.7,0.0,E,,*1D
$HCHDG,56.6,0.0,E,,*1C
$GPRMC,171423.8,A,4817.09002,N,12238.16623,W,000.00,000.0,170713,016.8,E,D*2F
$PGRME,2.4,M,2.4,M,3.4,M*29
$HCHDG,56.7,0.0,E,,*1D
$HCHDG,56.7,0.0,E,,*1D
$GPRMC,171424.0,A,4817.08996,N,12238.16622,W,000.00,000.0,170713,016.8,E,D*24
$PGRME,2.4,M,2.4,M,3.4,M*29
$YXXDR,A,5.6,D,PTCH,A,2.7,D,ROLL*5B
$PTAK,FFP1,HEEL,@*07
$HCHDG,56.6,0.0,E,,*1C
$HCHDG,56.6,0.0,E,,*1C
$GPRMC,171424.2,A,4817.08996,N,12238.16620,W,000.00,000.0,170713,016.8,E,D*24
$PGRME,2.4,M,2.4,M,3.4,M*29
$HCHDG,56.6,0.0,E,,*1C
$HCHDG,56.8,0.0,E,,*12
$GPRMC,171424.4,A,4817.08992,N,12238.16626,W,000.00,000.0,170713,016.8,E,D*20
$PGRME,2.4,M,2.4,M,3.4,M*29
$HCHDG,56.7,0.0,E,,*1D
$YXXDR,A,5.5,D,PTCH,A,2.8,D,ROLL*57
$PTAK,FFD1,2.8*5F
$GPRMC,171424.6,A,4817.08990,N,12238.16631,W,000.00,000.0,170713,016.8,E,D*26
$GPRMB,A,0.23,L,,OH,4817.5980,N,12238.5140,W,0.6,336,0.00,V*08
$PGRME,2.4,M,2.4,M,3.4,M*29
$HCHDG,56.8,0.0,E,,*12
$HCHDG,56.8,0.0,E,,*12
$HCHDG,56.8,0.0,E,,*12
$GPRMC,171424.8,A,4817.08987,N,12238.16628,W,000.00,000.0,170713,016.8,E,D*26
$PGRME,2.4,M,2.4,M,3.4,M*29
$HCHDG,56.7,0.0,E,,*1D
$HCHDG,56.7,0.0,E,,*1D
$GPRMC,171425.0,A,4817.08982,N,12238.16627,W,000.00,000.0,170713,016.8,E,D*25
$PGRME,2.4,M,2.4,M,3.4,M*29
$YXXDR,A,5.5,D,PTCH,A,2.7,D,ROLL*58
$HCHDG,56.7,0.0,E,,*1D
$HCHDG,56.6,0.0,E,,*1C
$GPRMC,171425.2,A,4817.08980,N,12238.16625,W,000.00,000.0,170713,016.8,E,D*27
$PGRME,2.4,M,2.4,M,3.4,M*29
$HCHDG,56.6,0.0,E,,*1C
$HCHDG,56.5,0.0,E,,*1F
$GPRMC,171425.4,A,4817.08975,N,12238.16627,W,000.00,000.0,170713,016.8,E,D*29
$PGRME,2.4,M,2.4,M,3.4,M*29
$HCHDG,56.5,0.0,E,,*1F
$YXXDR,A,5.5,D,PTCH,A,2.3,D,ROLL*5C
$PTAK,FFD1,2.3*54
$GPRMC,171425.6,A,4817.08968,N,12238.16628,W,000.00,000.0,170713,016.8,E,D*28
$GPRMB,A,0.23,L,,OH,4817.5980,N,12238.5140,W,0.6,336,0.00,V*08
$PGRME,2.4,M,2.4,M,3.4,M*29
$HCHDG,56.6,0.0,E,,*1C
$HCHDG,56.6,0.0,E,,*1C
$HCHDG,56.7,0.0,E,,*1D
$GPRMC,171425.8,A,4817.08960,N,12238.16622,W,000.00,000.0,170713,016.8,E,D*24
$PGRME,2.4,M,2.4,M,3.4,M*29
$HCHDG,56.5,0.0,E,,*1F
$HCHDG,56.6,0.0,E,,*1C
$GPRMC,171426.0,A,4817.08954,N,12238.16624,W,000.00,000.0,170713,016.8,E,D*2E
$PGRME,2.4,M,2.4,M,3.4,M*29
$YXXDR,A,5.4,D,PTCH,A,2.3,D,ROLL*5D
$HCHDG,56.6,0.0,E,,*1C
$HCHDG,56.6,0.0,E,,*1C
$GPRMC,171426.2,A,4817.08954,N,12238.16627,W,000.00,000.0,170713,016.8,E,D*2F
$PGRME,2.4,M,2.4,M,3.4,M*29
$HCHDG,56.6,0.0,E,,*1C
$HCHDG,56.6,0.0,E,,*1C
$GPRMC,171426.4,A,4817.08956,N,12238.16627,W,000.00,000.0,170713,016.8,E,D*2B
$PGRME,2.4,M,2.4,M,3.4,M*29
$HCHDG,56.7,0.0,E,,*1D
$YXXDR,A,5.4,D,PTCH,A,2.3,D,ROLL*5D
$GPRMC,171426.6,A,4817.08957,N,12238.16632,W,000.00,000.0,170713,016.8,E,D*2C
$PGRME,2.4,M,2.4,M,3.4,M*29
$HCHDG,56.7,0.0,E,,*1D
$HCHDG,56.7,0.0,E,,*1D
$HCHDG,56.7,0.0,E,,*1D
$GPRMC,171426.8,A,4817.08955,N,12238.16635,W,000.00,000.0,170713,016.8,E,D*27
$PGRME,2.4,M,2.4,M,3.4,M*29
$HCHDG,56.7,0.0,E,,*1D
$HCHDG,56.7,0.0,E,,*1D
$GPRMC,171427.0,A,4817.08953,N,12238.16640,W,000.00,000.0,170713,016.8,E,D*2A
$PGRME,2.4,M,2.4,M,3.4,M*29
$YXXDR,A,5.7,D,PTCH,A,2.5,D,ROLL*58
$HCHDG,56.6,0.0,E,,*1C
$HCHDG,56.6,0.0,E,,*1C
$GPRMC,171427.2,A,4817.08951,N,12238.16643,W,000.00,000.0,170713,016.8,E,D*29
$PGRME,2.4,M,2.4,M,3.4,M*29
$HCHDG,56.6,0.0,E,,*1C
$HCHDG,56.6,0.0,E,,*1C
$GPRMC,171427.4,A,4817.08949,N,12238.16645,W,000.00,000.0,170713,016.8,E,D*20
$PGRME,2.4,M,2.4,M,3.4,M*29
$HCHDG,56.4,0.0,E,,*1E
