$PGRME,2.4,M,2.4,M,3.4,M*29
$HCHDG,63.4,0.0,E,,*18
$YXXDR,A,5.9,D,PTCH,A,2.7,D,ROLL*54
$PTAK,FFD1,2.7*50
$GPRMC,000000.4,A,4817.08877,N,12238.16554,W,000.00,249.4,160713,016.8,E,D*23
$PGRME,2.4,M,2.4,M,3.4,M*29
$HCHDG,63.5,0.0,E,,*19
$HCHDG,63.6,0.0,E,,*1A
$HCHDG,63.5,0.0,E,,*19
$GPRMC,000000.6,A,4817.08877,N,12238.16554,W,000.00,249.4,160713,016.8,E,D*21
$GPRMB,A,0.00,L,OH,OH,4817.5980,N,12238.5140,W,0.6,336,0.00,V*0E
$PGRME,2.4,M,2.4,M,3.4,M*29
$HCHDG,63.8,0.0,E,,*14
$HCHDG,63.8,0.0,E,,*14
$GPRMC,000000.8,A,4817.08877,N,12238.16554,W,000.01,249.4,160713,016.8,E,D*2E
$PGRME,2.4,M,2.4,M,3.4,M*29
$YXXDR,A,5.8,D,PTCH,A,3.6,D,ROLL*55
$HCHDG,63.9,0.0,E,,*15
$HCHDG,63.9,0.0,E,,*15
$GPRMC,000001.0,A,4817.08877,N,12238.16555,W,000.01,249.4,160713,016.8,E,D*26
$PGRME,2.4,M,2.4,M,3.4,M*29
$HCHDG,63.8,0.0,E,,*14
$HCHDG,63.9,0.0,E,,*15
$GPRMC,000001.2,A,4817.08877,N,12238.16555,W,000.01,249.4,160713,016.8,E,D*24
$PGRME,2.4,M,2.4,M,3.4,M*29
$HCHDG,63.9,0.0,E,,*15
$YXXDR,A,5.8,D,PTCH,A,3.6,D,ROLL*55
$PTAK,FFD1,3.6*50
$GPRMC,000001.4,A,4817.08877,N,12238.16555,W,000.01,249.4,160713,016.8,E,D*22
$PGRME,2.4,M,2.4,M,3.4,M*29
$HCHDG,63.8,0.0,E,,*14
$HCHDG,63.8,0.0,E,,*14
$HCHDG,63.6,0.0,E,,*1A
$GPRMC,000001.6,A,4817.08877,N,12238.16554,W,000.01,249.4,160713,016.8,E,D*21
$PGRME,2.4,M,2.4,M,3.4,M*29
$HCHDG,63.6,0.0,E,,*1A
$HCHDG,63.6,0.0,E,,*1A
$GPRMC,000001.8,A,4817.08877,N,12238.16554,W,000.01,249.4,160713,016.8,E,D*2F
$GPRMB,A,0.00,L,OH,OH,4817.5980,N,12238.5140,W,0.6,336,0.00,V*0E
$PGRME,2.4,M,2.4,M,3.4,M*29
$YXXDR,A,5.8,D,PTCH,A,3.6,D,ROLL*55
$HCHDG,63.5,0.0,E,,*19
$HCHDG,63.6,0.0,E,,*1A
$GPRMC,000002.0,A,4817.08877,N,12238.16554,W,000.01,249.4,160713,016.8,E,D*24
$PGRME,2.4,M,2.4,M,3.4,M*29
$HCHDG,63.6,0.0,E,,*1A
$HCHDG,63.2,0.0,E,,*1E
$GPRMC,000002.2,A,4817.08877,N,12238.16554,W,000.00,249.4,160713,016.8,E,D*27
$PGRME,2.4,M,2.4,M,3.4,M*29
$HCHDG,63.5,0.0,E,,*19
$YXXDR,A,6.0,D,PTCH,A,3.8,D,ROLL*50
$PTAK,FFD1,3.8*5E
$GPRMC,000002.4,A,4817.08877,N,12238.16554,W,000.01,249.4,160713,016.8,E,D*20
$PGRME,2.4,M,2.4,M,3.4,M*29
$HCHDG,63.3,0.0,E,,*1F
$HCHDG,63.3,0.0,E,,*1F
$HCHDG,63.3,0.0,E,,*1F
$GPRMC,000002.6,A,4817.08877,N,12238.16554,W,000.01,249.4,160713,016.8,E,D*22
$PGRME,2.4,M,2.4,M,3.4,M*29
$HCHDG,63.0,0.0,E,,*1C
$HCHDG,63.0,0.0,E,,*1C
$GPRMC,000002.8,A,4817.08877,N,12238.16554,W,000.01,249.4,160713,016.8,E,D*2C
$GPRMB,A,0.00,L,OH,OH,4817.5980,N,12238.5140,W,0.6,336,0.00,V*0E
$PGRME,2.4,M,2.4,M,3.4,M*29
$YXXDR,A,6.0,D,PTCH,A,3.1,D,ROLL*59
$HCHDG,63.0,0.0,E,,*1C
$HCHDG,62.7,0.0,E,,*1A
$GPRMC,000003.0,A,4817.08877,N,12238.16554,W,000.00,249.4,160713,016.8,E,D*24
$PGRME,2.4,M,2.4,M,3.4,M*29
$HCHDG,62.6,0.0,E,,*1B
$HCHDG,62.7,0.0,E,,*1A
$GPRMC,000003.2,A,4817.08877,N,12238.16554,W,000.01,249.4,160713,016.8,E,D*27
$PGRME,2.4,M,2.4,M,3.4,M*29
$HCHDG,62.5,0.0,E,,*18
$YXXDR,A,6.0,D,PTCH,A,2.7,D,ROLL*5E
$PTAK,FFD1,2.7*50
$GPRMC,000003.4,A,4817.08877,N,12238.16554,W,000.02,249.4,160713,016.8,E,D*22
$PGRME,2.4,M,2.4,M,3.4,M*29
$HCHDG,62.5,0.0,E,,*18
$HCHDG,62.5,0.0,E,,*18
$HCHDG,62.4,0.0,E,,*19
$GPRMC,000003.6,A,4817.08877,N,12238.16554,W,000.00,249.4,160713,016.8,E,D*22
$PGRME,2.4,M,2.4,M,3.4,M*29
$HCHDG,62.5,0.0,E,,*18
$HCHDG,62.2,0.0,E,,*1F
$GPRMC,000003.8,A,4817.08877,N,12238.16554,W,000.02,249.4,160713,016.8,E,D*2E
$PGRME,2.4,M,2.4,M,3.4,M*29
$YXXDR,A,5.9,D,PTCH,A,2.6,D,ROLL*55
$HCHDG,62.4,0.0,E,,*19
$HCHDG,62.3,0.0,E,,*1E
$GPRMC,000004.0,A,4817.08877,N,12238.16555,W,000.01,249.4,160713,016.8,E,D*23
$GPRMB,A,0.00,L,OH,OH,4817.5980,N,12238.5140,W,0.6,336,0.00,V*0E
$PTAK,FFP1,HEEL,@*07
$PGRME,2.4,M,2.4,M,3.4,M*29
$HCHDG,62.3,0.0,E,,*1E
$HCHDG,62.4,0.0,E,,*19
$GPRMC,000004.2,A,4817.08877,N,12238.16555,W,000.00,249.4,160713,016.8,E,D*20
$PGRME,2.4,M,2.4,M,3.4,M*29
$HCHDG,62.5,0.0,E,,*18
$YXXDR,A,6.0,D,PTCH,A,2.4,D,ROLL*5D
$GPRMC,000004.4,A,4817.08877,N,12238.16555,W,000.01,249.4,160713,016.8,E,D*27
$PGRME,2.4,M,2.4,M,3.4,M*29
$HCHDG,62.4,0.0,E,,*19
$HCHDG,62.4,0.0,E,,*19
$HCHDG,62.5,0.0,E,,*18
$GPRMC,000004.6,A,4817.08877,N,12238.16555,W,000.00,249.4,160713,016.8,E,D*24
$PGRME,2.4,M,2.4,M,3.4,M*29
$HCHDG,62.3,0.0,E,,*1E
$HCHDG,62.6,0.0,E,,*1B
$GPRMC,000004.8,A,4817.08877,N,12238.16555,W,000.00,249.4,160713,016.8,E,D*2A
$PGRME,2.4,M,2.4,M,3.4,M*29
$YXXDR,A,5.7,D,PTCH,A,2.2,D,ROLL*5F
$PTAK,FFD1,2.2*55
$HCHDG,62.6,0.0,E,,*1B
$HCHDG,62.6,0.0,E,,*1B
$GPRMC,000005.0,A,4817.08877,N,12238.16555,W,000.01,249.4,160713,016.8,E,D*22
$GPRMB,A,0.00,L,OH,OH,4817.5980,N,12238.5140,W,0.6,336,0.00,V*0E
$PGRME,2.4,M,2.4,M,3.4,M*29
$HCHDG,62.5,0.0,E,,*18
$HCHDG,62.5,0.0,E,,*18
$GPRMC,000005.2,A,4817.08877,N,12238.16555,W,000.01,249.4,160713,016.8,E,D*20
$PGRME,2.4,M,2.4,M,3.4,M*29
$HCHDG,62.5,0.0,E,,*18
$YXXDR,A,5.8,D,PTCH,A,1.6,D,ROLL*57
$GPRMC,000005.4,A,4817.08877,N,12238.16555,W,000.01,249.4,160713,016.8,E,D*26
$PGRME,2.4,M,2.4,M,3.4,M*29
$HCHDG,62.4,0.0,E,,*19
$HCHDG,62.4,0.0,E,,*19
$HCHDG,62.4,0.0,E,,*19
$GPRMC,000005.6,A,4817.08877,N,12238.16555,W,000.01,249.4,160713,016.8,E,D*24
$PGRME,2.4,M,2.4,M,3.4,M*29
$HCHDG,62.4,0.0,E,,*19
$HCHDG,62.3,0.0,E,,*1E
$GPRMC,000005.8,A,4817.08877,N,12238.16555,W,000.01,249.4,160713,016.8,E,D*2A
$PGRME,2.4,M,2.4,M,3.4,M*29
$YXXDR,A,6.0,D,PTCH,A,1.6,D,ROLL*5C
$PTAK,FFD1,1.6*52
$HCHDG,62.4,0.0,E,,*19
$HCHDG,62.2,0.0,E,,*1F
$GPRMC,000006.0,A,4817.08877,N,12238.16555,W,000.01,249.4,160713,016.8,E,D*21
$GPRMB,A,0.00,L,OH,OH,4817.5980,N,12238.5140,W,0.6,336,0.00,V*0E
$PGRME,2.4,M,2.4,M,3.4,M*29
$HCHDG,62.2,0.0,E,,*1F
$HCHDG,62.4,0.0,E,,*19
$GPRMC,000006.2,A,4817.08877,N,12238.16555,W,000.01,249.4,160713,016.8,E,D*23
$PGRME,2.4,M,2.4,M,3.4,M*29
$HCHDG,62.4,0.0,E,,*19
$YXXDR,A,5.9,D,PTCH,A,1.9,D,ROLL*59
$GPRMC,000006.4,A,4817.08877,N,12238.16556,W,000.02,249.4,160713,016.8,E,D*25
$PGRME,2.4,M,2.4,M,3.4,M*29
$HCHDG,62.4,0.0,E,,*19
$HCHDG,62.4,0.0,E,,*19
$HCHDG,62.6,0.0,E,,*1B
$GPRMC,000006.6,A,4817.08877,N,12238.16556,W,000.02,249.4,160713,016.8,E,D*27
$PGRME,2.4,M,2.4,M,3.4,M*29
$HCHDG,62.5,0.0,E,,*18
$HCHDG,62.6,0.0,E,,*1B
$GPRMC,000006.8,A,4817.08877,N,12238.16556,W,000.01,249.4,160713,016.8,E,D*2A
$PGRME,2.4,M,2.4,M,3.4,M*29
$YXXDR,A,5.8,D,PTCH,A,1.9,D,ROLL*58
$HCHDG,62.6,0.0,E,,*1B
$HCHDG,62.6,0.0,E,,*1B
$GPRMC,000007.0,A,4817.08877,N,12238.16556,W,000.01,249.4,160713,016.8,E,D*23
$PGRME,2.4,M,2.4,M,3.4,M*29
$HCHDG,62.6,0.0,E,,*1B
$HCHDG,62.6,0.0,E,,*1B
$GPRMC,000007.2,A,4817.08877,N,12238.16556,W,000.01,249.4,160713,016.8,E,D*21
$GPRMB,A,0.00,L,OH,OH,4817.5980,N,12238.5140,W,0.6,336,0.00,V*0E
$PGRME,2.4,M,2.4,M,3.4,M*29
$HCHDG,62.7,0.0,E,,*1A
$YXXDR,A,5.8,D,PTCH,A,2.2,D,ROLL*50
$PTAK,FFD1,2.2*55
$GPRMC,000007.4,A,4817.08877,N,12238.16556,W,000.01,249.4,160713,016.8,E,D*27
$PGRME,2.4,M,2.4,M,3.4,M*29
$HCHDG,62.7,0.0,E,,*1A
$HCHDG,62.9,0.0,E,,*14
$HCHDG,62.8,0.0,E,,*15
$GPRMC,000007.6,A,4817.08877,N,12238.16556,W,000.02,249.4,160713,016.8,E,D*26
$PGRME,2.4,M,2.4,M,3.4,M*29
$HCHDG,62.8,0.0,E,,*15
$HCHDG,63.0,0.0,E,,*1C
$GPRMC,000007.8,A,4817.08876,N,12238.16556,W,000.02,249.4,160713,016.8,E,D*29
$PGRME,2.4,M,2.4,M,3.4,M*29
$YXXDR,A,5.8,D,PTCH,A,2.9,D,ROLL*5B
$HCHDG,63.1,0.0,E,,*1D
$HCHDG,63.1,0.0,E,,*1D
$GPRMC,000008.0,A,4817.08876,N,12238.16555,W,000.03,249.4,160713,016.8,E,D*2C
$PTAK,FFP1,HEEL,@*07
$PGRME,2.4,M,2.4,M,3.4,M*29
$HCHDG,63.0,0.0,E,,*1C
$HCHDG,63.0,0.0,E,,*1C
$GPRMC,000008.2,A,4817.08876,N,12238.16555,W,000.03,249.4,160713,016.8,E,D*2E
$PGRME,2.4,M,2.4,M,3.4,M*29
$HCHDG,63.0,0.0,E,,*1C
$YXXDR,A,5.7,D,PTCH,A,3.2,D,ROLL*5E
$GPRMC,000008.4,A,4817.08876,N,12238.16555,W,000.03,249.4,160713,016.8,E,D*28
$GPRMB,A,0.00,L,OH,OH,4817.5980,N,12238.5140,W,0.6,336,0.00,V*0E
$PGRME,2.4,M,2.4,M,3.4,M*29
$HCHDG,63.0,0.0,E,,*1C
$HCHDG,62.9,0.0,E,,*14
$HCHDG,63.0,0.0,E,,*1C
$GPRMC,000008.6,A,4817.08876,N,12238.16555,W,000.03,249.4,160713,016.8,E,D*2A
$PGRME,2.4,M,2.4,M,3.4,M*29
$HCHDG,63.1,0.0,E,,*1D
$HCHDG,62.9,0.0,E,,*14
$GPRMC,000008.8,A,4817.08876,N,12238.16555,W,000.02,249.4,160713,016.8,E,D*25
$PGRME,2.4,M,2.4,M,3.4,M*29
$YXXDR,A,5.8,D,PTCH,A,4.3,D,ROLL*57
$PTAK,FFD1,4.3*52
$HCHDG,62.8,0.0,E,,*15
$HCHDG,62.5,0.0,E,,*18
$GPRMC,000009.0,A,4817.08876,N,12238.16555,W,000.02,249.4,160713,016.8,E,D*2C
$PGRME,2.4,M,2.4,M,3.4,M*29
$HCHDG,62.4,0.0,E,,*19
$HCHDG,62.5,0.0,E,,*18
$GPRMC,000009.2,A,4817.08876,N,12238.16555,W,000.01,249.4,160713,016.8,E,D*2D
$PGRME,2.4,M,2.4,M,3.4,M*29
$HCHDG,62.3,0.0,E,,*1E
$YXXDR,A,6.0,D,PTCH,A,4.0,D,ROLL*5F
$GPRMC,000009.4,A,4817.08876,N,12238.16556,W,000.01,249.4,160713,016.8,E,D*28
$GPRMB,A,0.00,L,OH,OH,4817.5980,N,12238.5140,W,0.6,336,0.00,V*0E
$PGRME,2.4,M,2.4,M,3.4,M*29
$HCHDG,62.2,0.0,E,,*1F
$HCHDG,62.2,0.0,E,,*1F
$HCHDG,62.0,0.0,E,,*1D
$GPRMC,000009.6,A,4817.08876,N,12238.16556,W,000.02,249.4,160713,016.8,E,D*29
$PGRME,2.4,M,2.4,M,3.4,M*29
$HCHDG,61.8,0.0,E,,*16
$HCHDG,61.8,0.0,E,,*16
$GPRMC,000009.8,A,4817.08876,N,12238.16556,W,000.02,249.4,160713,016.8,E,D*27
$PGRME,2.4,M,2.4,M,3.4,M*29
$YXXDR,A,6.2,D,PTCH,A,3.6,D,ROLL*5C
$HCHDG,61.7,0.0,E,,*19
$HCHDG,61.7,0.0,E,,*19
$GPRMC,000010.0,A,4817.08876,N,12238.16556,W,000.01,249.4,160713,016.8,E,D*24
$PGRME,2.4,M,2.4,M,3.4,M*29
$HCHDG,61.6,0.0,E,,*18
$HCHDG,61.4,0.0,E,,*1A
$GPRMC,000010.2,A,4817.08876,N,12238.16556,W,000.01,249.4,160713,016.8,E,D*26
$PGRME,2.4,M,2.4,M,3.4,M*29
$HCHDG,61.4,0.0,E,,*1A
$YXXDR,A,6.3,D,PTCH,A,3.2,D,ROLL*59
$PTAK,FFD1,3.2*54
$GPRMC,000010.4,A,4817.08876,N,12238.16556,W,000.01,249.4,160713,016.8,E,D*20
$GPRMB,A,0.00,L,OH,OH,4817.5980,N,12238.5140,W,0.6,336,0.00,V*0E
$PGRME,2.4,M,2.4,M,3.4,M*29
$HCHDG,61.1,0.0,E,,*1F
$HCHDG,61.1,0.0,E,,*1F
$HCHDG,61.2,0.0,E,,*1C
$GPRMC,000010.6,A,4817.08876,N,12238.16556,W,000.00,249.4,160713,016.8,E,D*23
$PGRME,2.4,M,2.4,M,3.4,M*29
$HCHDG,61.2,0.0,E,,*1C
$HCHDG,61.2,0.0,E,,*1C
$GPRMC,000010.8,A,4817.08876,N,12238.16557,W,000.01,249.4,160713,016.8,E,D*2D
$PGRME,2.4,M,2.4,M,3.4,M*29
$YXXDR,A,6.1,D,PTCH,A,3.2,D,ROLL*5B
$HCHDG,61.2,0.0,E,,*1C
$HCHDG,61.2,0.0,E,,*1C
$GPRMC,000011.0,A,4817.08876,N,12238.16557,W,000.02,249.4,160713,016.8,E,D*27
$PGRME,2.4,M,2.4,M,3.4,M*29
$HCHDG,61.4,0.0,E,,*1A
$HCHDG,61.4,0.0,E,,*1A
$GPRMC,000011.2,A,4817.08876,N,12238.16557,W,000.01,249.4,160713,016.8,E,D*26
$PGRME,2.4,M,2.4,M,3.4,M*29
$HCHDG,61.5,0.0,E,,*1B
$YXXDR,A,6.0,D,PTCH,A,3.5,D,ROLL*5D
$GPRMC,000011.4,A,4817.08876,N,12238.16557,W,000.01,249.4,160713,016.8,E,D*20
$PGRME,2.4,M,2.4,M,3.4,M*29
$HCHDG,61.4,0.0,E,,*1A
$HCHDG,61.5,0.0,E,,*1B
$HCHDG,61.5,0.0,E,,*1B
$GPRMC,000011.6,A,4817.08876,N,12238.16557,W,000.01,249.4,160713,016.8,E,D*22
$GPRMB,A,0.00,L,OH,OH,4817.5980,N,12238.5140,W,0.6,336,0.00,V*0E
$PGRME,2.4,M,2.4,M,3.4,M*29
$HCHDG,61.5,0.0,E,,*1B
$HCHDG,61.6,0.0,E,,*18
$GPRMC,000011.8,A,4817.08876,N,12238.16557,W,000.01,249.4,160713,016.8,E,D*2C
$PGRME,2.4,M,2.4,M,3.4,M*29
$YXXDR,A,6.0,D,PTCH,A,3.5,D,ROLL*5D
$PTAK,FFD1,3.5*53
$HCHDG,61.6,0.0,E,,*18
$HCHDG,61.6,0.0,E,,*18
$GPRMC,000012.0,A,4817.08876,N,12238.16557,W,000.00,249.4,160713,016.8,E,D*26
$PGRME,2.4,M,2.4,M,3.4,M*29
$HCHDG,61.6,0.0,E,,*18
$PTAK,FFP1,HEEL,@*07
$HCHDG,61.6,0.0,E,,*18
$GPRMC,000012.2,A,4817.08877,N,12238.16557,W,000.01,249.4,160713,016.8,E,D*24
$PGRME,2.4,M,2.4,M,3.4,M*29
$HCHDG,61.6,0.0,E,,*18
$YXXDR,A,6.0,D,PTCH,A,3.1,D,ROLL*59
$GPRMC,000012.4,A,4817.08877,N,12238.16557,W,000.01,249.4,160713,016.8,E,D*22
$PGRME,2.4,M,2.4,M,3.4,M*29
$HCHDG,61.6,0.0,E,,*18
$HCHDG,61.6,0.0,E,,*18
$HCHDG,61.5,0.0,E,,*1B
$GPRMC,000012.6,A,4817.08877,N,12238.16558,W,000.01,249.4,160713,016.8,E,D*2F
$PGRME,2.4,M,2.4,M,3.4,M*29
$HCHDG,61.5,0.0,E,,*1B
$HCHDG,61.6,0.0,E,,*18
$GPRMC,000012.8,A,4817.08877,N,12238.16558,W,000.00,249.4,160713,016.8,E,D*20
$GPRMB,A,0.00,L,OH,OH,4817.5980,N,12238.5140,W,0.6,336,0.00,V*0E
$PGRME,2.4,M,2.4,M,3.4,M*29
$YXXDR,A,5.9,D,PTCH,A,2.7,D,ROLL*54
$PTAK,FFD1,2.7*50
$HCHDG,61.6,0.0,E,,*18
$HCHDG,61.5,0.0,E,,*1B
$GPRMC,000013.0,A,4817.08877,N,12238.16558,W,000.01,249.4,160713,016.8,E,D*28
$PGRME,2.4,M,2.4,M,3.4,M*29
$HCHDG,61.5,0.0,E,,*1B
$HCHDG,61.4,0.0,E,,*1A
$GPRMC,000013.2,A,4817.08877,N,12238.16558,W,000.01,249.4,160713,016.8,E,D*2A
$PGRME,2.4,M,2.4,M,3.4,M*29
$HCHDG,61.4,0.0,E,,*1A
$YXXDR,A,5.9,D,PTCH,A,2.4,D,ROLL*57
$GPRMC,000013.4,A,4817.08877,N,12238.16558,W,000.01,249.4,160713,016.8,E,D*2C
$PGRME,2.4,M,2.4,M,3.4,M*29
$HCHDG,61.4,0.0,E,,*1A
$HCHDG,61.5,0.0,E,,*1B
$HCHDG,61.4,0.0,E,,*1A
$GPRMC,000013.6,A,4817.08877,N,12238.16558,W,000.01,249.4,160713,016.8,E,D*2E
$PGRME,2.4,M,2.4,M,3.4,M*29
$HCHDG,61.5,0.0,E,,*1B
$HCHDG,61.5,0.0,E,,*1B
$GPRMC,000013.8,A,4817.08877,N,12238.16558,W,000.01,249.4,160713,016.8,E,D*20
$GPRMB,A,0.00,L,OH,OH,4817.5980,N,12238.5140,W,0.6,336,0.00,V*0E
$PGRME,2.4,M,2.4,M,3.4,M*29
$YXXDR,A,6.1,D,PTCH,A,2.3,D,ROLL*5B
$PTAK,FFD1,2.3*54
$HCHDG,61.4,0.0,E,,*1A
$HCHDG,61.5,0.0,E,,*1B
$GPRMC,000014.0,A,4817.08877,N,12238.16558,W,000.02,249.4,160713,016.8,E,D*2C
$PGRME,2.4,M,2.4,M,3.4,M*29
$HCHDG,61.7,0.0,E,,*19
$HCHDG,61.7,0.0,E,,*19
$GPRMC,000014.2,A,4817.08877,N,12238.16558,W,000.01,249.4,160713,016.8,E,D*2D
$PGRME,2.4,M,2.4,M,3.4,M*29
$HCHDG,61.7,0.0,E,,*19
$YXXDR,A,5.8,D,PTCH,A,2.6,D,ROLL*54
$GPRMC,000014.4,A,4817.08877,N,12238.16558,W,000.01,249.4,160713,016.8,E,D*2B
$PGRME,2.4,M,2.4,M,3.4,M*29
$HCHDG,61.7,0.0,E,,*19
$HCHDG,62.0,0.0,E,,*1D
$HCHDG,61.9,0.0,E,,*17
$GPRMC,000014.6,A,4817.08877,N,12238.16558,W,000.01,249.4,160713,016.8,E,D*29
$PGRME,2.4,M,2.4,M,3.4,M*29
$HCHDG,62.0,0.0,E,,*1D
$HCHDG,62.0,0.0,E,,*1D
$GPRMC,000014.8,A,4817.08877,N,12238.16558,W,000.01,249.4,160713,016.8,E,D*27
$PGRME,2.4,M,2.4,M,3.4,M*29
$YXXDR,A,5.8,D,PTCH,A,2.4,D,ROLL*56
$HCHDG,62.1,0.0,E,,*1C
$HCHDG,62.2,0.0,E,,*1F
$GPRMC,000015.0,A,4817.08877,N,12238.16558,W,000.01,249.4,160713,016.8,E,D*2E
$GPRMB,A,0.00,L,OH,OH,4817.5980,N,12238.5140,W,0.6,336,0.00,V*0E
$PGRME,2.4,M,2.4,M,3.4,M*29
$HCHDG,62.0,0.0,E,,*1D
$HCHDG,62.2,0.0,E,,*1F
$GPRMC,000015.2,A,4817.08877,N,12238.16558,W,000.01,249.4,160713,016.8,E,D*2C
$PGRME,2.4,M,2.4,M,3.4,M*29
$HCHDG,62.2,0.0,E,,*1F
$YXXDR,A,5.9,D,PTCH,A,2.0,D,ROLL*53
$PTAK,FFD1,2.0*57
$GPRMC,000015.4,A,4817.08877,N,12238.16558,W,000.01,249.4,160713,016.8,E,D*2A
$PGRME,2.4,M,2.4,M,3.4,M*29
$HCHDG,62.1,0.0,E,,*1C
$HCHDG,62.0,0.0,E,,*1D
$HCHDG,62.1,0.0,E,,*1C
$GPRMC,000015.6,A,4817.08877,N,12238.16558,W,000.01,249.4,160713,016.8,E,D*28
$PGRME,2.4,M,2.4,M,3.4,M*29
$HCHDG,62.1,0.0,E,,*1C
$HCHDG,62.2,0.0,E,,*1F
$GPRMC,000015.8,A,4817.08877,N,12238.16558,W,000.01,249.4,160713,016.8,E,D*26
$PGRME,2.4,M,2.4,M,3.4,M*29
$YXXDR,A,5.9,D,PTCH,A,2.4,D,ROLL*57
$HCHDG,62.2,0.0,E,,*1F
$HCHDG,62.1,0.0,E,,*1C
$GPRMC,000016.0,A,4817.08877,N,12238.16558,W,000.01,249.4,160713,016.8,E,D*2D
$GPRMB,A,0.00,L,OH,OH,4817.5980,N,12238.5140,W,0.6,336,0.00,V*0E
$PGRME,2.4,M,2.4,M,3.4,M*29
$HCHDG,62.1,0.0,E,,*1C
$PTAK,FFP1,HEEL,@*07
$HCHDG,62.2,0.0,E,,*1F
$GPRMC,000016.2,A,4817.08877,N,12238.16558,W,000.01,249.4,160713,016.8,E,D*2F
$PGRME,2.4,M,2.4,M,3.4,M*29
$HCHDG,62.2,0.0,E,,*1F
$YXXDR,A,6.0,D,PTCH,A,1.9,D,ROLL*53
$GPRMC,000016.4,A,4817.08877,N,12238.16559,W,000.01,249.4,160713,016.8,E,D*28
$PGRME,2.4,M,2.4,M,3.4,M*29
$HCHDG,62.1,0.0,E,,*1C
$HCHDG,62.2,0.0,E,,*1F
$GPRMC,000016.6,A,4817.08877,N,12238.16559,W,000.01,249.4,160713,016.8,E,D*2A
$HCHDG,62.2,0.0,E,,*1F
$PGRME,2.4,M,2.4,M,3.4,M*29
$HCHDG,62.2,0.0,E,,*1F
$HCHDG,62.1,0.0,E,,*1C
$GPRMC,000016.8,A,4817.08877,N,12238.16559,W,000.01,249.4,160713,016.8,E,D*24
$PGRME,2.4,M,2.4,M,3.4,M*29
$YXXDR,A,5.9,D,PTCH,A,1.9,D,ROLL*59
$PTAK,FFD1,1.9*5D
$HCHDG,62.1,0.0,E,,*1C
$HCHDG,62.2,0.0,E,,*1F
$GPRMC,000017.0,A,4817.08877,N,12238.16559,W,000.01,249.4,160713,016.8,E,D*2D
$PGRME,2.4,M,2.4,M,3.4,M*29
$HCHDG,62.2,0.0,E,,*1F
$HCHDG,62.2,0.0,E,,*1F
$GPRMC,000017.2,A,4817.08877,N,12238.16559,W,000.01,249.4,160713,016.8,E,D*2F
$GPRMB,A,0.00,L,OH,OH,4817.5980,N,12238.5140,W,0.6,336,0.00,V*0E
$PGRME,2.4,M,2.4,M,3.4,M*29
$HCHDG,62.2,0.0,E,,*1F
$YXXDR,A,5.7,D,PTCH,A,2.2,D,ROLL*5F
$GPRMC,000017.4,A,4817.08877,N,12238.16559,W,000.01,249.4,160713,016.8,E,D*29
$PGRME,2.4,M,2.4,M,3.4,M*29
$HCHDG,62.2,0.0,E,,*1F
$HCHDG,62.2,0.0,E,,*1F
$HCHDG,62.1,0.0,E,,*1C
$GPRMC,000017.6,A,4817.08877,N,12238.16559,W,000.01,249.4,160713,016.8,E,D*2B
$PGRME,2.4,M,2.4,M,3.4,M*29
$HCHDG,62.1,0.0,E,,*1C
$HCHDG,62.2,0.0,E,,*1F
$GPRMC,000017.8,A,4817.08877,N,12238.16559,W,000.00,249.4,160713,016.8,E,D*24
$PGRME,2.4,M,2.4,M,3.4,M*29
$YXXDR,A,5.8,D,PTCH,A,2.1,D,ROLL*53
$PTAK,FFD1,2.1*56
$HCHDG,62.2,0.0,E,,*1F
$HCHDG,62.2,0.0,E,,*1F
$GPRMC,000018.0,A,4817.08877,N,12238.16559,W,000.00,249.4,160713,016.8,E,D*23
$PGRME,2.4,M,2.4,M,3.4,M*29
$HCHDG,62.2,0.0,E,,*1F
$HCHDG,62.2,0.0,E,,*1F
$GPRMC,000018.2,A,4817.08877,N,12238.16559,W,000.01,249.4,160713,016.8,E,D*20
$GPRMB,A,0.00,L,OH,OH,4817.5980,N,12238.5140,W,0.6,336,0.00,V*0E
$PGRME,2.4,M,2.4,M,3.4,M*29
$HCHDG,62.2,0.0,E,,*1F
$YXXDR,A,5.9,D,PTCH,A,2.4,D,ROLL*57
$GPRMC,000018.4,A,4817.08877,N,12238.16558,W,000.00,249.4,160713,016.8,E,D*26
$PGRME,2.4,M,2.4,M,3.4,M*29
$HCHDG,62.3,0.0,E,,*1E
$HCHDG,62.3,0.0,E,,*1E
$HCHDG,62.3,0.0,E,,*1E
$GPRMC,000018.6,A,4817.08878,N,12238.16558,W,000.00,249.4,160713,016.8,E,D*2B
$PGRME,2.4,M,2.4,M,3.4,M*29
$HCHDG,62.3,0.0,E,,*1E
$HCHDG,62.3,0.0,E,,*1E
$GPRMC,000018.8,A,4817.08878,N,12238.16558,W,000.01,249.4,160713,016.8,E,D*24
$PGRME,2.4,M,2.4,M,3.4,M*29
$YXXDR,A,5.8,D,PTCH,A,2.3,D,ROLL*51
$PTAK,FFD1,2.3*54
$HCHDG,62.3,0.0,E,,*1E
$HCHDG,62.3,0.0,E,,*1E
$GPRMC,000019.0,A,4817.08878,N,12238.16558,W,000.00,249.4,160713,016.8,E,D*2C
$PGRME,2.4,M,2.4,M,3.4,M*29
$HCHDG,62.2,0.0,E,,*1F
$GPRMC,000019.2,A,4817.08878,N,12238.16558,W,000.01,249.4,160713,016.8,E,D*2F
$HCHDG,62.2,0.0,E,,*1F
$PGRME,2.4,M,2.4,M,3.4,M*29
$HCHDG,62.2,0.0,E,,*1F
$YXXDR,A,6.0,D,PTCH,A,2.0,D,ROLL*59
$GPRMC,000019.4,A,4817.08878,N,12238.16558,W,000.00,249.4,160713,016.8,E,D*28
$GPRMB,A,0.00,L,OH,OH,4817.5980,N,12238.5140,W,0.6,336,0.00,V*0E
$PGRME,2.4,M,2.4,M,3.4,M*29
$HCHDG,62.2,0.0,E,,*1F
$HCHDG,62.2,0.0,E,,*1F
$HCHDG,62.2,0.0,E,,*1F
$GPRMC,000019.6,A,4817.08878,N,12238.16558,W,000.00,249.4,160713,016.8,E,D*2A
$PGRME,2.4,M,2.4,M,3.4,M*29
$HCHDG,62.3,0.0,E,,*1E
$HCHDG,62.3,0.0,E,,*1E
$GPRMC,000019.8,A,4817.08878,N,12238.16558,W,000.01,249.4,160713,016.8,E,D*25
$PGRME,2.4,M,2.4,M,3.4,M*29
$YXXDR,A,6.0,D,PTCH,A,1.9,D,ROLL*53
$HCHDG,62.3,0.0,E,,*1E
$HCHDG,62.3,0.0,E,,*1E
$GPRMC,000020.0,A,4817.08878,N,12238.16558,W,000.01,249.4,160713,016.8,E,D*27
$PGRME,2.4,M,2.4,M,3.4,M*29
$HCHDG,62.4,0.0,E,,*19
$HCHDG,62.3,0.0,E,,*1E
$GPRMC,000020.2,A,4817.08878,N,12238.16558,W,000.01,249.4,160713,016.8,E,D*25
$PTAK,FFP1,HEEL,@*07
$PGRME,2.4,M,2.4,M,3.4,M*29
$HCHDG,62.4,0.0,E,,*19
$YXXDR,A,5.8,D,PTCH,A,2.1,D,ROLL*53
$PTAK,FFD1,2.1*56
$GPRMC,000020.4,A,4817.08878,N,12238.16558,W,000.01,249.4,160713,016.8,E,D*23
$GPRMB,A,0.00,L,OH,OH,4817.5980,N,12238.5140,W,0.6,336,0.00,V*0E
$PGRME,2.4,M,2.4,M,3.4,M*29
$HCHDG,62.4,0.0,E,,*19
$HCHDG,62.4,0.0,E,,*19
$HCHDG,62.3,0.0,E,,*1E
$GPRMC,000020.6,A,4817.08878,N,12238.16558,W,000.01,249.4,160713,016.8,E,D*21
$PGRME,2.4,M,2.4,M,3.4,M*29
$HCHDG,62.3,0.0,E,,*1E
$HCHDG,62.2,0.0,E,,*1F
$GPRMC,000020.8,A,4817.08878,N,12238.16558,W,000.01,249.4,160713,016.8,E,D*2F
$PGRME,2.4,M,2.4,M,3.4,M*29
$YXXDR,A,5.8,D,PTCH,A,1.9,D,ROLL*58
$HCHDG,62.3,0.0,E,,*1E
$HCHDG,62.2,0.0,E,,*1F
$GPRMC,000021.0,A,4817.08878,N,12238.16558,W,000.00,249.4,160713,016.8,E,D*27
$PGRME,2.4,M,2.4,M,3.4,M*29
$HCHDG,62.1,0.0,E,,*1C
$HCHDG,62.1,0.0,E,,*1C
$GPRMC,000021.2,A,4817.08878,N,12238.16558,W,000.00,249.4,160713,016.8,E,D*25
$PGRME,2.4,M,2.4,M,3.4,M*29
$HCHDG,62.1,0.0,E,,*1C
$YXXDR,A,5.8,D,PTCH,A,1.6,D,ROLL*57
$GPRMC,000021.4,A,4817.08878,N,12238.16559,W,000.00,249.4,160713,016.8,E,D*22
$PGRME,2.4,M,2.4,M,3.4,M*29
$HCHDG,62.1,0.0,E,,*1C
$HCHDG,62.1,0.0,E,,*1C
$HCHDG,62.1,0.0,E,,*1C
$GPRMC,000021.6,A,4817.08878,N,12238.16559,W,000.01,249.4,160713,016.8,E,D*21
$GPRMB,A,0.00,L,OH,OH,4817.5980,N,12238.5140,W,0.6,336,0.00,V*0E
$PGRME,2.4,M,2.4,M,3.4,M*29
$HCHDG,62.1,0.0,E,,*1C
$HCHDG,62.1,0.0,E,,*1C
$GPRMC,000021.8,A,4817.08878,N,12238.16559,W,000.01,249.4,160713,016.8,E,D*2F
$PGRME,2.4,M,2.4,M,3.4,M*29
$YXXDR,A,5.8,D,PTCH,A,1.9,D,ROLL*58
$PTAK,FFD1,1.9*5D
$HCHDG,62.1,0.0,E,,*1C
$HCHDG,62.2,0.0,E,,*1F
$GPRMC,000022.0,A,4817.08878,N,12238.16559,W,000.01,249.4,160713,016.8,E,D*24
$PGRME,2.4,M,2.4,M,3.4,M*29
$HCHDG,62.2,0.0,E,,*1F
$HCHDG,62.2,0.0,E,,*1F
$GPRMC,000022.2,A,4817.08877,N,12238.16559,W,000.01,249.4,160713,016.8,E,D*29
$PGRME,2.4,M,2.4,M,3.4,M*29
$HCHDG,62.2,0.0,E,,*1F
$YXXDR,A,5.7,D,PTCH,A,2.2,D,ROLL*5F
$GPRMC,000022.4,A,4817.08877,N,12238.16559,W,000.01,249.4,160713,016.8,E,D*2F
$PGRME,2.4,M,2.4,M,3.4,M*29
$HCHDG,62.3,0.0,E,,*1E
$HCHDG,62.2,0.0,E,,*1F
$HCHDG,62.2,0.0,E,,*1F
$GPRMC,000022.6,A,4817.08877,N,12238.16559,W,000.01,249.4,160713,016.8,E,D*2D
$PGRME,2.4,M,2.4,M,3.4,M*29
$HCHDG,62.2,0.0,E,,*1F
$HCHDG,62.2,0.0,E,,*1F
$GPRMC,000022.8,A,4817.08877,N,12238.16559,W,000.01,249.4,160713,016.8,E,D*23
$GPRMB,A,0.00,L,OH,OH,4817.5980,N,12238.5140,W,0.6,336,0.00,V*0E
$PGRME,2.4,M,2.4,M,3.4,M*29
$YXXDR,A,5.8,D,PTCH,A,2.9,D,ROLL*5B
$PTAK,FFD1,2.9*5E
$HCHDG,62.1,0.0,E,,*1C
$HCHDG,62.4,0.0,E,,*19
$GPRMC,000023.0,A,4817.08877,N,12238.16559,W,000.01,249.4,160713,016.8,E,D*2A
$PGRME,2.4,M,2.4,M,3.4,M*29
$HCHDG,62.3,0.0,E,,*1E
$HCHDG,62.2,0.0,E,,*1F
$GPRMC,000023.2,A,4817.08877,N,12238.16559,W,000.01,249.4,160713,016.8,E,D*28
$PGRME,2.4,M,2.4,M,3.4,M*29
$HCHDG,62.2,0.0,E,,*1F
$YXXDR,A,5.7,D,PTCH,A,3.4,D,ROLL*58
$GPRMC,000023.4,A,4817.08878,N,12238.16559,W,000.00,249.4,160713,016.8,E,D*20
$PGRME,2.4,M,2.4,M,3.4,M*29
$HCHDG,61.9,0.0,E,,*17
$HCHDG,61.9,0.0,E,,*17
$GPRMC,000023.6,A,4817.08878,N,12238.16559,W,000.00,249.4,160713,016.8,E,D*22
$HCHDG,62.0,0.0,E,,*1D
$PGRME,2.4,M,2.4,M,3.4,M*29
$HCHDG,62.0,0.0,E,,*1D
$HCHDG,62.0,0.0,E,,*1D
$GPRMC,000023.8,A,4817.08878,N,12238.16559,W,000.00,249.4,160713,016.8,E,D*2C
$GPRMB,A,0.00,L,OH,OH,4817.5980,N,12238.5140,W,0.6,336,0.00,V*0E
$PGRME,2.4,M,2.4,M,3.4,M*29
$YXXDR,A,6.0,D,PTCH,A,4.0,D,ROLL*5F
$HCHDG,61.9,0.0,E,,*17
$HCHDG,61.6,0.0,E,,*18
$GPRMC,000024.0,A,4817.08878,N,12238.16559,W,000.00,249.4,160713,016.8,E,D*23
$PGRME,2.4,M,2.4,M,3.4,M*29
$HCHDG,61.6,0.0,E,,*18
$HCHDG,61.6,0.0,E,,*18
$GPRMC,000024.2,A,4817.08878,N,12238.16559,W,000.01,249.4,160713,016.8,E,D*20
$PGRME,2.4,M,2.4,M,3.4,M*29
$HCHDG,61.6,0.0,E,,*18
$PTAK,FFP1,HEEL,@*07
$YXXDR,A,6.3,D,PTCH,A,4.7,D,ROLL*5B
$PTAK,FFD1,4.7*56
$GPRMC,000024.4,A,4817.08878,N,12238.16559,W,000.01,249.4,160713,016.8,E,D*26
$PGRME,2.4,M,2.4,M,3.4,M*29
$HCHDG,61.6,0.0,E,,*18
$HCHDG,61.8,0.0,E,,*16
$HCHDG,61.8,0.0,E,,*16
$GPRMC,000024.6,A,4817.08878,N,12238.16559,W,000.01,249.4,160713,016.8,E,D*24
$PGRME,2.4,M,2.4,M,3.4,M*29
$HCHDG,61.7,0.0,E,,*19
$HCHDG,61.9,0.0,E,,*17
$GPRMC,000024.8,A,4817.08878,N,12238.16558,W,000.01,249.4,160713,016.8,E,D*2B
$GPRMB,A,0.00,L,OH,OH,4817.5980,N,12238.5140,W,0.6,336,0.00,V*0E
$PGRME,2.4,M,2.4,M,3.4,M*29
$YXXDR,A,6.1,D,PTCH,A,4.5,D,ROLL*5B
$HCHDG,61.6,0.0,E,,*18
$HCHDG,61.6,0.0,E,,*18
$GPRMC,000025.0,A,4817.08878,N,12238.16558,W,000.01,249.4,160713,016.8,E,D*22
$PGRME,2.4,M,2.4,M,3.4,M*29
$HCHDG,61.6,0.0,E,,*18
$HCHDG,61.6,0.0,E,,*18
$GPRMC,000025.2,A,4817.08878,N,12238.16558,W,000.02,249.4,160713,016.8,E,D*23
$PGRME,2.4,M,2.4,M,3.4,M*29
$HCHDG,61.7,0.0,E,,*19
$YXXDR,A,6.1,D,PTCH,A,4.0,D,ROLL*5E
$GPRMC,000025.4,A,4817.08878,N,12238.16558,W,000.01,249.4,160713,016.8,E,D*26
$PGRME,2.4,M,2.4,M,3.4,M*29
$HCHDG,61.7,0.0,E,,*19
$HCHDG,61.6,0.0,E,,*18
$HCHDG,61.6,0.0,E,,*18
$GPRMC,000025.6,A,4817.08878,N,12238.16558,W,000.01,249.4,160713,016.8,E,D*24
$PGRME,2.4,M,2.4,M,3.4,M*29
$HCHDG,61.5,0.0,E,,*1B
$HCHDG,61.7,0.0,E,,*19
$GPRMC,000025.8,A,4817.08877,N,12238.16558,W,000.01,249.4,160713,016.8,E,D*25
$GPRMB,A,0.00,L,OH,OH,4817.5980,N,12238.5140,W,0.6,336,0.00,V*0E
$PGRME,2.4,M,2.4,M,3.4,M*29
$YXXDR,A,6.0,D,PTCH,A,3.6,D,ROLL*5E
$PTAK,FFD1,3.6*50
$HCHDG,61.7,0.0,E,,*19
$HCHDG,61.8,0.0,E,,*16
$GPRMC,000026.0,A,4817.08877,N,12238.16558,W,000.01,249.4,160713,016.8,E,D*2E
$PGRME,2.4,M,2.4,M,3.4,M*29
$HCHDG,62.0,0.0,E,,*1D
$HCHDG,62.2,0.0,E,,*1F
$GPRMC,000026.2,A,4817.08877,N,12238.16558,W,000.01,249.4,160713,016.8,E,D*2C
$PGRME,2.4,M,2.4,M,3.4,M*29
$HCHDG,62.2,0.0,E,,*1F
$YXXDR,A,5.8,D,PTCH,A,3.6,D,ROLL*55
$GPRMC,000026.4,A,4817.08877,N,12238.16558,W,000.01,249.4,160713,016.8,E,D*2A
$PGRME,2.4,M,2.4,M,3.4,M*29
$HCHDG,62.2,0.0,E,,*1F
$HCHDG,62.2,0.0,E,,*1F
$HCHDG,62.2,0.0,E,,*1F
$GPRMC,000026.6,A,4817.08877,N,12238.16558,W,000.01,249.4,160713,016.8,E,D*28
$PGRME,2.4,M,2.4,M,3.4,M*29
$HCHDG,62.4,0.0,E,,*19
$HCHDG,62.5,0.0,E,,*18
$GPRMC,000026.8,A,4817.08877,N,12238.16558,W,000.01,249.4,160713,016.8,E,D*26
$PGRME,2.4,M,2.4,M,3.4,M*29
$YXXDR,A,5.5,D,PTCH,A,3.8,D,ROLL*56
$HCHDG,62.6,0.0,E,,*1B
$HCHDG,62.7,0.0,E,,*1A
$GPRMC,000027.0,A,4817.08877,N,12238.16558,W,000.01,249.4,160713,016.8,E,D*2F
$GPRMB,A,0.00,L,OH,OH,4817.5980,N,12238.5140,W,0.6,336,0.00,V*0E
$PGRME,2.4,M,2.4,M,3.4,M*29
$HCHDG,62.5,0.0,E,,*18
$HCHDG,62.8,0.0,E,,*15
$GPRMC,000027.2,A,4817.08877,N,12238.16558,W,000.01,249.4,160713,016.8,E,D*2D
$PGRME,2.4,M,2.4,M,3.4,M*29
$HCHDG,62.8,0.0,E,,*15
$YXXDR,A,5.8,D,PTCH,A,3.2,D,ROLL*51
$PTAK,FFD1,3.2*54
$GPRMC,000027.4,A,4817.08877,N,12238.16558,W,000.01,249.4,160713,016.8,E,D*2B
$PGRME,2.4,M,2.4,M,3.4,M*29
$HCHDG,62.8,0.0,E,,*15
$HCHDG,62.7,0.0,E,,*1A
$HCHDG,62.7,0.0,E,,*1A
$GPRMC,000027.6,A,4817.08877,N,12238.16558,W,000.01,249.4,160713,016.8,E,D*29
$PGRME,2.4,M,2.4,M,3.4,M*29
$HCHDG,62.7,0.0,E,,*1A
$HCHDG,62.7,0.0,E,,*1A
$GPRMC,000027.8,A,4817.08877,N,12238.16558,W,000.01,249.4,160713,016.8,E,D*27
$PGRME,2.4,M,2.4,M,3.4,M*29
$YXXDR,A,5.8,D,PTCH,A,3.5,D,ROLL*56
$HCHDG,62.8,0.0,E,,*15
$HCHDG,62.9,0.0,E,,*14
$GPRMC,000028.0,A,4817.08877,N,12238.16558,W,000.00,249.4,160713,016.8,E,D*21
$GPRMB,A,0.00,L,OH,OH,4817.5980,N,12238.5140,W,0.6,336,0.00,V*0E
$PGRME,2.4,M,2.4,M,3.4,M*29
$HCHDG,62.9,0.0,E,,*14
$HCHDG,63.0,0.0,E,,*1C
$GPRMC,000028.2,A,4817.08877,N,12238.16558,W,000.00,249.4,160713,016.8,E,D*23
$PGRME,2.4,M,2.4,M,3.4,M*29
$HCHDG,63.0,0.0,E,,*1C
$PTAK,FFP1,HEEL,@*07
$YXXDR,A,5.6,D,PTCH,A,3.9,D,ROLL*54
$PTAK,FFD1,3.9*5F
$GPRMC,000028.4,A,4817.08877,N,12238.16558,W,000.01,249.4,160713,016.8,E,D*24
$PGRME,2.4,M,2.4,M,3.4,M*29
$HCHDG,63.0,0.0,E,,*1C
$HCHDG,63.2,0.0,E,,*1E
$HCHDG,63.2,0.0,E,,*1E
$GPRMC,000028.6,A,4817.08877,N,12238.16557,W,000.02,249.4,160713,016.8,E,D*2A
$PGRME,2.4,M,2.4,M,3.4,M*29
$HCHDG,63.1,0.0,E,,*1D
$HCHDG,63.0,0.0,E,,*1C
$GPRMC,000028.8,A,4817.08877,N,12238.16557,W,000.01,249.4,160713,016.8,E,D*27
$PGRME,2.4,M,2.4,M,3.4,M*29
$YXXDR,A,5.8,D,PTCH,A,3.6,D,ROLL*55
$HCHDG,63.0,0.0,E,,*1C
$HCHDG,63.0,0.0,E,,*1C
$GPRMC,000029.0,A,4817.08877,N,12238.16557,W,000.01,249.4,160713,016.8,E,D*2E
$PGRME,2.4,M,2.4,M,3.4,M*29
$HCHDG,63.0,0.0,E,,*1C
$HCHDG,63.1,0.0,E,,*1D
$GPRMC,000029.2,A,4817.08877,N,12238.16557,W,000.01,249.4,160713,016.8,E,D*2C
$GPRMB,A,0.00,L,OH,OH,4817.5980,N,12238.5140,W,0.6,336,0.00,V*0E
$PGRME,2.4,M,2.4,M,3.4,M*29
$HCHDG,63.0,0.0,E,,*1C
$YXXDR,A,6.0,D,PTCH,A,3.5,D,ROLL*5D
$PTAK,FFD1,3.5*53
$GPRMC,000029.4,A,4817.08877,N,12238.16557,W,000.00,249.4,160713,016.8,E,D*2B
$PGRME,2.4,M,2.4,M,3.4,M*29
$HCHDG,63.0,0.0,E,,*1C
$HCHDG,62.8,0.0,E,,*15
$HCHDG,62.8,0.0,E,,*15
$GPRMC,000029.6,A,4817.08877,N,12238.16557,W,000.01,249.4,160713,016.8,E,D*28
$PGRME,2.4,M,2.4,M,3.4,M*29
$HCHDG,62.8,0.0,E,,*15
$HCHDG,62.7,0.0,E,,*1A
$GPRMC,000029.8,A,4817.08877,N,12238.16557,W,000.01,249.4,160713,016.8,E,D*26
$PGRME,2.4,M,2.4,M,3.4,M*29
$YXXDR,A,6.0,D,PTCH,A,3.8,D,ROLL*50
$HCHDG,62.8,0.0,E,,*15
$HCHDG,62.7,0.0,E,,*1A
$GPRMC,000030.0,A,4817.08877,N,12238.16557,W,000.01,249.4,160713,016.8,E,D*26
$PGRME,2.4,M,2.4,M,3.4,M*29
$HCHDG,62.9,0.0,E,,*14
$HCHDG,62.9,0.0,E,,*14
$GPRMC,000030.2,A,4817.08877,N,12238.16557,W,000.00,249.4,160713,016.8,E,D*25
$GPRMB,A,0.00,L,OH,OH,4817.5980,N,12238.5140,W,0.6,336,0.00,V*0E
$PGRME,2.4,M,2.4,M,3.4,M*29
$HCHDG,62.9,0.0,E,,*14
$YXXDR,A,6.0,D,PTCH,A,4.0,D,ROLL*5F
$PTAK,FFD1,4.0*51
$GPRMC,000030.4,A,4817.08877,N,12238.16558,W,000.01,249.4,160713,016.8,E,D*2D
$PGRME,2.4,M,2.4,M,3.4,M*29
$HCHDG,62.8,0.0,E,,*15
$HCHDG,62.8,0.0,E,,*15
$HCHDG,62.8,0.0,E,,*15
$GPRMC,000030.6,A,4817.08877,N,12238.16557,W,000.01,249.4,160713,016.8,E,D*20
$PGRME,2.4,M,2.4,M,3.4,M*29
$HCHDG,62.8,0.0,E,,*15
$HCHDG,62.8,0.0,E,,*15
$GPRMC,000030.8,A,4817.08877,N,12238.16557,W,000.00,249.4,160713,016.8,E,D*2F
$PGRME,2.4,M,2.4,M,3.4,M*29
$YXXDR,A,5.8,D,PTCH,A,4.0,D,ROLL*54
$HCHDG,62.8,0.0,E,,*15
$HCHDG,62.8,0.0,E,,*15
$GPRMC,000031.0,A,4817.08877,N,12238.16558,W,000.00,249.4,160713,016.8,E,D*29
$PGRME,2.4,M,2.4,M,3.4,M*29
$HCHDG,62.8,0.0,E,,*15
$HCHDG,62.8,0.0,E,,*15
$GPRMC,000031.2,A,4817.08877,N,12238.16558,W,000.00,249.4,160713,016.8,E,D*2B
$PGRME,2.4,M,2.4,M,3.4,M*29
$HCHDG,62.8,0.0,E,,*15
$YXXDR,A,5.9,D,PTCH,A,3.7,D,ROLL*55
$GPRMC,000031.4,A,4817.08877,N,12238.16558,W,000.00,249.4,160713,016.8,E,D*2D
$GPRMB,A,0.00,L,OH,OH,4817.5980,N,12238.5140,W,0.6,336,0.00,V*0E
$PGRME,2.4,M,2.4,M,3.4,M*29
$HCHDG,62.8,0.0,E,,*15
$HCHDG,62.7,0.0,E,,*1A
$HCHDG,62.7,0.0,E,,*1A
$GPRMC,000031.6,A,4817.08877,N,12238.16558,W,000.00,249.4,160713,016.8,E,D*2F
$PGRME,2.4,M,2.4,M,3.4,M*29
$HCHDG,62.7,0.0,E,,*1A
$HCHDG,62.8,0.0,E,,*15
$GPRMC,000031.8,A,4817.08877,N,12238.16558,W,000.00,249.4,160713,016.8,E,D*21
$PGRME,2.4,M,2.4,M,3.4,M*29
$YXXDR,A,5.8,D,PTCH,A,3.6,D,ROLL*55
$PTAK,FFD1,3.6*50
$HCHDG,62.8,0.0,E,,*15
$GPRMC,000032.0,A,4817.08877,N,12238.16558,W,000.00,249.4,160713,016.8,E,D*2A
$HCHDG,62.8,0.0,E,,*15
$PGRME,2.4,M,2.4,M,3.4,M*29
$HCHDG,62.8,0.0,E,,*15
$HCHDG,62.9,0.0,E,,*14
$GPRMC,000032.2,A,4817.08877,N,12238.16558,W,000.00,249.4,160713,016.8,E,D*28
$PGRME,2.4,M,2.4,M,3.4,M*29
$HCHDG,62.9,0.0,E,,*14
$PTAK,FFP1,HEEL,@*07
$YXXDR,A,5.9,D,PTCH,A,3.7,D,ROLL*55
$GPRMC,000032.4,A,4817.08877,N,12238.16558,W,000.00,249.4,160713,016.8,E,D*2E
$GPRMB,A,0.00,L,OH,OH,4817.5980,N,12238.5140,W,0.6,336,0.00,V*0E
$PGRME,2.4,M,2.4,M,3.4,M*29
$HCHDG,62.9,0.0,E,,*14
$HCHDG,62.9,0.0,E,,*14
$HCHDG,62.9,0.0,E,,*14
$GPRMC,000032.6,A,4817.08877,N,12238.16558,W,000.01,249.4,160713,016.8,E,D*2D
$PGRME,2.4,M,2.4,M,3.4,M*29
$HCHDG,62.9,0.0,E,,*14
$HCHDG,62.8,0.0,E,,*15
$GPRMC,000032.8,A,4817.08877,N,12238.16558,W,000.01,249.4,160713,016.8,E,D*23
$PGRME,2.4,M,2.4,M,3.4,M*29
$YXXDR,A,5.7,D,PTCH,A,3.5,D,ROLL*59
$HCHDG,62.8,0.0,E,,*15
$HCHDG,62.8,0.0,E,,*15
$GPRMC,000033.0,A,4817.08877,N,12238.16558,W,000.00,249.4,160713,016.8,E,D*2B
$PGRME,2.4,M,2.4,M,3.4,M*29
$HCHDG,63.0,0.0,E,,*1C
$HCHDG,63.0,0.0,E,,*1C
$GPRMC,000033.2,A,4817.08877,N,12238.16558,W,000.00,249.4,160713,016.8,E,D*29
$PGRME,2.4,M,2.4,M,3.4,M*29
$HCHDG,62.9,0.0,E,,*14
$YXXDR,A,5.8,D,PTCH,A,3.4,D,ROLL*57
$PTAK,FFD1,3.4*52
$GPRMC,000033.4,A,4817.08877,N,12238.16558,W,000.01,249.4,160713,016.8,E,D*2E
$PGRME,2.4,M,2.4,M,3.4,M*29
$HCHDG,62.8,0.0,E,,*15
$HCHDG,62.6,0.0,E,,*1B
$HCHDG,62.5,0.0,E,,*18
$GPRMC,000033.6,A,4817.08877,N,12238.16557,W,000.00,249.4,160713,016.8,E,D*22
$GPRMB,A,0.00,L,OH,OH,4817.5980,N,12238.5140,W,0.6,336,0.00,V*0E
$PGRME,2.4,M,2.4,M,3.4,M*29
$HCHDG,62.6,0.0,E,,*1B
$HCHDG,62.6,0.0,E,,*1B
$GPRMC,000033.8,A,4817.08877,N,12238.16557,W,000.01,249.4,160713,016.8,E,D*2D
$PGRME,2.4,M,2.4,M,3.4,M*29
$YXXDR,A,5.8,D,PTCH,A,3.5,D,ROLL*56
$HCHDG,62.7,0.0,E,,*1A
$HCHDG,62.6,0.0,E,,*1B
$GPRMC,000034.0,A,4817.08877,N,12238.16557,W,000.00,249.4,160713,016.8,E,D*23
$PGRME,2.4,M,2.4,M,3.4,M*29
$HCHDG,62.6,0.0,E,,*1B
$HCHDG,62.7,0.0,E,,*1A
$GPRMC,000034.2,A,4817.08877,N,12238.16557,W,000.00,249.4,160713,016.8,E,D*21
$PGRME,2.4,M,2.4,M,3.4,M*29
$HCHDG,62.8,0.0,E,,*15
$YXXDR,A,5.8,D,PTCH,A,3.9,D,ROLL*5A
$GPRMC,000034.4,A,4817.08877,N,12238.16557,W,000.01,249.4,160713,016.8,E,D*26
$PGRME,2.4,M,2.4,M,3.4,M*29
$HCHDG,62.8,0.0,E,,*15
$HCHDG,62.8,0.0,E,,*15
$GPRMC,000034.6,A,4817.08877,N,12238.16557,W,000.01,249.4,160713,016.8,E,D*24
$HCHDG,62.7,0.0,E,,*1A
$PGRME,2.4,M,2.4,M,3.4,M*29
$HCHDG,62.7,0.0,E,,*1A
$GPRMC,000034.8,A,4817.08877,N,12238.16557,W,000.01,249.4,160713,016.8,E,D*2A
$GPRMB,A,0.00,L,OH,OH,4817.5980,N,12238.5140,W,0.6,336,0.00,V*0E
$HCHDG,62.9,0.0,E,,*14
$PGRME,2.4,M,2.4,M,3.4,M*29
$YXXDR,A,5.7,D,PTCH,A,3.8,D,ROLL*54
$PTAK,FFD1,3.8*5E
$HCHDG,62.9,0.0,E,,*14
$GPRMC,000035.0,A,4817.08877,N,12238.16557,W,000.00,249.4,160713,016.8,E,D*22
$HCHDG,62.8,0.0,E,,*15
$PGRME,2.4,M,2.4,M,3.4,M*29
$HCHDG,62.8,0.0,E,,*15
$HCHDG,62.3,0.0,E,,*1E
$GPRMC,000035.2,A,4817.08877,N,12238.16557,W,000.00,249.4,160713,016.8,E,D*20
$PGRME,2.4,M,2.4,M,3.4,M*29
$HCHDG,62.3,0.0,E,,*1E
$YXXDR,A,6.0,D,PTCH,A,3.2,D,ROLL*5A
$GPRMC,000035.4,A,4817.08877,N,12238.16557,W,000.00,249.4,160713,016.8,E,D*26
$PGRME,2.4,M,2.4,M,3.4,M*29
$HCHDG,62.3,0.0,E,,*1E
$HCHDG,62.3,0.0,E,,*1E
$HCHDG,62.2,0.0,E,,*1F
$GPRMC,000035.6,A,4817.08877,N,12238.16557,W,000.02,249.4,160713,016.8,E,D*26
$PGRME,2.4,M,2.4,M,3.4,M*29
$HCHDG,62.1,0.0,E,,*1C
$HCHDG,62.1,0.0,E,,*1C
$GPRMC,000035.8,A,4817.08877,N,12238.16557,W,000.01,249.4,160713,016.8,E,D*2B
$GPRMB,A,0.00,L,OH,OH,4817.5980,N,12238.5140,W,0.6,336,0.00,V*0E
$PGRME,2.4,M,2.4,M,3.4,M*29
$YXXDR,A,6.0,D,PTCH,A,3.4,D,ROLL*5C
$HCHDG,62.1,0.0,E,,*1C
$HCHDG,62.1,0.0,E,,*1C
$GPRMC,000036.0,A,4817.08877,N,12238.16558,W,000.01,249.4,160713,016.8,E,D*2F
$PGRME,2.4,M,2.4,M,3.4,M*29
$HCHDG,62.2,0.0,E,,*1F
$HCHDG,61.8,0.0,E,,*16
$GPRMC,000036.2,A,4817.08877,N,12238.16558,W,000.01,249.4,160713,016.8,E,D*2D
$PGRME,2.4,M,2.4,M,3.4,M*29
$HCHDG,61.9,0.0,E,,*17
$YXXDR,A,5.9,D,PTCH,A,3.7,D,ROLL*55
$PTAK,FFD1,3.7*51
$PTAK,FFP1,HEEL,@*07
$GPRMC,000036.4,A,4817.08877,N,12238.16558,W,000.00,249.4,160713,016.8,E,D*2A
$PGRME,2.4,M,2.4,M,3.4,M*29
$HCHDG,61.8,0.0,E,,*16
$HCHDG,61.9,0.0,E,,*17
$HCHDG,62.1,0.0,E,,*1C
$GPRMC,000036.6,A,4817.08877,N,12238.16558,W,000.00,249.4,160713,016.8,E,D*28
$PGRME,2.4,M,2.4,M,3.4,M*29
$HCHDG,62.0,0.0,E,,*1D
$HCHDG,62.1,0.0,E,,*1C
$GPRMC,000036.8,A,4817.08877,N,12238.16558,W,000.00,249.4,160713,016.8,E,D*26
$PGRME,2.4,M,2.4,M,3.4,M*29
$YXXDR,A,5.7,D,PTCH,A,4.1,D,ROLL*5A
$HCHDG,62.0,0.0,E,,*1D
$HCHDG,61.9,0.0,E,,*17
$GPRMC,000037.0,A,4817.08877,N,12238.16558,W,000.00,249.4,160713,016.8,E,D*2F
$GPRMB,A,0.00,L,OH,OH,4817.5980,N,12238.5140,W,0.6,336,0.00,V*0E
$PGRME,2.4,M,2.4,M,3.4,M*29
$HCHDG,62.0,0.0,E,,*1D
$HCHDG,62.0,0.0,E,,*1D
$GPRMC,000037.2,A,4817.08877,N,12238.16558,W,000.00,249.4,160713,016.8,E,D*2D
$PGRME,2.4,M,2.4,M,3.4,M*29
$HCHDG,61.9,0.0,E,,*17
$YXXDR,A,5.8,D,PTCH,A,3.9,D,ROLL*5A
$PTAK,FFD1,3.9*5F
$GPRMC,000037.4,A,4817.08877,N,12238.16559,W,000.00,249.4,160713,016.8,E,D*2A
$PGRME,2.4,M,2.4,M,3.4,M*29
$HCHDG,61.9,0.0,E,,*17
$HCHDG,61.8,0.0,E,,*16
$HCHDG,61.9,0.0,E,,*17
$GPRMC,000037.6,A,4817.08877,N,12238.16559,W,000.01,249.4,160713,016.8,E,D*29
$PGRME,2.4,M,2.4,M,3.4,M*29
$HCHDG,61.7,0.0,E,,*19
$HCHDG,61.8,0.0,E,,*16
$GPRMC,000037.8,A,4817.08877,N,12238.16558,W,000.01,249.4,160713,016.8,E,D*26
$PGRME,2.4,M,2.4,M,3.4,M*29
$YXXDR,A,6.0,D,PTCH,A,3.5,D,ROLL*5D
$HCHDG,61.5,0.0,E,,*1B
$HCHDG,61.6,0.0,E,,*18
$GPRMC,000038.0,A,4817.08877,N,12238.16559,W,000.00,249.4,160713,016.8,E,D*21
$GPRMB,A,0.00,L,OH,OH,4817.5980,N,12238.5140,W,0.6,336,0.00,V*0E
$PGRME,2.4,M,2.4,M,3.4,M*29
$HCHDG,61.7,0.0,E,,*19
$HCHDG,61.7,0.0,E,,*19
$GPRMC,000038.2,A,4817.08877,N,12238.16558,W,000.01,249.4,160713,016.8,E,D*23
$PGRME,2.4,M,2.4,M,3.4,M*29
$HCHDG,61.7,0.0,E,,*19
$YXXDR,A,6.0,D,PTCH,A,3.7,D,ROLL*5F
$GPRMC,000038.4,A,4817.08877,N,12238.16558,W,000.00,249.4,160713,016.8,E,D*24
$PGRME,2.4,M,2.4,M,3.4,M*29
$HCHDG,61.7,0.0,E,,*19
$HCHDG,61.7,0.0,E,,*19
$HCHDG,61.9,0.0,E,,*17
$GPRMC,000038.6,A,4817.08877,N,12238.16558,W,000.00,249.4,160713,016.8,E,D*26
$PGRME,2.4,M,2.4,M,3.4,M*29
$HCHDG,61.9,0.0,E,,*17
$HCHDG,61.8,0.0,E,,*16
$GPRMC,000038.8,A,4817.08877,N,12238.16558,W,000.00,249.4,160713,016.8,E,D*28
$PGRME,2.4,M,2.4,M,3.4,M*29
$YXXDR,A,5.8,D,PTCH,A,3.9,D,ROLL*5A
$PTAK,FFD1,3.9*5F
$HCHDG,62.1,0.0,E,,*1C
$HCHDG,62.0,0.0,E,,*1D
$GPRMC,000039.0,A,4817.08877,N,12238.16558,W,000.01,249.4,160713,016.8,E,D*20
$PGRME,2.4,M,2.4,M,3.4,M*29
$HCHDG,62.0,0.0,E,,*1D
$HCHDG,61.9,0.0,E,,*17
$GPRMC,000039.2,A,4817.08877,N,12238.16558,W,000.01,249.4,160713,016.8,E,D*22
$GPRMB,A,0.00,L,OH,OH,4817.5980,N,12238.5140,W,0.6,336,0.00,V*0E
$PGRME,2.4,M,2.4,M,3.4,M*29
$HCHDG,61.9,0.0,E,,*17
$YXXDR,A,5.8,D,PTCH,A,3.5,D,ROLL*56
$GPRMC,000039.4,A,4817.08877,N,12238.16558,W,000.00,249.4,160713,016.8,E,D*25
$PGRME,2.4,M,2.4,M,3.4,M*29
$HCHDG,61.9,0.0,E,,*17
$HCHDG,61.9,0.0,E,,*17
$HCHDG,61.9,0.0,E,,*17
$GPRMC,000039.6,A,4817.08877,N,12238.16558,W,000.00,249.4,160713,016.8,E,D*27
$PGRME,2.4,M,2.4,M,3.4,M*29
$HCHDG,61.9,0.0,E,,*17
$HCHDG,61.8,0.0,E,,*16
$GPRMC,000039.8,A,4817.08877,N,12238.16558,W,000.01,249.4,160713,016.8,E,D*28
$PGRME,2.4,M,2.4,M,3.4,M*29
$YXXDR,A,6.0,D,PTCH,A,3.4,D,ROLL*5C
$HCHDG,61.8,0.0,E,,*16
$HCHDG,61.8,0.0,E,,*16
$GPRMC,000040.0,A,4817.08877,N,12238.16558,W,000.00,249.4,160713,016.8,E,D*2F
$PGRME,2.4,M,2.4,M,3.4,M*29
$HCHDG,61.9,0.0,E,,*17
$HCHDG,61.7,0.0,E,,*19
$GPRMC,000040.2,A,4817.08877,N,12238.16558,W,000.01,249.4,160713,016.8,E,D*2C
$GPRMB,A,0.00,L,OH,OH,4817.5980,N,12238.5140,W,0.6,336,0.00,V*0E
$PGRME,2.4,M,2.4,M,3.4,M*29
$HCHDG,61.7,0.0,E,,*19
$PTAK,FFP1,HEEL,@*07
$YXXDR,A,6.0,D,PTCH,A,3.5,D,ROLL*5D
$PTAK,FFD1,3.5*53
$GPRMC,000040.4,A,4817.08877,N,12238.16558,W,000.01,249.4,160713,016.8,E,D*2A
$PGRME,2.4,M,2.4,M,3.4,M*29
$HCHDG,61.7,0.0,E,,*19
$HCHDG,61.7,0.0,E,,*19
$HCHDG,61.7,0.0,E,,*19
$GPRMC,000040.6,A,4817.08877,N,12238.16557,W,000.01,249.4,160713,016.8,E,D*27
$PGRME,2.4,M,2.4,M,3.4,M*29
$HCHDG,61.7,0.0,E,,*19
$HCHDG,61.9,0.0,E,,*17
$GPRMC,000040.8,A,4817.08877,N,12238.16557,W,000.01,249.4,160713,016.8,E,D*29
$PGRME,2.4,M,2.4,M,3.4,M*29
$YXXDR,A,5.8,D,PTCH,A,3.5,D,ROLL*56
$HCHDG,61.9,0.0,E,,*17
$HCHDG,61.9,0.0,E,,*17
$GPRMC,000041.0,A,4817.08877,N,12238.16557,W,000.00,249.4,160713,016.8,E,D*21
$PGRME,2.4,M,2.4,M,3.4,M*29
$HCHDG,61.9,0.0,E,,*17
$HCHDG,61.9,0.0,E,,*17
$GPRMC,000041.2,A,4817.08877,N,12238.16557,W,000.01,249.4,160713,016.8,E,D*22
$GPRMB,A,0.00,L,OH,OH,4817.5980,N,12238.5140,W,0.6,336,0.00,V*0E
$PGRME,2.4,M,2.4,M,3.4,M*29
$HCHDG,61.9,0.0,E,,*17
$YXXDR,A,5.8,D,PTCH,A,3.9,D,ROLL*5A
$PTAK,FFD1,3.9*5F
$GPRMC,000041.4,A,4817.08877,N,12238.16557,W,000.00,249.4,160713,016.8,E,D*25
$PGRME,2.4,M,2.4,M,3.4,M*29
$HCHDG,62.0,0.0,E,,*1D
$HCHDG,61.9,0.0,E,,*17
$HCHDG,62.0,0.0,E,,*1D
$GPRMC,000041.6,A,4817.08877,N,12238.16557,W,000.01,249.4,160713,016.8,E,D*26
$PGRME,2.4,M,2.4,M,3.4,M*29
$HCHDG,61.9,0.0,E,,*17
$HCHDG,61.9,0.0,E,,*17
$GPRMC,000041.8,A,4817.08877,N,12238.16557,W,000.01,249.4,160713,016.8,E,D*28
$PGRME,2.4,M,2.4,M,3.4,M*29
$YXXDR,A,6.0,D,PTCH,A,3.8,D,ROLL*50
$HCHDG,61.9,0.0,E,,*17
$HCHDG,61.9,0.0,E,,*17
$GPRMC,000042.0,A,4817.08877,N,12238.16557,W,000.00,249.4,160713,016.8,E,D*22
$PGRME,2.4,M,2.4,M,3.4,M*29
$HCHDG,61.9,0.0,E,,*17
$HCHDG,62.1,0.0,E,,*1C
$GPRMC,000042.2,A,4817.08877,N,12238.16557,W,000.00,249.4,160713,016.8,E,D*20
$PGRME,2.4,M,2.4,M,3.4,M*29
$HCHDG,62.1,0.0,E,,*1C
$YXXDR,A,6.0,D,PTCH,A,3.8,D,ROLL*50
$GPRMC,000042.4,A,4817.08877,N,12238.16557,W,000.01,249.4,160713,016.8,E,D*27
$GPRMB,A,0.00,L,OH,OH,4817.5980,N,12238.5140,W,0.6,336,0.00,V*0E
$PGRME,2.4,M,2.4,M,3.4,M*29
$HCHDG,62.1,0.0,E,,*1C
$HCHDG,62.2,0.0,E,,*1F
$HCHDG,62.1,0.0,E,,*1C
$GPRMC,000042.6,A,4817.08877,N,12238.16558,W,000.00,249.4,160713,016.8,E,D*2B
$PGRME,2.4,M,2.4,M,3.4,M*29
$HCHDG,62.1,0.0,E,,*1C
$HCHDG,62.0,0.0,E,,*1D
$GPRMC,000042.8,A,4817.08877,N,12238.16558,W,000.00,249.4,160713,016.8,E,D*25
$PGRME,2.4,M,2.4,M,3.4,M*29
$YXXDR,A,5.8,D,PTCH,A,3.9,D,ROLL*5A
$PTAK,FFD1,3.9*5F
$HCHDG,62.0,0.0,E,,*1D
$GPRMC,000043.0,A,4817.08877,N,12238.16558,W,000.01,249.4,160713,016.8,E,D*2D
$HCHDG,62.1,0.0,E,,*1C
$PGRME,2.4,M,2.4,M,3.4,M*29
$HCHDG,62.1,0.0,E,,*1C
$HCHDG,62.1,0.0,E,,*1C
$GPRMC,000043.2,A,4817.08877,N,12238.16558,W,000.00,249.4,160713,016.8,E,D*2E
$PGRME,2.4,M,2.4,M,3.4,M*29
$HCHDG,62.1,0.0,E,,*1C
$YXXDR,A,6.0,D,PTCH,A,3.4,D,ROLL*5C
$GPRMC,000043.4,A,4817.08877,N,12238.16558,W,000.01,249.4,160713,016.8,E,D*29
$GPRMB,A,0.00,L,OH,OH,4817.5980,N,12238.5140,W,0.6,336,0.00,V*0E
$PGRME,2.4,M,2.4,M,3.4,M*29
$HCHDG,62.0,0.0,E,,*1D
$HCHDG,62.0,0.0,E,,*1D
$HCHDG,62.0,0.0,E,,*1D
$GPRMC,000043.6,A,4817.08877,N,12238.16558,W,000.01,249.4,160713,016.8,E,D*2B
$PGRME,2.4,M,2.4,M,3.4,M*29
$HCHDG,62.1,0.0,E,,*1C
$HCHDG,62.1,0.0,E,,*1C
$GPRMC,000043.8,A,4817.08877,N,12238.16558,W,000.01,249.4,160713,016.8,E,D*25
$PGRME,2.4,M,2.4,M,3.4,M*29
$YXXDR,A,5.9,D,PTCH,A,3.6,D,ROLL*54
$PTAK,FFD1,3.6*50
$HCHDG,62.1,0.0,E,,*1C
$HCHDG,62.1,0.0,E,,*1C
$GPRMC,000044.0,A,4817.08877,N,12238.16559,W,000.01,249.4,160713,016.8,E,D*2B
$PGRME,2.4,M,2.4,M,3.4,M*29
$PGRMT,GPS 18x-5Hz software ver. 3.20,,,,,,,,*30
$HCHDG,62.1,0.0,E,,*1C
$HCHDG,62.1,0.0,E,,*1C
$GPRMC,000044.2,A,4817.08877,N,12238.16559,W,000.01,249.4,160713,016.8,E,D*29
$PGRME,2.4,M,2.4,M,3.4,M*29
$HCHDG,62.3,0.0,E,,*1E
$YXXDR,A,5.8,D,PTCH,A,3.9,D,ROLL*5A
$GPRMC,000044.4,A,4817.08877,N,12238.16559,W,000.01,249.4,160713,016.8,E,D*2F
$PTAK,FFP1,HEEL,@*07
$PGRME,2.4,M,2.4,M,3.4,M*29
$HCHDG,62.3,0.0,E,,*1E
$HCHDG,62.3,0.0,E,,*1E
$GPRMC,000044.6,A,4817.08877,N,12238.16559,W,000.00,249.4,160713,016.8,E,D*2C
$GPRMB,A,0.00,L,OH,OH,4817.5980,N,12238.5140,W,0.6,336,0.00,V*0E
$HCHDG,62.2,0.0,E,,*1F
$PGRME,2.4,M,2.4,M,3.4,M*29
$HCHDG,62.2,0.0,E,,*1F
$HCHDG,62.2,0.0,E,,*1F
$GPRMC,000044.8,A,4817.08877,N,12238.16559,W,000.01,249.4,160713,016.8,E,D*23
$PGRME,2.4,M,2.4,M,3.4,M*29
$YXXDR,A,5.9,D,PTCH,A,3.6,D,ROLL*54
$PTAK,FFD1,3.6*50
$HCHDG,62.2,0.0,E,,*1F
$HCHDG,62.2,0.0,E,,*1F
$GPRMC,000045.0,A,4817.08877,N,12238.16559,W,000.01,249.4,160713,016.8,E,D*2A
$PGRME,2.4,M,2.4,M,3.4,M*29
$HCHDG,62.2,0.0,E,,*1F
$HCHDG,62.2,0.0,E,,*1F
$GPRMC,000045.2,A,4817.08877,N,12238.16559,W,000.01,249.4,160713,016.8,E,D*28
$PGRME,2.4,M,2.4,M,3.4,M*29
$HCHDG,62.2,0.0,E,,*1F
$YXXDR,A,6.0,D,PTCH,A,3.5,D,ROLL*5D
$GPRMC,000045.4,A,4817.08877,N,12238.16559,W,000.01,249.4,160713,016.8,E,D*2E
$PGRME,2.4,M,2.4,M,3.4,M*29
$HCHDG,62.3,0.0,E,,*1E
$HCHDG,62.3,0.0,E,,*1E
$HCHDG,62.2,0.0,E,,*1F
$GPRMC,000045.6,A,4817.08877,N,12238.16559,W,000.00,249.4,160713,016.8,E,D*2D
$GPRMB,A,0.00,L,OH,OH,4817.5980,N,12238.5140,W,0.6,336,0.00,V*0E
$PGRME,2.4,M,2.4,M,3.4,M*29
$HCHDG,62.2,0.0,E,,*1F
$HCHDG,62.1,0.0,E,,*1C
$GPRMC,000045.8,A,4817.08877,N,12238.16559,W,000.01,249.4,160713,016.8,E,D*22
$PGRME,2.4,M,2.4,M,3.4,M*29
$YXXDR,A,6.0,D,PTCH,A,3.4,D,ROLL*5C
$PTAK,FFD1,3.4*52
$HCHDG,62.1,0.0,E,,*1C
$HCHDG,62.1,0.0,E,,*1C
$GPRMC,000046.0,A,4817.08877,N,12238.16559,W,000.01,249.4,160713,016.8,E,D*29
$PGRME,2.4,M,2.4,M,3.4,M*29
$HCHDG,62.1,0.0,E,,*1C
$HCHDG,62.1,0.0,E,,*1C
$GPRMC,000046.2,A,4817.08877,N,12238.16559,W,000.01,249.4,160713,016.8,E,D*2B
$PGRME,2.4,M,2.4,M,3.4,M*29
$HCHDG,62.2,0.0,E,,*1F
$YXXDR,A,5.8,D,PTCH,A,3.9,D,ROLL*5A
$GPRMC,000046.4,A,4817.08877,N,12238.16559,W,000.00,249.4,160713,016.8,E,D*2C
$PGRME,2.4,M,2.4,M,3.4,M*29
$HCHDG,62.1,0.0,E,,*1C
$HCHDG,62.1,0.0,E,,*1C
$HCHDG,62.1,0.0,E,,*1C
$GPRMC,000046.6,A,4817.08877,N,12238.16559,W,000.01,249.4,160713,016.8,E,D*2F
$PGRME,2.4,M,2.4,M,3.4,M*29
$HCHDG,62.1,0.0,E,,*1C
$HCHDG,62.1,0.0,E,,*1C
$GPRMC,000046.8,A,4817.08877,N,12238.16559,W,000.01,249.4,160713,016.8,E,D*21
$GPRMB,A,0.00,L,OH,OH,4817.5980,N,12238.5140,W,0.6,336,0.00,V*0E
$PGRME,2.4,M,2.4,M,3.4,M*29
$YXXDR,A,5.7,D,PTCH,A,3.8,D,ROLL*54
$PTAK,FFD1,3.8*5E
$HCHDG,62.1,0.0,E,,*1C
$HCHDG,62.1,0.0,E,,*1C
$GPRMC,000047.0,A,4817.08877,N,12238.16559,W,000.00,249.4,160713,016.8,E,D*29
$PGRME,2.4,M,2.4,M,3.4,M*29
$HCHDG,62.1,0.0,E,,*1C
$HCHDG,62.1,0.0,E,,*1C
$GPRMC,000047.2,A,4817.08877,N,12238.16559,W,000.00,249.4,160713,016.8,E,D*2B
$PGRME,2.4,M,2.4,M,3.4,M*29
$HCHDG,62.1,0.0,E,,*1C
$YXXDR,A,5.9,D,PTCH,A,3.6,D,ROLL*54
$GPRMC,000047.4,A,4817.08877,N,12238.16559,W,000.01,249.4,160713,016.8,E,D*2C
$PGRME,2.4,M,2.4,M,3.4,M*29
$HCHDG,62.2,0.0,E,,*1F
$HCHDG,62.2,0.0,E,,*1F
$HCHDG,62.2,0.0,E,,*1F
$GPRMC,000047.6,A,4817.08877,N,12238.16559,W,000.01,249.4,160713,016.8,E,D*2E
$PGRME,2.4,M,2.4,M,3.4,M*29
$HCHDG,62.2,0.0,E,,*1F
$HCHDG,62.1,0.0,E,,*1C
$GPRMC,000047.8,A,4817.08877,N,12238.16559,W,000.01,249.4,160713,016.8,E,D*20
$PGRME,2.4,M,2.4,M,3.4,M*29
$YXXDR,A,5.8,D,PTCH,A,3.6,D,ROLL*55
$HCHDG,62.1,0.0,E,,*1C
$HCHDG,62.1,0.0,E,,*1C
$GPRMC,000048.0,A,4817.08877,N,12238.16559,W,000.00,249.4,160713,016.8,E,D*26
$GPRMB,A,0.00,L,OH,OH,4817.5980,N,12238.5140,W,0.6,336,0.00,V*0E
$PGRME,2.4,M,2.4,M,3.4,M*29
$HCHDG,62.1,0.0,E,,*1C
$HCHDG,62.2,0.0,E,,*1F
$GPRMC,000048.2,A,4817.08877,N,12238.16559,W,000.00,249.4,160713,016.8,E,D*24
$PGRME,2.4,M,2.4,M,3.4,M*29
$HCHDG,62.2,0.0,E,,*1F
$YXXDR,A,5.9,D,PTCH,A,3.6,D,ROLL*54
$PTAK,FFD1,3.6*50
$GPRMC,000048.4,A,4817.08877,N,12238.16560,W,000.00,249.4,160713,016.8,E,D*28
$PTAK,FFP1,HEEL,@*07
$PGRME,2.4,M,2.4,M,3.4,M*29
$HCHDG,62.2,0.0,E,,*1F
$HCHDG,62.3,0.0,E,,*1E
$HCHDG,62.3,0.0,E,,*1E
$GPRMC,000048.6,A,4817.08877,N,12238.16560,W,000.00,249.4,160713,016.8,E,D*2A
$PGRME,2.4,M,2.4,M,3.4,M*29
$HCHDG,62.2,0.0,E,,*1F
$HCHDG,62.3,0.0,E,,*1E
$GPRMC,000048.8,A,4817.08877,N,12238.16560,W,000.00,249.4,160713,016.8,E,D*24
$PGRME,2.4,M,2.4,M,3.4,M*29
$YXXDR,A,6.0,D,PTCH,A,3.8,D,ROLL*50
$HCHDG,62.3,0.0,E,,*1E
$GPRMC,000049.0,A,4817.08877,N,12238.16560,W,000.00,249.4,160713,016.8,E,D*2D
$HCHDG,62.3,0.0,E,,*1E
$PGRME,2.4,M,2.4,M,3.4,M*29
$HCHDG,62.3,0.0,E,,*1E
$HCHDG,62.3,0.0,E,,*1E
$GPRMC,000049.2,A,4817.08877,N,12238.16560,W,000.01,249.4,160713,016.8,E,D*2E
$GPRMB,A,0.00,L,OH,OH,4817.5980,N,12238.5140,W,0.6,336,0.00,V*0E
$PGRME,2.4,M,2.4,M,3.4,M*29
$HCHDG,62.3,0.0,E,,*1E
$YXXDR,A,6.0,D,PTCH,A,3.8,D,ROLL*50
$PTAK,FFD1,3.8*5E
$GPRMC,000049.4,A,4817.08877,N,12238.16560,W,000.01,249.4,160713,016.8,E,D*28
$PGRME,2.4,M,2.4,M,3.4,M*29
$HCHDG,62.3,0.0,E,,*1E
$HCHDG,62.3,0.0,E,,*1E
$GPRMC,000049.6,A,4817.08877,N,12238.16560,W,000.01,249.4,160713,016.8,E,D*2A
$HCHDG,62.4,0.0,E,,*19
$PGRME,2.4,M,2.4,M,3.4,M*29
$HCHDG,62.4,0.0,E,,*19
$GPRMC,000049.8,A,4817.08877,N,12238.16560,W,000.00,249.4,160713,016.8,E,D*25
$HCHDG,62.4,0.0,E,,*19
$PGRME,2.4,M,2.4,M,3.4,M*29
$YXXDR,A,5.8,D,PTCH,A,3.6,D,ROLL*55
$HCHDG,62.4,0.0,E,,*19
$GPRMC,000050.0,A,4817.08877,N,12238.16561,W,000.01,249.4,160713,016.8,E,D*25
$HCHDG,62.4,0.0,E,,*19
$PGRME,2.4,M,2.4,M,3.4,M*29
$HCHDG,62.4,0.0,E,,*19
$HCHDG,62.3,0.0,E,,*1E
$GPRMC,000050.2,A,4817.08877,N,12238.16561,W,000.00,249.4,160713,016.8,E,D*26
$GPRMB,A,0.00,L,OH,OH,4817.5980,N,12238.5140,W,0.6,336,0.00,V*0E
$PGRME,2.4,M,2.4,M,3.4,M*29
$HCHDG,62.4,0.0,E,,*19
$YXXDR,A,5.8,D,PTCH,A,3.3,D,ROLL*50
$PTAK,FFD1,3.3*55
$GPRMC,000050.4,A,4817.08877,N,12238.16561,W,000.01,249.4,160713,016.8,E,D*21
$PGRME,2.4,M,2.4,M,3.4,M*29
$HCHDG,62.4,0.0,E,,*19
$HCHDG,62.3,0.0,E,,*1E
$GPRMC,000050.6,A,4817.08877,N,12238.16561,W,000.00,249.4,160713,016.8,E,D*22
$HCHDG,62.3,0.0,E,,*1E
$PGRME,2.4,M,2.4,M,3.4,M*29
$HCHDG,62.4,0.0,E,,*19
$GPRMC,000050.8,A,4817.08877,N,12238.16561,W,000.01,249.4,160713,016.8,E,D*2D
$HCHDG,62.4,0.0,E,,*19
$PGRME,2.4,M,2.4,M,3.4,M*29
$YXXDR,A,6.0,D,PTCH,A,3.2,D,ROLL*5A
$HCHDG,62.4,0.0,E,,*19
$HCHDG,62.5,0.0,E,,*18
$GPRMC,000051.0,A,4817.08877,N,12238.16561,W,000.00,249.4,160713,016.8,E,D*25
$PGRME,2.4,M,2.4,M,3.4,M*29
$HCHDG,62.5,0.0,E,,*18
$HCHDG,62.5,0.0,E,,*18
$GPRMC,000051.2,A,4817.08877,N,12238.16561,W,000.00,249.4,160713,016.8,E,D*27
$PGRME,2.4,M,2.4,M,3.4,M*29
$HCHDG,62.5,0.0,E,,*18
$YXXDR,A,5.8,D,PTCH,A,3.5,D,ROLL*56
$GPRMC,000051.4,A,4817.08877,N,12238.16560,W,000.00,249.4,160713,016.8,E,D*20
$GPRMB,A,0.00,L,OH,OH,4817.5980,N,12238.5140,W,0.6,336,0.00,V*0E
$PGRME,2.4,M,2.4,M,3.4,M*29
$HCHDG,62.5,0.0,E,,*18
$HCHDG,62.5,0.0,E,,*18
$HCHDG,62.5,0.0,E,,*18
$GPRMC,000051.6,A,4817.08877,N,12238.16560,W,000.00,249.4,160713,016.8,E,D*22
$PGRME,2.4,M,2.4,M,3.4,M*29
$HCHDG,62.5,0.0,E,,*18
$HCHDG,62.5,0.0,E,,*18
$GPRMC,000051.8,A,4817.08877,N,12238.16560,W,000.00,249.4,160713,016.8,E,D*2C
$PGRME,2.4,M,2.4,M,3.4,M*29
$YXXDR,A,5.8,D,PTCH,A,3.5,D,ROLL*56
$PTAK,FFD1,3.5*53
$HCHDG,62.4,0.0,E,,*19
$HCHDG,62.6,0.0,E,,*1B
$GPRMC,000052.0,A,4817.08877,N,12238.16560,W,000.00,249.4,160713,016.8,E,D*27
$PGRME,2.4,M,2.4,M,3.4,M*29
$HCHDG,62.6,0.0,E,,*1B
$HCHDG,62.6,0.0,E,,*1B
$GPRMC,000052.2,A,4817.08877,N,12238.16560,W,000.00,249.4,160713,016.8,E,D*25
$PGRME,2.4,M,2.4,M,3.4,M*29
$HCHDG,62.7,0.0,E,,*1A
$YXXDR,A,5.9,D,PTCH,A,3.7,D,ROLL*55
$GPRMC,000052.4,A,4817.08877,N,12238.16560,W,000.00,249.4,160713,016.8,E,D*23
$GPRMB,A,0.00,L,OH,OH,4817.5980,N,12238.5140,W,0.6,336,0.00,V*0E
$PTAK,FFP1,HEEL,@*07
$PGRME,2.4,M,2.4,M,3.4,M*29
$HCHDG,62.5,0.0,E,,*18
$HCHDG,62.5,0.0,E,,*18
$HCHDG,62.5,0.0,E,,*18
$GPRMC,000052.6,A,4817.08877,N,12238.16560,W,000.00,249.4,160713,016.8,E,D*21
$PGRME,2.4,M,2.4,M,3.4,M*29
$HCHDG,62.3,0.0,E,,*1E
$HCHDG,62.4,0.0,E,,*19
$GPRMC,000052.8,A,4817.08877,N,12238.16560,W,000.00,249.4,160713,016.8,E,D*2F
$PGRME,2.4,M,2.4,M,3.4,M*29
$YXXDR,A,6.0,D,PTCH,A,3.8,D,ROLL*50
$HCHDG,62.3,0.0,E,,*1E
$HCHDG,62.3,0.0,E,,*1E
$GPRMC,000053.0,A,4817.08877,N,12238.16560,W,000.01,249.4,160713,016.8,E,D*27
$PGRME,2.4,M,2.4,M,3.4,M*29
$HCHDG,62.3,0.0,E,,*1E
$HCHDG,62.3,0.0,E,,*1E
$GPRMC,000053.2,A,4817.08877,N,12238.16560,W,000.01,249.4,160713,016.8,E,D*25
$PGRME,2.4,M,2.4,M,3.4,M*29
$HCHDG,62.2,0.0,E,,*1F
$YXXDR,A,5.9,D,PTCH,A,3.6,D,ROLL*54
$PTAK,FFD1,3.6*50
$GPRMC,000053.4,A,4817.08877,N,12238.16560,W,000.00,249.4,160713,016.8,E,D*22
$GPRMB,A,0.00,L,OH,OH,4817.5980,N,12238.5140,W,0.6,336,0.00,V*0E
$PGRME,2.4,M,2.4,M,3.4,M*29
$HCHDG,62.2,0.0,E,,*1F
$HCHDG,62.1,0.0,E,,*1C
$HCHDG,62.2,0.0,E,,*1F
$GPRMC,000053.6,A,4817.08877,N,12238.16560,W,000.00,249.4,160713,016.8,E,D*20
$PGRME,2.4,M,2.4,M,3.4,M*29
$HCHDG,62.2,0.0,E,,*1F
$HCHDG,62.3,0.0,E,,*1E
$GPRMC,000053.8,A,4817.08877,N,12238.16560,W,000.00,249.4,160713,016.8,E,D*2E
$PGRME,2.4,M,2.4,M,3.4,M*29
$YXXDR,A,5.8,D,PTCH,A,3.9,D,ROLL*5A
$HCHDG,62.2,0.0,E,,*1F
$HCHDG,62.2,0.0,E,,*1F
$GPRMC,000054.0,A,4817.08877,N,12238.16560,W,000.00,249.4,160713,016.8,E,D*21
$PGRME,2.4,M,2.4,M,3.4,M*29
$HCHDG,62.2,0.0,E,,*1F
$HCHDG,62.2,0.0,E,,*1F
$GPRMC,000054.2,A,4817.08877,N,12238.16560,W,000.00,249.4,160713,016.8,E,D*23
$PGRME,2.4,M,2.4,M,3.4,M*29
$HCHDG,62.2,0.0,E,,*1F
$YXXDR,A,5.8,D,PTCH,A,3.6,D,ROLL*55
$PTAK,FFD1,3.6*50
$GPRMC,000054.4,A,4817.08877,N,12238.16560,W,000.01,249.4,160713,016.8,E,D*24
$PGRME,2.4,M,2.4,M,3.4,M*29
$HCHDG,62.2,0.0,E,,*1F
$HCHDG,62.2,0.0,E,,*1F
$HCHDG,62.3,0.0,E,,*1E
$GPRMC,000054.6,A,4817.08877,N,12238.16561,W,000.00,249.4,160713,016.8,E,D*26
$GPRMB,A,0.00,L,OH,OH,4817.5980,N,12238.5140,W,0.6,336,0.00,V*0E
$PGRME,2.4,M,2.4,M,3.4,M*29
$HCHDG,62.3,0.0,E,,*1E
$HCHDG,62.3,0.0,E,,*1E
$GPRMC,000054.8,A,4817.08877,N,12238.16561,W,000.00,249.4,160713,016.8,E,D*28
$PGRME,2.4,M,2.4,M,3.4,M*29
$YXXDR,A,5.8,D,PTCH,A,3.6,D,ROLL*55
$HCHDG,62.3,0.0,E,,*1E
$HCHDG,62.3,0.0,E,,*1E
$GPRMC,000055.0,A,4817.08877,N,12238.16561,W,000.01,249.4,160713,016.8,E,D*20
$PGRME,2.4,M,2.4,M,3.4,M*29
$HCHDG,62.3,0.0,E,,*1E
$HCHDG,62.3,0.0,E,,*1E
$GPRMC,000055.2,A,4817.08877,N,12238.16561,W,000.00,249.4,160713,016.8,E,D*23
$PGRME,2.4,M,2.4,M,3.4,M*29
$HCHDG,62.3,0.0,E,,*1E
$YXXDR,A,5.8,D,PTCH,A,3.6,D,ROLL*55
$PTAK,FFD1,3.6*50
$GPRMC,000055.4,A,4817.08878,N,12238.16561,W,000.00,249.4,160713,016.8,E,D*2A
$PGRME,2.4,M,2.4,M,3.4,M*29
$HCHDG,62.3,0.0,E,,*1E
$HCHDG,62.3,0.0,E,,*1E
$GPRMC,000055.6,A,4817.08878,N,12238.16561,W,000.01,249.4,160713,016.8,E,D*29
$HCHDG,62.2,0.0,E,,*1F
$PGRME,2.4,M,2.4,M,3.4,M*29
$HCHDG,62.2,0.0,E,,*1F
$GPRMC,000055.8,A,4817.08878,N,12238.16561,W,000.01,249.4,160713,016.8,E,D*27
$GPRMB,A,0.00,L,OH,OH,4817.5980,N,12238.5140,W,0.6,336,0.00,V*0E
$HCHDG,62.2,0.0,E,,*1F
$PGRME,2.4,M,2.4,M,3.4,M*29
$YXXDR,A,5.8,D,PTCH,A,3.5,D,ROLL*56
$HCHDG,62.2,0.0,E,,*1F
$GPRMC,000056.0,A,4817.08878,N,12238.16561,W,000.02,249.4,160713,016.8,E,D*2F
$HCHDG,62.1,0.0,E,,*1C
$PGRME,2.4,M,2.4,M,3.4,M*29
$HCHDG,62.1,0.0,E,,*1C
$GPRMC,000056.2,A,4817.08878,N,12238.16561,W,000.01,249.4,160713,016.8,E,D*2E
$HCHDG,62.1,0.0,E,,*1C
$PGRME,2.4,M,2.4,M,3.4,M*29
$HCHDG,62.1,0.0,E,,*1C
$YXXDR,A,6.0,D,PTCH,A,3.4,D,ROLL*5C
$PTAK,FFD1,3.4*52
$GPRMC,000056.4,A,4817.08878,N,12238.16561,W,000.00,249.4,160713,016.8,E,D*29
$PTAK,FFP1,HEEL,@*07
$PGRME,2.4,M,2.4,M,3.4,M*29
$HCHDG,62.1,0.0,E,,*1C
$HCHDG,62.1,0.0,E,,*1C
$GPRMC,000056.6,A,4817.08878,N,12238.16561,W,000.00,249.4,160713,016.8,E,D*2B
$PGRME,2.4,M,2.4,M,3.4,M*29
$HCHDG,62.1,0.0,E,,*1C
$HCHDG,62.0,0.0,E,,*1D
$GPRMC,000056.8,A,4817.08877,N,12238.16560,W,000.01,249.4,160713,016.8,E,D*2A
$GPRMB,A,0.00,L,OH,OH,4817.5980,N,12238.5140,W,0.6,336,0.00,V*0E
$PGRME,2.4,M,2.4,M,3.4,M*29
$HCHDG,62.0,0.0,E,,*1D
$YXXDR,A,5.8,D,PTCH,A,3.5,D,ROLL*56
$HCHDG,62.0,0.0,E,,*1D
$GPRMC,000057.0,A,4817.08878,N,12238.16561,W,000.00,249.4,160713,016.8,E,D*2C
$PGRME,2.4,M,2.4,M,3.4,M*29
$HCHDG,62.1,0.0,E,,*1C
$HCHDG,62.0,0.0,E,,*1D
$GPRMC,000057.2,A,4817.08878,N,12238.16561,W,000.00,249.4,160713,016.8,E,D*2E
$PGRME,2.4,M,2.4,M,3.4,M*29
$HCHDG,62.1,0.0,E,,*1C
$HCHDG,62.2,0.0,E,,*1F
$YXXDR,A,5.8,D,PTCH,A,3.5,D,ROLL*56
$PTAK,FFD1,3.5*53
$GPRMC,000057.4,A,4817.08878,N,12238.16561,W,000.01,249.4,160713,016.8,E,D*29
$PGRME,2.4,M,2.4,M,3.4,M*29
$HCHDG,62.1,0.0,E,,*1C
$HCHDG,62.1,0.0,E,,*1C
$GPRMC,000057.6,A,4817.08878,N,12238.16561,W,000.00,249.4,160713,016.8,E,D*2A
$PGRME,2.4,M,2.4,M,3.4,M*29
$HCHDG,62.0,0.0,E,,*1D
$HCHDG,62.2,0.0,E,,*1F
$HCHDG,62.3,0.0,E,,*1E
$GPRMC,000057.8,A,4817.08878,N,12238.16561,W,000.01,249.4,160713,016.8,E,D*25
$GPRMB,A,0.00,L,OH,OH,4817.5980,N,12238.5140,W,0.6,336,0.00,V*0E
$PGRME,2.4,M,2.4,M,3.4,M*29
$YXXDR,A,5.8,D,PTCH,A,3.6,D,ROLL*55
$HCHDG,62.2,0.0,E,,*1F
$HCHDG,62.2,0.0,E,,*1F
$GPRMC,000058.0,A,4817.08878,N,12238.16561,W,000.01,249.4,160713,016.8,E,D*22
$PGRME,2.4,M,2.4,M,3.4,M*29
$HCHDG,62.2,0.0,E,,*1F
$HCHDG,62.1,0.0,E,,*1C
$GPRMC,000058.2,A,4817.08878,N,12238.16561,W,000.00,249.4,160713,016.8,E,D*21
$PGRME,2.4,M,2.4,M,3.4,M*29
$HCHDG,62.1,0.0,E,,*1C
$YXXDR,A,5.9,D,PTCH,A,3.6,D,ROLL*54
$GPRMC,000058.4,A,4817.08878,N,12238.16561,W,000.00,249.4,160713,016.8,E,D*27
$PGRME,2.4,M,2.4,M,3.4,M*29
$HCHDG,62.1,0.0,E,,*1C
$HCHDG,62.1,0.0,E,,*1C
$HCHDG,62.1,0.0,E,,*1C
$GPRMC,000058.6,A,4817.08878,N,12238.16561,W,000.01,249.4,160713,016.8,E,D*24
$PGRME,2.4,M,2.4,M,3.4,M*29
$HCHDG,62.0,0.0,E,,*1D
$HCHDG,61.8,0.0,E,,*16
$GPRMC,000058.8,A,4817.08877,N,12238.16561,W,000.01,249.4,160713,016.8,E,D*25
$PGRME,2.4,M,2.4,M,3.4,M*29
$YXXDR,A,6.1,D,PTCH,A,3.9,D,ROLL*50
$PTAK,FFD1,3.9*5F
$HCHDG,61.8,0.0,E,,*16
$HCHDG,61.8,0.0,E,,*16
$GPRMC,000059.0,A,4817.08877,N,12238.16561,W,000.00,249.4,160713,016.8,E,D*2D
$GPRMB,A,0.00,L,OH,OH,4817.5980,N,12238.5140,W,0.6,336,0.00,V*0E
$PGRME,2.4,M,2.4,M,3.4,M*29
$HCHDG,61.9,0.0,E,,*17
$HCHDG,61.9,0.0,E,,*17
$GPRMC,000059.2,A,4817.08877,N,12238.16561,W,000.01,249.4,160713,016.8,E,D*2E
$PGRME,2.4,M,2.4,M,3.4,M*29
$HCHDG,61.8,0.0,E,,*16
$YXXDR,A,6.0,D,PTCH,A,4.0,D,ROLL*5F
$GPRMC,000059.4,A,4817.08877,N,12238.16561,W,000.01,249.4,160713,016.8,E,D*28
$PGRME,2.4,M,2.4,M,3.4,M*29
$HCHDG,61.9,0.0,E,,*17
$HCHDG,61.8,0.0,E,,*16
$HCHDG,61.8,0.0,E,,*16
$GPRMC,000059.6,A,4817.08877,N,12238.16561,W,000.00,249.4,160713,016.8,E,D*2B
$PGRME,2.4,M,2.4,M,3.4,M*29
$HCHDG,62.1,0.0,E,,*1C
$HCHDG,62.1,0.0,E,,*1C
$GPRMC,000059.8,A,4817.08877,N,12238.16561,W,000.01,249.4,160713,016.8,E,D*24
$PGRME,2.4,M,2.4,M,3.4,M*29
$YXXDR,A,5.8,D,PTCH,A,3.6,D,ROLL*55
$PTAK,FFD1,3.6*50
$HCHDG,62.2,0.0,E,,*1F
$HCHDG,62.2,0.0,E,,*1F
$GPRMC,000100.0,A,4817.08877,N,12238.16561,W,000.00,249.4,160713,016.8,E,D*20
$GPRMB,A,0.00,L,OH,OH,4817.5980,N,12238.5140,W,0.6,336,0.00,V*0E
$PGRME,2.4,M,2.4,M,3.4,M*29
$HCHDG,62.1,0.0,E,,*1C
$HCHDG,61.9,0.0,E,,*17
$GPRMC,000100.2,A,4817.08877,N,12238.16561,W,000.00,249.4,160713,016.8,E,D*22
$PGRME,2.4,M,2.4,M,3.4,M*29
$HCHDG,62.0,0.0,E,,*1D
$YXXDR,A,6.0,D,PTCH,A,3.4,D,ROLL*5C
$GPRMC,000100.4,A,4817.08877,N,12238.16561,W,000.01,249.4,160713,016.8,E,D*25
$PGRME,2.4,M,2.4,M,3.4,M*29
$HCHDG,62.0,0.0,E,,*1D
$PTAK,FFP1,HEEL,@*07
$HCHDG,62.0,0.0,E,,*1D
$GPRMC,000100.6,A,4817.08877,N,12238.16561,W,000.00,249.4,160713,016.8,E,D*26
$HCHDG,62.0,0.0,E,,*1D
$PGRME,2.4,M,2.4,M,3.4,M*29
$HCHDG,62.0,0.0,E,,*1D
$GPRMC,000100.8,A,4817.08877,N,12238.16561,W,000.01,249.4,160713,016.8,E,D*29
$HCHDG,62.0,0.0,E,,*1D
$PGRME,2.4,M,2.4,M,3.4,M*29
$YXXDR,A,5.8,D,PTCH,A,3.5,D,ROLL*56
$HCHDG,62.1,0.0,E,,*1C
$GPRMC,000101.0,A,4817.08877,N,12238.16561,W,000.00,249.4,160713,016.8,E,D*21
$HCHDG,62.1,0.0,E,,*1C
$PGRME,2.4,M,2.4,M,3.4,M*29
$HCHDG,62.1,0.0,E,,*1C
$GPRMC,000101.2,A,4817.08877,N,12238.16561,W,000.00,249.4,160713,016.8,E,D*23
$GPRMB,A,0.00,L,OH,OH,4817.5980,N,12238.5140,W,0.6,336,0.00,V*0E
$HCHDG,61.9,0.0,E,,*17
$PGRME,2.4,M,2.4,M,3.4,M*29
$HCHDG,61.9,0.0,E,,*17
$YXXDR,A,5.8,D,PTCH,A,3.6,D,ROLL*55
$PTAK,FFD1,3.6*50
$GPRMC,000101.4,A,4817.08877,N,12238.16561,W,000.00,249.4,160713,016.8,E,D*25
$PGRME,2.4,M,2.4,M,3.4,M*29
$HCHDG,62.0,0.0,E,,*1D
$HCHDG,62.0,0.0,E,,*1D
$HCHDG,62.1,0.0,E,,*1C
$GPRMC,000101.6,A,4817.08877,N,12238.16561,W,000.00,249.4,160713,016.8,E,D*27
$PGRME,2.4,M,2.4,M,3.4,M*29
$HCHDG,62.1,0.0,E,,*1C
$GPRMC,000101.8,A,4817.08877,N,12238.16561,W,000.00,249.4,160713,016.8,E,D*29
$PGRME,2.4,M,2.4,M,3.4,M*29
$HCHDG,62.1,0.0,E,,*1C
$YXXDR,A,5.8,D,PTCH,A,3.5,D,ROLL*56
$HCHDG,62.1,0.0,E,,*1C
$HCHDG,62.1,0.0,E,,*1C
$GPRMC,000102.0,A,4817.08877,N,12238.16561,W,000.00,249.4,160713,016.8,E,D*22
$GPRMB,A,0.00,L,OH,OH,4817.5980,N,12238.5140,W,0.6,336,0.00,V*0E
$PGRME,2.4,M,2.4,M,3.4,M*29
$HCHDG,62.1,0.0,E,,*1C
$HCHDG,62.1,0.0,E,,*1C
$GPRMC,000102.2,A,4817.08877,N,12238.16561,W,000.01,249.4,160713,016.8,E,D*21
$PGRME,2.4,M,2.4,M,3.4,M*29
$HCHDG,62.1,0.0,E,,*1C
$YXXDR,A,6.0,D,PTCH,A,3.5,D,ROLL*5D
$PTAK,FFD1,3.5*53
$GPRMC,000102.4,A,4817.08877,N,12238.16562,W,000.00,249.4,160713,016.8,E,D*25
$PGRME,2.4,M,2.4,M,3.4,M*29
$HCHDG,62.1,0.0,E,,*1C
$HCHDG,62.1,0.0,E,,*1C
$HCHDG,62.1,0.0,E,,*1C
$GPRMC,000102.6,A,4817.08877,N,12238.16562,W,000.01,249.4,160713,016.8,E,D*26
$PGRME,2.4,M,2.4,M,3.4,M*29
$HCHDG,62.2,0.0,E,,*1F
$GPRMC,000102.8,A,4817.08877,N,12238.16562,W,000.00,249.4,160713,016.8,E,D*29
$HCHDG,62.3,0.0,E,,*1E
$PGRME,2.4,M,2.4,M,3.4,M*29
$YXXDR,A,5.9,D,PTCH,A,3.7,D,ROLL*55
$HCHDG,62.2,0.0,E,,*1F
$GPRMC,000103.0,A,4817.08877,N,12238.16562,W,000.00,249.4,160713,016.8,E,D*20
$HCHDG,62.1,0.0,E,,*1C
$PGRME,2.4,M,2.4,M,3.4,M*29
$HCHDG,62.1,0.0,E,,*1C
$GPRMC,000103.2,A,4817.08877,N,12238.16562,W,000.00,249.4,160713,016.8,E,D*22
$HCHDG,62.1,0.0,E,,*1C
$PGRME,2.4,M,2.4,M,3.4,M*29
$HCHDG,62.2,0.0,E,,*1F
$YXXDR,A,5.8,D,PTCH,A,3.9,D,ROLL*5A
$GPRMC,000103.4,A,4817.08877,N,12238.16562,W,000.00,249.4,160713,016.8,E,D*24
$GPRMB,A,0.00,L,OH,OH,4817.5980,N,12238.5140,W,0.6,336,0.00,V*0E
$PGRME,2.4,M,2.4,M,3.4,M*29
$HCHDG,62.2,0.0,E,,*1F
$HCHDG,62.2,0.0,E,,*1F
$HCHDG,62.0,0.0,E,,*1D
$GPRMC,000103.6,A,4817.08877,N,12238.16562,W,000.00,249.4,160713,016.8,E,D*26
$PGRME,2.4,M,2.4,M,3.4,M*29
$HCHDG,62.0,0.0,E,,*1D
$GPRMC,000103.8,A,4817.08877,N,12238.16562,W,000.00,249.4,160713,016.8,E,D*28
$HCHDG,62.0,0.0,E,,*1D
$PGRME,2.4,M,2.4,M,3.4,M*29
$YXXDR,A,5.8,D,PTCH,A,3.5,D,ROLL*56
$PTAK,FFD1,3.5*53
$HCHDG,62.0,0.0,E,,*1D
$GPRMC,000104.0,A,4817.08877,N,12238.16562,W,000.01,249.4,160713,016.8,E,D*26
$HCHDG,62.0,0.0,E,,*1D
$PGRME,2.4,M,2.4,M,3.4,M*29
$HCHDG,62.0,0.0,E,,*1D
$GPRMC,000104.2,A,4817.08877,N,12238.16562,W,000.01,249.4,160713,016.8,E,D*24
$HCHDG,62.0,0.0,E,,*1D
$PGRME,2.4,M,2.4,M,3.4,M*29
$HCHDG,62.0,0.0,E,,*1D
$YXXDR,A,6.0,D,PTCH,A,3.4,D,ROLL*5C
