$GPRMB,A,0.08,L,,OH,4817.5980,N,12238.5140,W,0.6,353,-0.84,V*23
$PTAK,FFP1,HEEL,@*07
$HCHDG,237.9,0.0,E,,*26
$PTAK,FFP1,HEEL,@*07
$PGRME,3.5,M,64.9,M,65.0,M*20
$IIVHW,,,,,05.3,N,,*1F
$IIVLW,01949,N,000.0,N*56
$HCHDG,237.8,0.0,E,,*27
$IIVWR,004,R,21.4,N,,,,*62
$YXXDR,A,6.0,D,PTCH,A,6.4,D,ROLL*59
$PTAK,FFD1,6.4*57
$IIDPT,003.3,-1.0,*40
$GPRMC,172328.0,A,4816.98613,N,12238.39538,W,005.31,253.2,190713,016.8,E,A*29
$GPRMB,A,0.08,L,,OH,4817.5980,N,12238.5140,W,0.6,353,-0.87,V*20
$PGRME,3.3,M,59.7,M,59.8,M*21
$IIMTW,+16.0,C*3F
$HCHDG,237.9,0.0,E,,*26
$HCHDG,238.2,0.0,E,,*22
$HCHDG,238.2,0.0,E,,*22
$GPRMC,172328.2,A,4816.98605,N,12238.39623,W,005.36,252.8,190713,016.8,E,A*29
$PGRME,3.1,M,53.1,M,53.2,M*2F
$HCHDG,238.4,0.0,E,,*24
$HCHDG,238.2,0.0,E,,*22
$GPRMC,172328.4,A,4816.98615,N,12238.39685,W,005.28,251.9,190713,016.8,E,A*2F
$PGRME,3.0,M,45.1,M,45.2,M*2E
$YXXDR,A,6.3,D,PTCH,A,6.3,D,ROLL*5D
$HCHDG,238.2,0.0,E,,*22
$HCHDG,238.1,0.0,E,,*21
$GPRMC,172328.6,A,4816.98626,N,12238.39713,W,005.43,253.8,190713,016.8,E,A*2D
$PGRME,3.0,M,42.9,M,43.0,M*25
$HCHDG,238.1,0.0,E,,*21
$IIMWV,004,R,21.8,N,A*1C
$IIMWV,005,T,16.0,N,A*17
$HCHDG,238.3,0.0,E,,*23
$GPRMC,172328.8,A,4816.98616,N,12238.39751,W,005.20,251.6,190713,016.8,E,A*2F
$PGRME,3.0,M,40.4,M,40.5,M*2C
$IIVHW,,,,,05.1,N,,*1D
$IIVLW,01949,N,000.0,N*56
$HCHDG,238.3,0.0,E,,*23
$IIVWR,004,R,21.8,N,,,,*6E
$YXXDR,A,5.8,D,PTCH,A,6.4,D,ROLL*52
$PTAK,FFD1,6.4*57
$IIDPT,003.3,-1.0,*40
$GPRMC,172329.0,A,4816.98608,N,12238.39774,W,005.41,253.5,190713,016.8,E,A*28
$GPRMB,A,0.08,L,,OH,4817.5980,N,12238.5140,W,0.6,353,-0.87,V*20
$PGRME,3.0,M,38.2,M,38.3,M*2C
$IIMTW,+16.0,C*3F
$HCHDG,238.2,0.0,E,,*22
$HCHDG,238.2,0.0,E,,*22
$HCHDG,238.2,0.0,E,,*22
$GPRMC,172329.2,A,4816.98595,N,12238.39795,W,005.37,253.6,190713,016.8,E,A*20
$PGRME,3.0,M,34.1,M,34.2,M*2E
$HCHDG,238.3,0.0,E,,*23
$HCHDG,238.4,0.0,E,,*24
$GPRMC,172329.4,A,4816.98576,N,12238.39842,W,005.38,253.2,190713,016.8,E,A*25
$GPRMB,A,0.08,L,,OH,4817.5980,N,12238.5140,W,0.6,353,-0.90,V*26
$PGRME,3.0,M,29.4,M,29.5,M*2C
$YXXDR,A,5.9,D,PTCH,A,6.6,D,ROLL*51
$PTAK,FFD1,6.6*55
$HCHDG,238.3,0.0,E,,*23
$HCHDG,238.4,0.0,E,,*24
$GPRMC,172329.6,A,4816.98556,N,12238.39883,W,005.27,252.6,190713,016.8,E,A*23
$PGRME,3.0,M,26.2,M,26.4,M*2B
$HCHDG,238.6,0.0,E,,*26
$IIMWV,003,R,21.2,N,A*11
$IIMWV,005,T,16.7,N,A*10
$HCHDG,238.5,0.0,E,,*25
$GPRMC,172329.8,A,4816.98541,N,12238.39926,W,005.33,252.5,190713,016.8,E,A*23
$PGRME,3.0,M,25.5,M,25.7,M*2F
$IIRMB,A,0.08,L,,OH  ,,,,,000.6,353,,V,A*4B
$HCHDG,238.6,0.0,E,,*26
$YXXDR,A,6.1,D,PTCH,A,6.3,D,ROLL*5F
$GPRMC,172330.0,A,4816.98531,N,12238.39971,W,005.43,254.0,190713,016.8,E,A*22
$IIRMC,172300,A,4816.986,N,12238.397,W,05.4,253,190713,16,E,A*1D
$PGRME,3.0,M,24.2,M,24.4,M*2B
$HCHDG,238.6,0.0,E,,*26
$IIVHW,,,,,04.3,N,,*1E
$HCHDG,238.7,0.0,E,,*27
$IIVLW,01949,N,000.0,N*56
$IIVWR,003,R,21.2,N,,,,*63
$HCHDG,238.7,0.0,E,,*27
$GPRMC,172330.2,A,4816.98516,N,12238.40014,W,005.37,253.0,190713,016.8,E,A*25
$PGRME,3.0,M,23.6,M,23.8,M*23
$IIDPT,003.3,-1.0,*40
$HCHDG,238.7,0.0,E,,*27
$HCHDG,238.8,0.0,E,,*28
$GPRMC,172330.4,A,4816.98502,N,12238.40052,W,005.40,253.7,190713,016.8,E,A*23
$PGRME,3.0,M,22.7,M,23.0,M*2B
$YXXDR,A,6.0,D,PTCH,A,6.2,D,ROLL*5F
$HCHDG,238.8,0.0,E,,*28
$HCHDG,239.2,0.0,E,,*23
$GPRMC,172330.6,A,4816.98491,N,12238.40089,W,005.41,254.2,190713,016.8,E,A*2F
$PGRME,3.0,M,21.9,M,22.1,M*26
$HCHDG,239.1,0.0,E,,*20
$IIGLL,4816.985,N,12238.398,W,172300,A,A*42
$HCHDG,238.8,0.0,E,,*28
$IIMTW,+16.0,C*3F
$GPRMC,172330.8,A,4816.98478,N,12238.40124,W,005.45,253.6,190713,016.8,E,A*27
$PGRME,3.0,M,20.9,M,21.1,M*24
$IIMWV,002,R,21.6,N,A*14
$HCHDG,238.9,0.0,E,,*29
$IIMWV,004,T,16.9,N,A*1F
$YXXDR,A,6.2,D,PTCH,A,6.0,D,ROLL*5F
$IIRMB,A,0.08,L,,OH  ,,,,,000.6,353,,V,A*4B
$GPRMC,172331.0,A,4816.98470,N,12238.40174,W,005.34,255.1,190713,016.8,E,A*24
$PGRME,3.0,M,20.0,M,20.2,M*2F
$HCHDG,238.8,0.0,E,,*28
$HCHDG,238.8,0.0,E,,*28
$IIRMC,172300,A,4816.985,N,12238.398,W,05.2,252,190713,16,E,A*16
$IIVHW,,,,,04.1,N,,*1C
$HCHDG,238.5,0.0,E,,*25
$GPRMC,172331.2,A,4816.98460,N,12238.40216,W,005.39,254.5,190713,016.8,E,A*28
$PGRME,3.0,M,19.0,M,19.3,M*2E
$IIVLW,01949,N,000.0,N*56
$HCHDG,238.6,0.0,E,,*26
$HCHDG,238.7,0.0,E,,*27
$GPRMC,172331.4,A,4816.98439,N,12238.40257,W,005.43,254.2,190713,016.8,E,A*2D
$GPRMB,A,0.07,L,,OH,4817.5980,N,12238.5140,W,0.6,353,-0.84,V*2C
$PGRME,3.0,M,17.6,M,17.9,M*22
$YXXDR,A,6.0,D,PTCH,A,5.7,D,ROLL*59
$PTAK,FFD1,5.7*57
$HCHDG,238.5,0.0,E,,*25
$HCHDG,238.5,0.0,E,,*25
$GPRMC,172331.6,A,4816.98419,N,12238.40310,W,005.38,255.2,190713,016.8,E,A*22
$PGRME,3.0,M,16.4,M,16.7,M*2E
$HCHDG,238.7,0.0,E,,*27
$IIVWR,002,R,22.4,N,,,,*67
$IIDPT,003.3,-1.0,*40
$HCHDG,238.7,0.0,E,,*27
$PTAK,FFP1,HEEL,@*07
$GPRMC,172331.8,A,4816.98398,N,12238.40367,W,005.54,254.3,190713,016.8,E,A*28
$PGRME,3.0,M,15.4,M,15.7,M*2E
$IIGLL,4816.984,N,12238.400,W,172300,A,A*45
$HCHDG,238.7,0.0,E,,*27
$IIMTW,+16.0,C*3F
$IIMWV,002,R,22.4,N,A*15
$YXXDR,A,6.1,D,PTCH,A,6.3,D,ROLL*5F
$IIMWV,002,T,17.5,N,A*14
$GPRMC,172332.0,A,4816.98388,N,12238.40413,W,005.47,255.1,190713,016.8,E,A*27
$HCHDG,238.8,0.0,E,,*28
$PGRME,3.0,M,14.6,M,14.9,M*22
$HCHDG,238.9,0.0,E,,*29
$IIRMB,A,0.08,L,,OH  ,,,,,000.6,353,,V,A*4B
$HCHDG,238.9,0.0,E,,*29
$GPRMC,172332.2,A,4816.98374,N,12238.40454,W,005.46,254.7,190713,016.8,E,A*23
$PGRME,3.0,M,13.7,M,14.0,M*2D
$IIRMC,172300,A,4816.984,N,12238.400,W,05.4,254,190713,16,E,A*11
$HCHDG,238.7,0.0,E,,*27
$HCHDG,238.8,0.0,E,,*28
$GPRMC,172332.4,A,4816.98363,N,12238.40499,W,005.45,255.0,190713,016.8,E,A*27
$PGRME,3.0,M,12.9,M,13.2,M*27
$YXXDR,A,6.3,D,PTCH,A,6.4,D,ROLL*5A
$HCHDG,238.8,0.0,E,,*28
$HCHDG,238.8,0.0,E,,*28
$GPRMC,172332.6,A,4816.98364,N,12238.40542,W,005.42,255.3,190713,016.8,E,A*21
$GPRMB,A,0.07,L,,OH,4817.5980,N,12238.5140,W,0.6,353,-0.75,V*22
$PGRME,3.0,M,12.2,M,12.6,M*29
$HCHDG,238.7,0.0,E,,*27
$IIVHW,,,,,05.0,N,,*1C
$IIVLW,01949,N,000.0,N*56
$HCHDG,238.7,0.0,E,,*27
$GPRMC,172332.8,A,4816.98365,N,12238.40585,W,005.54,254.9,190713,016.8,E,A*29
$PGRME,3.0,M,11.8,M,12.2,M*24
$IIVWR,002,R,22.5,N,,,,*66
$IIDPT,003.3,-1.0,*40
$HCHDG,238.3,0.0,E,,*23
$IIGLL,4816.984,N,12238.400,W,172300,A,A*45
$YXXDR,A,6.2,D,PTCH,A,6.8,D,ROLL*57
$PTAK,FFD1,6.8*5B
$IIMTW,+16.0,C*3F
$GPRMC,172333.0,A,4816.98356,N,12238.40636,W,005.44,254.9,190713,016.8,E,A*2A
$HCHDG,238.3,0.0,E,,*23
$PGRME,3.0,M,11.2,M,11.6,M*29
$IIMWV,002,R,22.5,N,A*14
$HCHDG,238.3,0.0,E,,*23
$IIMWV,002,T,17.9,N,A*18
$HCHDG,238.1,0.0,E,,*21
$IIRMB,A,0.07,L,,OH  ,,,,,000.6,353,,V,A*44
$GPRMC,172333.2,A,4816.98350,N,12238.40683,W,005.47,254.3,190713,016.8,E,A*29
$PGRME,3.0,M,10.9,M,11.3,M*26
$HCHDG,238.0,0.0,E,,*20
$HCHDG,238.1,0.0,E,,*21
$GPRMC,172333.4,A,4816.98348,N,12238.40721,W,005.42,254.2,190713,016.8,E,A*2B
$PGRME,3.0,M,10.5,M,10.9,M*21
$YXXDR,A,6.1,D,PTCH,A,6.9,D,ROLL*55
$HCHDG,238.1,0.0,E,,*21
$HCHDG,237.9,0.0,E,,*26
$GPRMC,172333.6,A,4816.98339,N,12238.40765,W,005.47,255.0,190713,016.8,E,A*29
$PGRME,3.0,M,9.9,M,10.3,M*1F
$HCHDG,237.9,0.0,E,,*26
$HCHDG,237.8,0.0,E,,*27
$IIRMC,172300,A,4816.983,N,12238.405,W,05.4,255,190713,16,E,A*12
$GPRMC,172333.8,A,4816.98327,N,12238.40811,W,005.46,254.7,190713,016.8,E,A*23
$GPRMB,A,0.07,L,,OH,4817.5980,N,12238.5140,W,0.6,353,-0.83,V*2B
$PGRME,3.0,M,9.3,M,9.8,M*26
$IIVHW,,,,,04.9,N,,*14
$HCHDG,237.7,0.0,E,,*28
$IIVLW,01949,N,000.0,N*56
$IIVWR,001,R,22.3,N,,,,*63
$YXXDR,A,6.0,D,PTCH,A,6.6,D,ROLL*5B
$PTAK,FFD1,6.6*55
$IIDPT,003.3,-1.0,*40
$GPRMC,172334.0,A,4816.98314,N,12238.40859,W,005.49,254.4,190713,016.8,E,A*2C
$PGRME,3.0,M,9.0,M,9.5,M*28
$HCHDG,237.5,0.0,E,,*2A
$HCHDG,237.5,0.0,E,,*2A
$IIGLL,4816.983,N,12238.405,W,172300,A,A*47
$IIMTW,+16.0,C*3F
$IIMWV,001,R,22.3,N,A*11
$HCHDG,237.5,0.0,E,,*2A
$GPRMC,172334.2,A,4816.98305,N,12238.40910,W,005.48,254.7,190713,016.8,E,A*20
$PGRME,3.0,M,8.5,M,9.0,M*29
$IIMWV,002,T,17.5,N,A*14
$HCHDG,237.6,0.0,E,,*29
$HCHDG,237.5,0.0,E,,*2A
$GPRMC,172334.4,A,4816.98292,N,12238.40951,W,005.39,253.7,190713,016.8,E,A*2D
$PGRME,3.0,M,8.1,M,8.6,M*2A
$YXXDR,A,6.1,D,PTCH,A,7.1,D,ROLL*5C
$HCHDG,237.4,0.0,E,,*2B
$HCHDG,237.2,0.0,E,,*2D
$GPRMC,172334.6,A,4816.98279,N,12238.40995,W,005.58,253.7,190713,016.8,E,A*25
$PGRME,3.0,M,7.7,M,8.3,M*26
$HCHDG,237.1,0.0,E,,*2E
$IIRMB,A,0.07,L,,OH  ,,,,,000.6,353,,V,A*44
$HCHDG,237.1,0.0,E,,*2E
$GPRMC,172334.8,A,4816.98267,N,12238.41042,W,005.59,254.8,190713,016.8,E,A*2F
$PGRME,3.0,M,7.3,M,7.9,M*27
$HCHDG,237.0,0.0,E,,*2F
$IIRMC,172300,A,4816.983,N,12238.407,W,05.4,255,190713,16,E,A*10
$IIVHW,,,,,05.0,N,,*1C
$YXXDR,A,6.0,D,PTCH,A,6.4,D,ROLL*59
$IIVLW,01949,N,000.0,N*56
$GPRMC,172335.0,A,4816.98264,N,12238.41075,W,005.47,252.8,190713,016.8,E,A*28
$GPRMB,A,0.07,L,,OH,4817.5980,N,12238.5140,W,0.6,354,-1.03,V*25
$HCHDG,236.9,0.0,E,,*27
$PGRME,3.0,M,7.1,M,7.7,M*2B
$IIVWR,003,R,22.7,N,,,,*65
$HCHDG,236.8,0.0,E,,*26
$IIDPT,003.3,-1.0,*40
$HCHDG,236.7,0.0,E,,*29
$IIGLL,4816.983,N,12238.407,W,172300,A,A*45
$GPRMC,172335.2,A,4816.98255,N,12238.41114,W,005.46,253.1,190713,016.8,E,A*27
$PGRME,3.0,M,6.7,M,7.4,M*2F
$IIMTW,+16.0,C*3F
$HCHDG,236.7,0.0,E,,*29
$HCHDG,236.7,0.0,E,,*29
$GPRMC,172335.4,A,4816.98247,N,12238.41160,W,005.49,253.0,190713,016.8,E,A*2F
$PGRME,3.0,M,6.4,M,7.1,M*29
$YXXDR,A,6.1,D,PTCH,A,5.9,D,ROLL*56
$PTAK,FFD1,5.9*59
$HCHDG,236.6,0.0,E,,*28
$HCHDG,236.4,0.0,E,,*2A
$GPRMC,172335.6,A,4816.98239,N,12238.41192,W,005.42,251.4,190713,016.8,E,A*24
$PGRME,3.0,M,6.0,M,6.8,M*25
$HCHDG,236.5,0.0,E,,*2B
$IIMWV,003,R,22.5,N,A*15
$IIMWV,004,T,17.7,N,A*10
$HCHDG,236.4,0.0,E,,*2A
$PTAK,FFP1,HEEL,@*07
$GPRMC,172335.8,A,4816.98230,N,12238.41230,W,005.53,252.0,190713,016.8,E,A*2F
$PGRME,3.0,M,5.8,M,6.5,M*23
$IIRMB,A,0.07,L,,OH  ,,,,,000.6,354,,V,A*43
$HCHDG,236.4,0.0,E,,*2A
$YXXDR,A,6.1,D,PTCH,A,5.8,D,ROLL*57
$IIRMC,172300,A,4816.982,N,12238.409,W,05.5,253,190713,16,E,A*18
$GPRMC,172336.0,A,4816.98213,N,12238.41274,W,005.43,251.5,190713,016.8,E,A*22
$GPRMB,A,0.07,L,,OH,4817.5980,N,12238.5140,W,0.6,354,-1.15,V*22
$HCHDG,236.4,0.0,E,,*2A
$PGRME,3.0,M,5.5,M,6.3,M*28
$IIVHW,,,,,05.4,N,,*18
$HCHDG,236.5,0.0,E,,*2B
$IIVLW,01949,N,000.0,N*56
$IIVWR,003,R,22.5,N,,,,*67
$HCHDG,236.5,0.0,E,,*2B
$IIDPT,003.3,-1.0,*40
$GPRMC,172336.2,A,4816.98197,N,12238.41319,W,005.46,252.1,190713,016.8,E,A*27
$PGRME,3.0,M,5.3,M,6.1,M*2C
$HCHDG,236.6,0.0,E,,*28
$HCHDG,236.6,0.0,E,,*28
$GPRMC,172336.4,A,4816.98182,N,12238.41372,W,005.47,251.8,190713,016.8,E,A*23
$PGRME,3.0,M,5.0,M,5.9,M*24
$YXXDR,A,5.8,D,PTCH,A,5.2,D,ROLL*57
$PTAK,FFD1,5.2*52
$HCHDG,236.6,0.0,E,,*28
$HCHDG,236.8,0.0,E,,*26
$GPRMC,172336.6,A,4816.98171,N,12238.41425,W,005.45,252.4,190713,016.8,E,A*25
$PGRME,3.0,M,4.8,M,5.7,M*23
$HCHDG,236.9,0.0,E,,*27
$IIGLL,4816.982,N,12238.411,W,172300,A,A*43
$HCHDG,236.9,0.0,E,,*27
$IIMTW,+16.0,C*3F
$GPRMC,172336.8,A,4816.98165,N,12238.41467,W,005.50,252.0,190713,016.8,E,A*28
$PGRME,3.0,M,4.7,M,5.6,M*2D
$IIMWV,004,R,22.3,N,A*14
$HCHDG,236.9,0.0,E,,*27
$IIMWV,004,T,17.0,N,A*17
$YXXDR,A,5.8,D,PTCH,A,4.7,D,ROLL*53
$IIRMB,A,0.07,L,,OH  ,,,,,000.6,354,,V,A*43
$GPRMC,172337.0,A,4816.98159,N,12238.41506,W,005.45,252.7,190713,016.8,E,A*2B
$PGRME,3.0,M,4.5,M,5.4,M*2D
$HCHDG,237.1,0.0,E,,*2E
$HCHDG,237.3,0.0,E,,*2C
$IIRMC,172300,A,4816.982,N,12238.411,W,05.4,251,190713,16,E,A*12
$IIVHW,,,,,05.9,N,,*15
$HCHDG,237.4,0.0,E,,*2B
$GPRMC,172337.2,A,4816.98156,N,12238.41549,W,005.47,253.8,190713,016.8,E,A*21
$GPRMB,A,0.07,L,,OH,4817.5980,N,12238.5140,W,0.6,354,-0.96,V*28
$PGRME,3.0,M,4.3,M,5.3,M*2C
$IIVLW,01949,N,000.0,N*56
$HCHDG,237.4,0.0,E,,*2B
$HCHDG,237.4,0.0,E,,*2B
$GPRMC,172337.4,A,4816.98151,N,12238.41590,W,005.52,252.7,190713,016.8,E,A*2E
$PGRME,3.0,M,4.2,M,5.2,M*2C
$YXXDR,A,5.8,D,PTCH,A,4.5,D,ROLL*51
$PTAK,FFD1,4.5*54
$HCHDG,237.7,0.0,E,,*28
$HCHDG,237.7,0.0,E,,*28
$GPRMC,172337.6,A,4816.98144,N,12238.41634,W,005.47,254.0,190713,016.8,E,A*20
$PGRME,3.0,M,4.0,M,5.1,M*2D
$HCHDG,237.9,0.0,E,,*26
$IIVWR,005,R,21.8,N,,,,*6F
$IIDPT,003.3,-1.0,*40
$HCHDG,237.9,0.0,E,,*26
$GPRMC,172337.8,A,4816.98138,N,12238.41690,W,005.43,253.6,190713,016.8,E,A*2E
$PGRME,3.0,M,3.9,M,5.0,M*22
$IIGLL,4816.981,N,12238.414,W,172300,A,A*45
$HCHDG,237.9,0.0,E,,*26
$IIMTW,+16.0,C*3F
$IIMWV,005,R,21.8,N,A*1D
$YXXDR,A,6.3,D,PTCH,A,4.8,D,ROLL*54
$IIMWV,005,T,16.3,N,A*14
$GPRMC,172338.0,A,4816.98128,N,12238.41737,W,005.53,254.0,190713,016.8,E,A*24
$PGRME,3.0,M,3.8,M,4.9,M*2B
$HCHDG,238.0,0.0,E,,*20
$HCHDG,237.9,0.0,E,,*26
$IIRMB,A,0.07,L,,OH  ,,,,,000.6,354,,V,A*43
$HCHDG,237.9,0.0,E,,*26
$GPRMC,172338.2,A,4816.98119,N,12238.41777,W,005.42,254.7,190713,016.8,E,A*27
$GPRMB,A,0.06,L,,OH,4817.5980,N,12238.5140,W,0.6,354,-0.88,V*26
$PGRME,3.0,M,3.7,M,4.8,M*25
$IIRMC,172300,A,4816.981,N,12238.414,W,05.5,252,190713,16,E,A*16
$HCHDG,238.0,0.0,E,,*20
$HCHDG,238.1,0.0,E,,*21
$GPRMC,172338.4,A,4816.98107,N,12238.41825,W,005.50,253.3,190713,016.8,E,A*26
$PGRME,3.0,M,3.6,M,4.7,M*2B
$YXXDR,A,6.1,D,PTCH,A,5.1,D,ROLL*5E
$PTAK,FFD1,5.1*51
$HCHDG,238.1,0.0,E,,*21
$HCHDG,238.2,0.0,E,,*22
$GPRMC,172338.6,A,4816.98100,N,12238.41873,W,005.51,254.7,190713,016.8,E,A*22
$PGRME,3.0,M,3.5,M,4.6,M*29
$HCHDG,238.2,0.0,E,,*22
$IIVHW,,,,,05.9,N,,*15
$IIVLW,01949,N,000.0,N*56
$HCHDG,238.4,0.0,E,,*24
$GPRMC,172338.8,A,4816.98094,N,12238.41916,W,005.41,254.8,190713,016.8,E,A*2C
$PGRME,3.0,M,3.4,M,4.6,M*28
$IIVWR,007,R,21.1,N,,,,*64
$IIDPT,003.3,-1.0,*40
$HCHDG,238.6,0.0,E,,*26
$IIGLL,4816.981,N,12238.416,W,172300,A,A*47
$YXXDR,A,5.9,D,PTCH,A,5.0,D,ROLL*54
$IIMTW,+16.0,C*3F
$GPRMC,172339.0,A,4816.98092,N,12238.41965,W,005.53,255.4,190713,016.8,E,A*29
$PGRME,3.0,M,3.3,M,4.5,M*2C
$HCHDG,238.6,0.0,E,,*26
$IIMWV,007,R,21.1,N,A*16
$HCHDG,238.8,0.0,E,,*28
$IIMWV,007,T,15.9,N,A*1F
$HCHDG,238.5,0.0,E,,*25
$IIRMB,A,0.06,L,,OH  ,,,,,000.6,354,,V,A*42
$GPRMC,172339.2,A,4816.98091,N,12238.42008,W,005.44,256.0,190713,016.8,E,A*28
$GPRMB,A,0.06,L,,OH,4817.5980,N,12238.5140,W,0.6,354,-0.78,V*29
$PGRME,3.0,M,3.3,M,4.5,M*2C
$HCHDG,238.4,0.0,E,,*24
$HCHDG,238.5,0.0,E,,*25
$GPRMC,172339.4,A,4816.98086,N,12238.42054,W,005.49,255.7,190713,016.8,E,A*28
$PGRME,3.0,M,3.2,M,4.4,M*2C
$YXXDR,A,5.8,D,PTCH,A,5.1,D,ROLL*54
$HCHDG,238.5,0.0,E,,*25
$HCHDG,238.6,0.0,E,,*26
$GPRMC,172339.6,A,4816.98071,N,12238.42095,W,005.51,255.8,190713,016.8,E,A*29
$PGRME,3.0,M,3.1,M,4.4,M*2F
$HCHDG,238.4,0.0,E,,*24
$HCHDG,238.6,0.0,E,,*26
$IIRMC,172300,A,4816.980,N,12238.419,W,05.4,254,190713,16,E,A*1D
$GPRMC,172339.8,A,4816.98064,N,12238.42129,W,005.47,255.8,190713,016.8,E,A*22
$PTAK,FFP1,HEEL,@*07
$PGRME,3.0,M,3.1,M,4.3,M*28
$IIVHW,,,,,05.8,N,,*14
$HCHDG,238.6,0.0,E,,*26
$IIVLW,01949,N,000.0,N*56
$IIVWR,009,R,20.3,N,,,,*69
$YXXDR,A,6.1,D,PTCH,A,5.8,D,ROLL*57
$PTAK,FFD1,5.8*58
$IIDPT,003.3,-1.0,*40
$GPRMC,172340.0,A,4816.98059,N,12238.42167,W,005.51,255.2,190713,016.8,E,A*2D
$PGRME,3.0,M,3.0,M,4.3,M*29
$HCHDG,238.6,0.0,E,,*26
$HCHDG,238.6,0.0,E,,*26
$IIGLL,4816.980,N,12238.419,W,172300,A,A*49
$IIMTW,+16.0,C*3F
$HCHDG,238.6,0.0,E,,*26
$IIMWV,009,R,20.3,N,A*1B
$GPRMC,172340.2,A,4816.98045,N,12238.42224,W,005.51,255.8,190713,016.8,E,A*2C
$PGRME,3.0,M,3.0,M,4.3,M*29
$IIMWV,009,T,15.0,N,A*18
$HCHDG,238.5,0.0,E,,*25
$HCHDG,238.6,0.0,E,,*26
$GPRMC,172340.4,A,4816.98036,N,12238.42271,W,005.48,255.7,190713,016.8,E,A*29
$GPRMB,A,0.06,L,,OH,4817.5980,N,12238.5140,W,0.6,354,-0.83,V*2D
$PGRME,3.0,M,3.0,M,4.3,M*29
$YXXDR,A,6.4,D,PTCH,A,6.0,D,ROLL*59
$HCHDG,238.5,0.0,E,,*25
$HCHDG,238.5,0.0,E,,*25
$GPRMC,172340.6,A,4816.98026,N,12238.42318,W,005.47,255.1,190713,016.8,E,A*2D
$PGRME,3.0,M,3.0,M,4.3,M*29
$HCHDG,238.3,0.0,E,,*23
$IIRMB,A,0.06,L,,OH  ,,,,,000.6,354,,V,A*42
$HCHDG,238.3,0.0,E,,*23
$GPRMC,172340.8,A,4816.98019,N,12238.42359,W,005.52,255.6,190713,016.8,E,A*29
$PGRME,3.0,M,3.0,M,4.3,M*29
$IIRMC,172300,A,4816.980,N,12238.419,W,05.4,254,190713,16,E,A*1D
$HCHDG,238.3,0.0,E,,*23
$IIVHW,,,,,05.3,N,,*1F
$YXXDR,A,5.9,D,PTCH,A,6.0,D,ROLL*57
$IIVLW,01949,N,000.0,N*56
$GPRMC,172341.0,A,4816.98011,N,12238.42404,W,005.52,254.9,190713,016.8,E,A*29
$PGRME,3.0,M,3.0,M,4.3,M*29
$HCHDG,238.5,0.0,E,,*25
$IIVWR,008,R,20.3,N,,,,*68
$HCHDG,238.3,0.0,E,,*23
$IIDPT,003.3,-1.0,*40
$HCHDG,238.2,0.0,E,,*22
$IIGLL,4816.980,N,12238.419,W,172300,A,A*49
$GPRMC,172341.2,A,4816.98002,N,12238.42442,W,005.51,257.0,190713,016.8,E,A*22
$PGRME,3.0,M,3.0,M,4.3,M*29
$IIMTW,+16.0,C*3F
$HCHDG,238.1,0.0,E,,*21
$HCHDG,238.1,0.0,E,,*21
$GPRMC,172341.4,A,4816.97997,N,12238.42472,W,005.40,256.0,190713,016.8,E,A*2C
$PGRME,3.0,M,3.0,M,4.3,M*29
$YXXDR,A,5.8,D,PTCH,A,5.8,D,ROLL*5D
$PTAK,FFD1,5.8*58
$HCHDG,238.1,0.0,E,,*21
$HCHDG,238.0,0.0,E,,*20
$GPRMC,172341.6,A,4816.97991,N,12238.42521,W,005.66,255.8,190713,016.8,E,A*20
$GPRMB,A,0.06,L,,OH,4817.5980,N,12238.5140,W,0.6,355,-0.86,V*29
$PGRME,3.0,M,3.0,M,4.3,M*29
$HCHDG,237.9,0.0,E,,*26
$IIMWV,006,R,20.5,N,A*12
$IIMWV,011,T,14.8,N,A*18
$HCHDG,237.8,0.0,E,,*27
$GPRMC,172341.8,A,4816.97982,N,12238.42577,W,005.42,255.4,190713,016.8,E,A*25
$PGRME,3.0,M,3.0,M,4.3,M*29
$IIRMB,A,0.06,L,,OH  ,,,,,000.6,354,,V,A*42
$HCHDG,237.7,0.0,E,,*28
$YXXDR,A,5.8,D,PTCH,A,5.8,D,ROLL*5D
$IIRMC,172300,A,4816.980,N,12238.423,W,05.5,255,190713,16,E,A*14
$GPRMC,172342.0,A,4816.97971,N,12238.42630,W,005.51,255.4,190713,016.8,E,A*20
$PGRME,3.0,M,3.0,M,4.3,M*29
$HCHDG,237.6,0.0,E,,*29
$IIVHW,,,,,05.2,N,,*1E
$HCHDG,237.6,0.0,E,,*29
$IIVLW,01949,N,000.0,N*56
$IIVWR,006,R,20.5,N,,,,*60
$HCHDG,237.5,0.0,E,,*2A
$IIDPT,003.3,-1.0,*40
$GPRMC,172342.2,A,4816.97960,N,12238.42676,W,005.53,255.0,190713,016.8,E,A*26
$PGRME,3.0,M,3.0,M,4.3,M*29
$HCHDG,237.5,0.0,E,,*2A
$HCHDG,237.3,0.0,E,,*2C
$GPRMC,172342.4,A,4816.97948,N,12238.42732,W,005.44,255.1,190713,016.8,E,A*2C
$PGRME,3.0,M,3.0,M,4.3,M*29
$YXXDR,A,6.2,D,PTCH,A,6.2,D,ROLL*5D
$PTAK,FFD1,6.2*51
$HCHDG,237.3,0.0,E,,*2C
$HCHDG,237.1,0.0,E,,*2E
$GPRMC,172342.6,A,4816.97937,N,12238.42777,W,005.55,254.6,190713,016.8,E,A*21
$GPRMB,A,0.06,L,,OH,4817.5980,N,12238.5140,W,0.6,355,-0.97,V*29
$PGRME,3.0,M,3.0,M,4.3,M*29
$HCHDG,236.9,0.0,E,,*27
$IIGLL,4816.979,N,12238.425,W,172300,A,A*40
$HCHDG,237.0,0.0,E,,*2F
$IIMTW,+16.0,C*3F
$GPRMC,172342.8,A,4816.97926,N,12238.42809,W,005.43,254.9,190713,016.8,E,A*21
$PGRME,3.0,M,3.0,M,4.3,M*29
$IIMWV,009,R,20.3,N,A*1B
$HCHDG,237.0,0.0,E,,*2F
$IIMWV,008,T,15.1,N,A*18
$YXXDR,A,5.8,D,PTCH,A,6.3,D,ROLL*55
$IIRMB,A,0.06,L,,OH  ,,,,,000.6,355,,V,A*43
$GPRMC,172343.0,A,4816.97918,N,12238.42852,W,005.53,253.7,190713,016.8,E,A*23
$PGRME,3.0,M,3.0,M,4.3,M*29
$HCHDG,237.1,0.0,E,,*2E
$HCHDG,237.1,0.0,E,,*2E
$IIRMC,172300,A,4816.979,N,12238.425,W,05.4,255,190713,16,E,A*15
$IIVHW,,,,,05.2,N,,*1E
$HCHDG,236.8,0.0,E,,*26
$GPRMC,172343.2,A,4816.97909,N,12238.42896,W,005.49,254.7,190713,016.8,E,A*25
$PGRME,3.0,M,3.0,M,4.3,M*29
$IIVLW,01949,N,000.0,N*56
$HCHDG,236.7,0.0,E,,*29
$HCHDG,236.7,0.0,E,,*29
$GPRMC,172343.4,A,4816.97906,N,12238.42938,W,005.46,254.3,190713,016.8,E,A*22
$PGRME,3.0,M,3.0,M,4.3,M*29
$YXXDR,A,5.4,D,PTCH,A,6.1,D,ROLL*5B
$HCHDG,236.7,0.0,E,,*29
$HCHDG,236.4,0.0,E,,*2A
$GPRMC,172343.6,A,4816.97900,N,12238.42994,W,005.49,253.9,190713,016.8,E,A*22
$GPRMB,A,0.06,L,,OH,4817.5980,N,12238.5140,W,0.6,355,-1.04,V*22
$PGRME,3.0,M,3.0,M,4.3,M*29
$HCHDG,236.4,0.0,E,,*2A
$IIVWR,008,R,20.4,N,,,,*6F
$IIDPT,003.3,-1.0,*40
$HCHDG,236.3,0.0,E,,*2D
$PTAK,FFP1,HEEL,@*07
$GPRMC,172343.8,A,4816.97893,N,12238.43053,W,005.47,254.0,190713,016.8,E,A*24
$PGRME,3.0,M,3.0,M,4.3,M*29
$IIGLL,4816.979,N,12238.428,W,172300,A,A*4D
$IIMTW,+16.0,C*3F
$HCHDG,236.4,0.0,E,,*2A
$IIMWV,008,R,20.4,N,A*1D
$YXXDR,A,6.0,D,PTCH,A,6.2,D,ROLL*5F
$PTAK,FFD1,6.2*51
$IIMWV,012,T,15.1,N,A*13
$GPRMC,172344.0,A,4816.97881,N,12238.43101,W,005.51,253.4,190713,016.8,E,A*2A
$PGRME,3.0,M,3.0,M,4.3,M*29
$HCHDG,236.3,0.0,E,,*2D
$PGRMT,GPS 18x-5Hz software ver. 3.20,,,,,,,,*30
$HCHDG,236.2,0.0,E,,*2C
$IIRMB,A,0.06,L,,OH  ,,,,,000.6,355,,V,A*43
$HCHDG,236.2,0.0,E,,*2C
$GPRMC,172344.2,A,4816.97869,N,12238.43148,W,005.45,253.8,190713,016.8,E,A*2A
$PGRME,3.0,M,3.0,M,4.3,M*29
$IIRMC,172300,A,4816.979,N,12238.428,W,05.4,254,190713,16,E,A*19
$HCHDG,236.2,0.0,E,,*2C
$HCHDG,236.0,0.0,E,,*2E
$GPRMC,172344.4,A,4816.97850,N,12238.43207,W,005.54,253.9,190713,016.8,E,A*2F
$PGRME,3.0,M,3.0,M,4.3,M*29
$YXXDR,A,6.0,D,PTCH,A,5.9,D,ROLL*57
$HCHDG,235.9,0.0,E,,*24
$HCHDG,235.9,0.0,E,,*24
$GPRMC,172344.6,A,4816.97839,N,12238.43258,W,005.40,254.2,190713,016.8,E,A*21
$PGRME,3.0,M,3.0,M,4.3,M*29
$HCHDG,235.6,0.0,E,,*2B
$IIVHW,,,,,04.7,N,,*1A
$IIVLW,01949,N,000.1,N*57
$HCHDG,235.5,0.0,E,,*28
$GPRMC,172344.8,A,4816.97833,N,12238.43307,W,005.49,253.6,190713,016.8,E,A*24
$GPRMB,A,0.05,L,,OH,4817.5980,N,12238.5140,W,0.6,355,-1.09,V*2C
$PGRME,3.0,M,3.0,M,4.3,M*29
$IIVWR,008,R,20.9,N,,,,*62
$IIDPT,003.3,-1.0,*40
$HCHDG,235.5,0.0,E,,*28
$IIGLL,4816.978,N,12238.430,W,172300,A,A*45
$YXXDR,A,5.7,D,PTCH,A,5.7,D,ROLL*5D
$PTAK,FFD1,5.7*57
$IIMTW,+16.0,C*3F
$GPRMC,172345.0,A,4816.97828,N,12238.43344,W,005.43,253.2,190713,016.8,E,A*2E
$PGRME,3.0,M,3.0,M,4.3,M*29
$HCHDG,235.5,0.0,E,,*28
$IIMWV,008,R,20.9,N,A*10
$HCHDG,235.4,0.0,E,,*29
$IIMWV,010,T,15.4,N,A*14
$HCHDG,235.3,0.0,E,,*2E
$IIRMB,A,0.06,L,,OH  ,,,,,000.6,355,,V,A*43
$GPRMC,172345.2,A,4816.97830,N,12238.43385,W,005.42,252.7,190713,016.8,E,A*2D
$PGRME,3.0,M,3.0,M,4.3,M*29
$HCHDG,235.2,0.0,E,,*2F
$HCHDG,235.2,0.0,E,,*2F
$GPRMC,172345.4,A,4816.97823,N,12238.43428,W,005.47,253.2,190713,016.8,E,A*28
$PGRME,3.0,M,3.0,M,4.3,M*29
$YXXDR,A,5.9,D,PTCH,A,6.0,D,ROLL*57
$HCHDG,235.2,0.0,E,,*2F
$HCHDG,235.4,0.0,E,,*29
$GPRMC,172345.6,A,4816.97819,N,12238.43464,W,005.50,253.0,190713,016.8,E,A*2F
$PGRME,3.0,M,3.0,M,4.3,M*29
$HCHDG,235.4,0.0,E,,*29
$HCHDG,235.4,0.0,E,,*29
$IIRMC,172300,A,4816.978,N,12238.433,W,05.4,253,190713,16,E,A*15
$GPRMC,172345.8,A,4816.97816,N,12238.43499,W,005.40,251.8,190713,016.8,E,A*27
$GPRMB,A,0.05,L,,OH,4817.5980,N,12238.5140,W,0.6,355,-1.25,V*22
$PGRME,3.0,M,3.0,M,4.3,M*29
$IIVHW,,,,,04.7,N,,*1A
$HCHDG,235.4,0.0,E,,*29
$IIVLW,01949,N,000.1,N*57
$IIVWR,009,R,21.5,N,,,,*6E
$YXXDR,A,6.1,D,PTCH,A,6.1,D,ROLL*5D
$PTAK,FFD1,6.1*52
$IIDPT,003.3,-1.0,*40
$GPRMC,172346.0,A,4816.97804,N,12238.43547,W,005.44,252.3,190713,016.8,E,A*21
$PGRME,3.0,M,3.0,M,4.3,M*29
$HCHDG,235.4,0.0,E,,*29
$HCHDG,235.4,0.0,E,,*29
$IIGLL,4816.978,N,12238.433,W,172300,A,A*46
$IIMTW,+16.0,C*3F
$HCHDG,235.4,0.0,E,,*29
$IIMWV,009,R,21.5,N,A*1C
$GPRMC,172346.2,A,4816.97788,N,12238.43589,W,005.45,252.5,190713,016.8,E,A*2D
$PGRME,3.0,M,3.0,M,4.3,M*29
$IIMWV,010,T,16.1,N,A*12
$HCHDG,235.2,0.0,E,,*2F
$HCHDG,235.2,0.0,E,,*2F
$GPRMC,172346.4,A,4816.97775,N,12238.43621,W,005.37,251.8,190713,016.8,E,A*23
$PGRME,3.0,M,3.0,M,4.3,M*29
$YXXDR,A,6.0,D,PTCH,A,5.7,D,ROLL*59
$HCHDG,235.4,0.0,E,,*29
$HCHDG,235.4,0.0,E,,*29
$GPRMC,172346.6,A,4816.97762,N,12238.43673,W,005.50,252.4,190713,016.8,E,A*2E
$PGRME,3.0,M,3.0,M,4.3,M*29
$HCHDG,235.3,0.0,E,,*2E
$IIRMB,A,0.05,L,,OH  ,,,,,000.6,355,,V,A*40
$HCHDG,235.4,0.0,E,,*29
$GPRMC,172346.8,A,4816.97753,N,12238.43705,W,005.38,251.8,190713,016.8,E,A*23
$PGRME,3.0,M,3.0,M,4.3,M*29
$IIRMC,172300,A,4816.978,N,12238.434,W,05.4,251,190713,16,E,A*10
$HCHDG,235.3,0.0,E,,*2E
$IIVHW,,,,,05.5,N,,*19
$YXXDR,A,6.0,D,PTCH,A,5.4,D,ROLL*5A
$IIVLW,01949,N,000.1,N*57
$GPRMC,172347.0,A,4816.97746,N,12238.43726,W,005.41,251.3,190713,016.8,E,A*2A
$GPRMB,A,0.05,L,,OH,4817.5980,N,12238.5140,W,0.6,355,-1.31,V*27
$PGRME,3.0,M,3.0,M,4.3,M*29
$HCHDG,235.3,0.0,E,,*2E
$IIVWR,006,R,21.5,N,,,,*61
$HCHDG,235.3,0.0,E,,*2E
$IIDPT,003.3,-1.0,*40
$HCHDG,235.2,0.0,E,,*2F
$IIGLL,4816.978,N,12238.434,W,172300,A,A*41
$GPRMC,172347.2,A,4816.97740,N,12238.43763,W,005.41,251.6,190713,016.8,E,A*2A
$PGRME,3.0,M,3.0,M,4.3,M*29
$IIMTW,+16.0,C*3F
$HCHDG,235.0,0.0,E,,*2D
$HCHDG,234.9,0.0,E,,*25
$GPRMC,172347.4,A,4816.97739,N,12238.43804,W,005.33,250.6,190713,016.8,E,A*28
$PGRME,3.0,M,3.0,M,4.3,M*29
$YXXDR,A,5.4,D,PTCH,A,4.9,D,ROLL*51
$PTAK,FFD1,4.9*58
$HCHDG,234.9,0.0,E,,*25
$HCHDG,234.8,0.0,E,,*24
$GPRMC,172347.6,A,4816.97733,N,12238.43842,W,005.39,251.4,190713,016.8,E,A*2B
$PGRME,3.0,M,3.0,M,4.3,M*29
$HCHDG,234.8,0.0,E,,*24
$IIMWV,005,R,22.4,N,A*12
$IIMWV,008,T,15.8,N,A*11
$HCHDG,234.7,0.0,E,,*2B
$GPRMC,172347.8,A,4816.97728,N,12238.43874,W,005.43,251.1,190713,016.8,E,A*22
$PGRME,3.0,M,3.0,M,4.3,M*29
$IIRMB,A,0.05,L,,OH  ,,,,,000.6,355,,V,A*40
$HCHDG,234.7,0.0,E,,*2B
$PTAK,FFP1,HEEL,@*07
$YXXDR,A,5.8,D,PTCH,A,4.5,D,ROLL*51
$IIRMC,172300,A,4816.977,N,12238.437,W,05.3,251,190713,16,E,A*1B
$GPRMC,172348.0,A,4816.97722,N,12238.43915,W,005.37,251.6,190713,016.8,E,A*2D
$GPRMB,A,0.05,L,,OH,4817.5980,N,12238.5140,W,0.6,355,-1.28,V*2F
$HCHDG,234.7,0.0,E,,*2B
$PGRME,3.0,M,3.0,M,4.3,M*29
$IIVHW,,,,,05.3,N,,*1F
$HCHDG,234.7,0.0,E,,*2B
$IIVLW,01949,N,000.1,N*57
$IIVWR,005,R,22.4,N,,,,*60
$HCHDG,234.7,0.0,E,,*2B
$IIDPT,003.3,-1.0,*40
$GPRMC,172348.2,A,4816.97712,N,12238.43957,W,005.47,251.3,190713,016.8,E,A*28
$PGRME,3.0,M,3.0,M,4.3,M*29
$HCHDG,234.4,0.0,E,,*28
$HCHDG,234.4,0.0,E,,*28
$GPRMC,172348.4,A,4816.97699,N,12238.43990,W,005.38,251.6,190713,016.8,E,A*2A
$PGRME,3.0,M,3.0,M,4.3,M*29
$YXXDR,A,5.9,D,PTCH,A,4.2,D,ROLL*57
$PTAK,FFD1,4.2*53
$HCHDG,234.6,0.0,E,,*2A
$HCHDG,234.4,0.0,E,,*28
$GPRMC,172348.6,A,4816.97686,N,12238.44017,W,005.42,250.8,190713,016.8,E,A*25
$PGRME,3.0,M,3.0,M,4.3,M*29
$HCHDG,234.5,0.0,E,,*29
$IIGLL,4816.977,N,12238.438,W,172300,A,A*42
$IIMTW,+16.0,C*3F
$HCHDG,234.5,0.0,E,,*29
$GPRMC,172348.8,A,4816.97675,N,12238.44051,W,005.39,250.0,190713,016.8,E,A*21
$PGRME,3.0,M,3.0,M,4.3,M*29
$IIMWV,005,R,21.7,N,A*12
$HCHDG,234.5,0.0,E,,*29
$IIMWV,007,T,17.2,N,A*16
$YXXDR,A,5.6,D,PTCH,A,3.8,D,ROLL*55
$IIRMB,A,0.05,L,,OH  ,,,,,000.6,355,,V,A*40
$GPRMC,172349.0,A,4816.97667,N,12238.44102,W,005.30,249.7,190713,016.8,E,A*2A
$PGRME,3.0,M,3.0,M,4.3,M*29
$HCHDG,234.5,0.0,E,,*29
$HCHDG,234.4,0.0,E,,*28
$IIRMC,172300,A,4816.977,N,12238.438,W,05.4,251,190713,16,E,A*13
$IIVHW,,,,,04.7,N,,*1A
$HCHDG,234.4,0.0,E,,*28
$GPRMC,172349.2,A,4816.97660,N,12238.44149,W,005.41,250.7,190713,016.8,E,A*2E
$GPRMB,A,0.05,L,,OH,4817.5980,N,12238.5140,W,0.6,356,-1.39,V*2C
$PGRME,3.0,M,3.0,M,4.3,M*29
$IIVLW,01949,N,000.1,N*57
$HCHDG,234.4,0.0,E,,*28
$HCHDG,234.6,0.0,E,,*2A
$GPRMC,172349.4,A,4816.97652,N,12238.44194,W,005.42,250.1,190713,016.8,E,A*2C
$PGRME,3.0,M,3.0,M,4.3,M*29
$YXXDR,A,6.0,D,PTCH,A,3.8,D,ROLL*50
$PTAK,FFD1,3.8*5E
$HCHDG,234.7,0.0,E,,*2B
$HCHDG,234.5,0.0,E,,*29
$GPRMC,172349.6,A,4816.97639,N,12238.44236,W,005.34,250.9,190713,016.8,E,A*21
$PGRME,3.0,M,3.0,M,4.3,M*29
$HCHDG,234.7,0.0,E,,*2B
$IIVWR,006,R,22.1,N,,,,*66
$IIDPT,003.3,-1.0,*40
$HCHDG,234.8,0.0,E,,*24
$GPRMC,172349.8,A,4816.97633,N,12238.44273,W,005.48,251.2,190713,016.8,E,A*25
$PGRME,3.0,M,3.0,M,4.3,M*29
$IIGLL,4816.976,N,12238.440,W,172300,A,A*4C
$HCHDG,234.9,0.0,E,,*25
$IIMTW,+16.0,C*3F
$IIMWV,006,R,22.1,N,A*14
$YXXDR,A,5.8,D,PTCH,A,3.5,D,ROLL*56
$IIMWV,006,T,17.1,N,A*14
$GPRMC,172350.0,A,4816.97616,N,12238.44302,W,005.41,251.4,190713,016.8,E,A*2A
$PGRME,3.0,M,3.0,M,4.3,M*29
$HCHDG,234.9,0.0,E,,*25
$HCHDG,235.1,0.0,E,,*2C
$IIRMB,A,0.05,L,,OH  ,,,,,000.6,356,,V,A*43
$HCHDG,235.1,0.0,E,,*2C
$GPRMC,172350.2,A,4816.97609,N,12238.44338,W,005.41,251.4,190713,016.8,E,A*2F
$GPRMB,A,0.05,L,,OH,4817.5980,N,12238.5140,W,0.6,356,-1.33,V*26
$PGRME,3.0,M,3.0,M,4.3,M*29
$IIRMC,172300,A,4816.976,N,12238.440,W,05.3,250,190713,16,E,A*1B
$HCHDG,235.1,0.0,E,,*2C
$HCHDG,235.2,0.0,E,,*2F
$GPRMC,172350.4,A,4816.97601,N,12238.44385,W,005.44,251.2,190713,016.8,E,A*24
$PGRME,3.0,M,3.0,M,4.3,M*29
$YXXDR,A,5.8,D,PTCH,A,3.9,D,ROLL*5A
$PTAK,FFD1,3.9*5F
$HCHDG,235.2,0.0,E,,*2F
$HCHDG,235.2,0.0,E,,*2F
$GPRMC,172350.6,A,4816.97593,N,12238.44427,W,005.40,251.7,190713,016.8,E,A*20
$PGRME,3.0,M,3.0,M,4.3,M*29
$HCHDG,235.1,0.0,E,,*2C
$IIVHW,,,,,05.0,N,,*1C
$IIVLW,01949,N,000.1,N*57
$HCHDG,235.2,0.0,E,,*2F
$GPRMC,172350.8,A,4816.97587,N,12238.44471,W,005.42,252.0,190713,016.8,E,A*2E
$PGRME,3.0,M,3.0,M,4.3,M*29
$IIVWR,006,R,21.7,N,,,,*63
$IIDPT,003.3,-1.0,*40
$HCHDG,235.2,0.0,E,,*2F
$IIGLL,4816.976,N,12238.440,W,172300,A,A*4C
$YXXDR,A,6.0,D,PTCH,A,4.7,D,ROLL*58
$IIMTW,+16.0,C*3F
$GPRMC,172351.0,A,4816.97582,N,12238.44523,W,005.48,251.8,190713,016.8,E,A*25
$PGRME,3.0,M,3.0,M,4.3,M*29
$HCHDG,235.3,0.0,E,,*2E
$IIMWV,006,R,21.7,N,A*11
$HCHDG,235.3,0.0,E,,*2E
$IIMWV,007,T,17.2,N,A*16
$HCHDG,235.3,0.0,E,,*2E
$IIRMB,A,0.05,L,,OH  ,,,,,000.6,356,,V,A*43
$GPRMC,172351.2,A,4816.97577,N,12238.44571,W,005.37,251.9,190713,016.8,E,A*23
$GPRMB,A,0.05,L,,OH,4817.5980,N,12238.5140,W,0.6,356,-1.29,V*2D
$PGRME,3.0,M,3.0,M,4.3,M*29
$HCHDG,235.2,0.0,E,,*2F
$HCHDG,235.3,0.0,E,,*2E
$GPRMC,172351.4,A,4816.97569,N,12238.44614,W,005.50,252.4,190713,016.8,E,A*25
$PGRME,3.0,M,3.0,M,4.3,M*29
$YXXDR,A,5.4,D,PTCH,A,4.7,D,ROLL*5F
$HCHDG,235.2,0.0,E,,*2F
$HCHDG,235.4,0.0,E,,*29
$GPRMC,172351.6,A,4816.97563,N,12238.44663,W,005.41,252.1,190713,016.8,E,A*28
$PGRME,3.0,M,3.0,M,4.3,M*29
$HCHDG,235.0,0.0,E,,*2D
$HCHDG,235.0,0.0,E,,*2D
$IIRMC,172300,A,4816.975,N,12238.444,W,05.4,252,190713,16,E,A*19
$GPRMC,172351.8,A,4816.97552,N,12238.44715,W,005.44,252.1,190713,016.8,E,A*21
$PGRME,3.0,M,3.0,M,4.3,M*29
$IIVHW,,,,,05.6,N,,*1A
$HCHDG,235.2,0.0,E,,*2F
$IIVLW,01949,N,000.1,N*57
$IIVWR,006,R,21.6,N,,,,*62
$YXXDR,A,5.5,D,PTCH,A,5.6,D,ROLL*5E
$PTAK,FFD1,5.6*56
$PTAK,FFP1,HEEL,@*07
$IIDPT,003.3,-1.0,*40
$GPRMC,172352.0,A,4816.97544,N,12238.44758,W,005.42,252.5,190713,016.8,E,A*26
$PGRME,3.0,M,3.0,M,4.3,M*29
$HCHDG,235.2,0.0,E,,*2F
$HCHDG,235.3,0.0,E,,*2E
$IIGLL,4816.975,N,12238.444,W,172300,A,A*4B
$IIMTW,+16.0,C*3F
$HCHDG,235.3,0.0,E,,*2E
$IIMWV,006,R,21.6,N,A*10
$GPRMC,172352.2,A,4816.97540,N,12238.44810,W,005.38,252.2,190713,016.8,E,A*29
$PGRME,3.0,M,3.0,M,4.3,M*29
$IIMWV,007,T,16.4,N,A*11
$HCHDG,235.2,0.0,E,,*2F
$HCHDG,235.4,0.0,E,,*29
$GPRMC,172352.4,A,4816.97532,N,12238.44864,W,005.41,251.7,190713,016.8,E,A*21
$GPRMB,A,0.04,L,,OH,4817.5980,N,12238.5140,W,0.6,356,-1.34,V*20
$PGRME,3.0,M,3.0,M,4.3,M*29
$YXXDR,A,6.1,D,PTCH,A,6.3,D,ROLL*5F
$HCHDG,235.2,0.0,E,,*2F
$HCHDG,235.2,0.0,E,,*2F
$GPRMC,172352.6,A,4816.97519,N,12238.44908,W,005.44,252.7,190713,016.8,E,A*27
$PGRME,3.0,M,3.0,M,4.3,M*29
$HCHDG,235.3,0.0,E,,*2E
$IIRMB,A,0.05,L,,OH  ,,,,,000.6,356,,V,A*43
$HCHDG,235.4,0.0,E,,*29
$GPRMC,172352.8,A,4816.97512,N,12238.44944,W,005.38,251.8,190713,016.8,E,A*2D
$PGRME,3.0,M,3.0,M,4.3,M*29
$HCHDG,235.4,0.0,E,,*29
$IIRMC,172300,A,4816.975,N,12238.447,W,05.4,252,190713,16,E,A*1A
$IIVHW,,,,,05.1,N,,*1D
$YXXDR,A,6.1,D,PTCH,A,6.6,D,ROLL*5A
$IIVLW,01949,N,000.1,N*57
$GPRMC,172353.0,A,4816.97500,N,12238.44992,W,005.41,251.8,190713,016.8,E,A*22
$HCHDG,235.3,0.0,E,,*2E
$PGRME,3.0,M,3.0,M,4.3,M*29
$IIVWR,006,R,21.9,N,,,,*6D
$HCHDG,235.3,0.0,E,,*2E
$IIDPT,003.3,-1.0,*40
$HCHDG,235.2,0.0,E,,*2F
$IIGLL,4816.975,N,12238.447,W,172300,A,A*48
$GPRMC,172353.2,A,4816.97489,N,12238.45033,W,005.34,251.6,190713,016.8,E,A*2F
$PGRME,3.0,M,3.0,M,4.3,M*29
$IIMTW,+16.0,C*3F
$HCHDG,235.2,0.0,E,,*2F
$HCHDG,235.1,0.0,E,,*2C
$GPRMC,172353.4,A,4816.97481,N,12238.45078,W,005.45,252.0,190713,016.8,E,A*2D
$GPRMB,A,0.04,L,,OH,4817.5980,N,12238.5140,W,0.6,356,-1.33,V*27
$PGRME,3.0,M,3.0,M,4.3,M*29
$YXXDR,A,5.6,D,PTCH,A,6.5,D,ROLL*5D
$PTAK,FFD1,6.5*56
$HCHDG,235.1,0.0,E,,*2C
$HCHDG,235.1,0.0,E,,*2C
$GPRMC,172353.6,A,4816.97468,N,12238.45135,W,005.34,251.7,190713,016.8,E,A*22
$PGRME,3.0,M,3.0,M,4.3,M*29
$HCHDG,235.1,0.0,E,,*2C
$IIMWV,004,R,21.6,N,A*12
$IIMWV,007,T,16.6,N,A*13
$HCHDG,235.0,0.0,E,,*2D
$GPRMC,172353.8,A,4816.97461,N,12238.45176,W,005.44,251.4,190713,016.8,E,A*26
$PGRME,3.0,M,3.0,M,4.3,M*29
$IIRMB,A,0.04,L,,OH  ,,,,,000.6,356,,V,A*42
$HCHDG,235.3,0.0,E,,*2E
$YXXDR,A,6.0,D,PTCH,A,6.3,D,ROLL*5E
$IIRMC,172300,A,4816.975,N,12238.449,W,05.4,251,190713,16,E,A*17
$GPRMC,172354.0,A,4816.97454,N,12238.45214,W,005.28,251.2,190713,016.8,E,A*24
$PGRME,3.0,M,3.0,M,4.3,M*29
$HCHDG,235.2,0.0,E,,*2F
$IIVHW,,,,,04.7,N,,*1A
$HCHDG,235.2,0.0,E,,*2F
$IIVLW,01949,N,000.1,N*57
$IIVWR,004,R,21.6,N,,,,*60
$HCHDG,235.2,0.0,E,,*2F
$IIDPT,003.3,-1.0,*40
$GPRMC,172354.2,A,4816.97444,N,12238.45239,W,005.40,251.6,190713,016.8,E,A*22
$PGRME,3.0,M,3.0,M,4.3,M*29
$HCHDG,235.0,0.0,E,,*2D
$HCHDG,235.0,0.0,E,,*2D
$GPRMC,172354.4,A,4816.97432,N,12238.45266,W,005.39,251.8,190713,016.8,E,A*2F
$GPRMB,A,0.04,L,,OH,4817.5980,N,12238.5140,W,0.6,356,-1.35,V*21
$PGRME,3.0,M,3.0,M,4.3,M*29
$YXXDR,A,5.9,D,PTCH,A,5.9,D,ROLL*5D
$PTAK,FFD1,5.9*59
$HCHDG,234.9,0.0,E,,*25
$HCHDG,234.9,0.0,E,,*25
$GPRMC,172354.6,A,4816.97420,N,12238.45305,W,005.36,251.8,190713,016.8,E,A*25
$PGRME,3.0,M,3.0,M,4.3,M*29
$HCHDG,234.9,0.0,E,,*25
$IIGLL,4816.974,N,12238.452,W,172300,A,A*4D
$IIMTW,+16.0,C*3F
$HCHDG,234.9,0.0,E,,*25
$GPRMC,172354.8,A,4816.97408,N,12238.45344,W,005.37,250.6,190713,016.8,E,A*2A
$PGRME,3.0,M,3.0,M,4.3,M*29
$IIMWV,004,R,21.4,N,A*10
$HCHDG,234.8,0.0,E,,*24
$IIMWV,005,T,16.9,N,A*1E
$YXXDR,A,5.4,D,PTCH,A,5.8,D,ROLL*51
$IIRMB,A,0.04,L,,OH  ,,,,,000.6,356,,V,A*42
$GPRMC,172355.0,A,4816.97403,N,12238.45377,W,005.40,252.4,190713,016.8,E,A*28
$PGRME,3.0,M,3.0,M,4.3,M*29
$HCHDG,235.0,0.0,E,,*2D
$HCHDG,234.9,0.0,E,,*25
$IIRMC,172300,A,4816.974,N,12238.452,W,05.2,251,190713,16,E,A*1A
$IIVHW,,,,,04.2,N,,*1F
$HCHDG,234.8,0.0,E,,*24
$GPRMC,172355.2,A,4816.97396,N,12238.45417,W,005.34,251.1,190713,016.8,E,A*25
$PGRME,3.0,M,3.0,M,4.3,M*29
$IIVLW,01949,N,000.1,N*57
$HCHDG,235.3,0.0,E,,*2E
$HCHDG,235.3,0.0,E,,*2E
$GPRMC,172355.4,A,4816.97387,N,12238.45471,W,005.43,251.7,190713,016.8,E,A*25
$PGRME,3.0,M,3.0,M,4.3,M*29
$YXXDR,A,6.2,D,PTCH,A,5.4,D,ROLL*58
$HCHDG,235.2,0.0,E,,*2F
$HCHDG,235.2,0.0,E,,*2F
$GPRMC,172355.6,A,4816.97381,N,12238.45506,W,005.40,251.6,190713,016.8,E,A*22
$GPRMB,A,0.04,L,,OH,4817.5980,N,12238.5140,W,0.6,356,-1.38,V*2C
$PGRME,3.0,M,3.0,M,4.3,M*29
$HCHDG,235.2,0.0,E,,*2F
$IIVWR,006,R,21.0,N,,,,*64
$IIDPT,003.4,-1.0,*47
$HCHDG,235.5,0.0,E,,*28
$GPRMC,172355.8,A,4816.97370,N,12238.45539,W,005.37,251.6,190713,016.8,E,A*2E
$PGRME,3.0,M,3.0,M,4.3,M*29
$IIGLL,4816.974,N,12238.453,W,172300,A,A*4C
$HCHDG,235.6,0.0,E,,*2B
$IIMTW,+16.0,C*3F
$IIMWV,006,R,21.0,N,A*16
$YXXDR,A,6.1,D,PTCH,A,5.5,D,ROLL*5A
$PTAK,FFD1,5.5*55
$IIMWV,005,T,17.1,N,A*17
$GPRMC,172356.0,A,4816.97356,N,12238.45580,W,005.40,251.9,190713,016.8,E,A*2C
$PTAK,FFP1,HEEL,@*07
$PGRME,3.0,M,3.0,M,4.3,M*29
$HCHDG,235.4,0.0,E,,*29
$HCHDG,235.4,0.0,E,,*29
$IIRMB,A,0.04,L,,OH  ,,,,,000.6,356,,V,A*42
$HCHDG,235.4,0.0,E,,*29
$GPRMC,172356.2,A,4816.97344,N,12238.45618,W,005.39,252.0,190713,016.8,E,A*2B
$PGRME,3.0,M,3.0,M,4.3,M*29
$IIRMC,172300,A,4816.974,N,12238.453,W,05.4,252,190713,16,E,A*1E
$HCHDG,235.4,0.0,E,,*29
$HCHDG,235.4,0.0,E,,*29
$GPRMC,172356.4,A,4816.97333,N,12238.45663,W,005.41,251.7,190713,016.8,E,A*2A
$PGRME,3.0,M,3.0,M,4.3,M*29
$YXXDR,A,6.0,D,PTCH,A,5.7,D,ROLL*59
$HCHDG,235.3,0.0,E,,*2E
$HCHDG,235.3,0.0,E,,*2E
$GPRMC,172356.6,A,4816.97321,N,12238.45707,W,005.37,252.3,190713,016.8,E,A*2E
$PGRME,3.0,M,3.0,M,4.3,M*29
$HCHDG,235.4,0.0,E,,*29
$IIVHW,,,,,04.6,N,,*1B
$IIVLW,01949,N,000.1,N*57
$HCHDG,235.4,0.0,E,,*29
$GPRMC,172356.8,A,4816.97309,N,12238.45750,W,005.42,252.2,190713,016.8,E,A*2B
$GPRMB,A,0.04,L,,OH,4817.5980,N,12238.5140,W,0.6,357,-1.34,V*21
$PGRME,3.0,M,3.0,M,4.3,M*29
$IIVWR,006,R,20.7,N,,,,*62
$IIDPT,003.4,-1.0,*47
$HCHDG,235.3,0.0,E,,*2E
$IIGLL,4816.973,N,12238.455,W,172300,A,A*4D
$YXXDR,A,5.9,D,PTCH,A,6.0,D,ROLL*57
$PTAK,FFD1,6.0*53
$IIMTW,+16.0,C*3F
$GPRMC,172357.0,A,4816.97302,N,12238.45789,W,005.39,251.5,190713,016.8,E,A*25
$HCHDG,235.4,0.0,E,,*29
$PGRME,3.0,M,3.0,M,4.3,M*29
$IIMWV,006,R,20.7,N,A*10
$HCHDG,235.2,0.0,E,,*2F
$IIMWV,008,T,16.1,N,A*1B
$HCHDG,235.1,0.0,E,,*2C
$IIRMB,A,0.04,L,,OH  ,,,,,000.6,356,,V,A*42
$GPRMC,172357.2,A,4816.97299,N,12238.45835,W,005.40,251.7,190713,016.8,E,A*20
$PGRME,3.0,M,3.0,M,4.3,M*29
$HCHDG,235.1,0.0,E,,*2C
$HCHDG,235.3,0.0,E,,*2E
$GPRMC,172357.4,A,4816.97294,N,12238.45869,W,005.41,251.6,190713,016.8,E,A*22
$PGRME,3.0,M,3.0,M,4.3,M*29
$YXXDR,A,6.2,D,PTCH,A,6.2,D,ROLL*5D
$HCHDG,235.1,0.0,E,,*2C
$HCHDG,235.1,0.0,E,,*2C
$GPRMC,172357.6,A,4816.97295,N,12238.45905,W,005.38,251.8,190713,016.8,E,A*2A
$PGRME,3.0,M,3.0,M,4.3,M*29
$HCHDG,235.1,0.0,E,,*2C
$IIRMC,172300,A,4816.973,N,12238.457,W,05.3,251,190713,16,E,A*19
$HCHDG,235.1,0.0,E,,*2C
$GPRMC,172357.8,A,4816.97287,N,12238.45938,W,005.37,252.2,190713,016.8,E,A*2F
$GPRMB,A,0.04,L,,OH,4817.5980,N,12238.5140,W,0.6,357,-1.34,V*21
$PGRME,3.0,M,3.0,M,4.3,M*29
$IIVHW,,,,,04.5,N,,*18
$HCHDG,235.1,0.0,E,,*2C
$IIVLW,01949,N,000.1,N*57
$IIVWR,006,R,21.0,N,,,,*64
$YXXDR,A,6.0,D,PTCH,A,6.4,D,ROLL*59
$PTAK,FFD1,6.4*57
$IIDPT,003.4,-1.0,*47
$GPRMC,172358.0,A,4816.97281,N,12238.45976,W,005.39,250.5,190713,016.8,E,A*2F
$HCHDG,235.1,0.0,E,,*2C
$PGRME,3.0,M,3.0,M,4.3,M*29
$HCHDG,235.1,0.0,E,,*2C
$IIGLL,4816.973,N,12238.457,W,172300,A,A*4F
$IIMTW,+16.0,C*3F
$HCHDG,235.1,0.0,E,,*2C
$IIMWV,006,R,21.0,N,A*16
$GPRMC,172358.2,A,4816.97278,N,12238.46025,W,005.37,252.1,190713,016.8,E,A*2F
$PGRME,3.0,M,3.0,M,4.3,M*29
$IIMWV,007,T,15.8,N,A*1E
$HCHDG,235.1,0.0,E,,*2C
$HCHDG,235.1,0.0,E,,*2C
$GPRMC,172358.4,A,4816.97267,N,12238.46074,W,005.53,250.9,190713,016.8,E,A*2B
$PGRME,3.0,M,3.0,M,4.3,M*29
$YXXDR,A,5.6,D,PTCH,A,6.2,D,ROLL*5A
$HCHDG,235.0,0.0,E,,*2D
$HCHDG,235.1,0.0,E,,*2C
$GPRMC,172358.6,A,4816.97255,N,12238.46131,W,005.47,252.1,190713,016.8,E,A*27
$PGRME,3.0,M,3.0,M,4.3,M*29
$HCHDG,235.0,0.0,E,,*2D
$IIRMB,A,0.04,L,,OH  ,,,,,000.6,357,,V,A*43
$HCHDG,235.0,0.0,E,,*2D
$GPRMC,172358.8,A,4816.97237,N,12238.46180,W,005.41,251.4,190713,016.8,E,A*27
$PGRME,3.0,M,3.0,M,4.3,M*29
$IIRMC,172300,A,4816.972,N,12238.459,W,05.3,250,190713,16,E,A*17
$HCHDG,235.0,0.0,E,,*2D
$IIVHW,,,,,03.6,N,,*1C
$YXXDR,A,5.8,D,PTCH,A,6.3,D,ROLL*55
$IIVLW,01949,N,000.1,N*57
$GPRMC,172359.0,A,4816.97223,N,12238.46225,W,005.43,252.2,190713,016.8,E,A*20
$GPRMB,A,0.03,L,,OH,4817.5980,N,12238.5140,W,0.6,357,-1.37,V*25
$HCHDG,234.9,0.0,E,,*25
$PGRME,3.0,M,3.0,M,4.3,M*29
$IIVWR,005,R,20.3,N,,,,*65
$HCHDG,234.9,0.0,E,,*25
$IIDPT,003.4,-1.0,*47
$HCHDG,235.0,0.0,E,,*2D
$IIGLL,4816.972,N,12238.459,W,172300,A,A*40
$GPRMC,172359.2,A,4816.97210,N,12238.46265,W,005.40,251.0,190713,016.8,E,A*24
$PGRME,3.0,M,3.0,M,4.3,M*29
$IIMTW,+16.0,C*3F
$HCHDG,235.0,0.0,E,,*2D
$HCHDG,235.0,0.0,E,,*2D
$GPRMC,172359.4,A,4816.97200,N,12238.46315,W,005.39,251.2,190713,016.8,E,A*29
$PGRME,3.0,M,3.0,M,4.3,M*29
$YXXDR,A,5.6,D,PTCH,A,6.0,D,ROLL*58
$PTAK,FFD1,6.0*53
$HCHDG,235.0,0.0,E,,*2D
$HCHDG,234.9,0.0,E,,*25
$GPRMC,172359.6,A,4816.97196,N,12238.46371,W,005.39,251.6,190713,016.8,E,A*21
$PGRME,3.0,M,3.0,M,4.3,M*29
$HCHDG,235.1,0.0,E,,*2C
$IIMWV,005,R,20.5,N,A*11
$IIMWV,006,T,16.7,N,A*13
$HCHDG,235.1,0.0,E,,*2C
$GPRMC,172359.8,A,4816.97200,N,12238.46411,W,005.39,251.4,190713,016.8,E,A*20
$PGRME,3.0,M,3.0,M,4.3,M*29
$IIRMB,A,0.03,L,,OH  ,,,,,000.6,357,,V,A*44
$HCHDG,235.2,0.0,E,,*2F
$YXXDR,A,5.6,D,PTCH,A,5.9,D,ROLL*52
$IIRMC,172300,A,4816.972,N,12238.459,W,05.3,250,190713,16,E,A*17
$GPRMC,172400.0,A,4816.97198,N,12238.46457,W,005.39,252.0,190713,016.8,E,A*24
$GPRMB,A,0.03,L,,OH,4817.5980,N,12238.5140,W,0.6,357,-1.39,V*2B
$PTAK,FFP1,HEEL,@*07
$HCHDG,235.0,0.0,E,,*2D
$PGRME,3.0,M,3.0,M,4.3,M*29
$IIVHW,,,,,03.8,N,,*12
$HCHDG,234.9,0.0,E,,*25
$IIVLW,01949,N,000.1,N*57
$IIVWR,005,R,20.5,N,,,,*63
$HCHDG,235.0,0.0,E,,*2D
$IIDPT,003.4,-1.0,*47
$GPRMC,172400.2,A,4816.97191,N,12238.46502,W,005.41,251.8,190713,016.8,E,A*2A
$PGRME,3.0,M,3.0,M,4.3,M*29
$HCHDG,234.9,0.0,E,,*25
$HCHDG,234.9,0.0,E,,*25
$GPRMC,172400.4,A,4816.97181,N,12238.46552,W,005.41,251.3,190713,016.8,E,A*23
$PGRME,3.0,M,3.0,M,4.3,M*29
$YXXDR,A,6.0,D,PTCH,A,5.8,D,ROLL*56
$HCHDG,234.9,0.0,E,,*25
$HCHDG,234.9,0.0,E,,*25
$GPRMC,172400.6,A,4816.97169,N,12238.46592,W,005.42,252.2,190713,016.8,E,A*2A
$PGRME,3.0,M,3.0,M,4.3,M*29
$HCHDG,234.9,0.0,E,,*25
$IIGLL,4816.971,N,12238.464,W,172400,A,A*4A
$IIMTW,+16.0,C*3F
$HCHDG,234.8,0.0,E,,*24
$GPRMC,172400.8,A,4816.97146,N,12238.46647,W,005.42,251.3,190713,016.8,E,A*20
$PGRME,3.0,M,3.0,M,4.3,M*29
$IIMWV,005,R,20.1,N,A*15
$HCHDG,234.8,0.0,E,,*24
$IIMWV,006,T,16.6,N,A*12
$YXXDR,A,6.0,D,PTCH,A,5.8,D,ROLL*56
$PTAK,FFD1,5.8*58
$IIRMB,A,0.03,L,,OH  ,,,,,000.6,357,,V,A*44
$GPRMC,172401.0,A,4816.97137,N,12238.46704,W,005.43,251.6,190713,016.8,E,A*2D
$PGRME,3.0,M,3.0,M,4.3,M*29
$HCHDG,234.8,0.0,E,,*24
$HCHDG,234.8,0.0,E,,*24
$IIRMC,172400,A,4816.971,N,12238.464,W,05.3,252,190713,16,E,A*1F
$IIVHW,,,,,04.3,N,,*1E
$HCHDG,234.8,0.0,E,,*24
$GPRMC,172401.2,A,4816.97131,N,12238.46742,W,005.47,251.1,190713,016.8,E,A*28
$GPRMB,A,0.03,L,,OH,4817.5980,N,12238.5140,W,0.6,357,-1.51,V*25
$PGRME,3.0,M,3.0,M,4.3,M*29
$IIVLW,01949,N,000.1,N*57
$HCHDG,234.8,0.0,E,,*24
$HCHDG,234.8,0.0,E,,*24
$GPRMC,172401.4,A,4816.97122,N,12238.46786,W,005.47,250.6,190713,016.8,E,A*22
$PGRME,3.0,M,3.0,M,4.3,M*29
$YXXDR,A,6.0,D,PTCH,A,5.9,D,ROLL*57
$HCHDG,234.8,0.0,E,,*24
$HCHDG,234.8,0.0,E,,*24
$GPRMC,172401.6,A,4816.97108,N,12238.46828,W,005.46,251.4,190713,016.8,E,A*21
$GPRMB,A,0.03,L,,OH,4817.5980,N,12238.5140,W,0.6,357,-1.49,V*2C
$PGRME,3.0,M,3.0,M,4.3,M*29
$HCHDG,234.8,0.0,E,,*24
$IIVWR,005,R,19.3,N,,,,*6F
$IIDPT,003.4,-1.0,*47
$HCHDG,234.8,0.0,E,,*24
$GPRMC,172401.8,A,4816.97100,N,12238.46867,W,005.46,250.9,190713,016.8,E,A*20
$PGRME,3.0,M,3.0,M,4.3,M*29
$IIGLL,4816.971,N,12238.467,W,172400,A,A*49
$HCHDG,234.8,0.0,E,,*24
$IIMTW,+16.0,C*3F
$IIMWV,005,R,19.3,N,A*1D
$YXXDR,A,5.8,D,PTCH,A,5.8,D,ROLL*5D
$PTAK,FFD1,5.8*58
$IIMWV,006,T,15.9,N,A*1E
$GPRMC,172402.0,A,4816.97093,N,12238.46898,W,005.45,251.4,190713,016.8,E,A*2F
$PGRME,3.0,M,3.0,M,4.3,M*29
$HCHDG,234.5,0.0,E,,*29
$IIRMB,A,0.03,L,,OH  ,,,,,000.6,357,,V,A*44
$HCHDG,234.4,0.0,E,,*28
$HCHDG,234.4,0.0,E,,*28
$GPRMC,172402.2,A,4816.97082,N,12238.46936,W,005.44,251.8,190713,016.8,E,A*25
$PGRME,3.0,M,3.0,M,4.3,M*29
$IIRMC,172400,A,4816.971,N,12238.467,W,05.4,251,190713,16,E,A*18
$HCHDG,234.3,0.0,E,,*2F
$HCHDG,234.4,0.0,E,,*28
$GPRMC,172402.4,A,4816.97067,N,12238.46975,W,005.45,251.3,190713,016.8,E,A*25
$PGRME,3.0,M,3.0,M,4.3,M*29
$YXXDR,A,6.0,D,PTCH,A,6.2,D,ROLL*5F
$HCHDG,234.3,0.0,E,,*2F
$HCHDG,234.2,0.0,E,,*2E
$GPRMC,172402.6,A,4816.97050,N,12238.47017,W,005.43,251.0,190713,016.8,E,A*2A
$PGRME,3.0,M,3.0,M,4.3,M*29
$HCHDG,234.3,0.0,E,,*2F
$IIVHW,,,,,05.1,N,,*1D
$IIVLW,01949,N,000.1,N*57
$HCHDG,234.2,0.0,E,,*2E
$GPRMC,172402.8,A,4816.97044,N,12238.47061,W,005.44,251.5,190713,016.8,E,A*22
$PGRME,3.0,M,3.0,M,4.3,M*29
$IIVWR,007,R,19.4,N,,,,*6A
$IIDPT,003.4,-1.0,*47
$HCHDG,234.2,0.0,E,,*2E
$IIGLL,4816.970,N,12238.468,W,172400,A,A*47
$YXXDR,A,5.9,D,PTCH,A,6.4,D,ROLL*53
$IIMTW,+16.0,C*3F
$GPRMC,172403.0,A,4816.97028,N,12238.47106,W,005.43,251.6,190713,016.8,E,A*25
$HCHDG,234.1,0.0,E,,*2D
$PGRME,3.0,M,3.0,M,4.3,M*29
$IIMWV,007,R,19.4,N,A*18
$HCHDG,234.1,0.0,E,,*2D
$IIMWV,007,T,14.4,N,A*13
$HCHDG,234.3,0.0,E,,*2F
$IIRMB,A,0.03,L,,OH  ,,,,,000.6,357,,V,A*44
$GPRMC,172403.2,A,4816.97013,N,12238.47157,W,005.45,251.1,190713,016.8,E,A*2A
$PGRME,3.0,M,3.0,M,4.3,M*29
$HCHDG,234.2,0.0,E,,*2E
$HCHDG,234.2,0.0,E,,*2E
$GPRMC,172403.4,A,4816.96999,N,12238.47202,W,005.44,251.2,190713,016.8,E,A*27
$GPRMB,A,0.03,L,,OH,4817.5980,N,12238.5140,W,0.6,357,-1.52,V*26
$PGRME,3.0,M,3.0,M,4.3,M*29
$YXXDR,A,5.8,D,PTCH,A,6.9,D,ROLL*5F
$HCHDG,234.1,0.0,E,,*2D
$HCHDG,234.2,0.0,E,,*2E
$GPRMC,172403.6,A,4816.96989,N,12238.47248,W,005.45,250.5,190713,016.8,E,A*2D
$PGRME,3.0,M,3.0,M,4.3,M*29
$HCHDG,234.2,0.0,E,,*2E
$IIRMC,172400,A,4816.970,N,12238.468,W,05.4,251,190713,16,E,A*16
$HCHDG,234.2,0.0,E,,*2E
$GPRMC,172403.8,A,4816.96981,N,12238.47299,W,005.45,251.5,190713,016.8,E,A*26
$PGRME,3.0,M,3.0,M,4.3,M*29
$IIVHW,,,,,04.5,N,,*18
$HCHDG,234.1,0.0,E,,*2D
$IIVLW,01949,N,000.1,N*57
$IIVWR,007,R,19.2,N,,,,*6C
$YXXDR,A,5.9,D,PTCH,A,7.2,D,ROLL*54
$PTAK,FFD1,7.2*50
$IIDPT,003.4,-1.0,*47
$GPRMC,172404.0,A,4816.96973,N,12238.47351,W,005.45,250.6,190713,016.8,E,A*23
$PTAK,FFP1,HEEL,@*07
$PGRME,3.0,M,3.0,M,4.3,M*29
$HCHDG,234.2,0.0,E,,*2E
$HCHDG,234.3,0.0,E,,*2F
$IIGLL,4816.970,N,12238.468,W,172400,A,A*47
$IIMTW,+16.0,C*3F
$IIMWV,007,R,19.2,N,A*1E
$HCHDG,234.4,0.0,E,,*28
$GPRMC,172404.2,A,4816.96963,N,12238.47401,W,005.44,250.6,190713,016.8,E,A*23
$PGRME,3.0,M,3.0,M,4.3,M*29
$IIMWV,009,T,14.1,N,A*18
$HCHDG,234.5,0.0,E,,*29
$HCHDG,234.3,0.0,E,,*2F
$GPRMC,172404.4,A,4816.96959,N,12238.47450,W,005.46,250.8,190713,016.8,E,A*24
$GPRMB,A,0.03,L,,OH,4817.5980,N,12238.5140,W,0.6,358,-1.58,V*23
$PGRME,3.0,M,3.0,M,4.3,M*29
$YXXDR,A,5.8,D,PTCH,A,7.1,D,ROLL*56
$HCHDG,234.3,0.0,E,,*2F
$HCHDG,234.4,0.0,E,,*28
$GPRMC,172404.6,A,4816.96943,N,12238.47495,W,005.46,250.6,190713,016.8,E,A*2A
$PGRME,3.0,M,3.0,M,4.3,M*29
$HCHDG,234.4,0.0,E,,*28
$IIRMB,A,0.03,L,,OH  ,,,,,000.6,357,,V,A*44
$HCHDG,234.2,0.0,E,,*2E
$GPRMC,172404.8,A,4816.96931,N,12238.47540,W,005.47,250.4,190713,016.8,E,A*2B
$PGRME,3.0,M,3.0,M,4.3,M*29
$IIRMC,172400,A,4816.969,N,12238.473,W,05.4,250,190713,16,E,A*15
$HCHDG,234.2,0.0,E,,*2E
$IIVHW,,,,,03.9,N,,*13
$YXXDR,A,6.1,D,PTCH,A,7.0,D,ROLL*5D
$IIVLW,01949,N,000.1,N*57
$GPRMC,172405.0,A,4816.96916,N,12238.47586,W,005.49,250.1,190713,016.8,E,A*26
$PGRME,3.0,M,3.0,M,4.3,M*29
$HCHDG,233.9,0.0,E,,*22
$IIVWR,006,R,18.9,N,,,,*67
$HCHDG,233.8,0.0,E,,*23
$IIDPT,003.4,-1.0,*47
$IIGLL,4816.969,N,12238.473,W,172400,A,A*45
$HCHDG,233.8,0.0,E,,*23
$GPRMC,172405.2,A,4816.96903,N,12238.47633,W,005.50,251.0,190713,016.8,E,A*25
$PGRME,3.0,M,3.0,M,4.3,M*29
$IIMTW,+16.0,C*3F
$HCHDG,233.8,0.0,E,,*23
$HCHDG,233.7,0.0,E,,*2C
$GPRMC,172405.4,A,4816.96890,N,12238.47680,W,005.49,249.4,190713,016.8,E,A*25
$GPRMB,A,0.02,L,,OH,4817.5980,N,12238.5140,W,0.6,358,-1.73,V*2B
$PGRME,3.0,M,3.0,M,4.3,M*29
$YXXDR,A,5.9,D,PTCH,A,6.6,D,ROLL*51
$PTAK,FFD1,6.6*55
$HCHDG,233.7,0.0,E,,*2C
$HCHDG,233.6,0.0,E,,*2D
$GPRMC,172405.6,A,4816.96881,N,12238.47728,W,005.48,249.9,190713,016.8,E,A*28
$PGRME,3.0,M,3.0,M,4.3,M*29
$HCHDG,233.5,0.0,E,,*2E
$IIMWV,005,R,19.2,N,A*1C
$IIMWV,007,T,14.9,N,A*1E
$HCHDG,233.3,0.0,E,,*28
$GPRMC,172405.8,A,4816.96875,N,12238.47776,W,005.65,249.6,190713,016.8,E,A*26
$PGRME,3.0,M,3.0,M,4.3,M*29
$IIRMB,A,0.03,L,,OH  ,,,,,000.6,358,,V,A*4B
$HCHDG,233.5,0.0,E,,*2E
$YXXDR,A,6.0,D,PTCH,A,6.3,D,ROLL*5E
$IIRMC,172400,A,4816.969,N,12238.475,W,05.4,250,190713,16,E,A*13
$GPRMC,172406.0,A,4816.96866,N,12238.47834,W,005.47,250.4,190713,016.8,E,A*2C
$HCHDG,233.6,0.0,E,,*2D
$PGRME,3.0,M,3.0,M,4.3,M*29
$IIVHW,,,,,03.5,N,,*1F
$HCHDG,233.6,0.0,E,,*2D
$IIVLW,01949,N,000.1,N*57
$IIVWR,005,R,19.2,N,,,,*6E
$HCHDG,233.6,0.0,E,,*2D
$IIDPT,003.4,-1.0,*47
$GPRMC,172406.2,A,4816.96855,N,12238.47875,W,005.49,249.6,190713,016.8,E,A*2F
$PGRME,3.0,M,3.0,M,4.3,M*29
$HCHDG,233.6,0.0,E,,*2D
$HCHDG,233.5,0.0,E,,*2E
$GPRMC,172406.4,A,4816.96845,N,12238.47924,W,005.49,249.6,190713,016.8,E,A*2D
$PGRME,3.0,M,3.0,M,4.3,M*29
$YXXDR,A,5.8,D,PTCH,A,6.1,D,ROLL*57
$HCHDG,233.4,0.0,E,,*2F
$HCHDG,233.5,0.0,E,,*2E
$GPRMC,172406.6,A,4816.96838,N,12238.47966,W,005.50,249.3,190713,016.8,E,A*2E
$GPRMB,A,0.02,L,,OH,4817.5980,N,12238.5140,W,0.6,358,-1.76,V*2E
$PGRME,3.0,M,3.0,M,4.3,M*29
$HCHDG,233.5,0.0,E,,*2E
$IIGLL,4816.968,N,12238.478,W,172400,A,A*4F
$HCHDG,233.6,0.0,E,,*2D
$IIMTW,+16.0,C*3F
$GPRMC,172406.8,A,4816.96829,N,12238.47993,W,005.51,249.7,190713,016.8,E,A*2F
$PGRME,3.0,M,3.0,M,4.3,M*29
$IIMWV,005,R,18.9,N,A*16
$HCHDG,233.8,0.0,E,,*23
$IIMWV,006,T,15.7,N,A*10
$YXXDR,A,6.3,D,PTCH,A,5.8,D,ROLL*55
$PTAK,FFD1,5.8*58
$IIRMB,A,0.03,L,,OH  ,,,,,000.6,358,,V,A*4B
$GPRMC,172407.0,A,4816.96822,N,12238.48028,W,005.51,249.5,190713,016.8,E,A*29
$HCHDG,233.7,0.0,E,,*2C
$PGRME,3.0,M,3.0,M,4.3,M*29
$HCHDG,233.7,0.0,E,,*2C
$IIRMC,172400,A,4816.968,N,12238.478,W,05.4,250,190713,16,E,A*1F
$IIVHW,,,,,03.6,N,,*1C
$HCHDG,233.7,0.0,E,,*2C
$GPRMC,172407.2,A,4816.96809,N,12238.48078,W,005.52,249.7,190713,016.8,E,A*26
$PGRME,3.0,M,3.0,M,4.3,M*29
$IIVLW,01949,N,000.1,N*57
$HCHDG,233.7,0.0,E,,*2C
$HCHDG,233.8,0.0,E,,*23
$GPRMC,172407.4,A,4816.96800,N,12238.48110,W,005.53,249.7,190713,016.8,E,A*27
$PGRME,3.0,M,3.0,M,4.3,M*29
$YXXDR,A,6.3,D,PTCH,A,6.0,D,ROLL*5E
$HCHDG,233.7,0.0,E,,*2C
$HCHDG,234.0,0.0,E,,*2C
$GPRMC,172407.6,A,4816.96792,N,12238.48149,W,005.52,249.2,190713,016.8,E,A*29
$PGRME,3.0,M,3.0,M,4.3,M*29
$HCHDG,234.1,0.0,E,,*2D
$IIVWR,006,R,18.8,N,,,,*66
$IIDPT,003.4,-1.0,*47
$HCHDG,234.2,0.0,E,,*2E
$GPRMC,172407.8,A,4816.96784,N,12238.48187,W,005.53,249.8,190713,016.8,E,A*29
$GPRMB,A,0.02,L,,OH,4817.5980,N,12238.5140,W,0.6,358,-1.73,V*2B
$PGRME,3.0,M,3.0,M,4.3,M*29
$IIGLL,4816.968,N,12238.480,W,172400,A,A*48
$IIMTW,+16.0,C*3F
$HCHDG,234.3,0.0,E,,*2F
$IIMWV,006,R,18.8,N,A*14
$PTAK,FFP1,HEEL,@*07
$YXXDR,A,6.3,D,PTCH,A,6.0,D,ROLL*5E
$PTAK,FFD1,6.0*53
$IIMWV,006,T,15.3,N,A*14
$GPRMC,172408.0,A,4816.96778,N,12238.48228,W,005.53,249.6,190713,016.8,E,A*25
$PGRME,3.0,M,3.0,M,4.3,M*29
$HCHDG,234.3,0.0,E,,*2F
$HCHDG,234.4,0.0,E,,*28
$IIRMB,A,0.02,L,,OH  ,,,,,000.6,358,,V,A*4A
$HCHDG,234.5,0.0,E,,*29
$GPRMC,172408.2,A,4816.96764,N,12238.48273,W,005.53,249.6,190713,016.8,E,A*24
$PGRME,3.0,M,3.0,M,4.3,M*29
$IIRMC,172400,A,4816.968,N,12238.480,W,05.5,249,190713,16,E,A*11
$HCHDG,234.6,0.0,E,,*2A
$HCHDG,234.6,0.0,E,,*2A
$GPRMC,172408.4,A,4816.96747,N,12238.48306,W,005.54,250.1,190713,016.8,E,A*28
$PGRME,3.0,M,3.0,M,4.3,M*29
$YXXDR,A,6.2,D,PTCH,A,6.0,D,ROLL*5F
$HCHDG,234.8,0.0,E,,*24
$HCHDG,234.8,0.0,E,,*24
$GPRMC,172408.6,A,4816.96740,N,12238.48349,W,005.56,250.1,190713,016.8,E,A*24
$PGRME,3.0,M,3.0,M,4.3,M*29
$HCHDG,235.0,0.0,E,,*2D
$IIVHW,,,,,04.1,N,,*1C
$IIVLW,01949,N,000.1,N*57
$HCHDG,235.0,0.0,E,,*2D
$GPRMC,172408.8,A,4816.96731,N,12238.48389,W,005.56,250.3,190713,016.8,E,A*22
$GPRMB,A,0.02,L,,OH,4817.5980,N,12238.5140,W,0.6,358,-1.71,V*29
$IIVWR,006,R,18.6,N,,,,*68
$PGRME,3.0,M,3.0,M,4.3,M*29
$IIDPT,003.4,-1.0,*47
$HCHDG,235.0,0.0,E,,*2D
$IIGLL,4816.967,N,12238.482,W,172400,A,A*45
$YXXDR,A,6.0,D,PTCH,A,6.3,D,ROLL*5E
$IIMTW,+16.0,C*3F
$GPRMC,172409.0,A,4816.96716,N,12238.48428,W,005.56,250.1,190713,016.8,E,A*20
$HCHDG,235.1,0.0,E,,*2C
$PGRME,3.0,M,3.0,M,4.3,M*29
$IIMWV,006,R,18.6,N,A*1A
$HCHDG,234.9,0.0,E,,*25
$IIMWV,007,T,14.7,N,A*10
$HCHDG,234.9,0.0,E,,*25
$IIRMB,A,0.02,L,,OH  ,,,,,000.6,358,,V,A*4A
$GPRMC,172409.2,A,4816.96703,N,12238.48464,W,005.57,250.9,190713,016.8,E,A*27
$PGRME,3.0,M,3.0,M,4.3,M*29
$HCHDG,234.9,0.0,E,,*25
$HCHDG,235.0,0.0,E,,*2D
$GPRMC,172409.4,A,4816.96693,N,12238.48503,W,005.55,250.5,190713,016.8,E,A*27
$PGRME,3.0,M,3.0,M,4.3,M*29
$YXXDR,A,5.9,D,PTCH,A,6.6,D,ROLL*51
$PTAK,FFD1,6.6*55
$HCHDG,235.1,0.0,E,,*2C
$HCHDG,235.0,0.0,E,,*2D
$GPRMC,172409.6,A,4816.96684,N,12238.48543,W,005.56,250.8,190713,016.8,E,A*29
$PGRME,3.0,M,3.0,M,4.3,M*29
$HCHDG,235.1,0.0,E,,*2C
$HCHDG,235.0,0.0,E,,*2D
$IIRMC,172400,A,4816.967,N,12238.484,W,05.5,250,190713,16,E,A*12
$GPRMC,172409.8,A,4816.96674,N,12238.48584,W,005.56,250.2,190713,016.8,E,A*29
$GPRMB,A,0.02,L,,OH,4817.5980,N,12238.5140,W,0.6,358,-1.73,V*2B
$PGRME,3.0,M,3.0,M,4.3,M*29
$IIVHW,,,,,04.4,N,,*19
$HCHDG,235.2,0.0,E,,*2F
$IIVLW,01949,N,000.1,N*57
$IIVWR,005,R,18.7,N,,,,*6A
$YXXDR,A,6.3,D,PTCH,A,6.4,D,ROLL*5A
$IIDPT,003.4,-1.0,*47
$GPRMC,172410.0,A,4816.96660,N,12238.48631,W,005.58,250.8,190713,016.8,E,A*25
$HCHDG,235.2,0.0,E,,*2F
$PGRME,3.0,M,3.0,M,4.3,M*29
$HCHDG,235.2,0.0,E,,*2F
$IIGLL,4816.967,N,12238.484,W,172400,A,A*43
$IIMTW,+16.0,C*3F
$HCHDG,235.5,0.0,E,,*28
$IIMWV,005,R,18.7,N,A*18
$GPRMC,172410.2,A,4816.96656,N,12238.48678,W,005.58,251.3,190713,016.8,E,A*25
$PGRME,3.0,M,3.0,M,4.3,M*29
$IIMWV,007,T,14.3,N,A*14
$HCHDG,235.6,0.0,E,,*2B
$HCHDG,235.7,0.0,E,,*2A
$GPRMC,172410.4,A,4816.96649,N,12238.48722,W,005.59,250.9,190713,016.8,E,A*29
$PGRME,3.0,M,3.0,M,4.3,M*29
$YXXDR,A,6.2,D,PTCH,A,6.4,D,ROLL*5B
$HCHDG,235.7,0.0,E,,*2A
$HCHDG,235.8,0.0,E,,*25
$GPRMC,172410.6,A,4816.96637,N,12238.48763,W,005.58,251.3,190713,016.8,E,A*2D
$PGRME,3.0,M,3.0,M,4.3,M*29
$HCHDG,235.7,0.0,E,,*2A
$IIRMB,A,0.02,L,,OH  ,,,,,000.6,358,,V,A*4A
$HCHDG,235.8,0.0,E,,*25
$GPRMC,172410.8,A,4816.96625,N,12238.48809,W,005.57,251.3,190713,016.8,E,A*2C
$PGRME,3.0,M,3.0,M,4.3,M*29
$IIRMC,172400,A,4816.966,N,12238.486,W,05.5,250,190713,16,E,A*11
$HCHDG,235.9,0.0,E,,*24
$IIVHW,,,,,05.1,N,,*1D
$YXXDR,A,6.4,D,PTCH,A,6.6,D,ROLL*5F
$PTAK,FFD1,6.6*55
$IIVLW,01949,N,000.1,N*57
$GPRMC,172411.0,A,4816.96613,N,12238.48854,W,005.59,250.9,190713,016.8,E,A*2D
$GPRMB,A,0.02,L,,OH,4817.5980,N,12238.5140,W,0.6,358,-1.69,V*20
$HCHDG,235.9,0.0,E,,*24
$PGRME,3.0,M,3.0,M,4.3,M*29
$IIVWR,004,R,19.0,N,,,,*6D
$HCHDG,235.8,0.0,E,,*25
$IIDPT,003.5,-1.0,*46
$IIGLL,4816.966,N,12238.486,W,172400,A,A*40
$HCHDG,235.8,0.0,E,,*25
$GPRMC,172411.2,A,4816.96602,N,12238.48898,W,005.61,251.4,190713,016.8,E,A*28
$PGRME,3.0,M,3.0,M,4.3,M*29
$IIMTW,+16.0,C*3F
$HCHDG,236.0,0.0,E,,*2E
$HCHDG,236.0,0.0,E,,*2E
$GPRMC,172411.4,A,4816.96597,N,12238.48945,W,005.62,251.5,190713,016.8,E,A*22
$PGRME,3.0,M,3.0,M,4.3,M*29
$YXXDR,A,5.6,D,PTCH,A,6.5,D,ROLL*5D
$HCHDG,236.0,0.0,E,,*2E
$HCHDG,236.0,0.0,E,,*2E
$GPRMC,172411.6,A,4816.96590,N,12238.48990,W,005.62,250.9,190713,016.8,E,A*22
$PGRME,3.0,M,3.0,M,4.3,M*29
$HCHDG,236.1,0.0,E,,*2F
$IIMWV,004,R,18.9,N,A*17
$IIMWV,005,T,13.8,N,A*1A
$HCHDG,236.1,0.0,E,,*2F
$GPRMC,172411.8,A,4816.96583,N,12238.49029,W,005.62,251.9,190713,016.8,E,A*25
$PGRME,3.0,M,3.0,M,4.3,M*29
$IIRMB,A,0.02,L,,OH  ,,,,,000.6,358,,V,A*4A
$HCHDG,236.1,0.0,E,,*2F
$YXXDR,A,5.8,D,PTCH,A,6.5,D,ROLL*53
$IIRMC,172400,A,4816.966,N,12238.488,W,05.5,250,190713,16,E,A*1F
$GPRMC,172412.0,A,4816.96580,N,12238.49072,W,005.61,251.0,190713,016.8,E,A*29
$GPRMB,A,0.02,L,,OH,4817.5980,N,12238.5140,W,0.6,359,-1.70,V*29
$HCHDG,236.2,0.0,E,,*2C
$PTAK,FFP1,HEEL,@*07
$PGRME,3.0,M,3.0,M,4.3,M*29
$IIVHW,,,,,04.7,N,,*1A
$HCHDG,236.1,0.0,E,,*2F
$IIVLW,01949,N,000.1,N*57
$IIVWR,004,R,18.9,N,,,,*65
$HCHDG,236.1,0.0,E,,*2F
$IIDPT,003.5,-1.0,*46
$GPRMC,172412.2,A,4816.96578,N,12238.49121,W,005.60,252.2,190713,016.8,E,A*2B
$PGRME,3.0,M,3.0,M,4.3,M*29
$HCHDG,236.2,0.0,E,,*2C
$HCHDG,236.2,0.0,E,,*2C
$GPRMC,172412.4,A,4816.96576,N,12238.49158,W,005.61,251.1,190713,016.8,E,A*2C
$PGRME,3.0,M,3.0,M,4.3,M*29
$YXXDR,A,6.2,D,PTCH,A,6.4,D,ROLL*5B
$PTAK,FFD1,6.4*57
$HCHDG,236.2,0.0,E,,*2C
$HCHDG,236.2,0.0,E,,*2C
$GPRMC,172412.6,A,4816.96571,N,12238.49197,W,005.60,252.3,190713,016.8,E,A*2A
$PGRME,3.0,M,3.0,M,4.3,M*29
$HCHDG,236.5,0.0,E,,*2B
$IIGLL,4816.965,N,12238.490,W,172400,A,A*44
$IIMTW,+16.0,C*3F
$HCHDG,236.2,0.0,E,,*2C
$GPRMC,172412.8,A,4816.96569,N,12238.49243,W,005.60,251.8,190713,016.8,E,A*2F
$PGRME,3.0,M,3.0,M,4.3,M*29
$IIMWV,005,R,19.2,N,A*1C
$HCHDG,236.2,0.0,E,,*2C
$IIMWV,005,T,14.2,N,A*17
$YXXDR,A,5.5,D,PTCH,A,6.4,D,ROLL*5F
$IIRMB,A,0.02,L,,OH  ,,,,,000.6,359,,V,A*4B
$GPRMC,172413.0,A,4816.96558,N,12238.49296,W,005.58,252.1,190713,016.8,E,A*2D
$HCHDG,236.2,0.0,E,,*2C
$PGRME,3.0,M,3.0,M,4.3,M*29
$HCHDG,236.3,0.0,E,,*2D
$IIRMC,172400,A,4816.965,N,12238.490,W,05.6,251,190713,16,E,A*17
$IIVHW,,,,,04.5,N,,*18
$HCHDG,236.2,0.0,E,,*2C
$GPRMC,172413.2,A,4816.96546,N,12238.49345,W,005.59,252.7,190713,016.8,E,A*28
$GPRMB,A,0.01,L,,OH,4817.5980,N,12238.5140,W,0.6,359,-1.55,V*2D
$PGRME,3.0,M,3.0,M,4.3,M*29
$IIVLW,01949,N,000.1,N*57
$HCHDG,236.3,0.0,E,,*2D
$HCHDG,236.4,0.0,E,,*2A
$GPRMC,172413.4,A,4816.96535,N,12238.49397,W,005.56,251.8,190713,016.8,E,A*26
$PGRME,3.0,M,3.0,M,4.3,M*29
$YXXDR,A,5.9,D,PTCH,A,6.4,D,ROLL*53
$PTAK,FFD1,6.4*57
$HCHDG,236.5,0.0,E,,*2B
$HCHDG,236.4,0.0,E,,*2A
$GPRMC,172413.6,A,4816.96526,N,12238.49451,W,005.57,252.5,190713,016.8,E,A*24
$PGRME,3.0,M,3.0,M,4.3,M*29
$HCHDG,236.3,0.0,E,,*2D
$IIVWR,004,R,19.4,N,,,,*69
$IIDPT,003.5,-1.0,*46
$HCHDG,236.3,0.0,E,,*2D
$GPRMC,172413.8,A,4816.96519,N,12238.49496,W,005.58,251.6,190713,016.8,E,A*22
$PGRME,3.0,M,3.0,M,4.3,M*29
$IIGLL,4816.965,N,12238.490,W,172400,A,A*44
$HCHDG,236.5,0.0,E,,*2B
$IIMTW,+16.0,C*3F
$IIMWV,004,R,19.4,N,A*1B
$YXXDR,A,5.9,D,PTCH,A,6.4,D,ROLL*53
$IIMWV,007,T,14.7,N,A*10
$GPRMC,172414.0,A,4816.96510,N,12238.49530,W,005.57,253.6,190713,016.8,E,A*24
$HCHDG,236.5,0.0,E,,*2B
$PGRME,3.0,M,3.0,M,4.3,M*29
$HCHDG,236.6,0.0,E,,*28
$IIRMB,A,0.01,L,,OH  ,,,,,000.6,359,,V,A*48
$HCHDG,236.6,0.0,E,,*28
$GPRMC,172414.2,A,4816.96501,N,12238.49569,W,005.59,251.8,190713,016.8,E,A*28
$PGRME,3.0,M,3.0,M,4.3,M*29
$IIRMC,172400,A,4816.965,N,12238.490,W,05.6,251,190713,16,E,A*17
$HCHDG,236.7,0.0,E,,*29
$HCHDG,236.7,0.0,E,,*29
$GPRMC,172414.4,A,4816.96491,N,12238.49619,W,005.60,252.9,190713,016.8,E,A*2A
$GPRMB,A,0.01,L,,OH,4817.5980,N,12238.5140,W,0.6,359,-1.55,V*2D
$PGRME,3.0,M,3.0,M,4.3,M*29
$YXXDR,A,6.0,D,PTCH,A,6.2,D,ROLL*5F
$PTAK,FFD1,6.2*51
$HCHDG,236.8,0.0,E,,*26
$HCHDG,236.6,0.0,E,,*28
$GPRMC,172414.6,A,4816.96482,N,12238.49670,W,005.60,252.3,190713,016.8,E,A*2F
$PGRME,3.0,M,3.0,M,4.3,M*29
$HCHDG,236.7,0.0,E,,*29
$IIVHW,,,,,03.3,N,,*19
$IIVLW,01949,N,000.1,N*57
$HCHDG,236.8,0.0,E,,*26
$GPRMC,172414.8,A,4816.96473,N,12238.49717,W,005.61,252.5,190713,016.8,E,A*28
$PGRME,3.0,M,3.0,M,4.3,M*29
$IIVWR,004,R,19.1,N,,,,*6C
$IIDPT,003.5,-1.0,*46
$HCHDG,236.8,0.0,E,,*26
$IIGLL,4816.965,N,12238.495,W,172400,A,A*41
$YXXDR,A,5.8,D,PTCH,A,5.8,D,ROLL*5D
$IIMTW,+16.0,C*3F
$GPRMC,172415.0,A,4816.96461,N,12238.49762,W,005.62,252.9,190713,016.8,E,A*2F
$PGRME,3.0,M,3.0,M,4.3,M*29
$HCHDG,236.7,0.0,E,,*29
$IIMWV,004,R,19.1,N,A*1E
$HCHDG,236.9,0.0,E,,*27
$IIMWV,005,T,15.9,N,A*1D
$HCHDG,236.7,0.0,E,,*29
$IIRMB,A,0.01,L,,OH  ,,,,,000.6,359,,V,A*48
$GPRMC,172415.2,A,4816.96452,N,12238.49816,W,005.61,252.0,190713,016.8,E,A*2B
$PGRME,3.0,M,3.0,M,4.3,M*29
$HCHDG,236.8,0.0,E,,*26
$HCHDG,236.8,0.0,E,,*26
$GPRMC,172415.4,A,4816.96433,N,12238.49857,W,005.63,253.0,190713,016.8,E,A*2C
$GPRMB,A,0.01,L,,OH,4817.5980,N,12238.5140,W,0.6,359,-1.56,V*2E
$PGRME,3.0,M,3.0,M,4.3,M*29
$YXXDR,A,6.1,D,PTCH,A,5.4,D,ROLL*5B
$HCHDG,236.8,0.0,E,,*26
$HCHDG,236.8,0.0,E,,*26
$GPRMC,172415.6,A,4816.96416,N,12238.49890,W,005.62,252.5,190713,016.8,E,A*27
$PGRME,3.0,M,3.0,M,4.3,M*29
$HCHDG,236.9,0.0,E,,*27
$HCHDG,236.9,0.0,E,,*27
$IIRMC,172400,A,4816.964,N,12238.497,W,05.6,252,190713,16,E,A*12
$GPRMC,172415.8,A,4816.96409,N,12238.49927,W,005.63,253.0,190713,016.8,E,A*2F
$PGRME,3.0,M,3.0,M,4.3,M*29
$IIVHW,,,,,03.1,N,,*1B
$HCHDG,236.9,0.0,E,,*27
$IIVLW,01949,N,000.1,N*57
$IIVWR,004,R,18.9,N,,,,*65
$YXXDR,A,6.2,D,PTCH,A,4.8,D,ROLL*55
$PTAK,FFD1,4.8*59
$IIDPT,003.5,-1.0,*46
$GPRMC,172416.0,A,4816.96405,N,12238.49977,W,005.62,253.7,190713,016.8,E,A*2B
$PGRME,3.0,M,3.0,M,4.3,M*29
$HCHDG,236.9,0.0,E,,*27
$HCHDG,236.8,0.0,E,,*26
$IIGLL,4816.964,N,12238.497,W,172400,A,A*42
$IIMTW,+16.0,C*3F
$IIMWV,004,R,18.9,N,A*17
$HCHDG,236.9,0.0,E,,*27
$PTAK,FFP1,HEEL,@*07
$GPRMC,172416.2,A,4816.96402,N,12238.50012,W,005.63,252.8,190713,016.8,E,A*23
$PGRME,3.0,M,3.0,M,4.3,M*29
$IIMWV,005,T,15.8,N,A*1C
$HCHDG,236.8,0.0,E,,*26
$HCHDG,236.9,0.0,E,,*27
$GPRMC,172416.4,A,4816.96397,N,12238.50058,W,005.62,253.6,190713,016.8,E,A*2E
$GPRMB,A,0.01,L,,OH,4817.5980,N,12238.5140,W,0.6,359,-1.51,V*29
$PGRME,3.0,M,3.0,M,4.3,M*29
$YXXDR,A,5.8,D,PTCH,A,5.0,D,ROLL*55
$HCHDG,236.8,0.0,E,,*26
$HCHDG,236.9,0.0,E,,*27
$GPRMC,172416.6,A,4816.96390,N,12238.50106,W,005.62,253.4,190713,016.8,E,A*23
$PGRME,3.0,M,3.0,M,4.3,M*29
$HCHDG,236.9,0.0,E,,*27
$IIRMB,A,0.01,L,,OH  ,,,,,000.6,359,,V,A*48
$HCHDG,236.6,0.0,E,,*28
$GPRMC,172416.8,A,4816.96380,N,12238.50143,W,005.62,253.3,190713,016.8,E,A*2A
$PGRME,3.0,M,3.0,M,4.3,M*29
$IIRMC,172400,A,4816.964,N,12238.499,W,05.6,253,190713,16,E,A*1D
$HCHDG,236.6,0.0,E,,*28
$IIVHW,,,,,04.1,N,,*1C
$YXXDR,A,6.0,D,PTCH,A,5.2,D,ROLL*5C
$IIVLW,01949,N,000.1,N*57
