$PGRME,2.4,M,2.4,M,3.4,M*29
$HCHDG,32.1,0.0,E,,*19
$IIVWR,102,L,06.2,N,,,,*78
$IIDPT,012.1,-1.0,*42
$HCHDG,32.1,0.0,E,,*19
$IIGLL,4844.978,N,12231.371,W,235900,A,A*43
$GPRMC,000000.6,A,4844.98065,N,12231.36737,W,004.14,055.7,010913,016.9,E,D*2D
$GPRMB,A,1.75,L,,Oh,4814.8080,N,12233.9900,W,30.2,183,-2.53,V*34
$PGRME,2.4,M,2.4,M,3.4,M*29
$IIMTW,+16.0,C*3F
$HCHDG,32.2,0.0,E,,*1A
$HCHDG,32.0,0.0,E,,*18
$GPRMC,000000.8,A,4844.98075,N,12231.36699,W,004.18,056.3,010913,016.9,E,D*2C
$PGRME,2.4,M,2.4,M,3.4,M*29
$YXXDR,A,6.0,D,PTCH,A,3.1,D,ROLL*59
$PTAK,FFD1,3.1*57
$HCHDG,31.7,0.0,E,,*1C
$HCHDG,31.5,0.0,E,,*1E
$GPRMC,000001.0,A,4844.98083,N,12231.36660,W,004.21,056.8,010913,016.9,E,D*2B
$PGRME,2.4,M,2.4,M,3.4,M*29
$HCHDG,31.3,0.0,E,,*18
$IIMWV,258,R,06.3,N,A*19
$HCHDG,31.1,0.0,E,,*1A
$IIMWV,228,T,08.0,N,A*15
$GPRMC,000001.2,A,4844.98090,N,12231.36634,W,004.23,056.9,010913,016.9,E,D*29
$PGRME,2.4,M,2.4,M,3.4,M*29
$HCHDG,31.3,0.0,E,,*18
$PTAK,FFP1,HEEL,@*07
$IIRMB,A,1.75,L,,Oh  ,,,,,030.2,183,,V,A*68
$YXXDR,A,6.0,D,PTCH,A,3.1,D,ROLL*59
$HCHDG,31.4,0.0,E,,*1F
$IIRMC,000000,A,4844.980,N,12231.368,W,04.0,055,310813,16,E,A*16
$GPRMC,000001.4,A,4844.98108,N,12231.36602,W,004.23,055.4,010913,016.9,E,D*24
$PGRME,2.4,M,2.4,M,3.4,M*29
$HCHDG,31.5,0.0,E,,*1E
$IIVHW,,,,,04.1,N,,*1C
$IIVLW,02218,N,026.7,N*59
$HCHDG,31.5,0.0,E,,*1E
$IIVWR,102,L,06.3,N,,,,*79
$GPRMC,000001.6,A,4844.98126,N,12231.36573,W,004.24,054.4,010913,016.9,E,D*29
$IIDPT,012.1,-1.0,*42
$PGRME,2.4,M,2.4,M,3.4,M*29
$HCHDG,31.6,0.0,E,,*1D
$HCHDG,32.0,0.0,E,,*18
$GPRMC,000001.8,A,4844.98139,N,12231.36537,W,004.22,053.6,010913,016.9,E,D*2A
$GPRMB,A,1.75,L,,Oh,4814.8080,N,12233.9900,W,30.2,183,-2.70,V*35
$PGRME,2.4,M,2.4,M,3.4,M*29
$YXXDR,A,5.9,D,PTCH,A,4.3,D,ROLL*56
$PTAK,FFD1,4.3*52
$HCHDG,32.1,0.0,E,,*19
$HCHDG,32.1,0.0,E,,*19
$GPRMC,000002.0,A,4844.98152,N,12231.36512,W,004.22,054.1,010913,016.9,E,D*2B
$PGRME,2.4,M,2.4,M,3.4,M*29
$HCHDG,32.2,0.0,E,,*1A
$HCHDG,32.3,0.0,E,,*1B
$IIGLL,4844.980,N,12231.366,W,000000,A,A*4F
$IIMTW,+16.0,C*3F
$GPRMC,000002.2,A,4844.98165,N,12231.36482,W,004.21,054.4,010913,016.9,E,D*23
$PGRME,2.4,M,2.4,M,3.4,M*29
$HCHDG,32.3,0.0,E,,*1B
$IIMWV,258,R,06.3,N,A*19
$IIMWV,228,T,08.2,N,A*17
$YXXDR,A,5.8,D,PTCH,A,4.1,D,ROLL*55
$HCHDG,32.3,0.0,E,,*1B
$IIRMB,A,1.75,L,,Oh  ,,,,,030.2,183,,V,A*68
$GPRMC,000002.4,A,4844.98177,N,12231.36454,W,004.22,054.4,010913,016.9,E,D*2E
$PGRME,2.4,M,2.4,M,3.4,M*29
$HCHDG,32.4,0.0,E,,*1C
$IIRMC,000000,A,4844.980,N,12231.366,W,04.2,056,310813,16,E,A*19
$HCHDG,32.2,0.0,E,,*1A
$IIVHW,,,,,04.2,N,,*1F
$GPRMC,000002.6,A,4844.98190,N,12231.36440,W,004.22,055.4,010913,016.9,E,D*21
$PGRME,2.4,M,2.4,M,3.4,M*29
$IIVLW,02218,N,026.7,N*59
$HCHDG,32.3,0.0,E,,*1B
$HCHDG,32.4,0.0,E,,*1C
$GPRMC,000002.8,A,4844.98196,N,12231.36420,W,004.23,054.6,010913,016.9,E,D*2D
$PGRME,2.4,M,2.4,M,3.4,M*29
$YXXDR,A,6.0,D,PTCH,A,3.7,D,ROLL*5F
$HCHDG,32.2,0.0,E,,*1A
$HCHDG,32.3,0.0,E,,*1B
$GPRMC,000003.0,A,4844.98206,N,12231.36397,W,004.21,054.3,010913,016.9,E,D*22
$GPRMB,A,1.75,L,,Oh,4814.8080,N,12233.9900,W,30.2,183,-2.65,V*31
$PGRME,2.4,M,2.4,M,3.4,M*29
$HCHDG,32.5,0.0,E,,*1D
$IIVWR,103,L,06.4,N,,,,*7F
$HCHDG,32.5,0.0,E,,*1D
$IIDPT,011.9,-1.0,*49
$GPRMC,000003.2,A,4844.98216,N,12231.36375,W,004.20,053.8,010913,016.9,E,D*20
$PGRME,2.4,M,2.4,M,3.4,M*29
$HCHDG,32.4,0.0,E,,*1C
$IIGLL,4844.981,N,12231.365,W,000000,A,A*4D
$IIMTW,+16.0,C*3F
$YXXDR,A,6.0,D,PTCH,A,3.5,D,ROLL*5D
$PTAK,FFD1,3.5*53
$IIMWV,257,R,06.4,N,A*11
$HCHDG,32.7,0.0,E,,*1F
$IIMWV,228,T,08.2,N,A*17
$GPRMC,000003.4,A,4844.98232,N,12231.36353,W,004.16,055.9,010913,016.9,E,D*26
$PGRME,2.4,M,2.4,M,3.4,M*29
$HCHDG,32.6,0.0,E,,*1E
$IIRMB,A,1.75,L,,Oh  ,,,,,030.2,183,,V,A*68
$HCHDG,32.8,0.0,E,,*10
$GPRMC,000003.6,A,4844.98244,N,12231.36332,W,004.13,056.5,010913,016.9,E,D*28
$PGRME,2.4,M,2.4,M,3.4,M*29
$IIRMC,000000,A,4844.981,N,12231.365,W,04.2,054,310813,16,E,A*19
$HCHDG,32.7,0.0,E,,*1F
$HCHDG,32.7,0.0,E,,*1F
$GPRMC,000003.8,A,4844.98258,N,12231.36302,W,004.08,057.5,010913,016.9,E,D*23
$PGRME,2.4,M,2.4,M,3.4,M*29
$YXXDR,A,6.0,D,PTCH,A,3.1,D,ROLL*59
$HCHDG,32.5,0.0,E,,*1D
$HCHDG,32.5,0.0,E,,*1D
$GPRMC,000004.0,A,4844.98272,N,12231.36274,W,004.07,058.6,010913,016.9,E,D*27
$GPRMB,A,1.75,L,,Oh,4814.8080,N,12233.9900,W,30.2,183,-2.32,V*33
$PGRME,2.4,M,2.4,M,3.4,M*29
$HCHDG,32.5,0.0,E,,*1D
$IIVHW,,,,,04.2,N,,*1F
$HCHDG,32.5,0.0,E,,*1D
$IIVLW,02218,N,026.7,N*59
$GPRMC,000004.2,A,4844.98286,N,12231.36228,W,004.04,057.8,010913,016.9,E,D*25
$PGRME,2.4,M,2.4,M,3.4,M*29
$IIVWR,104,L,06.4,N,,,,*78
$HCHDG,32.7,0.0,E,,*1F
$IIDPT,011.9,-1.0,*49
$YXXDR,A,5.6,D,PTCH,A,3.7,D,ROLL*5A
$IIGLL,4844.982,N,12231.363,W,000000,A,A*48
$HCHDG,32.8,0.0,E,,*10
$IIMTW,+16.0,C*3F
$GPRMC,000004.4,A,4844.98299,N,12231.36205,W,004.02,056.8,010913,016.9,E,D*25
$PGRME,2.4,M,2.4,M,3.4,M*29
$HCHDG,33.1,0.0,E,,*18
$IIMWV,256,R,06.4,N,A*10
$IIMWV,227,T,08.4,N,A*1E
$HCHDG,33.3,0.0,E,,*1A
$GPRMC,000004.6,A,4844.98318,N,12231.36181,W,004.03,054.4,010913,016.9,E,D*2F
$IIRMB,A,1.75,L,,Oh  ,,,,,030.2,183,,V,A*68
$PGRME,2.4,M,2.4,M,3.4,M*29
$HCHDG,33.7,0.0,E,,*1E
$HCHDG,33.9,0.0,E,,*10
$GPRMC,000004.8,A,4844.98340,N,12231.36158,W,004.02,054.3,010913,016.9,E,D*2E
$PGRME,2.4,M,2.4,M,3.4,M*29
$YXXDR,A,6.0,D,PTCH,A,5.4,D,ROLL*5A
$PTAK,FFD1,5.4*54
$HCHDG,34.2,0.0,E,,*1C
$HCHDG,34.0,0.0,E,,*1E
$GPRMC,000005.0,A,4844.98356,N,12231.36134,W,004.02,055.0,010913,016.9,E,D*28
$PGRME,2.4,M,2.4,M,3.4,M*29
$HCHDG,34.0,0.0,E,,*1E
$HCHDG,33.9,0.0,E,,*10
$IIRMC,000000,A,4844.982,N,12231.362,W,04.0,058,310813,16,E,A*13
$GPRMC,000005.2,A,4844.98370,N,12231.36112,W,004.21,054.6,010913,016.9,E,D*2C
$GPRMB,A,1.75,L,,Oh,4814.8080,N,12233.9900,W,30.2,183,-2.63,V*37
$PGRME,2.4,M,2.4,M,3.4,M*29
$IIVHW,,,,,04.1,N,,*1C
$PTAK,FFP1,HEEL,@*07
$HCHDG,33.8,0.0,E,,*11
$IIVLW,02218,N,026.7,N*59
$YXXDR,A,6.0,D,PTCH,A,4.5,D,ROLL*5A
$IIVWR,103,L,06.4,N,,,,*7F
$HCHDG,33.8,0.0,E,,*11
$GPRMC,000005.4,A,4844.98379,N,12231.36093,W,004.21,055.5,010913,016.9,E,D*29
$IIDPT,011.9,-1.0,*49
$PGRME,2.4,M,2.4,M,3.4,M*29
$HCHDG,33.8,0.0,E,,*11
$IIGLL,4844.982,N,12231.362,W,000000,A,A*49
$IIMTW,+16.0,C*3F
$HCHDG,33.6,0.0,E,,*1F
$IIMWV,257,R,06.4,N,A*11
$GPRMC,000005.6,A,4844.98390,N,12231.36057,W,004.40,056.7,010913,016.9,E,D*22
$PGRME,2.4,M,2.4,M,3.4,M*29
$IIMWV,227,T,08.4,N,A*1E
$HCHDG,33.5,0.0,E,,*1C
$HCHDG,33.4,0.0,E,,*1D
$GPRMC,000005.8,A,4844.98405,N,12231.36017,W,004.34,056.6,010913,016.9,E,D*21
$PGRME,2.4,M,2.4,M,3.4,M*29
$YXXDR,A,6.0,D,PTCH,A,3.5,D,ROLL*5D
$PTAK,FFD1,3.5*53
$HCHDG,33.2,0.0,E,,*1B
$HCHDG,33.0,0.0,E,,*19
$GPRMC,000006.0,A,4844.98413,N,12231.35978,W,004.36,057.7,010913,016.9,E,D*2C
$PGRME,2.4,M,2.4,M,3.4,M*29
$HCHDG,32.9,0.0,E,,*11
$HCHDG,32.7,0.0,E,,*1F
$IIRMB,A,1.75,L,,Oh  ,,,,,030.2,183,,V,A*68
$GPRMC,000006.2,A,4844.98429,N,12231.35939,W,004.34,057.0,010913,016.9,E,D*27
$PGRME,2.4,M,2.4,M,3.4,M*29
$HCHDG,32.9,0.0,E,,*11
$IIRMC,000000,A,4844.983,N,12231.361,W,04.0,055,310813,16,E,A*1C
$YXXDR,A,6.3,D,PTCH,A,2.9,D,ROLL*53
$IIVHW,,,,,04.2,N,,*1F
$HCHDG,32.7,0.0,E,,*1F
$IIVLW,02218,N,026.7,N*59
$GPRMC,000006.4,A,4844.98443,N,12231.35906,W,004.31,057.8,010913,016.9,E,D*2C
$GPRMB,A,1.75,L,,Oh,4814.8080,N,12233.9900,W,30.2,183,-2.50,V*37
$PGRME,2.4,M,2.4,M,3.4,M*29
$HCHDG,32.6,0.0,E,,*1E
$IIVWR,104,L,06.8,N,,,,*74
$IIDPT,011.9,-1.0,*49
$HCHDG,32.7,0.0,E,,*1F
$IIGLL,4844.983,N,12231.361,W,000000,A,A*4B
$GPRMC,000006.6,A,4844.98455,N,12231.35881,W,004.32,057.1,010913,016.9,E,D*2D
$PGRME,2.4,M,2.4,M,3.4,M*29
$IIMTW,+16.0,C*3F
$HCHDG,32.9,0.0,E,,*11
$HCHDG,32.8,0.0,E,,*10
$GPRMC,000006.8,A,4844.98463,N,12231.35840,W,004.30,056.8,010913,016.9,E,D*21
$PGRME,2.4,M,2.4,M,3.4,M*29
$YXXDR,A,6.0,D,PTCH,A,2.9,D,ROLL*50
$HCHDG,33.1,0.0,E,,*18
$HCHDG,33.2,0.0,E,,*1B
$GPRMC,000007.0,A,4844.98471,N,12231.35809,W,004.27,057.1,010913,016.9,E,D*28
$PGRME,2.4,M,2.4,M,3.4,M*29
$HCHDG,33.2,0.0,E,,*1B
$IIMWV,255,R,06.8,N,A*1F
$HCHDG,33.4,0.0,E,,*1D
$IIMWV,228,T,08.7,N,A*12
$GPRMC,000007.2,A,4844.98485,N,12231.35782,W,004.25,056.5,010913,016.9,E,D*2A
$PGRME,2.4,M,2.4,M,3.4,M*29
$HCHDG,33.5,0.0,E,,*1C
$IIRMB,A,1.75,L,,Oh  ,,,,,030.2,183,,V,A*68
$YXXDR,A,5.8,D,PTCH,A,3.3,D,ROLL*50
$PTAK,FFD1,3.3*55
$HCHDG,33.9,0.0,E,,*10
$IIRMC,000000,A,4844.984,N,12231.359,W,04.3,057,310813,16,E,A*11
$GPRMC,000007.4,A,4844.98497,N,12231.35758,W,004.25,054.5,010913,016.9,E,D*2A
$GPRMB,A,1.75,L,,Oh,4814.8080,N,12233.9900,W,30.2,183,-2.66,V*32
$PGRME,2.4,M,2.4,M,3.4,M*29
$HCHDG,34.1,0.0,E,,*1F
$IIVHW,,,,,04.1,N,,*1C
$IIVLW,02218,N,026.7,N*59
$HCHDG,34.6,0.0,E,,*18
$IIVWR,105,L,06.8,N,,,,*75
$GPRMC,000007.6,A,4844.98508,N,12231.35734,W,004.22,054.7,010913,016.9,E,D*20
$IIDPT,011.9,-1.0,*49
$PGRME,2.4,M,2.4,M,3.4,M*29
$HCHDG,34.8,0.0,E,,*16
$HCHDG,35.0,0.0,E,,*1F
$GPRMC,000007.8,A,4844.98523,N,12231.35709,W,004.53,054.6,010913,016.9,E,D*2E
$PGRME,2.4,M,2.4,M,3.4,M*29
$YXXDR,A,5.8,D,PTCH,A,3.5,D,ROLL*56
$HCHDG,35.3,0.0,E,,*1C
$HCHDG,35.3,0.0,E,,*1C
$GPRMC,000008.0,A,4844.98539,N,12231.35684,W,004.30,055.6,010913,016.9,E,D*22
$PGRME,2.4,M,2.4,M,3.4,M*29
$HCHDG,35.3,0.0,E,,*1C
$HCHDG,35.2,0.0,E,,*1D
$IIGLL,4844.984,N,12231.357,W,000000,A,A*49
$IIMTW,+16.0,C*3F
$GPRMC,000008.2,A,4844.98552,N,12231.35649,W,004.11,057.3,010913,016.9,E,D*28
$PGRME,2.4,M,2.4,M,3.4,M*29
$HCHDG,35.3,0.0,E,,*1C
$IIMWV,255,R,07.0,N,A*16
$IIMWV,228,T,08.7,N,A*12
$YXXDR,A,6.0,D,PTCH,A,2.6,D,ROLL*5F
$PTAK,FFD1,2.6*51
$HCHDG,35.4,0.0,E,,*1B
$IIRMB,A,1.75,L,,Oh  ,,,,,030.2,183,,V,A*68
$GPRMC,000008.4,A,4844.98565,N,12231.35607,W,004.14,057.7,010913,016.9,E,D*21
$PGRME,2.4,M,2.4,M,3.4,M*29
$HCHDG,35.3,0.0,E,,*1C
$IIRMC,000000,A,4844.984,N,12231.357,W,04.2,056,310813,16,E,A*1F
$HCHDG,35.3,0.0,E,,*1C
$IIVHW,,,,,04.1,N,,*1C
$GPRMC,000008.6,A,4844.98581,N,12231.35581,W,004.18,059.6,010913,016.9,E,D*27
$GPRMB,A,1.76,L,,Oh,4814.8080,N,12233.9900,W,30.2,183,-2.32,V*30
$PGRME,2.4,M,2.4,M,3.4,M*29
$IIVLW,02218,N,026.7,N*59
$HCHDG,35.4,0.0,E,,*1B
$HCHDG,35.4,0.0,E,,*1B
$GPRMC,000008.8,A,4844.98589,N,12231.35553,W,004.21,059.9,010913,016.9,E,D*2B
$PGRME,2.4,M,2.4,M,3.4,M*29
$YXXDR,A,5.7,D,PTCH,A,2.1,D,ROLL*5C
$HCHDG,35.4,0.0,E,,*1B
$HCHDG,35.1,0.0,E,,*1E
$GPRMC,000009.0,A,4844.98596,N,12231.35516,W,004.16,060.9,010913,016.9,E,D*23
$PGRME,2.4,M,2.4,M,3.4,M*29
$HCHDG,35.1,0.0,E,,*1E
$IIVWR,105,L,06.9,N,,,,*74
$HCHDG,35.0,0.0,E,,*1F
$IIDPT,011.9,-1.0,*49
$GPRMC,000009.2,A,4844.98610,N,12231.35485,W,004.19,060.3,010913,016.9,E,D*22
$PGRME,2.4,M,2.4,M,3.4,M*29
$HCHDG,35.0,0.0,E,,*1F
$IIGLL,4844.985,N,12231.356,W,000000,A,A*49
$IIMTW,+16.0,C*3F
$YXXDR,A,5.7,D,PTCH,A,2.0,D,ROLL*5D
$IIMWV,255,R,06.9,N,A*1E
$HCHDG,34.7,0.0,E,,*19
$IIMWV,228,T,08.9,N,A*1C
$GPRMC,000009.4,A,4844.98623,N,12231.35455,W,004.20,062.2,010913,016.9,E,D*20
$PTAK,FFP1,HEEL,@*07
$PGRME,2.4,M,2.4,M,3.4,M*29
$HCHDG,34.7,0.0,E,,*19
$IIRMB,A,1.76,L,,Oh  ,,,,,030.2,183,,V,A*6B
$HCHDG,34.6,0.0,E,,*18
$GPRMC,000009.6,A,4844.98636,N,12231.35426,W,004.21,061.6,010913,016.9,E,D*24
$PGRME,2.4,M,2.4,M,3.4,M*29
$IIRMC,000000,A,4844.985,N,12231.356,W,04.1,057,310813,16,E,A*1D
$HCHDG,34.6,0.0,E,,*18
$HCHDG,34.5,0.0,E,,*1B
$GPRMC,000009.8,A,4844.98646,N,12231.35399,W,004.23,060.8,010913,016.9,E,D*23
$GPRMB,A,1.76,L,,Oh,4814.8080,N,12233.9900,W,30.2,183,-2.27,V*34
$PGRME,2.4,M,2.4,M,3.4,M*29
$YXXDR,A,5.9,D,PTCH,A,2.6,D,ROLL*55
$PTAK,FFD1,2.6*51
$HCHDG,34.3,0.0,E,,*1D
$HCHDG,34.4,0.0,E,,*1A
$GPRMC,000010.0,A,4844.98661,N,12231.35374,W,004.23,060.2,010913,016.9,E,D*2F
$PGRME,2.4,M,2.4,M,3.4,M*29
$HCHDG,34.5,0.0,E,,*1B
$IIVHW,,,,,04.2,N,,*1F
$HCHDG,34.4,0.0,E,,*1A
$IIVLW,02218,N,026.7,N*59
$GPRMC,000010.2,A,4844.98677,N,12231.35346,W,004.24,059.6,010913,016.9,E,D*22
$PGRME,2.4,M,2.4,M,3.4,M*29
$IIVWR,107,L,06.8,N,,,,*77
$HCHDG,34.6,0.0,E,,*18
$IIDPT,011.9,-1.0,*49
$YXXDR,A,5.8,D,PTCH,A,3.5,D,ROLL*56
$IIGLL,4844.986,N,12231.354,W,000000,A,A*48
$HCHDG,34.7,0.0,E,,*19
$IIMTW,+16.0,C*3F
$GPRMC,000010.4,A,4844.98693,N,12231.35315,W,004.25,060.0,010913,016.9,E,D*25
$PGRME,2.4,M,2.4,M,3.4,M*29
$HCHDG,34.6,0.0,E,,*18
$IIMWV,253,R,06.8,N,A*19
$IIMWV,229,T,08.7,N,A*13
$HCHDG,34.5,0.0,E,,*1B
$IIRMB,A,1.76,L,,Oh  ,,,,,030.2,183,,V,A*6B
$GPRMC,000010.6,A,4844.98708,N,12231.35283,W,004.24,058.2,010913,016.9,E,D*22
$PGRME,2.4,M,2.4,M,3.4,M*29
$HCHDG,34.7,0.0,E,,*19
$HCHDG,35.0,0.0,E,,*1F
$GPRMC,000010.8,A,4844.98721,N,12231.35242,W,004.24,056.0,010913,016.9,E,D*26
$GPRMB,A,1.76,L,,Oh,4814.8080,N,12233.9900,W,30.3,183,-2.57,V*32
$PGRME,2.4,M,2.4,M,3.4,M*29
$YXXDR,A,5.8,D,PTCH,A,4.5,D,ROLL*51
$PTAK,FFD1,4.5*54
$HCHDG,35.1,0.0,E,,*1E
$HCHDG,35.5,0.0,E,,*1A
$GPRMC,000011.0,A,4844.98733,N,12231.35206,W,004.26,055.1,010913,016.9,E,D*2C
$PGRME,2.4,M,2.4,M,3.4,M*29
$HCHDG,35.7,0.0,E,,*18
$HCHDG,36.0,0.0,E,,*1C
$IIRMC,000000,A,4844.986,N,12231.353,W,04.2,059,310813,16,E,A*16
$GPRMC,000011.2,A,4844.98746,N,12231.35170,W,004.25,056.0,010913,016.9,E,D*2F
$PGRME,2.4,M,2.4,M,3.4,M*29
$HCHDG,36.0,0.0,E,,*1C
$IIVHW,,,,,04.2,N,,*1F
$IIVLW,02218,N,026.7,N*59
$YXXDR,A,6.0,D,PTCH,A,4.7,D,ROLL*58
$IIVWR,108,L,06.5,N,,,,*75
$HCHDG,36.0,0.0,E,,*1C
$GPRMC,000011.4,A,4844.98759,N,12231.35142,W,004.23,056.7,010913,016.9,E,D*27
$IIDPT,011.9,-1.0,*49
$PGRME,2.4,M,2.4,M,3.4,M*29
$HCHDG,36.1,0.0,E,,*1D
$IIGLL,4844.986,N,12231.353,W,000000,A,A*4F
$IIMTW,+16.0,C*3F
$HCHDG,36.1,0.0,E,,*1D
$IIMWV,252,R,06.5,N,A*15
$GPRMC,000011.6,A,4844.98767,N,12231.35117,W,004.21,057.3,010913,016.9,E,D*2F
$PGRME,2.4,M,2.4,M,3.4,M*29
$HCHDG,35.9,0.0,E,,*16
$IIMWV,227,T,08.9,N,A*13
$HCHDG,36.0,0.0,E,,*1C
$GPRMC,000011.8,A,4844.98779,N,12231.35088,W,004.19,058.0,010913,016.9,E,D*2E
$GPRMB,A,1.76,L,,Oh,4814.8080,N,12233.9900,W,30.3,183,-2.42,V*36
$PGRME,2.4,M,2.4,M,3.4,M*29
$YXXDR,A,5.9,D,PTCH,A,3.4,D,ROLL*56
$HCHDG,35.8,0.0,E,,*17
$HCHDG,35.9,0.0,E,,*16
$GPRMC,000012.0,A,4844.98789,N,12231.35057,W,004.17,058.7,010913,016.9,E,D*21
$PGRME,2.4,M,2.4,M,3.4,M*29
$HCHDG,35.8,0.0,E,,*17
$HCHDG,35.8,0.0,E,,*17
$IIRMB,A,1.76,L,,Oh  ,,,,,030.3,183,,V,A*6A
$GPRMC,000012.2,A,4844.98805,N,12231.35033,W,004.15,060.2,010913,016.9,E,D*26
$PGRME,2.4,M,2.4,M,3.4,M*29
$HCHDG,35.7,0.0,E,,*18
$IIRMC,000000,A,4844.987,N,12231.351,W,04.2,056,310813,16,E,A*1A
$YXXDR,A,6.0,D,PTCH,A,2.1,D,ROLL*58
$PTAK,FFD1,2.1*56
$IIVHW,,,,,04.2,N,,*1F
$HCHDG,35.6,0.0,E,,*19
$IIVLW,02218,N,026.7,N*59
$GPRMC,000012.4,A,4844.98811,N,12231.35008,W,004.13,060.9,010913,016.9,E,D*20
$PGRME,2.4,M,2.4,M,3.4,M*29
$HCHDG,35.5,0.0,E,,*1A
$IIVWR,107,L,06.5,N,,,,*7A
$IIDPT,011.9,-1.0,*49
$HCHDG,35.5,0.0,E,,*1A
$IIGLL,4844.987,N,12231.351,W,000000,A,A*4C
$GPRMC,000012.6,A,4844.98817,N,12231.34997,W,004.15,061.2,010913,016.9,E,D*26
$PGRME,2.4,M,2.4,M,3.4,M*29
$IIMTW,+16.0,C*3F
$HCHDG,35.4,0.0,E,,*1B
$HCHDG,35.2,0.0,E,,*1D
$GPRMC,000012.8,A,4844.98826,N,12231.34967,W,004.13,061.7,010913,016.9,E,D*26
$GPRMB,A,1.76,L,,Oh,4814.8080,N,12233.9900,W,30.3,183,-2.17,V*36
$PGRME,2.4,M,2.4,M,3.4,M*29
$YXXDR,A,6.0,D,PTCH,A,2.0,D,ROLL*59
$HCHDG,35.3,0.0,E,,*1C
$HCHDG,35.4,0.0,E,,*1B
$GPRMC,000013.0,A,4844.98839,N,12231.34937,W,004.13,061.4,010913,016.9,E,D*27
$PGRME,2.4,M,2.4,M,3.4,M*29
$HCHDG,35.3,0.0,E,,*1C
$IIMWV,253,R,06.6,N,A*17
$HCHDG,35.2,0.0,E,,*1D
$IIMWV,225,T,08.6,N,A*1E
$GPRMC,000013.2,A,4844.98850,N,12231.34910,W,004.13,062.4,010913,016.9,E,D*2C
$PGRME,2.4,M,2.4,M,3.4,M*29
$HCHDG,35.4,0.0,E,,*1B
$IIRMB,A,1.76,L,,Oh  ,,,,,030.3,183,,V,A*6A
$YXXDR,A,5.7,D,PTCH,A,2.6,D,ROLL*5B
$HCHDG,35.5,0.0,E,,*1A
$IIRMC,000000,A,4844.988,N,12231.350,W,04.1,060,310813,16,E,A*12
$GPRMC,000013.4,A,4844.98865,N,12231.34872,W,004.13,060.9,010913,016.9,E,D*26
$PTAK,FFP1,HEEL,@*07
$PGRME,2.4,M,2.4,M,3.4,M*29
$HCHDG,35.7,0.0,E,,*18
$IIVHW,,,,,04.3,N,,*1E
$IIVLW,02218,N,026.7,N*59
$HCHDG,35.7,0.0,E,,*18
$IIVWR,107,L,06.6,N,,,,*79
$GPRMC,000013.6,A,4844.98875,N,12231.34836,W,004.14,060.2,010913,016.9,E,D*29
$IIDPT,011.9,-1.0,*49
$PGRME,2.4,M,2.4,M,3.4,M*29
$HCHDG,35.8,0.0,E,,*17
$HCHDG,35.7,0.0,E,,*18
$GPRMC,000013.8,A,4844.98889,N,12231.34805,W,004.14,059.0,010913,016.9,E,D*2C
$GPRMB,A,1.76,L,,Oh,4814.8080,N,12233.9900,W,30.3,183,-2.34,V*37
$PGRME,2.4,M,2.4,M,3.4,M*29
$YXXDR,A,5.8,D,PTCH,A,3.6,D,ROLL*55
$PTAK,FFD1,3.6*50
$HCHDG,35.9,0.0,E,,*16
$HCHDG,36.0,0.0,E,,*1C
$GPRMC,000014.0,A,4844.98904,N,12231.34773,W,004.12,058.5,010913,016.9,E,D*2B
$PGRME,2.4,M,2.4,M,3.4,M*29
$HCHDG,36.1,0.0,E,,*1D
$HCHDG,36.2,0.0,E,,*1E
$IIGLL,4844.988,N,12231.348,W,000000,A,A*4B
$IIMTW,+16.0,C*3F
$GPRMC,000014.2,A,4844.98917,N,12231.34747,W,004.13,057.4,010913,016.9,E,D*23
$PGRME,2.4,M,2.4,M,3.4,M*29
$HCHDG,36.4,0.0,E,,*18
$IIMWV,250,R,06.3,N,A*11
$IIMWV,225,T,08.8,N,A*10
$YXXDR,A,6.0,D,PTCH,A,4.9,D,ROLL*56
$HCHDG,36.5,0.0,E,,*19
$IIRMB,A,1.76,L,,Oh  ,,,,,030.3,183,,V,A*6A
$GPRMC,000014.4,A,4844.98936,N,12231.34720,W,004.13,056.6,010913,016.9,E,D*24
$PGRME,2.4,M,2.4,M,3.4,M*29
$HCHDG,36.5,0.0,E,,*19
$IIRMC,000000,A,4844.988,N,12231.348,W,04.1,060,310813,16,E,A*1B
$HCHDG,36.7,0.0,E,,*1B
$IIVHW,,,,,04.3,N,,*1E
$GPRMC,000014.6,A,4844.98952,N,12231.34687,W,004.15,057.5,010913,016.9,E,D*2C
$PGRME,2.4,M,2.4,M,3.4,M*29
$IIVLW,02218,N,026.8,N*56
$HCHDG,36.9,0.0,E,,*15
$HCHDG,36.8,0.0,E,,*14
$GPRMC,000014.8,A,4844.98957,N,12231.34658,W,004.18,058.1,010913,016.9,E,D*23
$PGRME,2.4,M,2.4,M,3.4,M*29
$YXXDR,A,6.1,D,PTCH,A,4.6,D,ROLL*58
$HCHDG,36.8,0.0,E,,*14
$HCHDG,36.7,0.0,E,,*1B
$GPRMC,000015.0,A,4844.98967,N,12231.34624,W,004.21,059.6,010913,016.9,E,D*2E
$GPRMB,A,1.76,L,,Oh,4814.8080,N,12233.9900,W,30.3,183,-2.34,V*37
$PGRME,2.4,M,2.4,M,3.4,M*29
$HCHDG,36.3,0.0,E,,*1F
$IIVWR,107,L,06.4,N,,,,*7B
$HCHDG,36.0,0.0,E,,*1C
$IIDPT,011.9,-1.0,*49
$GPRMC,000015.2,A,4844.98979,N,12231.34591,W,004.21,060.6,010913,016.9,E,D*24
$PGRME,2.4,M,2.4,M,3.4,M*29
$HCHDG,35.7,0.0,E,,*18
$IIGLL,4844.988,N,12231.348,W,000000,A,A*4B
$IIMTW,+16.0,C*3F
$YXXDR,A,6.2,D,PTCH,A,2.7,D,ROLL*5C
$PTAK,FFD1,2.7*50
$IIMWV,253,R,06.4,N,A*15
$HCHDG,35.7,0.0,E,,*18
$IIMWV,223,T,08.7,N,A*19
$GPRMC,000015.4,A,4844.98994,N,12231.34560,W,004.19,062.7,010913,016.9,E,D*27
$PGRME,2.4,M,2.4,M,3.4,M*29
$HCHDG,35.7,0.0,E,,*18
$IIRMB,A,1.76,L,,Oh  ,,,,,030.3,183,,V,A*6A
$HCHDG,35.3,0.0,E,,*1C
$GPRMC,000015.6,A,4844.99012,N,12231.34524,W,004.39,061.1,010913,016.9,E,D*24
$PGRME,2.4,M,2.4,M,3.4,M*29
$IIRMC,000000,A,4844.988,N,12231.348,W,04.1,060,310813,16,E,A*1B
$HCHDG,35.2,0.0,E,,*1D
$HCHDG,35.2,0.0,E,,*1D
$GPRMC,000015.8,A,4844.99027,N,12231.34482,W,004.20,061.2,010913,016.9,E,D*2A
$PGRME,2.4,M,2.4,M,3.4,M*29
$YXXDR,A,6.3,D,PTCH,A,4.1,D,ROLL*5D
$HCHDG,35.3,0.0,E,,*1C
$HCHDG,35.2,0.0,E,,*1D
$GPRMC,000016.0,A,4844.99036,N,12231.34461,W,004.13,060.5,010913,016.9,E,D*2A
$PGRME,2.4,M,2.4,M,3.4,M*29
$HCHDG,35.6,0.0,E,,*19
$IIVHW,,,,,04.1,N,,*1C
$HCHDG,35.6,0.0,E,,*19
$IIVLW,02218,N,026.8,N*56
$GPRMC,000016.2,A,4844.99045,N,12231.34436,W,004.12,059.8,010913,016.9,E,D*28
$GPRMB,A,1.76,L,,Oh,4814.8080,N,12233.9900,W,30.3,183,-2.28,V*3A
$PGRME,2.4,M,2.4,M,3.4,M*29
$IIVWR,110,L,06.4,N,,,,*7D
$HCHDG,35.8,0.0,E,,*17
$IIDPT,011.9,-1.0,*49
$YXXDR,A,6.0,D,PTCH,A,4.1,D,ROLL*5E
$PTAK,FFD1,4.1*50
$IIGLL,4844.989,N,12231.345,W,000000,A,A*47
$HCHDG,35.8,0.0,E,,*17
$IIMTW,+16.0,C*3F
$GPRMC,000016.4,A,4844.99051,N,12231.34406,W,004.09,058.0,010913,016.9,E,D*2B
$PGRME,2.4,M,2.4,M,3.4,M*29
$HCHDG,36.2,0.0,E,,*1E
$IIMWV,250,R,06.4,N,A*16
$IIMWV,225,T,08.6,N,A*1E
$HCHDG,36.2,0.0,E,,*1E
$IIRMB,A,1.76,L,,Oh  ,,,,,030.3,183,,V,A*6A
$GPRMC,000016.6,A,4844.99060,N,12231.34388,W,004.07,059.7,010913,016.9,E,D*22
$PGRME,2.4,M,2.4,M,3.4,M*29
$HCHDG,36.4,0.0,E,,*18
$HCHDG,36.7,0.0,E,,*1B
$GPRMC,000016.8,A,4844.99062,N,12231.34370,W,004.02,057.5,010913,016.9,E,D*20
$PGRME,2.4,M,2.4,M,3.4,M*29
$YXXDR,A,6.1,D,PTCH,A,4.0,D,ROLL*5E
$HCHDG,36.7,0.0,E,,*1B
$HCHDG,36.7,0.0,E,,*1B
$GPRMC,000017.0,A,4844.99071,N,12231.34342,W,004.01,056.0,010913,016.9,E,D*2D
$PGRME,2.4,M,2.4,M,3.4,M*29
$HCHDG,36.7,0.0,E,,*1B
$HCHDG,36.8,0.0,E,,*14
$IIRMC,000000,A,4844.990,N,12231.343,W,04.0,059,310813,16,E,A*12
$GPRMC,000017.2,A,4844.99082,N,12231.34318,W,004.00,057.5,010913,016.9,E,D*29
$GPRMB,A,1.76,L,,Oh,4814.8080,N,12233.9900,W,30.3,183,-2.34,V*37
$PGRME,2.4,M,2.4,M,3.4,M*29
$HCHDG,36.9,0.0,E,,*15
$IIVHW,,,,,03.8,N,,*12
$IIVLW,02218,N,026.8,N*56
$YXXDR,A,6.0,D,PTCH,A,3.5,D,ROLL*5D
$PTAK,FFD1,3.5*53
$PTAK,FFP1,HEEL,@*07
$IIVWR,108,L,06.2,N,,,,*72
$HCHDG,36.8,0.0,E,,*14
$IIDPT,011.9,-1.0,*49
$GPRMC,000017.4,A,4844.99092,N,12231.34296,W,004.19,057.6,010913,016.9,E,D*22
$PGRME,2.4,M,2.4,M,3.4,M*29
$HCHDG,36.8,0.0,E,,*14
$IIGLL,4844.990,N,12231.343,W,000000,A,A*49
$IIMTW,+16.0,C*3F
$HCHDG,36.7,0.0,E,,*1B
$IIMWV,252,R,06.2,N,A*12
$GPRMC,000017.6,A,4844.99107,N,12231.34255,W,004.18,056.8,010913,016.9,E,D*2C
$PGRME,2.4,M,2.4,M,3.4,M*29
$HCHDG,36.6,0.0,E,,*1A
$IIMWV,224,T,08.7,N,A*1E
$HCHDG,36.5,0.0,E,,*19
$GPRMC,000017.8,A,4844.99121,N,12231.34219,W,004.21,060.2,010913,016.9,E,D*2B
$PGRME,2.4,M,2.4,M,3.4,M*29
$YXXDR,A,6.1,D,PTCH,A,2.4,D,ROLL*5C
$HCHDG,36.4,0.0,E,,*18
$HCHDG,36.2,0.0,E,,*1E
$GPRMC,000018.0,A,4844.99139,N,12231.34191,W,004.22,060.2,010913,016.9,E,D*25
$PGRME,2.4,M,2.4,M,3.4,M*29
$HCHDG,36.0,0.0,E,,*1C
$HCHDG,36.0,0.0,E,,*1C
$IIRMB,A,1.76,L,,Oh  ,,,,,030.3,183,,V,A*6A
$GPRMC,000018.2,A,4844.99150,N,12231.34167,W,004.23,060.9,010913,016.9,E,D*2B
$PGRME,2.4,M,2.4,M,3.4,M*29
$HCHDG,35.8,0.0,E,,*17
$IIRMC,000000,A,4844.991,N,12231.342,W,04.1,056,310813,16,E,A*1C
$YXXDR,A,6.3,D,PTCH,A,1.3,D,ROLL*5A
$IIVHW,,,,,03.8,N,,*12
$HCHDG,35.9,0.0,E,,*16
$IIVLW,02218,N,026.8,N*56
$GPRMC,000018.4,A,4844.99164,N,12231.34140,W,004.24,060.2,010913,016.9,E,D*23
$GPRMB,A,1.76,L,,Oh,4814.8080,N,12233.9900,W,30.3,183,-2.32,V*31
$PGRME,2.4,M,2.4,M,3.4,M*29
$HCHDG,35.8,0.0,E,,*17
$IIVWR,108,L,06.6,N,,,,*76
$IIDPT,011.9,-1.0,*49
$HCHDG,35.6,0.0,E,,*19
$IIGLL,4844.991,N,12231.342,W,000000,A,A*49
$GPRMC,000018.6,A,4844.99177,N,12231.34112,W,004.24,060.0,010913,016.9,E,D*26
$PGRME,2.4,M,2.4,M,3.4,M*29
$IIMTW,+16.0,C*3F
$HCHDG,35.7,0.0,E,,*18
$HCHDG,35.7,0.0,E,,*18
$GPRMC,000018.8,A,4844.99191,N,12231.34092,W,004.21,060.4,010913,016.9,E,D*28
$PGRME,2.4,M,2.4,M,3.4,M*29
$YXXDR,A,6.2,D,PTCH,A,1.9,D,ROLL*51
$PTAK,FFD1,1.9*5D
$HCHDG,35.9,0.0,E,,*16
$HCHDG,36.0,0.0,E,,*1C
$GPRMC,000019.0,A,4844.99202,N,12231.34071,W,004.17,060.0,010913,016.9,E,D*24
$PGRME,2.4,M,2.4,M,3.4,M*29
$HCHDG,36.0,0.0,E,,*1C
$IIMWV,252,R,06.6,N,A*16
$HCHDG,36.1,0.0,E,,*1D
$IIMWV,227,T,08.4,N,A*1E
$GPRMC,000019.2,A,4844.99212,N,12231.34042,W,004.01,060.3,010913,016.9,E,D*23
$PGRME,2.4,M,2.4,M,3.4,M*29
$HCHDG,36.6,0.0,E,,*1A
$IIRMB,A,1.76,L,,Oh  ,,,,,030.3,183,,V,A*6A
$YXXDR,A,6.0,D,PTCH,A,2.4,D,ROLL*5D
$HCHDG,36.6,0.0,E,,*1A
$IIRMC,000000,A,4844.991,N,12231.341,W,04.2,060,310813,16,E,A*19
$GPRMC,000019.4,A,4844.99226,N,12231.34014,W,004.03,059.9,010913,016.9,E,D*23
$GPRMB,A,1.77,L,,Oh,4814.8080,N,12233.9900,W,30.3,183,-2.22,V*31
$PGRME,2.4,M,2.4,M,3.4,M*29
$HCHDG,36.8,0.0,E,,*14
$IIVHW,,,,,03.6,N,,*1C
$IIVLW,02218,N,026.8,N*56
$HCHDG,36.8,0.0,E,,*14
$IIVWR,108,L,06.6,N,,,,*76
$GPRMC,000019.6,A,4844.99234,N,12231.33980,W,004.05,060.0,010913,016.9,E,D*24
$IIDPT,011.9,-1.0,*49
$PGRME,2.4,M,2.4,M,3.4,M*29
$HCHDG,36.7,0.0,E,,*1B
$HCHDG,36.9,0.0,E,,*15
$GPRMC,000019.8,A,4844.99247,N,12231.33937,W,004.06,060.9,010913,016.9,E,D*28
$PGRME,2.4,M,2.4,M,3.4,M*29
$YXXDR,A,6.0,D,PTCH,A,3.4,D,ROLL*5C
$HCHDG,36.8,0.0,E,,*14
$HCHDG,37.0,0.0,E,,*1D
$GPRMC,000020.0,A,4844.99258,N,12231.33901,W,004.05,060.2,010913,016.9,E,D*29
$PGRME,2.4,M,2.4,M,3.4,M*29
$HCHDG,36.9,0.0,E,,*15
$HCHDG,36.7,0.0,E,,*1B
$IIGLL,4844.992,N,12231.339,W,000000,A,A*46
$IIMTW,+16.0,C*3F
$GPRMC,000020.2,A,4844.99268,N,12231.33855,W,004.10,060.1,010913,016.9,E,D*2F
$PGRME,2.4,M,2.4,M,3.4,M*29
$IIMWV,251,R,06.4,N,A*17
$HCHDG,36.4,0.0,E,,*18
$IIMWV,228,T,08.3,N,A*16
$YXXDR,A,6.0,D,PTCH,A,3.1,D,ROLL*59
$PTAK,FFD1,3.1*57
$HCHDG,36.3,0.0,E,,*1F
$IIRMB,A,1.77,L,,Oh  ,,,,,030.3,183,,V,A*6B
$GPRMC,000020.4,A,4844.99276,N,12231.33820,W,004.11,059.7,010913,016.9,E,D*29
$PGRME,2.4,M,2.4,M,3.4,M*29
$HCHDG,36.1,0.0,E,,*1D
$IIRMC,000000,A,4844.992,N,12231.339,W,04.0,060,310813,16,E,A*17
$HCHDG,36.0,0.0,E,,*1C
$IIVHW,,,,,03.6,N,,*1C
$GPRMC,000020.6,A,4844.99281,N,12231.33789,W,004.13,062.1,010913,016.9,E,D*23
$GPRMB,A,1.77,L,,Oh,4814.8080,N,12233.9900,W,30.3,183,-2.14,V*34
$PGRME,2.4,M,2.4,M,3.4,M*29
$IIVLW,02218,N,026.8,N*56
$HCHDG,36.2,0.0,E,,*1E
$HCHDG,35.8,0.0,E,,*17
$GPRMC,000020.8,A,4844.99287,N,12231.33760,W,004.17,061.8,010913,016.9,E,D*22
$PGRME,2.4,M,2.4,M,3.4,M*29
$YXXDR,A,6.1,D,PTCH,A,2.6,D,ROLL*5E
$HCHDG,35.7,0.0,E,,*18
$HCHDG,35.4,0.0,E,,*1B
$GPRMC,000021.0,A,4844.99288,N,12231.33737,W,004.18,062.5,010913,016.9,E,D*27
$PGRME,2.4,M,2.4,M,3.4,M*29
$HCHDG,35.2,0.0,E,,*1D
$IIVWR,110,L,06.4,N,,,,*7D
$HCHDG,35.1,0.0,E,,*1E
$IIDPT,011.9,-1.0,*49
$GPRMC,000021.2,A,4844.99301,N,12231.33714,W,004.20,061.6,010913,016.9,E,D*2F
$PGRME,2.4,M,2.4,M,3.4,M*29
$HCHDG,34.9,0.0,E,,*17
$IIGLL,4844.992,N,12231.337,W,000000,A,A*48
$IIMTW,+16.0,C*3F
$YXXDR,A,6.0,D,PTCH,A,2.1,D,ROLL*58
$IIMWV,250,R,06.4,N,A*16
$HCHDG,34.8,0.0,E,,*16
$IIMWV,226,T,08.2,N,A*19
$GPRMC,000021.4,A,4844.99312,N,12231.33680,W,004.23,061.6,010913,016.9,E,D*24
$PGRME,2.4,M,2.4,M,3.4,M*29
$HCHDG,34.8,0.0,E,,*16
$PTAK,FFP1,HEEL,@*07
$IIRMB,A,1.77,L,,Oh  ,,,,,030.3,183,,V,A*6B
$HCHDG,34.7,0.0,E,,*19
$GPRMC,000021.6,A,4844.99324,N,12231.33646,W,004.22,061.4,010913,016.9,E,D*2A
$PGRME,2.4,M,2.4,M,3.4,M*29
$IIRMC,000000,A,4844.992,N,12231.337,W,04.1,062,310813,16,E,A*1A
$HCHDG,34.6,0.0,E,,*18
$HCHDG,34.8,0.0,E,,*16
$GPRMC,000021.8,A,4844.99341,N,12231.33611,W,004.22,060.6,010913,016.9,E,D*26
$GPRMB,A,1.77,L,,Oh,4814.8080,N,12233.9900,W,30.3,183,-2.28,V*3B
$PGRME,2.4,M,2.4,M,3.4,M*29
$YXXDR,A,5.8,D,PTCH,A,3.4,D,ROLL*57
$PTAK,FFD1,3.4*52
$HCHDG,34.8,0.0,E,,*16
$HCHDG,35.0,0.0,E,,*1F
$GPRMC,000022.0,A,4844.99354,N,12231.33575,W,004.20,059.1,010913,016.9,E,D*27
$PGRME,2.4,M,2.4,M,3.4,M*29
$HCHDG,34.9,0.0,E,,*17
$IIVHW,,,,,03.7,N,,*1D
$HCHDG,34.9,0.0,E,,*17
$IIVLW,02218,N,026.8,N*56
$GPRMC,000022.2,A,4844.99373,N,12231.33543,W,004.17,058.7,010913,016.9,E,D*26
$PGRME,2.4,M,2.4,M,3.4,M*29
$IIVWR,109,L,06.4,N,,,,*75
$HCHDG,35.0,0.0,E,,*1F
$IIDPT,011.9,-1.0,*49
$YXXDR,A,6.0,D,PTCH,A,4.0,D,ROLL*5F
$IIGLL,4844.993,N,12231.336,W,000000,A,A*48
$HCHDG,34.8,0.0,E,,*16
$IIMTW,+16.0,C*3F
$GPRMC,000022.4,A,4844.99385,N,12231.33515,W,004.16,059.1,010913,016.9,E,D*2C
$PGRME,2.4,M,2.4,M,3.4,M*29
$HCHDG,34.7,0.0,E,,*19
$IIMWV,251,R,06.4,N,A*17
$IIMWV,226,T,08.3,N,A*18
$HCHDG,34.7,0.0,E,,*19
$IIRMB,A,1.77,L,,Oh  ,,,,,030.3,183,,V,A*6B
$GPRMC,000022.6,A,4844.99394,N,12231.33481,W,004.19,060.3,010913,016.9,E,D*25
$PGRME,2.4,M,2.4,M,3.4,M*29
$HCHDG,34.5,0.0,E,,*1B
$HCHDG,34.3,0.0,E,,*1D
$GPRMC,000022.8,A,4844.99408,N,12231.33442,W,004.16,060.8,010913,016.9,E,D*22
$PGRME,2.4,M,2.4,M,3.4,M*29
$YXXDR,A,6.2,D,PTCH,A,3.6,D,ROLL*5C
$HCHDG,34.1,0.0,E,,*1F
$HCHDG,33.9,0.0,E,,*10
$GPRMC,000023.0,A,4844.99424,N,12231.33410,W,004.19,058.6,010913,016.9,E,D*28
$GPRMB,A,1.77,L,,Oh,4814.8080,N,12233.9900,W,30.3,183,-2.39,V*3B
$PGRME,2.4,M,2.4,M,3.4,M*29
$HCHDG,34.0,0.0,E,,*1E
$HCHDG,34.2,0.0,E,,*1C
$IIRMC,000000,A,4844.993,N,12231.334,W,04.1,060,310813,16,E,A*1A
$GPRMC,000023.2,A,4844.99433,N,12231.33384,W,004.18,058.6,010913,016.9,E,D*27
$PGRME,2.4,M,2.4,M,3.4,M*29
$IIVHW,,,,,04.1,N,,*1C
$HCHDG,34.0,0.0,E,,*1E
$IIVLW,02218,N,026.8,N*56
$YXXDR,A,6.1,D,PTCH,A,3.9,D,ROLL*50
$PTAK,FFD1,3.9*5F
$IIVWR,108,L,06.5,N,,,,*75
$HCHDG,34.2,0.0,E,,*1C
$IIDPT,011.9,-1.0,*49
$GPRMC,000023.4,A,4844.99439,N,12231.33361,W,004.00,057.7,010913,016.9,E,D*27
$PGRME,2.4,M,2.4,M,3.4,M*29
$HCHDG,34.0,0.0,E,,*1E
$IIGLL,4844.993,N,12231.334,W,000000,A,A*4A
$IIMTW,+16.0,C*3F
$HCHDG,34.0,0.0,E,,*1E
$IIMWV,252,R,06.5,N,A*15
$GPRMC,000023.6,A,4844.99446,N,12231.33343,W,004.04,059.8,010913,016.9,E,D*28
$PGRME,2.4,M,2.4,M,3.4,M*29
$HCHDG,34.0,0.0,E,,*1E
$IIMWV,225,T,08.4,N,A*1C
$HCHDG,33.7,0.0,E,,*1E
$GPRMC,000023.8,A,4844.99456,N,12231.33315,W,004.01,060.4,010913,016.9,E,D*27
$PGRME,2.4,M,2.4,M,3.4,M*29
$YXXDR,A,6.0,D,PTCH,A,3.3,D,ROLL*5B
$HCHDG,33.8,0.0,E,,*11
$HCHDG,33.4,0.0,E,,*1D
$GPRMC,000024.0,A,4844.99467,N,12231.33299,W,004.04,060.3,010913,016.9,E,D*2D
$GPRMB,A,1.77,L,,Oh,4814.8080,N,12233.9900,W,30.3,183,-2.20,V*33
$PGRME,2.4,M,2.4,M,3.4,M*29
$HCHDG,33.4,0.0,E,,*1D
$HCHDG,33.1,0.0,E,,*18
$IIRMB,A,1.77,L,,Oh  ,,,,,030.3,183,,V,A*6B
$GPRMC,000024.2,A,4844.99476,N,12231.33268,W,004.00,058.8,010913,016.9,E,D*25
$PGRME,2.4,M,2.4,M,3.4,M*29
$HCHDG,33.0,0.0,E,,*19
$IIRMC,000000,A,4844.994,N,12231.333,W,04.0,060,310813,16,E,A*1B
$YXXDR,A,6.1,D,PTCH,A,3.0,D,ROLL*59
$IIVHW,,,,,04.1,N,,*1C
$HCHDG,33.1,0.0,E,,*18
$IIVLW,02218,N,026.8,N*56
$GPRMC,000024.4,A,4844.99488,N,12231.33234,W,004.03,059.8,010913,016.9,E,D*29
$PGRME,2.4,M,2.4,M,3.4,M*29
$HCHDG,33.3,0.0,E,,*1A
$IIVWR,106,L,06.5,N,,,,*7B
$IIDPT,011.9,-1.0,*49
$HCHDG,33.1,0.0,E,,*18
$IIGLL,4844.994,N,12231.333,W,000000,A,A*4A
$GPRMC,000024.6,A,4844.99496,N,12231.33211,W,004.04,058.5,010913,016.9,E,D*28
$PGRME,2.4,M,2.4,M,3.4,M*29
$IIMTW,+16.0,C*3F
$HCHDG,33.1,0.0,E,,*18
$HCHDG,33.1,0.0,E,,*18
$GPRMC,000024.8,A,4844.99505,N,12231.33176,W,004.06,059.6,010913,016.9,E,D*2F
$PGRME,2.4,M,2.4,M,3.4,M*29
$YXXDR,A,6.1,D,PTCH,A,3.9,D,ROLL*50
$PTAK,FFD1,3.9*5F
$HCHDG,33.0,0.0,E,,*19
$HCHDG,32.9,0.0,E,,*11
$GPRMC,000025.0,A,4844.99513,N,12231.33137,W,004.22,059.5,010913,016.9,E,D*21
$GPRMB,A,1.77,L,,Oh,4814.8080,N,12233.9900,W,30.3,183,-2.35,V*37
$PGRME,2.4,M,2.4,M,3.4,M*29
$HCHDG,32.9,0.0,E,,*11
$IIMWV,255,R,06.9,N,A*1E
$HCHDG,32.5,0.0,E,,*1D
$IIMWV,226,T,08.6,N,A*1D
$GPRMC,000025.2,A,4844.99526,N,12231.33112,W,004.16,058.6,010913,016.9,E,D*27
$PGRME,2.4,M,2.4,M,3.4,M*29
$HCHDG,32.5,0.0,E,,*1D
$IIRMB,A,1.77,L,,Oh  ,,,,,030.3,183,,V,A*6B
$YXXDR,A,6.1,D,PTCH,A,3.3,D,ROLL*5A
$HCHDG,32.4,0.0,E,,*1C
$IIRMC,000000,A,4844.995,N,12231.331,W,04.0,059,310813,16,E,A*12
$GPRMC,000025.4,A,4844.99534,N,12231.33081,W,004.18,059.1,010913,016.9,E,D*21
$PGRME,2.4,M,2.4,M,3.4,M*29
$IIVHW,,,,,04.2,N,,*1F
$PTAK,FFP1,HEEL,@*07
$HCHDG,32.2,0.0,E,,*1A
$IIVLW,02218,N,026.8,N*56
$HCHDG,32.0,0.0,E,,*18
$IIVWR,105,L,06.9,N,,,,*74
$GPRMC,000025.6,A,4844.99547,N,12231.33049,W,004.16,059.9,010913,016.9,E,D*25
$IIDPT,011.9,-1.0,*49
$PGRME,2.4,M,2.4,M,3.4,M*29
$HCHDG,32.0,0.0,E,,*18
$HCHDG,31.8,0.0,E,,*13
$GPRMC,000025.8,A,4844.99557,N,12231.33018,W,004.20,060.0,010913,016.9,E,D*28
$PGRME,2.4,M,2.4,M,3.4,M*29
$YXXDR,A,6.0,D,PTCH,A,3.0,D,ROLL*58
$PTAK,FFD1,3.0*56
$HCHDG,31.7,0.0,E,,*1C
$HCHDG,31.4,0.0,E,,*1F
$GPRMC,000026.0,A,4844.99568,N,12231.32986,W,004.19,060.4,010913,016.9,E,D*2E
$GPRMB,A,1.77,L,,Oh,4814.8080,N,12233.9900,W,30.3,183,-2.28,V*3B
$PGRME,2.4,M,2.4,M,3.4,M*29
$HCHDG,31.3,0.0,E,,*18
$HCHDG,31.0,0.0,E,,*1B
$IIGLL,4844.995,N,12231.330,W,000000,A,A*48
$IIMTW,+16.0,C*3F
$GPRMC,000026.2,A,4844.99580,N,12231.32949,W,004.20,059.6,010913,016.9,E,D*2B
$PGRME,2.4,M,2.4,M,3.4,M*29
$IIMWV,255,R,06.9,N,A*1E
$HCHDG,30.8,0.0,E,,*12
$IIMWV,228,T,08.8,N,A*1D
$YXXDR,A,6.2,D,PTCH,A,2.9,D,ROLL*52
$HCHDG,30.7,0.0,E,,*1D
$IIRMB,A,1.77,L,,Oh  ,,,,,030.3,183,,V,A*6B
$GPRMC,000026.4,A,4844.99595,N,12231.32921,W,004.21,060.9,010913,016.9,E,D*23
$PGRME,2.4,M,2.4,M,3.4,M*29
$HCHDG,30.4,0.0,E,,*1E
$IIRMC,000000,A,4844.995,N,12231.330,W,04.2,060,310813,16,E,A*1B
$HCHDG,30.4,0.0,E,,*1E
$IIVHW,,,,,04.1,N,,*1C
$GPRMC,000026.6,A,4844.99605,N,12231.32889,W,004.21,058.0,010913,016.9,E,D*2A
$PGRME,2.4,M,2.4,M,3.4,M*29
$IIVLW,02218,N,026.8,N*56
$HCHDG,30.2,0.0,E,,*18
$HCHDG,30.1,0.0,E,,*1B
$GPRMC,000026.8,A,4844.99623,N,12231.32864,W,004.17,058.1,010913,016.9,E,D*27
$PGRME,2.4,M,2.4,M,3.4,M*29
$YXXDR,A,6.1,D,PTCH,A,3.9,D,ROLL*50
$HCHDG,30.2,0.0,E,,*18
$HCHDG,29.8,0.0,E,,*1A
$GPRMC,000027.0,A,4844.99636,N,12231.32838,W,004.13,058.3,010913,016.9,E,D*25
$PGRME,2.4,M,2.4,M,3.4,M*29
$HCHDG,29.8,0.0,E,,*1A
$IIVWR,104,L,06.8,N,,,,*74
$HCHDG,29.8,0.0,E,,*1A
$IIDPT,011.7,-1.0,*47
$GPRMC,000027.2,A,4844.99654,N,12231.32822,W,004.09,057.5,010913,016.9,E,D*2A
$GPRMB,A,1.77,L,,Oh,4814.8080,N,12233.9900,W,30.3,183,-2.40,V*35
$PGRME,2.4,M,2.4,M,3.4,M*29
$HCHDG,29.5,0.0,E,,*17
$IIGLL,4844.996,N,12231.328,W,000000,A,A*42
$IIMTW,+16.0,C*3F
$YXXDR,A,6.0,D,PTCH,A,4.6,D,ROLL*59
$PTAK,FFD1,4.6*57
$IIMWV,256,R,06.8,N,A*1C
$HCHDG,29.5,0.0,E,,*17
$GPRMC,000027.4,A,4844.99670,N,12231.32789,W,004.07,053.6,010913,016.9,E,D*2D
$IIMWV,229,T,08.7,N,A*13
$PGRME,2.4,M,2.4,M,3.4,M*29
$HCHDG,29.6,0.0,E,,*14
$IIRMB,A,1.77,L,,Oh  ,,,,,030.3,183,,V,A*6B
$HCHDG,29.8,0.0,E,,*1A
$GPRMC,000027.6,A,4844.99683,N,12231.32762,W,004.05,051.3,010913,016.9,E,D*23
$PGRME,2.4,M,2.4,M,3.4,M*29
$IIRMC,000000,A,4844.996,N,12231.328,W,04.1,058,310813,16,E,A*19
$HCHDG,29.9,0.0,E,,*1B
$HCHDG,30.1,0.0,E,,*1B
$GPRMC,000027.8,A,4844.99698,N,12231.32741,W,004.02,049.7,010913,016.9,E,D*2C
$PGRME,2.4,M,2.4,M,3.4,M*29
$YXXDR,A,6.1,D,PTCH,A,6.3,D,ROLL*5F
$HCHDG,30.5,0.0,E,,*1F
$HCHDG,30.7,0.0,E,,*1D
$GPRMC,000028.0,A,4844.99715,N,12231.32713,W,004.01,047.8,010913,016.9,E,D*2A
$PGRME,2.4,M,2.4,M,3.4,M*29
$HCHDG,30.8,0.0,E,,*12
$IIVHW,,,,,04.0,N,,*1D
$HCHDG,30.8,0.0,E,,*12
$IIVLW,02218,N,026.8,N*56
$GPRMC,000028.2,A,4844.99726,N,12231.32674,W,004.03,048.5,010913,016.9,E,D*28
$GPRMB,A,1.77,L,,Oh,4814.8080,N,12233.9900,W,30.3,183,-2.84,V*3D
$PGRME,2.4,M,2.4,M,3.4,M*29
$IIVWR,102,L,06.9,N,,,,*73
$HCHDG,30.9,0.0,E,,*13
$IIDPT,011.7,-1.0,*47
$YXXDR,A,6.0,D,PTCH,A,5.2,D,ROLL*5C
$PTAK,FFD1,5.2*52
$IIGLL,4844.996,N,12231.328,W,000000,A,A*42
$HCHDG,30.8,0.0,E,,*12
$IIMTW,+16.0,C*3F
$GPRMC,000028.4,A,4844.99742,N,12231.32648,W,004.05,050.1,010913,016.9,E,D*28
$PGRME,2.4,M,2.4,M,3.4,M*29
$HCHDG,30.6,0.0,E,,*1C
$IIMWV,258,R,06.9,N,A*13
$IIMWV,229,T,08.5,N,A*11
$HCHDG,30.1,0.0,E,,*1B
$IIRMB,A,1.77,L,,Oh  ,,,,,030.3,183,,V,A*6B
$GPRMC,000028.6,A,4844.99753,N,12231.32621,W,004.21,053.6,010913,016.9,E,D*27
$PGRME,2.4,M,2.4,M,3.4,M*29
$HCHDG,29.4,0.0,E,,*16
$HCHDG,29.0,0.0,E,,*12
$GPRMC,000028.8,A,4844.99774,N,12231.32581,W,004.01,055.8,010913,016.9,E,D*2F
$PGRME,2.4,M,2.4,M,3.4,M*29
$YXXDR,A,6.1,D,PTCH,A,2.4,D,ROLL*5C
$HCHDG,28.6,0.0,E,,*15
$HCHDG,28.3,0.0,E,,*10
$GPRMC,000029.0,A,4844.99788,N,12231.32557,W,004.19,057.4,010913,016.9,E,D*29
$PGRME,2.4,M,2.4,M,3.4,M*29
$HCHDG,28.0,0.0,E,,*13
$HCHDG,27.8,0.0,E,,*14
$IIRMC,000000,A,4844.997,N,12231.327,W,04.0,047,310813,16,E,A*18
$GPRMC,000029.2,A,4844.99802,N,12231.32533,W,004.18,057.9,010913,016.9,E,D*28
$GPRMB,A,1.78,L,,Oh,4814.8080,N,12233.9900,W,30.3,183,-2.43,V*39
$PGRME,2.4,M,2.4,M,3.4,M*29
$HCHDG,27.4,0.0,E,,*18
$IIVHW,,,,,03.9,N,,*13
$IIVLW,02218,N,026.8,N*56
$YXXDR,A,6.0,D,PTCH,A,2.0,D,ROLL*59
$PTAK,FFD1,2.0*57
$IIVWR,101,L,07.2,N,,,,*7A
$HCHDG,27.2,0.0,E,,*1E
$IIDPT,011.7,-1.0,*47
$GPRMC,000029.4,A,4844.99818,N,12231.32499,W,004.22,057.3,010913,016.9,E,D*27
$PTAK,FFP1,HEEL,@*07
$PGRME,2.4,M,2.4,M,3.4,M*29
$HCHDG,27.2,0.0,E,,*1E
$IIGLL,4844.997,N,12231.327,W,000000,A,A*4C
$IIMTW,+16.0,C*3F
$HCHDG,27.2,0.0,E,,*1E
$IIMWV,259,R,07.2,N,A*18
$GPRMC,000029.6,A,4844.99832,N,12231.32475,W,004.19,053.8,010913,016.9,E,D*28
$PGRME,2.4,M,2.4,M,3.4,M*29
$HCHDG,27.6,0.0,E,,*1A
$IIMWV,231,T,08.6,N,A*1B
$HCHDG,27.8,0.0,E,,*14
$GPRMC,000029.8,A,4844.99847,N,12231.32453,W,004.12,051.0,010913,016.9,E,D*21
$PGRME,2.4,M,2.4,M,3.4,M*29
$YXXDR,A,6.2,D,PTCH,A,3.5,D,ROLL*5F
$HCHDG,28.1,0.0,E,,*12
$HCHDG,28.1,0.0,E,,*12
$GPRMC,000030.0,A,4844.99865,N,12231.32428,W,004.12,049.8,010913,016.9,E,D*2C
$PGRME,2.4,M,2.4,M,3.4,M*29
$HCHDG,28.4,0.0,E,,*17
$HCHDG,28.4,0.0,E,,*17
$IIRMB,A,1.78,L,,Oh  ,,,,,030.3,183,,V,A*64
$GPRMC,000030.2,A,4844.99884,N,12231.32410,W,004.10,049.8,010913,016.9,E,D*28
$PGRME,2.4,M,2.4,M,3.4,M*29
$HCHDG,28.4,0.0,E,,*17
$IIRMC,000000,A,4844.997,N,12231.325,W,04.1,057,310813,16,E,A*1A
$YXXDR,A,5.9,D,PTCH,A,4.3,D,ROLL*56
$IIVHW,,,,,03.9,N,,*13
$HCHDG,28.2,0.0,E,,*11
$IIVLW,02218,N,026.8,N*56
$GPRMC,000030.4,A,4844.99906,N,12231.32389,W,004.07,051.0,010913,016.9,E,D*25
$GPRMB,A,1.78,L,,Oh,4814.8080,N,12233.9900,W,30.3,183,-2.74,V*3D
$PGRME,2.4,M,2.4,M,3.4,M*29
$HCHDG,28.1,0.0,E,,*12
$IIVWR,100,L,07.6,N,,,,*7F
$IIDPT,011.7,-1.0,*47
$HCHDG,28.3,0.0,E,,*10
$IIGLL,4844.997,N,12231.325,W,000000,A,A*4E
$GPRMC,000030.6,A,4844.99927,N,12231.32361,W,004.08,051.9,010913,016.9,E,D*24
$PGRME,2.4,M,2.4,M,3.4,M*29
$IIMTW,+16.0,C*3F
$HCHDG,27.9,0.0,E,,*15
$HCHDG,27.7,0.0,E,,*1B
$GPRMC,000030.8,A,4844.99938,N,12231.32335,W,004.07,052.9,010913,016.9,E,D*29
$PGRME,2.4,M,2.4,M,3.4,M*29
$YXXDR,A,5.8,D,PTCH,A,3.5,D,ROLL*56
$PTAK,FFD1,3.5*53
$HCHDG,27.7,0.0,E,,*1B
$HCHDG,27.8,0.0,E,,*14
$GPRMC,000031.0,A,4844.99955,N,12231.32306,W,004.07,052.1,010913,016.9,E,D*23
$PGRME,2.4,M,2.4,M,3.4,M*29
$HCHDG,27.5,0.0,E,,*19
$IIMWV,260,R,07.3,N,A*13
$HCHDG,27.6,0.0,E,,*1A
$IIMWV,235,T,09.0,N,A*18
$GPRMC,000031.2,A,4844.99968,N,12231.32281,W,004.08,049.9,010913,016.9,E,D*2C
$PGRME,2.4,M,2.4,M,3.4,M*29
$HCHDG,27.8,0.0,E,,*14
$IIRMB,A,1.78,L,,Oh  ,,,,,030.3,183,,V,A*64
$YXXDR,A,6.1,D,PTCH,A,5.3,D,ROLL*5C
$HCHDG,27.8,0.0,E,,*14
$IIRMC,000000,A,4844.998,N,12231.324,W,04.1,049,310813,16,E,A*1B
$GPRMC,000031.4,A,4844.99977,N,12231.32249,W,004.08,049.2,010913,016.9,E,D*2B
$GPRMB,A,1.78,L,,Oh,4814.8080,N,12233.9900,W,30.3,183,-2.84,V*32
$PGRME,2.4,M,2.4,M,3.4,M*29
$IIVHW,,,,,04.1,N,,*1C
$HCHDG,28.0,0.0,E,,*13
$IIVLW,02218,N,026.8,N*56
$HCHDG,28.1,0.0,E,,*12
$IIVWR,100,L,07.3,N,,,,*7A
$GPRMC,000031.6,A,4844.99993,N,12231.32206,W,004.10,050.2,010913,016.9,E,D*29
$IIDPT,011.7,-1.0,*47
$PGRME,2.4,M,2.4,M,3.4,M*29
$HCHDG,28.0,0.0,E,,*13
$HCHDG,28.1,0.0,E,,*12
$GPRMC,000031.8,A,4845.00006,N,12231.32183,W,004.11,049.7,010913,016.9,E,D*21
$PGRME,2.4,M,2.4,M,3.4,M*29
$YXXDR,A,6.2,D,PTCH,A,5.0,D,ROLL*5C
$HCHDG,28.0,0.0,E,,*13
$HCHDG,27.8,0.0,E,,*14
$GPRMC,000032.0,A,4845.00028,N,12231.32173,W,004.11,050.6,010913,016.9,E,D*20
$PGRME,2.4,M,2.4,M,3.4,M*29
$HCHDG,27.8,0.0,E,,*14
$HCHDG,27.7,0.0,E,,*1B
$IIGLL,4844.999,N,12231.322,W,000000,A,A*47
$IIMTW,+16.0,C*3F
$GPRMC,000032.2,A,4845.00046,N,12231.32143,W,004.12,050.6,010913,016.9,E,D*2A
$PGRME,2.4,M,2.4,M,3.4,M*29
$IIMWV,261,R,07.4,N,A*15
$HCHDG,27.6,0.0,E,,*1A
$IIMWV,233,T,08.8,N,A*17
$YXXDR,A,6.0,D,PTCH,A,4.1,D,ROLL*5E
$PTAK,FFD1,4.1*50
$HCHDG,27.5,0.0,E,,*19
$IIRMB,A,1.78,L,,Oh  ,,,,,030.3,183,,V,A*64
$GPRMC,000032.4,A,4845.00064,N,12231.32112,W,004.15,051.2,010913,016.9,E,D*2A
$PGRME,2.4,M,2.4,M,3.4,M*29
$HCHDG,27.5,0.0,E,,*19
$IIRMC,000000,A,4844.999,N,12231.322,W,04.0,049,310813,16,E,A*1D
$HCHDG,27.5,0.0,E,,*19
$IIVHW,,,,,04.2,N,,*1F
$GPRMC,000032.6,A,4845.00087,N,12231.32099,W,004.15,050.9,010913,016.9,E,D*2D
$GPRMB,A,1.78,L,,Oh,4814.8080,N,12233.9900,W,30.3,183,-2.80,V*36
$PGRME,2.4,M,2.4,M,3.4,M*29
$IIVLW,02218,N,026.8,N*56
$HCHDG,27.4,0.0,E,,*18
$HCHDG,27.4,0.0,E,,*18
$GPRMC,000032.8,A,4845.00103,N,12231.32071,W,004.17,049.3,010913,016.9,E,D*28
$PGRME,2.4,M,2.4,M,3.4,M*29
$YXXDR,A,5.8,D,PTCH,A,4.1,D,ROLL*55
$HCHDG,27.3,0.0,E,,*1F
$HCHDG,27.3,0.0,E,,*1F
$GPRMC,000033.0,A,4845.00121,N,12231.32044,W,004.18,049.0,010913,016.9,E,D*2B
$PGRME,2.4,M,2.4,M,3.4,M*29
$HCHDG,27.6,0.0,E,,*1A
$IIVWR,097,L,07.4,N,,,,*72
$HCHDG,27.6,0.0,E,,*1A
$IIDPT,011.7,-1.0,*47
$GPRMC,000033.2,A,4845.00140,N,12231.32017,W,004.17,048.4,010913,016.9,E,D*22
$PGRME,2.4,M,2.4,M,3.4,M*29
$HCHDG,27.5,0.0,E,,*19
$IIGLL,4845.000,N,12231.321,W,000000,A,A*4C
$IIMTW,+16.0,C*3F
$YXXDR,A,6.0,D,PTCH,A,4.3,D,ROLL*5C
$IIMWV,263,R,07.4,N,A*17
$HCHDG,27.7,0.0,E,,*1B
$GPRMC,000033.4,A,4845.00155,N,12231.31986,W,004.15,048.2,010913,016.9,E,D*26
$IIMWV,234,T,09.0,N,A*19
$PGRME,2.4,M,2.4,M,3.4,M*29
$HCHDG,27.7,0.0,E,,*1B
$IIRMB,A,1.78,L,,Oh  ,,,,,030.3,183,,V,A*64
$HCHDG,28.0,0.0,E,,*13
$PTAK,FFP1,HEEL,@*07
$GPRMC,000033.6,A,4845.00176,N,12231.31965,W,003.99,048.2,010913,016.9,E,D*2B
$PGRME,2.4,M,2.4,M,3.4,M*29
$IIRMC,000000,A,4845.000,N,12231.321,W,04.1,050,310813,16,E,A*1F
$HCHDG,27.8,0.0,E,,*14
$HCHDG,27.9,0.0,E,,*15
$GPRMC,000033.8,A,4845.00196,N,12231.31943,W,004.21,049.1,010913,016.9,E,D*29
$GPRMB,A,1.78,L,,Oh,4814.8080,N,12233.9900,W,30.3,183,-2.94,V*33
$PGRME,2.4,M,2.4,M,3.4,M*29
$YXXDR,A,6.2,D,PTCH,A,3.6,D,ROLL*5C
$PTAK,FFD1,3.6*50
$HCHDG,27.8,0.0,E,,*14
$HCHDG,28.0,0.0,E,,*13
$GPRMC,000034.0,A,4845.00213,N,12231.31922,W,004.20,049.5,010913,016.9,E,D*2A
$PGRME,2.4,M,2.4,M,3.4,M*29
$HCHDG,27.9,0.0,E,,*15
$IIVHW,,,,,04.2,N,,*1F
$HCHDG,28.3,0.0,E,,*10
$IIVLW,02218,N,026.8,N*56
$GPRMC,000034.2,A,4845.00228,N,12231.31888,W,004.52,049.8,010913,016.9,E,D*29
$PGRME,2.4,M,2.4,M,3.4,M*29
$IIVWR,099,L,07.4,N,,,,*7C
$HCHDG,28.2,0.0,E,,*11
$IIDPT,011.7,-1.0,*47
$YXXDR,A,6.2,D,PTCH,A,2.8,D,ROLL*53
$IIGLL,4845.001,N,12231.319,W,000000,A,A*46
$HCHDG,28.1,0.0,E,,*12
$IIMTW,+16.0,C*3F
$GPRMC,000034.4,A,4845.00247,N,12231.31859,W,004.35,049.8,010913,016.9,E,D*2B
$PGRME,2.4,M,2.4,M,3.4,M*29
$HCHDG,28.0,0.0,E,,*13
$IIMWV,261,R,07.4,N,A*15
$IIMWV,235,T,08.9,N,A*10
$HCHDG,28.2,0.0,E,,*11
$GPRMC,000034.6,A,4845.00256,N,12231.31830,W,004.39,052.1,010913,016.9,E,D*29
$IIRMB,A,1.78,L,,Oh  ,,,,,030.3,183,,V,A*64
$PGRME,2.4,M,2.4,M,3.4,M*29
$HCHDG,28.1,0.0,E,,*12
$HCHDG,28.0,0.0,E,,*13
$GPRMC,000034.8,A,4845.00270,N,12231.31794,W,004.41,053.9,010913,016.9,E,D*24
$PGRME,2.4,M,2.4,M,3.4,M*29
$YXXDR,A,6.1,D,PTCH,A,2.2,D,ROLL*5A
$HCHDG,28.0,0.0,E,,*13
$HCHDG,27.6,0.0,E,,*1A
$GPRMC,000035.0,A,4845.00282,N,12231.31767,W,004.46,055.0,010913,016.9,E,D*24
$GPRMB,A,1.78,L,,Oh,4814.8080,N,12233.9900,W,30.3,183,-2.77,V*3E
$PGRME,2.4,M,2.4,M,3.4,M*29
$HCHDG,27.1,0.0,E,,*1D
$HCHDG,27.0,0.0,E,,*1C
$IIRMC,000000,A,4845.002,N,12231.318,W,04.3,049,310813,16,E,A*1D
$GPRMC,000035.2,A,4845.00296,N,12231.31734,W,004.48,057.2,010913,016.9,E,D*2B
$PGRME,2.4,M,2.4,M,3.4,M*29
$IIVHW,,,,,04.2,N,,*1F
$HCHDG,26.6,0.0,E,,*1B
$IIVLW,02218,N,026.8,N*56
$YXXDR,A,5.9,D,PTCH,A,1.4,D,ROLL*54
$PTAK,FFD1,1.4*50
$IIVWR,096,L,07.8,N,,,,*7F
$HCHDG,26.3,0.0,E,,*1E
$GPRMC,000035.4,A,4845.00307,N,12231.31708,W,004.44,059.2,010913,016.9,E,D*29
$IIDPT,011.7,-1.0,*47
$PGRME,2.4,M,2.4,M,3.4,M*29
$HCHDG,26.0,0.0,E,,*1D
$IIGLL,4845.002,N,12231.318,W,000000,A,A*44
$IIMTW,+16.0,C*3F
$HCHDG,25.9,0.0,E,,*17
$IIMWV,264,R,07.8,N,A*1C
$GPRMC,000035.6,A,4845.00310,N,12231.31685,W,004.45,058.6,010913,016.9,E,D*2D
$PGRME,2.4,M,2.4,M,3.4,M*29
$IIMWV,233,T,09.0,N,A*1E
$HCHDG,25.6,0.0,E,,*18
$HCHDG,25.4,0.0,E,,*1A
$GPRMC,000035.8,A,4845.00331,N,12231.31664,W,004.42,055.1,010913,016.9,E,D*22
$PGRME,2.4,M,2.4,M,3.4,M*29
$YXXDR,A,6.0,D,PTCH,A,2.4,D,ROLL*5D
$HCHDG,25.7,0.0,E,,*19
$HCHDG,25.7,0.0,E,,*19
$GPRMC,000036.0,A,4845.00346,N,12231.31630,W,004.37,054.6,010913,016.9,E,D*2C
$PGRME,2.4,M,2.4,M,3.4,M*29
$HCHDG,25.7,0.0,E,,*19
$HCHDG,26.0,0.0,E,,*1D
$IIRMB,A,1.78,L,,Oh  ,,,,,030.3,183,,V,A*64
$GPRMC,000036.2,A,4845.00364,N,12231.31596,W,004.33,052.6,010913,016.9,E,D*23
$GPRMB,A,1.78,L,,Oh,4814.8080,N,12233.9900,W,30.3,183,-2.83,V*35
$PGRME,2.4,M,2.4,M,3.4,M*29
$HCHDG,26.3,0.0,E,,*1E
$IIRMC,000000,A,4845.003,N,12231.317,W,04.4,059,310813,16,E,A*15
$YXXDR,A,6.1,D,PTCH,A,4.6,D,ROLL*58
$PTAK,FFD1,4.6*57
$IIVHW,,,,,04.3,N,,*1E
$HCHDG,26.3,0.0,E,,*1E
$IIVLW,02218,N,026.8,N*56
$GPRMC,000036.4,A,4845.00383,N,12231.31572,W,004.31,050.4,010913,016.9,E,D*24
$PGRME,2.4,M,2.4,M,3.4,M*29
$HCHDG,26.5,0.0,E,,*18
$IIVWR,098,L,07.5,N,,,,*7C
$IIDPT,011.7,-1.0,*47
$HCHDG,26.7,0.0,E,,*1A
$IIGLL,4845.003,N,12231.317,W,000000,A,A*4A
$GPRMC,000036.6,A,4845.00401,N,12231.31541,W,004.26,049.0,010913,016.9,E,D*21
$PGRME,2.4,M,2.4,M,3.4,M*29
$IIMTW,+16.0,C*3F
$HCHDG,26.9,0.0,E,,*14
$HCHDG,27.3,0.0,E,,*1F
$GPRMC,000036.8,A,4845.00424,N,12231.31514,W,004.20,048.0,010913,016.9,E,D*2F
$PGRME,2.4,M,2.4,M,3.4,M*29
$YXXDR,A,6.1,D,PTCH,A,5.9,D,ROLL*56
$HCHDG,27.3,0.0,E,,*1F
$HCHDG,27.4,0.0,E,,*18
$GPRMC,000037.0,A,4845.00440,N,12231.31497,W,004.15,046.4,010913,016.9,E,D*22
$PGRME,2.4,M,2.4,M,3.4,M*29
$HCHDG,27.4,0.0,E,,*18
$IIMWV,263,R,07.2,N,A*11
$HCHDG,27.5,0.0,E,,*19
$IIMWV,234,T,09.1,N,A*18
$GPRMC,000037.2,A,4845.00452,N,12231.31478,W,004.12,046.6,010913,016.9,E,D*27
$GPRMB,A,1.78,L,,Oh,4814.8080,N,12233.9900,W,30.3,183,-3.00,V*3F
$PGRME,2.4,M,2.4,M,3.4,M*29
$HCHDG,27.6,0.0,E,,*1A
$IIRMB,A,1.78,L,,Oh  ,,,,,030.3,183,,V,A*64
$YXXDR,A,6.0,D,PTCH,A,5.4,D,ROLL*5A
$HCHDG,27.4,0.0,E,,*18
$IIRMC,000000,A,4845.003,N,12231.315,W,04.3,050,310813,16,E,A*19
$GPRMC,000037.4,A,4845.00475,N,12231.31457,W,004.10,048.5,010913,016.9,E,D*26
$PGRME,2.4,M,2.4,M,3.4,M*29
$IIVHW,,,,,04.3,N,,*1E
$HCHDG,27.3,0.0,E,,*1F
$IIVLW,02218,N,026.8,N*56
$HCHDG,27.0,0.0,E,,*1C
$PTAK,FFP1,HEEL,@*07
$IIVWR,097,L,07.2,N,,,,*74
$IIDPT,011.7,-1.0,*47
$GPRMC,000037.6,A,4845.00489,N,12231.31449,W,004.11,051.5,010913,016.9,E,D*21
$PGRME,2.4,M,2.4,M,3.4,M*29
$HCHDG,26.8,0.0,E,,*15
$HCHDG,26.5,0.0,E,,*18
$GPRMC,000037.8,A,4845.00503,N,12231.31431,W,004.14,054.8,010913,016.9,E,D*2E
$PGRME,2.4,M,2.4,M,3.4,M*29
$YXXDR,A,5.9,D,PTCH,A,3.6,D,ROLL*54
$PTAK,FFD1,3.6*50
$HCHDG,26.1,0.0,E,,*1C
$HCHDG,25.7,0.0,E,,*19
$GPRMC,000038.0,A,4845.00518,N,12231.31417,W,004.16,054.1,010913,016.9,E,D*2C
$PGRME,2.4,M,2.4,M,3.4,M*29
$HCHDG,25.5,0.0,E,,*1B
$HCHDG,25.2,0.0,E,,*1C
$IIGLL,4845.004,N,12231.314,W,000000,A,A*4E
$IIMTW,+16.0,C*3F
$GPRMC,000038.2,A,4845.00522,N,12231.31396,W,004.19,054.9,010913,016.9,E,D*2E
$GPRMB,A,1.78,L,,Oh,4814.8080,N,12233.9900,W,30.3,183,-2.61,V*39
$PGRME,2.4,M,2.4,M,3.4,M*29
$IIMWV,265,R,07.3,N,A*16
$HCHDG,25.0,0.0,E,,*1E
$IIMWV,234,T,08.7,N,A*1F
$YXXDR,A,6.1,D,PTCH,A,3.1,D,ROLL*58
$HCHDG,25.1,0.0,E,,*1F
$IIRMB,A,1.78,L,,Oh  ,,,,,030.3,183,,V,A*64
$GPRMC,000038.4,A,4845.00530,N,12231.31365,W,004.22,053.1,010913,016.9,E,D*20
$PGRME,2.4,M,2.4,M,3.4,M*29
$HCHDG,24.7,0.0,E,,*18
$IIRMC,000000,A,4845.004,N,12231.314,W,04.1,048,310813,16,E,A*14
$HCHDG,24.6,0.0,E,,*19
$IIVHW,,,,,04.3,N,,*1E
$GPRMC,000038.6,A,4845.00545,N,12231.31342,W,004.22,053.4,010913,016.9,E,D*20
$PGRME,2.4,M,2.4,M,3.4,M*29
$IIVLW,02218,N,026.8,N*56
$HCHDG,24.5,0.0,E,,*1A
$HCHDG,24.4,0.0,E,,*1B
$GPRMC,000038.8,A,4845.00558,N,12231.31314,W,004.25,051.6,010913,016.9,E,D*26
$PGRME,2.4,M,2.4,M,3.4,M*29
$YXXDR,A,6.0,D,PTCH,A,3.8,D,ROLL*50
$HCHDG,24.4,0.0,E,,*1B
$HCHDG,24.4,0.0,E,,*1B
$GPRMC,000039.0,A,4845.00577,N,12231.31275,W,004.22,050.6,010913,016.9,E,D*22
$PGRME,2.4,M,2.4,M,3.4,M*29
$HCHDG,24.7,0.0,E,,*18
$IIVWR,095,L,07.5,N,,,,*71
$HCHDG,24.6,0.0,E,,*19
$IIDPT,011.7,-1.0,*47
$GPRMC,000039.2,A,4845.00586,N,12231.31244,W,004.22,048.4,010913,016.9,E,D*27
$PGRME,2.4,M,2.4,M,3.4,M*29
$HCHDG,24.8,0.0,E,,*17
$IIGLL,4845.005,N,12231.313,W,000000,A,A*48
$IIMTW,+16.0,C*3F
$YXXDR,A,6.2,D,PTCH,A,5.0,D,ROLL*5C
$PTAK,FFD1,5.0*50
$IIMWV,265,R,07.5,N,A*10
$HCHDG,24.9,0.0,E,,*16
$IIMWV,236,T,08.8,N,A*12
$GPRMC,000039.4,A,4845.00598,N,12231.31214,W,004.20,047.3,010913,016.9,E,D*21
$GPRMB,A,1.78,L,,Oh,4814.8080,N,12233.9900,W,30.3,183,-3.03,V*3C
$PGRME,2.4,M,2.4,M,3.4,M*29
$HCHDG,25.2,0.0,E,,*1C
$IIRMB,A,1.78,L,,Oh  ,,,,,030.3,183,,V,A*64
$HCHDG,25.2,0.0,E,,*1C
$GPRMC,000039.6,A,4845.00616,N,12231.31178,W,004.19,046.4,010913,016.9,E,D*23
$PGRME,2.4,M,2.4,M,3.4,M*29
$IIRMC,000000,A,4845.005,N,12231.313,W,04.2,053,310813,16,E,A*1B
$HCHDG,25.3,0.0,E,,*1D
$HCHDG,25.3,0.0,E,,*1D
$GPRMC,000039.8,A,4845.00636,N,12231.31156,W,004.15,046.6,010913,016.9,E,D*2D
$PGRME,2.4,M,2.4,M,3.4,M*29
$YXXDR,A,6.1,D,PTCH,A,4.6,D,ROLL*58
$HCHDG,25.4,0.0,E,,*1A
$HCHDG,25.3,0.0,E,,*1D
$GPRMC,000040.0,A,4845.00652,N,12231.31128,W,004.15,046.2,010913,016.9,E,D*24
$PGRME,2.4,M,2.4,M,3.4,M*29
$HCHDG,25.3,0.0,E,,*1D
$IIVHW,,,,,04.4,N,,*19
$HCHDG,25.4,0.0,E,,*1A
$IIVLW,02218,N,026.8,N*56
$GPRMC,000040.2,A,4845.00674,N,12231.31096,W,004.15,046.8,010913,016.9,E,D*2C
$PGRME,2.4,M,2.4,M,3.4,M*29
$IIVWR,094,L,07.5,N,,,,*70
$HCHDG,25.0,0.0,E,,*1E
$IIDPT,011.7,-1.0,*47
$YXXDR,A,6.1,D,PTCH,A,4.0,D,ROLL*5E
$IIGLL,4845.005,N,12231.313,W,000000,A,A*48
$HCHDG,25.1,0.0,E,,*1F
$IIMTW,+16.0,C*3F
$GPRMC,000040.4,A,4845.00688,N,12231.31072,W,004.17,048.6,010913,016.9,E,D*21
$PGRME,2.4,M,2.4,M,3.4,M*29
$HCHDG,25.1,0.0,E,,*1F
$IIMWV,266,R,07.5,N,A*13
$IIMWV,236,T,09.0,N,A*1B
$HCHDG,24.9,0.0,E,,*16
$GPRMC,000040.6,A,4845.00714,N,12231.31045,W,004.19,050.9,010913,016.9,E,D*2B
$GPRMB,A,1.79,L,,Oh,4814.8080,N,12233.9900,W,30.3,183,-2.83,V*34
$IIRMB,A,1.78,L,,Oh  ,,,,,030.3,183,,V,A*64
$PGRME,2.4,M,2.4,M,3.4,M*29
$HCHDG,24.6,0.0,E,,*19
$HCHDG,24.2,0.0,E,,*1D
$GPRMC,000040.8,A,4845.00729,N,12231.31002,W,004.23,052.6,010913,016.9,E,D*2C
$PGRME,2.4,M,2.4,M,3.4,M*29
$YXXDR,A,5.9,D,PTCH,A,2.6,D,ROLL*55
$PTAK,FFD1,2.6*51
$HCHDG,23.7,0.0,E,,*1F
$HCHDG,23.4,0.0,E,,*1C
$GPRMC,000041.0,A,4845.00753,N,12231.30970,W,004.40,051.8,010913,016.9,E,D*2D
$PGRME,2.4,M,2.4,M,3.4,M*29
$HCHDG,23.1,0.0,E,,*19
$HCHDG,23.2,0.0,E,,*1A
$IIRMC,000000,A,4845.006,N,12231.310,W,04.1,048,310813,16,E,A*12
$GPRMC,000041.2,A,4845.00770,N,12231.30942,W,004.35,051.5,010913,016.9,E,D*20
$PGRME,2.4,M,2.4,M,3.4,M*29
$IIVHW,,,,,04.5,N,,*18
$HCHDG,22.9,0.0,E,,*10
$IIVLW,02218,N,026.8,N*56
$YXXDR,A,6.2,D,PTCH,A,4.4,D,ROLL*59
$IIVWR,093,L,07.5,N,,,,*77
$HCHDG,22.8,0.0,E,,*11
$GPRMC,000041.4,A,4845.00790,N,12231.30908,W,004.35,050.2,010913,016.9,E,D*20
$IIDPT,011.7,-1.0,*47
$PGRME,2.4,M,2.4,M,3.4,M*29
$HCHDG,22.9,0.0,E,,*10
$IIGLL,4845.006,N,12231.310,W,000000,A,A*48
$IIMTW,+16.0,C*3F
$HCHDG,22.6,0.0,E,,*1F
$PTAK,FFP1,HEEL,@*07
$IIMWV,267,R,07.5,N,A*12
$GPRMC,000041.6,A,4845.00812,N,12231.30869,W,004.31,049.5,010913,016.9,E,D*2A
$GPRMB,A,1.79,L,,Oh,4814.8080,N,12233.9900,W,30.3,183,-2.99,V*3F
$PGRME,2.4,M,2.4,M,3.4,M*29
$HCHDG,22.7,0.0,E,,*1E
$IIMWV,236,T,09.0,N,A*1B
$HCHDG,22.5,0.0,E,,*1C
$GPRMC,000041.8,A,4845.00834,N,12231.30836,W,004.29,048.9,010913,016.9,E,D*2E
$PGRME,2.4,M,2.4,M,3.4,M*29
$YXXDR,A,6.1,D,PTCH,A,4.5,D,ROLL*5B
$HCHDG,22.3,0.0,E,,*1A
$HCHDG,22.5,0.0,E,,*1C
$GPRMC,000042.0,A,4845.00852,N,12231.30813,W,004.31,047.7,010913,016.9,E,D*2A
$PGRME,2.4,M,2.4,M,3.4,M*29
$HCHDG,22.4,0.0,E,,*1D
$HCHDG,22.5,0.0,E,,*1C
$IIRMB,A,1.79,L,,Oh  ,,,,,030.3,183,,V,A*65
$GPRMC,000042.2,A,4845.00860,N,12231.30795,W,004.29,046.8,010913,016.9,E,D*2F
$PGRME,2.4,M,2.4,M,3.4,M*29
$HCHDG,22.4,0.0,E,,*1D
$IIRMC,000000,A,4845.008,N,12231.308,W,04.3,049,310813,16,E,A*16
$YXXDR,A,6.0,D,PTCH,A,4.9,D,ROLL*56
$PTAK,FFD1,4.9*58
$IIVHW,,,,,04.5,N,,*18
$HCHDG,22.6,0.0,E,,*1F
$IIVLW,02218,N,026.8,N*56
$GPRMC,000042.4,A,4845.00871,N,12231.30773,W,004.27,046.1,010913,016.9,E,D*26
$PGRME,2.4,M,2.4,M,3.4,M*29
$HCHDG,22.6,0.0,E,,*1F
$IIVWR,094,L,07.5,N,,,,*70
$IIDPT,011.7,-1.0,*47
$HCHDG,22.8,0.0,E,,*11
$IIGLL,4845.008,N,12231.308,W,000000,A,A*4F
$GPRMC,000042.6,A,4845.00889,N,12231.30751,W,004.27,044.8,010913,016.9,E,D*28
$GPRMB,A,1.79,L,,Oh,4814.8080,N,12233.9900,W,30.3,183,-3.20,V*3C
$PGRME,2.4,M,2.4,M,3.4,M*29
$IIMTW,+16.0,C*3F
$HCHDG,22.9,0.0,E,,*10
$HCHDG,23.0,0.0,E,,*18
$GPRMC,000042.8,A,4845.00915,N,12231.30708,W,004.27,044.9,010913,016.9,E,D*2F
$PGRME,2.4,M,2.4,M,3.4,M*29
$YXXDR,A,6.0,D,PTCH,A,5.0,D,ROLL*5E
$HCHDG,22.8,0.0,E,,*11
$HCHDG,23.1,0.0,E,,*19
$GPRMC,000043.0,A,4845.00937,N,12231.30673,W,004.26,045.2,010913,016.9,E,D*20
$PGRME,2.4,M,2.4,M,3.4,M*29
$HCHDG,23.0,0.0,E,,*18
$IIMWV,267,R,07.4,N,A*13
$HCHDG,22.9,0.0,E,,*10
$IIMWV,236,T,09.0,N,A*1B
$GPRMC,000043.2,A,4845.00957,N,12231.30640,W,004.25,044.6,010913,016.9,E,D*22
$PGRME,2.4,M,2.4,M,3.4,M*29
$HCHDG,22.8,0.0,E,,*11
$IIRMB,A,1.79,L,,Oh  ,,,,,030.3,183,,V,A*65
$YXXDR,A,6.1,D,PTCH,A,4.5,D,ROLL*5B
$HCHDG,22.5,0.0,E,,*1C
$IIRMC,000000,A,4845.008,N,12231.307,W,04.2,044,310813,16,E,A*15
$GPRMC,000043.4,A,4845.00978,N,12231.30618,W,004.26,045.3,010913,016.9,E,D*23
$PGRME,2.4,M,2.4,M,3.4,M*29
$IIVHW,,,,,04.5,N,,*18
$HCHDG,22.4,0.0,E,,*1D
$IIVLW,02218,N,026.8,N*56
$HCHDG,22.3,0.0,E,,*1A
$IIVWR,093,L,07.4,N,,,,*76
$GPRMC,000043.6,A,4845.00993,N,12231.30598,W,004.22,044.7,010913,016.9,E,D*2E
$IIDPT,011.7,-1.0,*47
$PGRME,2.4,M,2.4,M,3.4,M*29
$HCHDG,22.2,0.0,E,,*1B
$HCHDG,22.3,0.0,E,,*1A
$GPRMC,000043.8,A,4845.01019,N,12231.30584,W,004.23,044.4,010913,016.9,E,D*25
$GPRMB,A,1.79,L,,Oh,4814.8080,N,12233.9900,W,30.3,183,-3.19,V*36
$PGRME,2.4,M,2.4,M,3.4,M*29
$YXXDR,A,6.0,D,PTCH,A,3.8,D,ROLL*50
$PTAK,FFD1,3.8*5E
$HCHDG,22.1,0.0,E,,*18
$HCHDG,22.2,0.0,E,,*1B
$GPRMC,000044.0,A,4845.01037,N,12231.30550,W,004.25,043.6,010913,016.9,E,D*2C
$PGRME,2.4,M,2.4,M,3.4,M*29
$PGRMT,GPS 18x-5Hz software ver. 3.20,,,,,,,,*30
$HCHDG,22.3,0.0,E,,*1A
$HCHDG,22.4,0.0,E,,*1D
$IIGLL,4845.010,N,12231.305,W,000000,A,A*4B
$IIMTW,+16.0,C*3F
$GPRMC,000044.2,A,4845.01059,N,12231.30522,W,004.24,044.4,010913,016.9,E,D*27
$PGRME,2.4,M,2.4,M,3.4,M*29
$IIMWV,269,R,07.5,N,A*1C
$HCHDG,22.3,0.0,E,,*1A
$IIMWV,237,T,08.8,N,A*13
$YXXDR,A,5.9,D,PTCH,A,3.6,D,ROLL*54
$HCHDG,22.5,0.0,E,,*1C
$IIRMB,A,1.79,L,,Oh  ,,,,,030.3,183,,V,A*65
$GPRMC,000044.4,A,4845.01077,N,12231.30502,W,004.23,044.5,010913,016.9,E,D*29
$PGRME,2.4,M,2.4,M,3.4,M*29
$HCHDG,22.3,0.0,E,,*1A
$IIRMC,000000,A,4845.010,N,12231.305,W,04.2,044,310813,16,E,A*1E
$HCHDG,22.2,0.0,E,,*1B
$IIVHW,,,,,04.4,N,,*19
$GPRMC,000044.6,A,4845.01094,N,12231.30473,W,004.24,044.9,010913,016.9,E,D*2A
$PGRME,2.4,M,2.4,M,3.4,M*29
$IIVLW,02218,N,026.8,N*56
$HCHDG,22.3,0.0,E,,*1A
$HCHDG,22.2,0.0,E,,*1B
$GPRMC,000044.8,A,4845.01111,N,12231.30447,W,004.45,045.4,010913,016.9,E,D*24
$GPRMB,A,1.79,L,,Oh,4814.8080,N,12233.9900,W,30.3,183,-3.31,V*3C
$PGRME,2.4,M,2.4,M,3.4,M*29
$YXXDR,A,6.1,D,PTCH,A,3.0,D,ROLL*59
$PTAK,FFD1,3.0*56
$HCHDG,22.0,0.0,E,,*19
$HCHDG,22.0,0.0,E,,*19
$GPRMC,000045.0,A,4845.01127,N,12231.30429,W,004.38,046.4,010913,016.9,E,D*29
$PGRME,2.4,M,2.4,M,3.4,M*29
$HCHDG,21.7,0.0,E,,*1D
$IIVWR,091,L,07.9,N,,,,*79
$HCHDG,21.7,0.0,E,,*1D
$IIDPT,011.7,-1.0,*47
$GPRMC,000045.2,A,4845.01145,N,12231.30395,W,004.42,046.8,010913,016.9,E,D*2E
$PGRME,2.4,M,2.4,M,3.4,M*29
$HCHDG,21.7,0.0,E,,*1D
$IIGLL,4845.011,N,12231.304,W,000000,A,A*4B
$IIMTW,+16.0,C*3F
$YXXDR,A,6.3,D,PTCH,A,2.1,D,ROLL*5B
$IIMWV,269,R,07.9,N,A*10
$HCHDG,21.3,0.0,E,,*19
$GPRMC,000045.4,A,4845.01165,N,12231.30364,W,004.41,048.0,010913,016.9,E,D*21
$IIMWV,238,T,08.7,N,A*13
$PGRME,2.4,M,2.4,M,3.4,M*29
$HCHDG,21.2,0.0,E,,*18
$IIRMB,A,1.79,L,,Oh  ,,,,,030.3,183,,V,A*65
$HCHDG,21.1,0.0,E,,*1B
$GPRMC,000045.6,A,4845.01183,N,12231.30340,W,004.40,049.8,010913,016.9,E,D*25
$PTAK,FFP1,HEEL,@*07
$PGRME,2.4,M,2.4,M,3.4,M*29
$IIRMC,000000,A,4845.011,N,12231.304,W,04.4,045,310813,16,E,A*19
$HCHDG,20.9,0.0,E,,*12
$HCHDG,20.7,0.0,E,,*1C
$GPRMC,000045.8,A,4845.01204,N,12231.30305,W,004.43,049.8,010913,016.9,E,D*25
$GPRMB,A,1.79,L,,Oh,4814.8080,N,12233.9900,W,30.3,183,-3.05,V*3B
$PGRME,2.4,M,2.4,M,3.4,M*29
$YXXDR,A,6.0,D,PTCH,A,1.9,D,ROLL*53
$HCHDG,20.4,0.0,E,,*1F
$HCHDG,20.5,0.0,E,,*1E
$GPRMC,000046.0,A,4845.01226,N,12231.30277,W,004.45,048.5,010913,016.9,E,D*20
$PGRME,2.4,M,2.4,M,3.4,M*29
$HCHDG,20.1,0.0,E,,*1A
$IIVHW,,,,,04.5,N,,*18
$HCHDG,20.1,0.0,E,,*1A
$IIVLW,02218,N,026.8,N*56
$GPRMC,000046.2,A,4845.01250,N,12231.30238,W,004.48,047.8,010913,016.9,E,D*27
$PGRME,2.4,M,2.4,M,3.4,M*29
$IIVWR,090,L,07.8,N,,,,*79
$HCHDG,20.2,0.0,E,,*19
$IIDPT,011.7,-1.0,*47
$YXXDR,A,5.8,D,PTCH,A,2.9,D,ROLL*5B
$PTAK,FFD1,2.9*5E
$IIGLL,4845.012,N,12231.303,W,000000,A,A*4F
$HCHDG,20.4,0.0,E,,*1F
$IIMTW,+16.0,C*3F
$GPRMC,000046.4,A,4845.01267,N,12231.30205,W,004.48,046.8,010913,016.9,E,D*2A
$PGRME,2.4,M,2.4,M,3.4,M*29
$HCHDG,20.6,0.0,E,,*1D
$IIMWV,270,R,07.8,N,A*19
$IIMWV,240,T,09.1,N,A*1B
$HCHDG,20.7,0.0,E,,*1C
$IIRMB,A,1.79,L,,Oh  ,,,,,030.3,183,,V,A*65
$GPRMC,000046.6,A,4845.01289,N,12231.30170,W,004.31,047.1,010913,016.9,E,D*2F
$PGRME,2.4,M,2.4,M,3.4,M*29
$HCHDG,20.8,0.0,E,,*13
$HCHDG,20.9,0.0,E,,*12
$GPRMC,000046.8,A,4845.01299,N,12231.30127,W,004.30,047.1,010913,016.9,E,D*23
$GPRMB,A,1.79,L,,Oh,4814.8080,N,12233.9900,W,30.3,183,-3.11,V*3E
$PGRME,2.4,M,2.4,M,3.4,M*29
$YXXDR,A,5.8,D,PTCH,A,4.8,D,ROLL*5C
$HCHDG,21.0,0.0,E,,*1A
$HCHDG,21.1,0.0,E,,*1B
$GPRMC,000047.0,A,4845.01318,N,12231.30096,W,004.31,045.3,010913,016.9,E,D*28
$PGRME,2.4,M,2.4,M,3.4,M*29
$HCHDG,21.1,0.0,E,,*1B
$HCHDG,21.1,0.0,E,,*1B
$IIRMC,000000,A,4845.012,N,12231.301,W,04.3,047,310813,16,E,A*1A
$GPRMC,000047.2,A,4845.01326,N,12231.30085,W,004.36,044.3,010913,016.9,E,D*23
$PGRME,2.4,M,2.4,M,3.4,M*29
$IIVHW,,,,,04.5,N,,*18
$HCHDG,21.2,0.0,E,,*18
$IIVLW,02218,N,026.8,N*56
$YXXDR,A,6.1,D,PTCH,A,5.0,D,ROLL*5F
$PTAK,FFD1,5.0*50
$IIVWR,091,L,07.4,N,,,,*74
$HCHDG,21.3,0.0,E,,*19
$GPRMC,000047.4,A,4845.01333,N,12231.30079,W,004.32,043.7,010913,016.9,E,D*25
$IIDPT,011.6,-1.0,*46
$PGRME,2.4,M,2.4,M,3.4,M*29
$HCHDG,21.3,0.0,E,,*19
$IIGLL,4845.012,N,12231.301,W,000000,A,A*4D
$IIMTW,+16.0,C*3F
$HCHDG,21.4,0.0,E,,*1E
$IIMWV,269,R,07.4,N,A*1D
$GPRMC,000047.6,A,4845.01344,N,12231.30066,W,004.29,044.4,010913,016.9,E,D*27
$PGRME,2.4,M,2.4,M,3.4,M*29
$IIMWV,240,T,09.0,N,A*1A
$HCHDG,21.5,0.0,E,,*1F
$HCHDG,21.7,0.0,E,,*1D
$GPRMC,000047.8,A,4845.01355,N,12231.30054,W,004.30,045.8,010913,016.9,E,D*2D
$GPRMB,A,1.79,L,,Oh,4814.8080,N,12233.9900,W,30.3,183,-3.18,V*37
$PGRME,2.4,M,2.4,M,3.4,M*29
$YXXDR,A,6.1,D,PTCH,A,5.3,D,ROLL*5C
$HCHDG,21.5,0.0,E,,*1F
$HCHDG,21.4,0.0,E,,*1E
$GPRMC,000048.0,A,4845.01371,N,12231.30030,W,004.12,046.3,010913,016.9,E,D*26
$PGRME,2.4,M,2.4,M,3.4,M*29
$HCHDG,21.4,0.0,E,,*1E
$IIRMB,A,1.79,L,,Oh  ,,,,,030.3,183,,V,A*65
$HCHDG,21.2,0.0,E,,*18
$GPRMC,000048.2,A,4845.01385,N,12231.29994,W,004.18,048.1,010913,016.9,E,D*26
$PGRME,2.4,M,2.4,M,3.4,M*29
$HCHDG,20.9,0.0,E,,*12
$IIRMC,000000,A,4845.013,N,12231.300,W,04.3,045,310813,16,E,A*18
$YXXDR,A,6.0,D,PTCH,A,4.0,D,ROLL*5F
$IIVHW,,,,,04.6,N,,*1B
$HCHDG,20.8,0.0,E,,*13
$IIVLW,02218,N,026.8,N*56
$GPRMC,000048.4,A,4845.01406,N,12231.29964,W,004.23,047.5,010913,016.9,E,D*20
$PGRME,2.4,M,2.4,M,3.4,M*29
$IIVWR,090,L,07.5,N,,,,*74
$HCHDG,20.7,0.0,E,,*1C
$IIDPT,011.6,-1.0,*46
$HCHDG,20.8,0.0,E,,*13
$IIGLL,4845.013,N,12231.300,W,000000,A,A*4D
$GPRMC,000048.6,A,4845.01429,N,12231.29934,W,004.28,047.3,010913,016.9,E,D*27
$PGRME,2.4,M,2.4,M,3.4,M*29
$IIMTW,+16.0,C*3F
$HCHDG,20.8,0.0,E,,*13
$HCHDG,20.7,0.0,E,,*1C
$GPRMC,000048.8,A,4845.01444,N,12231.29907,W,004.46,047.8,010913,016.9,E,D*21
$GPRMB,A,1.79,L,,Oh,4814.8080,N,12233.9900,W,30.3,183,-3.19,V*36
$PGRME,2.4,M,2.4,M,3.4,M*29
$YXXDR,A,6.1,D,PTCH,A,3.9,D,ROLL*50
$PTAK,FFD1,3.9*5F
$HCHDG,20.7,0.0,E,,*1C
$HCHDG,20.7,0.0,E,,*1C
$GPRMC,000049.0,A,4845.01455,N,12231.29893,W,004.44,048.5,010913,016.9,E,D*24
$PGRME,2.4,M,2.4,M,3.4,M*29
$HCHDG,20.4,0.0,E,,*1F
$IIMWV,270,R,07.6,N,A*17
$HCHDG,20.2,0.0,E,,*19
$IIMWV,238,T,08.7,N,A*13
$GPRMC,000049.2,A,4845.01473,N,12231.29862,W,004.45,048.3,010913,016.9,E,D*2B
$PGRME,2.4,M,2.4,M,3.4,M*29
$HCHDG,20.1,0.0,E,,*1A
$IIRMB,A,1.79,L,,Oh  ,,,,,030.3,183,,V,A*65
$YXXDR,A,6.0,D,PTCH,A,3.0,D,ROLL*58
$HCHDG,19.8,0.0,E,,*19
$IIRMC,000000,A,4845.014,N,12231.299,W,04.4,047,310813,16,E,A*1B
$GPRMC,000049.4,A,4845.01492,N,12231.29840,W,004.49,048.9,010913,016.9,E,D*24
$PGRME,2.4,M,2.4,M,3.4,M*29
$IIVHW,,,,,04.5,N,,*18
$HCHDG,19.7,0.0,E,,*16
$IIVLW,02218,N,026.8,N*56
$HCHDG,19.5,0.0,E,,*14
$IIVWR,090,L,07.6,N,,,,*77
$GPRMC,000049.6,A,4845.01511,N,12231.29816,W,004.54,048.0,010913,016.9,E,D*2A
$PTAK,FFP1,HEEL,@*07
$IIDPT,011.6,-1.0,*46
$PGRME,2.4,M,2.4,M,3.4,M*29
$HCHDG,19.4,0.0,E,,*15
$HCHDG,19.3,0.0,E,,*12
$GPRMC,000049.8,A,4845.01531,N,12231.29792,W,004.50,047.0,010913,016.9,E,D*2E
$PGRME,2.4,M,2.4,M,3.4,M*29
$YXXDR,A,6.0,D,PTCH,A,3.5,D,ROLL*5D
$HCHDG,19.3,0.0,E,,*12
$HCHDG,19.5,0.0,E,,*14
$GPRMC,000050.0,A,4845.01552,N,12231.29766,W,004.34,045.5,010913,016.9,E,D*25
$GPRMB,A,1.79,L,,Oh,4814.8080,N,12233.9900,W,30.3,183,-3.22,V*3E
$PGRME,2.4,M,2.4,M,3.4,M*29
