$HCHDG,315.1,0.0,E,,*2F
$YXXDR,A,6.1,D,PTCH,A,3.0,D,ROLL*59
$PTAK,FFD1,3.0*56
$HCHDG,315.1,0.0,E,,*2F
$GPRMC,010000.6,A,4715.49468,N,12226.19863,W,000.00,286.5,110813,016.5,E,D*24
$PGRME,2.4,M,2.4,M,3.4,M*29
$HCHDG,315.1,0.0,E,,*2F
$HCHDG,315.1,0.0,E,,*2F
$GPRMC,010000.8,A,4715.49468,N,12226.19863,W,000.00,286.5,110813,016.5,E,D*2A
$GPRMB,A,-1.10,L,,Shil,4741.0830,N,12224.5670,W,25.6,2,0.00,V*24
$PGRME,2.4,M,2.4,M,3.4,M*29
$HCHDG,315.1,0.0,E,,*2F
$HCHDG,315.1,0.0,E,,*2F
$GPRMC,010001.0,A,4715.49468,N,12226.19863,W,000.01,286.5,110813,016.5,E,D*22
$PGRME,2.4,M,2.4,M,3.4,M*29
$YXXDR,A,6.2,D,PTCH,A,3.3,D,ROLL*59
$HCHDG,315.1,0.0,E,,*2F
$HCHDG,315.3,0.0,E,,*2D
$GPRMC,010001.2,A,4715.49468,N,12226.19863,W,000.01,286.5,110813,016.5,E,D*20
$PGRME,2.4,M,2.4,M,3.4,M*29
$HCHDG,315.3,0.0,E,,*2D
$HCHDG,315.4,0.0,E,,*2A
$GPRMC,010001.4,A,4715.49468,N,12226.19863,W,000.01,286.5,110813,016.5,E,D*26
$PGRME,2.4,M,2.4,M,3.4,M*29
$HCHDG,315.4,0.0,E,,*2A
$YXXDR,A,6.1,D,PTCH,A,3.2,D,ROLL*5B
$PTAK,FFD1,3.2*54
$HCHDG,315.3,0.0,E,,*2D
$GPRMC,010001.6,A,4715.49468,N,12226.19863,W,000.00,286.5,110813,016.5,E,D*25
$PGRME,2.4,M,2.4,M,3.4,M*29
$HCHDG,315.3,0.0,E,,*2D
$HCHDG,315.2,0.0,E,,*2C
$GPRMC,010001.8,A,4715.49468,N,12226.19863,W,000.00,286.5,110813,016.5,E,D*2B
$PGRME,2.4,M,2.4,M,3.4,M*29
$HCHDG,315.2,0.0,E,,*2C
$HCHDG,315.2,0.0,E,,*2C
$GPRMC,010002.0,A,4715.49468,N,12226.19862,W,000.01,286.5,110813,016.5,E,D*20
$GPRMB,A,-1.10,L,,Shil,4741.0830,N,12224.5670,W,25.6,2,0.00,V*24
$PGRME,2.4,M,2.4,M,3.4,M*29
$YXXDR,A,6.1,D,PTCH,A,3.2,D,ROLL*5B
$HCHDG,315.1,0.0,E,,*2F
$HCHDG,315.1,0.0,E,,*2F
$GPRMC,010002.2,A,4715.49468,N,12226.19862,W,000.00,286.5,110813,016.5,E,D*23
$PGRME,2.4,M,2.4,M,3.4,M*29
$HCHDG,315.1,0.0,E,,*2F
$HCHDG,315.1,0.0,E,,*2F
$GPRMC,010002.4,A,4715.49469,N,12226.19862,W,000.01,286.5,110813,016.5,E,D*25
$PGRME,2.4,M,2.4,M,3.4,M*29
$HCHDG,315.1,0.0,E,,*2F
$YXXDR,A,6.1,D,PTCH,A,3.3,D,ROLL*5A
$HCHDG,315.1,0.0,E,,*2F
$GPRMC,010002.6,A,4715.49469,N,12226.19862,W,000.00,286.5,110813,016.5,E,D*26
$PGRME,2.4,M,2.4,M,3.4,M*29
$HCHDG,315.1,0.0,E,,*2F
$HCHDG,315.1,0.0,E,,*2F
$GPRMC,010002.8,A,4715.49469,N,12226.19862,W,000.00,286.5,110813,016.5,E,D*28
$PGRME,2.4,M,2.4,M,3.4,M*29
$HCHDG,315.1,0.0,E,,*2F
$HCHDG,315.1,0.0,E,,*2F
$GPRMC,010003.0,A,4715.49469,N,12226.19862,W,000.01,286.5,110813,016.5,E,D*20
$PGRME,2.4,M,2.4,M,3.4,M*29
$YXXDR,A,6.0,D,PTCH,A,3.4,D,ROLL*5C
$PTAK,FFD1,3.4*52
$HCHDG,315.1,0.0,E,,*2F
$HCHDG,315.1,0.0,E,,*2F
$GPRMC,010003.2,A,4715.49469,N,12226.19862,W,000.00,286.5,110813,016.5,E,D*23
$GPRMB,A,-1.10,L,,Shil,4741.0830,N,12224.5670,W,25.6,2,0.00,V*24
$PGRME,2.4,M,2.4,M,3.4,M*29
$HCHDG,315.1,0.0,E,,*2F
$HCHDG,315.2,0.0,E,,*2C
$GPRMC,010003.4,A,4715.49469,N,12226.19861,W,000.01,286.5,110813,016.5,E,D*27
$PGRME,2.4,M,2.4,M,3.4,M*29
$HCHDG,315.2,0.0,E,,*2C
$PTAK,FFP1,HEEL,@*07
$YXXDR,A,6.1,D,PTCH,A,3.2,D,ROLL*5B
$HCHDG,315.2,0.0,E,,*2C
$GPRMC,010003.6,A,4715.49469,N,12226.19861,W,000.01,286.5,110813,016.5,E,D*25
$PGRME,2.4,M,2.4,M,3.4,M*29
$HCHDG,315.2,0.0,E,,*2C
$HCHDG,315.2,0.0,E,,*2C
$GPRMC,010003.8,A,4715.49469,N,12226.19861,W,000.00,286.5,110813,016.5,E,D*2A
$PGRME,2.4,M,2.4,M,3.4,M*29
$HCHDG,315.2,0.0,E,,*2C
$HCHDG,315.2,0.0,E,,*2C
$GPRMC,010004.0,A,4715.49469,N,12226.19860,W,000.01,286.5,110813,016.5,E,D*25
$PGRME,2.4,M,2.4,M,3.4,M*29
$YXXDR,A,6.2,D,PTCH,A,2.9,D,ROLL*52
$PTAK,FFD1,2.9*5E
$HCHDG,315.0,0.0,E,,*2E
$HCHDG,315.0,0.0,E,,*2E
$GPRMC,010004.2,A,4715.49470,N,12226.19860,W,000.01,286.5,110813,016.5,E,D*2F
$PGRME,2.4,M,2.4,M,3.4,M*29
$HCHDG,315.0,0.0,E,,*2E
$HCHDG,315.0,0.0,E,,*2E
$GPRMC,010004.4,A,4715.49470,N,12226.19860,W,000.00,286.5,110813,016.5,E,D*28
$GPRMB,A,-1.10,L,,Shil,4741.0830,N,12224.5670,W,25.6,2,0.00,V*24
$PGRME,2.4,M,2.4,M,3.4,M*29
$HCHDG,315.0,0.0,E,,*2E
$YXXDR,A,6.1,D,PTCH,A,3.0,D,ROLL*59
$HCHDG,315.1,0.0,E,,*2F
$GPRMC,010004.6,A,4715.49470,N,12226.19860,W,000.01,286.5,110813,016.5,E,D*2B
$PGRME,2.4,M,2.4,M,3.4,M*29
$HCHDG,315.1,0.0,E,,*2F
$HCHDG,315.1,0.0,E,,*2F
$GPRMC,010004.8,A,4715.49470,N,12226.19860,W,000.00,286.5,110813,016.5,E,D*24
$PGRME,2.4,M,2.4,M,3.4,M*29
$HCHDG,315.0,0.0,E,,*2E
$HCHDG,315.1,0.0,E,,*2F
$GPRMC,010005.0,A,4715.49470,N,12226.19860,W,000.00,286.5,110813,016.5,E,D*2D
$PGRME,2.4,M,2.4,M,3.4,M*29
$YXXDR,A,6.0,D,PTCH,A,3.4,D,ROLL*5C
$PTAK,FFD1,3.4*52
$HCHDG,315.0,0.0,E,,*2E
$HCHDG,315.0,0.0,E,,*2E
$GPRMC,010005.2,A,4715.49470,N,12226.19860,W,000.01,286.5,110813,016.5,E,D*2E
$PGRME,2.4,M,2.4,M,3.4,M*29
$HCHDG,315.0,0.0,E,,*2E
$HCHDG,315.0,0.0,E,,*2E
$GPRMC,010005.4,A,4715.49470,N,12226.19859,W,000.01,286.5,110813,016.5,E,D*22
$PGRME,2.4,M,2.4,M,3.4,M*29
$HCHDG,315.0,0.0,E,,*2E
$YXXDR,A,6.0,D,PTCH,A,3.3,D,ROLL*5B
$HCHDG,315.0,0.0,E,,*2E
$GPRMC,010005.6,A,4715.49470,N,12226.19859,W,000.00,286.5,110813,016.5,E,D*21
$GPRMB,A,-1.10,L,,Shil,4741.0830,N,12224.5670,W,25.6,2,0.00,V*24
$PGRME,2.4,M,2.4,M,3.4,M*29
$HCHDG,315.1,0.0,E,,*2F
$HCHDG,315.3,0.0,E,,*2D
$GPRMC,010005.8,A,4715.49470,N,12226.19859,W,000.01,286.5,110813,016.5,E,D*2E
$PGRME,2.4,M,2.4,M,3.4,M*29
$HCHDG,315.3,0.0,E,,*2D
$HCHDG,315.3,0.0,E,,*2D
$GPRMC,010006.0,A,4715.49470,N,12226.19859,W,000.01,286.5,110813,016.5,E,D*25
$PGRME,2.4,M,2.4,M,3.4,M*29
$YXXDR,A,6.0,D,PTCH,A,3.3,D,ROLL*5B
$PTAK,FFD1,3.3*55
$HCHDG,315.3,0.0,E,,*2D
$HCHDG,315.3,0.0,E,,*2D
$GPRMC,010006.2,A,4715.49470,N,12226.19859,W,000.01,286.5,110813,016.5,E,D*27
$PGRME,2.4,M,2.4,M,3.4,M*29
$HCHDG,315.3,0.0,E,,*2D
$HCHDG,315.3,0.0,E,,*2D
$GPRMC,010006.4,A,4715.49470,N,12226.19859,W,000.01,286.5,110813,016.5,E,D*21
$PGRME,2.4,M,2.4,M,3.4,M*29
$HCHDG,315.3,0.0,E,,*2D
$YXXDR,A,6.1,D,PTCH,A,3.2,D,ROLL*5B
$HCHDG,315.1,0.0,E,,*2F
$GPRMC,010006.6,A,4715.49470,N,12226.19859,W,000.01,286.5,110813,016.5,E,D*23
$GPRMB,A,-1.10,L,,Shil,4741.0830,N,12224.5670,W,25.6,2,0.00,V*24
$PGRME,2.4,M,2.4,M,3.4,M*29
$HCHDG,315.1,0.0,E,,*2F
$HCHDG,315.1,0.0,E,,*2F
$GPRMC,010006.8,A,4715.49470,N,12226.19859,W,000.01,286.5,110813,016.5,E,D*2D
$PGRME,2.4,M,2.4,M,3.4,M*29
$HCHDG,315.1,0.0,E,,*2F
$HCHDG,315.1,0.0,E,,*2F
$GPRMC,010007.0,A,4715.49470,N,12226.19859,W,000.01,286.5,110813,016.5,E,D*24
$PGRME,2.4,M,2.4,M,3.4,M*29
$YXXDR,A,6.0,D,PTCH,A,2.7,D,ROLL*5E
$HCHDG,315.1,0.0,E,,*2F
$HCHDG,315.1,0.0,E,,*2F
$GPRMC,010007.2,A,4715.49471,N,12226.19859,W,000.01,286.5,110813,016.5,E,D*27
$PGRME,2.4,M,2.4,M,3.4,M*29
$HCHDG,315.1,0.0,E,,*2F
$HCHDG,315.1,0.0,E,,*2F
$GPRMC,010007.4,A,4715.49471,N,12226.19859,W,000.00,286.5,110813,016.5,E,D*20
$PGRME,2.4,M,2.4,M,3.4,M*29
$HCHDG,315.1,0.0,E,,*2F
$YXXDR,A,6.1,D,PTCH,A,2.9,D,ROLL*51
$PTAK,FFD1,2.9*5E
$HCHDG,315.1,0.0,E,,*2F
$PTAK,FFP1,HEEL,@*07
$GPRMC,010007.6,A,4715.49471,N,12226.19858,W,000.00,286.5,110813,016.5,E,D*23
$GPRMB,A,-1.10,L,,Shil,4741.0830,N,12224.5670,W,25.6,2,0.00,V*24
$PGRME,2.4,M,2.4,M,3.4,M*29
$HCHDG,315.1,0.0,E,,*2F
$HCHDG,315.1,0.0,E,,*2F
$GPRMC,010007.8,A,4715.49471,N,12226.19858,W,000.01,286.5,110813,016.5,E,D*2C
$PGRME,2.4,M,2.4,M,3.4,M*29
$HCHDG,315.3,0.0,E,,*2D
$HCHDG,315.2,0.0,E,,*2C
$GPRMC,010008.0,A,4715.49471,N,12226.19858,W,000.01,286.5,110813,016.5,E,D*2B
$PGRME,2.4,M,2.4,M,3.4,M*29
$YXXDR,A,6.2,D,PTCH,A,3.5,D,ROLL*5F
$HCHDG,315.2,0.0,E,,*2C
$HCHDG,315.2,0.0,E,,*2C
$GPRMC,010008.2,A,4715.49472,N,12226.19858,W,000.01,286.5,110813,016.5,E,D*2A
$PGRME,2.4,M,2.4,M,3.4,M*29
$HCHDG,315.2,0.0,E,,*2C
$HCHDG,315.2,0.0,E,,*2C
$GPRMC,010008.4,A,4715.49472,N,12226.19858,W,000.01,286.5,110813,016.5,E,D*2C
$PGRME,2.4,M,2.4,M,3.4,M*29
$HCHDG,315.2,0.0,E,,*2C
$YXXDR,A,6.1,D,PTCH,A,3.2,D,ROLL*5B
$PTAK,FFD1,3.2*54
$HCHDG,315.2,0.0,E,,*2C
$GPRMC,010008.6,A,4715.49472,N,12226.19858,W,000.01,286.5,110813,016.5,E,D*2E
$GPRMB,A,-1.10,L,,Shil,4741.0830,N,12224.5670,W,25.6,2,0.00,V*24
$PGRME,2.4,M,2.4,M,3.4,M*29
$HCHDG,315.2,0.0,E,,*2C
$HCHDG,315.2,0.0,E,,*2C
$GPRMC,010008.8,A,4715.49472,N,12226.19858,W,000.01,286.5,110813,016.5,E,D*20
$PGRME,2.4,M,2.4,M,3.4,M*29
$HCHDG,315.2,0.0,E,,*2C
$HCHDG,315.1,0.0,E,,*2F
$GPRMC,010009.0,A,4715.49472,N,12226.19858,W,000.00,286.5,110813,016.5,E,D*28
$PGRME,2.4,M,2.4,M,3.4,M*29
$YXXDR,A,6.2,D,PTCH,A,3.3,D,ROLL*59
$HCHDG,315.1,0.0,E,,*2F
$HCHDG,315.1,0.0,E,,*2F
$GPRMC,010009.2,A,4715.49472,N,12226.19857,W,000.01,286.5,110813,016.5,E,D*24
$PGRME,2.4,M,2.4,M,3.4,M*29
$HCHDG,315.1,0.0,E,,*2F
$HCHDG,315.3,0.0,E,,*2D
$GPRMC,010009.4,A,4715.49472,N,12226.19857,W,000.01,286.5,110813,016.5,E,D*22
$PGRME,2.4,M,2.4,M,3.4,M*29
$HCHDG,315.3,0.0,E,,*2D
$YXXDR,A,6.2,D,PTCH,A,3.5,D,ROLL*5F
$HCHDG,315.3,0.0,E,,*2D
$GPRMC,010009.6,A,4715.49473,N,12226.19857,W,000.01,286.5,110813,016.5,E,D*21
$PGRME,2.4,M,2.4,M,3.4,M*29
$HCHDG,315.3,0.0,E,,*2D
$HCHDG,315.3,0.0,E,,*2D
$GPRMC,010009.8,A,4715.49473,N,12226.19857,W,000.01,286.5,110813,016.5,E,D*2F
$GPRMB,A,-1.10,L,,Shil,4741.0830,N,12224.5670,W,25.6,2,0.00,V*24
$PGRME,2.4,M,2.4,M,3.4,M*29
$HCHDG,315.3,0.0,E,,*2D
$HCHDG,315.3,0.0,E,,*2D
$GPRMC,010010.0,A,4715.49473,N,12226.19857,W,000.01,286.5,110813,016.5,E,D*2F
$PGRME,2.4,M,2.4,M,3.4,M*29
$YXXDR,A,6.1,D,PTCH,A,3.1,D,ROLL*58
$PTAK,FFD1,3.1*57
$HCHDG,315.1,0.0,E,,*2F
$HCHDG,315.1,0.0,E,,*2F
$GPRMC,010010.2,A,4715.49473,N,12226.19857,W,000.01,286.5,110813,016.5,E,D*2D
$PGRME,2.4,M,2.4,M,3.4,M*29
$HCHDG,315.2,0.0,E,,*2C
$HCHDG,315.2,0.0,E,,*2C
$GPRMC,010010.4,A,4715.49473,N,12226.19857,W,000.00,286.5,110813,016.5,E,D*2A
$PGRME,2.4,M,2.4,M,3.4,M*29
$HCHDG,315.0,0.0,E,,*2E
$YXXDR,A,6.0,D,PTCH,A,2.7,D,ROLL*5E
$HCHDG,315.1,0.0,E,,*2F
$GPRMC,010010.6,A,4715.49473,N,12226.19856,W,000.00,286.5,110813,016.5,E,D*29
$PGRME,2.4,M,2.4,M,3.4,M*29
$HCHDG,315.1,0.0,E,,*2F
$HCHDG,315.1,0.0,E,,*2F
$GPRMC,010010.8,A,4715.49473,N,12226.19856,W,000.01,286.5,110813,016.5,E,D*26
$PGRME,2.4,M,2.4,M,3.4,M*29
$HCHDG,315.1,0.0,E,,*2F
$HCHDG,315.1,0.0,E,,*2F
$GPRMC,010011.0,A,4715.49473,N,12226.19856,W,000.01,286.5,110813,016.5,E,D*2F
$GPRMB,A,-1.10,L,,Shil,4741.0830,N,12224.5670,W,25.6,2,0.00,V*24
$PGRME,2.4,M,2.4,M,3.4,M*29
$YXXDR,A,6.0,D,PTCH,A,2.8,D,ROLL*51
$PTAK,FFD1,2.8*5F
$HCHDG,315.1,0.0,E,,*2F
$HCHDG,315.1,0.0,E,,*2F
$GPRMC,010011.2,A,4715.49473,N,12226.19856,W,000.00,286.5,110813,016.5,E,D*2C
$PGRME,2.4,M,2.4,M,3.4,M*29
$HCHDG,315.1,0.0,E,,*2F
$HCHDG,315.0,0.0,E,,*2E
$GPRMC,010011.4,A,4715.49473,N,12226.19856,W,000.01,286.5,110813,016.5,E,D*2B
$PGRME,2.4,M,2.4,M,3.4,M*29
$HCHDG,315.0,0.0,E,,*2E
$YXXDR,A,6.2,D,PTCH,A,3.3,D,ROLL*59
$HCHDG,315.2,0.0,E,,*2C
$GPRMC,010011.6,A,4715.49473,N,12226.19856,W,000.00,286.5,110813,016.5,E,D*28
$PTAK,FFP1,HEEL,@*07
$PGRME,2.4,M,2.4,M,3.4,M*29
$HCHDG,315.2,0.0,E,,*2C
$HCHDG,315.1,0.0,E,,*2F
$GPRMC,010011.8,A,4715.49473,N,12226.19856,W,000.01,286.5,110813,016.5,E,D*27
$PGRME,2.4,M,2.4,M,3.4,M*29
$HCHDG,315.1,0.0,E,,*2F
$HCHDG,315.0,0.0,E,,*2E
$GPRMC,010012.0,A,4715.49473,N,12226.19856,W,000.01,286.5,110813,016.5,E,D*2C
$GPRMB,A,-1.10,L,,Shil,4741.0830,N,12224.5670,W,25.6,2,0.00,V*24
$PGRME,2.4,M,2.4,M,3.4,M*29
$YXXDR,A,6.2,D,PTCH,A,3.3,D,ROLL*59
$PTAK,FFD1,3.3*55
$HCHDG,315.1,0.0,E,,*2F
$HCHDG,315.1,0.0,E,,*2F
$GPRMC,010012.2,A,4715.49474,N,12226.19856,W,000.01,286.5,110813,016.5,E,D*29
$PGRME,2.4,M,2.4,M,3.4,M*29
$HCHDG,315.1,0.0,E,,*2F
$HCHDG,315.1,0.0,E,,*2F
$GPRMC,010012.4,A,4715.49474,N,12226.19856,W,000.00,286.5,110813,016.5,E,D*2E
$PGRME,2.4,M,2.4,M,3.4,M*29
$HCHDG,315.1,0.0,E,,*2F
$YXXDR,A,6.1,D,PTCH,A,3.2,D,ROLL*5B
$HCHDG,315.1,0.0,E,,*2F
$GPRMC,010012.6,A,4715.49474,N,12226.19856,W,000.01,286.5,110813,016.5,E,D*2D
$PGRME,2.4,M,2.4,M,3.4,M*29
$HCHDG,315.1,0.0,E,,*2F
$HCHDG,315.2,0.0,E,,*2C
$GPRMC,010012.8,A,4715.49474,N,12226.19856,W,000.01,286.5,110813,016.5,E,D*23
$PGRME,2.4,M,2.4,M,3.4,M*29
$HCHDG,315.2,0.0,E,,*2C
$HCHDG,315.0,0.0,E,,*2E
$GPRMC,010013.0,A,4715.49474,N,12226.19856,W,000.01,286.5,110813,016.5,E,D*2A
$PGRME,2.4,M,2.4,M,3.4,M*29
$YXXDR,A,6.1,D,PTCH,A,3.0,D,ROLL*59
$HCHDG,315.0,0.0,E,,*2E
$HCHDG,315.0,0.0,E,,*2E
$GPRMC,010013.2,A,4715.49474,N,12226.19856,W,000.00,286.5,110813,016.5,E,D*29
$GPRMB,A,-1.10,L,,Shil,4741.0830,N,12224.5670,W,25.6,2,0.00,V*24
$PGRME,2.4,M,2.4,M,3.4,M*29
$HCHDG,315.1,0.0,E,,*2F
$HCHDG,315.1,0.0,E,,*2F
$GPRMC,010013.4,A,4715.49474,N,12226.19856,W,000.00,286.5,110813,016.5,E,D*2F
$PGRME,2.4,M,2.4,M,3.4,M*29
$HCHDG,315.2,0.0,E,,*2C
$YXXDR,A,6.2,D,PTCH,A,2.9,D,ROLL*52
$PTAK,FFD1,2.9*5E
$HCHDG,315.0,0.0,E,,*2E
$GPRMC,010013.6,A,4715.49474,N,12226.19856,W,000.01,286.5,110813,016.5,E,D*2C
$PGRME,2.4,M,2.4,M,3.4,M*29
$HCHDG,315.0,0.0,E,,*2E
$HCHDG,315.0,0.0,E,,*2E
$GPRMC,010013.8,A,4715.49474,N,12226.19856,W,000.00,286.5,110813,016.5,E,D*23
$PGRME,2.4,M,2.4,M,3.4,M*29
$HCHDG,315.0,0.0,E,,*2E
$HCHDG,315.0,0.0,E,,*2E
$GPRMC,010014.0,A,4715.49474,N,12226.19856,W,000.00,286.5,110813,016.5,E,D*2C
$PGRME,2.4,M,2.4,M,3.4,M*29
$YXXDR,A,6.1,D,PTCH,A,3.1,D,ROLL*58
$HCHDG,315.0,0.0,E,,*2E
$HCHDG,315.0,0.0,E,,*2E
$GPRMC,010014.2,A,4715.49475,N,12226.19856,W,000.01,286.5,110813,016.5,E,D*2E
$PGRME,2.4,M,2.4,M,3.4,M*29
$HCHDG,315.0,0.0,E,,*2E
$HCHDG,315.0,0.0,E,,*2E
$GPRMC,010014.4,A,4715.49475,N,12226.19855,W,000.00,286.5,110813,016.5,E,D*2A
$GPRMB,A,-1.10,L,,Shil,4741.0830,N,12224.5670,W,25.6,2,0.00,V*24
$PGRME,2.4,M,2.4,M,3.4,M*29
$HCHDG,315.0,0.0,E,,*2E
$YXXDR,A,6.1,D,PTCH,A,3.2,D,ROLL*5B
$PTAK,FFD1,3.2*54
$HCHDG,315.0,0.0,E,,*2E
$GPRMC,010014.6,A,4715.49475,N,12226.19855,W,000.01,286.5,110813,016.5,E,D*29
$PGRME,2.4,M,2.4,M,3.4,M*29
$HCHDG,315.2,0.0,E,,*2C
$HCHDG,315.2,0.0,E,,*2C
$GPRMC,010014.8,A,4715.49475,N,12226.19855,W,000.00,286.5,110813,016.5,E,D*26
$PGRME,2.4,M,2.4,M,3.4,M*29
$HCHDG,315.2,0.0,E,,*2C
$HCHDG,315.1,0.0,E,,*2F
$GPRMC,010015.0,A,4715.49475,N,12226.19855,W,000.01,286.5,110813,016.5,E,D*2E
$PGRME,2.4,M,2.4,M,3.4,M*29
$YXXDR,A,6.0,D,PTCH,A,3.4,D,ROLL*5C
$HCHDG,315.1,0.0,E,,*2F
$HCHDG,315.1,0.0,E,,*2F
$GPRMC,010015.2,A,4715.49475,N,12226.19855,W,000.01,286.5,110813,016.5,E,D*2C
$PGRME,2.4,M,2.4,M,3.4,M*29
$HCHDG,315.1,0.0,E,,*2F
$HCHDG,315.1,0.0,E,,*2F
$GPRMC,010015.4,A,4715.49475,N,12226.19855,W,000.00,286.5,110813,016.5,E,D*2B
$PGRME,2.4,M,2.4,M,3.4,M*29
$HCHDG,315.1,0.0,E,,*2F
$YXXDR,A,6.0,D,PTCH,A,3.3,D,ROLL*5B
$HCHDG,315.1,0.0,E,,*2F
$GPRMC,010015.6,A,4715.49475,N,12226.19855,W,000.01,286.5,110813,016.5,E,D*28
$GPRMB,A,-1.10,L,,Shil,4741.0830,N,12224.5670,W,25.6,2,0.00,V*24
$PTAK,FFP1,HEEL,@*07
$PGRME,2.4,M,2.4,M,3.4,M*29
$HCHDG,315.1,0.0,E,,*2F
$HCHDG,315.0,0.0,E,,*2E
$GPRMC,010015.8,A,4715.49475,N,12226.19855,W,000.00,286.5,110813,016.5,E,D*27
$PGRME,2.4,M,2.4,M,3.4,M*29
$HCHDG,315.0,0.0,E,,*2E
$HCHDG,315.1,0.0,E,,*2F
$GPRMC,010016.0,A,4715.49475,N,12226.19855,W,000.00,286.5,110813,016.5,E,D*2C
$PGRME,2.4,M,2.4,M,3.4,M*29
$YXXDR,A,6.1,D,PTCH,A,3.2,D,ROLL*5B
$PTAK,FFD1,3.2*54
$HCHDG,315.1,0.0,E,,*2F
$HCHDG,315.1,0.0,E,,*2F
$GPRMC,010016.2,A,4715.49475,N,12226.19854,W,000.01,286.5,110813,016.5,E,D*2E
$PGRME,2.4,M,2.4,M,3.4,M*29
$HCHDG,315.1,0.0,E,,*2F
$HCHDG,315.1,0.0,E,,*2F
$GPRMC,010016.4,A,4715.49475,N,12226.19854,W,000.01,286.5,110813,016.5,E,D*28
$PGRME,2.4,M,2.4,M,3.4,M*29
$HCHDG,314.9,0.0,E,,*26
$YXXDR,A,6.2,D,PTCH,A,2.9,D,ROLL*52
$HCHDG,314.9,0.0,E,,*26
$GPRMC,010016.6,A,4715.49476,N,12226.19854,W,000.01,286.5,110813,016.5,E,D*29
$PGRME,2.4,M,2.4,M,3.4,M*29
$HCHDG,314.9,0.0,E,,*26
$HCHDG,315.0,0.0,E,,*2E
$GPRMC,010016.8,A,4715.49476,N,12226.19854,W,000.01,286.5,110813,016.5,E,D*27
$GPRMB,A,-1.10,L,,Shil,4741.0830,N,12224.5670,W,25.6,2,0.00,V*24
$PGRME,2.4,M,2.4,M,3.4,M*29
$HCHDG,314.9,0.0,E,,*26
$HCHDG,315.0,0.0,E,,*2E
$GPRMC,010017.0,A,4715.49476,N,12226.19854,W,000.00,286.5,110813,016.5,E,D*2F
$PGRME,2.4,M,2.4,M,3.4,M*29
$YXXDR,A,6.1,D,PTCH,A,3.0,D,ROLL*59
$PTAK,FFD1,3.0*56
$HCHDG,315.0,0.0,E,,*2E
$HCHDG,315.0,0.0,E,,*2E
$GPRMC,010017.2,A,4715.49476,N,12226.19854,W,000.00,286.5,110813,016.5,E,D*2D
$PGRME,2.4,M,2.4,M,3.4,M*29
$HCHDG,315.0,0.0,E,,*2E
$HCHDG,315.0,0.0,E,,*2E
$GPRMC,010017.4,A,4715.49476,N,12226.19854,W,000.00,286.5,110813,016.5,E,D*2B
$PGRME,2.4,M,2.4,M,3.4,M*29
$HCHDG,315.0,0.0,E,,*2E
$YXXDR,A,6.1,D,PTCH,A,3.0,D,ROLL*59
$HCHDG,315.0,0.0,E,,*2E
$GPRMC,010017.6,A,4715.49476,N,12226.19854,W,000.01,286.5,110813,016.5,E,D*28
$PGRME,2.4,M,2.4,M,3.4,M*29
$HCHDG,315.0,0.0,E,,*2E
$HCHDG,315.1,0.0,E,,*2F
$GPRMC,010017.8,A,4715.49476,N,12226.19854,W,000.00,286.5,110813,016.5,E,D*27
$PGRME,2.4,M,2.4,M,3.4,M*29
$HCHDG,315.1,0.0,E,,*2F
$HCHDG,315.1,0.0,E,,*2F
$GPRMC,010018.0,A,4715.49476,N,12226.19854,W,000.00,286.5,110813,016.5,E,D*20
$GPRMB,A,-1.10,L,,Shil,4741.0830,N,12224.5670,W,25.6,2,0.00,V*24
$PGRME,2.4,M,2.4,M,3.4,M*29
$YXXDR,A,6.1,D,PTCH,A,3.1,D,ROLL*58
$PTAK,FFD1,3.1*57
$HCHDG,315.1,0.0,E,,*2F
$HCHDG,315.1,0.0,E,,*2F
$GPRMC,010018.2,A,4715.49476,N,12226.19853,W,000.00,286.5,110813,016.5,E,D*25
$PGRME,2.4,M,2.4,M,3.4,M*29
$HCHDG,315.1,0.0,E,,*2F
$HCHDG,315.1,0.0,E,,*2F
$GPRMC,010018.4,A,4715.49476,N,12226.19853,W,000.01,286.5,110813,016.5,E,D*22
$PGRME,2.4,M,2.4,M,3.4,M*29
$HCHDG,315.0,0.0,E,,*2E
$YXXDR,A,6.1,D,PTCH,A,3.3,D,ROLL*5A
$HCHDG,315.0,0.0,E,,*2E
$GPRMC,010018.6,A,4715.49476,N,12226.19853,W,000.00,286.5,110813,016.5,E,D*21
$PGRME,2.4,M,2.4,M,3.4,M*29
$HCHDG,315.2,0.0,E,,*2C
$HCHDG,315.2,0.0,E,,*2C
$GPRMC,010018.8,A,4715.49476,N,12226.19853,W,000.00,286.5,110813,016.5,E,D*2F
$PGRME,2.4,M,2.4,M,3.4,M*29
$HCHDG,315.2,0.0,E,,*2C
$HCHDG,315.2,0.0,E,,*2C
$GPRMC,010019.0,A,4715.49477,N,12226.19853,W,000.01,286.5,110813,016.5,E,D*26
$GPRMB,A,-1.10,L,,Shil,4741.0830,N,12224.5670,W,25.6,2,0.00,V*24
$PGRME,2.4,M,2.4,M,3.4,M*29
$YXXDR,A,6.1,D,PTCH,A,3.3,D,ROLL*5A
$HCHDG,315.1,0.0,E,,*2F
$HCHDG,315.1,0.0,E,,*2F
$GPRMC,010019.2,A,4715.49477,N,12226.19853,W,000.00,286.5,110813,016.5,E,D*25
$PGRME,2.4,M,2.4,M,3.4,M*29
$HCHDG,315.1,0.0,E,,*2F
$HCHDG,315.1,0.0,E,,*2F
$GPRMC,010019.4,A,4715.49477,N,12226.19853,W,000.01,286.5,110813,016.5,E,D*22
$PGRME,2.4,M,2.4,M,3.4,M*29
$HCHDG,315.1,0.0,E,,*2F
$YXXDR,A,6.1,D,PTCH,A,3.2,D,ROLL*5B
$PTAK,FFD1,3.2*54
$HCHDG,315.1,0.0,E,,*2F
$GPRMC,010019.6,A,4715.49477,N,12226.19853,W,000.00,286.5,110813,016.5,E,D*21
$PTAK,FFP1,HEEL,@*07
$PGRME,2.4,M,2.4,M,3.4,M*29
$HCHDG,315.1,0.0,E,,*2F
$HCHDG,315.0,0.0,E,,*2E
$GPRMC,010019.8,A,4715.49477,N,12226.19853,W,000.00,286.5,110813,016.5,E,D*2F
$PGRME,2.4,M,2.4,M,3.4,M*29
$HCHDG,315.0,0.0,E,,*2E
$HCHDG,315.0,0.0,E,,*2E
$GPRMC,010020.0,A,4715.49478,N,12226.19853,W,000.01,286.5,110813,016.5,E,D*23
$PGRME,2.4,M,2.4,M,3.4,M*29
$YXXDR,A,6.1,D,PTCH,A,3.0,D,ROLL*59
$HCHDG,315.0,0.0,E,,*2E
$HCHDG,315.0,0.0,E,,*2E
$GPRMC,010020.2,A,4715.49478,N,12226.19853,W,000.01,286.5,110813,016.5,E,D*21
$GPRMB,A,-1.10,L,,Shil,4741.0830,N,12224.5670,W,25.6,2,0.00,V*24
$PGRME,2.4,M,2.4,M,3.4,M*29
$HCHDG,315.0,0.0,E,,*2E
$HCHDG,315.0,0.0,E,,*2E
$GPRMC,010020.4,A,4715.49478,N,12226.19853,W,000.00,286.5,110813,016.5,E,D*26
$PGRME,2.4,M,2.4,M,3.4,M*29
$HCHDG,315.0,0.0,E,,*2E
$YXXDR,A,6.1,D,PTCH,A,3.0,D,ROLL*59
$PTAK,FFD1,3.0*56
$HCHDG,315.0,0.0,E,,*2E
$GPRMC,010020.6,A,4715.49478,N,12226.19852,W,000.01,286.5,110813,016.5,E,D*24
$PGRME,2.4,M,2.4,M,3.4,M*29
$HCHDG,315.0,0.0,E,,*2E
$HCHDG,315.0,0.0,E,,*2E
$GPRMC,010020.8,A,4715.49478,N,12226.19852,W,000.00,286.5,110813,016.5,E,D*2B
$PGRME,2.4,M,2.4,M,3.4,M*29
$HCHDG,315.0,0.0,E,,*2E
$HCHDG,315.0,0.0,E,,*2E
$GPRMC,010021.0,A,4715.49478,N,12226.19852,W,000.01,286.5,110813,016.5,E,D*23
$PGRME,2.4,M,2.4,M,3.4,M*29
$YXXDR,A,6.1,D,PTCH,A,3.3,D,ROLL*5A
$HCHDG,315.0,0.0,E,,*2E
$HCHDG,315.0,0.0,E,,*2E
$GPRMC,010021.2,A,4715.49478,N,12226.19852,W,000.00,286.5,110813,016.5,E,D*20
$GPRMB,A,-1.10,L,,Shil,4741.0830,N,12224.5670,W,25.6,2,0.00,V*24
$PGRME,2.4,M,2.4,M,3.4,M*29
$HCHDG,315.0,0.0,E,,*2E
$HCHDG,315.0,0.0,E,,*2E
$GPRMC,010021.4,A,4715.49478,N,12226.19852,W,000.01,286.5,110813,016.5,E,D*27
$PGRME,2.4,M,2.4,M,3.4,M*29
$HCHDG,315.0,0.0,E,,*2E
$YXXDR,A,6.0,D,PTCH,A,3.3,D,ROLL*5B
$HCHDG,315.0,0.0,E,,*2E
$GPRMC,010021.6,A,4715.49478,N,12226.19852,W,000.00,286.5,110813,016.5,E,D*24
$PGRME,2.4,M,2.4,M,3.4,M*29
$HCHDG,315.0,0.0,E,,*2E
$HCHDG,315.0,0.0,E,,*2E
$GPRMC,010021.8,A,4715.49478,N,12226.19852,W,000.00,286.5,110813,016.5,E,D*2A
$PGRME,2.4,M,2.4,M,3.4,M*29
$HCHDG,314.9,0.0,E,,*26
$HCHDG,314.9,0.0,E,,*26
$GPRMC,010022.0,A,4715.49478,N,12226.19852,W,000.01,286.5,110813,016.5,E,D*20
$PGRME,2.4,M,2.4,M,3.4,M*29
$YXXDR,A,6.2,D,PTCH,A,3.3,D,ROLL*59
$PTAK,FFD1,3.3*55
$HCHDG,314.9,0.0,E,,*26
$HCHDG,314.9,0.0,E,,*26
$GPRMC,010022.2,A,4715.49478,N,12226.19852,W,000.00,286.5,110813,016.5,E,D*23
$GPRMB,A,-1.10,L,,Shil,4741.0830,N,12224.5670,W,25.6,2,0.00,V*24
$PGRME,2.4,M,2.4,M,3.4,M*29
$HCHDG,315.1,0.0,E,,*2F
$HCHDG,315.1,0.0,E,,*2F
$GPRMC,010022.4,A,4715.49478,N,12226.19851,W,000.01,286.5,110813,016.5,E,D*27
$PGRME,2.4,M,2.4,M,3.4,M*29
$HCHDG,315.1,0.0,E,,*2F
$YXXDR,A,6.2,D,PTCH,A,3.3,D,ROLL*59
$HCHDG,315.0,0.0,E,,*2E
$GPRMC,010022.6,A,4715.49478,N,12226.19851,W,000.01,286.5,110813,016.5,E,D*25
$PGRME,2.4,M,2.4,M,3.4,M*29
$HCHDG,315.0,0.0,E,,*2E
$HCHDG,315.0,0.0,E,,*2E
$GPRMC,010022.8,A,4715.49478,N,12226.19851,W,000.01,286.5,110813,016.5,E,D*2B
$PGRME,2.4,M,2.4,M,3.4,M*29
$HCHDG,315.0,0.0,E,,*2E
$HCHDG,315.0,0.0,E,,*2E
$GPRMC,010023.0,A,4715.49478,N,12226.19851,W,000.01,286.5,110813,016.5,E,D*22
$PGRME,2.4,M,2.4,M,3.4,M*29
$YXXDR,A,6.2,D,PTCH,A,3.3,D,ROLL*59
$PTAK,FFD1,3.3*55
$HCHDG,315.0,0.0,E,,*2E
$HCHDG,315.0,0.0,E,,*2E
$GPRMC,010023.2,A,4715.49478,N,12226.19851,W,000.01,286.5,110813,016.5,E,D*20
$GPRMB,A,-1.10,L,,Shil,4741.0830,N,12224.5670,W,25.6,2,0.00,V*24
$PGRME,2.4,M,2.4,M,3.4,M*29
$HCHDG,315.0,0.0,E,,*2E
$HCHDG,315.0,0.0,E,,*2E
$GPRMC,010023.4,A,4715.49478,N,12226.19851,W,000.01,286.5,110813,016.5,E,D*26
$PGRME,2.4,M,2.4,M,3.4,M*29
$HCHDG,315.0,0.0,E,,*2E
$PTAK,FFP1,HEEL,@*07
$YXXDR,A,6.1,D,PTCH,A,3.2,D,ROLL*5B
$HCHDG,315.1,0.0,E,,*2F
$GPRMC,010023.6,A,4715.49478,N,12226.19851,W,000.00,286.5,110813,016.5,E,D*25
$PGRME,2.4,M,2.4,M,3.4,M*29
$HCHDG,315.1,0.0,E,,*2F
$HCHDG,315.1,0.0,E,,*2F
$GPRMC,010023.8,A,4715.49478,N,12226.19851,W,000.00,286.5,110813,016.5,E,D*2B
$PGRME,2.4,M,2.4,M,3.4,M*29
$HCHDG,315.1,0.0,E,,*2F
$HCHDG,315.0,0.0,E,,*2E
$GPRMC,010024.0,A,4715.49477,N,12226.19851,W,000.00,286.5,110813,016.5,E,D*2B
$PGRME,2.4,M,2.4,M,3.4,M*29
$YXXDR,A,6.1,D,PTCH,A,3.2,D,ROLL*5B
$PTAK,FFD1,3.2*54
$HCHDG,315.0,0.0,E,,*2E
$HCHDG,315.0,0.0,E,,*2E
$GPRMC,010024.2,A,4715.49477,N,12226.19851,W,000.00,286.5,110813,016.5,E,D*29
$PGRME,2.4,M,2.4,M,3.4,M*29
$HCHDG,315.1,0.0,E,,*2F
$HCHDG,315.1,0.0,E,,*2F
$GPRMC,010024.4,A,4715.49478,N,12226.19851,W,000.00,286.5,110813,016.5,E,D*20
$GPRMB,A,-1.10,L,,Shil,4741.0830,N,12224.5670,W,25.6,2,0.00,V*24
$PGRME,2.4,M,2.4,M,3.4,M*29
$HCHDG,315.1,0.0,E,,*2F
$YXXDR,A,6.1,D,PTCH,A,3.3,D,ROLL*5A
$HCHDG,315.1,0.0,E,,*2F
$GPRMC,010024.6,A,4715.49477,N,12226.19851,W,000.00,286.5,110813,016.5,E,D*2D
$PGRME,2.4,M,2.4,M,3.4,M*29
$HCHDG,315.1,0.0,E,,*2F
$HCHDG,315.1,0.0,E,,*2F
$GPRMC,010024.8,A,4715.49477,N,12226.19851,W,000.00,286.5,110813,016.5,E,D*23
$PGRME,2.4,M,2.4,M,3.4,M*29
$HCHDG,315.1,0.0,E,,*2F
$HCHDG,315.1,0.0,E,,*2F
$GPRMC,010025.0,A,4715.49477,N,12226.19851,W,000.00,286.5,110813,016.5,E,D*2A
$PGRME,2.4,M,2.4,M,3.4,M*29
$YXXDR,A,6.1,D,PTCH,A,3.3,D,ROLL*5A
$HCHDG,315.1,0.0,E,,*2F
$HCHDG,315.3,0.0,E,,*2D
$GPRMC,010025.2,A,4715.49477,N,12226.19850,W,000.01,286.5,110813,016.5,E,D*28
$PGRME,2.4,M,2.4,M,3.4,M*29
$HCHDG,315.3,0.0,E,,*2D
$HCHDG,315.3,0.0,E,,*2D
$GPRMC,010025.4,A,4715.49477,N,12226.19850,W,000.00,286.5,110813,016.5,E,D*2F
$GPRMB,A,-1.10,L,,Shil,4741.0830,N,12224.5670,W,25.6,2,0.00,V*24
$PGRME,2.4,M,2.4,M,3.4,M*29
$HCHDG,315.3,0.0,E,,*2D
$YXXDR,A,6.2,D,PTCH,A,3.5,D,ROLL*5F
$PTAK,FFD1,3.5*53
$HCHDG,315.3,0.0,E,,*2D
$GPRMC,010025.6,A,4715.49477,N,12226.19851,W,000.01,286.5,110813,016.5,E,D*2D
$PGRME,2.4,M,2.4,M,3.4,M*29
$HCHDG,315.3,0.0,E,,*2D
$HCHDG,315.3,0.0,E,,*2D
$GPRMC,010025.8,A,4715.49477,N,12226.19850,W,000.01,286.5,110813,016.5,E,D*22
$PGRME,2.4,M,2.4,M,3.4,M*29
$HCHDG,315.3,0.0,E,,*2D
$HCHDG,315.3,0.0,E,,*2D
$GPRMC,010026.0,A,4715.49477,N,12226.19850,W,000.01,286.5,110813,016.5,E,D*29
$PGRME,2.4,M,2.4,M,3.4,M*29
$YXXDR,A,6.2,D,PTCH,A,3.3,D,ROLL*59
$HCHDG,315.3,0.0,E,,*2D
$HCHDG,315.3,0.0,E,,*2D
$GPRMC,010026.2,A,4715.49477,N,12226.19850,W,000.01,286.5,110813,016.5,E,D*2B
$PGRME,2.4,M,2.4,M,3.4,M*29
$HCHDG,315.3,0.0,E,,*2D
$HCHDG,315.3,0.0,E,,*2D
$GPRMC,010026.4,A,4715.49477,N,12226.19850,W,000.01,286.5,110813,016.5,E,D*2D
$PGRME,2.4,M,2.4,M,3.4,M*29
$HCHDG,315.3,0.0,E,,*2D
$YXXDR,A,6.1,D,PTCH,A,3.2,D,ROLL*5B
$HCHDG,315.4,0.0,E,,*2A
$GPRMC,010026.6,A,4715.49477,N,12226.19850,W,000.01,286.5,110813,016.5,E,D*2F
$GPRMB,A,-1.10,L,,Shil,4741.0830,N,12224.5670,W,25.6,2,0.00,V*24
$PGRME,2.4,M,2.4,M,3.4,M*29
$HCHDG,315.5,0.0,E,,*2B
$HCHDG,315.5,0.0,E,,*2B
$GPRMC,010026.8,A,4715.49477,N,12226.19850,W,000.01,286.5,110813,016.5,E,D*21
$PGRME,2.4,M,2.4,M,3.4,M*29
$HCHDG,315.5,0.0,E,,*2B
$HCHDG,315.5,0.0,E,,*2B
$GPRMC,010027.0,A,4715.49477,N,12226.19850,W,000.00,286.5,110813,016.5,E,D*29
$PGRME,2.4,M,2.4,M,3.4,M*29
$YXXDR,A,6.0,D,PTCH,A,3.3,D,ROLL*5B
$PTAK,FFD1,3.3*55
$HCHDG,315.5,0.0,E,,*2B
$HCHDG,315.5,0.0,E,,*2B
$GPRMC,010027.2,A,4715.49477,N,12226.19850,W,000.00,286.5,110813,016.5,E,D*2B
$PGRME,2.4,M,2.4,M,3.4,M*29
$HCHDG,315.6,0.0,E,,*28
$HCHDG,315.6,0.0,E,,*28
$GPRMC,010027.4,A,4715.49477,N,12226.19850,W,000.01,286.5,110813,016.5,E,D*2C
$PGRME,2.4,M,2.4,M,3.4,M*29
$HCHDG,315.6,0.0,E,,*28
$YXXDR,A,6.0,D,PTCH,A,3.5,D,ROLL*5D
$HCHDG,315.6,0.0,E,,*28
$GPRMC,010027.6,A,4715.49477,N,12226.19850,W,000.01,286.5,110813,016.5,E,D*2E
$PGRME,2.4,M,2.4,M,3.4,M*29
$HCHDG,315.6,0.0,E,,*28
$PTAK,FFP1,HEEL,@*07
$HCHDG,315.6,0.0,E,,*28
$GPRMC,010027.8,A,4715.49477,N,12226.19849,W,000.00,286.5,110813,016.5,E,D*29
$GPRMB,A,-1.10,L,,Shil,4741.0830,N,12224.5670,W,25.6,2,0.00,V*24
$PGRME,2.4,M,2.4,M,3.4,M*29
$HCHDG,315.6,0.0,E,,*28
$HCHDG,315.6,0.0,E,,*28
$GPRMC,010028.0,A,4715.49477,N,12226.19849,W,000.01,286.5,110813,016.5,E,D*2F
$PGRME,2.4,M,2.4,M,3.4,M*29
$YXXDR,A,6.0,D,PTCH,A,3.4,D,ROLL*5C
$PTAK,FFD1,3.4*52
$HCHDG,315.6,0.0,E,,*28
$HCHDG,315.7,0.0,E,,*29
$GPRMC,010028.2,A,4715.49477,N,12226.19849,W,000.00,286.5,110813,016.5,E,D*2C
$PGRME,2.4,M,2.4,M,3.4,M*29
$HCHDG,315.7,0.0,E,,*29
$HCHDG,315.8,0.0,E,,*26
$GPRMC,010028.4,A,4715.49477,N,12226.19849,W,000.00,286.5,110813,016.5,E,D*2A
$PGRME,2.4,M,2.4,M,3.4,M*29
$HCHDG,315.8,0.0,E,,*26
$YXXDR,A,6.1,D,PTCH,A,3.2,D,ROLL*5B
$HCHDG,315.8,0.0,E,,*26
$GPRMC,010028.6,A,4715.49477,N,12226.19849,W,000.01,286.5,110813,016.5,E,D*29
$PGRME,2.4,M,2.4,M,3.4,M*29
$HCHDG,315.8,0.0,E,,*26
$HCHDG,315.9,0.0,E,,*27
$GPRMC,010028.8,A,4715.49477,N,12226.19849,W,000.01,286.5,110813,016.5,E,D*27
$GPRMB,A,-1.10,L,,Shil,4741.0830,N,12224.5670,W,25.6,2,0.00,V*24
$PGRME,2.4,M,2.4,M,3.4,M*29
$HCHDG,315.9,0.0,E,,*27
$HCHDG,315.8,0.0,E,,*26
$GPRMC,010029.0,A,4715.49477,N,12226.19848,W,000.00,286.5,110813,016.5,E,D*2E
$PGRME,2.4,M,2.4,M,3.4,M*29
$YXXDR,A,6.1,D,PTCH,A,3.2,D,ROLL*5B
$PTAK,FFD1,3.2*54
$HCHDG,315.7,0.0,E,,*29
$HCHDG,315.7,0.0,E,,*29
$GPRMC,010029.2,A,4715.49477,N,12226.19848,W,000.01,286.5,110813,016.5,E,D*2D
$PGRME,2.4,M,2.4,M,3.4,M*29
$HCHDG,315.8,0.0,E,,*26
$HCHDG,315.8,0.0,E,,*26
$GPRMC,010029.4,A,4715.49477,N,12226.19848,W,000.01,286.5,110813,016.5,E,D*2B
$PGRME,2.4,M,2.4,M,3.4,M*29
$HCHDG,315.8,0.0,E,,*26
$YXXDR,A,6.1,D,PTCH,A,3.3,D,ROLL*5A
$HCHDG,315.8,0.0,E,,*26
$GPRMC,010029.6,A,4715.49476,N,12226.19848,W,000.00,286.5,110813,016.5,E,D*29
$PGRME,2.4,M,2.4,M,3.4,M*29
$HCHDG,315.9,0.0,E,,*27
$HCHDG,315.9,0.0,E,,*27
$GPRMC,010029.8,A,4715.49476,N,12226.19848,W,000.00,286.5,110813,016.5,E,D*27
$GPRMB,A,-1.10,L,,Shil,4741.0830,N,12224.5670,W,25.6,2,0.00,V*24
$PGRME,2.4,M,2.4,M,3.4,M*29
$HCHDG,315.8,0.0,E,,*26
$HCHDG,315.8,0.0,E,,*26
$GPRMC,010030.0,A,4715.49476,N,12226.19848,W,000.00,286.5,110813,016.5,E,D*27
$PGRME,2.4,M,2.4,M,3.4,M*29
$YXXDR,A,6.2,D,PTCH,A,3.5,D,ROLL*5F
$PTAK,FFD1,3.5*53
$HCHDG,315.8,0.0,E,,*26
$HCHDG,315.7,0.0,E,,*29
$GPRMC,010030.2,A,4715.49477,N,12226.19848,W,000.00,286.5,110813,016.5,E,D*24
$PGRME,2.4,M,2.4,M,3.4,M*29
$HCHDG,315.7,0.0,E,,*29
$HCHDG,315.7,0.0,E,,*29
$GPRMC,010030.4,A,4715.49477,N,12226.19848,W,000.00,286.5,110813,016.5,E,D*22
$PGRME,2.4,M,2.4,M,3.4,M*29
$HCHDG,315.7,0.0,E,,*29
$YXXDR,A,6.1,D,PTCH,A,3.2,D,ROLL*5B
$HCHDG,315.8,0.0,E,,*26
$GPRMC,010030.6,A,4715.49477,N,12226.19847,W,000.00,286.5,110813,016.5,E,D*2F
$PGRME,2.4,M,2.4,M,3.4,M*29
$HCHDG,315.7,0.0,E,,*29
$HCHDG,315.7,0.0,E,,*29
$GPRMC,010030.8,A,4715.49477,N,12226.19847,W,000.01,286.5,110813,016.5,E,D*20
$PGRME,2.4,M,2.4,M,3.4,M*29
$HCHDG,315.5,0.0,E,,*2B
$HCHDG,315.6,0.0,E,,*28
$GPRMC,010031.0,A,4715.49476,N,12226.19847,W,000.01,286.5,110813,016.5,E,D*28
$GPRMB,A,-1.10,L,,Shil,4741.0830,N,12224.5670,W,25.6,2,0.00,V*24
$PGRME,2.4,M,2.4,M,3.4,M*29
$YXXDR,A,6.1,D,PTCH,A,3.0,D,ROLL*59
$PTAK,FFD1,3.0*56
$HCHDG,315.5,0.0,E,,*2B
$HCHDG,315.5,0.0,E,,*2B
$GPRMC,010031.2,A,4715.49476,N,12226.19847,W,000.01,286.5,110813,016.5,E,D*2A
$PGRME,2.4,M,2.4,M,3.4,M*29
$HCHDG,315.5,0.0,E,,*2B
$HCHDG,315.4,0.0,E,,*2A
$GPRMC,010031.4,A,4715.49476,N,12226.19847,W,000.01,286.5,110813,016.5,E,D*2C
$PGRME,2.4,M,2.4,M,3.4,M*29
$HCHDG,315.4,0.0,E,,*2A
$YXXDR,A,6.1,D,PTCH,A,3.1,D,ROLL*58
$HCHDG,315.4,0.0,E,,*2A
$GPRMC,010031.6,A,4715.49476,N,12226.19847,W,000.01,286.5,110813,016.5,E,D*2E
$PGRME,2.4,M,2.4,M,3.4,M*29
$HCHDG,315.4,0.0,E,,*2A
$HCHDG,315.4,0.0,E,,*2A
$PTAK,FFP1,HEEL,@*07
$GPRMC,010031.8,A,4715.49476,N,12226.19846,W,000.00,286.5,110813,016.5,E,D*20
$PGRME,2.4,M,2.4,M,3.4,M*29
$HCHDG,315.4,0.0,E,,*2A
$HCHDG,315.4,0.0,E,,*2A
$GPRMC,010032.0,A,4715.49476,N,12226.19846,W,000.01,286.5,110813,016.5,E,D*2A
$PGRME,2.4,M,2.4,M,3.4,M*29
$YXXDR,A,6.0,D,PTCH,A,3.3,D,ROLL*5B
$HCHDG,315.3,0.0,E,,*2D
$HCHDG,315.3,0.0,E,,*2D
$GPRMC,010032.2,A,4715.49476,N,12226.19846,W,000.00,286.5,110813,016.5,E,D*29
$GPRMB,A,-1.10,L,,Shil,4741.0830,N,12224.5670,W,25.6,2,0.00,V*24
$PGRME,2.4,M,2.4,M,3.4,M*29
$HCHDG,315.3,0.0,E,,*2D
$HCHDG,315.2,0.0,E,,*2C
$GPRMC,010032.4,A,4715.49476,N,12226.19846,W,000.00,286.5,110813,016.5,E,D*2F
$PGRME,2.4,M,2.4,M,3.4,M*29
$HCHDG,315.1,0.0,E,,*2F
$YXXDR,A,6.2,D,PTCH,A,3.3,D,ROLL*59
$PTAK,FFD1,3.3*55
$HCHDG,315.1,0.0,E,,*2F
$GPRMC,010032.6,A,4715.49476,N,12226.19846,W,000.00,286.5,110813,016.5,E,D*2D
$PGRME,2.4,M,2.4,M,3.4,M*29
$HCHDG,315.1,0.0,E,,*2F
$HCHDG,315.0,0.0,E,,*2E
$GPRMC,010032.8,A,4715.49476,N,12226.19846,W,000.01,286.5,110813,016.5,E,D*22
$PGRME,2.4,M,2.4,M,3.4,M*29
$HCHDG,315.0,0.0,E,,*2E
$HCHDG,315.1,0.0,E,,*2F
$GPRMC,010033.0,A,4715.49476,N,12226.19846,W,000.00,286.5,110813,016.5,E,D*2A
$PGRME,2.4,M,2.4,M,3.4,M*29
$YXXDR,A,6.0,D,PTCH,A,3.5,D,ROLL*5D
$HCHDG,315.2,0.0,E,,*2C
$HCHDG,315.2,0.0,E,,*2C
$GPRMC,010033.2,A,4715.49476,N,12226.19846,W,000.01,286.5,110813,016.5,E,D*29
$PGRME,2.4,M,2.4,M,3.4,M*29
$HCHDG,315.1,0.0,E,,*2F
$HCHDG,315.1,0.0,E,,*2F
$GPRMC,010033.4,A,4715.49476,N,12226.19846,W,000.01,286.5,110813,016.5,E,D*2F
$GPRMB,A,-1.10,L,,Shil,4741.0830,N,12224.5670,W,25.6,2,0.00,V*24
$PGRME,2.4,M,2.4,M,3.4,M*29
$HCHDG,315.1,0.0,E,,*2F
$YXXDR,A,6.0,D,PTCH,A,3.4,D,ROLL*5C
$PTAK,FFD1,3.4*52
$HCHDG,315.1,0.0,E,,*2F
$GPRMC,010033.6,A,4715.49475,N,12226.19847,W,000.01,286.5,110813,016.5,E,D*2F
$PGRME,2.4,M,2.4,M,3.4,M*29
$HCHDG,315.2,0.0,E,,*2C
$HCHDG,315.3,0.0,E,,*2D
$GPRMC,010033.8,A,4715.49475,N,12226.19847,W,000.01,286.5,110813,016.5,E,D*21
$PGRME,2.4,M,2.4,M,3.4,M*29
$HCHDG,315.3,0.0,E,,*2D
$HCHDG,315.3,0.0,E,,*2D
$GPRMC,010034.0,A,4715.49475,N,12226.19847,W,000.01,286.5,110813,016.5,E,D*2E
$PGRME,2.4,M,2.4,M,3.4,M*29
$YXXDR,A,6.1,D,PTCH,A,3.0,D,ROLL*59
$HCHDG,315.1,0.0,E,,*2F
$HCHDG,315.2,0.0,E,,*2C
$GPRMC,010034.2,A,4715.49475,N,12226.19847,W,000.00,286.5,110813,016.5,E,D*2D
$PGRME,2.4,M,2.4,M,3.4,M*29
$HCHDG,315.1,0.0,E,,*2F
$HCHDG,315.1,0.0,E,,*2F
$GPRMC,010034.4,A,4715.49475,N,12226.19847,W,000.01,286.5,110813,016.5,E,D*2A
$GPRMB,A,-1.10,L,,Shil,4741.0830,N,12224.5670,W,25.6,2,0.00,V*24
$PGRME,2.4,M,2.4,M,3.4,M*29
$HCHDG,315.1,0.0,E,,*2F
$YXXDR,A,6.1,D,PTCH,A,3.2,D,ROLL*5B
$PTAK,FFD1,3.2*54
$HCHDG,315.2,0.0,E,,*2C
$GPRMC,010034.6,A,4715.49475,N,12226.19847,W,000.01,286.5,110813,016.5,E,D*28
$PGRME,2.4,M,2.4,M,3.4,M*29
$HCHDG,315.2,0.0,E,,*2C
$HCHDG,315.3,0.0,E,,*2D
$GPRMC,010034.8,A,4715.49475,N,12226.19847,W,000.00,286.5,110813,016.5,E,D*27
$PGRME,2.4,M,2.4,M,3.4,M*29
$HCHDG,315.1,0.0,E,,*2F
$HCHDG,315.2,0.0,E,,*2C
$GPRMC,010035.0,A,4715.49475,N,12226.19847,W,000.00,286.5,110813,016.5,E,D*2E
$PGRME,2.4,M,2.4,M,3.4,M*29
$YXXDR,A,6.0,D,PTCH,A,3.3,D,ROLL*5B
$HCHDG,315.2,0.0,E,,*2C
$HCHDG,315.2,0.0,E,,*2C
$GPRMC,010035.2,A,4715.49475,N,12226.19847,W,000.00,286.5,110813,016.5,E,D*2C
$PGRME,2.4,M,2.4,M,3.4,M*29
$HCHDG,315.2,0.0,E,,*2C
$HCHDG,315.3,0.0,E,,*2D
$GPRMC,010035.4,A,4715.49475,N,12226.19847,W,000.01,286.5,110813,016.5,E,D*2B
$PGRME,2.4,M,2.4,M,3.4,M*29
$HCHDG,315.4,0.0,E,,*2A
$YXXDR,A,6.1,D,PTCH,A,3.0,D,ROLL*59
$HCHDG,315.3,0.0,E,,*2D
$GPRMC,010035.6,A,4715.49475,N,12226.19846,W,000.00,286.5,110813,016.5,E,D*29
$PGRME,2.4,M,2.4,M,3.4,M*29
$HCHDG,315.3,0.0,E,,*2D
$HCHDG,315.1,0.0,E,,*2F
$PTAK,FFP1,HEEL,@*07
$GPRMC,010035.8,A,4715.49475,N,12226.19846,W,000.01,286.5,110813,016.5,E,D*26
$PGRME,2.4,M,2.4,M,3.4,M*29
$HCHDG,315.1,0.0,E,,*2F
$HCHDG,315.1,0.0,E,,*2F
$GPRMC,010036.0,A,4715.49475,N,12226.19846,W,000.01,286.5,110813,016.5,E,D*2D
$GPRMB,A,-1.10,L,,Shil,4741.0830,N,12224.5670,W,25.6,2,0.00,V*24
$PGRME,2.4,M,2.4,M,3.4,M*29
$YXXDR,A,6.1,D,PTCH,A,2.9,D,ROLL*51
$PTAK,FFD1,2.9*5E
$HCHDG,315.1,0.0,E,,*2F
$HCHDG,315.1,0.0,E,,*2F
$GPRMC,010036.2,A,4715.49475,N,12226.19846,W,000.00,286.5,110813,016.5,E,D*2E
$PGRME,2.4,M,2.4,M,3.4,M*29
$HCHDG,315.1,0.0,E,,*2F
$HCHDG,314.9,0.0,E,,*26
$GPRMC,010036.4,A,4715.49475,N,12226.19847,W,000.01,286.5,110813,016.5,E,D*28
$PGRME,2.4,M,2.4,M,3.4,M*29
$HCHDG,315.1,0.0,E,,*2F
$YXXDR,A,6.1,D,PTCH,A,3.3,D,ROLL*5A
$HCHDG,315.1,0.0,E,,*2F
$GPRMC,010036.6,A,4715.49475,N,12226.19847,W,000.00,286.5,110813,016.5,E,D*2B
$PGRME,2.4,M,2.4,M,3.4,M*29
$HCHDG,315.0,0.0,E,,*2E
$HCHDG,315.0,0.0,E,,*2E
$GPRMC,010036.8,A,4715.49475,N,12226.19847,W,000.01,286.5,110813,016.5,E,D*24
$PGRME,2.4,M,2.4,M,3.4,M*29
$HCHDG,315.0,0.0,E,,*2E
$HCHDG,315.0,0.0,E,,*2E
$GPRMC,010037.0,A,4715.49475,N,12226.19847,W,000.01,286.5,110813,016.5,E,D*2D
$PGRME,2.4,M,2.4,M,3.4,M*29
$YXXDR,A,6.2,D,PTCH,A,3.3,D,ROLL*59
$HCHDG,315.0,0.0,E,,*2E
$HCHDG,315.1,0.0,E,,*2F
$GPRMC,010037.2,A,4715.49475,N,12226.19847,W,000.00,286.5,110813,016.5,E,D*2E
$GPRMB,A,-1.10,L,,Shil,4741.0830,N,12224.5670,W,25.6,2,0.00,V*24
$PGRME,2.4,M,2.4,M,3.4,M*29
$HCHDG,315.0,0.0,E,,*2E
$HCHDG,315.0,0.0,E,,*2E
$GPRMC,010037.4,A,4715.49475,N,12226.19847,W,000.00,286.5,110813,016.5,E,D*28
$PGRME,2.4,M,2.4,M,3.4,M*29
$HCHDG,315.0,0.0,E,,*2E
$YXXDR,A,6.0,D,PTCH,A,3.4,D,ROLL*5C
$PTAK,FFD1,3.4*52
$HCHDG,315.0,0.0,E,,*2E
$GPRMC,010037.6,A,4715.49475,N,12226.19847,W,000.01,286.5,110813,016.5,E,D*2B
$PGRME,2.4,M,2.4,M,3.4,M*29
$HCHDG,314.9,0.0,E,,*26
$HCHDG,314.9,0.0,E,,*26
$GPRMC,010037.8,A,4715.49475,N,12226.19847,W,000.01,286.5,110813,016.5,E,D*25
$PGRME,2.4,M,2.4,M,3.4,M*29
$HCHDG,314.9,0.0,E,,*26
$HCHDG,314.9,0.0,E,,*26
$GPRMC,010038.0,A,4715.49475,N,12226.19847,W,000.01,286.5,110813,016.5,E,D*22
$PGRME,2.4,M,2.4,M,3.4,M*29
$YXXDR,A,6.2,D,PTCH,A,3.3,D,ROLL*59
$HCHDG,314.9,0.0,E,,*26
$HCHDG,314.9,0.0,E,,*26
$GPRMC,010038.2,A,4715.49475,N,12226.19847,W,000.01,286.5,110813,016.5,E,D*20
$PGRME,2.4,M,2.4,M,3.4,M*29
$HCHDG,314.9,0.0,E,,*26
$HCHDG,314.9,0.0,E,,*26
$GPRMC,010038.4,A,4715.49475,N,12226.19847,W,000.01,286.5,110813,016.5,E,D*26
$GPRMB,A,-1.10,L,,Shil,4741.0830,N,12224.5670,W,25.6,2,0.00,V*24
$PGRME,2.4,M,2.4,M,3.4,M*29
$HCHDG,315.0,0.0,E,,*2E
$YXXDR,A,6.1,D,PTCH,A,3.2,D,ROLL*5B
$PTAK,FFD1,3.2*54
$HCHDG,315.1,0.0,E,,*2F
$GPRMC,010038.6,A,4715.49475,N,12226.19847,W,000.00,286.5,110813,016.5,E,D*25
$PGRME,2.4,M,2.4,M,3.4,M*29
$HCHDG,315.1,0.0,E,,*2F
$HCHDG,315.1,0.0,E,,*2F
$GPRMC,010038.8,A,4715.49475,N,12226.19847,W,000.01,286.5,110813,016.5,E,D*2A
$PGRME,2.4,M,2.4,M,3.4,M*29
$HCHDG,315.1,0.0,E,,*2F
$HCHDG,315.0,0.0,E,,*2E
$GPRMC,010039.0,A,4715.49475,N,12226.19847,W,000.01,286.5,110813,016.5,E,D*23
$PGRME,2.4,M,2.4,M,3.4,M*29
$YXXDR,A,6.1,D,PTCH,A,3.2,D,ROLL*5B
$HCHDG,315.0,0.0,E,,*2E
$HCHDG,315.0,0.0,E,,*2E
$GPRMC,010039.2,A,4715.49475,N,12226.19846,W,000.00,286.5,110813,016.5,E,D*21
$PGRME,2.4,M,2.4,M,3.4,M*29
$HCHDG,315.0,0.0,E,,*2E
$HCHDG,315.1,0.0,E,,*2F
$GPRMC,010039.4,A,4715.49475,N,12226.19846,W,000.01,286.5,110813,016.5,E,D*26
$PGRME,2.4,M,2.4,M,3.4,M*29
$HCHDG,315.1,0.0,E,,*2F
$YXXDR,A,6.1,D,PTCH,A,3.2,D,ROLL*5B
$HCHDG,315.1,0.0,E,,*2F
$GPRMC,010039.6,A,4715.49475,N,12226.19846,W,000.01,286.5,110813,016.5,E,D*24
$GPRMB,A,-1.10,L,,Shil,4741.0830,N,12224.5670,W,25.6,2,0.00,V*24
$PGRME,2.4,M,2.4,M,3.4,M*29
$HCHDG,315.1,0.0,E,,*2F
$PTAK,FFP1,HEEL,@*07
$HCHDG,315.1,0.0,E,,*2F
$GPRMC,010039.8,A,4715.49475,N,12226.19846,W,000.00,286.5,110813,016.5,E,D*2B
$PGRME,2.4,M,2.4,M,3.4,M*29
$HCHDG,315.1,0.0,E,,*2F
$HCHDG,315.0,0.0,E,,*2E
$GPRMC,010040.0,A,4715.49475,N,12226.19846,W,000.01,286.5,110813,016.5,E,D*2C
$PGRME,2.4,M,2.4,M,3.4,M*29
$YXXDR,A,6.1,D,PTCH,A,3.0,D,ROLL*59
$PTAK,FFD1,3.0*56
$HCHDG,315.1,0.0,E,,*2F
$HCHDG,315.1,0.0,E,,*2F
$GPRMC,010040.2,A,4715.49475,N,12226.19846,W,000.01,286.5,110813,016.5,E,D*2E
$PGRME,2.4,M,2.4,M,3.4,M*29
$HCHDG,315.1,0.0,E,,*2F
$HCHDG,315.2,0.0,E,,*2C
$GPRMC,010040.4,A,4715.49475,N,12226.19845,W,000.00,286.5,110813,016.5,E,D*2A
$PGRME,2.4,M,2.4,M,3.4,M*29
$HCHDG,315.0,0.0,E,,*2E
$YXXDR,A,6.0,D,PTCH,A,3.0,D,ROLL*58
$HCHDG,315.0,0.0,E,,*2E
$GPRMC,010040.6,A,4715.49475,N,12226.19845,W,000.00,286.5,110813,016.5,E,D*28
$PGRME,2.4,M,2.4,M,3.4,M*29
$HCHDG,315.1,0.0,E,,*2F
$HCHDG,315.1,0.0,E,,*2F
$GPRMC,010040.8,A,4715.49475,N,12226.19845,W,000.01,286.5,110813,016.5,E,D*27
$GPRMB,A,-1.10,L,,Shil,4741.0830,N,12224.5670,W,25.6,2,0.00,V*24
$PGRME,2.4,M,2.4,M,3.4,M*29
$HCHDG,315.1,0.0,E,,*2F
$HCHDG,315.1,0.0,E,,*2F
$GPRMC,010041.0,A,4715.49475,N,12226.19845,W,000.00,286.5,110813,016.5,E,D*2F
$PGRME,2.4,M,2.4,M,3.4,M*29
$YXXDR,A,6.1,D,PTCH,A,3.2,D,ROLL*5B
$PTAK,FFD1,3.2*54
$HCHDG,315.0,0.0,E,,*2E
$HCHDG,315.2,0.0,E,,*2C
$GPRMC,010041.2,A,4715.49475,N,12226.19845,W,000.01,286.5,110813,016.5,E,D*2C
$PGRME,2.4,M,2.4,M,3.4,M*29
$HCHDG,315.1,0.0,E,,*2F
$HCHDG,315.1,0.0,E,,*2F
$GPRMC,010041.4,A,4715.49475,N,12226.19845,W,000.01,286.5,110813,016.5,E,D*2A
$PGRME,2.4,M,2.4,M,3.4,M*29
$HCHDG,315.1,0.0,E,,*2F
$YXXDR,A,6.1,D,PTCH,A,3.3,D,ROLL*5A
$HCHDG,315.0,0.0,E,,*2E
$GPRMC,010041.6,A,4715.49475,N,12226.19846,W,000.00,286.5,110813,016.5,E,D*2A
$PGRME,2.4,M,2.4,M,3.4,M*29
$HCHDG,315.0,0.0,E,,*2E
$HCHDG,315.0,0.0,E,,*2E
$GPRMC,010041.8,A,4715.49475,N,12226.19846,W,000.00,286.5,110813,016.5,E,D*24
$GPRMB,A,-1.10,L,,Shil,4741.0830,N,12224.5670,W,25.6,2,0.00,V*24
$PGRME,2.4,M,2.4,M,3.4,M*29
$HCHDG,315.0,0.0,E,,*2E
$HCHDG,315.0,0.0,E,,*2E
$GPRMC,010042.0,A,4715.49475,N,12226.19846,W,000.00,286.5,110813,016.5,E,D*2F
$PGRME,2.4,M,2.4,M,3.4,M*29
$YXXDR,A,6.0,D,PTCH,A,3.4,D,ROLL*5C
$HCHDG,314.9,0.0,E,,*26
$HCHDG,314.9,0.0,E,,*26
$GPRMC,010042.2,A,4715.49475,N,12226.19846,W,000.00,286.5,110813,016.5,E,D*2D
$PGRME,2.4,M,2.4,M,3.4,M*29
$HCHDG,314.9,0.0,E,,*26
$HCHDG,315.2,0.0,E,,*2C
$GPRMC,010042.4,A,4715.49475,N,12226.19846,W,000.00,286.5,110813,016.5,E,D*2B
$PGRME,2.4,M,2.4,M,3.4,M*29
$HCHDG,315.2,0.0,E,,*2C
$YXXDR,A,6.1,D,PTCH,A,3.3,D,ROLL*5A
$PTAK,FFD1,3.3*55
$HCHDG,315.2,0.0,E,,*2C
$GPRMC,010042.6,A,4715.49475,N,12226.19846,W,000.01,286.5,110813,016.5,E,D*28
$PGRME,2.4,M,2.4,M,3.4,M*29
$HCHDG,315.0,0.0,E,,*2E
$HCHDG,315.0,0.0,E,,*2E
$GPRMC,010042.8,A,4715.49475,N,12226.19846,W,000.00,286.5,110813,016.5,E,D*27
$GPRMB,A,-1.10,L,,Shil,4741.0830,N,12224.5670,W,25.6,2,0.00,V*24
$PGRME,2.4,M,2.4,M,3.4,M*29
$HCHDG,315.0,0.0,E,,*2E
$HCHDG,315.0,0.0,E,,*2E
$GPRMC,010043.0,A,4715.49475,N,12226.19847,W,000.00,286.5,110813,016.5,E,D*2F
$PGRME,2.4,M,2.4,M,3.4,M*29
$YXXDR,A,6.1,D,PTCH,A,3.2,D,ROLL*5B
$HCHDG,315.0,0.0,E,,*2E
$HCHDG,315.0,0.0,E,,*2E
$GPRMC,010043.2,A,4715.49475,N,12226.19847,W,000.00,286.5,110813,016.5,E,D*2D
$PGRME,2.4,M,2.4,M,3.4,M*29
$HCHDG,315.0,0.0,E,,*2E
$HCHDG,314.9,0.0,E,,*26
$GPRMC,010043.4,A,4715.49475,N,12226.19847,W,000.01,286.5,110813,016.5,E,D*2A
$PGRME,2.4,M,2.4,M,3.4,M*29
$HCHDG,315.1,0.0,E,,*2F
$YXXDR,A,6.2,D,PTCH,A,3.3,D,ROLL*59
$PTAK,FFD1,3.3*55
$HCHDG,315.1,0.0,E,,*2F
$GPRMC,010043.6,A,4715.49475,N,12226.19847,W,000.01,286.5,110813,016.5,E,D*28
$PGRME,2.4,M,2.4,M,3.4,M*29
$HCHDG,315.1,0.0,E,,*2F
$HCHDG,315.1,0.0,E,,*2F
$GPRMC,010043.8,A,4715.49475,N,12226.19847,W,000.01,286.5,110813,016.5,E,D*26
$PGRME,2.4,M,2.4,M,3.4,M*29
$HCHDG,315.1,0.0,E,,*2F
$PTAK,FFP1,HEEL,@*07
$HCHDG,315.1,0.0,E,,*2F
$GPRMC,010044.0,A,4715.49474,N,12226.19847,W,000.00,286.5,110813,016.5,E,D*29
$GPRMB,A,-1.10,L,,Shil,4741.0830,N,12224.5670,W,25.6,2,0.00,V*24
$PGRME,2.4,M,2.4,M,3.4,M*29
$PGRMT,GPS 18x-5Hz software ver. 3.20,,,,,,,,*30
$YXXDR,A,6.2,D,PTCH,A,3.3,D,ROLL*59
$HCHDG,315.1,0.0,E,,*2F
$HCHDG,315.1,0.0,E,,*2F
$GPRMC,010044.2,A,4715.49474,N,12226.19847,W,000.01,286.5,110813,016.5,E,D*2A
$PGRME,2.4,M,2.4,M,3.4,M*29
$HCHDG,315.1,0.0,E,,*2F
$HCHDG,314.9,0.0,E,,*26
$GPRMC,010044.4,A,4715.49474,N,12226.19847,W,000.00,286.5,110813,016.5,E,D*2D
$PGRME,2.4,M,2.4,M,3.4,M*29
$HCHDG,314.9,0.0,E,,*26
$YXXDR,A,6.1,D,PTCH,A,2.9,D,ROLL*51
$HCHDG,314.9,0.0,E,,*26
$GPRMC,010044.6,A,4715.49474,N,12226.19848,W,000.00,286.5,110813,016.5,E,D*20
$PGRME,2.4,M,2.4,M,3.4,M*29
$HCHDG,315.0,0.0,E,,*2E
$HCHDG,315.0,0.0,E,,*2E
$GPRMC,010044.8,A,4715.49474,N,12226.19848,W,000.00,286.5,110813,016.5,E,D*2E
$PGRME,2.4,M,2.4,M,3.4,M*29
$HCHDG,314.9,0.0,E,,*26
$HCHDG,314.9,0.0,E,,*26
$GPRMC,010045.0,A,4715.49474,N,12226.19848,W,000.01,286.5,110813,016.5,E,D*26
$PGRME,2.4,M,2.4,M,3.4,M*29
$YXXDR,A,6.0,D,PTCH,A,3.3,D,ROLL*5B
$PTAK,FFD1,3.3*55
$HCHDG,314.9,0.0,E,,*26
$HCHDG,315.0,0.0,E,,*2E
$GPRMC,010045.2,A,4715.49474,N,12226.19848,W,000.01,286.5,110813,016.5,E,D*24
$GPRMB,A,-1.10,L,,Shil,4741.0830,N,12224.5670,W,25.6,2,0.00,V*24
$PGRME,2.4,M,2.4,M,3.4,M*29
$HCHDG,315.0,0.0,E,,*2E
$HCHDG,315.0,0.0,E,,*2E
$GPRMC,010045.4,A,4715.49474,N,12226.19848,W,000.00,286.5,110813,016.5,E,D*23
$PGRME,2.4,M,2.4,M,3.4,M*29
$HCHDG,314.8,0.0,E,,*27
$YXXDR,A,6.0,D,PTCH,A,3.5,D,ROLL*5D
$HCHDG,314.8,0.0,E,,*27
$GPRMC,010045.6,A,4715.49474,N,12226.19848,W,000.00,286.5,110813,016.5,E,D*21
$PGRME,2.4,M,2.4,M,3.4,M*29
$HCHDG,315.0,0.0,E,,*2E
$HCHDG,315.0,0.0,E,,*2E
$GPRMC,010045.8,A,4715.49474,N,12226.19848,W,000.00,286.5,110813,016.5,E,D*2F
$PGRME,2.4,M,2.4,M,3.4,M*29
$HCHDG,315.0,0.0,E,,*2E
$HCHDG,314.9,0.0,E,,*26
$GPRMC,010046.0,A,4715.49474,N,12226.19848,W,000.00,286.5,110813,016.5,E,D*24
$PGRME,2.4,M,2.4,M,3.4,M*29
$YXXDR,A,5.9,D,PTCH,A,3.4,D,ROLL*56
$HCHDG,314.9,0.0,E,,*26
$HCHDG,314.9,0.0,E,,*26
$GPRMC,010046.2,A,4715.49474,N,12226.19848,W,000.00,286.5,110813,016.5,E,D*26
$GPRMB,A,-1.10,L,,Shil,4741.0830,N,12224.5670,W,25.6,2,0.00,V*24
$PGRME,2.4,M,2.4,M,3.4,M*29
$HCHDG,314.9,0.0,E,,*26
$HCHDG,314.9,0.0,E,,*26
$GPRMC,010046.4,A,4715.49474,N,12226.19848,W,000.00,286.5,110813,016.5,E,D*20
$PGRME,2.4,M,2.4,M,3.4,M*29
$HCHDG,314.9,0.0,E,,*26
$YXXDR,A,6.0,D,PTCH,A,3.2,D,ROLL*5A
$PTAK,FFD1,3.2*54
$HCHDG,314.9,0.0,E,,*26
$GPRMC,010046.6,A,4715.49474,N,12226.19848,W,000.00,286.5,110813,016.5,E,D*22
$PGRME,2.4,M,2.4,M,3.4,M*29
$HCHDG,314.9,0.0,E,,*26
$HCHDG,314.9,0.0,E,,*26
$GPRMC,010046.8,A,4715.49474,N,12226.19848,W,000.00,286.5,110813,016.5,E,D*2C
$PGRME,2.4,M,2.4,M,3.4,M*29
$HCHDG,314.9,0.0,E,,*26
$HCHDG,315.0,0.0,E,,*2E
$GPRMC,010047.0,A,4715.49474,N,12226.19848,W,000.01,286.5,110813,016.5,E,D*24
$PGRME,2.4,M,2.4,M,3.4,M*29
$YXXDR,A,6.0,D,PTCH,A,3.3,D,ROLL*5B
$HCHDG,315.0,0.0,E,,*2E
$HCHDG,315.0,0.0,E,,*2E
$GPRMC,010047.2,A,4715.49474,N,12226.19848,W,000.00,286.5,110813,016.5,E,D*27
$PGRME,2.4,M,2.4,M,3.4,M*29
$HCHDG,315.0,0.0,E,,*2E
$HCHDG,315.0,0.0,E,,*2E
$GPRMC,010047.4,A,4715.49474,N,12226.19848,W,000.00,286.5,110813,016.5,E,D*21
$GPRMB,A,-1.10,L,,Shil,4741.0830,N,12224.5670,W,25.6,2,0.00,V*24
$PGRME,2.4,M,2.4,M,3.4,M*29
$HCHDG,315.1,0.0,E,,*2F
$YXXDR,A,6.0,D,PTCH,A,3.3,D,ROLL*5B
$PTAK,FFD1,3.3*55
$HCHDG,315.1,0.0,E,,*2F
$GPRMC,010047.6,A,4715.49474,N,12226.19848,W,000.00,286.5,110813,016.5,E,D*23
$PGRME,2.4,M,2.4,M,3.4,M*29
$HCHDG,315.1,0.0,E,,*2F
$HCHDG,315.1,0.0,E,,*2F
$GPRMC,010047.8,A,4715.49474,N,12226.19848,W,000.00,286.5,110813,016.5,E,D*2D
$PGRME,2.4,M,2.4,M,3.4,M*29
$HCHDG,315.1,0.0,E,,*2F
$PTAK,FFP1,HEEL,@*07
$HCHDG,315.0,0.0,E,,*2E
$GPRMC,010048.0,A,4715.49474,N,12226.19848,W,000.01,286.5,110813,016.5,E,D*2B
$PGRME,2.4,M,2.4,M,3.4,M*29
$YXXDR,A,6.0,D,PTCH,A,3.3,D,ROLL*5B
$HCHDG,315.0,0.0,E,,*2E
$HCHDG,315.0,0.0,E,,*2E
$GPRMC,010048.2,A,4715.49474,N,12226.19848,W,000.01,286.5,110813,016.5,E,D*29
$PGRME,2.4,M,2.4,M,3.4,M*29
$HCHDG,314.9,0.0,E,,*26
$HCHDG,315.0,0.0,E,,*2E
$GPRMC,010048.4,A,4715.49473,N,12226.19848,W,000.01,286.5,110813,016.5,E,D*28
$PGRME,2.4,M,2.4,M,3.4,M*29
$HCHDG,315.0,0.0,E,,*2E
$YXXDR,A,6.1,D,PTCH,A,3.2,D,ROLL*5B
$HCHDG,315.0,0.0,E,,*2E
$GPRMC,010048.6,A,4715.49473,N,12226.19848,W,000.00,286.5,110813,016.5,E,D*2B
$GPRMB,A,-1.10,L,,Shil,4741.0830,N,12224.5670,W,25.6,2,0.00,V*24
$PGRME,2.4,M,2.4,M,3.4,M*29
$HCHDG,315.0,0.0,E,,*2E
$HCHDG,314.9,0.0,E,,*26
$GPRMC,010048.8,A,4715.49473,N,12226.19848,W,000.01,286.5,110813,016.5,E,D*24
$PGRME,2.4,M,2.4,M,3.4,M*29
$HCHDG,315.0,0.0,E,,*2E
$HCHDG,315.0,0.0,E,,*2E
$GPRMC,010049.0,A,4715.49473,N,12226.19848,W,000.00,286.5,110813,016.5,E,D*2C
$PGRME,2.4,M,2.4,M,3.4,M*29
$YXXDR,A,6.0,D,PTCH,A,3.4,D,ROLL*5C
$PTAK,FFD1,3.4*52
$HCHDG,315.0,0.0,E,,*2E
$HCHDG,314.9,0.0,E,,*26
$GPRMC,010049.2,A,4715.49473,N,12226.19848,W,000.00,286.5,110813,016.5,E,D*2E
$PGRME,2.4,M,2.4,M,3.4,M*29
$HCHDG,314.9,0.0,E,,*26
$HCHDG,314.9,0.0,E,,*26
$GPRMC,010049.4,A,4715.49473,N,12226.19848,W,000.00,286.5,110813,016.5,E,D*28
$PGRME,2.4,M,2.4,M,3.4,M*29
$HCHDG,314.9,0.0,E,,*26
$YXXDR,A,5.9,D,PTCH,A,3.4,D,ROLL*56
$HCHDG,314.9,0.0,E,,*26
$GPRMC,010049.6,A,4715.49473,N,12226.19848,W,000.00,286.5,110813,016.5,E,D*2A
$PGRME,2.4,M,2.4,M,3.4,M*29
$HCHDG,314.9,0.0,E,,*26
$HCHDG,315.2,0.0,E,,*2C
$GPRMC,010049.8,A,4715.49473,N,12226.19848,W,000.00,286.5,110813,016.5,E,D*24
$GPRMB,A,-1.10,L,,Shil,4741.0830,N,12224.5670,W,25.6,2,0.00,V*24
$PGRME,2.4,M,2.4,M,3.4,M*29
$HCHDG,315.2,0.0,E,,*2C
$HCHDG,315.2,0.0,E,,*2C
$GPRMC,010050.0,A,4715.49473,N,12226.19847,W,000.00,286.5,110813,016.5,E,D*2B
$PGRME,2.4,M,2.4,M,3.4,M*29
$YXXDR,A,6.0,D,PTCH,A,3.4,D,ROLL*5C
$PTAK,FFD1,3.4*52
$HCHDG,315.2,0.0,E,,*2C
$HCHDG,315.0,0.0,E,,*2E
$GPRMC,010050.2,A,4715.49473,N,12226.19847,W,000.00,286.5,110813,016.5,E,D*29
$PGRME,2.4,M,2.4,M,3.4,M*29
$HCHDG,315.1,0.0,E,,*2F
$HCHDG,315.1,0.0,E,,*2F
$GPRMC,010050.4,A,4715.49473,N,12226.19847,W,000.01,286.5,110813,016.5,E,D*2E
$PGRME,2.4,M,2.4,M,3.4,M*29
$HCHDG,315.1,0.0,E,,*2F
$YXXDR,A,6.1,D,PTCH,A,3.2,D,ROLL*5B
$HCHDG,315.1,0.0,E,,*2F
$GPRMC,010050.6,A,4715.49473,N,12226.19847,W,000.01,286.5,110813,016.5,E,D*2C
$PGRME,2.4,M,2.4,M,3.4,M*29
$HCHDG,315.0,0.0,E,,*2E
$HCHDG,315.0,0.0,E,,*2E
$GPRMC,010050.8,A,4715.49473,N,12226.19846,W,000.01,286.5,110813,016.5,E,D*23
$GPRMB,A,-1.10,L,,Shil,4741.0830,N,12224.5670,W,25.6,2,0.00,V*24
$PGRME,2.4,M,2.4,M,3.4,M*29
$HCHDG,315.0,0.0,E,,*2E
$HCHDG,315.0,0.0,E,,*2E
$GPRMC,010051.0,A,4715.49473,N,12226.19846,W,000.00,286.5,110813,016.5,E,D*2B
$PGRME,2.4,M,2.4,M,3.4,M*29
$YXXDR,A,6.0,D,PTCH,A,3.3,D,ROLL*5B
$PTAK,FFD1,3.3*55
$HCHDG,315.0,0.0,E,,*2E
$HCHDG,314.9,0.0,E,,*26
$GPRMC,010051.2,A,4715.49473,N,12226.19846,W,000.00,286.5,110813,016.5,E,D*29
$PGRME,2.4,M,2.4,M,3.4,M*29
$HCHDG,314.9,0.0,E,,*26
$HCHDG,314.9,0.0,E,,*26
$GPRMC,010051.4,A,4715.49473,N,12226.19846,W,000.01,286.5,110813,016.5,E,D*2E
$PGRME,2.4,M,2.4,M,3.4,M*29
$HCHDG,314.9,0.0,E,,*26
$YXXDR,A,6.1,D,PTCH,A,3.2,D,ROLL*5B
$HCHDG,314.9,0.0,E,,*26
$GPRMC,010051.6,A,4715.49473,N,12226.19846,W,000.00,286.5,110813,016.5,E,D*2D
$PGRME,2.4,M,2.4,M,3.4,M*29
$HCHDG,314.9,0.0,E,,*26
$HCHDG,314.9,0.0,E,,*26
$GPRMC,010051.8,A,4715.49473,N,12226.19846,W,000.00,286.5,110813,016.5,E,D*23
$PGRME,2.4,M,2.4,M,3.4,M*29
$HCHDG,314.9,0.0,E,,*26
$PTAK,FFP1,HEEL,@*07
$HCHDG,314.9,0.0,E,,*26
$GPRMC,010052.0,A,4715.49473,N,12226.19847,W,000.00,286.5,110813,016.5,E,D*29
$GPRMB,A,-1.10,L,,Shil,4741.0830,N,12224.5670,W,25.6,2,0.00,V*24
$PGRME,2.4,M,2.4,M,3.4,M*29
$YXXDR,A,6.1,D,PTCH,A,3.2,D,ROLL*5B
$PTAK,FFD1,3.2*54
$HCHDG,314.9,0.0,E,,*26
$HCHDG,314.9,0.0,E,,*26
$GPRMC,010052.2,A,4715.49473,N,12226.19847,W,000.00,286.5,110813,016.5,E,D*2B
$PGRME,2.4,M,2.4,M,3.4,M*29
$HCHDG,314.9,0.0,E,,*26
$HCHDG,314.8,0.0,E,,*27
$GPRMC,010052.4,A,4715.49473,N,12226.19847,W,000.01,286.5,110813,016.5,E,D*2C
$PGRME,2.4,M,2.4,M,3.4,M*29
$HCHDG,314.8,0.0,E,,*27
$YXXDR,A,6.0,D,PTCH,A,3.5,D,ROLL*5D
$HCHDG,314.9,0.0,E,,*26
$GPRMC,010052.6,A,4715.49473,N,12226.19846,W,000.00,286.5,110813,016.5,E,D*2E
$PGRME,2.4,M,2.4,M,3.4,M*29
$HCHDG,315.0,0.0,E,,*2E
$HCHDG,315.0,0.0,E,,*2E
$GPRMC,010052.8,A,4715.49473,N,12226.19846,W,000.01,286.5,110813,016.5,E,D*21
$PGRME,2.4,M,2.4,M,3.4,M*29
$HCHDG,315.0,0.0,E,,*2E
$HCHDG,315.0,0.0,E,,*2E
$GPRMC,010053.0,A,4715.49473,N,12226.19846,W,000.01,286.5,110813,016.5,E,D*28
$PGRME,2.4,M,2.4,M,3.4,M*29
$YXXDR,A,6.0,D,PTCH,A,3.5,D,ROLL*5D
$HCHDG,315.0,0.0,E,,*2E
$HCHDG,315.0,0.0,E,,*2E
$GPRMC,010053.2,A,4715.49473,N,12226.19846,W,000.01,286.5,110813,016.5,E,D*2A
$GPRMB,A,-1.10,L,,Shil,4741.0830,N,12224.5670,W,25.6,2,0.00,V*24
$PGRME,2.4,M,2.4,M,3.4,M*29
$HCHDG,315.0,0.0,E,,*2E
$HCHDG,315.0,0.0,E,,*2E
$GPRMC,010053.4,A,4715.49473,N,12226.19846,W,000.00,286.5,110813,016.5,E,D*2D
$PGRME,2.4,M,2.4,M,3.4,M*29
$HCHDG,315.0,0.0,E,,*2E
$YXXDR,A,6.1,D,PTCH,A,3.3,D,ROLL*5A
$PTAK,FFD1,3.3*55
$HCHDG,315.0,0.0,E,,*2E
$GPRMC,010053.6,A,4715.49473,N,12226.19847,W,000.01,286.5,110813,016.5,E,D*2F
$PGRME,2.4,M,2.4,M,3.4,M*29
$HCHDG,315.0,0.0,E,,*2E
$HCHDG,315.0,0.0,E,,*2E
$GPRMC,010053.8,A,4715.49473,N,12226.19847,W,000.01,286.5,110813,016.5,E,D*21
$PGRME,2.4,M,2.4,M,3.4,M*29
$HCHDG,315.2,0.0,E,,*2C
$HCHDG,315.2,0.0,E,,*2C
$GPRMC,010054.0,A,4715.49473,N,12226.19847,W,000.01,286.5,110813,016.5,E,D*2E
$PGRME,2.4,M,2.4,M,3.4,M*29
$YXXDR,A,6.0,D,PTCH,A,3.4,D,ROLL*5C
$HCHDG,315.2,0.0,E,,*2C
$HCHDG,315.2,0.0,E,,*2C
$GPRMC,010054.2,A,4715.49473,N,12226.19846,W,000.01,286.5,110813,016.5,E,D*2D
$PGRME,2.4,M,2.4,M,3.4,M*29
$HCHDG,315.2,0.0,E,,*2C
$HCHDG,315.2,0.0,E,,*2C
$GPRMC,010054.4,A,4715.49473,N,12226.19846,W,000.01,286.5,110813,016.5,E,D*2B
$GPRMB,A,-1.10,L,,Shil,4741.0830,N,12224.5670,W,25.6,2,0.00,V*24
$PGRME,2.4,M,2.4,M,3.4,M*29
$HCHDG,315.2,0.0,E,,*2C
$YXXDR,A,6.2,D,PTCH,A,3.3,D,ROLL*59
$PTAK,FFD1,3.3*55
$HCHDG,315.2,0.0,E,,*2C
$GPRMC,010054.6,A,4715.49473,N,12226.19846,W,000.00,286.5,110813,016.5,E,D*28
$PGRME,2.4,M,2.4,M,3.4,M*29
$HCHDG,315.2,0.0,E,,*2C
$HCHDG,315.2,0.0,E,,*2C
$GPRMC,010054.8,A,4715.49473,N,12226.19846,W,000.01,286.5,110813,016.5,E,D*27
$PGRME,2.4,M,2.4,M,3.4,M*29
$HCHDG,315.0,0.0,E,,*2E
$HCHDG,315.0,0.0,E,,*2E
$GPRMC,010055.0,A,4715.49473,N,12226.19846,W,000.01,286.5,110813,016.5,E,D*2E
$PGRME,2.4,M,2.4,M,3.4,M*29
$YXXDR,A,6.0,D,PTCH,A,3.3,D,ROLL*5B
$HCHDG,315.0,0.0,E,,*2E
$HCHDG,315.0,0.0,E,,*2E
$GPRMC,010055.2,A,4715.49473,N,12226.19846,W,000.00,286.5,110813,016.5,E,D*2D
$PGRME,2.4,M,2.4,M,3.4,M*29
$HCHDG,315.0,0.0,E,,*2E
$HCHDG,315.0,0.0,E,,*2E
$GPRMC,010055.4,A,4715.49473,N,12226.19846,W,000.01,286.5,110813,016.5,E,D*2A
$PGRME,2.4,M,2.4,M,3.4,M*29
$HCHDG,315.3,0.0,E,,*2D
$YXXDR,A,6.0,D,PTCH,A,3.4,D,ROLL*5C
$HCHDG,315.3,0.0,E,,*2D
$GPRMC,010055.6,A,4715.49473,N,12226.19846,W,000.01,286.5,110813,016.5,E,D*28
$GPRMB,A,-1.10,L,,Shil,4741.0830,N,12224.5670,W,25.6,2,0.00,V*24
$PGRME,2.4,M,2.4,M,3.4,M*29
$HCHDG,315.3,0.0,E,,*2D
$HCHDG,315.2,0.0,E,,*2C
$GPRMC,010055.8,A,4715.49473,N,12226.19846,W,000.01,286.5,110813,016.5,E,D*26
$PGRME,2.4,M,2.4,M,3.4,M*29
$HCHDG,315.2,0.0,E,,*2C
$HCHDG,315.4,0.0,E,,*2A
$PTAK,FFP1,HEEL,@*07
$GPRMC,010056.0,A,4715.49473,N,12226.19846,W,000.00,286.5,110813,016.5,E,D*2C
$PGRME,2.4,M,2.4,M,3.4,M*29
$YXXDR,A,6.0,D,PTCH,A,3.5,D,ROLL*5D
$PTAK,FFD1,3.5*53
$HCHDG,315.3,0.0,E,,*2D
$HCHDG,315.3,0.0,E,,*2D
$GPRMC,010056.2,A,4715.49473,N,12226.19846,W,000.01,286.5,110813,016.5,E,D*2F
$PGRME,2.4,M,2.4,M,3.4,M*29
$HCHDG,315.2,0.0,E,,*2C
$HCHDG,315.2,0.0,E,,*2C
$GPRMC,010056.4,A,4715.49473,N,12226.19846,W,000.01,286.5,110813,016.5,E,D*29
$PGRME,2.4,M,2.4,M,3.4,M*29
$HCHDG,315.2,0.0,E,,*2C
$YXXDR,A,6.0,D,PTCH,A,3.7,D,ROLL*5F
$HCHDG,315.2,0.0,E,,*2C
$GPRMC,010056.6,A,4715.49473,N,12226.19846,W,000.00,286.5,110813,016.5,E,D*2A
$PGRME,2.4,M,2.4,M,3.4,M*29
$HCHDG,315.2,0.0,E,,*2C
$HCHDG,315.2,0.0,E,,*2C
$GPRMC,010056.8,A,4715.49472,N,12226.19846,W,000.01,286.5,110813,016.5,E,D*24
$GPRMB,A,-1.10,L,,Shil,4741.0830,N,12224.5670,W,25.6,2,0.00,V*24
$PGRME,2.4,M,2.4,M,3.4,M*29
$HCHDG,315.2,0.0,E,,*2C
$HCHDG,315.2,0.0,E,,*2C
$GPRMC,010057.0,A,4715.49473,N,12226.19845,W,000.01,286.5,110813,016.5,E,D*2F
$PGRME,2.4,M,2.4,M,3.4,M*29
$YXXDR,A,6.0,D,PTCH,A,3.5,D,ROLL*5D
$HCHDG,315.3,0.0,E,,*2D
$HCHDG,315.3,0.0,E,,*2D
$GPRMC,010057.2,A,4715.49473,N,12226.19845,W,000.00,286.5,110813,016.5,E,D*2C
$PGRME,2.4,M,2.4,M,3.4,M*29
$HCHDG,315.3,0.0,E,,*2D
$HCHDG,315.3,0.0,E,,*2D
$GPRMC,010057.4,A,4715.49473,N,12226.19845,W,000.00,286.5,110813,016.5,E,D*2A
$PGRME,2.4,M,2.4,M,3.4,M*29
$HCHDG,315.4,0.0,E,,*2A
$YXXDR,A,6.2,D,PTCH,A,3.3,D,ROLL*59
$PTAK,FFD1,3.3*55
$HCHDG,315.4,0.0,E,,*2A
$GPRMC,010057.6,A,4715.49472,N,12226.19845,W,000.00,286.5,110813,016.5,E,D*29
$PGRME,2.4,M,2.4,M,3.4,M*29
$HCHDG,315.5,0.0,E,,*2B
$HCHDG,315.3,0.0,E,,*2D
$GPRMC,010057.8,A,4715.49472,N,12226.19845,W,000.01,286.5,110813,016.5,E,D*26
$PGRME,2.4,M,2.4,M,3.4,M*29
$HCHDG,315.2,0.0,E,,*2C
$HCHDG,315.3,0.0,E,,*2D
$GPRMC,010058.0,A,4715.49473,N,12226.19845,W,000.00,286.5,110813,016.5,E,D*21
$GPRMB,A,-1.10,L,,Shil,4741.0830,N,12224.5670,W,25.6,2,0.00,V*24
$PGRME,2.4,M,2.4,M,3.4,M*29
$YXXDR,A,6.1,D,PTCH,A,3.3,D,ROLL*5A
$HCHDG,315.3,0.0,E,,*2D
$HCHDG,315.3,0.0,E,,*2D
$GPRMC,010058.2,A,4715.49473,N,12226.19845,W,000.00,286.5,110813,016.5,E,D*23
$PGRME,2.4,M,2.4,M,3.4,M*29
$HCHDG,315.3,0.0,E,,*2D
$HCHDG,315.4,0.0,E,,*2A
$GPRMC,010058.4,A,4715.49473,N,12226.19844,W,000.00,286.5,110813,016.5,E,D*24
$PGRME,2.4,M,2.4,M,3.4,M*29
$HCHDG,315.4,0.0,E,,*2A
$YXXDR,A,6.1,D,PTCH,A,3.6,D,ROLL*5F
$PTAK,FFD1,3.6*50
$HCHDG,315.4,0.0,E,,*2A
$GPRMC,010058.6,A,4715.49473,N,12226.19844,W,000.00,286.5,110813,016.5,E,D*26
$PGRME,2.4,M,2.4,M,3.4,M*29
$HCHDG,315.4,0.0,E,,*2A
$HCHDG,315.4,0.0,E,,*2A
$GPRMC,010058.8,A,4715.49473,N,12226.19844,W,000.01,286.5,110813,016.5,E,D*29
$PGRME,2.4,M,2.4,M,3.4,M*29
$HCHDG,315.6,0.0,E,,*28
$HCHDG,315.5,0.0,E,,*2B
$GPRMC,010059.0,A,4715.49473,N,12226.19844,W,000.00,286.5,110813,016.5,E,D*21
$PGRME,2.4,M,2.4,M,3.4,M*29
$YXXDR,A,6.1,D,PTCH,A,3.6,D,ROLL*5F
$HCHDG,315.6,0.0,E,,*28
$HCHDG,315.6,0.0,E,,*28
$GPRMC,010059.2,A,4715.49472,N,12226.19844,W,000.00,286.5,110813,016.5,E,D*22
$GPRMB,A,-1.10,L,,Shil,4741.0830,N,12224.5670,W,25.6,2,0.00,V*24
$PGRME,2.4,M,2.4,M,3.4,M*29
$HCHDG,315.6,0.0,E,,*28
$HCHDG,315.5,0.0,E,,*2B
$GPRMC,010059.4,A,4715.49472,N,12226.19844,W,000.01,286.5,110813,016.5,E,D*25
$PGRME,2.4,M,2.4,M,3.4,M*29
$HCHDG,315.5,0.0,E,,*2B
$YXXDR,A,6.1,D,PTCH,A,3.6,D,ROLL*5F
$PTAK,FFD1,3.6*50
$HCHDG,315.5,0.0,E,,*2B
$GPRMC,010059.6,A,4715.49472,N,12226.19844,W,000.00,286.5,110813,016.5,E,D*26
$PGRME,2.4,M,2.4,M,3.4,M*29
$HCHDG,315.5,0.0,E,,*2B
$HCHDG,315.5,0.0,E,,*2B
$GPRMC,010059.8,A,4715.49472,N,12226.19844,W,000.00,286.5,110813,016.5,E,D*28
$PGRME,2.4,M,2.4,M,3.4,M*29
$HCHDG,315.5,0.0,E,,*2B
$HCHDG,315.5,0.0,E,,*2B
$PTAK,FFP1,HEEL,@*07
$GPRMC,010100.0,A,4715.49472,N,12226.19844,W,000.00,286.5,110813,016.5,E,D*2D
$PGRME,2.4,M,2.4,M,3.4,M*29
$YXXDR,A,6.0,D,PTCH,A,3.6,D,ROLL*5E
$HCHDG,315.5,0.0,E,,*2B
$HCHDG,315.5,0.0,E,,*2B
$GPRMC,010100.2,A,4715.49472,N,12226.19844,W,000.00,286.5,110813,016.5,E,D*2F
$PGRME,2.4,M,2.4,M,3.4,M*29
$HCHDG,315.5,0.0,E,,*2B
$HCHDG,315.6,0.0,E,,*28
$GPRMC,010100.4,A,4715.49472,N,12226.19844,W,000.01,286.5,110813,016.5,E,D*28
$GPRMB,A,-1.10,L,,Shil,4741.0830,N,12224.5670,W,25.6,2,0.00,V*24
$PGRME,2.4,M,2.4,M,3.4,M*29
$HCHDG,315.6,0.0,E,,*28
$YXXDR,A,6.0,D,PTCH,A,3.5,D,ROLL*5D
$PTAK,FFD1,3.5*53
$HCHDG,315.6,0.0,E,,*28
$GPRMC,010100.6,A,4715.49472,N,12226.19844,W,000.00,286.5,110813,016.5,E,D*2B
$PGRME,2.4,M,2.4,M,3.4,M*29
$HCHDG,315.6,0.0,E,,*28
$HCHDG,315.7,0.0,E,,*29
$GPRMC,010100.8,A,4715.49472,N,12226.19843,W,000.00,286.5,110813,016.5,E,D*22
$PGRME,2.4,M,2.4,M,3.4,M*29
$HCHDG,315.7,0.0,E,,*29
$HCHDG,315.7,0.0,E,,*29
$GPRMC,010101.0,A,4715.49472,N,12226.19843,W,000.01,286.5,110813,016.5,E,D*2A
$PGRME,2.4,M,2.4,M,3.4,M*29
$YXXDR,A,6.0,D,PTCH,A,3.3,D,ROLL*5B
$HCHDG,315.5,0.0,E,,*2B
$HCHDG,315.5,0.0,E,,*2B
$GPRMC,010101.2,A,4715.49472,N,12226.19844,W,000.00,286.5,110813,016.5,E,D*2E
$PGRME,2.4,M,2.4,M,3.4,M*29
$HCHDG,315.6,0.0,E,,*28
$HCHDG,315.6,0.0,E,,*28
$GPRMC,010101.4,A,4715.49472,N,12226.19844,W,000.00,286.5,110813,016.5,E,D*28
$PGRME,2.4,M,2.4,M,3.4,M*29
$HCHDG,315.6,0.0,E,,*28
$YXXDR,A,6.2,D,PTCH,A,3.3,D,ROLL*59
$HCHDG,315.7,0.0,E,,*29
$GPRMC,010101.6,A,4715.49472,N,12226.19843,W,000.01,286.5,110813,016.5,E,D*2C
$GPRMB,A,-1.10,L,,Shil,4741.0830,N,12224.5670,W,25.6,2,0.00,V*24
$PGRME,2.4,M,2.4,M,3.4,M*29
$HCHDG,315.7,0.0,E,,*29
$HCHDG,315.7,0.0,E,,*29
$GPRMC,010101.8,A,4715.49472,N,12226.19843,W,000.01,286.5,110813,016.5,E,D*22
$PGRME,2.4,M,2.4,M,3.4,M*29
$HCHDG,315.7,0.0,E,,*29
$HCHDG,315.7,0.0,E,,*29
$GPRMC,010102.0,A,4715.49472,N,12226.19843,W,000.01,286.5,110813,016.5,E,D*29
$PGRME,2.4,M,2.4,M,3.4,M*29
$YXXDR,A,6.2,D,PTCH,A,3.5,D,ROLL*5F
$PTAK,FFD1,3.5*53
$HCHDG,315.8,0.0,E,,*26
$HCHDG,315.8,0.0,E,,*26
$GPRMC,010102.2,A,4715.49472,N,12226.19843,W,000.01,286.5,110813,016.5,E,D*2B
$PGRME,2.4,M,2.4,M,3.4,M*29
$HCHDG,315.7,0.0,E,,*29
$HCHDG,315.7,0.0,E,,*29
$GPRMC,010102.4,A,4715.49472,N,12226.19843,W,000.01,286.5,110813,016.5,E,D*2D
$PGRME,2.4,M,2.4,M,3.4,M*29
$HCHDG,315.6,0.0,E,,*28
$YXXDR,A,6.1,D,PTCH,A,3.6,D,ROLL*5F
$HCHDG,315.6,0.0,E,,*28
$GPRMC,010102.6,A,4715.49472,N,12226.19842,W,000.00,286.5,110813,016.5,E,D*2F
$PGRME,2.4,M,2.4,M,3.4,M*29
$HCHDG,315.8,0.0,E,,*26
$HCHDG,315.8,0.0,E,,*26
$GPRMC,010102.8,A,4715.49472,N,12226.19842,W,000.01,286.5,110813,016.5,E,D*20
$GPRMB,A,-1.10,L,,Shil,4741.0830,N,12224.5670,W,25.6,2,0.00,V*24
$PGRME,2.4,M,2.4,M,3.4,M*29
$HCHDG,315.8,0.0,E,,*26
$HCHDG,315.8,0.0,E,,*26
$GPRMC,010103.0,A,4715.49472,N,12226.19842,W,000.00,286.5,110813,016.5,E,D*28
$PGRME,2.4,M,2.4,M,3.4,M*29
$YXXDR,A,6.2,D,PTCH,A,3.6,D,ROLL*5C
$PTAK,FFD1,3.6*50
$HCHDG,315.8,0.0,E,,*26
$HCHDG,315.8,0.0,E,,*26
$GPRMC,010103.2,A,4715.49472,N,12226.19842,W,000.00,286.5,110813,016.5,E,D*2A
$PGRME,2.4,M,2.4,M,3.4,M*29
$HCHDG,315.8,0.0,E,,*26
$HCHDG,315.8,0.0,E,,*26
$GPRMC,010103.4,A,4715.49472,N,12226.19842,W,000.00,286.5,110813,016.5,E,D*2C
$PGRME,2.4,M,2.4,M,3.4,M*29
$HCHDG,315.8,0.0,E,,*26
$YXXDR,A,6.2,D,PTCH,A,3.5,D,ROLL*5F
$HCHDG,315.8,0.0,E,,*26
$GPRMC,010103.6,A,4715.49472,N,12226.19842,W,000.00,286.5,110813,016.5,E,D*2E
$PGRME,2.4,M,2.4,M,3.4,M*29
$HCHDG,315.8,0.0,E,,*26
$HCHDG,315.8,0.0,E,,*26
$GPRMC,010103.8,A,4715.49472,N,12226.19842,W,000.00,286.5,110813,016.5,E,D*20
$PGRME,2.4,M,2.4,M,3.4,M*29
$HCHDG,315.8,0.0,E,,*26
$HCHDG,315.8,0.0,E,,*26
$GPRMC,010104.0,A,4715.49472,N,12226.19842,W,000.01,286.5,110813,016.5,E,D*2E
$GPRMB,A,-1.10,L,,Shil,4741.0830,N,12224.5670,W,25.6,2,0.00,V*24
