$GPRMB,A,-0.32,L,,GH,4719.6000,N,12234.2000,W,0.4,127,5.19,V*2D
$PGRME,3.0,M,4.1,M,5.1,M*2C
$HCHDG,130.1,0.0,E,,*2A
$PTAK,FFP1,HEEL,@*07
$HCHDG,129.9,0.0,E,,*2A
$GPRMC,163929.6,A,4719.84084,N,12234.67052,W,005.64,147.4,040813,016.6,E,A*22
$GPRMB,A,-0.32,L,,GH,4719.6000,N,12234.2000,W,0.4,127,5.29,V*2E
$PGRME,3.0,M,3.9,M,4.9,M*2A
$HCHDG,130.0,0.0,E,,*2B
$YXXDR,A,5.8,D,PTCH,A,3.9,D,ROLL*5A
$PTAK,FFD1,3.9*5F
$GPRMC,163929.8,A,4719.84060,N,12234.67033,W,005.48,147.9,040813,016.6,E,A*22
$HCHDG,130.0,0.0,E,,*2B
$PGRME,3.0,M,3.7,M,4.8,M*25
$HCHDG,130.0,0.0,E,,*2B
$HCHDG,129.9,0.0,E,,*2A
$GPRMC,163930.0,A,4719.84039,N,12234.67008,W,005.58,147.3,040813,016.6,E,A*2D
$PGRME,3.0,M,3.5,M,4.6,M*29
$HCHDG,129.9,0.0,E,,*2A
$HCHDG,129.9,0.0,E,,*2A
$GPRMC,163930.2,A,4719.84020,N,12234.66995,W,005.49,147.8,040813,016.6,E,A*20
$PGRME,3.0,M,3.3,M,4.5,M*2C
$YXXDR,A,6.0,D,PTCH,A,3.8,D,ROLL*50
$HCHDG,129.9,0.0,E,,*2A
$HCHDG,129.9,0.0,E,,*2A
$GPRMC,163930.4,A,4719.83995,N,12234.66972,W,005.60,147.1,040813,016.6,E,A*2D
$PGRME,3.0,M,3.2,M,4.4,M*2C
$HCHDG,129.9,0.0,E,,*2A
$HCHDG,129.9,0.0,E,,*2A
$GPRMC,163930.6,A,4719.83969,N,12234.66957,W,005.57,147.2,040813,016.6,E,A*2C
$PGRME,3.0,M,3.0,M,4.3,M*29
$HCHDG,130.0,0.0,E,,*2B
$YXXDR,A,5.8,D,PTCH,A,3.5,D,ROLL*56
$GPRMC,163930.8,A,4719.83940,N,12234.66953,W,005.55,148.4,040813,016.6,E,A*26
$PGRME,3.0,M,3.0,M,4.3,M*29
$HCHDG,130.0,0.0,E,,*2B
$HCHDG,129.9,0.0,E,,*2A
$HCHDG,130.0,0.0,E,,*2B
$GPRMC,163931.0,A,4719.83917,N,12234.66940,W,005.54,148.8,040813,016.6,E,A*22
$GPRMB,A,-0.32,L,,GH,4719.6000,N,12234.2000,W,0.4,127,5.14,V*20
$PGRME,3.0,M,3.0,M,4.3,M*29
$HCHDG,130.0,0.0,E,,*2B
$HCHDG,130.2,0.0,E,,*29
$GPRMC,163931.2,A,4719.83892,N,12234.66923,W,005.55,149.3,040813,016.6,E,A*22
$PGRME,3.0,M,3.0,M,4.3,M*29
$YXXDR,A,5.7,D,PTCH,A,3.1,D,ROLL*5D
$PTAK,FFD1,3.1*57
$HCHDG,130.0,0.0,E,,*2B
$HCHDG,130.2,0.0,E,,*29
$GPRMC,163931.4,A,4719.83867,N,12234.66916,W,005.58,150.0,040813,016.6,E,A*2E
$PGRME,3.0,M,3.0,M,4.3,M*29
$HCHDG,130.2,0.0,E,,*29
$HCHDG,130.1,0.0,E,,*2A
$GPRMC,163931.6,A,4719.83837,N,12234.66887,W,005.57,150.3,040813,016.6,E,A*2C
$PGRME,3.0,M,3.0,M,4.3,M*29
$HCHDG,130.0,0.0,E,,*2B
$IIRMC,163900,A,4719.839,N,12234.669,W,05.5,148,040813,16,E,A*11
$YXXDR,A,5.7,D,PTCH,A,3.1,D,ROLL*5D
$IIVWR,010,R,05.8,N,,,,*6D
$GPRMC,163931.8,A,4719.83801,N,12234.66846,W,005.58,149.8,040813,016.6,E,A*26
$HCHDG,130.0,0.0,E,,*2B
$PGRME,3.0,M,3.0,M,4.3,M*29
$IIGLL,4719.839,N,12234.669,W,163900,A,A*49
$HCHDG,129.7,0.0,E,,*24
$IIMWV,010,R,05.8,N,A*1F
$HCHDG,129.5,0.0,E,,*26
$GPRMC,163932.0,A,4719.83772,N,12234.66809,W,005.57,149.2,040813,016.6,E,A*28
$GPRMB,A,-0.32,L,,GH,4719.6000,N,12234.2000,W,0.4,127,5.15,V*21
$IIRMB,A,,,,GH  ,,,,,000.4,127,,V,A*1A
$PGRME,3.0,M,3.0,M,4.3,M*29
$HCHDG,129.2,0.0,E,,*21
$HCHDG,129.2,0.0,E,,*21
$GPRMC,163932.2,A,4719.83745,N,12234.66790,W,005.57,149.0,040813,016.6,E,A*23
$PGRME,3.0,M,3.0,M,4.3,M*29
$YXXDR,A,5.8,D,PTCH,A,3.9,D,ROLL*5A
$PTAK,FFD1,3.9*5F
$HCHDG,129.0,0.0,E,,*23
$HCHDG,128.9,0.0,E,,*2B
$GPRMC,163932.4,A,4719.83722,N,12234.66758,W,005.62,148.8,040813,016.6,E,A*2F
$PGRME,3.0,M,3.0,M,4.3,M*29
$HCHDG,128.8,0.0,E,,*2A
$HCHDG,128.5,0.0,E,,*27
$GPRMC,163932.6,A,4719.83697,N,12234.66733,W,005.60,148.2,040813,016.6,E,A*27
$PGRME,3.0,M,3.0,M,4.3,M*29
$HCHDG,128.2,0.0,E,,*20
$IIRMC,163900,A,4719.837,N,12234.668,W,05.5,149,040813,16,E,A*1F
$YXXDR,A,6.0,D,PTCH,A,4.3,D,ROLL*5C
$IIVHW,,,,,00.0,N,,*19
$GPRMC,163932.8,A,4719.83672,N,12234.66711,W,005.60,147.6,040813,016.6,E,A*29
$HCHDG,127.9,0.0,E,,*24
$PGRME,3.0,M,3.0,M,4.3,M*29
$IIVLW,02034,N,000.0,N*56
$HCHDG,127.8,0.0,E,,*25
$IIVWR,015,R,09.3,N,,,,*6F
$IIGLL,4719.837,N,12234.668,W,163900,A,A*46
$HCHDG,127.6,0.0,E,,*2B
$GPRMC,163933.0,A,4719.83647,N,12234.66675,W,005.61,147.4,040813,016.6,E,A*26
$GPRMB,A,-0.32,L,,GH,4719.6000,N,12234.2000,W,0.4,127,5.25,V*22
$PGRME,3.0,M,3.0,M,4.3,M*29
$IIMTW,+00.0,C*38
$IIMWV,015,R,09.3,N,A*1D
$HCHDG,127.5,0.0,E,,*28
$IIMWV,084,T,00.9,N,A*10
$HCHDG,127.2,0.0,E,,*2F
$GPRMC,163933.2,A,4719.83614,N,12234.66645,W,005.58,147.1,040813,016.6,E,A*2E
$PGRME,3.0,M,3.0,M,4.3,M*29
$YXXDR,A,6.1,D,PTCH,A,4.5,D,ROLL*5B
$HCHDG,127.0,0.0,E,,*2D
$HCHDG,126.9,0.0,E,,*25
$GPRMC,163933.4,A,4719.83583,N,12234.66624,W,005.64,147.4,040813,016.6,E,A*28
$PGRME,3.0,M,3.0,M,4.3,M*29
$HCHDG,126.8,0.0,E,,*24
$HCHDG,126.7,0.0,E,,*2B
$GPRMC,163933.6,A,4719.83563,N,12234.66606,W,005.60,145.8,040813,016.6,E,A*2E
$PGRME,3.0,M,3.0,M,4.3,M*29
$IIRMB,A,,,,GH  ,,,,,000.4,127,,V,A*1A
$HCHDG,126.3,0.0,E,,*2F
$YXXDR,A,5.8,D,PTCH,A,4.3,D,ROLL*57
$PTAK,FFD1,4.3*52
$IIRMC,163900,A,4719.836,N,12234.666,W,05.6,147,040813,16,E,A*1D
$GPRMC,163933.8,A,4719.83543,N,12234.66581,W,005.62,144.4,040813,016.6,E,A*21
$PGRME,3.0,M,3.0,M,4.3,M*29
$HCHDG,126.2,0.0,E,,*2E
$IIVHW,,,,,01.8,N,,*10
$HCHDG,125.8,0.0,E,,*27
$PTAK,FFP1,HEEL,@*07
$IIVLW,02034,N,000.0,N*56
$IIVWR,017,R,11.3,N,,,,*64
$HCHDG,125.7,0.0,E,,*28
$GPRMC,163934.0,A,4719.83521,N,12234.66565,W,005.61,144.1,040813,016.6,E,A*26
$PGRME,3.0,M,3.0,M,4.3,M*29
$IIGLL,4719.836,N,12234.666,W,163900,A,A*49
$HCHDG,125.5,0.0,E,,*2A
$IIMTW,+14.5,C*38
$IIMWV,017,R,11.3,N,A*16
$HCHDG,125.5,0.0,E,,*2A
$GPRMC,163934.2,A,4719.83498,N,12234.66538,W,005.61,144.8,040813,016.6,E,A*26
$GPRMB,A,-0.32,L,,GH,4719.6000,N,12234.2000,W,0.4,127,5.33,V*25
$PGRME,3.0,M,3.0,M,4.3,M*29
$YXXDR,A,5.9,D,PTCH,A,4.9,D,ROLL*5C
$PTAK,FFD1,4.9*58
$HCHDG,125.6,0.0,E,,*29
$HCHDG,125.5,0.0,E,,*2A
$GPRMC,163934.4,A,4719.83469,N,12234.66510,W,005.60,143.9,040813,016.6,E,A*23
$PGRME,3.0,M,3.0,M,4.3,M*29
$HCHDG,125.4,0.0,E,,*2B
$HCHDG,125.3,0.0,E,,*2C
$GPRMC,163934.6,A,4719.83434,N,12234.66480,W,005.57,144.1,040813,016.6,E,A*2A
$PGRME,3.0,M,3.0,M,4.3,M*29
$IIMWV,020,T,09.5,N,A*1B
$HCHDG,125.5,0.0,E,,*2A
$IIRMB,A,,,,GH  ,,,,,000.4,127,,V,A*1A
$YXXDR,A,6.0,D,PTCH,A,4.0,D,ROLL*5F
$GPRMC,163934.8,A,4719.83406,N,12234.66448,W,005.63,144.1,040813,016.6,E,A*26
$HCHDG,125.4,0.0,E,,*2B
$PGRME,3.0,M,3.0,M,4.3,M*29
$IIRMC,163900,A,4719.835,N,12234.665,W,05.6,144,040813,16,E,A*1E
$HCHDG,125.4,0.0,E,,*2B
$IIVHW,,,,,02.4,N,,*1F
$IIVLW,02034,N,000.0,N*56
$HCHDG,125.3,0.0,E,,*2C
$GPRMC,163935.0,A,4719.83376,N,12234.66422,W,005.61,143.8,040813,016.6,E,A*2F
$PGRME,3.0,M,3.0,M,4.3,M*29
$IIVWR,017,R,11.2,N,,,,*65
$HCHDG,125.3,0.0,E,,*2C
$IIGLL,4719.835,N,12234.665,W,163900,A,A*49
$IIMTW,+14.5,C*38
$HCHDG,125.3,0.0,E,,*2C
$GPRMC,163935.2,A,4719.83346,N,12234.66392,W,005.64,143.7,040813,016.6,E,A*28
$PGRME,3.0,M,3.0,M,4.3,M*29
$YXXDR,A,5.7,D,PTCH,A,4.1,D,ROLL*5A
$HCHDG,125.2,0.0,E,,*2D
$HCHDG,125.3,0.0,E,,*2C
$GPRMC,163935.4,A,4719.83317,N,12234.66367,W,005.56,144.0,040813,016.6,E,A*21
$GPRMB,A,-0.31,L,,GH,4719.6000,N,12234.2000,W,0.4,127,5.30,V*25
$PGRME,3.0,M,3.0,M,4.3,M*29
$HCHDG,125.2,0.0,E,,*2D
$HCHDG,125.2,0.0,E,,*2D
$GPRMC,163935.6,A,4719.83290,N,12234.66340,W,005.63,143.5,040813,016.6,E,A*2C
$PGRME,3.0,M,3.0,M,4.3,M*29
$IIMWV,018,R,11.2,N,A*18
$HCHDG,125.2,0.0,E,,*2D
$IIMWV,021,T,08.8,N,A*16
$YXXDR,A,5.7,D,PTCH,A,4.1,D,ROLL*5A
$IIRMB,A,,,,GH  ,,,,,000.4,127,,V,A*1A
$GPRMC,163935.8,A,4719.83260,N,12234.66313,W,005.60,143.8,040813,016.6,E,A*25
$HCHDG,125.1,0.0,E,,*2E
$PGRME,3.0,M,3.0,M,4.3,M*29
$HCHDG,125.2,0.0,E,,*2D
$IIRMC,163900,A,4719.833,N,12234.664,W,05.6,143,040813,16,E,A*1E
$IIVHW,,,,,03.1,N,,*1B
$HCHDG,125.2,0.0,E,,*2D
$GPRMC,163936.0,A,4719.83234,N,12234.66281,W,005.57,143.0,040813,016.6,E,A*29
$PGRME,3.0,M,3.0,M,4.3,M*29
$IIVLW,02034,N,000.0,N*56
$IIVWR,018,R,11.2,N,,,,*6A
$HCHDG,125.3,0.0,E,,*2C
$IIDPT,009.5,-1.0,*4C
$HCHDG,125.2,0.0,E,,*2D
$GPRMC,163936.2,A,4719.83206,N,12234.66262,W,005.63,143.9,040813,016.6,E,A*29
$PGRME,3.0,M,3.0,M,4.3,M*29
$YXXDR,A,5.8,D,PTCH,A,4.0,D,ROLL*54
$PTAK,FFD1,4.0*51
$HCHDG,125.2,0.0,E,,*2D
$HCHDG,125.1,0.0,E,,*2E
$GPRMC,163936.4,A,4719.83181,N,12234.66249,W,005.61,143.6,040813,016.6,E,A*27
$PGRME,3.0,M,3.0,M,4.3,M*29
$HCHDG,125.1,0.0,E,,*2E
$HCHDG,125.1,0.0,E,,*2E
$GPRMC,163936.6,A,4719.83166,N,12234.66231,W,005.60,142.8,040813,016.6,E,A*2D
$GPRMB,A,-0.31,L,,GH,4719.6000,N,12234.2000,W,0.4,126,5.37,V*23
$PGRME,3.0,M,3.0,M,4.3,M*29
$IIGLL,4719.832,N,12234.662,W,163900,A,A*49
$HCHDG,125.0,0.0,E,,*2F
$IIMTW,+14.5,C*38
$YXXDR,A,6.1,D,PTCH,A,3.9,D,ROLL*50
$IIMWV,017,R,11.2,N,A*17
$GPRMC,163936.8,A,4719.83134,N,12234.66206,W,005.67,143.4,040813,016.6,E,A*2A
$HCHDG,125.2,0.0,E,,*2D
$PGRME,3.0,M,3.0,M,4.3,M*29
$IIMWV,025,T,08.1,N,A*1B
$HCHDG,125.2,0.0,E,,*2D
$IIRMB,A,,,,GH  ,,,,,000.4,127,,V,A*1A
$HCHDG,125.1,0.0,E,,*2E
$GPRMC,163937.0,A,4719.83109,N,12234.66171,W,005.61,143.0,040813,016.6,E,A*2C
$PGRME,3.0,M,3.0,M,4.3,M*29
$IIRMC,163900,A,4719.832,N,12234.662,W,05.5,143,040813,16,E,A*1A
$HCHDG,125.2,0.0,E,,*2D
$IIVHW,,,,,03.8,N,,*12
$IIVLW,02034,N,000.0,N*56
$HCHDG,125.2,0.0,E,,*2D
$GPRMC,163937.2,A,4719.83084,N,12234.66142,W,005.54,142.9,040813,016.6,E,A*24
$PGRME,3.0,M,3.0,M,4.3,M*29
$YXXDR,A,6.0,D,PTCH,A,3.5,D,ROLL*5D
$PTAK,FFD1,3.5*53
$HCHDG,125.1,0.0,E,,*2E
$HCHDG,125.1,0.0,E,,*2E
$GPRMC,163937.4,A,4719.83055,N,12234.66104,W,005.65,142.7,040813,016.6,E,A*20
$PGRME,3.0,M,3.0,M,4.3,M*29
$HCHDG,125.1,0.0,E,,*2E
$HCHDG,125.0,0.0,E,,*2F
$GPRMC,163937.6,A,4719.83032,N,12234.66072,W,005.61,143.6,040813,016.6,E,A*27
$GPRMB,A,-0.31,L,,GH,4719.6000,N,12234.2000,W,0.4,126,5.36,V*22
$PGRME,3.0,M,3.0,M,4.3,M*29
$IIVWR,017,R,11.1,N,,,,*66
$HCHDG,125.0,0.0,E,,*2F
$IIDPT,009.5,-1.0,*4C
$YXXDR,A,5.8,D,PTCH,A,3.5,D,ROLL*56
$IIGLL,4719.832,N,12234.662,W,163900,A,A*49
$GPRMC,163937.8,A,4719.83009,N,12234.66048,W,005.62,142.6,040813,016.6,E,A*2A
$HCHDG,125.1,0.0,E,,*2E
$PTAK,FFP1,HEEL,@*07
$PGRME,3.0,M,3.0,M,4.3,M*29
$IIMTW,+14.5,C*38
$IIMWV,017,R,11.1,N,A*14
$HCHDG,125.0,0.0,E,,*2F
$IIMWV,025,T,07.6,N,A*13
$HCHDG,125.0,0.0,E,,*2F
$GPRMC,163938.0,A,4719.82987,N,12234.66025,W,005.64,142.6,040813,016.6,E,A*2E
$IIRMB,A,,,,GH  ,,,,,000.4,126,,V,A*1B
$PGRME,3.0,M,3.0,M,4.3,M*29
$HCHDG,125.3,0.0,E,,*2C
$IIRMC,163900,A,4719.832,N,12234.662,W,05.5,143,040813,16,E,A*1A
$HCHDG,125.2,0.0,E,,*2D
$GPRMC,163938.2,A,4719.82971,N,12234.65998,W,005.58,142.8,040813,016.6,E,A*28
$PGRME,3.0,M,3.0,M,4.3,M*29
$YXXDR,A,5.7,D,PTCH,A,3.4,D,ROLL*58
$PTAK,FFD1,3.4*52
$HCHDG,125.3,0.0,E,,*2C
$HCHDG,125.2,0.0,E,,*2D
$GPRMC,163938.4,A,4719.82953,N,12234.65974,W,005.67,143.1,040813,016.6,E,A*28
$PGRME,3.0,M,3.0,M,4.3,M*29
$HCHDG,125.3,0.0,E,,*2C
$HCHDG,125.0,0.0,E,,*2F
$GPRMC,163938.6,A,4719.82926,N,12234.65948,W,005.64,143.1,040813,016.6,E,A*24
$PGRME,3.0,M,3.0,M,4.3,M*29
$IIVHW,,,,,04.9,N,,*14
$HCHDG,125.4,0.0,E,,*2B
$IIVLW,02034,N,000.0,N*56
$IIVWR,017,R,11.1,N,,,,*66
$YXXDR,A,5.8,D,PTCH,A,3.2,D,ROLL*51
$IIDPT,009.5,-1.0,*4C
$GPRMC,163938.8,A,4719.82902,N,12234.65931,W,005.64,143.3,040813,016.6,E,A*20
$GPRMB,A,-0.31,L,,GH,4719.6000,N,12234.2000,W,0.4,126,5.39,V*2D
$HCHDG,125.4,0.0,E,,*2B
$PGRME,3.0,M,3.0,M,4.3,M*29
$HCHDG,125.3,0.0,E,,*2C
$IIGLL,4719.829,N,12234.660,W,163900,A,A*41
$IIMTW,+14.5,C*38
$IIMWV,017,R,11.1,N,A*14
$HCHDG,125.5,0.0,E,,*2A
$GPRMC,163939.0,A,4719.82883,N,12234.65894,W,005.62,143.0,040813,016.6,E,A*2A
$PGRME,3.0,M,3.0,M,4.3,M*29
$IIMWV,027,T,06.9,N,A*1F
$HCHDG,125.5,0.0,E,,*2A
$IIRMB,A,,,,GH  ,,,,,000.4,126,,V,A*1B
$HCHDG,125.4,0.0,E,,*2B
$GPRMC,163939.2,A,4719.82860,N,12234.65865,W,005.64,142.7,040813,016.6,E,A*2B
$PGRME,3.0,M,3.0,M,4.3,M*29
$YXXDR,A,5.8,D,PTCH,A,3.0,D,ROLL*53
$HCHDG,125.5,0.0,E,,*2A
$HCHDG,125.5,0.0,E,,*2A
$GPRMC,163939.4,A,4719.82841,N,12234.65839,W,005.65,142.7,040813,016.6,E,A*26
$GPRMB,A,-0.31,L,,GH,4719.6000,N,12234.2000,W,0.4,126,5.42,V*21
$PGRME,3.0,M,3.0,M,4.3,M*29
$HCHDG,125.5,0.0,E,,*2A
$HCHDG,125.6,0.0,E,,*29
$GPRMC,163939.6,A,4719.82816,N,12234.65806,W,005.65,143.5,040813,016.6,E,A*29
$PGRME,3.0,M,3.0,M,4.3,M*29
$HCHDG,125.6,0.0,E,,*29
$IIRMC,163900,A,4719.828,N,12234.658,W,05.6,143,040813,16,E,A*1B
$IIVHW,,,,,04.9,N,,*14
$YXXDR,A,6.0,D,PTCH,A,3.2,D,ROLL*5A
$PTAK,FFD1,3.2*54
$GPRMC,163939.8,A,4719.82786,N,12234.65769,W,005.65,142.9,040813,016.6,E,A*2A
$PGRME,3.0,M,3.0,M,4.3,M*29
$HCHDG,125.7,0.0,E,,*28
$IIVLW,02034,N,000.0,N*56
$HCHDG,125.5,0.0,E,,*2A
$IIVWR,016,R,11.3,N,,,,*65
$IIDPT,009.5,-1.0,*4C
$HCHDG,125.6,0.0,E,,*29
$GPRMC,163940.0,A,4719.82754,N,12234.65745,W,005.62,143.2,040813,016.6,E,A*20
$PGRME,3.0,M,3.0,M,4.3,M*29
$IIGLL,4719.828,N,12234.658,W,163900,A,A*4B
$IIMTW,+14.5,C*38
$HCHDG,125.4,0.0,E,,*2B
$IIMWV,016,R,11.3,N,A*17
$IIMWV,029,T,06.5,N,A*1D
$HCHDG,125.5,0.0,E,,*2A
$GPRMC,163940.2,A,4719.82725,N,12234.65721,W,005.66,143.9,040813,016.6,E,A*29
$PGRME,3.0,M,3.0,M,4.3,M*29
$YXXDR,A,5.9,D,PTCH,A,3.6,D,ROLL*54
$HCHDG,125.5,0.0,E,,*2A
$HCHDG,125.5,0.0,E,,*2A
$GPRMC,163940.4,A,4719.82698,N,12234.65692,W,005.67,142.1,040813,016.6,E,A*29
$PGRME,3.0,M,3.0,M,4.3,M*29
$HCHDG,125.5,0.0,E,,*2A
$HCHDG,125.4,0.0,E,,*2B
$GPRMC,163940.6,A,4719.82674,N,12234.65660,W,005.63,143.2,040813,016.6,E,A*22
$PGRME,3.0,M,3.0,M,4.3,M*29
$IIRMB,A,,,,GH  ,,,,,000.4,126,,V,A*1B
$HCHDG,125.5,0.0,E,,*2A
$YXXDR,A,6.0,D,PTCH,A,3.5,D,ROLL*5D
$IIRMC,163900,A,4719.827,N,12234.657,W,05.6,143,040813,16,E,A*1B
$GPRMC,163940.8,A,4719.82653,N,12234.65628,W,005.63,142.9,040813,016.6,E,A*2F
$PGRME,3.0,M,3.0,M,4.3,M*29
$HCHDG,125.6,0.0,E,,*29
$IIVHW,,,,,04.8,N,,*15
$HCHDG,125.6,0.0,E,,*29
$IIVLW,02034,N,000.0,N*56
$IIVWR,014,R,11.9,N,,,,*6D
$HCHDG,125.6,0.0,E,,*29
$GPRMC,163941.0,A,4719.82631,N,12234.65612,W,005.58,143.6,040813,016.6,E,A*2D
$IIDPT,009.5,-1.0,*4C
$PGRME,3.0,M,3.0,M,4.3,M*29
$HCHDG,125.6,0.0,E,,*29
$IIGLL,4719.827,N,12234.657,W,163900,A,A*4B
$IIMTW,+14.5,C*38
$HCHDG,125.6,0.0,E,,*29
$IIMWV,014,R,11.9,N,A*1F
$GPRMC,163941.2,A,4719.82604,N,12234.65595,W,005.71,142.2,040813,016.6,E,A*2B
$PGRME,3.0,M,3.0,M,4.3,M*29
$YXXDR,A,6.0,D,PTCH,A,3.5,D,ROLL*5D
$PTAK,FFP1,HEEL,@*07
$HCHDG,125.5,0.0,E,,*2A
$HCHDG,125.6,0.0,E,,*29
$GPRMC,163941.4,A,4719.82573,N,12234.65559,W,005.71,143.3,040813,016.6,E,A*2E
$GPRMB,A,-0.31,L,,GH,4719.6000,N,12234.2000,W,0.4,126,5.46,V*25
$PGRME,3.0,M,3.0,M,4.3,M*29
$HCHDG,125.5,0.0,E,,*2A
$HCHDG,125.4,0.0,E,,*2B
$GPRMC,163941.6,A,4719.82551,N,12234.65542,W,005.59,143.1,040813,016.6,E,A*2E
$PGRME,3.0,M,3.0,M,4.3,M*29
$IIMWV,023,T,07.2,N,A*11
$HCHDG,125.4,0.0,E,,*2B
$IIRMB,A,,,,GH  ,,,,,000.4,126,,V,A*1B
$YXXDR,A,6.1,D,PTCH,A,3.3,D,ROLL*5A
$GPRMC,163941.8,A,4719.82528,N,12234.65522,W,005.62,142.8,040813,016.6,E,A*28
$HCHDG,125.5,0.0,E,,*2A
$PGRME,3.0,M,3.0,M,4.3,M*29
$IIRMC,163900,A,4719.826,N,12234.656,W,05.5,143,040813,16,E,A*18
$HCHDG,125.6,0.0,E,,*29
$IIVHW,,,,,04.8,N,,*15
$IIVLW,02034,N,000.0,N*56
$HCHDG,125.5,0.0,E,,*2A
$GPRMC,163942.0,A,4719.82506,N,12234.65493,W,005.68,142.6,040813,016.6,E,A*20
$PGRME,3.0,M,3.0,M,4.3,M*29
$IIVWR,012,R,12.1,N,,,,*60
$IIDPT,009.5,-1.0,*4C
$HCHDG,125.6,0.0,E,,*29
$IIGLL,4719.826,N,12234.656,W,163900,A,A*4B
$HCHDG,125.6,0.0,E,,*29
$IIMTW,+14.5,C*38
$GPRMC,163942.2,A,4719.82487,N,12234.65451,W,005.64,142.4,040813,016.6,E,A*2A
$PGRME,3.0,M,3.0,M,4.3,M*29
$YXXDR,A,6.1,D,PTCH,A,3.2,D,ROLL*5B
$PTAK,FFD1,3.2*54
$HCHDG,125.7,0.0,E,,*28
$HCHDG,125.8,0.0,E,,*27
$GPRMC,163942.4,A,4719.82459,N,12234.65426,W,005.63,142.5,040813,016.6,E,A*29
$PGRME,3.0,M,3.0,M,4.3,M*29
$HCHDG,125.8,0.0,E,,*27
$HCHDG,126.0,0.0,E,,*2C
$GPRMC,163942.6,A,4719.82431,N,12234.65394,W,005.70,143.1,040813,016.6,E,A*2C
$PGRME,3.0,M,3.0,M,4.3,M*29
$IIMWV,015,R,12.2,N,A*16
$HCHDG,126.0,0.0,E,,*2C
$IIMWV,020,T,07.4,N,A*14
$YXXDR,A,6.0,D,PTCH,A,2.7,D,ROLL*5E
$IIRMB,A,,,,GH  ,,,,,000.4,126,,V,A*1B
$GPRMC,163942.8,A,4719.82408,N,12234.65368,W,005.64,143.1,040813,016.6,E,A*2E
$HCHDG,126.0,0.0,E,,*2C
$PGRME,3.0,M,3.0,M,4.3,M*29
$HCHDG,126.1,0.0,E,,*2D
$IIRMC,163900,A,4719.826,N,12234.656,W,05.5,143,040813,16,E,A*18
$IIVHW,,,,,04.8,N,,*15
$HCHDG,126.2,0.0,E,,*2E
$GPRMC,163943.0,A,4719.82381,N,12234.65342,W,005.64,143.1,040813,016.6,E,A*29
$GPRMB,A,-0.31,L,,GH,4719.6000,N,12234.2000,W,0.4,126,5.39,V*2D
$PGRME,3.0,M,3.0,M,4.3,M*29
$IIVLW,02034,N,000.0,N*56
$IIVWR,015,R,12.2,N,,,,*64
$HCHDG,126.2,0.0,E,,*2E
$IIDPT,009.5,-1.0,*4C
$HCHDG,126.3,0.0,E,,*2F
$GPRMC,163943.2,A,4719.82364,N,12234.65310,W,005.65,143.5,040813,016.6,E,A*22
$PGRME,3.0,M,3.0,M,4.3,M*29
$YXXDR,A,5.9,D,PTCH,A,2.6,D,ROLL*55
$HCHDG,126.5,0.0,E,,*29
$HCHDG,126.5,0.0,E,,*29
$GPRMC,163943.4,A,4719.82341,N,12234.65285,W,005.65,143.0,040813,016.6,E,A*2B
$PGRME,3.0,M,3.0,M,4.3,M*29
$HCHDG,126.5,0.0,E,,*29
$HCHDG,126.5,0.0,E,,*29
$GPRMC,163943.6,A,4719.82319,N,12234.65258,W,005.63,143.3,040813,016.6,E,A*21
$PGRME,3.0,M,3.0,M,4.3,M*29
$IIGLL,4719.823,N,12234.653,W,163900,A,A*4B
$HCHDG,126.6,0.0,E,,*2A
$IIMTW,+14.5,C*38
$YXXDR,A,6.0,D,PTCH,A,2.9,D,ROLL*50
$PTAK,FFD1,2.9*5E
$IIMWV,015,R,11.3,N,A*14
$GPRMC,163943.8,A,4719.82296,N,12234.65235,W,005.64,144.0,040813,016.6,E,A*21
$HCHDG,126.6,0.0,E,,*2A
$PGRME,3.0,M,3.0,M,4.3,M*29
$IIMWV,024,T,07.5,N,A*11
$HCHDG,126.7,0.0,E,,*2B
$IIRMB,A,,,,GH  ,,,,,000.4,126,,V,A*1B
$HCHDG,126.7,0.0,E,,*2B
$GPRMC,163944.0,A,4719.82270,N,12234.65208,W,005.64,143.7,040813,016.6,E,A*28
$GPRMB,A,-0.31,L,,GH,4719.6000,N,12234.2000,W,0.4,126,5.37,V*23
$PGRME,3.0,M,3.0,M,4.3,M*29
$PGRMT,GPS 18x-5Hz software ver. 3.20,,,,,,,,*30
$IIRMC,163900,A,4719.823,N,12234.653,W,05.6,143,040813,16,E,A*1B
$HCHDG,126.8,0.0,E,,*24
$IIVHW,,,,,05.0,N,,*1C
$IIVLW,02034,N,000.0,N*56
$HCHDG,127.0,0.0,E,,*2D
$GPRMC,163944.2,A,4719.82242,N,12234.65190,W,005.64,144.6,040813,016.6,E,A*2F
$PGRME,3.0,M,3.0,M,4.3,M*29
$YXXDR,A,6.0,D,PTCH,A,2.5,D,ROLL*5C
$HCHDG,126.9,0.0,E,,*25
$HCHDG,126.9,0.0,E,,*25
$GPRMC,163944.4,A,4719.82217,N,12234.65154,W,005.61,144.9,040813,016.6,E,A*2B
$PGRME,3.0,M,3.0,M,4.3,M*29
$HCHDG,126.9,0.0,E,,*25
$HCHDG,126.9,0.0,E,,*25
$GPRMC,163944.6,A,4719.82200,N,12234.65129,W,005.66,144.9,040813,016.6,E,A*22
$PGRME,3.0,M,3.0,M,4.3,M*29
$IIVWR,011,R,11.9,N,,,,*68
$HCHDG,127.0,0.0,E,,*2D
$IIDPT,009.5,-1.0,*4C
$YXXDR,A,5.9,D,PTCH,A,2.7,D,ROLL*54
$IIGLL,4719.822,N,12234.652,W,163900,A,A*4B
$GPRMC,163944.8,A,4719.82173,N,12234.65097,W,005.63,145.1,040813,016.6,E,A*23
$HCHDG,127.0,0.0,E,,*2D
$PGRME,3.0,M,3.0,M,4.3,M*29
$IIMTW,+14.5,C*38
$IIMWV,011,R,11.9,N,A*1A
$HCHDG,127.0,0.0,E,,*2D
$IIMWV,026,T,06.5,N,A*12
$HCHDG,127.0,0.0,E,,*2D
$GPRMC,163945.0,A,4719.82146,N,12234.65075,W,005.62,144.1,040813,016.6,E,A*20
$IIRMB,A,,,,GH  ,,,,,000.4,126,,V,A*1B
$PGRME,3.0,M,3.0,M,4.3,M*29
$HCHDG,127.0,0.0,E,,*2D
$IIRMC,163900,A,4719.822,N,12234.652,W,05.6,143,040813,16,E,A*1B
$HCHDG,127.1,0.0,E,,*2C
$GPRMC,163945.2,A,4719.82118,N,12234.65045,W,005.70,145.5,040813,016.6,E,A*2C
$GPRMB,A,-0.31,L,,GH,4719.6000,N,12234.2000,W,0.4,126,5.37,V*23
$PGRME,3.0,M,3.0,M,4.3,M*29
$YXXDR,A,5.9,D,PTCH,A,2.7,D,ROLL*54
$PTAK,FFD1,2.7*50
$HCHDG,127.1,0.0,E,,*2C
$HCHDG,127.1,0.0,E,,*2C
$GPRMC,163945.4,A,4719.82091,N,12234.65010,W,005.58,145.0,040813,016.6,E,A*25
$PGRME,3.0,M,3.0,M,4.3,M*29
$HCHDG,127.2,0.0,E,,*2F
$HCHDG,127.2,0.0,E,,*2F
$GPRMC,163945.6,A,4719.82067,N,12234.64978,W,005.65,145.2,040813,016.6,E,A*24
$PGRME,3.0,M,3.0,M,4.3,M*29
$IIVHW,,,,,04.9,N,,*14
$HCHDG,127.1,0.0,E,,*2C
$IIVLW,02034,N,000.0,N*56
$IIVWR,014,R,11.4,N,,,,*60
$YXXDR,A,6.0,D,PTCH,A,3.0,D,ROLL*58
$IIDPT,009.5,-1.0,*4C
$GPRMC,163945.8,A,4719.82045,N,12234.64945,W,005.58,145.5,040813,016.6,E,A*2D
$HCHDG,127.2,0.0,E,,*2F
$PGRME,3.0,M,3.0,M,4.3,M*29
$HCHDG,127.2,0.0,E,,*2F
$IIGLL,4719.821,N,12234.650,W,163900,A,A*4A
$IIMTW,+14.5,C*38
$IIMWV,014,R,11.4,N,A*12
$PTAK,FFP1,HEEL,@*07
$HCHDG,127.3,0.0,E,,*2E
$GPRMC,163946.0,A,4719.82021,N,12234.64907,W,005.67,145.4,040813,016.6,E,A*2F
$PGRME,3.0,M,3.0,M,4.3,M*29
$IIMWV,018,T,07.0,N,A*1B
$HCHDG,127.3,0.0,E,,*2E
$IIRMB,A,,,,GH  ,,,,,000.4,126,,V,A*1B
$HCHDG,127.3,0.0,E,,*2E
$GPRMC,163946.2,A,4719.82001,N,12234.64875,W,005.64,145.1,040813,016.6,E,A*2D
$PGRME,3.0,M,3.0,M,4.3,M*29
$YXXDR,A,6.0,D,PTCH,A,2.7,D,ROLL*5E
$HCHDG,127.3,0.0,E,,*2E
$HCHDG,127.3,0.0,E,,*2E
$GPRMC,163946.4,A,4719.81974,N,12234.64856,W,005.59,146.8,040813,016.6,E,A*26
$GPRMB,A,-0.30,L,,GH,4719.6000,N,12234.2000,W,0.4,126,5.22,V*26
$PGRME,3.0,M,3.0,M,4.3,M*29
$HCHDG,127.4,0.0,E,,*29
$HCHDG,127.3,0.0,E,,*2E
$GPRMC,163946.6,A,4719.81946,N,12234.64832,W,005.65,145.1,040813,016.6,E,A*22
$PGRME,3.0,M,3.0,M,4.3,M*29
$HCHDG,127.3,0.0,E,,*2E
$IIRMC,163900,A,4719.820,N,12234.649,W,05.6,145,040813,16,E,A*15
$YXXDR,A,6.0,D,PTCH,A,2.7,D,ROLL*5E
$PTAK,FFD1,2.7*50
$IIVHW,,,,,04.8,N,,*15
$GPRMC,163946.8,A,4719.81921,N,12234.64802,W,005.65,145.5,040813,016.6,E,A*2A
$HCHDG,127.3,0.0,E,,*2E
$PGRME,3.0,M,3.0,M,4.3,M*29
$IIVLW,02034,N,000.0,N*56
$HCHDG,127.3,0.0,E,,*2E
$IIVWR,016,R,11.3,N,,,,*65
$IIDPT,009.6,-1.0,*4F
$HCHDG,127.1,0.0,E,,*2C
$GPRMC,163947.0,A,4719.81893,N,12234.64768,W,005.58,146.3,040813,016.6,E,A*23
$PGRME,3.0,M,3.0,M,4.3,M*29
$IIGLL,4719.820,N,12234.649,W,163900,A,A*43
$IIMTW,+14.5,C*38
$HCHDG,127.1,0.0,E,,*2C
$IIMWV,016,R,11.3,N,A*17
$IIMWV,024,T,06.5,N,A*10
$HCHDG,126.9,0.0,E,,*25
$GPRMC,163947.2,A,4719.81866,N,12234.64736,W,005.59,145.5,040813,016.6,E,A*24
$PGRME,3.0,M,3.0,M,4.3,M*29
$YXXDR,A,5.8,D,PTCH,A,2.9,D,ROLL*5B
$HCHDG,126.9,0.0,E,,*25
$HCHDG,126.8,0.0,E,,*24
$GPRMC,163947.4,A,4719.81845,N,12234.64710,W,005.68,145.0,040813,016.6,E,A*20
$PGRME,3.0,M,3.0,M,4.3,M*29
$HCHDG,126.7,0.0,E,,*2B
$HCHDG,126.7,0.0,E,,*2B
$GPRMC,163947.6,A,4719.81822,N,12234.64686,W,005.57,145.0,040813,016.6,E,A*21
$GPRMB,A,-0.30,L,,GH,4719.6000,N,12234.2000,W,0.4,126,5.26,V*22
$PGRME,3.0,M,3.0,M,4.3,M*29
$IIRMB,A,,,,GH  ,,,,,000.4,126,,V,A*1B
$HCHDG,126.7,0.0,E,,*2B
$YXXDR,A,5.6,D,PTCH,A,2.6,D,ROLL*5A
$PTAK,FFD1,2.6*51
$IIRMC,163900,A,4719.818,N,12234.647,W,05.5,146,040813,16,E,A*10
$GPRMC,163947.8,A,4719.81794,N,12234.64664,W,005.66,145.5,040813,016.6,E,A*26
$PGRME,3.0,M,3.0,M,4.3,M*29
$HCHDG,126.5,0.0,E,,*29
$IIVHW,,,,,04.8,N,,*15
$HCHDG,126.3,0.0,E,,*2F
$IIVLW,02034,N,000.0,N*56
$IIVWR,014,R,11.8,N,,,,*6C
$HCHDG,126.4,0.0,E,,*28
$GPRMC,163948.0,A,4719.81772,N,12234.64637,W,005.57,144.5,040813,016.6,E,A*2C
$IIDPT,009.6,-1.0,*4F
$PGRME,3.0,M,3.0,M,4.3,M*29
$HCHDG,126.2,0.0,E,,*2E
$IIGLL,4719.818,N,12234.647,W,163900,A,A*46
$IIMTW,+14.5,C*38
$HCHDG,126.3,0.0,E,,*2F
$IIMWV,014,R,11.8,N,A*1E
$GPRMC,163948.2,A,4719.81746,N,12234.64611,W,005.63,144.5,040813,016.6,E,A*2A
$PGRME,3.0,M,3.0,M,4.3,M*29
$YXXDR,A,5.7,D,PTCH,A,2.2,D,ROLL*5F
$HCHDG,126.2,0.0,E,,*2E
$HCHDG,126.2,0.0,E,,*2E
$GPRMC,163948.4,A,4719.81716,N,12234.64583,W,005.61,144.9,040813,016.6,E,A*2F
$PGRME,3.0,M,3.0,M,4.3,M*29
$HCHDG,126.1,0.0,E,,*2D
$HCHDG,126.0,0.0,E,,*2C
$GPRMC,163948.6,A,4719.81686,N,12234.64557,W,005.62,144.4,040813,016.6,E,A*22
$GPRMB,A,-0.30,L,,GH,4719.6000,N,12234.2000,W,0.4,126,5.32,V*27
$PGRME,3.0,M,3.0,M,4.3,M*29
$IIMWV,023,T,07.1,N,A*12
$HCHDG,125.9,0.0,E,,*26
$IIRMB,A,,,,GH  ,,,,,000.4,126,,V,A*1B
$YXXDR,A,6.0,D,PTCH,A,1.8,D,ROLL*52
$PTAK,FFD1,1.8*5C
$GPRMC,163948.8,A,4719.81664,N,12234.64530,W,005.62,144.4,040813,016.6,E,A*21
$PGRME,3.0,M,3.0,M,4.3,M*29
$HCHDG,125.8,0.0,E,,*27
$IIRMC,163900,A,4719.817,N,12234.646,W,05.5,144,040813,16,E,A*1C
$HCHDG,125.8,0.0,E,,*27
$IIVHW,,,,,04.6,N,,*1B
$IIVLW,02034,N,000.0,N*56
$HCHDG,125.8,0.0,E,,*27
$GPRMC,163949.0,A,4719.81636,N,12234.64515,W,005.62,145.1,040813,016.6,E,A*2C
$PGRME,3.0,M,3.0,M,4.3,M*29
$IIVWR,015,R,12.0,N,,,,*66
$IIDPT,009.6,-1.0,*4F
$HCHDG,125.7,0.0,E,,*28
$IIGLL,4719.817,N,12234.646,W,163900,A,A*48
$HCHDG,125.9,0.0,E,,*26
$IIMTW,+14.5,C*38
$GPRMC,163949.2,A,4719.81608,N,12234.64491,W,005.63,144.2,040813,016.6,E,A*2D
$PGRME,3.0,M,3.0,M,4.3,M*29
$YXXDR,A,5.9,D,PTCH,A,1.7,D,ROLL*57
$HCHDG,125.8,0.0,E,,*27
$HCHDG,125.7,0.0,E,,*28
$GPRMC,163949.4,A,4719.81581,N,12234.64453,W,005.59,144.2,040813,016.6,E,A*2E
$PGRME,3.0,M,3.0,M,4.3,M*29
$HCHDG,125.6,0.0,E,,*29
$HCHDG,125.6,0.0,E,,*29
$GPRMC,163949.6,A,4719.81552,N,12234.64432,W,005.60,143.4,040813,016.6,E,A*2E
$PGRME,3.0,M,3.0,M,4.3,M*29
$IIMWV,018,R,12.1,N,A*18
$HCHDG,125.5,0.0,E,,*2A
$IIMWV,024,T,07.6,N,A*12
$YXXDR,A,5.8,D,PTCH,A,1.7,D,ROLL*56
$IIRMB,A,,,,GH  ,,,,,000.4,126,,V,A*1B
$GPRMC,163949.8,A,4719.81526,N,12234.64410,W,005.61,145.0,040813,016.6,E,A*20
$GPRMB,A,-0.30,L,,GH,4719.6000,N,12234.2000,W,0.4,126,5.29,V*2D
$HCHDG,125.4,0.0,E,,*2B
$PTAK,FFP1,HEEL,@*07
$PGRME,3.0,M,3.0,M,4.3,M*29
$HCHDG,125.3,0.0,E,,*2C
$IIRMC,163900,A,4719.816,N,12234.645,W,05.6,145,040813,16,E,A*1C
$IIVHW,,,,,04.6,N,,*1B
$HCHDG,125.3,0.0,E,,*2C
$GPRMC,163950.0,A,4719.81492,N,12234.64385,W,005.63,143.9,040813,016.6,E,A*28
$PGRME,3.0,M,3.0,M,4.3,M*29
$IIVLW,02034,N,000.0,N*56
$IIVWR,018,R,12.1,N,,,,*6A
$HCHDG,125.3,0.0,E,,*2C
$IIDPT,009.6,-1.0,*4F
$HCHDG,125.2,0.0,E,,*2D
$GPRMC,163950.2,A,4719.81468,N,12234.64359,W,005.59,143.6,040813,016.6,E,A*28
$PGRME,3.0,M,3.0,M,4.3,M*29
$YXXDR,A,5.8,D,PTCH,A,1.9,D,ROLL*58
$PTAK,FFD1,1.9*5D
$HCHDG,125.2,0.0,E,,*2D
$HCHDG,125.1,0.0,E,,*2E
$GPRMC,163950.4,A,4719.81444,N,12234.64336,W,005.63,143.2,040813,016.6,E,A*24
$PGRME,3.0,M,3.0,M,4.3,M*29
$HCHDG,125.1,0.0,E,,*2E
$HCHDG,125.0,0.0,E,,*2F
$GPRMC,163950.6,A,4719.81417,N,12234.64294,W,005.60,143.4,040813,016.6,E,A*2C
$PGRME,3.0,M,3.0,M,4.3,M*29
$IIGLL,4719.814,N,12234.643,W,163900,A,A*4E
$HCHDG,125.0,0.0,E,,*2F
$IIMTW,+14.5,C*38
$YXXDR,A,5.8,D,PTCH,A,2.1,D,ROLL*53
$IIMWV,019,R,11.7,N,A*1C
$GPRMC,163950.8,A,4719.81394,N,12234.64256,W,005.61,143.2,040813,016.6,E,A*27
$GPRMB,A,-0.30,L,,GH,4719.6000,N,12234.2000,W,0.4,125,5.34,V*22
$PGRME,3.0,M,3.0,M,4.3,M*29
$HCHDG,125.0,0.0,E,,*2F
$IIMWV,029,T,07.7,N,A*1E
$HCHDG,125.1,0.0,E,,*2E
$IIRMB,A,,,,GH  ,,,,,000.4,126,,V,A*1B
$HCHDG,125.1,0.0,E,,*2E
$GPRMC,163951.0,A,4719.81366,N,12234.64221,W,005.66,142.2,040813,016.6,E,A*25
$PGRME,3.0,M,3.0,M,4.3,M*29
$IIRMC,163900,A,4719.814,N,12234.643,W,05.6,143,040813,16,E,A*1E
$HCHDG,125.1,0.0,E,,*2E
$IIVHW,,,,,04.6,N,,*1B
$IIVLW,02034,N,000.0,N*56
$HCHDG,125.1,0.0,E,,*2E
$GPRMC,163951.2,A,4719.81348,N,12234.64199,W,005.56,142.2,040813,016.6,E,A*28
$PGRME,3.0,M,3.0,M,4.3,M*29
$YXXDR,A,5.8,D,PTCH,A,2.3,D,ROLL*51
$HCHDG,125.3,0.0,E,,*2C
$HCHDG,125.4,0.0,E,,*2B
$GPRMC,163951.4,A,4719.81325,N,12234.64178,W,005.60,142.8,040813,016.6,E,A*25
$PGRME,3.0,M,3.0,M,4.3,M*29
$HCHDG,125.4,0.0,E,,*2B
$HCHDG,125.5,0.0,E,,*2A
$GPRMC,163951.6,A,4719.81301,N,12234.64160,W,005.60,142.8,040813,016.6,E,A*28
$PGRME,3.0,M,3.0,M,4.3,M*29
$IIVWR,020,R,11.6,N,,,,*65
$HCHDG,125.6,0.0,E,,*29
$IIDPT,009.7,-1.0,*4E
$YXXDR,A,5.9,D,PTCH,A,2.4,D,ROLL*57
$PTAK,FFD1,2.4*53
$IIGLL,4719.813,N,12234.642,W,163900,A,A*48
$GPRMC,163951.8,A,4719.81278,N,12234.64135,W,005.61,142.4,040813,016.6,E,A*24
$GPRMB,A,-0.30,L,,GH,4719.6000,N,12234.2000,W,0.4,125,5.37,V*21
$PGRME,3.0,M,3.0,M,4.3,M*29
$HCHDG,125.7,0.0,E,,*28
$IIMTW,+14.5,C*38
$IIMWV,020,R,11.6,N,A*17
$HCHDG,125.6,0.0,E,,*29
$IIMWV,031,T,07.4,N,A*14
$HCHDG,125.9,0.0,E,,*26
$GPRMC,163952.0,A,4719.81253,N,12234.64101,W,005.54,142.9,040813,016.6,E,A*2A
$IIRMB,A,,,,GH  ,,,,,000.4,125,,V,A*18
$PGRME,3.0,M,3.0,M,4.3,M*29
$HCHDG,126.0,0.0,E,,*2C
$IIRMC,163900,A,4719.813,N,12234.642,W,05.6,142,040813,16,E,A*19
$HCHDG,126.1,0.0,E,,*2D
$GPRMC,163952.2,A,4719.81225,N,12234.64072,W,005.67,142.6,040813,016.6,E,A*23
$PGRME,3.0,M,3.0,M,4.3,M*29
$YXXDR,A,5.8,D,PTCH,A,2.1,D,ROLL*53
$HCHDG,126.2,0.0,E,,*2E
$HCHDG,126.3,0.0,E,,*2F
$GPRMC,163952.4,A,4719.81195,N,12234.64043,W,005.63,143.7,040813,016.6,E,A*2B
$PGRME,3.0,M,3.0,M,4.3,M*29
$HCHDG,126.4,0.0,E,,*28
$HCHDG,126.5,0.0,E,,*29
$GPRMC,163952.6,A,4719.81175,N,12234.64024,W,005.57,142.8,040813,016.6,E,A*2F
$PGRME,3.0,M,3.0,M,4.3,M*29
$IIVHW,,,,,04.9,N,,*14
$HCHDG,126.6,0.0,E,,*2A
$IIVLW,02034,N,000.0,N*56
$IIVWR,016,R,11.1,N,,,,*67
$YXXDR,A,6.0,D,PTCH,A,2.1,D,ROLL*58
$PTAK,FFD1,2.1*56
$IIDPT,009.9,-1.0,*40
$GPRMC,163952.8,A,4719.81150,N,12234.64001,W,005.59,143.1,040813,016.6,E,A*27
$GPRMB,A,-0.30,L,,GH,4719.6000,N,12234.2000,W,0.4,125,5.32,V*24
$HCHDG,126.6,0.0,E,,*2A
$PGRME,3.0,M,3.0,M,4.3,M*29
$HCHDG,126.6,0.0,E,,*2A
$IIGLL,4719.812,N,12234.641,W,163900,A,A*4A
$IIMTW,+14.5,C*38
$IIMWV,016,R,11.1,N,A*15
$HCHDG,126.9,0.0,E,,*25
$GPRMC,163953.0,A,4719.81120,N,12234.63975,W,005.57,143.6,040813,016.6,E,A*2D
$PGRME,3.0,M,3.0,M,4.3,M*29
$IIMWV,032,T,07.4,N,A*17
$HCHDG,126.9,0.0,E,,*25
$IIRMB,A,,,,GH  ,,,,,000.4,125,,V,A*18
$HCHDG,127.0,0.0,E,,*2D
$GPRMC,163953.2,A,4719.81096,N,12234.63950,W,005.58,143.2,040813,016.6,E,A*2F
$PGRME,3.0,M,3.0,M,4.3,M*29
$YXXDR,A,6.0,D,PTCH,A,1.8,D,ROLL*52
$HCHDG,127.0,0.0,E,,*2D
$HCHDG,127.2,0.0,E,,*2F
$GPRMC,163953.4,A,4719.81072,N,12234.63919,W,005.64,143.7,040813,016.6,E,A*24
$PGRME,3.0,M,3.0,M,4.3,M*29
$HCHDG,127.2,0.0,E,,*2F
$HCHDG,127.2,0.0,E,,*2F
$GPRMC,163953.6,A,4719.81042,N,12234.63891,W,005.53,143.2,040813,016.6,E,A*25
$PGRME,3.0,M,3.0,M,4.3,M*29
$HCHDG,127.3,0.0,E,,*2E
$IIRMC,163900,A,4719.811,N,12234.639,W,05.5,143,040813,16,E,A*15
$YXXDR,A,6.0,D,PTCH,A,1.6,D,ROLL*5C
$IIVHW,,,,,04.9,N,,*14
$GPRMC,163953.8,A,4719.81024,N,12234.63874,W,005.59,144.1,040813,016.6,E,A*2E
$PGRME,3.0,M,3.0,M,4.3,M*29
$HCHDG,127.5,0.0,E,,*28
$IIVLW,02034,N,000.0,N*56
$IIVWR,015,R,11.2,N,,,,*67
$HCHDG,127.5,0.0,E,,*28
$IIDPT,009.9,-1.0,*40
$HCHDG,127.7,0.0,E,,*2A
$GPRMC,163954.0,A,4719.81001,N,12234.63850,W,005.64,144.8,040813,016.6,E,A*27
$GPRMB,A,-0.30,L,,GH,4719.6000,N,12234.2000,W,0.4,125,5.31,V*27
$PTAK,FFP1,HEEL,@*07
$PGRME,3.0,M,3.0,M,4.3,M*29
$IIGLL,4719.811,N,12234.639,W,163900,A,A*46
$IIMTW,+14.5,C*38
$HCHDG,127.8,0.0,E,,*25
$IIMWV,015,R,11.2,N,A*15
$IIMWV,029,T,06.4,N,A*1C
$HCHDG,128.0,0.0,E,,*22
$GPRMC,163954.2,A,4719.80973,N,12234.63836,W,005.57,145.0,040813,016.6,E,A*21
$PGRME,3.0,M,3.0,M,4.3,M*29
$YXXDR,A,5.8,D,PTCH,A,1.1,D,ROLL*50
$PTAK,FFD1,1.1*55
$HCHDG,128.0,0.0,E,,*22
$HCHDG,128.1,0.0,E,,*23
$GPRMC,163954.4,A,4719.80943,N,12234.63821,W,005.64,145.3,040813,016.6,E,A*21
$GPRMB,A,-0.30,L,,GH,4719.6000,N,12234.2000,W,0.4,125,5.30,V*26
$PGRME,3.0,M,3.0,M,4.3,M*29
$HCHDG,128.2,0.0,E,,*20
$HCHDG,128.3,0.0,E,,*21
$GPRMC,163954.6,A,4719.80914,N,12234.63798,W,005.60,144.6,040813,016.6,E,A*2C
$PGRME,3.0,M,3.0,M,4.3,M*29
$IIRMB,A,,,,GH  ,,,,,000.4,125,,V,A*18
$HCHDG,128.3,0.0,E,,*21
$YXXDR,A,5.9,D,PTCH,A,1.2,D,ROLL*52
$PTAK,FFD1,1.2*56
$IIRMC,163900,A,4719.810,N,12234.638,W,05.6,144,040813,16,E,A*11
$GPRMC,163954.8,A,4719.80892,N,12234.63767,W,005.52,145.3,040813,016.6,E,A*28
$PGRME,3.0,M,3.0,M,4.3,M*29
$HCHDG,128.3,0.0,E,,*21
$IIVHW,,,,,04.9,N,,*14
$HCHDG,128.3,0.0,E,,*21
$IIVLW,02034,N,000.0,N*56
$IIVWR,016,R,11.1,N,,,,*67
$HCHDG,128.4,0.0,E,,*26
$GPRMC,163955.0,A,4719.80867,N,12234.63742,W,005.65,145.9,040813,016.6,E,A*22
$IIDPT,010.1,-1.0,*40
$PGRME,3.0,M,3.0,M,4.3,M*29
$HCHDG,128.5,0.0,E,,*27
$IIGLL,4719.810,N,12234.638,W,163900,A,A*46
$IIMTW,+14.5,C*38
$HCHDG,128.6,0.0,E,,*24
$IIMWV,016,R,11.1,N,A*15
$GPRMC,163955.2,A,4719.80839,N,12234.63718,W,005.59,145.6,040813,016.6,E,A*24
$PGRME,3.0,M,3.0,M,4.3,M*29
$YXXDR,A,6.0,D,PTCH,A,1.4,D,ROLL*5E
$HCHDG,128.6,0.0,E,,*24
$HCHDG,128.7,0.0,E,,*25
$GPRMC,163955.4,A,4719.80814,N,12234.63696,W,005.54,145.9,040813,016.6,E,A*28
$PGRME,3.0,M,3.0,M,4.3,M*29
$HCHDG,128.8,0.0,E,,*2A
$HCHDG,128.9,0.0,E,,*2B
$GPRMC,163955.6,A,4719.80792,N,12234.63664,W,005.62,145.9,040813,016.6,E,A*23
$PGRME,3.0,M,3.0,M,4.3,M*29
$IIMWV,029,T,06.4,N,A*1C
$HCHDG,128.9,0.0,E,,*2B
$IIRMB,A,,,,GH  ,,,,,000.4,125,,V,A*18
$YXXDR,A,5.8,D,PTCH,A,1.3,D,ROLL*52
$GPRMC,163955.8,A,4719.80773,N,12234.63621,W,005.57,146.3,040813,016.6,E,A*2C
$HCHDG,128.9,0.0,E,,*2B
$PGRME,3.0,M,3.0,M,4.3,M*29
$IIRMC,163900,A,4719.808,N,12234.637,W,05.6,145,040813,16,E,A*16
$HCHDG,129.0,0.0,E,,*23
$IIVHW,,,,,04.9,N,,*14
$IIVLW,02034,N,000.0,N*56
$HCHDG,129.0,0.0,E,,*23
$GPRMC,163956.0,A,4719.80748,N,12234.63591,W,005.54,145.4,040813,016.6,E,A*20
$PGRME,3.0,M,3.0,M,4.3,M*29
$IIVWR,018,R,11.2,N,,,,*6A
$IIDPT,010.1,-1.0,*40
$HCHDG,129.1,0.0,E,,*22
$IIGLL,4719.808,N,12234.637,W,163900,A,A*40
$HCHDG,129.2,0.0,E,,*21
$IIMTW,+14.5,C*38
$GPRMC,163956.2,A,4719.80720,N,12234.63571,W,005.58,147.0,040813,016.6,E,A*28
$GPRMB,A,-0.30,L,,GH,4719.6000,N,12234.2000,W,0.4,125,5.18,V*2C
$PGRME,3.0,M,3.0,M,4.3,M*29
$YXXDR,A,5.8,D,PTCH,A,1.1,D,ROLL*50
$HCHDG,129.3,0.0,E,,*20
$HCHDG,129.3,0.0,E,,*20
$GPRMC,163956.4,A,4719.80695,N,12234.63550,W,005.65,146.4,040813,016.6,E,A*29
$PGRME,3.0,M,3.0,M,4.3,M*29
$HCHDG,129.2,0.0,E,,*21
$HCHDG,129.4,0.0,E,,*27
$GPRMC,163956.6,A,4719.80669,N,12234.63532,W,005.61,147.0,040813,016.6,E,A*2D
$PGRME,3.0,M,3.0,M,4.3,M*29
$IIMWV,018,R,11.6,N,A*1C
$IIMWV,031,T,06.6,N,A*17
$HCHDG,129.5,0.0,E,,*26
$YXXDR,A,5.9,D,PTCH,A,1.2,D,ROLL*52
$PTAK,FFD1,1.2*56
$IIRMB,A,,,,GH  ,,,,,000.4,125,,V,A*18
$GPRMC,163956.8,A,4719.80643,N,12234.63510,W,005.60,146.5,040813,016.6,E,A*2E
$PGRME,3.0,M,3.0,M,4.3,M*29
$HCHDG,129.6,0.0,E,,*25
$HCHDG,129.5,0.0,E,,*26
$IIRMC,163900,A,4719.807,N,12234.635,W,05.5,145,040813,16,E,A*18
$IIVHW,,,,,05.0,N,,*1C
$HCHDG,129.6,0.0,E,,*25
$GPRMC,163957.0,A,4719.80618,N,12234.63494,W,005.60,146.7,040813,016.6,E,A*26
$IIVLW,02034,N,000.0,N*56
$PGRME,3.0,M,3.0,M,4.3,M*29
$IIVWR,018,R,11.6,N,,,,*6E
$HCHDG,129.7,0.0,E,,*24
$IIDPT,010.1,-1.0,*40
$HCHDG,129.7,0.0,E,,*24
$GPRMC,163957.2,A,4719.80592,N,12234.63479,W,005.61,148.3,040813,016.6,E,A*2D
$PGRME,3.0,M,3.0,M,4.3,M*29
$YXXDR,A,5.8,D,PTCH,A,1.3,D,ROLL*52
$HCHDG,129.7,0.0,E,,*24
$HCHDG,129.8,0.0,E,,*2B
$GPRMC,163957.4,A,4719.80565,N,12234.63458,W,005.59,147.2,040813,016.6,E,A*25
$GPRMB,A,-0.29,L,,GH,4719.6000,N,12234.2000,W,0.4,125,5.17,V*2B
$PGRME,3.0,M,3.0,M,4.3,M*29
$HCHDG,129.7,0.0,E,,*24
$HCHDG,129.7,0.0,E,,*24
$GPRMC,163957.6,A,4719.80535,N,12234.63431,W,005.59,147.8,040813,016.6,E,A*27
$PGRME,3.0,M,3.0,M,4.3,M*29
$IIGLL,4719.806,N,12234.634,W,163900,A,A*4D
$HCHDG,129.7,0.0,E,,*24
$IIMTW,+14.5,C*38
$YXXDR,A,5.9,D,PTCH,A,1.4,D,ROLL*54
$PTAK,FFD1,1.4*50
$IIMWV,018,R,11.9,N,A*13
$GPRMC,163957.8,A,4719.80514,N,12234.63406,W,005.59,147.9,040813,016.6,E,A*2F
$HCHDG,129.8,0.0,E,,*2B
$PGRME,3.0,M,3.0,M,4.3,M*29
$IIMWV,030,T,06.9,N,A*19
$HCHDG,129.9,0.0,E,,*2A
$IIRMB,A,,,,GH  ,,,,,000.4,125,,V,A*18
$HCHDG,129.9,0.0,E,,*2A
$GPRMC,163958.0,A,4719.80482,N,12234.63388,W,005.59,146.9,040813,016.6,E,A*26
$PGRME,3.0,M,3.0,M,4.3,M*29
$IIRMC,163900,A,4719.806,N,12234.634,W,05.6,146,040813,16,E,A*18
$HCHDG,130.0,0.0,E,,*2B
$PTAK,FFP1,HEEL,@*07
$IIVHW,,,,,05.0,N,,*1C
$IIVLW,02034,N,000.0,N*56
$HCHDG,130.0,0.0,E,,*2B
$GPRMC,163958.2,A,4719.80445,N,12234.63367,W,005.58,148.2,040813,016.6,E,A*2A
$PGRME,3.0,M,3.0,M,4.3,M*29
$YXXDR,A,5.8,D,PTCH,A,1.5,D,ROLL*54
$HCHDG,130.1,0.0,E,,*2A
$HCHDG,130.0,0.0,E,,*2B
$GPRMC,163958.4,A,4719.80416,N,12234.63354,W,005.58,148.4,040813,016.6,E,A*2C
$GPRMB,A,-0.29,L,,GH,4719.6000,N,12234.2000,W,0.4,125,5.11,V*2D
$PGRME,3.0,M,3.0,M,4.3,M*29
$HCHDG,130.0,0.0,E,,*2B
$HCHDG,130.2,0.0,E,,*29
$GPRMC,163958.6,A,4719.80384,N,12234.63334,W,005.58,148.3,040813,016.6,E,A*23
$PGRME,3.0,M,3.0,M,4.3,M*29
$IIVWR,017,R,12.0,N,,,,*64
$IIDPT,010.1,-1.0,*40
$HCHDG,130.3,0.0,E,,*28
$YXXDR,A,5.8,D,PTCH,A,1.7,D,ROLL*56
$IIGLL,4719.804,N,12234.633,W,163900,A,A*48
$GPRMC,163958.8,A,4719.80355,N,12234.63303,W,005.58,148.4,040813,016.6,E,A*22
$PGRME,3.0,M,3.0,M,4.3,M*29
$IIMTW,+15.0,C*3C
$HCHDG,130.3,0.0,E,,*28
$IIMWV,017,R,12.0,N,A*16
$HCHDG,130.5,0.0,E,,*2E
$IIMWV,030,T,07.2,N,A*13
$HCHDG,130.6,0.0,E,,*2D
$GPRMC,163959.0,A,4719.80327,N,12234.63273,W,005.56,148.4,040813,016.6,E,A*26
$IIRMB,A,,,,GH  ,,,,,000.4,125,,V,A*18
$PGRME,3.0,M,3.0,M,4.3,M*29
$HCHDG,130.6,0.0,E,,*2D
$IIRMC,163900,A,4719.804,N,12234.633,W,05.5,146,040813,16,E,A*1E
$HCHDG,130.5,0.0,E,,*2E
$GPRMC,163959.2,A,4719.80300,N,12234.63260,W,005.54,148.3,040813,016.6,E,A*26
$PGRME,3.0,M,3.0,M,4.3,M*29
$YXXDR,A,5.7,D,PTCH,A,2.1,D,ROLL*5C
$PTAK,FFD1,2.1*56
$HCHDG,130.5,0.0,E,,*2E
$HCHDG,130.6,0.0,E,,*2D
$GPRMC,163959.4,A,4719.80275,N,12234.63237,W,005.56,148.6,040813,016.6,E,A*26
$PGRME,3.0,M,3.0,M,4.3,M*29
$HCHDG,130.3,0.0,E,,*28
$HCHDG,130.5,0.0,E,,*2E
$GPRMC,163959.6,A,4719.80252,N,12234.63216,W,005.57,148.7,040813,016.6,E,A*22
$GPRMB,A,-0.29,L,,GH,4719.6000,N,12234.2000,W,0.4,125,5.09,V*24
$PGRME,3.0,M,3.0,M,4.3,M*29
$IIVHW,,,,,04.7,N,,*1A
$IIVLW,02034,N,000.0,N*56
$HCHDG,130.5,0.0,E,,*2E
$IIVWR,019,R,12.1,N,,,,*6B
$YXXDR,A,5.8,D,PTCH,A,2.4,D,ROLL*56
$IIDPT,010.1,-1.0,*40
$GPRMC,163959.8,A,4719.80227,N,12234.63193,W,005.58,148.4,040813,016.6,E,A*2C
$HCHDG,130.5,0.0,E,,*2E
$PGRME,3.0,M,3.0,M,4.3,M*29
$IIGLL,4719.803,N,12234.632,W,163900,A,A*4E
$HCHDG,130.5,0.0,E,,*2E
$IIMTW,+15.0,C*3C
$IIMWV,019,R,12.1,N,A*19
$HCHDG,130.5,0.0,E,,*2E
$GPRMC,164000.0,A,4719.80199,N,12234.63176,W,005.60,148.7,040813,016.6,E,A*23
$PGRME,3.0,M,3.0,M,4.3,M*29
$IIMWV,027,T,07.6,N,A*11
$HCHDG,130.4,0.0,E,,*2F
$IIRMB,A,,,,GH  ,,,,,000.4,125,,V,A*18
$HCHDG,130.6,0.0,E,,*2D
$GPRMC,164000.2,A,4719.80166,N,12234.63156,W,005.60,148.6,040813,016.6,E,A*22
$PGRME,3.0,M,3.0,M,4.3,M*29
$YXXDR,A,5.8,D,PTCH,A,2.9,D,ROLL*5B
$PTAK,FFD1,2.9*5E
$HCHDG,130.8,0.0,E,,*23
$HCHDG,130.7,0.0,E,,*2C
$GPRMC,164000.4,A,4719.80132,N,12234.63124,W,005.59,148.8,040813,016.6,E,A*24
$PGRME,3.0,M,3.0,M,4.3,M*29
$HCHDG,130.7,0.0,E,,*2C
$HCHDG,130.4,0.0,E,,*2F
$GPRMC,164000.6,A,4719.80113,N,12234.63097,W,005.61,148.6,040813,016.6,E,A*29
$PGRME,3.0,M,3.0,M,4.3,M*29
$HCHDG,130.5,0.0,E,,*2E
$IIRMC,164000,A,4719.801,N,12234.631,W,05.6,148,040813,16,E,A*1A
$YXXDR,A,6.0,D,PTCH,A,3.2,D,ROLL*5A
$IIVHW,,,,,04.9,N,,*14
$GPRMC,164000.8,A,4719.80089,N,12234.63070,W,005.61,149.1,040813,016.6,E,A*2A
$GPRMB,A,-0.29,L,,GH,4719.6000,N,12234.2000,W,0.4,125,5.10,V*2C
$HCHDG,130.5,0.0,E,,*2E
$PGRME,3.0,M,3.0,M,4.3,M*29
$IIVLW,02034,N,000.0,N*56
$IIVWR,017,R,11.8,N,,,,*6F
$HCHDG,130.4,0.0,E,,*2F
$IIDPT,010.5,-1.0,*44
$HCHDG,130.5,0.0,E,,*2E
$GPRMC,164001.0,A,4719.80064,N,12234.63043,W,005.61,148.9,040813,016.6,E,A*29
$PGRME,3.0,M,3.0,M,4.3,M*29
$IIGLL,4719.801,N,12234.631,W,164000,A,A*41
$IIMTW,+15.0,C*3C
$HCHDG,130.6,0.0,E,,*2D
$IIMWV,017,R,11.8,N,A*1D
$IIMWV,030,T,07.7,N,A*16
$HCHDG,130.5,0.0,E,,*2E
$GPRMC,164001.2,A,4719.80040,N,12234.63028,W,005.62,148.3,040813,016.6,E,A*29
$PGRME,3.0,M,3.0,M,4.3,M*29
$YXXDR,A,6.0,D,PTCH,A,3.4,D,ROLL*5C
$HCHDG,130.5,0.0,E,,*2E
$HCHDG,130.6,0.0,E,,*2D
$GPRMC,164001.4,A,4719.80017,N,12234.63010,W,005.61,149.0,040813,016.6,E,A*27
$PGRME,3.0,M,3.0,M,4.3,M*29
$HCHDG,130.5,0.0,E,,*2E
$HCHDG,130.6,0.0,E,,*2D
$GPRMC,164001.6,A,4719.79984,N,12234.62981,W,005.62,148.8,040813,016.6,E,A*2A
$PGRME,3.0,M,3.0,M,4.3,M*29
$IIRMB,A,,,,GH  ,,,,,000.4,125,,V,A*18
$HCHDG,130.6,0.0,E,,*2D
$YXXDR,A,6.0,D,PTCH,A,3.2,D,ROLL*5A
$PTAK,FFD1,3.2*54
$IIRMC,164000,A,4719.800,N,12234.630,W,05.6,148,040813,16,E,A*1A
$GPRMC,164001.8,A,4719.79954,N,12234.62959,W,005.64,148.6,040813,016.6,E,A*24
$GPRMB,A,-0.29,L,,GH,4719.6000,N,12234.2000,W,0.4,124,5.15,V*28
$PGRME,3.0,M,3.0,M,4.3,M*29
$HCHDG,130.7,0.0,E,,*2C
$IIVHW,,,,,04.9,N,,*14
$HCHDG,130.6,0.0,E,,*2D
$IIVLW,02034,N,000.0,N*56
$IIVWR,016,R,11.9,N,,,,*6F
$HCHDG,130.7,0.0,E,,*2C
$GPRMC,164002.0,A,4719.79926,N,12234.62930,W,005.64,148.9,040813,016.6,E,A*2A
$IIDPT,010.3,-1.0,*42
$PGRME,3.0,M,3.0,M,4.3,M*29
$HCHDG,130.5,0.0,E,,*2E
$PTAK,FFP1,HEEL,@*07
$IIGLL,4719.800,N,12234.630,W,164000,A,A*41
$IIMTW,+15.0,C*3C
$HCHDG,130.5,0.0,E,,*2E
$IIMWV,016,R,11.9,N,A*1D
$GPRMC,164002.2,A,4719.79897,N,12234.62920,W,005.63,149.0,040813,016.6,E,A*2D
$PGRME,3.0,M,3.0,M,4.3,M*29
$YXXDR,A,6.1,D,PTCH,A,3.2,D,ROLL*5B
$HCHDG,130.4,0.0,E,,*2F
$HCHDG,130.4,0.0,E,,*2F
$GPRMC,164002.4,A,4719.79871,N,12234.62908,W,005.64,148.6,040813,016.6,E,A*29
$PGRME,3.0,M,3.0,M,4.3,M*29
$HCHDG,130.5,0.0,E,,*2E
$HCHDG,130.5,0.0,E,,*2E
$GPRMC,164002.6,A,4719.79844,N,12234.62887,W,005.64,148.7,040813,016.6,E,A*2A
$PGRME,3.0,M,3.0,M,4.3,M*29
$IIMWV,027,T,07.2,N,A*15
$HCHDG,130.5,0.0,E,,*2E
$IIRMB,A,,,,GH  ,,,,,000.4,125,,V,A*18
$YXXDR,A,5.8,D,PTCH,A,3.0,D,ROLL*53
$PTAK,FFD1,3.0*56
$GPRMC,164002.8,A,4719.79814,N,12234.62867,W,005.63,149.6,040813,016.6,E,A*28
$HCHDG,130.3,0.0,E,,*28
$PGRME,3.0,M,3.0,M,4.3,M*29
$IIRMC,164000,A,4719.799,N,12234.629,W,05.6,148,040813,16,E,A*1D
$HCHDG,130.5,0.0,E,,*2E
$IIVHW,,,,,04.7,N,,*1A
$IIVLW,02034,N,000.0,N*56
$HCHDG,130.4,0.0,E,,*2F
$GPRMC,164003.0,A,4719.79786,N,12234.62846,W,005.64,149.7,040813,016.6,E,A*20
$GPRMB,A,-0.29,L,,GH,4719.6000,N,12234.2000,W,0.4,124,5.09,V*25
$PGRME,3.0,M,3.0,M,4.3,M*29
$IIVWR,015,R,11.7,N,,,,*62
$IIDPT,010.5,-1.0,*44
$HCHDG,130.5,0.0,E,,*2E
$IIGLL,4719.799,N,12234.629,W,164000,A,A*46
$HCHDG,130.4,0.0,E,,*2F
$IIMTW,+15.0,C*3C
$GPRMC,164003.2,A,4719.79754,N,12234.62827,W,005.64,149.9,040813,016.6,E,A*24
$PGRME,3.0,M,3.0,M,4.3,M*29
$YXXDR,A,5.7,D,PTCH,A,2.2,D,ROLL*5F
$HCHDG,130.3,0.0,E,,*28
$HCHDG,130.3,0.0,E,,*28
$GPRMC,164003.4,A,4719.79720,N,12234.62814,W,005.63,149.6,040813,016.6,E,A*29
$PGRME,3.0,M,3.0,M,4.3,M*29
$HCHDG,130.1,0.0,E,,*2A
$HCHDG,130.0,0.0,E,,*2B
$GPRMC,164003.6,A,4719.79692,N,12234.62806,W,005.63,149.9,040813,016.6,E,A*2F
$PGRME,3.0,M,3.0,M,4.3,M*29
$IIMWV,015,R,11.8,N,A*1F
$HCHDG,129.9,0.0,E,,*2A
$IIMWV,025,T,07.1,N,A*14
$YXXDR,A,5.8,D,PTCH,A,2.3,D,ROLL*51
$IIRMB,A,,,,GH  ,,,,,000.4,124,,V,A*19
$GPRMC,164003.8,A,4719.79668,N,12234.62775,W,005.61,149.2,040813,016.6,E,A*26
$HCHDG,130.0,0.0,E,,*2B
$PGRME,3.0,M,3.0,M,4.3,M*29
$HCHDG,129.9,0.0,E,,*2A
$IIRMC,164000,A,4719.797,N,12234.628,W,05.6,149,040813,16,E,A*13
$IIVHW,,,,,04.8,N,,*15
$HCHDG,129.6,0.0,E,,*25
$GPRMC,164004.0,A,4719.79639,N,12234.62748,W,005.62,149.6,040813,016.6,E,A*24
$IIVLW,02034,N,000.0,N*56
$PGRME,3.0,M,3.0,M,4.3,M*29
$IIVWR,015,R,11.8,N,,,,*6D
$HCHDG,129.5,0.0,E,,*26
$IIDPT,010.5,-1.0,*44
$HCHDG,129.2,0.0,E,,*21
$GPRMC,164004.2,A,4719.79613,N,12234.62714,W,005.61,148.7,040813,016.6,E,A*24
$GPRMB,A,-0.29,L,,GH,4719.6000,N,12234.2000,W,0.3,124,5.10,V*2A
$PGRME,3.0,M,3.0,M,4.3,M*29
$YXXDR,A,5.7,D,PTCH,A,2.4,D,ROLL*59
$PTAK,FFD1,2.4*53
$HCHDG,129.1,0.0,E,,*22
$HCHDG,128.9,0.0,E,,*2B
$GPRMC,164004.4,A,4719.79583,N,12234.62691,W,005.61,148.0,040813,016.6,E,A*23
$PGRME,3.0,M,3.0,M,4.3,M*29
$HCHDG,128.9,0.0,E,,*2B
$HCHDG,128.9,0.0,E,,*2B
$GPRMC,164004.6,A,4719.79555,N,12234.62679,W,005.62,148.0,040813,016.6,E,A*2F
$PGRME,3.0,M,3.0,M,4.3,M*29
$IIGLL,4719.796,N,12234.627,W,164000,A,A*47
$HCHDG,128.7,0.0,E,,*25
$IIMTW,+15.0,C*3C
$YXXDR,A,5.8,D,PTCH,A,2.3,D,ROLL*51
$IIMWV,016,R,12.0,N,A*17
$GPRMC,164004.8,A,4719.79529,N,12234.62656,W,005.64,148.1,040813,016.6,E,A*20
$HCHDG,128.5,0.0,E,,*27
$PGRME,3.0,M,3.0,M,4.3,M*29
$IIMWV,025,T,07.2,N,A*17
$HCHDG,128.4,0.0,E,,*26
$IIRMB,A,,,,GH  ,,,,,000.4,124,,V,A*19
$HCHDG,128.3,0.0,E,,*21
$GPRMC,164005.0,A,4719.79503,N,12234.62627,W,005.63,147.4,040813,016.6,E,A*2A
$PGRME,3.0,M,3.0,M,4.3,M*29
$IIRMC,164000,A,4719.796,N,12234.627,W,05.6,149,040813,16,E,A*1D
$HCHDG,128.2,0.0,E,,*20
$IIVHW,,,,,05.0,N,,*1C
$IIVLW,02034,N,000.0,N*56
$HCHDG,128.1,0.0,E,,*23
$GPRMC,164005.2,A,4719.79480,N,12234.62595,W,005.62,146.5,040813,016.6,E,A*29
$PGRME,3.0,M,3.0,M,4.3,M*29
$YXXDR,A,5.7,D,PTCH,A,2.1,D,ROLL*5C
$HCHDG,128.2,0.0,E,,*20
$HCHDG,128.1,0.0,E,,*23
$GPRMC,164005.4,A,4719.79454,N,12234.62568,W,005.63,147.8,040813,016.6,E,A*29
$GPRMB,A,-0.29,L,,GH,4719.6000,N,12234.2000,W,0.3,124,5.15,V*2F
$PGRME,3.0,M,3.0,M,4.3,M*29
$HCHDG,128.0,0.0,E,,*22
$HCHDG,127.9,0.0,E,,*24
$GPRMC,164005.6,A,4719.79426,N,12234.62539,W,005.61,147.4,040813,016.6,E,A*24
$PGRME,3.0,M,3.0,M,4.3,M*29
$IIVWR,017,R,12.1,N,,,,*65
$IIDPT,010.5,-1.0,*44
$HCHDG,127.8,0.0,E,,*25
$YXXDR,A,5.6,D,PTCH,A,2.2,D,ROLL*5E
$PTAK,FFD1,2.2*55
$IIGLL,4719.795,N,12234.626,W,164000,A,A*45
$GPRMC,164005.8,A,4719.79400,N,12234.62510,W,005.61,146.8,040813,016.6,E,A*28
$PGRME,3.0,M,3.0,M,4.3,M*29
$IIMTW,+15.0,C*3C
$HCHDG,127.9,0.0,E,,*24
$IIMWV,017,R,12.1,N,A*17
$HCHDG,127.8,0.0,E,,*25
$IIMWV,027,T,07.2,N,A*15
$HCHDG,127.8,0.0,E,,*25
$GPRMC,164006.0,A,4719.79373,N,12234.62476,W,005.62,147.4,040813,016.6,E,A*2F
$IIRMB,A,,,,GH  ,,,,,000.3,124,,V,A*1E
$PGRME,3.0,M,3.0,M,4.3,M*29
$HCHDG,127.9,0.0,E,,*24
$IIRMC,164000,A,4719.795,N,12234.626,W,05.6,147,040813,16,E,A*11
$HCHDG,127.7,0.0,E,,*2A
$PTAK,FFP1,HEEL,@*07
$GPRMC,164006.2,A,4719.79344,N,12234.62448,W,005.64,147.7,040813,016.6,E,A*21
$PGRME,3.0,M,3.0,M,4.3,M*29
$YXXDR,A,5.5,D,PTCH,A,2.5,D,ROLL*5A
$HCHDG,127.8,0.0,E,,*25
$HCHDG,127.8,0.0,E,,*25
$GPRMC,164006.4,A,4719.79323,N,12234.62411,W,005.62,146.9,040813,016.6,E,A*23
$PGRME,3.0,M,3.0,M,4.3,M*29
$HCHDG,127.6,0.0,E,,*2B
$HCHDG,127.8,0.0,E,,*25
$GPRMC,164006.6,A,4719.79301,N,12234.62376,W,005.63,146.9,040813,016.6,E,A*26
$GPRMB,A,-0.29,L,,GH,4719.6000,N,12234.2000,W,0.3,124,5.18,V*22
$PGRME,3.0,M,3.0,M,4.3,M*29
$IIVHW,,,,,05.0,N,,*1C
$HCHDG,127.8,0.0,E,,*25
$IIVLW,02034,N,000.0,N*56
$IIVWR,019,R,12.5,N,,,,*6F
$YXXDR,A,5.8,D,PTCH,A,2.9,D,ROLL*5B
$PTAK,FFD1,2.9*5E
$IIDPT,010.5,-1.0,*44
$GPRMC,164006.8,A,4719.79273,N,12234.62345,W,005.64,146.8,040813,016.6,E,A*2A
$HCHDG,127.7,0.0,E,,*2A
$PGRME,3.0,M,3.0,M,4.3,M*29
$HCHDG,127.5,0.0,E,,*28
$IIGLL,4719.793,N,12234.624,W,164000,A,A*41
$IIMTW,+15.0,C*3C
$IIMWV,019,R,12.5,N,A*1D
$HCHDG,127.6,0.0,E,,*2B
$GPRMC,164007.0,A,4719.79251,N,12234.62307,W,005.62,147.0,040813,016.6,E,A*2A
$PGRME,3.0,M,3.0,M,4.3,M*29
$IIMWV,028,T,07.4,N,A*1C
$HCHDG,127.5,0.0,E,,*28
$IIRMB,A,,,,GH  ,,,,,000.3,124,,V,A*1E
$HCHDG,127.3,0.0,E,,*2E
$GPRMC,164007.2,A,4719.79226,N,12234.62292,W,005.62,146.2,040813,016.6,E,A*26
$PGRME,3.0,M,3.0,M,4.3,M*29
$YXXDR,A,5.5,D,PTCH,A,3.3,D,ROLL*5D
$HCHDG,127.3,0.0,E,,*2E
$HCHDG,127.3,0.0,E,,*2E
$GPRMC,164007.4,A,4719.79197,N,12234.62278,W,005.63,146.7,040813,016.6,E,A*29
$PGRME,3.0,M,3.0,M,4.3,M*29
$HCHDG,127.1,0.0,E,,*2C
$HCHDG,127.0,0.0,E,,*2D
$GPRMC,164007.6,A,4719.79171,N,12234.62260,W,005.62,146.1,040813,016.6,E,A*2D
$GPRMB,A,-0.29,L,,GH,4719.6000,N,12234.2000,W,0.3,124,5.20,V*29
$PGRME,3.0,M,3.0,M,4.3,M*29
$HCHDG,127.1,0.0,E,,*2C
$IIRMC,164000,A,4719.792,N,12234.623,W,05.6,147,040813,16,E,A*13
$YXXDR,A,5.9,D,PTCH,A,3.6,D,ROLL*54
$IIVHW,,,,,05.0,N,,*1C
$GPRMC,164007.8,A,4719.79147,N,12234.62240,W,005.63,146.1,040813,016.6,E,A*25
$HCHDG,126.8,0.0,E,,*24
$PGRME,3.0,M,3.0,M,4.3,M*29
$IIVLW,02034,N,000.0,N*56
$IIVWR,021,R,12.7,N,,,,*66
$HCHDG,126.8,0.0,E,,*24
$IIDPT,010.5,-1.0,*44
$HCHDG,126.6,0.0,E,,*2A
$GPRMC,164008.0,A,4719.79125,N,12234.62230,W,005.64,145.6,040813,016.6,E,A*22
$PGRME,3.0,M,3.0,M,4.3,M*29
$IIGLL,4719.792,N,12234.623,W,164000,A,A*47
$IIMTW,+15.0,C*3C
$HCHDG,126.4,0.0,E,,*28
$IIMWV,021,R,12.7,N,A*14
$IIMWV,032,T,07.8,N,A*1B
$HCHDG,126.4,0.0,E,,*28
$GPRMC,164008.2,A,4719.79099,N,12234.62209,W,005.62,146.0,040813,016.6,E,A*2F
$PGRME,3.0,M,3.0,M,4.3,M*29
$YXXDR,A,5.8,D,PTCH,A,3.9,D,ROLL*5A
$PTAK,FFD1,3.9*5F
$HCHDG,126.3,0.0,E,,*2F
$HCHDG,126.2,0.0,E,,*2E
$GPRMC,164008.4,A,4719.79073,N,12234.62175,W,005.65,147.2,040813,016.6,E,A*21
$PGRME,3.0,M,3.0,M,4.3,M*29
$HCHDG,126.2,0.0,E,,*2E
$HCHDG,126.1,0.0,E,,*2D
$GPRMC,164008.6,A,4719.79045,N,12234.62147,W,005.66,146.1,040813,016.6,E,A*26
$PGRME,3.0,M,3.0,M,4.3,M*29
$IIRMB,A,,,,GH  ,,,,,000.3,124,,V,A*1E
$HCHDG,125.8,0.0,E,,*27
$YXXDR,A,5.6,D,PTCH,A,3.8,D,ROLL*55
$IIRMC,164000,A,4719.791,N,12234.622,W,05.6,145,040813,16,E,A*13
$GPRMC,164008.8,A,4719.79019,N,12234.62116,W,005.65,144.9,040813,016.6,E,A*2C
$GPRMB,A,-0.29,L,,GH,4719.6000,N,12234.2000,W,0.3,124,5.27,V*2E
$HCHDG,125.8,0.0,E,,*27
$PGRME,3.0,M,3.0,M,4.3,M*29
$IIVHW,,,,,05.0,N,,*1C
$HCHDG,125.5,0.0,E,,*2A
$IIVLW,02034,N,000.0,N*56
$IIVWR,021,R,12.6,N,,,,*67
$HCHDG,125.5,0.0,E,,*2A
$GPRMC,164009.0,A,4719.78992,N,12234.62077,W,005.66,145.5,040813,016.6,E,A*26
$IIDPT,010.5,-1.0,*44
$PGRME,3.0,M,3.0,M,4.3,M*29
$HCHDG,125.3,0.0,E,,*2C
$IIGLL,4719.791,N,12234.622,W,164000,A,A*45
$IIMTW,+15.0,C*3C
$HCHDG,125.2,0.0,E,,*2D
$IIMWV,021,R,12.6,N,A*15
$GPRMC,164009.2,A,4719.78970,N,12234.62050,W,005.64,144.0,040813,016.6,E,A*2B
$PGRME,3.0,M,3.0,M,4.3,M*29
$YXXDR,A,5.7,D,PTCH,A,4.1,D,ROLL*5A
$HCHDG,125.1,0.0,E,,*2E
$HCHDG,124.9,0.0,E,,*27
$GPRMC,164009.4,A,4719.78943,N,12234.62027,W,005.65,144.6,040813,016.6,E,A*2A
$PGRME,3.0,M,3.0,M,4.3,M*29
$HCHDG,125.1,0.0,E,,*2E
$HCHDG,124.7,0.0,E,,*29
$GPRMC,164009.6,A,4719.78917,N,12234.62003,W,005.66,144.2,040813,016.6,E,A*28
$PGRME,3.0,M,3.0,M,4.3,M*29
$IIMWV,034,T,08.0,N,A*1A
$HCHDG,124.6,0.0,E,,*28
$IIRMB,A,,,,GH  ,,,,,000.3,124,,V,A*1E
$YXXDR,A,5.8,D,PTCH,A,3.9,D,ROLL*5A
$PTAK,FFD1,3.9*5F
$GPRMC,164009.8,A,4719.78894,N,12234.61974,W,005.68,143.7,040813,016.6,E,A*2A
$HCHDG,124.5,0.0,E,,*2B
$PGRME,3.0,M,3.0,M,4.3,M*29
$IIRMC,164000,A,4719.789,N,12234.620,W,05.6,145,040813,16,E,A*18
$HCHDG,124.3,0.0,E,,*2D
$IIVHW,,,,,05.0,N,,*1C
$IIVLW,02034,N,000.0,N*56
$HCHDG,124.1,0.0,E,,*2F
$GPRMC,164010.0,A,4719.78873,N,12234.61930,W,005.68,141.7,040813,016.6,E,A*21
$GPRMB,A,-0.28,L,,GH,4719.6000,N,12234.2000,W,0.3,124,5.40,V*2E
$PGRME,3.0,M,3.0,M,4.3,M*29
$IIVWR,020,R,12.5,N,,,,*65
$IIDPT,010.5,-1.0,*44
$HCHDG,123.9,0.0,E,,*20
$PTAK,FFP1,HEEL,@*07
$IIGLL,4719.789,N,12234.620,W,164000,A,A*4E
$HCHDG,123.9,0.0,E,,*20
$IIMTW,+15.0,C*3C
$GPRMC,164010.2,A,4719.78854,N,12234.61897,W,005.68,142.1,040813,016.6,E,A*2F
$PGRME,3.0,M,3.0,M,4.3,M*29
$YXXDR,A,5.6,D,PTCH,A,4.1,D,ROLL*5B
$HCHDG,123.8,0.0,E,,*21
$HCHDG,123.6,0.0,E,,*2F
$GPRMC,164010.4,A,4719.78828,N,12234.61872,W,005.68,140.8,040813,016.6,E,A*22
$PGRME,3.0,M,3.0,M,4.3,M*29
$HCHDG,123.5,0.0,E,,*2C
$HCHDG,123.4,0.0,E,,*2D
$GPRMC,164010.6,A,4719.78802,N,12234.61850,W,005.67,140.6,040813,016.6,E,A*29
$PGRME,3.0,M,3.0,M,4.3,M*29
$IIMWV,020,R,12.4,N,A*16
$HCHDG,123.4,0.0,E,,*2D
$IIMWV,032,T,07.9,N,A*1A
$YXXDR,A,5.6,D,PTCH,A,4.2,D,ROLL*58
$IIRMB,A,,,,GH  ,,,,,000.3,124,,V,A*1E
$GPRMC,164010.8,A,4719.78774,N,12234.61828,W,005.69,140.3,040813,016.6,E,A*2D
$PGRME,3.0,M,3.0,M,4.3,M*29
$HCHDG,123.3,0.0,E,,*2A
$HCHDG,123.4,0.0,E,,*2D
$IIRMC,164000,A,4719.788,N,12234.619,W,05.6,141,040813,16,E,A*17
$IIVHW,,,,,05.2,N,,*1E
$HCHDG,123.5,0.0,E,,*2C
$GPRMC,164011.0,A,4719.78748,N,12234.61804,W,005.68,140.4,040813,016.6,E,A*23
$GPRMB,A,-0.28,L,,GH,4719.6000,N,12234.2000,W,0.3,123,5.43,V*2A
$PGRME,3.0,M,3.0,M,4.3,M*29
$IIVLW,02034,N,000.0,N*56
$IIVWR,020,R,12.4,N,,,,*64
$HCHDG,123.5,0.0,E,,*2C
$IIDPT,010.5,-1.0,*44
$HCHDG,123.6,0.0,E,,*2F
$GPRMC,164011.2,A,4719.78722,N,12234.61774,W,005.67,140.6,040813,016.6,E,A*28
$PGRME,3.0,M,3.0,M,4.3,M*29
$YXXDR,A,5.5,D,PTCH,A,3.4,D,ROLL*5A
$PTAK,FFD1,3.4*52
$HCHDG,123.8,0.0,E,,*21
$HCHDG,123.7,0.0,E,,*2E
$GPRMC,164011.4,A,4719.78698,N,12234.61749,W,005.66,139.8,040813,016.6,E,A*21
$PGRME,3.0,M,3.0,M,4.3,M*29
$HCHDG,123.8,0.0,E,,*21
$HCHDG,124.0,0.0,E,,*2E
$GPRMC,164011.6,A,4719.78673,N,12234.61718,W,005.65,140.1,040813,016.6,E,A*26
$PGRME,3.0,M,3.0,M,4.3,M*29
$IIGLL,4719.787,N,12234.617,W,164000,A,A*44
$HCHDG,124.1,0.0,E,,*2F
$IIMTW,+15.0,C*3C
$IIMWV,020,R,12.3,N,A*11
$YXXDR,A,5.8,D,PTCH,A,3.2,D,ROLL*51
$GPRMC,164011.8,A,4719.78648,N,12234.61684,W,005.66,140.4,040813,016.6,E,A*22
$PGRME,3.0,M,3.0,M,4.3,M*29
$IIMWV,034,T,07.5,N,A*10
$HCHDG,124.3,0.0,E,,*2D
$HCHDG,124.4,0.0,E,,*2A
$IIRMB,A,,,,GH  ,,,,,000.3,123,,V,A*19
$HCHDG,124.4,0.0,E,,*2A
$GPRMC,164012.0,A,4719.78623,N,12234.61668,W,005.66,140.2,040813,016.6,E,A*20
$GPRMB,A,-0.28,L,,GH,4719.6000,N,12234.2000,W,0.3,123,5.42,V*2B
$PGRME,3.0,M,3.0,M,4.3,M*29
$IIRMC,164000,A,4719.787,N,12234.617,W,05.6,140,040813,16,E,A*17
$HCHDG,124.6,0.0,E,,*28
$IIVHW,,,,,05.2,N,,*1E
$IIVLW,02034,N,000.1,N*57
$HCHDG,124.7,0.0,E,,*29
$GPRMC,164012.2,A,4719.78597,N,12234.61629,W,005.67,141.7,040813,016.6,E,A*2E
$PGRME,3.0,M,3.0,M,4.3,M*29
$YXXDR,A,5.7,D,PTCH,A,3.1,D,ROLL*5D
$PTAK,FFD1,3.1*57
$HCHDG,125.0,0.0,E,,*2F
$HCHDG,125.2,0.0,E,,*2D
$GPRMC,164012.4,A,4719.78562,N,12234.61600,W,005.68,141.6,040813,016.6,E,A*27
$PGRME,3.0,M,3.0,M,4.3,M*29
$HCHDG,125.2,0.0,E,,*2D
$HCHDG,125.2,0.0,E,,*2D
$GPRMC,164012.6,A,4719.78535,N,12234.61576,W,005.69,141.1,040813,016.6,E,A*23
$PGRME,3.0,M,3.0,M,4.3,M*29
$IIVWR,020,R,12.6,N,,,,*66
$IIDPT,010.5,-1.0,*44
$HCHDG,125.3,0.0,E,,*2C
$YXXDR,A,5.6,D,PTCH,A,2.9,D,ROLL*55
$IIGLL,4719.785,N,12234.616,W,164000,A,A*47
$GPRMC,164012.8,A,4719.78513,N,12234.61549,W,005.70,142.5,040813,016.6,E,A*2A
$PGRME,3.0,M,3.0,M,4.3,M*29
$IIMTW,+15.0,C*3C
$HCHDG,125.6,0.0,E,,*29
$IIMWV,020,R,12.6,N,A*14
$HCHDG,125.7,0.0,E,,*28
$IIMWV,033,T,07.4,N,A*16
$HCHDG,125.7,0.0,E,,*28
$GPRMC,164013.0,A,4719.78487,N,12234.61521,W,005.70,141.2,040813,016.6,E,A*25
$GPRMB,A,-0.28,L,,GH,4719.6000,N,12234.2000,W,0.3,123,5.42,V*2B
$IIRMB,A,,,,GH  ,,,,,000.3,123,,V,A*19
$PGRME,3.0,M,3.0,M,4.3,M*29
$HCHDG,125.9,0.0,E,,*26
$IIRMC,164000,A,4719.785,N,12234.616,W,05.6,141,040813,16,E,A*15
$HCHDG,125.9,0.0,E,,*26
$GPRMC,164013.2,A,4719.78466,N,12234.61504,W,005.69,141.9,040813,016.6,E,A*2C
$PGRME,3.0,M,3.0,M,4.3,M*29
$YXXDR,A,5.5,D,PTCH,A,2.7,D,ROLL*58
$PTAK,FFD1,2.7*50
$HCHDG,125.9,0.0,E,,*26
$HCHDG,126.1,0.0,E,,*2D
$GPRMC,164013.4,A,4719.78444,N,12234.61477,W,005.70,143.1,040813,016.6,E,A*2D
$PGRME,3.0,M,3.0,M,4.3,M*29
$HCHDG,126.4,0.0,E,,*28
$HCHDG,126.5,0.0,E,,*29
$GPRMC,164013.6,A,4719.78416,N,12234.61439,W,005.69,141.1,040813,016.6,E,A*28
$PGRME,3.0,M,3.0,M,4.3,M*29
$IIVHW,,,,,05.2,N,,*1E
$HCHDG,126.6,0.0,E,,*2A
$IIVLW,02034,N,000.1,N*57
$IIVWR,019,R,12.5,N,,,,*6F
$YXXDR,A,5.6,D,PTCH,A,2.6,D,ROLL*5A
$IIDPT,010.5,-1.0,*44
$GPRMC,164013.8,A,4719.78387,N,12234.61407,W,005.69,142.6,040813,016.6,E,A*20
$HCHDG,126.7,0.0,E,,*2B
$PGRME,3.0,M,3.0,M,4.3,M*29
$HCHDG,126.9,0.0,E,,*25
$IIGLL,4719.784,N,12234.615,W,164000,A,A*45
$IIMTW,+15.0,C*3C
$IIMWV,019,R,12.5,N,A*1D
$HCHDG,126.9,0.0,E,,*25
$GPRMC,164014.0,A,4719.78363,N,12234.61365,W,005.71,143.5,040813,016.6,E,A*2D
$PGRME,3.0,M,3.0,M,4.3,M*29
$IIMWV,033,T,07.7,N,A*15
$HCHDG,127.1,0.0,E,,*2C
$IIRMB,A,,,,GH  ,,,,,000.3,123,,V,A*19
$HCHDG,127.2,0.0,E,,*2F
$GPRMC,164014.2,A,4719.78336,N,12234.61340,W,005.71,142.5,040813,016.6,E,A*29
$GPRMB,A,-0.28,L,,GH,4719.6000,N,12234.2000,W,0.3,123,5.39,V*27
$PGRME,3.0,M,3.0,M,4.3,M*29
$YXXDR,A,5.7,D,PTCH,A,2.4,D,ROLL*59
$PTAK,FFD1,2.4*53
$PTAK,FFP1,HEEL,@*07
$HCHDG,127.2,0.0,E,,*2F
$HCHDG,127.1,0.0,E,,*2C
$GPRMC,164014.4,A,4719.78308,N,12234.61316,W,005.71,143.1,040813,016.6,E,A*24
$PGRME,3.0,M,3.0,M,4.3,M*29
$HCHDG,127.3,0.0,E,,*2E
$HCHDG,127.3,0.0,E,,*2E
$GPRMC,164014.6,A,4719.78280,N,12234.61278,W,005.72,143.3,040813,016.6,E,A*2F
$PGRME,3.0,M,3.0,M,4.3,M*29
$HCHDG,127.4,0.0,E,,*29
$IIRMC,164000,A,4719.783,N,12234.613,W,05.7,142,040813,16,E,A*14
$YXXDR,A,5.6,D,PTCH,A,2.3,D,ROLL*5F
$IIVHW,,,,,05.3,N,,*1F
$GPRMC,164014.8,A,4719.78249,N,12234.61235,W,005.73,144.6,040813,016.6,E,A*2E
$HCHDG,127.6,0.0,E,,*2B
$PGRME,3.0,M,3.0,M,4.3,M*29
$IIVLW,02034,N,000.1,N*57
$IIVWR,020,R,12.7,N,,,,*67
$HCHDG,127.7,0.0,E,,*2A
$IIDPT,010.5,-1.0,*44
$HCHDG,127.9,0.0,E,,*24
$GPRMC,164015.0,A,4719.78223,N,12234.61200,W,005.74,144.5,040813,016.6,E,A*29
$PGRME,3.0,M,3.0,M,4.3,M*29
$IIGLL,4719.783,N,12234.613,W,164000,A,A*44
$IIMTW,+15.0,C*3C
$HCHDG,128.1,0.0,E,,*23
$IIMWV,020,R,12.7,N,A*15
$IIMWV,032,T,07.6,N,A*15
$HCHDG,128.4,0.0,E,,*26
$GPRMC,164015.2,A,4719.78190,N,12234.61178,W,005.74,144.4,040813,016.6,E,A*2D
$PGRME,3.0,M,3.0,M,4.3,M*29
$YXXDR,A,5.5,D,PTCH,A,2.2,D,ROLL*5D
$HCHDG,128.3,0.0,E,,*21
$HCHDG,128.6,0.0,E,,*24
$GPRMC,164015.4,A,4719.78153,N,12234.61169,W,005.74,144.2,040813,016.6,E,A*22
$GPRMB,A,-0.28,L,,GH,4719.6000,N,12234.2000,W,0.3,123,5.35,V*2B
$PGRME,3.0,M,3.0,M,4.3,M*29
$HCHDG,128.7,0.0,E,,*25
$HCHDG,128.8,0.0,E,,*2A
$GPRMC,164015.6,A,4719.78122,N,12234.61159,W,005.72,145.3,040813,016.6,E,A*23
$PGRME,3.0,M,3.0,M,4.3,M*29
$IIRMB,A,,,,GH  ,,,,,000.3,123,,V,A*19
$HCHDG,128.8,0.0,E,,*2A
$YXXDR,A,5.4,D,PTCH,A,2.4,D,ROLL*5A
$PTAK,FFD1,2.4*53
$IIRMC,164000,A,4719.781,N,12234.611,W,05.7,144,040813,16,E,A*12
$GPRMC,164015.8,A,4719.78093,N,12234.61139,W,005.73,144.8,040813,016.6,E,A*2B
$HCHDG,128.8,0.0,E,,*2A
$PGRME,3.0,M,3.0,M,4.3,M*29
$IIVHW,,,,,05.3,N,,*1F
$HCHDG,129.0,0.0,E,,*23
$IIVLW,02034,N,000.1,N*57
$IIVWR,022,R,12.6,N,,,,*64
$HCHDG,129.1,0.0,E,,*22
$GPRMC,164016.0,A,4719.78066,N,12234.61123,W,005.74,145.8,040813,016.6,E,A*27
$IIDPT,010.5,-1.0,*44
$PGRME,3.0,M,3.0,M,4.3,M*29
$HCHDG,129.3,0.0,E,,*20
$IIGLL,4719.781,N,12234.611,W,164000,A,A*44
$IIMTW,+15.0,C*3C
$HCHDG,129.4,0.0,E,,*27
$IIMWV,022,R,12.6,N,A*16
$GPRMC,164016.2,A,4719.78041,N,12234.61096,W,005.73,146.1,040813,016.6,E,A*22
$PGRME,3.0,M,3.0,M,4.3,M*29
$YXXDR,A,5.5,D,PTCH,A,2.5,D,ROLL*5A
$HCHDG,129.5,0.0,E,,*26
$HCHDG,129.7,0.0,E,,*24
$GPRMC,164016.4,A,4719.78014,N,12234.61068,W,005.73,146.3,040813,016.6,E,A*27
$PGRME,3.0,M,3.0,M,4.3,M*29
$HCHDG,129.7,0.0,E,,*24
$HCHDG,129.8,0.0,E,,*2B
$GPRMC,164016.6,A,4719.77979,N,12234.61042,W,005.74,145.5,040813,016.6,E,A*22
$GPRMB,A,-0.28,L,,GH,4719.6000,N,12234.2000,W,0.3,123,5.30,V*2E
$PGRME,3.0,M,3.0,M,4.3,M*29
$IIMWV,036,T,07.8,N,A*1F
$HCHDG,129.9,0.0,E,,*2A
$IIRMB,A,,,,GH  ,,,,,000.3,123,,V,A*19
$YXXDR,A,5.4,D,PTCH,A,2.8,D,ROLL*56
$PTAK,FFD1,2.8*5F
$GPRMC,164016.8,A,4719.77951,N,12234.61018,W,005.74,145.6,040813,016.6,E,A*2A
$HCHDG,129.9,0.0,E,,*2A
$PGRME,3.0,M,3.0,M,4.3,M*29
$IIRMC,164000,A,4719.780,N,12234.610,W,05.7,146,040813,16,E,A*10
$HCHDG,130.0,0.0,E,,*2B
$IIVHW,,,,,05.3,N,,*1F
$IIVLW,02034,N,000.1,N*57
$HCHDG,130.0,0.0,E,,*2B
$GPRMC,164017.0,A,4719.77919,N,12234.60981,W,005.75,146.7,040813,016.6,E,A*24
$PGRME,3.0,M,3.0,M,4.3,M*29
$IIVWR,022,R,12.4,N,,,,*66
$IIDPT,010.5,-1.0,*44
$HCHDG,130.1,0.0,E,,*2A
$IIGLL,4719.780,N,12234.610,W,164000,A,A*44
$HCHDG,130.2,0.0,E,,*29
$IIMTW,+15.0,C*3C
$GPRMC,164017.2,A,4719.77896,N,12234.60958,W,005.76,146.6,040813,016.6,E,A*26
$PGRME,3.0,M,3.0,M,4.3,M*29
$YXXDR,A,5.7,D,PTCH,A,2.7,D,ROLL*5A
$HCHDG,130.3,0.0,E,,*28
$HCHDG,130.4,0.0,E,,*2F
$GPRMC,164017.4,A,4719.77876,N,12234.60934,W,005.76,146.7,040813,016.6,E,A*25
$PGRME,3.0,M,3.0,M,4.3,M*29
$HCHDG,130.7,0.0,E,,*2C
$HCHDG,130.8,0.0,E,,*23
$GPRMC,164017.6,A,4719.77843,N,12234.60910,W,005.76,147.4,040813,016.6,E,A*25
$PGRME,3.0,M,3.0,M,4.3,M*29
$IIMWV,020,R,12.3,N,A*11
$HCHDG,130.9,0.0,E,,*22
$IIMWV,036,T,07.6,N,A*11
$YXXDR,A,5.6,D,PTCH,A,2.6,D,ROLL*5A
$IIRMB,A,,,,GH  ,,,,,000.3,123,,V,A*19
$GPRMC,164017.8,A,4719.77814,N,12234.60890,W,005.75,146.7,040813,016.6,E,A*21
$GPRMB,A,-0.28,L,,GH,4719.6000,N,12234.2000,W,0.3,123,5.25,V*2A
$HCHDG,131.0,0.0,E,,*2A
$PGRME,3.0,M,3.0,M,4.3,M*29
$HCHDG,131.0,0.0,E,,*2A
$IIRMC,164000,A,4719.778,N,12234.609,W,05.7,146,040813,16,E,A*1F
$IIVHW,,,,,05.3,N,,*1F
$HCHDG,131.1,0.0,E,,*2B
$GPRMC,164018.0,A,4719.77787,N,12234.60865,W,005.75,148.0,040813,016.6,E,A*20
$IIVLW,02034,N,000.1,N*57
$PGRME,3.0,M,3.0,M,4.3,M*29
$IIVWR,020,R,12.3,N,,,,*63
$HCHDG,131.4,0.0,E,,*2E
$IIDPT,010.5,-1.0,*44
$HCHDG,131.4,0.0,E,,*2E
$GPRMC,164018.2,A,4719.77763,N,12234.60835,W,005.75,147.5,040813,016.6,E,A*27
$PGRME,3.0,M,3.0,M,4.3,M*29
$YXXDR,A,5.5,D,PTCH,A,2.1,D,ROLL*5E
$PTAK,FFD1,2.1*56
$HCHDG,131.4,0.0,E,,*2E
$HCHDG,131.6,0.0,E,,*2C
$GPRMC,164018.4,A,4719.77739,N,12234.60806,W,005.76,148.3,040813,016.6,E,A*24
$PGRME,3.0,M,3.0,M,4.3,M*29
$HCHDG,131.5,0.0,E,,*2F
$PTAK,FFP1,HEEL,@*07
$HCHDG,131.6,0.0,E,,*2C
$GPRMC,164018.6,A,4719.77713,N,12234.60788,W,005.78,148.3,040813,016.6,E,A*29
$PGRME,3.0,M,3.0,M,4.3,M*29
$IIGLL,4719.777,N,12234.608,W,164000,A,A*45
$HCHDG,131.7,0.0,E,,*2D
$IIMTW,+15.0,C*3C
$YXXDR,A,5.6,D,PTCH,A,2.4,D,ROLL*58
$IIMWV,019,R,12.3,N,A*1B
$GPRMC,164018.8,A,4719.77688,N,12234.60758,W,005.78,148.5,040813,016.6,E,A*2F
$GPRMB,A,-0.28,L,,GH,4719.6000,N,12234.2000,W,0.3,123,5.20,V*2F
$HCHDG,131.8,0.0,E,,*22
$PGRME,3.0,M,3.0,M,4.3,M*29
$IIMWV,033,T,07.4,N,A*16
$HCHDG,132.1,0.0,E,,*28
$IIRMB,A,,,,GH  ,,,,,000.3,123,,V,A*19
$HCHDG,132.2,0.0,E,,*2B
$GPRMC,164019.0,A,4719.77658,N,12234.60733,W,005.79,148.4,040813,016.6,E,A*26
$PGRME,3.0,M,3.0,M,4.3,M*29
