$GPRMB,A,-1.12,L,,Shil,4741.0830,N,12224.5670,W,25.5,3,4.36,V*25
$PGRME,3.0,M,3.0,M,4.3,M*29
$YXXDR,A,6.6,D,PTCH,A,7.0,D,ROLL*5A
$PTAK,FFD1,7.0*52
$PTAK,FFP1,HEEL,@*07
$HCHDG,325.3,0.0,E,,*2E
$HCHDG,325.2,0.0,E,,*2F
$GPRMC,164538.2,A,4715.57586,N,12226.22232,W,004.78,339.7,110813,016.5,E,A*2D
$GPRMB,A,-1.12,L,,Shil,4741.0830,N,12224.5670,W,25.5,3,4.41,V*25
$PGRME,3.0,M,3.0,M,4.3,M*29
$HCHDG,325.4,0.0,E,,*29
$HCHDG,325.4,0.0,E,,*29
$GPRMC,164538.4,A,4715.57610,N,12226.22235,W,004.70,339.8,110813,016.5,E,A*27
$PGRME,3.0,M,3.0,M,4.3,M*29
$HCHDG,325.4,0.0,E,,*29
$YXXDR,A,6.3,D,PTCH,A,6.8,D,ROLL*56
$GPRMC,164538.6,A,4715.57634,N,12226.22247,W,004.81,339.4,110813,016.5,E,A*24
$PGRME,3.0,M,3.0,M,4.3,M*29
$HCHDG,325.6,0.0,E,,*2B
$HCHDG,325.4,0.0,E,,*29
$HCHDG,325.3,0.0,E,,*2E
$GPRMC,164538.8,A,4715.57656,N,12226.22249,W,004.74,340.8,110813,016.5,E,A*28
$PGRME,3.0,M,3.0,M,4.3,M*29
$HCHDG,325.5,0.0,E,,*28
$HCHDG,325.6,0.0,E,,*2B
$GPRMC,164539.0,A,4715.57685,N,12226.22253,W,004.75,340.1,110813,016.5,E,A*2C
$PGRME,3.0,M,3.0,M,4.3,M*29
$YXXDR,A,6.9,D,PTCH,A,6.4,D,ROLL*50
$HCHDG,325.3,0.0,E,,*2E
$HCHDG,325.5,0.0,E,,*28
$GPRMC,164539.2,A,4715.57707,N,12226.22268,W,004.72,340.1,110813,016.5,E,A*2A
$PGRME,3.0,M,3.0,M,4.3,M*29
$HCHDG,325.5,0.0,E,,*28
$HCHDG,325.6,0.0,E,,*2B
$GPRMC,164539.4,A,4715.57729,N,12226.22285,W,004.79,339.8,110813,016.5,E,A*2F
$PGRME,3.0,M,3.0,M,4.3,M*29
$HCHDG,325.7,0.0,E,,*2A
$YXXDR,A,6.6,D,PTCH,A,6.6,D,ROLL*5D
$PTAK,FFD1,6.6*55
$GPRMC,164539.6,A,4715.57747,N,12226.22299,W,004.79,340.4,110813,016.5,E,A*2A
$GPRMB,A,-1.12,L,,Shil,4741.0830,N,12224.5670,W,25.5,3,4.44,V*20
$PGRME,3.0,M,3.0,M,4.3,M*29
$HCHDG,325.7,0.0,E,,*2A
$HCHDG,325.9,0.0,E,,*24
$HCHDG,325.8,0.0,E,,*25
$GPRMC,164539.8,A,4715.57768,N,12226.22308,W,004.77,340.6,110813,016.5,E,A*2C
$PGRME,3.0,M,3.0,M,4.3,M*29
$HCHDG,325.9,0.0,E,,*24
$HCHDG,325.9,0.0,E,,*24
$GPRMC,164540.0,A,4715.57792,N,12226.22319,W,004.75,341.1,110813,016.5,E,A*2B
$PGRME,3.0,M,3.0,M,4.3,M*29
$YXXDR,A,6.4,D,PTCH,A,6.4,D,ROLL*5D
$HCHDG,326.0,0.0,E,,*2E
$HCHDG,325.8,0.0,E,,*25
$GPRMC,164540.2,A,4715.57811,N,12226.22324,W,004.77,340.1,110813,016.5,E,A*20
$PGRME,3.0,M,3.0,M,4.3,M*29
$HCHDG,325.8,0.0,E,,*25
$HCHDG,325.8,0.0,E,,*25
$GPRMC,164540.4,A,4715.57832,N,12226.22322,W,004.77,340.8,110813,016.5,E,A*28
$PGRME,3.0,M,3.0,M,4.3,M*29
$HCHDG,326.1,0.0,E,,*2F
$YXXDR,A,6.8,D,PTCH,A,6.6,D,ROLL*53
$PTAK,FFD1,6.6*55
$GPRMC,164540.6,A,4715.57857,N,12226.22333,W,004.73,341.3,110813,016.5,E,A*27
$GPRMB,A,-1.12,L,,Shil,4741.0830,N,12224.5670,W,25.5,3,4.41,V*25
$PGRME,3.0,M,3.0,M,4.3,M*29
$HCHDG,326.1,0.0,E,,*2F
$HCHDG,326.1,0.0,E,,*2F
$HCHDG,326.1,0.0,E,,*2F
$GPRMC,164540.8,A,4715.57881,N,12226.22347,W,004.73,340.2,110813,016.5,E,A*21
$PGRME,3.0,M,3.0,M,4.3,M*29
$HCHDG,326.1,0.0,E,,*2F
$HCHDG,326.2,0.0,E,,*2C
$GPRMC,164541.0,A,4715.57904,N,12226.22352,W,004.80,339.2,110813,016.5,E,A*22
$PGRME,3.0,M,3.0,M,4.3,M*29
$YXXDR,A,6.6,D,PTCH,A,6.8,D,ROLL*53
$HCHDG,326.2,0.0,E,,*2C
$HCHDG,326.1,0.0,E,,*2F
$GPRMC,164541.2,A,4715.57931,N,12226.22356,W,004.80,340.7,110813,016.5,E,A*29
$PGRME,3.0,M,3.0,M,4.3,M*29
$HCHDG,326.1,0.0,E,,*2F
$HCHDG,326.3,0.0,E,,*2D
$GPRMC,164541.4,A,4715.57960,N,12226.22374,W,004.68,339.7,110813,016.5,E,A*23
$PGRME,3.0,M,3.0,M,4.3,M*29
$HCHDG,326.3,0.0,E,,*2D
$YXXDR,A,6.2,D,PTCH,A,6.7,D,ROLL*58
$GPRMC,164541.6,A,4715.57981,N,12226.22382,W,004.76,341.2,110813,016.5,E,A*22
$PGRME,3.0,M,3.0,M,4.3,M*29
$HCHDG,326.1,0.0,E,,*2F
$HCHDG,326.0,0.0,E,,*2E
$HCHDG,326.0,0.0,E,,*2E
$GPRMC,164541.8,A,4715.58009,N,12226.22388,W,004.79,340.8,110813,016.5,E,A*24
$GPRMB,A,-1.12,L,,Shil,4741.0830,N,12224.5670,W,25.5,3,4.45,V*21
$PGRME,3.0,M,3.0,M,4.3,M*29
$HCHDG,326.0,0.0,E,,*2E
$HCHDG,325.9,0.0,E,,*24
$GPRMC,164542.0,A,4715.58032,N,12226.22401,W,004.74,340.4,110813,016.5,E,A*20
$PGRME,3.0,M,3.0,M,4.3,M*29
$YXXDR,A,5.8,D,PTCH,A,6.3,D,ROLL*55
$PTAK,FFD1,6.3*50
$HCHDG,326.0,0.0,E,,*2E
$HCHDG,325.8,0.0,E,,*25
$GPRMC,164542.2,A,4715.58059,N,12226.22421,W,004.71,341.8,110813,016.5,E,A*25
$PGRME,3.0,M,3.0,M,4.3,M*29
$HCHDG,326.0,0.0,E,,*2E
$HCHDG,326.0,0.0,E,,*2E
$GPRMC,164542.4,A,4715.58073,N,12226.22432,W,004.77,339.5,110813,016.5,E,A*2D
$PGRME,3.0,M,3.0,M,4.3,M*29
$HCHDG,326.1,0.0,E,,*2F
$YXXDR,A,6.0,D,PTCH,A,6.4,D,ROLL*59
$PTAK,FFP1,HEEL,@*07
$GPRMC,164542.6,A,4715.58092,N,12226.22447,W,004.66,341.0,110813,016.5,E,A*28
$PGRME,3.0,M,3.0,M,4.3,M*29
$HCHDG,326.1,0.0,E,,*2F
$HCHDG,326.2,0.0,E,,*2C
$HCHDG,326.4,0.0,E,,*2A
$GPRMC,164542.8,A,4715.58126,N,12226.22464,W,004.76,340.7,110813,016.5,E,A*2E
$PGRME,3.0,M,3.0,M,4.3,M*29
$HCHDG,326.2,0.0,E,,*2C
$HCHDG,326.2,0.0,E,,*2C
$GPRMC,164543.0,A,4715.58154,N,12226.22479,W,004.74,341.1,110813,016.5,E,A*2B
$GPRMB,A,-1.12,L,,Shil,4741.0830,N,12224.5670,W,25.5,3,4.41,V*25
$PGRME,3.0,M,3.0,M,4.3,M*29
$YXXDR,A,6.5,D,PTCH,A,6.1,D,ROLL*59
$PTAK,FFD1,6.1*52
$HCHDG,326.3,0.0,E,,*2D
$HCHDG,326.4,0.0,E,,*2A
$GPRMC,164543.2,A,4715.58182,N,12226.22487,W,004.73,340.8,110813,016.5,E,A*2C
$PGRME,3.0,M,3.0,M,4.3,M*29
$HCHDG,326.4,0.0,E,,*2A
$HCHDG,326.5,0.0,E,,*2B
$GPRMC,164543.4,A,4715.58209,N,12226.22492,W,004.76,341.3,110813,016.5,E,A*21
$PGRME,3.0,M,3.0,M,4.3,M*29
$HCHDG,326.6,0.0,E,,*28
$YXXDR,A,6.6,D,PTCH,A,5.9,D,ROLL*51
$GPRMC,164543.6,A,4715.58243,N,12226.22523,W,004.71,341.0,110813,016.5,E,A*22
$PGRME,3.0,M,3.0,M,4.3,M*29
$HCHDG,326.6,0.0,E,,*28
$HCHDG,326.4,0.0,E,,*2A
$HCHDG,326.5,0.0,E,,*2B
$GPRMC,164543.8,A,4715.58275,N,12226.22545,W,004.76,341.8,110813,016.5,E,A*26
$PGRME,3.0,M,3.0,M,4.3,M*29
$HCHDG,326.5,0.0,E,,*2B
$HCHDG,326.5,0.0,E,,*2B
$GPRMC,164544.0,A,4715.58300,N,12226.22559,W,004.72,340.8,110813,016.5,E,A*22
$GPRMB,A,-1.12,L,,Shil,4741.0830,N,12224.5670,W,25.5,3,4.39,V*2A
$PGRME,3.0,M,3.0,M,4.3,M*29
$PGRMT,GPS 18x-5Hz software ver. 3.20,,,,,,,,*30
$YXXDR,A,6.5,D,PTCH,A,5.7,D,ROLL*5C
$PTAK,FFD1,5.7*57
$HCHDG,326.5,0.0,E,,*2B
$HCHDG,326.6,0.0,E,,*28
$GPRMC,164544.2,A,4715.58322,N,12226.22574,W,004.74,342.2,110813,016.5,E,A*21
$PGRME,3.0,M,3.0,M,4.3,M*29
$HCHDG,326.4,0.0,E,,*2A
$HCHDG,326.7,0.0,E,,*29
$GPRMC,164544.4,A,4715.58351,N,12226.22588,W,004.76,342.0,110813,016.5,E,A*20
$PGRME,3.0,M,3.0,M,4.3,M*29
$HCHDG,326.6,0.0,E,,*28
$YXXDR,A,6.4,D,PTCH,A,6.0,D,ROLL*59
$GPRMC,164544.6,A,4715.58373,N,12226.22602,W,004.77,341.1,110813,016.5,E,A*20
$PGRME,3.0,M,3.0,M,4.3,M*29
$HCHDG,326.7,0.0,E,,*29
$HCHDG,326.7,0.0,E,,*29
$HCHDG,326.6,0.0,E,,*28
$GPRMC,164544.8,A,4715.58400,N,12226.22619,W,004.75,342.8,110813,016.5,E,A*2F
$PGRME,3.0,M,3.0,M,4.3,M*29
$HCHDG,326.7,0.0,E,,*29
$HCHDG,326.7,0.0,E,,*29
$GPRMC,164545.0,A,4715.58421,N,12226.22645,W,004.72,342.0,110813,016.5,E,A*23
$GPRMB,A,-1.12,L,,Shil,4741.0830,N,12224.5670,W,25.5,3,4.42,V*26
$PGRME,3.0,M,3.0,M,4.3,M*29
$YXXDR,A,6.4,D,PTCH,A,6.0,D,ROLL*59
$PTAK,FFD1,6.0*53
$HCHDG,326.7,0.0,E,,*29
$HCHDG,326.7,0.0,E,,*29
$GPRMC,164545.2,A,4715.58449,N,12226.22667,W,004.72,342.7,110813,016.5,E,A*28
$PGRME,3.0,M,3.0,M,4.3,M*29
$HCHDG,326.7,0.0,E,,*29
$HCHDG,326.8,0.0,E,,*26
$GPRMC,164545.4,A,4715.58472,N,12226.22690,W,004.72,341.8,110813,016.5,E,A*22
$PGRME,3.0,M,3.0,M,4.3,M*29
$HCHDG,326.8,0.0,E,,*26
$YXXDR,A,6.0,D,PTCH,A,6.0,D,ROLL*5D
$GPRMC,164545.6,A,4715.58497,N,12226.22712,W,004.79,342.1,110813,016.5,E,A*21
$PGRME,3.0,M,3.0,M,4.3,M*29
$HCHDG,326.6,0.0,E,,*28
$HCHDG,326.6,0.0,E,,*28
$HCHDG,326.8,0.0,E,,*26
$GPRMC,164545.8,A,4715.58518,N,12226.22724,W,004.70,342.8,110813,016.5,E,A*2C
$PGRME,3.0,M,3.0,M,4.3,M*29
$HCHDG,326.9,0.0,E,,*27
$HCHDG,327.0,0.0,E,,*2F
$GPRMC,164546.0,A,4715.58541,N,12226.22740,W,004.74,342.3,110813,016.5,E,A*26
$PGRME,3.0,M,3.0,M,4.3,M*29
$YXXDR,A,6.3,D,PTCH,A,6.0,D,ROLL*5E
$HCHDG,326.6,0.0,E,,*28
$HCHDG,326.7,0.0,E,,*29
$GPRMC,164546.2,A,4715.58561,N,12226.22754,W,004.75,343.3,110813,016.5,E,A*23
$PGRME,3.0,M,3.0,M,4.3,M*29
$HCHDG,326.8,0.0,E,,*26
$HCHDG,326.9,0.0,E,,*27
$GPRMC,164546.4,A,4715.58584,N,12226.22764,W,004.77,342.1,110813,016.5,E,A*2C
$GPRMB,A,-1.12,L,,Shil,4741.0830,N,12224.5670,W,25.5,3,4.47,V*23
$PGRME,3.0,M,3.0,M,4.3,M*29
$HCHDG,326.8,0.0,E,,*26
$PTAK,FFP1,HEEL,@*07
$YXXDR,A,7.0,D,PTCH,A,5.6,D,ROLL*59
$PTAK,FFD1,5.6*56
$GPRMC,164546.6,A,4715.58605,N,12226.22781,W,004.72,342.6,110813,016.5,E,A*2D
$PGRME,3.0,M,3.0,M,4.3,M*29
$HCHDG,326.9,0.0,E,,*27
$HCHDG,326.9,0.0,E,,*27
$HCHDG,327.0,0.0,E,,*2F
$GPRMC,164546.8,A,4715.58629,N,12226.22791,W,004.76,342.2,110813,016.5,E,A*2C
$PGRME,3.0,M,3.0,M,4.3,M*29
$HCHDG,326.9,0.0,E,,*27
$HCHDG,327.0,0.0,E,,*2F
$GPRMC,164547.0,A,4715.58652,N,12226.22799,W,004.78,343.4,110813,016.5,E,A*28
$PGRME,3.0,M,3.0,M,4.3,M*29
$YXXDR,A,6.3,D,PTCH,A,5.7,D,ROLL*5A
$HCHDG,326.8,0.0,E,,*26
$HCHDG,327.0,0.0,E,,*2F
$GPRMC,164547.2,A,4715.58681,N,12226.22811,W,004.72,342.9,110813,016.5,E,A*2D
$PGRME,3.0,M,3.0,M,4.3,M*29
$HCHDG,326.8,0.0,E,,*26
$HCHDG,326.7,0.0,E,,*29
$GPRMC,164547.4,A,4715.58706,N,12226.22819,W,004.77,343.3,110813,016.5,E,A*23
$PGRME,3.0,M,3.0,M,4.3,M*29
$HCHDG,326.9,0.0,E,,*27
$YXXDR,A,6.1,D,PTCH,A,5.2,D,ROLL*5D
$GPRMC,164547.6,A,4715.58729,N,12226.22834,W,004.75,343.2,110813,016.5,E,A*20
$GPRMB,A,-1.12,L,,Shil,4741.0830,N,12224.5670,W,25.5,3,4.48,V*2C
$HCHDG,326.9,0.0,E,,*27
$PGRME,3.0,M,3.0,M,4.3,M*29
$HCHDG,326.8,0.0,E,,*26
$HCHDG,326.9,0.0,E,,*27
$GPRMC,164547.8,A,4715.58747,N,12226.22845,W,004.71,342.8,110813,016.5,E,A*2F
$PGRME,3.0,M,3.0,M,4.3,M*29
$HCHDG,327.0,0.0,E,,*2F
$HCHDG,326.9,0.0,E,,*27
$GPRMC,164548.0,A,4715.58771,N,12226.22853,W,004.77,343.0,110813,016.5,E,A*25
$PGRME,3.0,M,3.0,M,4.3,M*29
$YXXDR,A,6.1,D,PTCH,A,5.3,D,ROLL*5C
$PTAK,FFD1,5.3*53
$HCHDG,326.9,0.0,E,,*27
$HCHDG,327.0,0.0,E,,*2F
$GPRMC,164548.2,A,4715.58793,N,12226.22861,W,004.78,342.9,110813,016.5,E,A*2D
$PGRME,3.0,M,3.0,M,4.3,M*29
$HCHDG,327.0,0.0,E,,*2F
$HCHDG,327.0,0.0,E,,*2F
$GPRMC,164548.4,A,4715.58814,N,12226.22875,W,004.77,343.4,110813,016.5,E,A*2D
$PGRME,3.0,M,3.0,M,4.3,M*29
$HCHDG,327.0,0.0,E,,*2F
$YXXDR,A,6.3,D,PTCH,A,5.4,D,ROLL*59
$GPRMC,164548.6,A,4715.58838,N,12226.22882,W,004.72,343.8,110813,016.5,E,A*20
$GPRMB,A,-1.12,L,,Shil,4741.0830,N,12224.5670,W,25.5,3,4.47,V*23
$PGRME,3.0,M,3.0,M,4.3,M*29
$HCHDG,327.2,0.0,E,,*2D
$HCHDG,327.2,0.0,E,,*2D
$HCHDG,327.2,0.0,E,,*2D
$GPRMC,164548.8,A,4715.58866,N,12226.22892,W,004.79,342.6,110813,016.5,E,A*20
$PGRME,3.0,M,3.0,M,4.3,M*29
$HCHDG,327.0,0.0,E,,*2F
$HCHDG,327.0,0.0,E,,*2F
$GPRMC,164549.0,A,4715.58889,N,12226.22905,W,004.78,343.7,110813,016.5,E,A*26
$PGRME,3.0,M,3.0,M,4.3,M*29
$YXXDR,A,5.8,D,PTCH,A,5.3,D,ROLL*56
$HCHDG,326.5,0.0,E,,*2B
$HCHDG,326.4,0.0,E,,*2A
$GPRMC,164549.2,A,4715.58917,N,12226.22928,W,004.76,343.4,110813,016.5,E,A*20
$PGRME,3.0,M,3.0,M,4.3,M*29
$HCHDG,326.5,0.0,E,,*2B
$HCHDG,326.4,0.0,E,,*2A
$GPRMC,164549.4,A,4715.58942,N,12226.22949,W,004.78,342.8,110813,016.5,E,A*22
$PGRME,3.0,M,3.0,M,4.3,M*29
$HCHDG,326.2,0.0,E,,*2C
$YXXDR,A,5.7,D,PTCH,A,5.7,D,ROLL*5D
$PTAK,FFD1,5.7*57
$GPRMC,164549.6,A,4715.58966,N,12226.22975,W,004.79,343.5,110813,016.5,E,A*24
$GPRMB,A,-1.12,L,,Shil,4741.0830,N,12224.5670,W,25.5,3,4.53,V*26
$PGRME,3.0,M,3.0,M,4.3,M*29
$HCHDG,326.2,0.0,E,,*2C
$HCHDG,326.3,0.0,E,,*2D
$HCHDG,326.3,0.0,E,,*2D
$GPRMC,164549.8,A,4715.58995,N,12226.22975,W,004.78,343.4,110813,016.5,E,A*26
$PGRME,3.0,M,3.0,M,4.3,M*29
$HCHDG,326.5,0.0,E,,*2B
$HCHDG,326.4,0.0,E,,*2A
$GPRMC,164550.0,A,4715.59024,N,12226.22988,W,004.77,342.0,110813,016.5,E,A*2C
$PGRME,3.0,M,3.0,M,4.3,M*29
$YXXDR,A,6.6,D,PTCH,A,6.4,D,ROLL*5F
$HCHDG,326.4,0.0,E,,*2A
$HCHDG,326.5,0.0,E,,*2B
$GPRMC,164550.2,A,4715.59053,N,12226.23009,W,004.76,343.3,110813,016.5,E,A*2C
$PGRME,3.0,M,3.0,M,4.3,M*29
$HCHDG,326.4,0.0,E,,*2A
$HCHDG,326.4,0.0,E,,*2A
$GPRMC,164550.4,A,4715.59079,N,12226.23025,W,004.74,342.7,110813,016.5,E,A*2B
$PGRME,3.0,M,3.0,M,4.3,M*29
$HCHDG,326.4,0.0,E,,*2A
$YXXDR,A,6.4,D,PTCH,A,6.1,D,ROLL*58
$PTAK,FFD1,6.1*52
$GPRMC,164550.6,A,4715.59101,N,12226.23032,W,004.78,342.2,110813,016.5,E,A*28
$GPRMB,A,-1.12,L,,Shil,4741.0830,N,12224.5670,W,25.5,3,4.48,V*2C
$PGRME,3.0,M,3.0,M,4.3,M*29
$HCHDG,326.4,0.0,E,,*2A
$PTAK,FFP1,HEEL,@*07
$HCHDG,326.5,0.0,E,,*2B
$HCHDG,326.5,0.0,E,,*2B
$GPRMC,164550.8,A,4715.59127,N,12226.23055,W,004.80,341.5,110813,016.5,E,A*20
$PGRME,3.0,M,3.0,M,4.3,M*29
$HCHDG,326.4,0.0,E,,*2A
$HCHDG,326.3,0.0,E,,*2D
$GPRMC,164551.0,A,4715.59155,N,12226.23084,W,004.74,342.0,110813,016.5,E,A*2D
$PGRME,3.0,M,3.0,M,4.3,M*29
$YXXDR,A,6.4,D,PTCH,A,6.1,D,ROLL*58
$HCHDG,326.5,0.0,E,,*2B
$HCHDG,326.5,0.0,E,,*2B
$GPRMC,164551.2,A,4715.59177,N,12226.23094,W,004.74,342.4,110813,016.5,E,A*2A
$PGRME,3.0,M,3.0,M,4.3,M*29
$HCHDG,326.4,0.0,E,,*2A
$HCHDG,326.4,0.0,E,,*2A
$GPRMC,164551.4,A,4715.59204,N,12226.23104,W,004.81,341.9,110813,016.5,E,A*27
$PGRME,3.0,M,3.0,M,4.3,M*29
$HCHDG,326.1,0.0,E,,*2F
$YXXDR,A,6.0,D,PTCH,A,5.9,D,ROLL*57
$GPRMC,164551.6,A,4715.59224,N,12226.23123,W,004.74,342.6,110813,016.5,E,A*24
$PGRME,3.0,M,3.0,M,4.3,M*29
$HCHDG,326.0,0.0,E,,*2E
$HCHDG,326.1,0.0,E,,*2F
$HCHDG,326.0,0.0,E,,*2E
$GPRMC,164551.8,A,4715.59249,N,12226.23138,W,004.73,342.2,110813,016.5,E,A*28
$GPRMB,A,-1.12,L,,Shil,4741.0830,N,12224.5670,W,25.5,3,4.44,V*20
$PGRME,3.0,M,3.0,M,4.3,M*29
$HCHDG,326.1,0.0,E,,*2F
$HCHDG,326.1,0.0,E,,*2F
$GPRMC,164552.0,A,4715.59272,N,12226.23153,W,004.78,341.8,110813,016.5,E,A*24
$PGRME,3.0,M,3.0,M,4.3,M*29
$YXXDR,A,6.3,D,PTCH,A,6.0,D,ROLL*5E
$PTAK,FFD1,6.0*53
$HCHDG,326.1,0.0,E,,*2F
$HCHDG,326.1,0.0,E,,*2F
$GPRMC,164552.2,A,4715.59295,N,12226.23165,W,004.77,341.9,110813,016.5,E,A*24
$PGRME,3.0,M,3.0,M,4.3,M*29
$HCHDG,326.0,0.0,E,,*2E
$HCHDG,326.2,0.0,E,,*2C
$GPRMC,164552.4,A,4715.59318,N,12226.23162,W,004.77,342.0,110813,016.5,E,A*2B
$PGRME,3.0,M,3.0,M,4.3,M*29
$HCHDG,326.2,0.0,E,,*2C
$YXXDR,A,6.4,D,PTCH,A,6.0,D,ROLL*59
$GPRMC,164552.6,A,4715.59343,N,12226.23166,W,004.74,341.6,110813,016.5,E,A*25
$PGRME,3.0,M,3.0,M,4.3,M*29
$HCHDG,326.1,0.0,E,,*2F
$HCHDG,326.1,0.0,E,,*2F
$HCHDG,326.2,0.0,E,,*2C
$GPRMC,164552.8,A,4715.59369,N,12226.23174,W,004.76,341.1,110813,016.5,E,A*25
$PGRME,3.0,M,3.0,M,4.3,M*29
$HCHDG,325.9,0.0,E,,*24
$HCHDG,325.8,0.0,E,,*25
$GPRMC,164553.0,A,4715.59396,N,12226.23181,W,004.77,340.9,110813,016.5,E,A*2E
$GPRMB,A,-1.12,L,,Shil,4741.0830,N,12224.5670,W,25.5,3,4.43,V*27
$PGRME,3.0,M,3.0,M,4.3,M*29
$YXXDR,A,6.2,D,PTCH,A,5.6,D,ROLL*5A
$PTAK,FFD1,5.6*56
$HCHDG,325.8,0.0,E,,*25
$HCHDG,325.8,0.0,E,,*25
$GPRMC,164553.2,A,4715.59420,N,12226.23191,W,004.76,341.1,110813,016.5,E,A*2F
$PGRME,3.0,M,3.0,M,4.3,M*29
$HCHDG,325.7,0.0,E,,*2A
$HCHDG,325.7,0.0,E,,*2A
$GPRMC,164553.4,A,4715.59444,N,12226.23203,W,004.78,341.1,110813,016.5,E,A*2D
$PGRME,3.0,M,3.0,M,4.3,M*29
$HCHDG,325.7,0.0,E,,*2A
$YXXDR,A,6.0,D,PTCH,A,5.6,D,ROLL*58
$GPRMC,164553.6,A,4715.59467,N,12226.23211,W,004.72,341.4,110813,016.5,E,A*22
$PGRME,3.0,M,3.0,M,4.3,M*29
$HCHDG,325.7,0.0,E,,*2A
$HCHDG,325.8,0.0,E,,*25
$HCHDG,325.4,0.0,E,,*29
$GPRMC,164553.8,A,4715.59491,N,12226.23224,W,004.73,341.7,110813,016.5,E,A*21
$PGRME,3.0,M,3.0,M,4.3,M*29
$HCHDG,325.5,0.0,E,,*28
$HCHDG,325.4,0.0,E,,*29
$GPRMC,164554.0,A,4715.59518,N,12226.23240,W,004.76,341.2,110813,016.5,E,A*2C
$GPRMB,A,-1.12,L,,Shil,4741.0830,N,12224.5670,W,25.5,3,4.43,V*27
$PGRME,3.0,M,3.0,M,4.3,M*29
$YXXDR,A,6.0,D,PTCH,A,5.2,D,ROLL*5C
$HCHDG,325.4,0.0,E,,*29
$HCHDG,325.4,0.0,E,,*29
$GPRMC,164554.2,A,4715.59543,N,12226.23251,W,004.82,340.8,110813,016.5,E,A*20
$PGRME,3.0,M,3.0,M,4.3,M*29
$HCHDG,325.4,0.0,E,,*29
$HCHDG,325.4,0.0,E,,*29
$GPRMC,164554.4,A,4715.59562,N,12226.23260,W,004.71,341.0,110813,016.5,E,A*22
$PGRME,3.0,M,3.0,M,4.3,M*29
$HCHDG,325.5,0.0,E,,*28
$YXXDR,A,6.2,D,PTCH,A,5.6,D,ROLL*5A
$PTAK,FFD1,5.6*56
$GPRMC,164554.6,A,4715.59580,N,12226.23275,W,004.80,341.3,110813,016.5,E,A*25
$PGRME,3.0,M,3.0,M,4.3,M*29
$HCHDG,325.4,0.0,E,,*29
$HCHDG,325.4,0.0,E,,*29
$HCHDG,325.4,0.0,E,,*29
$GPRMC,164554.8,A,4715.59601,N,12226.23290,W,004.80,341.0,110813,016.5,E,A*29
$PTAK,FFP1,HEEL,@*07
$PGRME,3.0,M,3.0,M,4.3,M*29
$HCHDG,325.5,0.0,E,,*28
$HCHDG,325.4,0.0,E,,*29
$GPRMC,164555.0,A,4715.59623,N,12226.23307,W,004.75,340.7,110813,016.5,E,A*23
$PGRME,3.0,M,3.0,M,4.3,M*29
$YXXDR,A,6.2,D,PTCH,A,5.6,D,ROLL*5A
$HCHDG,325.4,0.0,E,,*29
$HCHDG,325.4,0.0,E,,*29
$GPRMC,164555.2,A,4715.59651,N,12226.23314,W,004.81,340.4,110813,016.5,E,A*2E
$GPRMB,A,-1.12,L,,Shil,4741.0830,N,12224.5670,W,25.5,3,4.46,V*22
$PGRME,3.0,M,3.0,M,4.3,M*29
$HCHDG,325.3,0.0,E,,*2E
$HCHDG,325.2,0.0,E,,*2F
$GPRMC,164555.4,A,4715.59678,N,12226.23323,W,004.74,341.2,110813,016.5,E,A*2A
$PGRME,3.0,M,3.0,M,4.3,M*29
$HCHDG,325.2,0.0,E,,*2F
$YXXDR,A,6.2,D,PTCH,A,5.6,D,ROLL*5A
$GPRMC,164555.6,A,4715.59706,N,12226.23335,W,004.74,340.8,110813,016.5,E,A*2C
$PGRME,3.0,M,3.0,M,4.3,M*29
$HCHDG,325.2,0.0,E,,*2F
$HCHDG,325.1,0.0,E,,*2C
$HCHDG,325.1,0.0,E,,*2C
$GPRMC,164555.8,A,4715.59738,N,12226.23348,W,004.77,340.1,110813,016.5,E,A*2F
$PGRME,3.0,M,3.0,M,4.3,M*29
$HCHDG,325.1,0.0,E,,*2C
$HCHDG,325.0,0.0,E,,*2D
$GPRMC,164556.0,A,4715.59769,N,12226.23352,W,004.68,340.9,110813,016.5,E,A*2D
$PGRME,3.0,M,3.0,M,4.3,M*29
$YXXDR,A,6.3,D,PTCH,A,5.7,D,ROLL*5A
$PTAK,FFD1,5.7*57
$HCHDG,325.0,0.0,E,,*2D
$HCHDG,325.0,0.0,E,,*2D
$GPRMC,164556.2,A,4715.59798,N,12226.23359,W,004.78,340.3,110813,016.5,E,A*21
$PGRME,3.0,M,3.0,M,4.3,M*29
$HCHDG,324.9,0.0,E,,*25
$HCHDG,325.1,0.0,E,,*2C
$GPRMC,164556.4,A,4715.59826,N,12226.23371,W,004.77,339.8,110813,016.5,E,A*2D
$GPRMB,A,-1.12,L,,Shil,4741.0830,N,12224.5670,W,25.5,3,4.40,V*24
$PGRME,3.0,M,3.0,M,4.3,M*29
$HCHDG,325.0,0.0,E,,*2D
$YXXDR,A,6.3,D,PTCH,A,5.8,D,ROLL*55
$GPRMC,164556.6,A,4715.59853,N,12226.23393,W,004.72,340.2,110813,016.5,E,A*20
$PGRME,3.0,M,3.0,M,4.3,M*29
$HCHDG,325.0,0.0,E,,*2D
$HCHDG,324.9,0.0,E,,*25
$HCHDG,324.9,0.0,E,,*25
$GPRMC,164556.8,A,4715.59881,N,12226.23403,W,004.78,339.9,110813,016.5,E,A*20
$PGRME,3.0,M,3.0,M,4.3,M*29
$HCHDG,324.8,0.0,E,,*24
$HCHDG,325.1,0.0,E,,*2C
$GPRMC,164557.0,A,4715.59906,N,12226.23416,W,004.74,340.5,110813,016.5,E,A*2D
$PGRME,3.0,M,3.0,M,4.3,M*29
$YXXDR,A,6.4,D,PTCH,A,5.7,D,ROLL*5D
$HCHDG,325.1,0.0,E,,*2C
$HCHDG,324.9,0.0,E,,*25
$GPRMC,164557.2,A,4715.59931,N,12226.23429,W,004.71,340.1,110813,016.5,E,A*26
$PGRME,3.0,M,3.0,M,4.3,M*29
$HCHDG,324.9,0.0,E,,*25
$HCHDG,324.7,0.0,E,,*2B
$GPRMC,164557.4,A,4715.59963,N,12226.23440,W,004.75,340.1,110813,016.5,E,A*2C
$PGRME,3.0,M,3.0,M,4.3,M*29
$HCHDG,324.7,0.0,E,,*2B
$YXXDR,A,6.4,D,PTCH,A,5.5,D,ROLL*5F
$PTAK,FFD1,5.5*55
$GPRMC,164557.6,A,4715.59992,N,12226.23454,W,004.72,339.8,110813,016.5,E,A*25
$GPRMB,A,-1.12,L,,Shil,4741.0830,N,12224.5670,W,25.5,3,4.35,V*26
$PGRME,3.0,M,3.0,M,4.3,M*29
$HCHDG,324.7,0.0,E,,*2B
$HCHDG,324.7,0.0,E,,*2B
$HCHDG,324.7,0.0,E,,*2B
$GPRMC,164557.8,A,4715.60023,N,12226.23474,W,004.76,339.6,110813,016.5,E,A*2A
$PGRME,3.0,M,3.0,M,4.3,M*29
$HCHDG,324.5,0.0,E,,*29
$HCHDG,324.5,0.0,E,,*29
$GPRMC,164558.0,A,4715.60050,N,12226.23493,W,004.79,339.8,110813,016.5,E,A*21
$PGRME,3.0,M,3.0,M,4.3,M*29
$YXXDR,A,6.3,D,PTCH,A,5.7,D,ROLL*5A
$HCHDG,324.5,0.0,E,,*29
$HCHDG,324.4,0.0,E,,*28
$GPRMC,164558.2,A,4715.60078,N,12226.23513,W,004.72,339.8,110813,016.5,E,A*2B
$PGRME,3.0,M,3.0,M,4.3,M*29
$HCHDG,324.2,0.0,E,,*2E
$HCHDG,324.2,0.0,E,,*2E
$GPRMC,164558.4,A,4715.60098,N,12226.23525,W,004.77,339.6,110813,016.5,E,A*2D
$PGRME,3.0,M,3.0,M,4.3,M*29
$HCHDG,324.2,0.0,E,,*2E
$YXXDR,A,6.5,D,PTCH,A,5.6,D,ROLL*5D
$GPRMC,164558.6,A,4715.60117,N,12226.23546,W,004.68,339.4,110813,016.5,E,A*20
$PGRME,3.0,M,3.0,M,4.3,M*29
$HCHDG,324.4,0.0,E,,*28
$HCHDG,324.3,0.0,E,,*2F
$HCHDG,324.1,0.0,E,,*2D
$GPRMC,164558.8,A,4715.60143,N,12226.23565,W,004.77,339.1,110813,016.5,E,A*25
$GPRMB,A,-1.12,L,,Shil,4741.0830,N,12224.5670,W,25.5,3,4.38,V*2B
$PTAK,FFP1,HEEL,@*07
$PGRME,3.0,M,3.0,M,4.3,M*29
$HCHDG,324.0,0.0,E,,*2C
$HCHDG,324.3,0.0,E,,*2F
$GPRMC,164559.0,A,4715.60164,N,12226.23584,W,004.72,339.3,110813,016.5,E,A*21
$PGRME,3.0,M,3.0,M,4.3,M*29
$YXXDR,A,6.1,D,PTCH,A,5.8,D,ROLL*57
$PTAK,FFD1,5.8*58
$HCHDG,324.0,0.0,E,,*2C
$HCHDG,324.0,0.0,E,,*2C
$GPRMC,164559.2,A,4715.60182,N,12226.23597,W,004.78,339.3,110813,016.5,E,A*23
$PGRME,3.0,M,3.0,M,4.3,M*29
$HCHDG,324.0,0.0,E,,*2C
$HCHDG,324.0,0.0,E,,*2C
$GPRMC,164559.4,A,4715.60205,N,12226.23610,W,004.73,338.9,110813,016.5,E,A*25
$PGRME,3.0,M,3.0,M,4.3,M*29
$HCHDG,324.0,0.0,E,,*2C
$YXXDR,A,6.0,D,PTCH,A,5.6,D,ROLL*58
$GPRMC,164559.6,A,4715.60234,N,12226.23621,W,004.73,338.2,110813,016.5,E,A*2C
$PGRME,3.0,M,3.0,M,4.3,M*29
$HCHDG,324.0,0.0,E,,*2C
$HCHDG,324.1,0.0,E,,*2D
$HCHDG,324.1,0.0,E,,*2D
$GPRMC,164559.8,A,4715.60254,N,12226.23640,W,004.72,338.1,110813,016.5,E,A*21
$PGRME,3.0,M,3.0,M,4.3,M*29
$HCHDG,323.8,0.0,E,,*23
$HCHDG,323.8,0.0,E,,*23
$GPRMC,164600.0,A,4715.60277,N,12226.23656,W,004.68,339.0,110813,016.5,E,A*2B
$GPRMB,A,-1.12,L,,Shil,4741.0830,N,12224.5670,W,25.5,3,4.29,V*2B
$PGRME,3.0,M,3.0,M,4.3,M*29
$YXXDR,A,6.3,D,PTCH,A,5.4,D,ROLL*59
$PTAK,FFD1,5.4*54
$HCHDG,323.8,0.0,E,,*23
$HCHDG,323.9,0.0,E,,*22
$GPRMC,164600.2,A,4715.60299,N,12226.23664,W,004.76,337.9,110813,016.5,E,A*20
$PGRME,3.0,M,3.0,M,4.3,M*29
$HCHDG,323.7,0.0,E,,*2C
$HCHDG,323.7,0.0,E,,*2C
$GPRMC,164600.4,A,4715.60322,N,12226.23670,W,004.77,338.3,110813,016.5,E,A*26
$PGRME,3.0,M,3.0,M,4.3,M*29
$HCHDG,323.7,0.0,E,,*2C
$YXXDR,A,6.3,D,PTCH,A,5.1,D,ROLL*5C
$GPRMC,164600.6,A,4715.60341,N,12226.23683,W,004.79,338.3,110813,016.5,E,A*23
$PGRME,3.0,M,3.0,M,4.3,M*29
$HCHDG,323.8,0.0,E,,*23
$HCHDG,323.6,0.0,E,,*2D
$HCHDG,323.6,0.0,E,,*2D
$GPRMC,164600.8,A,4715.60366,N,12226.23703,W,004.74,337.8,110813,016.5,E,A*28
$PGRME,3.0,M,3.0,M,4.3,M*29
$HCHDG,323.8,0.0,E,,*23
$HCHDG,323.6,0.0,E,,*2D
$GPRMC,164601.0,A,4715.60391,N,12226.23717,W,004.72,338.4,110813,016.5,E,A*29
$PGRME,3.0,M,3.0,M,4.3,M*29
$YXXDR,A,6.5,D,PTCH,A,4.8,D,ROLL*52
$HCHDG,323.7,0.0,E,,*2C
$HCHDG,323.7,0.0,E,,*2C
$GPRMC,164601.2,A,4715.60414,N,12226.23732,W,004.73,338.0,110813,016.5,E,A*23
$GPRMB,A,-1.13,L,,Shil,4741.0830,N,12224.5670,W,25.5,3,4.30,V*22
$PGRME,3.0,M,3.0,M,4.3,M*29
$HCHDG,323.6,0.0,E,,*2D
$HCHDG,323.8,0.0,E,,*23
$GPRMC,164601.4,A,4715.60443,N,12226.23730,W,004.74,337.4,110813,016.5,E,A*29
$PGRME,3.0,M,3.0,M,4.3,M*29
$HCHDG,323.8,0.0,E,,*23
$YXXDR,A,6.3,D,PTCH,A,4.7,D,ROLL*5B
$PTAK,FFD1,4.7*56
$GPRMC,164601.6,A,4715.60468,N,12226.23741,W,004.74,338.0,110813,016.5,E,A*2F
$PGRME,3.0,M,3.0,M,4.3,M*29
$HCHDG,323.7,0.0,E,,*2C
$HCHDG,323.7,0.0,E,,*2C
$HCHDG,323.4,0.0,E,,*2F
$GPRMC,164601.8,A,4715.60492,N,12226.23762,W,004.77,337.1,110813,016.5,E,A*28
$PGRME,3.0,M,3.0,M,4.3,M*29
$HCHDG,323.6,0.0,E,,*2D
$HCHDG,323.4,0.0,E,,*2F
$GPRMC,164602.0,A,4715.60507,N,12226.23778,W,004.74,338.6,110813,016.5,E,A*2E
$PGRME,3.0,M,3.0,M,4.3,M*29
$YXXDR,A,6.2,D,PTCH,A,4.3,D,ROLL*5E
$HCHDG,323.5,0.0,E,,*2E
$HCHDG,323.4,0.0,E,,*2F
$GPRMC,164602.2,A,4715.60534,N,12226.23786,W,004.71,338.1,110813,016.5,E,A*2F
$GPRMB,A,-1.13,L,,Shil,4741.0830,N,12224.5670,W,25.5,3,4.29,V*2A
$PGRME,3.0,M,3.0,M,4.3,M*29
$HCHDG,323.3,0.0,E,,*28
$HCHDG,323.4,0.0,E,,*2F
$GPRMC,164602.4,A,4715.60559,N,12226.23808,W,004.77,337.8,110813,016.5,E,A*2B
$PGRME,3.0,M,3.0,M,4.3,M*29
$HCHDG,323.3,0.0,E,,*28
$YXXDR,A,6.3,D,PTCH,A,3.7,D,ROLL*5C
$GPRMC,164602.6,A,4715.60581,N,12226.23828,W,004.77,339.0,110813,016.5,E,A*28
$PGRME,3.0,M,3.0,M,4.3,M*29
$HCHDG,323.2,0.0,E,,*29
$HCHDG,323.1,0.0,E,,*2A
$HCHDG,323.2,0.0,E,,*29
$GPRMC,164602.8,A,4715.60598,N,12226.23833,W,004.75,338.8,110813,016.5,E,A*2F
$PGRME,3.0,M,3.0,M,4.3,M*29
$HCHDG,322.9,0.0,E,,*23
$PTAK,FFP1,HEEL,@*07
$HCHDG,323.0,0.0,E,,*2B
$GPRMC,164603.0,A,4715.60622,N,12226.23843,W,004.74,338.2,110813,016.5,E,A*28
$PGRME,3.0,M,3.0,M,4.3,M*29
$YXXDR,A,6.2,D,PTCH,A,3.6,D,ROLL*5C
$PTAK,FFD1,3.6*50
$HCHDG,323.1,0.0,E,,*2A
$HCHDG,323.3,0.0,E,,*28
$GPRMC,164603.2,A,4715.60648,N,12226.23862,W,004.75,338.4,110813,016.5,E,A*22
$PGRME,3.0,M,3.0,M,4.3,M*29
$HCHDG,323.4,0.0,E,,*2F
$HCHDG,323.5,0.0,E,,*2E
$GPRMC,164603.4,A,4715.60672,N,12226.23874,W,004.73,338.2,110813,016.5,E,A*2A
$GPRMB,A,-1.13,L,,Shil,4741.0830,N,12224.5670,W,25.5,3,4.31,V*23
$PGRME,3.0,M,3.0,M,4.3,M*29
$HCHDG,323.1,0.0,E,,*2A
$YXXDR,A,6.3,D,PTCH,A,4.0,D,ROLL*5C
$GPRMC,164603.6,A,4715.60695,N,12226.23886,W,004.75,338.8,110813,016.5,E,A*20
$PGRME,3.0,M,3.0,M,4.3,M*29
$HCHDG,323.1,0.0,E,,*2A
$HCHDG,323.2,0.0,E,,*29
$HCHDG,323.2,0.0,E,,*29
$GPRMC,164603.8,A,4715.60719,N,12226.23913,W,004.75,338.9,110813,016.5,E,A*27
$PGRME,3.0,M,3.0,M,4.3,M*29
$HCHDG,323.1,0.0,E,,*2A
$HCHDG,323.1,0.0,E,,*2A
$GPRMC,164604.0,A,4715.60747,N,12226.23925,W,004.76,338.4,110813,016.5,E,A*28
$PGRME,3.0,M,3.0,M,4.3,M*29
$YXXDR,A,6.0,D,PTCH,A,4.2,D,ROLL*5D
$HCHDG,323.4,0.0,E,,*2F
$HCHDG,323.4,0.0,E,,*2F
$GPRMC,164604.2,A,4715.60774,N,12226.23941,W,004.76,338.4,110813,016.5,E,A*28
$PGRME,3.0,M,3.0,M,4.3,M*29
$HCHDG,323.4,0.0,E,,*2F
$HCHDG,323.2,0.0,E,,*29
$GPRMC,164604.4,A,4715.60794,N,12226.23963,W,004.75,338.8,110813,016.5,E,A*2F
$PGRME,3.0,M,3.0,M,4.3,M*29
$HCHDG,323.2,0.0,E,,*29
$YXXDR,A,6.2,D,PTCH,A,4.3,D,ROLL*5E
$PTAK,FFD1,4.3*52
$GPRMC,164604.6,A,4715.60819,N,12226.23985,W,004.75,338.9,110813,016.5,E,A*2E
$GPRMB,A,-1.13,L,,Shil,4741.0830,N,12224.5670,W,25.5,3,4.35,V*27
$HCHDG,323.4,0.0,E,,*2F
$PGRME,3.0,M,3.0,M,4.3,M*29
$HCHDG,323.2,0.0,E,,*29
$HCHDG,323.2,0.0,E,,*29
$GPRMC,164604.8,A,4715.60847,N,12226.23988,W,004.76,338.0,110813,016.5,E,A*2C
$PGRME,3.0,M,3.0,M,4.3,M*29
$HCHDG,323.2,0.0,E,,*29
$HCHDG,323.2,0.0,E,,*29
$GPRMC,164605.0,A,4715.60867,N,12226.24000,W,004.76,338.8,110813,016.5,E,A*21
$PGRME,3.0,M,3.0,M,4.3,M*29
$YXXDR,A,6.4,D,PTCH,A,4.7,D,ROLL*5C
$HCHDG,323.3,0.0,E,,*28
$HCHDG,323.5,0.0,E,,*2E
$GPRMC,164605.2,A,4715.60896,N,12226.24009,W,004.76,339.0,110813,016.5,E,A*2D
$PGRME,3.0,M,3.0,M,4.3,M*29
$HCHDG,323.3,0.0,E,,*28
$HCHDG,323.1,0.0,E,,*2A
$GPRMC,164605.4,A,4715.60922,N,12226.24028,W,004.78,338.6,110813,016.5,E,A*2F
$PGRME,3.0,M,3.0,M,4.3,M*29
$HCHDG,323.1,0.0,E,,*2A
$YXXDR,A,6.2,D,PTCH,A,4.3,D,ROLL*5E
$GPRMC,164605.6,A,4715.60948,N,12226.24051,W,004.77,338.8,110813,016.5,E,A*2E
$HCHDG,323.0,0.0,E,,*2B
$PGRME,3.0,M,3.0,M,4.3,M*29
$HCHDG,323.0,0.0,E,,*2B
$HCHDG,323.0,0.0,E,,*2B
$GPRMC,164605.8,A,4715.60971,N,12226.24063,W,004.77,338.6,110813,016.5,E,A*25
$GPRMB,A,-1.13,L,,Shil,4741.0830,N,12224.5670,W,25.5,3,4.36,V*24
$PGRME,3.0,M,3.0,M,4.3,M*29
$HCHDG,323.0,0.0,E,,*2B
$HCHDG,323.0,0.0,E,,*2B
$GPRMC,164606.0,A,4715.60993,N,12226.24076,W,004.77,338.2,110813,016.5,E,A*22
$PGRME,3.0,M,3.0,M,4.3,M*29
$YXXDR,A,6.4,D,PTCH,A,4.5,D,ROLL*5E
$PTAK,FFD1,4.5*54
$HCHDG,323.0,0.0,E,,*2B
$HCHDG,323.2,0.0,E,,*29
$GPRMC,164606.2,A,4715.61016,N,12226.24094,W,004.76,338.3,110813,016.5,E,A*29
$PGRME,3.0,M,3.0,M,4.3,M*29
$HCHDG,323.2,0.0,E,,*29
$HCHDG,323.0,0.0,E,,*2B
$GPRMC,164606.4,A,4715.61044,N,12226.24108,W,004.76,338.7,110813,016.5,E,A*28
$PGRME,3.0,M,3.0,M,4.3,M*29
$HCHDG,323.0,0.0,E,,*2B
$YXXDR,A,6.2,D,PTCH,A,4.5,D,ROLL*58
$GPRMC,164606.6,A,4715.61071,N,12226.24107,W,004.76,337.9,110813,016.5,E,A*22
$HCHDG,323.0,0.0,E,,*2B
$PGRME,3.0,M,3.0,M,4.3,M*29
$HCHDG,323.0,0.0,E,,*2B
$HCHDG,323.0,0.0,E,,*2B
$GPRMC,164606.8,A,4715.61097,N,12226.24122,W,004.76,338.6,110813,016.5,E,A*23
$PGRME,3.0,M,3.0,M,4.3,M*29
$HCHDG,323.0,0.0,E,,*2B
$PTAK,FFP1,HEEL,@*07
$HCHDG,323.2,0.0,E,,*29
$GPRMC,164607.0,A,4715.61115,N,12226.24133,W,004.77,338.2,110813,016.5,E,A*24
$GPRMB,A,-1.13,L,,Shil,4741.0830,N,12224.5670,W,25.5,3,4.35,V*27
$PGRME,3.0,M,3.0,M,4.3,M*29
$YXXDR,A,6.2,D,PTCH,A,4.3,D,ROLL*5E
$PTAK,FFD1,4.3*52
$HCHDG,323.0,0.0,E,,*2B
$HCHDG,323.0,0.0,E,,*2B
$GPRMC,164607.2,A,4715.61135,N,12226.24146,W,004.77,337.9,110813,016.5,E,A*22
$PGRME,3.0,M,3.0,M,4.3,M*29
$HCHDG,322.8,0.0,E,,*22
$HCHDG,322.8,0.0,E,,*22
$GPRMC,164607.4,A,4715.61165,N,12226.24154,W,004.76,338.8,110813,016.5,E,A*2D
$PGRME,3.0,M,3.0,M,4.3,M*29
$HCHDG,322.8,0.0,E,,*22
$YXXDR,A,6.3,D,PTCH,A,4.0,D,ROLL*5C
$GPRMC,164607.6,A,4715.61195,N,12226.24166,W,004.76,338.2,110813,016.5,E,A*2B
$PGRME,3.0,M,3.0,M,4.3,M*29
$HCHDG,322.9,0.0,E,,*23
$HCHDG,322.9,0.0,E,,*23
$HCHDG,323.0,0.0,E,,*2B
$GPRMC,164607.8,A,4715.61220,N,12226.24185,W,004.74,338.0,110813,016.5,E,A*25
$PGRME,3.0,M,3.0,M,4.3,M*29
$HCHDG,322.7,0.0,E,,*2D
$HCHDG,322.8,0.0,E,,*22
$GPRMC,164608.0,A,4715.61243,N,12226.24199,W,004.74,338.1,110813,016.5,E,A*2B
$GPRMB,A,-1.13,L,,Shil,4741.0830,N,12224.5670,W,25.5,3,4.32,V*20
$PGRME,3.0,M,3.0,M,4.3,M*29
$YXXDR,A,6.3,D,PTCH,A,4.1,D,ROLL*5D
$PTAK,FFD1,4.1*50
$HCHDG,322.8,0.0,E,,*22
$HCHDG,322.8,0.0,E,,*22
$GPRMC,164608.2,A,4715.61273,N,12226.24203,W,004.77,337.8,110813,016.5,E,A*2F
$PGRME,3.0,M,3.0,M,4.3,M*29
$HCHDG,322.9,0.0,E,,*23
$HCHDG,322.8,0.0,E,,*22
$GPRMC,164608.4,A,4715.61295,N,12226.24208,W,004.77,338.2,110813,016.5,E,A*2F
$PGRME,3.0,M,3.0,M,4.3,M*29
$HCHDG,322.8,0.0,E,,*22
$YXXDR,A,6.0,D,PTCH,A,4.2,D,ROLL*5D
$GPRMC,164608.6,A,4715.61315,N,12226.24220,W,004.78,338.1,110813,016.5,E,A*22
$HCHDG,322.8,0.0,E,,*22
$PGRME,3.0,M,3.0,M,4.3,M*29
$HCHDG,322.7,0.0,E,,*2D
$HCHDG,322.7,0.0,E,,*2D
$GPRMC,164608.8,A,4715.61338,N,12226.24232,W,004.78,338.2,110813,016.5,E,A*23
$PGRME,3.0,M,3.0,M,4.3,M*29
$HCHDG,323.0,0.0,E,,*2B
$HCHDG,323.0,0.0,E,,*2B
$GPRMC,164609.0,A,4715.61366,N,12226.24244,W,004.76,338.4,110813,016.5,E,A*28
$PGRME,3.0,M,3.0,M,4.3,M*29
$YXXDR,A,6.4,D,PTCH,A,4.3,D,ROLL*58
$HCHDG,323.0,0.0,E,,*2B
$HCHDG,323.0,0.0,E,,*2B
$GPRMC,164609.2,A,4715.61383,N,12226.24259,W,004.75,338.8,110813,016.5,E,A*22
$GPRMB,A,-1.13,L,,Shil,4741.0830,N,12224.5670,W,25.5,3,4.35,V*27
$PGRME,3.0,M,3.0,M,4.3,M*29
$HCHDG,323.0,0.0,E,,*2B
$HCHDG,323.0,0.0,E,,*2B
$GPRMC,164609.4,A,4715.61402,N,12226.24275,W,004.75,338.2,110813,016.5,E,A*2E
$PGRME,3.0,M,3.0,M,4.3,M*29
$HCHDG,322.9,0.0,E,,*23
$YXXDR,A,6.2,D,PTCH,A,4.5,D,ROLL*58
$PTAK,FFD1,4.5*54
$GPRMC,164609.6,A,4715.61430,N,12226.24290,W,004.76,338.0,110813,016.5,E,A*27
$HCHDG,322.9,0.0,E,,*23
$PGRME,3.0,M,3.0,M,4.3,M*29
$HCHDG,322.9,0.0,E,,*23
$HCHDG,322.9,0.0,E,,*23
$GPRMC,164609.8,A,4715.61462,N,12226.24305,W,004.78,338.5,110813,016.5,E,A*28
$PGRME,3.0,M,3.0,M,4.3,M*29
$HCHDG,322.9,0.0,E,,*23
$HCHDG,322.9,0.0,E,,*23
$GPRMC,164610.0,A,4715.61488,N,12226.24317,W,004.79,338.8,110813,016.5,E,A*23
$PGRME,3.0,M,3.0,M,4.3,M*29
$YXXDR,A,6.3,D,PTCH,A,4.8,D,ROLL*54
$HCHDG,323.0,0.0,E,,*2B
$HCHDG,323.0,0.0,E,,*2B
$GPRMC,164610.2,A,4715.61513,N,12226.24328,W,004.79,338.2,110813,016.5,E,A*24
$PGRME,3.0,M,3.0,M,4.3,M*29
$HCHDG,322.8,0.0,E,,*22
$HCHDG,322.7,0.0,E,,*2D
$GPRMC,164610.4,A,4715.61542,N,12226.24338,W,004.78,338.9,110813,016.5,E,A*2D
$GPRMB,A,-1.13,L,,Shil,4741.0830,N,12224.5670,W,25.5,3,4.38,V*2A
$PGRME,3.0,M,3.0,M,4.3,M*29
$HCHDG,322.7,0.0,E,,*2D
$YXXDR,A,6.2,D,PTCH,A,4.8,D,ROLL*55
$PTAK,FFD1,4.8*59
$GPRMC,164610.6,A,4715.61564,N,12226.24353,W,004.77,338.7,110813,016.5,E,A*27
$PGRME,3.0,M,3.0,M,4.3,M*29
$HCHDG,323.0,0.0,E,,*2B
$HCHDG,322.9,0.0,E,,*23
$HCHDG,323.1,0.0,E,,*2A
$GPRMC,164610.8,A,4715.61588,N,12226.24375,W,004.77,338.1,110813,016.5,E,A*29
$PGRME,3.0,M,3.0,M,4.3,M*29
$HCHDG,323.0,0.0,E,,*2B
$PTAK,FFP1,HEEL,@*07
$HCHDG,323.0,0.0,E,,*2B
$GPRMC,164611.0,A,4715.61615,N,12226.24386,W,004.77,337.9,110813,016.5,E,A*2C
$PGRME,3.0,M,3.0,M,4.3,M*29
$YXXDR,A,6.1,D,PTCH,A,5.0,D,ROLL*5F
$HCHDG,323.1,0.0,E,,*2A
$HCHDG,323.1,0.0,E,,*2A
$GPRMC,164611.2,A,4715.61642,N,12226.24400,W,004.76,338.3,110813,016.5,E,A*21
$PGRME,3.0,M,3.0,M,4.3,M*29
$HCHDG,323.0,0.0,E,,*2B
$HCHDG,323.0,0.0,E,,*2B
$GPRMC,164611.4,A,4715.61669,N,12226.24413,W,004.76,338.7,110813,016.5,E,A*28
$PGRME,3.0,M,3.0,M,4.3,M*29
$HCHDG,323.0,0.0,E,,*2B
$YXXDR,A,6.2,D,PTCH,A,4.1,D,ROLL*5C
$GPRMC,164611.6,A,4715.61695,N,12226.24435,W,004.76,338.6,110813,016.5,E,A*2C
$GPRMB,A,-1.13,L,,Shil,4741.0830,N,12224.5670,W,25.5,3,4.35,V*27
$HCHDG,322.8,0.0,E,,*22
$PGRME,3.0,M,3.0,M,4.3,M*29
$HCHDG,322.6,0.0,E,,*2C
$HCHDG,322.6,0.0,E,,*2C
$GPRMC,164611.8,A,4715.61721,N,12226.24455,W,004.77,338.6,110813,016.5,E,A*2B
$PGRME,3.0,M,3.0,M,4.3,M*29
$HCHDG,322.5,0.0,E,,*2F
$HCHDG,322.5,0.0,E,,*2F
$GPRMC,164612.0,A,4715.61742,N,12226.24481,W,004.77,338.7,110813,016.5,E,A*2D
$PGRME,3.0,M,3.0,M,4.3,M*29
$YXXDR,A,6.4,D,PTCH,A,4.5,D,ROLL*5E
$PTAK,FFD1,4.5*54
$HCHDG,322.5,0.0,E,,*2F
$HCHDG,322.7,0.0,E,,*2D
$GPRMC,164612.2,A,4715.61759,N,12226.24506,W,004.79,338.2,110813,016.5,E,A*20
$PGRME,3.0,M,3.0,M,4.3,M*29
$HCHDG,322.6,0.0,E,,*2C
$HCHDG,322.6,0.0,E,,*2C
$GPRMC,164612.4,A,4715.61783,N,12226.24527,W,004.78,339.3,110813,016.5,E,A*23
$PGRME,3.0,M,3.0,M,4.3,M*29
$HCHDG,322.6,0.0,E,,*2C
$YXXDR,A,6.1,D,PTCH,A,4.5,D,ROLL*5B
$GPRMC,164612.6,A,4715.61811,N,12226.24530,W,004.78,338.3,110813,016.5,E,A*22
$HCHDG,322.5,0.0,E,,*2F
$PGRME,3.0,M,3.0,M,4.3,M*29
$HCHDG,322.5,0.0,E,,*2F
$HCHDG,322.5,0.0,E,,*2F
$GPRMC,164612.8,A,4715.61833,N,12226.24544,W,004.79,338.9,110813,016.5,E,A*24
$GPRMB,A,-1.13,L,,Shil,4741.0830,N,12224.5670,W,25.5,3,4.39,V*2B
$PGRME,3.0,M,3.0,M,4.3,M*29
$HCHDG,322.5,0.0,E,,*2F
$HCHDG,322.5,0.0,E,,*2F
$GPRMC,164613.0,A,4715.61851,N,12226.24560,W,004.78,339.3,110813,016.5,E,A*25
$PGRME,3.0,M,3.0,M,4.3,M*29
$YXXDR,A,6.2,D,PTCH,A,4.6,D,ROLL*5B
$HCHDG,322.5,0.0,E,,*2F
$HCHDG,322.5,0.0,E,,*2F
$GPRMC,164613.2,A,4715.61870,N,12226.24576,W,004.78,338.9,110813,016.5,E,A*28
$PGRME,3.0,M,3.0,M,4.3,M*29
$HCHDG,322.5,0.0,E,,*2F
$HCHDG,322.4,0.0,E,,*2E
$GPRMC,164613.4,A,4715.61900,N,12226.24588,W,004.78,339.5,110813,016.5,E,A*24
$PGRME,3.0,M,3.0,M,4.3,M*29
$HCHDG,322.4,0.0,E,,*2E
$YXXDR,A,6.5,D,PTCH,A,4.5,D,ROLL*5F
$PTAK,FFD1,4.5*54
$GPRMC,164613.6,A,4715.61926,N,12226.24603,W,004.78,338.8,110813,016.5,E,A*2E
$HCHDG,322.4,0.0,E,,*2E
$PGRME,3.0,M,3.0,M,4.3,M*29
$HCHDG,322.4,0.0,E,,*2E
$HCHDG,322.5,0.0,E,,*2F
$GPRMC,164613.8,A,4715.61955,N,12226.24606,W,004.78,338.7,110813,016.5,E,A*2E
$GPRMB,A,-1.13,L,,Shil,4741.0830,N,12224.5670,W,25.5,3,4.37,V*25
$PGRME,3.0,M,3.0,M,4.3,M*29
$HCHDG,322.4,0.0,E,,*2E
$HCHDG,322.3,0.0,E,,*29
$GPRMC,164614.0,A,4715.61975,N,12226.24620,W,004.80,338.4,110813,016.5,E,A*23
$PGRME,3.0,M,3.0,M,4.3,M*29
$YXXDR,A,6.2,D,PTCH,A,4.7,D,ROLL*5A
$HCHDG,322.6,0.0,E,,*2C
$HCHDG,322.5,0.0,E,,*2F
$GPRMC,164614.2,A,4715.62004,N,12226.24631,W,004.80,339.0,110813,016.5,E,A*28
$PGRME,3.0,M,3.0,M,4.3,M*29
$HCHDG,322.5,0.0,E,,*2F
$HCHDG,322.4,0.0,E,,*2E
$GPRMC,164614.4,A,4715.62033,N,12226.24645,W,004.78,339.3,110813,016.5,E,A*2D
$PGRME,3.0,M,3.0,M,4.3,M*29
$HCHDG,322.4,0.0,E,,*2E
$YXXDR,A,6.3,D,PTCH,A,4.7,D,ROLL*5B
$PTAK,FFD1,4.7*56
$GPRMC,164614.6,A,4715.62065,N,12226.24655,W,004.78,337.8,110813,016.5,E,A*28
$HCHDG,322.4,0.0,E,,*2E
$PGRME,3.0,M,3.0,M,4.3,M*29
$HCHDG,322.3,0.0,E,,*29
$HCHDG,322.2,0.0,E,,*28
$GPRMC,164614.8,A,4715.62088,N,12226.24671,W,004.78,338.3,110813,016.5,E,A*27
$GPRMB,A,-1.13,L,,Shil,4741.0830,N,12224.5670,W,25.5,3,4.36,V*24
$PGRME,3.0,M,3.0,M,4.3,M*29
$HCHDG,322.2,0.0,E,,*28
$PTAK,FFP1,HEEL,@*07
$HCHDG,322.1,0.0,E,,*2B
$GPRMC,164615.0,A,4715.62109,N,12226.24675,W,004.78,339.4,110813,016.5,E,A*24
$PGRME,3.0,M,3.0,M,4.3,M*29
$YXXDR,A,6.1,D,PTCH,A,4.5,D,ROLL*5B
$HCHDG,322.2,0.0,E,,*28
$HCHDG,321.8,0.0,E,,*21
$GPRMC,164615.2,A,4715.62135,N,12226.24686,W,004.79,338.7,110813,016.5,E,A*26
$PGRME,3.0,M,3.0,M,4.3,M*29
$HCHDG,321.8,0.0,E,,*21
$HCHDG,321.7,0.0,E,,*2E
$GPRMC,164615.4,A,4715.62158,N,12226.24696,W,004.78,338.2,110813,016.5,E,A*2E
$PGRME,3.0,M,3.0,M,4.3,M*29
$HCHDG,321.8,0.0,E,,*21
$YXXDR,A,6.3,D,PTCH,A,5.0,D,ROLL*5D
$GPRMC,164615.6,A,4715.62183,N,12226.24697,W,004.77,337.6,110813,016.5,E,A*2F
$HCHDG,321.8,0.0,E,,*21
$PGRME,3.0,M,3.0,M,4.3,M*29
$HCHDG,321.7,0.0,E,,*2E
$HCHDG,321.7,0.0,E,,*2E
$GPRMC,164615.8,A,4715.62210,N,12226.24701,W,004.78,338.0,110813,016.5,E,A*20
$GPRMB,A,-1.13,L,,Shil,4741.0830,N,12224.5670,W,25.5,3,4.35,V*27
$PGRME,3.0,M,3.0,M,4.3,M*29
$HCHDG,321.6,0.0,E,,*2F
$HCHDG,321.6,0.0,E,,*2F
$GPRMC,164616.0,A,4715.62238,N,12226.24718,W,004.78,337.7,110813,016.5,E,A*21
$PGRME,3.0,M,3.0,M,4.3,M*29
$YXXDR,A,6.3,D,PTCH,A,4.8,D,ROLL*54
$PTAK,FFD1,4.8*59
$HCHDG,321.5,0.0,E,,*2C
$HCHDG,321.4,0.0,E,,*2D
$GPRMC,164616.2,A,4715.62266,N,12226.24736,W,004.80,337.2,110813,016.5,E,A*26
$PGRME,3.0,M,3.0,M,4.3,M*29
$HCHDG,321.5,0.0,E,,*2C
$HCHDG,321.6,0.0,E,,*2F
$GPRMC,164616.4,A,4715.62295,N,12226.24752,W,004.80,337.6,110813,016.5,E,A*2A
$PGRME,3.0,M,3.0,M,4.3,M*29
$HCHDG,321.6,0.0,E,,*2F
$YXXDR,A,6.6,D,PTCH,A,4.9,D,ROLL*50
$GPRMC,164616.6,A,4715.62310,N,12226.24777,W,004.81,337.9,110813,016.5,E,A*2D
$PGRME,3.0,M,3.0,M,4.3,M*29
$HCHDG,321.5,0.0,E,,*2C
$HCHDG,321.5,0.0,E,,*2C
$HCHDG,321.2,0.0,E,,*2B
$GPRMC,164616.8,A,4715.62331,N,12226.24794,W,004.80,338.0,110813,016.5,E,A*2A
$GPRMB,A,-1.13,L,,Shil,4741.0830,N,12224.5670,W,25.5,3,4.37,V*25
$PGRME,3.0,M,3.0,M,4.3,M*29
$HCHDG,321.1,0.0,E,,*28
$HCHDG,321.2,0.0,E,,*2B
$GPRMC,164617.0,A,4715.62355,N,12226.24820,W,004.80,337.4,110813,016.5,E,A*2A
$PGRME,3.0,M,3.0,M,4.3,M*29
$YXXDR,A,6.3,D,PTCH,A,4.7,D,ROLL*5B
$PTAK,FFD1,4.7*56
$HCHDG,321.1,0.0,E,,*28
$HCHDG,321.0,0.0,E,,*29
$GPRMC,164617.2,A,4715.62378,N,12226.24843,W,004.79,337.4,110813,016.5,E,A*24
$PGRME,3.0,M,3.0,M,4.3,M*29
$HCHDG,321.0,0.0,E,,*29
$HCHDG,320.9,0.0,E,,*21
$GPRMC,164617.4,A,4715.62406,N,12226.24860,W,004.80,336.9,110813,016.5,E,A*27
$PGRME,3.0,M,3.0,M,4.3,M*29
$HCHDG,320.9,0.0,E,,*21
$YXXDR,A,6.4,D,PTCH,A,4.7,D,ROLL*5C
$GPRMC,164617.6,A,4715.62434,N,12226.24874,W,004.78,337.0,110813,016.5,E,A*2E
$HCHDG,321.0,0.0,E,,*29
$PGRME,3.0,M,3.0,M,4.3,M*29
$HCHDG,320.9,0.0,E,,*21
$HCHDG,321.1,0.0,E,,*28
$GPRMC,164617.8,A,4715.62462,N,12226.24892,W,004.78,337.3,110813,016.5,E,A*28
$GPRMB,A,-1.13,L,,Shil,4741.0830,N,12224.5670,W,25.5,3,4.32,V*20
$PGRME,3.0,M,3.0,M,4.3,M*29
$HCHDG,321.0,0.0,E,,*29
$HCHDG,321.0,0.0,E,,*29
$GPRMC,164618.0,A,4715.62489,N,12226.24901,W,004.77,336.8,110813,016.5,E,A*24
$PGRME,3.0,M,3.0,M,4.3,M*29
$YXXDR,A,6.3,D,PTCH,A,4.7,D,ROLL*5B
$HCHDG,321.1,0.0,E,,*28
$HCHDG,320.8,0.0,E,,*20
$GPRMC,164618.2,A,4715.62507,N,12226.24914,W,004.77,336.1,110813,016.5,E,A*2C
$PGRME,3.0,M,3.0,M,4.3,M*29
$HCHDG,320.8,0.0,E,,*20
$HCHDG,320.8,0.0,E,,*20
$GPRMC,164618.4,A,4715.62530,N,12226.24927,W,004.77,337.1,110813,016.5,E,A*2F
$PGRME,3.0,M,3.0,M,4.3,M*29
$HCHDG,320.8,0.0,E,,*20
$YXXDR,A,6.3,D,PTCH,A,4.7,D,ROLL*5B
$PTAK,FFD1,4.7*56
$GPRMC,164618.6,A,4715.62555,N,12226.24945,W,004.77,336.7,110813,016.5,E,A*2D
$HCHDG,320.8,0.0,E,,*20
$PGRME,3.0,M,3.0,M,4.3,M*29
$HCHDG,320.9,0.0,E,,*21
$HCHDG,320.9,0.0,E,,*21
$GPRMC,164618.8,A,4715.62578,N,12226.24964,W,004.78,336.4,110813,016.5,E,A*23
$PGRME,3.0,M,3.0,M,4.3,M*29
$HCHDG,320.9,0.0,E,,*21
$HCHDG,320.9,0.0,E,,*21
$GPRMC,164619.0,A,4715.62600,N,12226.24992,W,004.79,335.0,110813,016.5,E,A*29
$GPRMB,A,-1.13,L,,Shil,4741.0830,N,12224.5670,W,25.5,3,4.25,V*26
$PGRME,3.0,M,3.0,M,4.3,M*29
$YXXDR,A,6.4,D,PTCH,A,4.7,D,ROLL*5C
$PTAK,FFP1,HEEL,@*07
$HCHDG,320.7,0.0,E,,*2F
$HCHDG,320.8,0.0,E,,*20
$GPRMC,164619.2,A,4715.62621,N,12226.25018,W,004.77,336.0,110813,016.5,E,A*2F
$PGRME,3.0,M,3.0,M,4.3,M*29
$HCHDG,320.6,0.0,E,,*2E
$HCHDG,320.5,0.0,E,,*2D
$GPRMC,164619.4,A,4715.62644,N,12226.25031,W,004.78,336.4,110813,016.5,E,A*2A
$PGRME,3.0,M,3.0,M,4.3,M*29
$HCHDG,320.5,0.0,E,,*2D
$YXXDR,A,6.1,D,PTCH,A,4.5,D,ROLL*5B
$PTAK,FFD1,4.5*54
$GPRMC,164619.6,A,4715.62669,N,12226.25044,W,004.78,337.1,110813,016.5,E,A*21
$HCHDG,320.5,0.0,E,,*2D
$PGRME,3.0,M,3.0,M,4.3,M*29
$HCHDG,320.7,0.0,E,,*2F
$HCHDG,320.7,0.0,E,,*2F
$GPRMC,164619.8,A,4715.62693,N,12226.25061,W,004.77,335.3,110813,016.5,E,A*22
$PGRME,3.0,M,3.0,M,4.3,M*29
$HCHDG,320.6,0.0,E,,*2E
$HCHDG,320.7,0.0,E,,*2F
$GPRMC,164620.0,A,4715.62718,N,12226.25073,W,004.77,335.8,110813,016.5,E,A*2A
$GPRMB,A,-1.13,L,,Shil,4741.0830,N,12224.5670,W,25.5,3,4.26,V*25
$PGRME,3.0,M,3.0,M,4.3,M*29
$YXXDR,A,6.1,D,PTCH,A,4.5,D,ROLL*5B
$HCHDG,320.6,0.0,E,,*2E
$HCHDG,320.6,0.0,E,,*2E
$GPRMC,164620.2,A,4715.62744,N,12226.25086,W,004.78,335.1,110813,016.5,E,A*2D
$PGRME,3.0,M,3.0,M,4.3,M*29
$HCHDG,320.6,0.0,E,,*2E
$HCHDG,320.6,0.0,E,,*2E
$GPRMC,164620.4,A,4715.62769,N,12226.25114,W,004.79,335.4,110813,016.5,E,A*2A
$PGRME,3.0,M,3.0,M,4.3,M*29
$HCHDG,320.6,0.0,E,,*2E
$YXXDR,A,6.1,D,PTCH,A,4.5,D,ROLL*5B
$GPRMC,164620.6,A,4715.62789,N,12226.25125,W,004.79,335.3,110813,016.5,E,A*23
$HCHDG,320.4,0.0,E,,*2C
$PGRME,3.0,M,3.0,M,4.3,M*29
$HCHDG,320.4,0.0,E,,*2C
$HCHDG,320.4,0.0,E,,*2C
$GPRMC,164620.8,A,4715.62816,N,12226.25137,W,004.80,336.4,110813,016.5,E,A*25
$PGRME,3.0,M,3.0,M,4.3,M*29
$HCHDG,320.3,0.0,E,,*2B
$HCHDG,320.3,0.0,E,,*2B
$GPRMC,164621.0,A,4715.62841,N,12226.25159,W,004.81,335.8,110813,016.5,E,A*28
$GPRMB,A,-1.13,L,,Shil,4741.0830,N,12224.5670,W,25.5,3,4.30,V*22
$PGRME,3.0,M,3.0,M,4.3,M*29
$YXXDR,A,6.2,D,PTCH,A,4.1,D,ROLL*5C
$PTAK,FFD1,4.1*50
$HCHDG,320.5,0.0,E,,*2D
$HCHDG,320.4,0.0,E,,*2C
$GPRMC,164621.2,A,4715.62865,N,12226.25178,W,004.80,335.6,110813,016.5,E,A*20
$PGRME,3.0,M,3.0,M,4.3,M*29
$HCHDG,320.5,0.0,E,,*2D
$HCHDG,320.6,0.0,E,,*2E
$GPRMC,164621.4,A,4715.62887,N,12226.25202,W,004.79,336.1,110813,016.5,E,A*26
$PGRME,3.0,M,3.0,M,4.3,M*29
$HCHDG,320.4,0.0,E,,*2C
$YXXDR,A,6.3,D,PTCH,A,4.1,D,ROLL*5D
$GPRMC,164621.6,A,4715.62910,N,12226.25221,W,004.77,335.4,110813,016.5,E,A*22
$PGRME,3.0,M,3.0,M,4.3,M*29
$HCHDG,320.5,0.0,E,,*2D
$HCHDG,320.3,0.0,E,,*2B
$HCHDG,320.5,0.0,E,,*2D
$GPRMC,164621.8,A,4715.62938,N,12226.25235,W,004.76,336.6,110813,016.5,E,A*23
$PGRME,3.0,M,3.0,M,4.3,M*29
$HCHDG,320.5,0.0,E,,*2D
$HCHDG,320.6,0.0,E,,*2E
$GPRMC,164622.0,A,4715.62965,N,12226.25249,W,004.77,335.4,110813,016.5,E,A*2B
$GPRMB,A,-1.14,L,,Shil,4741.0830,N,12224.5670,W,25.5,3,4.24,V*20
$PGRME,3.0,M,3.0,M,4.3,M*29
$YXXDR,A,6.2,D,PTCH,A,3.9,D,ROLL*53
$PTAK,FFD1,3.9*5F
$HCHDG,320.6,0.0,E,,*2E
$HCHDG,320.4,0.0,E,,*2C
$GPRMC,164622.2,A,4715.62991,N,12226.25260,W,004.79,336.0,110813,016.5,E,A*20
$PGRME,3.0,M,3.0,M,4.3,M*29
$HCHDG,320.4,0.0,E,,*2C
$HCHDG,320.4,0.0,E,,*2C
$GPRMC,164622.4,A,4715.63019,N,12226.25267,W,004.81,336.1,110813,016.5,E,A*2F
$PGRME,3.0,M,3.0,M,4.3,M*29
$HCHDG,320.4,0.0,E,,*2C
$YXXDR,A,6.1,D,PTCH,A,4.0,D,ROLL*5E
$GPRMC,164622.6,A,4715.63051,N,12226.25284,W,004.81,336.6,110813,016.5,E,A*2B
$PGRME,3.0,M,3.0,M,4.3,M*29
$HCHDG,320.5,0.0,E,,*2D
$HCHDG,320.5,0.0,E,,*2D
$HCHDG,320.6,0.0,E,,*2E
$GPRMC,164622.8,A,4715.63080,N,12226.25302,W,004.80,336.9,110813,016.5,E,A*28
$PGRME,3.0,M,3.0,M,4.3,M*29
$HCHDG,320.6,0.0,E,,*2E
$HCHDG,320.7,0.0,E,,*2F
$GPRMC,164623.0,A,4715.63101,N,12226.25314,W,004.76,336.8,110813,016.5,E,A*26
$PGRME,3.0,M,3.0,M,4.3,M*29
$YXXDR,A,5.9,D,PTCH,A,4.3,D,ROLL*56
$HCHDG,320.4,0.0,E,,*2C
$HCHDG,320.6,0.0,E,,*2E
$GPRMC,164623.2,A,4715.63126,N,12226.25327,W,004.76,336.5,110813,016.5,E,A*2C
$GPRMB,A,-1.14,L,,Shil,4741.0830,N,12224.5670,W,25.5,3,4.28,V*2C
$PTAK,FFP1,HEEL,@*07
$PGRME,3.0,M,3.0,M,4.3,M*29
$HCHDG,320.8,0.0,E,,*20
$HCHDG,320.9,0.0,E,,*21
$GPRMC,164623.4,A,4715.63150,N,12226.25339,W,004.75,336.3,110813,016.5,E,A*21
$PGRME,3.0,M,3.0,M,4.3,M*29
$HCHDG,320.8,0.0,E,,*20
$YXXDR,A,6.6,D,PTCH,A,4.6,D,ROLL*5F
$PTAK,FFD1,4.6*57
$GPRMC,164623.6,A,4715.63173,N,12226.25354,W,004.77,336.8,110813,016.5,E,A*20
$HCHDG,320.8,0.0,E,,*20
$PGRME,3.0,M,3.0,M,4.3,M*29
$HCHDG,320.9,0.0,E,,*21
$HCHDG,320.8,0.0,E,,*20
$GPRMC,164623.8,A,4715.63196,N,12226.25365,W,004.79,336.2,110813,016.5,E,A*23
$PGRME,3.0,M,3.0,M,4.3,M*29
$HCHDG,320.9,0.0,E,,*21
$HCHDG,320.9,0.0,E,,*21
$GPRMC,164624.0,A,4715.63225,N,12226.25371,W,004.80,336.4,110813,016.5,E,A*22
$PGRME,3.0,M,3.0,M,4.3,M*29
$YXXDR,A,6.4,D,PTCH,A,4.7,D,ROLL*5C
$HCHDG,320.9,0.0,E,,*21
$HCHDG,321.0,0.0,E,,*29
$GPRMC,164624.2,A,4715.63252,N,12226.25375,W,004.79,336.7,110813,016.5,E,A*21
$GPRMB,A,-1.14,L,,Shil,4741.0830,N,12224.5670,W,25.5,3,4.31,V*24
$PGRME,3.0,M,3.0,M,4.3,M*29
$HCHDG,320.9,0.0,E,,*21
$HCHDG,320.9,0.0,E,,*21
$GPRMC,164624.4,A,4715.63273,N,12226.25398,W,004.78,337.1,110813,016.5,E,A*21
$PGRME,3.0,M,3.0,M,4.3,M*29
$HCHDG,320.8,0.0,E,,*20
$YXXDR,A,6.2,D,PTCH,A,4.8,D,ROLL*55
$GPRMC,164624.6,A,4715.63291,N,12226.25414,W,004.77,335.9,110813,016.5,E,A*29
$HCHDG,320.7,0.0,E,,*2F
$PGRME,3.0,M,3.0,M,4.3,M*29
$HCHDG,320.9,0.0,E,,*21
$HCHDG,321.0,0.0,E,,*29
$GPRMC,164624.8,A,4715.63318,N,12226.25416,W,004.78,337.1,110813,016.5,E,A*20
$PGRME,3.0,M,3.0,M,4.3,M*29
$HCHDG,321.0,0.0,E,,*29
$HCHDG,320.8,0.0,E,,*20
$GPRMC,164625.0,A,4715.63345,N,12226.25433,W,004.78,336.6,110813,016.5,E,A*20
$PGRME,3.0,M,3.0,M,4.3,M*29
$YXXDR,A,6.2,D,PTCH,A,4.8,D,ROLL*55
$PTAK,FFD1,4.8*59
$HCHDG,321.1,0.0,E,,*28
$HCHDG,321.1,0.0,E,,*28
$GPRMC,164625.2,A,4715.63368,N,12226.25442,W,004.78,336.8,110813,016.5,E,A*25
$PGRME,3.0,M,3.0,M,4.3,M*29
$HCHDG,321.1,0.0,E,,*28
$HCHDG,321.1,0.0,E,,*28
$GPRMC,164625.4,A,4715.63390,N,12226.25455,W,004.76,337.3,110813,016.5,E,A*26
$GPRMB,A,-1.14,L,,Shil,4741.0830,N,12224.5670,W,25.5,3,4.30,V*25
$PGRME,3.0,M,3.0,M,4.3,M*29
$HCHDG,321.0,0.0,E,,*29
$YXXDR,A,6.3,D,PTCH,A,4.8,D,ROLL*54
$GPRMC,164625.6,A,4715.63416,N,12226.25471,W,004.75,336.4,110813,016.5,E,A*2E
$HCHDG,321.2,0.0,E,,*2B
$PGRME,3.0,M,3.0,M,4.3,M*29
$HCHDG,321.2,0.0,E,,*2B
$HCHDG,321.2,0.0,E,,*2B
$GPRMC,164625.8,A,4715.63447,N,12226.25501,W,004.75,336.7,110813,016.5,E,A*21
$PGRME,3.0,M,3.0,M,4.3,M*29
$HCHDG,321.3,0.0,E,,*2A
$HCHDG,321.3,0.0,E,,*2A
$GPRMC,164626.0,A,4715.63475,N,12226.25522,W,004.77,337.0,110813,016.5,E,A*2E
$PGRME,3.0,M,3.0,M,4.3,M*29
$YXXDR,A,6.2,D,PTCH,A,4.8,D,ROLL*55
$PTAK,FFD1,4.8*59
$HCHDG,321.3,0.0,E,,*2A
$HCHDG,321.2,0.0,E,,*2B
$GPRMC,164626.2,A,4715.63498,N,12226.25546,W,004.79,336.9,110813,016.5,E,A*2B
$PGRME,3.0,M,3.0,M,4.3,M*29
$HCHDG,321.3,0.0,E,,*2A
$HCHDG,321.4,0.0,E,,*2D
$GPRMC,164626.4,A,4715.63518,N,12226.25561,W,004.79,337.7,110813,016.5,E,A*2E
$PGRME,3.0,M,3.0,M,4.3,M*29
$HCHDG,321.4,0.0,E,,*2D
$YXXDR,A,6.2,D,PTCH,A,4.5,D,ROLL*58
$GPRMC,164626.6,A,4715.63543,N,12226.25572,W,004.77,337.4,110813,016.5,E,A*2D
$GPRMB,A,-1.14,L,,Shil,4741.0830,N,12224.5670,W,25.5,3,4.32,V*27
$HCHDG,321.4,0.0,E,,*2D
$PGRME,3.0,M,3.0,M,4.3,M*29
$HCHDG,321.6,0.0,E,,*2F
$HCHDG,321.7,0.0,E,,*2E
$GPRMC,164626.8,A,4715.63563,N,12226.25577,W,004.77,336.8,110813,016.5,E,A*29
$PGRME,3.0,M,3.0,M,4.3,M*29
$HCHDG,321.6,0.0,E,,*2F
$HCHDG,321.6,0.0,E,,*2F
$GPRMC,164627.0,A,4715.63586,N,12226.25587,W,004.75,337.0,110813,016.5,E,A*2F
$PGRME,3.0,M,3.0,M,4.3,M*29
$YXXDR,A,6.4,D,PTCH,A,4.7,D,ROLL*5C
$PTAK,FFD1,4.7*56
$HCHDG,321.8,0.0,E,,*21
$HCHDG,321.9,0.0,E,,*20
$GPRMC,164627.2,A,4715.63603,N,12226.25592,W,004.77,336.2,110813,016.5,E,A*26
$PTAK,FFP1,HEEL,@*07
$PGRME,3.0,M,3.0,M,4.3,M*29
$HCHDG,321.8,0.0,E,,*21
$HCHDG,321.6,0.0,E,,*2F
$GPRMC,164627.4,A,4715.63624,N,12226.25608,W,004.78,337.0,110813,016.5,E,A*29
$PGRME,3.0,M,3.0,M,4.3,M*29
$HCHDG,321.7,0.0,E,,*2E
$YXXDR,A,6.2,D,PTCH,A,4.3,D,ROLL*5E
$GPRMC,164627.6,A,4715.63644,N,12226.25631,W,004.80,336.5,110813,016.5,E,A*24
$GPRMB,A,-1.14,L,,Shil,4741.0830,N,12224.5670,W,25.5,3,4.31,V*24
$PGRME,3.0,M,3.0,M,4.3,M*29
$HCHDG,321.7,0.0,E,,*2E
$HCHDG,321.7,0.0,E,,*2E
$HCHDG,321.8,0.0,E,,*21
$GPRMC,164627.8,A,4715.63669,N,12226.25647,W,004.79,337.7,110813,016.5,E,A*21
$PGRME,3.0,M,3.0,M,4.3,M*29
$HCHDG,321.9,0.0,E,,*20
$HCHDG,322.0,0.0,E,,*2A
$GPRMC,164628.0,A,4715.63692,N,12226.25662,W,004.79,337.8,110813,016.5,E,A*2A
$PGRME,3.0,M,3.0,M,4.3,M*29
$YXXDR,A,6.2,D,PTCH,A,3.9,D,ROLL*53
$HCHDG,321.6,0.0,E,,*2F
$HCHDG,321.9,0.0,E,,*20
$GPRMC,164628.2,A,4715.63716,N,12226.25685,W,004.77,337.7,110813,016.5,E,A*2D
$PGRME,3.0,M,3.0,M,4.3,M*29
$HCHDG,321.7,0.0,E,,*2E
$HCHDG,321.8,0.0,E,,*21
$GPRMC,164628.4,A,4715.63739,N,12226.25706,W,004.77,336.9,110813,016.5,E,A*23
$PGRME,3.0,M,3.0,M,4.3,M*29
$HCHDG,321.9,0.0,E,,*20
$YXXDR,A,6.5,D,PTCH,A,4.2,D,ROLL*58
$PTAK,FFD1,4.2*53
$GPRMC,164628.6,A,4715.63761,N,12226.25717,W,004.77,337.8,110813,016.5,E,A*2C
$HCHDG,321.9,0.0,E,,*20
$PGRME,3.0,M,3.0,M,4.3,M*29
$HCHDG,322.0,0.0,E,,*2A
$HCHDG,322.2,0.0,E,,*28
$GPRMC,164628.8,A,4715.63787,N,12226.25729,W,004.78,337.2,110813,016.5,E,A*22
$GPRMB,A,-1.14,L,,Shil,4741.0830,N,12224.5670,W,25.5,3,4.32,V*27
$PGRME,3.0,M,3.0,M,4.3,M*29
$HCHDG,322.1,0.0,E,,*2B
$HCHDG,322.2,0.0,E,,*28
$GPRMC,164629.0,A,4715.63812,N,12226.25751,W,004.79,337.5,110813,016.5,E,A*21
$PGRME,3.0,M,3.0,M,4.3,M*29
$YXXDR,A,6.3,D,PTCH,A,4.2,D,ROLL*5E
$HCHDG,322.2,0.0,E,,*28
$HCHDG,322.1,0.0,E,,*2B
$GPRMC,164629.2,A,4715.63834,N,12226.25763,W,004.80,338.0,110813,016.5,E,A*2A
$PGRME,3.0,M,3.0,M,4.3,M*29
$HCHDG,322.2,0.0,E,,*28
$HCHDG,322.1,0.0,E,,*2B
$GPRMC,164629.4,A,4715.63858,N,12226.25772,W,004.78,338.1,110813,016.5,E,A*20
$PGRME,3.0,M,3.0,M,4.3,M*29
$HCHDG,322.1,0.0,E,,*2B
$YXXDR,A,6.2,D,PTCH,A,3.9,D,ROLL*53
$GPRMC,164629.6,A,4715.63879,N,12226.25786,W,004.78,338.3,110813,016.5,E,A*28
$HCHDG,322.1,0.0,E,,*2B
$PGRME,3.0,M,3.0,M,4.3,M*29
$HCHDG,322.0,0.0,E,,*2A
$HCHDG,322.1,0.0,E,,*2B
$GPRMC,164629.8,A,4715.63904,N,12226.25804,W,004.75,338.5,110813,016.5,E,A*23
$GPRMB,A,-1.14,L,,Shil,4741.0830,N,12224.5670,W,25.5,3,4.34,V*21
$PGRME,3.0,M,3.0,M,4.3,M*29
$HCHDG,322.1,0.0,E,,*2B
$HCHDG,322.0,0.0,E,,*2A
$GPRMC,164630.0,A,4715.63935,N,12226.25824,W,004.76,338.7,110813,016.5,E,A*22
$PGRME,3.0,M,3.0,M,4.3,M*29
$YXXDR,A,6.2,D,PTCH,A,4.1,D,ROLL*5C
$PTAK,FFD1,4.1*50
$HCHDG,322.1,0.0,E,,*2B
$HCHDG,322.2,0.0,E,,*28
$GPRMC,164630.2,A,4715.63955,N,12226.25830,W,004.76,338.6,110813,016.5,E,A*22
$PGRME,3.0,M,3.0,M,4.3,M*29
$HCHDG,322.6,0.0,E,,*2C
$HCHDG,322.7,0.0,E,,*2D
$GPRMC,164630.4,A,4715.63981,N,12226.25842,W,004.77,338.6,110813,016.5,E,A*29
$PGRME,3.0,M,3.0,M,4.3,M*29
$HCHDG,322.7,0.0,E,,*2D
$YXXDR,A,6.5,D,PTCH,A,4.2,D,ROLL*58
$GPRMC,164630.6,A,4715.64002,N,12226.25867,W,004.78,338.9,110813,016.5,E,A*29
$PGRME,3.0,M,3.0,M,4.3,M*29
$HCHDG,322.7,0.0,E,,*2D
$HCHDG,322.7,0.0,E,,*2D
$HCHDG,322.7,0.0,E,,*2D
$GPRMC,164630.8,A,4715.64031,N,12226.25878,W,004.78,339.5,110813,016.5,E,A*24
$PGRME,3.0,M,3.0,M,4.3,M*29
$HCHDG,322.6,0.0,E,,*2C
$HCHDG,322.6,0.0,E,,*2C
$GPRMC,164631.0,A,4715.64056,N,12226.25878,W,004.77,339.0,110813,016.5,E,A*26
$GPRMB,A,-1.14,L,,Shil,4741.0830,N,12224.5670,W,25.5,3,4.37,V*22
$PGRME,3.0,M,3.0,M,4.3,M*29
$YXXDR,A,6.2,D,PTCH,A,4.1,D,ROLL*5C
$PTAK,FFD1,4.1*50
$HCHDG,322.4,0.0,E,,*2E
$HCHDG,322.4,0.0,E,,*2E
$PTAK,FFP1,HEEL,@*07
$GPRMC,164631.2,A,4715.64081,N,12226.25889,W,004.77,338.9,110813,016.5,E,A*28
$PGRME,3.0,M,3.0,M,4.3,M*29
$HCHDG,322.6,0.0,E,,*2C
$HCHDG,322.7,0.0,E,,*2D
$GPRMC,164631.4,A,4715.64105,N,12226.25906,W,004.78,338.6,110813,016.5,E,A*25
$PGRME,3.0,M,3.0,M,4.3,M*29
$HCHDG,322.5,0.0,E,,*2F
$YXXDR,A,6.1,D,PTCH,A,4.6,D,ROLL*58
$GPRMC,164631.6,A,4715.64133,N,12226.25912,W,004.79,339.0,110813,016.5,E,A*21
$HCHDG,322.7,0.0,E,,*2D
$PGRME,3.0,M,3.0,M,4.3,M*29
$HCHDG,322.7,0.0,E,,*2D
$HCHDG,322.6,0.0,E,,*2C
$GPRMC,164631.8,A,4715.64162,N,12226.25927,W,004.80,338.9,110813,016.5,E,A*23
$PGRME,3.0,M,3.0,M,4.3,M*29
$HCHDG,322.5,0.0,E,,*2F
$HCHDG,322.5,0.0,E,,*2F
$GPRMC,164632.0,A,4715.64186,N,12226.25941,W,004.79,338.3,110813,016.5,E,A*2E
$GPRMB,A,-1.14,L,,Shil,4741.0830,N,12224.5670,W,25.5,3,4.37,V*22
$PGRME,3.0,M,3.0,M,4.3,M*29
$YXXDR,A,6.2,D,PTCH,A,4.7,D,ROLL*5A
$PTAK,FFD1,4.7*56
$HCHDG,322.7,0.0,E,,*2D
$HCHDG,322.5,0.0,E,,*2F
$GPRMC,164632.2,A,4715.64216,N,12226.25959,W,004.78,338.8,110813,016.5,E,A*25
$PGRME,3.0,M,3.0,M,4.3,M*29
$HCHDG,322.4,0.0,E,,*2E
$HCHDG,322.4,0.0,E,,*2E
$GPRMC,164632.4,A,4715.64242,N,12226.25981,W,004.76,339.1,110813,016.5,E,A*21
$PGRME,3.0,M,3.0,M,4.3,M*29
$HCHDG,322.1,0.0,E,,*2B
$YXXDR,A,6.0,D,PTCH,A,4.6,D,ROLL*59
$GPRMC,164632.6,A,4715.64273,N,12226.25994,W,004.76,338.9,110813,016.5,E,A*2C
$HCHDG,322.1,0.0,E,,*2B
$PGRME,3.0,M,3.0,M,4.3,M*29
$HCHDG,322.1,0.0,E,,*2B
$HCHDG,322.2,0.0,E,,*28
$GPRMC,164632.8,A,4715.64302,N,12226.26003,W,004.77,338.4,110813,016.5,E,A*2D
$PGRME,3.0,M,3.0,M,4.3,M*29
$HCHDG,322.3,0.0,E,,*29
$HCHDG,322.2,0.0,E,,*28
$GPRMC,164633.0,A,4715.64327,N,12226.26019,W,004.78,338.1,110813,016.5,E,A*22
$PGRME,3.0,M,3.0,M,4.3,M*29
$YXXDR,A,6.0,D,PTCH,A,4.9,D,ROLL*56
$HCHDG,322.4,0.0,E,,*2E
$HCHDG,322.3,0.0,E,,*29
$GPRMC,164633.2,A,4715.64350,N,12226.26029,W,004.80,337.8,110813,016.5,E,A*22
$GPRMB,A,-1.14,L,,Shil,4741.0830,N,12224.5670,W,25.5,3,4.36,V*23
$PGRME,3.0,M,3.0,M,4.3,M*29
$HCHDG,322.4,0.0,E,,*2E
$HCHDG,322.4,0.0,E,,*2E
$GPRMC,164633.4,A,4715.64370,N,12226.26043,W,004.81,337.9,110813,016.5,E,A*2A
$PGRME,3.0,M,3.0,M,4.3,M*29
$HCHDG,322.2,0.0,E,,*28
$YXXDR,A,6.1,D,PTCH,A,5.0,D,ROLL*5F
$PTAK,FFD1,5.0*50
$GPRMC,164633.6,A,4715.64396,N,12226.26061,W,004.80,338.0,110813,016.5,E,A*27
$HCHDG,322.2,0.0,E,,*28
$PGRME,3.0,M,3.0,M,4.3,M*29
$HCHDG,322.2,0.0,E,,*28
$HCHDG,322.3,0.0,E,,*29
$GPRMC,164633.8,A,4715.64421,N,12226.26077,W,004.79,337.6,110813,016.5,E,A*2A
$PGRME,3.0,M,3.0,M,4.3,M*29
$HCHDG,322.3,0.0,E,,*29
$HCHDG,322.3,0.0,E,,*29
$GPRMC,164634.0,A,4715.64447,N,12226.26087,W,004.77,337.9,110813,016.5,E,A*2B
$PGRME,3.0,M,3.0,M,4.3,M*29
$YXXDR,A,6.3,D,PTCH,A,4.7,D,ROLL*5B
$HCHDG,322.3,0.0,E,,*29
$HCHDG,322.3,0.0,E,,*29
$GPRMC,164634.2,A,4715.64473,N,12226.26100,W,004.76,337.6,110813,016.5,E,A*2E
$GPRMB,A,-1.14,L,,Shil,4741.0830,N,12224.5670,W,25.5,3,4.32,V*27
$PGRME,3.0,M,3.0,M,4.3,M*29
$HCHDG,322.3,0.0,E,,*29
$HCHDG,322.3,0.0,E,,*29
$GPRMC,164634.4,A,4715.64502,N,12226.26115,W,004.77,337.6,110813,016.5,E,A*2A
$PGRME,3.0,M,3.0,M,4.3,M*29
$HCHDG,322.3,0.0,E,,*29
$YXXDR,A,6.3,D,PTCH,A,5.0,D,ROLL*5D
$GPRMC,164634.6,A,4715.64528,N,12226.26125,W,004.78,337.5,110813,016.5,E,A*2F
$HCHDG,322.3,0.0,E,,*29
$PGRME,3.0,M,3.0,M,4.3,M*29
$HCHDG,322.3,0.0,E,,*29
$HCHDG,322.3,0.0,E,,*29
$GPRMC,164634.8,A,4715.64553,N,12226.26128,W,004.78,337.9,110813,016.5,E,A*2C
$PGRME,3.0,M,3.0,M,4.3,M*29
$HCHDG,322.3,0.0,E,,*29
$HCHDG,322.4,0.0,E,,*2E
$GPRMC,164635.0,A,4715.64579,N,12226.26140,W,004.79,337.6,110813,016.5,E,A*2D
$PGRME,3.0,M,3.0,M,4.3,M*29
$YXXDR,A,6.2,D,PTCH,A,4.6,D,ROLL*5B
$PTAK,FFD1,4.6*57
$HCHDG,322.4,0.0,E,,*2E
$HCHDG,322.6,0.0,E,,*2C
$GPRMC,164635.2,A,4715.64602,N,12226.26149,W,004.81,337.7,110813,016.5,E,A*2F
$GPRMB,A,-1.14,L,,Shil,4741.0830,N,12224.5670,W,25.5,3,4.36,V*23
$PGRME,3.0,M,3.0,M,4.3,M*29
$HCHDG,322.6,0.0,E,,*2C
$PTAK,FFP1,HEEL,@*07
$HCHDG,322.6,0.0,E,,*2C
$GPRMC,164635.4,A,4715.64625,N,12226.26167,W,004.80,337.2,110813,016.5,E,A*24
$PGRME,3.0,M,3.0,M,4.3,M*29
$HCHDG,322.6,0.0,E,,*2C
$YXXDR,A,6.3,D,PTCH,A,4.7,D,ROLL*5B
$GPRMC,164635.6,A,4715.64649,N,12226.26185,W,004.79,338.0,110813,016.5,E,A*2B
$HCHDG,322.6,0.0,E,,*2C
$PGRME,3.0,M,3.0,M,4.3,M*29
$HCHDG,322.4,0.0,E,,*2E
$HCHDG,322.4,0.0,E,,*2E
$GPRMC,164635.8,A,4715.64674,N,12226.26200,W,004.79,338.2,110813,016.5,E,A*27
$PGRME,3.0,M,3.0,M,4.3,M*29
$HCHDG,322.4,0.0,E,,*2E
$HCHDG,322.4,0.0,E,,*2E
$GPRMC,164636.0,A,4715.64704,N,12226.26213,W,004.79,337.9,110813,016.5,E,A*2C
$PGRME,3.0,M,3.0,M,4.3,M*29
$YXXDR,A,6.1,D,PTCH,A,4.6,D,ROLL*58
$HCHDG,322.5,0.0,E,,*2F
$HCHDG,322.5,0.0,E,,*2F
$GPRMC,164636.2,A,4715.64732,N,12226.26228,W,004.78,338.1,110813,016.5,E,A*25
$PGRME,3.0,M,3.0,M,4.3,M*29
$HCHDG,322.5,0.0,E,,*2F
$HCHDG,322.4,0.0,E,,*2E
$GPRMC,164636.4,A,4715.64758,N,12226.26246,W,004.77,338.0,110813,016.5,E,A*29
$GPRMB,A,-1.14,L,,Shil,4741.0830,N,12224.5670,W,25.5,3,4.34,V*21
$PGRME,3.0,M,3.0,M,4.3,M*29
$HCHDG,322.3,0.0,E,,*29
$YXXDR,A,6.3,D,PTCH,A,4.7,D,ROLL*5B
$PTAK,FFD1,4.7*56
$GPRMC,164636.6,A,4715.64782,N,12226.26263,W,004.78,338.1,110813,016.5,E,A*25
$HCHDG,322.4,0.0,E,,*2E
$PGRME,3.0,M,3.0,M,4.3,M*29
$HCHDG,322.4,0.0,E,,*2E
$HCHDG,322.4,0.0,E,,*2E
$GPRMC,164636.8,A,4715.64806,N,12226.26276,W,004.78,337.8,110813,016.5,E,A*2A
$PGRME,3.0,M,3.0,M,4.3,M*29
$HCHDG,322.4,0.0,E,,*2E
$HCHDG,322.4,0.0,E,,*2E
$GPRMC,164637.0,A,4715.64825,N,12226.26298,W,004.79,337.7,110813,016.5,E,A*2C
$PGRME,3.0,M,3.0,M,4.3,M*29
$YXXDR,A,6.0,D,PTCH,A,5.0,D,ROLL*5E
$HCHDG,322.4,0.0,E,,*2E
$HCHDG,322.6,0.0,E,,*2C
$GPRMC,164637.2,A,4715.64851,N,12226.26319,W,004.81,338.7,110813,016.5,E,A*2D
$PGRME,3.0,M,3.0,M,4.3,M*29
$HCHDG,322.6,0.0,E,,*2C
$HCHDG,322.8,0.0,E,,*22
$GPRMC,164637.4,A,4715.64875,N,12226.26336,W,004.83,338.3,110813,016.5,E,A*26
$PGRME,3.0,M,3.0,M,4.3,M*29
$HCHDG,322.8,0.0,E,,*22
$YXXDR,A,6.4,D,PTCH,A,5.1,D,ROLL*5B
$GPRMC,164637.6,A,4715.64894,N,12226.26344,W,004.83,338.5,110813,016.5,E,A*28
$GPRMB,A,-1.14,L,,Shil,4741.0830,N,12224.5670,W,25.5,3,4.41,V*23
$PGRME,3.0,M,3.0,M,4.3,M*29
$HCHDG,322.7,0.0,E,,*2D
$HCHDG,322.6,0.0,E,,*2C
$HCHDG,322.4,0.0,E,,*2E
$GPRMC,164637.8,A,4715.64917,N,12226.26370,W,004.81,338.6,110813,016.5,E,A*2A
$PGRME,3.0,M,3.0,M,4.3,M*29
$HCHDG,322.6,0.0,E,,*2C
$HCHDG,322.6,0.0,E,,*2C
$GPRMC,164638.0,A,4715.64950,N,12226.26389,W,004.82,338.0,110813,016.5,E,A*2D
$PGRME,3.0,M,3.0,M,4.3,M*29
$YXXDR,A,6.1,D,PTCH,A,5.3,D,ROLL*5C
$PTAK,FFD1,5.3*53
$HCHDG,322.7,0.0,E,,*2D
$HCHDG,322.6,0.0,E,,*2C
$GPRMC,164638.2,A,4715.64983,N,12226.26389,W,004.82,338.1,110813,016.5,E,A*20
$PGRME,3.0,M,3.0,M,4.3,M*29
$HCHDG,322.7,0.0,E,,*2D
$HCHDG,322.7,0.0,E,,*2D
$GPRMC,164638.4,A,4715.65011,N,12226.26396,W,004.80,338.2,110813,016.5,E,A*2A
$PGRME,3.0,M,3.0,M,4.3,M*29
$HCHDG,322.5,0.0,E,,*2F
$YXXDR,A,6.4,D,PTCH,A,5.5,D,ROLL*5F
$GPRMC,164638.6,A,4715.65037,N,12226.26418,W,004.82,338.6,110813,016.5,E,A*2B
$HCHDG,322.8,0.0,E,,*22
$PGRME,3.0,M,3.0,M,4.3,M*29
$HCHDG,322.7,0.0,E,,*2D
$HCHDG,322.5,0.0,E,,*2F
$GPRMC,164638.8,A,4715.65059,N,12226.26426,W,004.83,338.2,110813,016.5,E,A*25
$GPRMB,A,-1.14,L,,Shil,4741.0830,N,12224.5670,W,25.5,3,4.40,V*22
$PGRME,3.0,M,3.0,M,4.3,M*29
$HCHDG,322.5,0.0,E,,*2F
$HCHDG,322.5,0.0,E,,*2F
$GPRMC,164639.0,A,4715.65085,N,12226.26434,W,004.82,338.4,110813,016.5,E,A*29
$PGRME,3.0,M,3.0,M,4.3,M*29
$YXXDR,A,6.3,D,PTCH,A,5.5,D,ROLL*58
$HCHDG,322.6,0.0,E,,*2C
$HCHDG,322.9,0.0,E,,*23
$GPRMC,164639.2,A,4715.65105,N,12226.26453,W,004.79,339.2,110813,016.5,E,A*20
$PGRME,3.0,M,3.0,M,4.3,M*29
$HCHDG,322.9,0.0,E,,*23
$HCHDG,322.9,0.0,E,,*23
$GPRMC,164639.4,A,4715.65134,N,12226.26470,W,004.78,338.1,110813,016.5,E,A*26
$PTAK,FFP1,HEEL,@*07
$PGRME,3.0,M,3.0,M,4.3,M*29
$HCHDG,322.9,0.0,E,,*23
$YXXDR,A,6.4,D,PTCH,A,5.5,D,ROLL*5F
$PTAK,FFD1,5.5*55
$GPRMC,164639.6,A,4715.65161,N,12226.26484,W,004.76,338.1,110813,016.5,E,A*21
$PGRME,3.0,M,3.0,M,4.3,M*29
$HCHDG,322.7,0.0,E,,*2D
$HCHDG,322.7,0.0,E,,*2D
$HCHDG,322.7,0.0,E,,*2D
$GPRMC,164639.8,A,4715.65185,N,12226.26506,W,004.78,338.4,110813,016.5,E,A*25
$GPRMB,A,-1.14,L,,Shil,4741.0830,N,12224.5670,W,25.5,3,4.36,V*23
$PGRME,3.0,M,3.0,M,4.3,M*29
$HCHDG,322.7,0.0,E,,*2D
$HCHDG,322.8,0.0,E,,*22
$GPRMC,164640.0,A,4715.65205,N,12226.26527,W,004.80,338.8,110813,016.5,E,A*20
$PGRME,3.0,M,3.0,M,4.3,M*29
$YXXDR,A,6.1,D,PTCH,A,5.3,D,ROLL*5C
$HCHDG,322.8,0.0,E,,*22
$HCHDG,322.7,0.0,E,,*2D
$GPRMC,164640.2,A,4715.65228,N,12226.26547,W,004.81,338.7,110813,016.5,E,A*25
$PGRME,3.0,M,3.0,M,4.3,M*29
$HCHDG,322.7,0.0,E,,*2D
$HCHDG,322.7,0.0,E,,*2D
$GPRMC,164640.4,A,4715.65255,N,12226.26565,W,004.81,338.5,110813,016.5,E,A*2B
$PGRME,3.0,M,3.0,M,4.3,M*29
$HCHDG,322.7,0.0,E,,*2D
$YXXDR,A,6.3,D,PTCH,A,5.1,D,ROLL*5C
$GPRMC,164640.6,A,4715.65278,N,12226.26579,W,004.81,338.5,110813,016.5,E,A*2B
$PGRME,3.0,M,3.0,M,4.3,M*29
$HCHDG,322.8,0.0,E,,*22
$HCHDG,322.8,0.0,E,,*22
$HCHDG,323.0,0.0,E,,*2B
$GPRMC,164640.8,A,4715.65302,N,12226.26591,W,004.79,339.3,110813,016.5,E,A*2F
$PGRME,3.0,M,3.0,M,4.3,M*29
$HCHDG,323.0,0.0,E,,*2B
$HCHDG,323.0,0.0,E,,*2B
$GPRMC,164641.0,A,4715.65328,N,12226.26602,W,004.78,339.0,110813,016.5,E,A*25
$GPRMB,A,-1.14,L,,Shil,4741.0830,N,12224.5670,W,25.5,3,4.38,V*2D
$PGRME,3.0,M,3.0,M,4.3,M*29
$YXXDR,A,6.5,D,PTCH,A,5.1,D,ROLL*5A
$PTAK,FFD1,5.1*51
$HCHDG,323.1,0.0,E,,*2A
$HCHDG,322.8,0.0,E,,*22
$GPRMC,164641.2,A,4715.65353,N,12226.26601,W,004.78,339.3,110813,016.5,E,A*2B
$PGRME,3.0,M,3.0,M,4.3,M*29
$HCHDG,322.7,0.0,E,,*2D
$HCHDG,322.8,0.0,E,,*22
$GPRMC,164641.4,A,4715.65378,N,12226.26614,W,004.78,338.8,110813,016.5,E,A*2A
$PGRME,3.0,M,3.0,M,4.3,M*29
$HCHDG,323.0,0.0,E,,*2B
