$HCHDG,81.1,0.0,E,,*11
$IIGLL,4739.948,N,12223.851,W,225900,A,A*4E
$IIMTW,+18.0,C*31
$YXXDR,A,5.6,D,PTCH,A,1.7,D,ROLL*58
$GPRMC,230000.6,A,4739.94874,N,12223.85156,W,000.01,095.7,040813,016.6,E,D*20
$PGRME,2.4,M,2.4,M,3.4,M*29
$HCHDG,81.1,0.0,E,,*11
$HCHDG,81.1,0.0,E,,*11
$GPRMC,230000.8,A,4739.94874,N,12223.85156,W,000.02,095.7,040813,016.6,E,D*2D
$GPRMB,A,0.00,L,Shil,Shil,4741.0830,N,12224.5670,W,1.2,337,-0.01,V*2C
$PGRME,2.4,M,2.4,M,3.4,M*29
$HCHDG,81.1,0.0,E,,*11
$HCHDG,80.9,0.0,E,,*18
$GPRMC,230001.0,A,4739.94874,N,12223.85156,W,000.01,095.7,040813,016.6,E,D*27
$PGRME,2.4,M,2.4,M,3.4,M*29
$HCHDG,81.0,0.0,E,,*10
$IIMWV,197,R,06.0,N,A*1A
$YXXDR,A,5.8,D,PTCH,A,2.3,D,ROLL*51
$IIMWV,193,T,05.7,N,A*1C
$HCHDG,81.0,0.0,E,,*10
$IIRMB,A,0.00,L,,Shil,,,,,001.2,337,,V,A*7D
$GPRMC,230001.2,A,4739.94874,N,12223.85156,W,000.02,095.7,040813,016.6,E,D*26
$PGRME,2.4,M,2.4,M,3.4,M*29
$HCHDG,81.0,0.0,E,,*10
$HCHDG,81.2,0.0,E,,*12
$IIRMC,225900,A,4739.948,N,12223.851,W,00.0,095,040813,16,E,A*17
$IIVHW,,,,,00.0,N,,*19
$GPRMC,230001.4,A,4739.94874,N,12223.85156,W,000.01,095.7,040813,016.6,E,D*23
$PGRME,2.4,M,2.4,M,3.4,M*29
$HCHDG,81.2,0.0,E,,*12
$IIVLW,02057,N,023.4,N*56
$IIVWR,163,L,06.0,N,,,,*7D
$HCHDG,81.2,0.0,E,,*12
$IIDPT,011.9,-1.0,*49
$YXXDR,A,5.7,D,PTCH,A,2.0,D,ROLL*5D
$PTAK,FFD1,2.0*57
$GPRMC,230001.6,A,4739.94874,N,12223.85156,W,000.02,095.7,040813,016.6,E,D*22
$PGRME,2.4,M,2.4,M,3.4,M*29
$HCHDG,81.2,0.0,E,,*12
$HCHDG,81.2,0.0,E,,*12
$GPRMC,230001.8,A,4739.94875,N,12223.85155,W,000.02,095.7,040813,016.6,E,D*2E
$GPRMB,A,0.00,L,Shil,Shil,4741.0830,N,12224.5670,W,1.2,337,-0.01,V*2C
$PGRME,2.4,M,2.4,M,3.4,M*29
$HCHDG,81.2,0.0,E,,*12
$HCHDG,81.2,0.0,E,,*12
$GPRMC,230002.0,A,4739.94875,N,12223.85156,W,000.01,095.7,040813,016.6,E,D*25
$PGRME,2.4,M,2.4,M,3.4,M*29
$HCHDG,81.2,0.0,E,,*12
$IIGLL,4739.948,N,12223.851,W,230000,A,A*43
$YXXDR,A,5.8,D,PTCH,A,1.4,D,ROLL*55
$IIMTW,+18.0,C*31
$HCHDG,81.1,0.0,E,,*11
$IIMWV,200,R,05.9,N,A*1D
$GPRMC,230002.2,A,4739.94875,N,12223.85155,W,000.01,095.7,040813,016.6,E,D*24
$PGRME,2.4,M,2.4,M,3.4,M*29
$HCHDG,81.0,0.0,E,,*10
$IIMWV,197,T,06.0,N,A*1C
$HCHDG,81.0,0.0,E,,*10
$IIRMB,A,0.00,L,,Shil,,,,,001.2,337,,V,A*7D
$GPRMC,230002.4,A,4739.94875,N,12223.85155,W,000.01,095.7,040813,016.6,E,D*22
$PGRME,2.4,M,2.4,M,3.4,M*29
$HCHDG,81.0,0.0,E,,*10
$IIRMC,230000,A,4739.948,N,12223.851,W,00.0,095,040813,16,E,A*1A
$IIVHW,,,,,00.0,N,,*19
$HCHDG,80.9,0.0,E,,*18
$IIVLW,02057,N,023.4,N*56
$YXXDR,A,5.8,D,PTCH,A,1.7,D,ROLL*56
$PTAK,FFD1,1.7*53
$GPRMC,230002.6,A,4739.94875,N,12223.85155,W,000.01,095.7,040813,016.6,E,D*20
$PGRME,2.4,M,2.4,M,3.4,M*29
$HCHDG,81.0,0.0,E,,*10
$HCHDG,81.0,0.0,E,,*10
$GPRMC,230002.8,A,4739.94875,N,12223.85155,W,000.01,095.7,040813,016.6,E,D*2E
$PGRME,2.4,M,2.4,M,3.4,M*29
$HCHDG,81.0,0.0,E,,*10
$HCHDG,81.0,0.0,E,,*10
$GPRMC,230003.0,A,4739.94876,N,12223.85155,W,000.00,095.7,040813,016.6,E,D*25
$GPRMB,A,0.00,L,Shil,Shil,4741.0830,N,12224.5670,W,1.2,337,-0.00,V*2D
$PGRME,2.4,M,2.4,M,3.4,M*29
$HCHDG,81.0,0.0,E,,*10
$IIVWR,157,L,06.6,N,,,,*7C
$YXXDR,A,5.8,D,PTCH,A,2.3,D,ROLL*51
$IIDPT,011.9,-1.0,*49
$HCHDG,81.0,0.0,E,,*10
$IIGLL,4739.948,N,12223.851,W,230000,A,A*43
$GPRMC,230003.2,A,4739.94876,N,12223.85155,W,000.01,095.7,040813,016.6,E,D*26
$PGRME,2.4,M,2.4,M,3.4,M*29
$HCHDG,81.0,0.0,E,,*10
$IIMTW,+18.0,C*31
$IIMWV,203,R,06.6,N,A*12
$HCHDG,81.1,0.0,E,,*11
$IIMWV,200,T,05.9,N,A*1B
$GPRMC,230003.4,A,4739.94876,N,12223.85155,W,000.01,095.7,040813,016.6,E,D*20
$PGRME,2.4,M,2.4,M,3.4,M*29
$HCHDG,81.1,0.0,E,,*11
$IIRMB,A,0.00,L,,Shil,,,,,001.2,337,,V,A*7D
$HCHDG,81.2,0.0,E,,*12
$IIRMC,230000,A,4739.948,N,12223.851,W,00.0,095,040813,16,E,A*1A
$YXXDR,A,5.9,D,PTCH,A,1.7,D,ROLL*57
$PTAK,FFD1,1.7*53
$GPRMC,230003.6,A,4739.94876,N,12223.85155,W,000.01,095.7,040813,016.6,E,D*22
$PGRME,2.4,M,2.4,M,3.4,M*29
$HCHDG,81.2,0.0,E,,*12
$HCHDG,81.3,0.0,E,,*13
$GPRMC,230003.8,A,4739.94876,N,12223.85155,W,000.01,095.7,040813,016.6,E,D*2C
$PGRME,2.4,M,2.4,M,3.4,M*29
$HCHDG,81.2,0.0,E,,*12
$HCHDG,81.3,0.0,E,,*13
$GPRMC,230004.0,A,4739.94876,N,12223.85155,W,000.01,095.7,040813,016.6,E,D*23
$GPRMB,A,0.00,L,Shil,Shil,4741.0830,N,12224.5670,W,1.2,337,-0.00,V*2D
$PGRME,2.4,M,2.4,M,3.4,M*29
$HCHDG,81.3,0.0,E,,*13
$IIVHW,,,,,00.0,N,,*19
$YXXDR,A,5.8,D,PTCH,A,1.4,D,ROLL*55
$IIVLW,02057,N,023.4,N*56
$HCHDG,81.2,0.0,E,,*12
$IIVWR,155,L,07.1,N,,,,*78
$GPRMC,230004.2,A,4739.94876,N,12223.85155,W,000.00,095.7,040813,016.6,E,D*20
$PGRME,2.4,M,2.4,M,3.4,M*29
$IIDPT,011.9,-1.0,*49
$HCHDG,81.2,0.0,E,,*12
$PTAK,FFP1,HEEL,@*07
$IIGLL,4739.948,N,12223.851,W,230000,A,A*43
$HCHDG,81.4,0.0,E,,*14
$IIMTW,+18.0,C*31
$IIMWV,205,R,07.1,N,A*12
$GPRMC,230004.4,A,4739.94877,N,12223.85155,W,000.01,095.7,040813,016.6,E,D*26
$PGRME,2.4,M,2.4,M,3.4,M*29
$HCHDG,81.3,0.0,E,,*13
$IIMWV,203,T,06.6,N,A*14
$HCHDG,81.3,0.0,E,,*13
$IIRMB,A,0.00,L,,Shil,,,,,001.2,337,,V,A*7D
$YXXDR,A,5.8,D,PTCH,A,1.0,D,ROLL*51
$GPRMC,230004.6,A,4739.94877,N,12223.85155,W,000.01,095.7,040813,016.6,E,D*24
$PGRME,2.4,M,2.4,M,3.4,M*29
$HCHDG,81.2,0.0,E,,*12
$HCHDG,81.2,0.0,E,,*12
$GPRMC,230004.8,A,4739.94877,N,12223.85155,W,000.01,095.7,040813,016.6,E,D*2A
$HCHDG,81.2,0.0,E,,*12
$PGRME,2.4,M,2.4,M,3.4,M*29
$HCHDG,81.2,0.0,E,,*12
$GPRMC,230005.0,A,4739.94877,N,12223.85155,W,000.01,095.7,040813,016.6,E,D*23
$GPRMB,A,0.00,L,Shil,Shil,4741.0830,N,12224.5670,W,1.2,337,-0.00,V*2D
$HCHDG,81.2,0.0,E,,*12
$PGRME,2.4,M,2.4,M,3.4,M*29
$YXXDR,A,5.9,D,PTCH,A,1.4,D,ROLL*54
$PTAK,FFD1,1.4*50
$IIRMC,230000,A,4739.948,N,12223.851,W,00.0,095,040813,16,E,A*1A
$HCHDG,81.2,0.0,E,,*12
$IIVHW,,,,,00.0,N,,*19
$GPRMC,230005.2,A,4739.94877,N,12223.85155,W,000.01,095.7,040813,016.6,E,D*21
$PGRME,2.4,M,2.4,M,3.4,M*29
$HCHDG,81.2,0.0,E,,*12
$IIVLW,02057,N,023.4,N*56
$IIVWR,157,L,06.9,N,,,,*73
$HCHDG,81.3,0.0,E,,*13
$IIDPT,011.9,-1.0,*49
$GPRMC,230005.4,A,4739.94877,N,12223.85155,W,000.01,095.7,040813,016.6,E,D*27
$PGRME,2.4,M,2.4,M,3.4,M*29
$HCHDG,81.3,0.0,E,,*13
$IIGLL,4739.948,N,12223.851,W,230000,A,A*43
$IIMTW,+18.0,C*31
$HCHDG,81.4,0.0,E,,*14
$IIMWV,203,R,06.9,N,A*1D
$IIMWV,205,T,07.1,N,A*14
$YXXDR,A,5.9,D,PTCH,A,1.9,D,ROLL*59
$GPRMC,230005.6,A,4739.94877,N,12223.85155,W,000.00,095.7,040813,016.6,E,D*24
$PGRME,2.4,M,2.4,M,3.4,M*29
$HCHDG,81.4,0.0,E,,*14
$HCHDG,81.4,0.0,E,,*14
$GPRMC,230005.8,A,4739.94877,N,12223.85155,W,000.01,095.7,040813,016.6,E,D*2B
$PGRME,2.4,M,2.4,M,3.4,M*29
$HCHDG,81.6,0.0,E,,*16
$HCHDG,81.6,0.0,E,,*16
$GPRMC,230006.0,A,4739.94877,N,12223.85156,W,000.00,095.7,040813,016.6,E,D*22
$PGRME,2.4,M,2.4,M,3.4,M*29
$HCHDG,81.6,0.0,E,,*16
$YXXDR,A,5.8,D,PTCH,A,1.9,D,ROLL*58
$IIRMB,A,0.00,L,,Shil,,,,,001.2,337,,V,A*7D
$HCHDG,81.7,0.0,E,,*17
$GPRMC,230006.2,A,4739.94877,N,12223.85155,W,000.00,095.7,040813,016.6,E,D*23
$GPRMB,A,0.00,L,Shil,Shil,4741.0830,N,12224.5670,W,1.2,337,-0.00,V*2D
$PGRME,2.4,M,2.4,M,3.4,M*29
$HCHDG,81.6,0.0,E,,*16
$IIRMC,230000,A,4739.948,N,12223.851,W,00.0,095,040813,16,E,A*1A
$IIVHW,,,,,00.0,N,,*19
$HCHDG,81.6,0.0,E,,*16
$IIVLW,02057,N,023.4,N*56
$IIVWR,146,L,06.4,N,,,,*7E
$GPRMC,230006.4,A,4739.94877,N,12223.85155,W,000.01,095.7,040813,016.6,E,D*24
$PGRME,2.4,M,2.4,M,3.4,M*29
$HCHDG,81.6,0.0,E,,*16
$IIDPT,011.9,-1.0,*49
$HCHDG,81.6,0.0,E,,*16
$IIGLL,4739.948,N,12223.851,W,230000,A,A*43
$IIMTW,+18.0,C*31
$YXXDR,A,5.8,D,PTCH,A,1.4,D,ROLL*55
$PTAK,FFD1,1.4*50
$GPRMC,230006.6,A,4739.94877,N,12223.85155,W,000.01,095.7,040813,016.6,E,D*26
$PGRME,2.4,M,2.4,M,3.4,M*29
$HCHDG,81.6,0.0,E,,*16
$HCHDG,81.6,0.0,E,,*16
$GPRMC,230006.8,A,4739.94877,N,12223.85155,W,000.01,095.7,040813,016.6,E,D*28
$PGRME,2.4,M,2.4,M,3.4,M*29
$HCHDG,81.6,0.0,E,,*16
$HCHDG,81.5,0.0,E,,*15
$GPRMC,230007.0,A,4739.94877,N,12223.85155,W,000.01,095.7,040813,016.6,E,D*21
$PGRME,2.4,M,2.4,M,3.4,M*29
$HCHDG,81.4,0.0,E,,*14
$IIMWV,225,R,05.6,N,A*15
$YXXDR,A,5.8,D,PTCH,A,1.2,D,ROLL*53
$IIMWV,214,T,06.4,N,A*10
$HCHDG,81.3,0.0,E,,*13
$IIRMB,A,0.00,L,,Shil,,,,,001.2,337,,V,A*7D
$GPRMC,230007.2,A,4739.94877,N,12223.85155,W,000.01,095.7,040813,016.6,E,D*23
$GPRMB,A,0.00,L,Shil,Shil,4741.0830,N,12224.5670,W,1.2,337,-0.00,V*2D
$PGRME,2.4,M,2.4,M,3.4,M*29
$HCHDG,81.4,0.0,E,,*14
$HCHDG,81.4,0.0,E,,*14
$IIRMC,230000,A,4739.948,N,12223.851,W,00.0,095,040813,16,E,A*1A
$IIVHW,,,,,00.0,N,,*19
$GPRMC,230007.4,A,4739.94877,N,12223.85155,W,000.01,095.7,040813,016.6,E,D*25
$PGRME,2.4,M,2.4,M,3.4,M*29
$HCHDG,81.5,0.0,E,,*15
$IIVLW,02057,N,023.4,N*56
$IIVWR,135,L,05.6,N,,,,*7B
$HCHDG,81.4,0.0,E,,*14
$IIDPT,011.9,-1.0,*49
$YXXDR,A,5.8,D,PTCH,A,1.2,D,ROLL*53
$GPRMC,230007.6,A,4739.94877,N,12223.85155,W,000.01,095.7,040813,016.6,E,D*27
$PGRME,2.4,M,2.4,M,3.4,M*29
$HCHDG,81.4,0.0,E,,*14
$HCHDG,81.4,0.0,E,,*14
$GPRMC,230007.8,A,4739.94877,N,12223.85155,W,000.00,095.7,040813,016.6,E,D*28
$PGRME,2.4,M,2.4,M,3.4,M*29
$HCHDG,81.4,0.0,E,,*14
$HCHDG,81.5,0.0,E,,*15
$GPRMC,230008.0,A,4739.94877,N,12223.85155,W,000.01,095.7,040813,016.6,E,D*2E
$PGRME,2.4,M,2.4,M,3.4,M*29
$HCHDG,81.5,0.0,E,,*15
$IIGLL,4739.948,N,12223.851,W,230000,A,A*43
$YXXDR,A,5.9,D,PTCH,A,2.0,D,ROLL*53
$PTAK,FFD1,2.0*57
$IIMTW,+18.0,C*31
$HCHDG,81.6,0.0,E,,*16
$IIMWV,213,R,05.2,N,A*14
$GPRMC,230008.2,A,4739.94877,N,12223.85155,W,000.01,095.7,040813,016.6,E,D*2C
$PGRME,2.4,M,2.4,M,3.4,M*29
$HCHDG,81.7,0.0,E,,*17
$IIMWV,225,T,05.6,N,A*13
$HCHDG,81.8,0.0,E,,*18
$IIRMB,A,0.00,L,,Shil,,,,,001.2,337,,V,A*7D
$GPRMC,230008.4,A,4739.94877,N,12223.85155,W,000.01,095.7,040813,016.6,E,D*2A
$GPRMB,A,0.00,L,Shil,Shil,4741.0830,N,12224.5670,W,1.2,337,-0.00,V*2D
$PTAK,FFP1,HEEL,@*07
$PGRME,2.4,M,2.4,M,3.4,M*29
$HCHDG,81.9,0.0,E,,*19
$IIRMC,230000,A,4739.948,N,12223.851,W,00.0,095,040813,16,E,A*1A
$HCHDG,81.7,0.0,E,,*17
$IIVHW,,,,,00.0,N,,*19
$IIVLW,02057,N,023.4,N*56
$YXXDR,A,5.6,D,PTCH,A,2.0,D,ROLL*5C
$GPRMC,230008.6,A,4739.94878,N,12223.85155,W,000.00,095.7,040813,016.6,E,D*26
$PGRME,2.4,M,2.4,M,3.4,M*29
$HCHDG,81.8,0.0,E,,*18
$HCHDG,81.9,0.0,E,,*19
$GPRMC,230008.8,A,4739.94877,N,12223.85155,W,000.01,095.7,040813,016.6,E,D*26
$PGRME,2.4,M,2.4,M,3.4,M*29
$HCHDG,81.9,0.0,E,,*19
$HCHDG,81.9,0.0,E,,*19
$GPRMC,230009.0,A,4739.94878,N,12223.85155,W,000.01,095.7,040813,016.6,E,D*20
$PGRME,2.4,M,2.4,M,3.4,M*29
$HCHDG,81.9,0.0,E,,*19
$IIVWR,144,L,04.3,N,,,,*79
$YXXDR,A,5.8,D,PTCH,A,1.2,D,ROLL*53
$IIDPT,031.9,-1.0,*4B
$HCHDG,81.9,0.0,E,,*19
$IIGLL,4739.948,N,12223.851,W,230000,A,A*43
$GPRMC,230009.2,A,4739.94878,N,12223.85155,W,000.00,095.7,040813,016.6,E,D*23
$PGRME,2.4,M,2.4,M,3.4,M*29
$HCHDG,81.9,0.0,E,,*19
$IIMTW,+18.0,C*31
$IIMWV,216,R,04.3,N,A*11
$HCHDG,81.7,0.0,E,,*17
$IIMWV,213,T,05.2,N,A*12
$GPRMC,230009.4,A,4739.94878,N,12223.85155,W,000.01,095.7,040813,016.6,E,D*24
$GPRMB,A,0.00,L,Shil,Shil,4741.0830,N,12224.5670,W,1.2,337,-0.00,V*2D
$PGRME,2.4,M,2.4,M,3.4,M*29
$HCHDG,81.7,0.0,E,,*17
$IIRMB,A,0.00,L,,Shil,,,,,001.2,337,,V,A*7D
$HCHDG,81.7,0.0,E,,*17
$IIRMC,230000,A,4739.948,N,12223.851,W,00.0,095,040813,16,E,A*1A
$YXXDR,A,5.8,D,PTCH,A,1.0,D,ROLL*51
$PTAK,FFD1,1.0*54
$GPRMC,230009.6,A,4739.94878,N,12223.85155,W,000.01,095.7,040813,016.6,E,D*26
$PGRME,2.4,M,2.4,M,3.4,M*29
$HCHDG,81.9,0.0,E,,*19
$HCHDG,81.9,0.0,E,,*19
$GPRMC,230009.8,A,4739.94878,N,12223.85155,W,000.01,095.7,040813,016.6,E,D*28
$PGRME,2.4,M,2.4,M,3.4,M*29
$HCHDG,81.9,0.0,E,,*19
$HCHDG,81.9,0.0,E,,*19
$GPRMC,230010.0,A,4739.94878,N,12223.85155,W,000.01,095.7,040813,016.6,E,D*28
$PGRME,2.4,M,2.4,M,3.4,M*29
$HCHDG,81.9,0.0,E,,*19
$IIVHW,,,,,00.0,N,,*19
$YXXDR,A,5.9,D,PTCH,A,2.0,D,ROLL*53
$IIVLW,02057,N,023.4,N*56
$HCHDG,82.0,0.0,E,,*13
$IIVWR,149,L,04.5,N,,,,*72
$GPRMC,230010.2,A,4739.94878,N,12223.85155,W,000.01,095.7,040813,016.6,E,D*2A
$IIDPT,011.9,-1.0,*49
$PGRME,2.4,M,2.4,M,3.4,M*29
$HCHDG,82.1,0.0,E,,*12
$IIGLL,4739.948,N,12223.851,W,230000,A,A*43
$HCHDG,82.2,0.0,E,,*11
$IIMTW,+18.0,C*31
$IIMWV,211,R,04.5,N,A*10
$GPRMC,230010.4,A,4739.94878,N,12223.85155,W,000.01,095.7,040813,016.6,E,D*2C
$GPRMB,A,0.00,L,Shil,Shil,4741.0830,N,12224.5670,W,1.2,337,-0.00,V*2D
$PGRME,2.4,M,2.4,M,3.4,M*29
$HCHDG,82.3,0.0,E,,*10
$IIMWV,216,T,04.3,N,A*17
$HCHDG,82.1,0.0,E,,*12
$IIRMB,A,0.00,L,,Shil,,,,,001.2,337,,V,A*7D
$YXXDR,A,5.8,D,PTCH,A,2.3,D,ROLL*51
$GPRMC,230010.6,A,4739.94878,N,12223.85155,W,000.01,095.7,040813,016.6,E,D*2E
$PGRME,2.4,M,2.4,M,3.4,M*29
$HCHDG,82.2,0.0,E,,*11
$HCHDG,82.4,0.0,E,,*17
$GPRMC,230010.8,A,4739.94879,N,12223.85155,W,000.00,095.7,040813,016.6,E,D*20
$PGRME,2.4,M,2.4,M,3.4,M*29
$HCHDG,82.5,0.0,E,,*16
$HCHDG,82.5,0.0,E,,*16
$GPRMC,230011.0,A,4739.94879,N,12223.85155,W,000.01,095.7,040813,016.6,E,D*28
$PGRME,2.4,M,2.4,M,3.4,M*29
$HCHDG,82.6,0.0,E,,*15
$YXXDR,A,5.9,D,PTCH,A,1.7,D,ROLL*57
$PTAK,FFD1,1.7*53
$IIRMC,230000,A,4739.948,N,12223.851,W,00.0,095,040813,16,E,A*1A
$HCHDG,82.7,0.0,E,,*14
$IIVHW,,,,,00.0,N,,*19
$GPRMC,230011.2,A,4739.94879,N,12223.85155,W,000.01,095.7,040813,016.6,E,D*2A
$PGRME,2.4,M,2.4,M,3.4,M*29
$HCHDG,82.7,0.0,E,,*14
$IIVLW,02057,N,023.4,N*56
$IIVWR,151,L,04.5,N,,,,*7B
$HCHDG,82.7,0.0,E,,*14
$IIDPT,031.9,-1.0,*4B
$GPRMC,230011.4,A,4739.94879,N,12223.85155,W,000.01,095.7,040813,016.6,E,D*2C
$PGRME,2.4,M,2.4,M,3.4,M*29
$HCHDG,82.9,0.0,E,,*1A
$IIGLL,4739.948,N,12223.851,W,230000,A,A*43
$IIMTW,+18.0,C*31
$HCHDG,83.0,0.0,E,,*12
$IIMWV,209,R,04.5,N,A*19
$IIMWV,211,T,04.5,N,A*16
$YXXDR,A,5.6,D,PTCH,A,1.5,D,ROLL*5A
$GPRMC,230011.6,A,4739.94879,N,12223.85155,W,000.01,095.7,040813,016.6,E,D*2E
$GPRMB,A,0.00,L,Shil,Shil,4741.0830,N,12224.5670,W,1.2,337,-0.00,V*2D
$PGRME,2.4,M,2.4,M,3.4,M*29
$HCHDG,82.9,0.0,E,,*1A
$HCHDG,82.9,0.0,E,,*1A
$GPRMC,230011.8,A,4739.94879,N,12223.85156,W,000.01,095.7,040813,016.6,E,D*23
$PGRME,2.4,M,2.4,M,3.4,M*29
$HCHDG,83.1,0.0,E,,*13
$HCHDG,83.1,0.0,E,,*13
$GPRMC,230012.0,A,4739.94879,N,12223.85156,W,000.01,095.7,040813,016.6,E,D*28
$PGRME,2.4,M,2.4,M,3.4,M*29
$HCHDG,83.1,0.0,E,,*13
$YXXDR,A,5.7,D,PTCH,A,2.0,D,ROLL*5D
$IIRMB,A,0.00,L,,Shil,,,,,001.2,337,,V,A*7D
$HCHDG,83.3,0.0,E,,*11
$GPRMC,230012.2,A,4739.94879,N,12223.85156,W,000.01,095.7,040813,016.6,E,D*2A
$PGRME,2.4,M,2.4,M,3.4,M*29
$HCHDG,83.2,0.0,E,,*10
$IIRMC,230000,A,4739.948,N,12223.851,W,00.0,095,040813,16,E,A*1A
$IIVHW,,,,,00.0,N,,*19
$HCHDG,83.2,0.0,E,,*10
$IIVLW,02057,N,023.4,N*56
$IIVWR,149,L,04.1,N,,,,*76
$GPRMC,230012.4,A,4739.94879,N,12223.85156,W,000.00,095.7,040813,016.6,E,D*2D
$PTAK,FFP1,HEEL,@*07
$PGRME,2.4,M,2.4,M,3.4,M*29
$HCHDG,83.3,0.0,E,,*11
$IIDPT,052.1,-1.0,*46
$HCHDG,83.4,0.0,E,,*16
$IIGLL,4739.948,N,12223.851,W,230000,A,A*43
$IIMTW,+18.0,C*31
$YXXDR,A,5.8,D,PTCH,A,1.9,D,ROLL*58
$PTAK,FFD1,1.9*5D
$GPRMC,230012.6,A,4739.94879,N,12223.85156,W,000.01,095.7,040813,016.6,E,D*2E
$PGRME,2.4,M,2.4,M,3.4,M*29
$HCHDG,83.5,0.0,E,,*17
$HCHDG,83.5,0.0,E,,*17
$GPRMC,230012.8,A,4739.94879,N,12223.85156,W,000.01,095.7,040813,016.6,E,D*20
$GPRMB,A,0.00,L,Shil,Shil,4741.0830,N,12224.5670,W,1.2,337,-0.00,V*2D
$PGRME,2.4,M,2.4,M,3.4,M*29
$HCHDG,83.6,0.0,E,,*14
$HCHDG,83.7,0.0,E,,*15
$GPRMC,230013.0,A,4739.94879,N,12223.85156,W,000.00,095.7,040813,016.6,E,D*28
$PGRME,2.4,M,2.4,M,3.4,M*29
$HCHDG,83.8,0.0,E,,*1A
$IIMWV,206,R,04.4,N,A*17
$YXXDR,A,5.6,D,PTCH,A,1.5,D,ROLL*5A
$IIMWV,211,T,04.1,N,A*12
$HCHDG,83.8,0.0,E,,*1A
$GPRMC,230013.2,A,4739.94880,N,12223.85156,W,000.01,095.7,040813,016.6,E,D*2D
$IIRMB,A,0.00,L,,Shil,,,,,001.2,337,,V,A*7D
$PGRME,2.4,M,2.4,M,3.4,M*29
$HCHDG,83.8,0.0,E,,*1A
$HCHDG,84.0,0.0,E,,*15
$IIRMC,230000,A,4739.948,N,12223.851,W,00.0,095,040813,16,E,A*1A
$IIVHW,,,,,00.0,N,,*19
$GPRMC,230013.4,A,4739.94880,N,12223.85156,W,000.01,095.7,040813,016.6,E,D*2B
$PGRME,2.4,M,2.4,M,3.4,M*29
$HCHDG,84.0,0.0,E,,*15
$IIVLW,02057,N,023.4,N*56
$IIVWR,154,L,04.4,N,,,,*7F
$HCHDG,84.0,0.0,E,,*15
$IIDPT,011.9,-1.0,*49
$YXXDR,A,5.8,D,PTCH,A,1.3,D,ROLL*52
$GPRMC,230013.6,A,4739.94880,N,12223.85155,W,000.01,095.7,040813,016.6,E,D*2A
$PGRME,2.4,M,2.4,M,3.4,M*29
$HCHDG,84.0,0.0,E,,*15
$HCHDG,83.9,0.0,E,,*1B
$GPRMC,230013.8,A,4739.94880,N,12223.85155,W,000.01,095.7,040813,016.6,E,D*24
$PGRME,2.4,M,2.4,M,3.4,M*29
$HCHDG,83.9,0.0,E,,*1B
$HCHDG,83.8,0.0,E,,*1A
$GPRMC,230014.0,A,4739.94880,N,12223.85155,W,000.01,095.7,040813,016.6,E,D*2B
$GPRMB,A,0.00,L,Shil,Shil,4741.0830,N,12224.5670,W,1.2,337,-0.00,V*2D
$PGRME,2.4,M,2.4,M,3.4,M*29
$HCHDG,83.8,0.0,E,,*1A
$IIGLL,4739.948,N,12223.851,W,230000,A,A*43
$YXXDR,A,5.8,D,PTCH,A,1.6,D,ROLL*57
$PTAK,FFD1,1.6*52
$IIMTW,+18.0,C*31
$HCHDG,83.8,0.0,E,,*1A
$IIMWV,200,R,04.5,N,A*10
$GPRMC,230014.2,A,4739.94880,N,12223.85155,W,000.00,095.7,040813,016.6,E,D*28
$PGRME,2.4,M,2.4,M,3.4,M*29
$HCHDG,83.8,0.0,E,,*1A
$IIMWV,206,T,04.4,N,A*11
$HCHDG,83.7,0.0,E,,*15
$IIRMB,A,0.00,L,,Shil,,,,,001.2,337,,V,A*7D
$GPRMC,230014.4,A,4739.94880,N,12223.85155,W,000.01,095.7,040813,016.6,E,D*2F
$PGRME,2.4,M,2.4,M,3.4,M*29
$HCHDG,83.6,0.0,E,,*14
$IIRMC,230000,A,4739.948,N,12223.851,W,00.0,095,040813,16,E,A*1A
$IIVHW,,,,,00.0,N,,*19
$HCHDG,83.4,0.0,E,,*16
$IIVLW,02057,N,023.4,N*56
$YXXDR,A,5.8,D,PTCH,A,1.7,D,ROLL*56
$GPRMC,230014.6,A,4739.94881,N,12223.85155,W,000.00,095.7,040813,016.6,E,D*2D
$PGRME,2.4,M,2.4,M,3.4,M*29
$HCHDG,83.4,0.0,E,,*16
$HCHDG,83.3,0.0,E,,*11
$GPRMC,230014.8,A,4739.94881,N,12223.85155,W,000.00,095.7,040813,016.6,E,D*23
$PGRME,2.4,M,2.4,M,3.4,M*29
$HCHDG,83.4,0.0,E,,*16
$HCHDG,83.4,0.0,E,,*16
$GPRMC,230015.0,A,4739.94881,N,12223.85155,W,000.00,095.7,040813,016.6,E,D*2A
$GPRMB,A,0.00,L,Shil,Shil,4741.0830,N,12224.5670,W,1.2,337,-0.00,V*2D
$PGRME,2.4,M,2.4,M,3.4,M*29
$HCHDG,83.4,0.0,E,,*16
$IIVWR,166,L,04.5,N,,,,*7F
$YXXDR,A,6.0,D,PTCH,A,1.9,D,ROLL*53
$IIDPT,011.9,-1.0,*49
$HCHDG,83.4,0.0,E,,*16
$IIGLL,4739.948,N,12223.851,W,230000,A,A*43
$GPRMC,230015.2,A,4739.94881,N,12223.85155,W,000.01,095.7,040813,016.6,E,D*29
$PGRME,2.4,M,2.4,M,3.4,M*29
$HCHDG,83.5,0.0,E,,*17
$IIMTW,+18.0,C*31
$IIMWV,194,R,04.5,N,A*1E
$HCHDG,83.4,0.0,E,,*16
$IIMWV,200,T,04.5,N,A*16
$GPRMC,230015.4,A,4739.94881,N,12223.85155,W,000.01,095.7,040813,016.6,E,D*2F
$HCHDG,83.4,0.0,E,,*16
$PGRME,2.4,M,2.4,M,3.4,M*29
$IIRMB,A,0.00,L,,Shil,,,,,001.2,337,,V,A*7D
$HCHDG,83.6,0.0,E,,*14
$IIRMC,230000,A,4739.948,N,12223.851,W,00.0,095,040813,16,E,A*1A
$YXXDR,A,5.8,D,PTCH,A,1.9,D,ROLL*58
$PTAK,FFD1,1.9*5D
$GPRMC,230015.6,A,4739.94882,N,12223.85155,W,000.01,095.7,040813,016.6,E,D*2E
$PGRME,2.4,M,2.4,M,3.4,M*29
$HCHDG,83.6,0.0,E,,*14
$HCHDG,83.6,0.0,E,,*14
$GPRMC,230015.8,A,4739.94882,N,12223.85155,W,000.01,095.7,040813,016.6,E,D*20
$PGRME,2.4,M,2.4,M,3.4,M*29
$HCHDG,83.6,0.0,E,,*14
$HCHDG,83.6,0.0,E,,*14
$GPRMC,230016.0,A,4739.94882,N,12223.85155,W,000.01,095.7,040813,016.6,E,D*2B
$HCHDG,83.6,0.0,E,,*14
$PGRME,2.4,M,2.4,M,3.4,M*29
$IIVHW,,,,,00.0,N,,*19
$YXXDR,A,5.8,D,PTCH,A,1.4,D,ROLL*55
$IIVLW,02057,N,023.4,N*56
$HCHDG,83.6,0.0,E,,*14
$IIVWR,173,L,04.6,N,,,,*78
$GPRMC,230016.2,A,4739.94882,N,12223.85155,W,000.01,095.7,040813,016.6,E,D*29
$GPRMB,A,0.00,L,Shil,Shil,4741.0830,N,12224.5670,W,1.2,337,-0.00,V*2D
$HCHDG,83.5,0.0,E,,*17
$IIDPT,011.9,-1.0,*49
$PGRME,2.4,M,2.4,M,3.4,M*29
$IIGLL,4739.948,N,12223.851,W,230000,A,A*43
$HCHDG,83.5,0.0,E,,*17
$PTAK,FFP1,HEEL,@*07
$IIMTW,+18.0,C*31
$IIMWV,187,R,04.6,N,A*1F
$GPRMC,230016.4,A,4739.94882,N,12223.85156,W,000.01,095.7,040813,016.6,E,D*2C
$HCHDG,83.5,0.0,E,,*17
$PGRME,2.4,M,2.4,M,3.5,M*28
$IIMWV,194,T,04.5,N,A*18
$HCHDG,83.3,0.0,E,,*11
$IIRMB,A,0.00,L,,Shil,,,,,001.2,337,,V,A*7D
$YXXDR,A,5.8,D,PTCH,A,1.4,D,ROLL*55
$GPRMC,230016.6,A,4739.94883,N,12223.85157,W,000.02,095.7,040813,016.6,E,D*2D
$PGRME,2.5,M,2.4,M,3.5,M*29
$HCHDG,83.4,0.0,E,,*16
$HCHDG,83.3,0.0,E,,*11
$GPRMC,230016.8,A,4739.94883,N,12223.85158,W,000.00,095.7,040813,016.6,E,D*2E
$PGRME,2.5,M,2.4,M,3.5,M*29
$HCHDG,83.3,0.0,E,,*11
$HCHDG,83.3,0.0,E,,*11
$GPRMC,230017.0,A,4739.94883,N,12223.85159,W,000.00,095.7,040813,016.6,E,D*26
$PGRME,2.5,M,2.4,M,3.5,M*29
$HCHDG,83.1,0.0,E,,*13
$YXXDR,A,5.8,D,PTCH,A,1.6,D,ROLL*57
$PTAK,FFD1,1.6*52
$IIRMC,230000,A,4739.948,N,12223.851,W,00.0,095,040813,16,E,A*1A
$HCHDG,83.1,0.0,E,,*13
$IIVHW,,,,,00.0,N,,*19
$GPRMC,230017.2,A,4739.94883,N,12223.85159,W,000.01,095.7,040813,016.6,E,D*25
$GPRMB,A,0.00,L,Shil,Shil,4741.0830,N,12224.5670,W,1.2,337,-0.00,V*2D
$PGRME,2.5,M,2.4,M,3.5,M*29
$HCHDG,83.1,0.0,E,,*13
$IIVLW,02057,N,023.4,N*56
$IIVWR,175,L,05.1,N,,,,*78
$HCHDG,83.2,0.0,E,,*10
$IIDPT,011.9,-1.0,*49
$GPRMC,230017.4,A,4739.94883,N,12223.85160,W,000.01,095.7,040813,016.6,E,D*29
$PGRME,2.5,M,2.4,M,3.5,M*29
$HCHDG,83.2,0.0,E,,*10
$IIGLL,4739.948,N,12223.851,W,230000,A,A*43
$IIMTW,+18.0,C*31
$HCHDG,83.2,0.0,E,,*10
$IIMWV,185,R,05.1,N,A*1B
$IIMWV,187,T,04.6,N,A*19
$GPRMC,230017.6,A,4739.94883,N,12223.85161,W,000.01,095.7,040813,016.6,E,D*2A
$YXXDR,A,6.0,D,PTCH,A,2.0,D,ROLL*59
$PGRME,2.5,M,2.4,M,3.5,M*29
$HCHDG,83.3,0.0,E,,*11
$HCHDG,83.3,0.0,E,,*11
$GPRMC,230017.8,A,4739.94883,N,12223.85162,W,000.01,095.7,040813,016.6,E,D*27
$PGRME,2.5,M,2.4,M,3.5,M*29
$HCHDG,83.3,0.0,E,,*11
$HCHDG,83.4,0.0,E,,*16
$GPRMC,230018.0,A,4739.94883,N,12223.85162,W,000.01,095.7,040813,016.6,E,D*20
$PGRME,2.5,M,2.4,M,3.5,M*29
$HCHDG,83.4,0.0,E,,*16
$IIRMB,A,0.00,L,,Shil,,,,,001.2,337,,V,A*7D
$YXXDR,A,5.7,D,PTCH,A,2.0,D,ROLL*5D
$PTAK,FFD1,2.0*57
$HCHDG,83.4,0.0,E,,*16
$GPRMC,230018.2,A,4739.94883,N,12223.85163,W,000.01,095.7,040813,016.6,E,D*23
$PGRME,2.5,M,2.4,M,3.5,M*29
$HCHDG,83.3,0.0,E,,*11
$IIRMC,230000,A,4739.948,N,12223.851,W,00.0,095,040813,16,E,A*1A
$IIVHW,,,,,00.0,N,,*19
$HCHDG,83.3,0.0,E,,*11
$IIVLW,02057,N,023.4,N*56
$IIVWR,171,L,05.4,N,,,,*79
$GPRMC,230018.4,A,4739.94883,N,12223.85163,W,000.01,095.7,040813,016.6,E,D*25
$GPRMB,A,0.00,L,Shil,Shil,4741.0830,N,12224.5670,W,1.2,337,-0.00,V*2D
$PGRME,2.5,M,2.4,M,3.5,M*29
$HCHDG,83.2,0.0,E,,*10
$IIDPT,011.9,-1.0,*49
$HCHDG,83.2,0.0,E,,*10
$IIGLL,4739.948,N,12223.851,W,230000,A,A*43
$IIMTW,+18.0,C*31
$YXXDR,A,5.8,D,PTCH,A,1.6,D,ROLL*57
$GPRMC,230018.6,A,4739.94883,N,12223.85163,W,000.01,095.7,040813,016.6,E,D*27
$PGRME,2.5,M,2.4,M,3.5,M*29
$HCHDG,83.1,0.0,E,,*13
$HCHDG,82.9,0.0,E,,*1A
$GPRMC,230018.8,A,4739.94883,N,12223.85164,W,000.01,095.7,040813,016.6,E,D*2E
$PGRME,2.5,M,2.4,M,3.5,M*29
$HCHDG,82.9,0.0,E,,*1A
$HCHDG,82.9,0.0,E,,*1A
$GPRMC,230019.0,A,4739.94883,N,12223.85164,W,000.01,095.7,040813,016.6,E,D*27
$PGRME,2.5,M,2.4,M,3.5,M*29
$HCHDG,82.7,0.0,E,,*14
$IIMWV,193,R,05.6,N,A*1B
$YXXDR,A,5.8,D,PTCH,A,1.6,D,ROLL*57
$IIMWV,189,T,05.4,N,A*14
$HCHDG,82.7,0.0,E,,*14
$IIRMB,A,0.00,L,,Shil,,,,,001.2,337,,V,A*7D
$GPRMC,230019.2,A,4739.94883,N,12223.85164,W,000.00,095.7,040813,016.6,E,D*24
$PGRME,2.5,M,2.4,M,3.5,M*29
$HCHDG,82.7,0.0,E,,*14
$HCHDG,82.8,0.0,E,,*1B
$IIRMC,230000,A,4739.948,N,12223.851,W,00.0,095,040813,16,E,A*1A
$IIVHW,,,,,00.0,N,,*19
$GPRMC,230019.4,A,4739.94883,N,12223.85165,W,000.00,095.7,040813,016.6,E,D*23
$PGRME,2.5,M,2.4,M,3.5,M*29
$HCHDG,82.7,0.0,E,,*14
$IIVLW,02057,N,023.4,N*56
$IIVWR,167,L,05.6,N,,,,*7C
$HCHDG,82.6,0.0,E,,*15
$IIDPT,011.9,-1.0,*49
$YXXDR,A,5.9,D,PTCH,A,2.3,D,ROLL*50
$PTAK,FFD1,2.3*54
$GPRMC,230019.6,A,4739.94883,N,12223.85165,W,000.01,095.7,040813,016.6,E,D*20
$GPRMB,A,0.00,L,Shil,Shil,4741.0830,N,12224.5670,W,1.2,337,-0.00,V*2D
$PGRME,2.5,M,2.4,M,3.5,M*29
$HCHDG,82.7,0.0,E,,*14
$HCHDG,82.7,0.0,E,,*14
$GPRMC,230019.8,A,4739.94883,N,12223.85165,W,000.00,095.7,040813,016.6,E,D*2F
$PGRME,2.5,M,2.4,M,3.5,M*29
$HCHDG,82.7,0.0,E,,*14
$HCHDG,82.8,0.0,E,,*1B
$GPRMC,230020.0,A,4739.94883,N,12223.85165,W,000.01,095.7,040813,016.6,E,D*2C
$PGRME,2.5,M,2.4,M,3.5,M*29
$HCHDG,82.8,0.0,E,,*1B
$IIGLL,4739.948,N,12223.851,W,230000,A,A*43
$YXXDR,A,5.9,D,PTCH,A,2.0,D,ROLL*53
$IIMTW,+18.0,C*31
$HCHDG,82.8,0.0,E,,*1B
$IIMWV,189,R,06.1,N,A*14
$GPRMC,230020.2,A,4739.94883,N,12223.85165,W,000.01,095.7,040813,016.6,E,D*2E
$PGRME,2.5,M,2.4,M,3.5,M*29
$HCHDG,82.8,0.0,E,,*1B
$IIMWV,193,T,05.6,N,A*1D
$HCHDG,82.8,0.0,E,,*1B
$IIRMB,A,0.00,L,,Shil,,,,,001.2,337,,V,A*7D
$GPRMC,230020.4,A,4739.94883,N,12223.85165,W,000.01,095.7,040813,016.6,E,D*28
$PGRME,2.5,M,2.4,M,3.5,M*29
$HCHDG,82.8,0.0,E,,*1B
$PTAK,FFP1,HEEL,@*07
$IIRMC,230000,A,4739.948,N,12223.851,W,00.0,095,040813,16,E,A*1A
$IIVHW,,,,,00.0,N,,*19
$HCHDG,82.8,0.0,E,,*1B
$IIVLW,02057,N,023.4,N*56
$YXXDR,A,5.9,D,PTCH,A,1.4,D,ROLL*54
$PTAK,FFD1,1.4*50
$GPRMC,230020.6,A,4739.94883,N,12223.85165,W,000.01,095.7,040813,016.6,E,D*2A
$PGRME,2.5,M,2.4,M,3.5,M*29
$HCHDG,82.8,0.0,E,,*1B
$HCHDG,82.8,0.0,E,,*1B
$GPRMC,230020.8,A,4739.94883,N,12223.85165,W,000.01,095.7,040813,016.6,E,D*24
$GPRMB,A,0.00,L,Shil,Shil,4741.0830,N,12224.5670,W,1.2,337,-0.00,V*2D
$PGRME,2.5,M,2.4,M,3.5,M*29
$HCHDG,82.7,0.0,E,,*14
$HCHDG,82.6,0.0,E,,*15
$GPRMC,230021.0,A,4739.94883,N,12223.85165,W,000.01,095.7,040813,016.6,E,D*2D
$PGRME,2.5,M,2.4,M,3.5,M*29
$HCHDG,82.6,0.0,E,,*15
$IIVWR,180,R,06.0,N,,,,*6E
$YXXDR,A,5.8,D,PTCH,A,1.4,D,ROLL*55
$IIDPT,011.9,-1.0,*49
$HCHDG,82.6,0.0,E,,*15
$IIGLL,4739.948,N,12223.851,W,230000,A,A*43
$GPRMC,230021.2,A,4739.94883,N,12223.85165,W,000.00,095.7,040813,016.6,E,D*2E
$PGRME,2.4,M,2.4,M,3.4,M*29
$HCHDG,82.5,0.0,E,,*16
$IIMTW,+18.0,C*31
$IIMWV,180,R,06.0,N,A*1C
$HCHDG,82.4,0.0,E,,*17
$IIMWV,189,T,06.1,N,A*12
$GPRMC,230021.4,A,4739.94884,N,12223.85166,W,000.01,095.7,040813,016.6,E,D*2D
$PGRME,2.4,M,2.4,M,3.4,M*29
$HCHDG,82.4,0.0,E,,*17
$IIRMB,A,0.00,L,,Shil,,,,,001.2,337,,V,A*7D
$HCHDG,82.5,0.0,E,,*16
$IIRMC,230000,A,4739.948,N,12223.851,W,00.0,095,040813,16,E,A*1A
$YXXDR,A,5.8,D,PTCH,A,1.9,D,ROLL*58
$PTAK,FFD1,1.9*5D
$GPRMC,230021.6,A,4739.94884,N,12223.85166,W,000.00,095.7,040813,016.6,E,D*2E
$PGRME,2.4,M,2.4,M,3.4,M*29
$HCHDG,82.5,0.0,E,,*16
$HCHDG,82.6,0.0,E,,*15
$GPRMC,230021.8,A,4739.94884,N,12223.85166,W,000.00,095.7,040813,016.6,E,D*20
$PGRME,2.4,M,2.4,M,3.4,M*29
$HCHDG,82.6,0.0,E,,*15
$HCHDG,82.6,0.0,E,,*15
$GPRMC,230022.0,A,4739.94884,N,12223.85166,W,000.01,095.7,040813,016.6,E,D*2A
$GPRMB,A,0.00,L,Shil,Shil,4741.0830,N,12224.5670,W,1.2,337,-0.00,V*2D
$PGRME,2.4,M,2.4,M,3.4,M*29
$HCHDG,82.6,0.0,E,,*15
$IIVHW,,,,,00.0,N,,*19
$YXXDR,A,5.8,D,PTCH,A,1.9,D,ROLL*58
$IIVLW,02057,N,023.4,N*56
$HCHDG,82.7,0.0,E,,*14
$IIVWR,172,L,05.8,N,,,,*76
$GPRMC,230022.2,A,4739.94884,N,12223.85166,W,000.01,095.7,040813,016.6,E,D*28
$IIDPT,011.9,-1.0,*49
$PGRME,2.4,M,2.4,M,3.4,M*29
$HCHDG,82.7,0.0,E,,*14
$IIGLL,4739.948,N,12223.851,W,230000,A,A*43
$HCHDG,82.8,0.0,E,,*1B
$IIMTW,+18.0,C*31
$IIMWV,188,R,05.8,N,A*1F
$GPRMC,230022.4,A,4739.94884,N,12223.85167,W,000.01,095.7,040813,016.6,E,D*2F
$PGRME,2.4,M,2.4,M,3.4,M*29
$HCHDG,82.8,0.0,E,,*1B
$IIMWV,180,T,06.0,N,A*1A
$HCHDG,82.8,0.0,E,,*1B
$IIRMB,A,0.00,L,,Shil,,,,,001.2,337,,V,A*7D
$YXXDR,A,5.9,D,PTCH,A,1.7,D,ROLL*57
$GPRMC,230022.6,A,4739.94884,N,12223.85167,W,000.00,095.7,040813,016.6,E,D*2C
$PGRME,2.4,M,2.4,M,3.4,M*29
$HCHDG,82.7,0.0,E,,*14
$HCHDG,82.7,0.0,E,,*14
$GPRMC,230022.8,A,4739.94884,N,12223.85167,W,000.01,095.7,040813,016.6,E,D*23
$PGRME,2.4,M,2.4,M,3.4,M*29
$HCHDG,82.6,0.0,E,,*15
$HCHDG,82.6,0.0,E,,*15
$GPRMC,230023.0,A,4739.94884,N,12223.85167,W,000.01,095.7,040813,016.6,E,D*2A
$PGRME,2.4,M,2.4,M,3.4,M*29
$HCHDG,82.6,0.0,E,,*15
$YXXDR,A,5.8,D,PTCH,A,1.6,D,ROLL*57
$PTAK,FFD1,1.6*52
$IIRMC,230000,A,4739.948,N,12223.851,W,00.0,095,040813,16,E,A*1A
$HCHDG,82.5,0.0,E,,*16
$IIVHW,,,,,00.0,N,,*19
$GPRMC,230023.2,A,4739.94885,N,12223.85167,W,000.01,095.7,040813,016.6,E,D*29
$GPRMB,A,0.00,L,Shil,Shil,4741.0830,N,12224.5670,W,1.2,337,-0.00,V*2D
$PGRME,2.4,M,2.4,M,3.4,M*29
$HCHDG,82.5,0.0,E,,*16
$IIVLW,02057,N,023.4,N*56
$IIVWR,175,L,06.0,N,,,,*7A
$HCHDG,82.5,0.0,E,,*16
$IIDPT,011.9,-1.0,*49
$GPRMC,230023.4,A,4739.94885,N,12223.85166,W,000.00,095.7,040813,016.6,E,D*2F
$PGRME,2.4,M,2.4,M,3.4,M*29
$HCHDG,82.5,0.0,E,,*16
$IIGLL,4739.948,N,12223.851,W,230000,A,A*43
$IIMTW,+18.0,C*31
$HCHDG,82.5,0.0,E,,*16
$IIMWV,185,R,06.0,N,A*19
$IIMWV,188,T,05.8,N,A*19
$YXXDR,A,6.0,D,PTCH,A,1.7,D,ROLL*5D
$GPRMC,230023.6,A,4739.94885,N,12223.85166,W,000.02,095.7,040813,016.6,E,D*2F
$PGRME,2.4,M,2.4,M,3.4,M*29
$HCHDG,82.6,0.0,E,,*15
$HCHDG,82.7,0.0,E,,*14
$GPRMC,230023.8,A,4739.94885,N,12223.85167,W,000.00,095.7,040813,016.6,E,D*22
$PGRME,2.4,M,2.4,M,3.4,M*29
$HCHDG,82.7,0.0,E,,*14
$HCHDG,82.8,0.0,E,,*1B
$GPRMC,230024.0,A,4739.94885,N,12223.85167,W,000.01,095.7,040813,016.6,E,D*2C
$PGRME,2.4,M,2.4,M,3.4,M*29
$HCHDG,82.8,0.0,E,,*1B
$IIRMB,A,0.00,L,,Shil,,,,,001.2,337,,V,A*7D
$YXXDR,A,5.9,D,PTCH,A,1.6,D,ROLL*56
$PTAK,FFD1,1.6*52
$HCHDG,82.8,0.0,E,,*1B
$GPRMC,230024.2,A,4739.94885,N,12223.85166,W,000.01,095.7,040813,016.6,E,D*2F
$PGRME,2.4,M,2.4,M,3.4,M*29
$HCHDG,82.9,0.0,E,,*1A
$IIRMC,230000,A,4739.948,N,12223.851,W,00.0,095,040813,16,E,A*1A
$IIVHW,,,,,00.0,N,,*19
$HCHDG,82.9,0.0,E,,*1A
$IIVLW,02057,N,023.4,N*56
$IIVWR,178,L,06.3,N,,,,*74
$GPRMC,230024.4,A,4739.94885,N,12223.85166,W,000.00,095.7,040813,016.6,E,D*28
$GPRMB,A,0.00,L,Shil,Shil,4741.0830,N,12224.5670,W,1.2,337,-0.00,V*2D
$PGRME,2.4,M,2.4,M,3.4,M*29
$HCHDG,82.9,0.0,E,,*1A
$PTAK,FFP1,HEEL,@*07
$IIDPT,011.9,-1.0,*49
$HCHDG,82.9,0.0,E,,*1A
$IIGLL,4739.948,N,12223.851,W,230000,A,A*43
$IIMTW,+18.0,C*31
$YXXDR,A,5.9,D,PTCH,A,1.7,D,ROLL*57
$GPRMC,230024.6,A,4739.94885,N,12223.85166,W,000.01,095.7,040813,016.6,E,D*2B
$PGRME,2.4,M,2.4,M,3.4,M*29
$HCHDG,83.0,0.0,E,,*12
$HCHDG,83.0,0.0,E,,*12
$GPRMC,230024.8,A,4739.94884,N,12223.85166,W,000.01,095.7,040813,016.6,E,D*24
$PGRME,2.4,M,2.4,M,3.4,M*29
$HCHDG,83.0,0.0,E,,*12
$HCHDG,83.0,0.0,E,,*12
$GPRMC,230025.0,A,4739.94884,N,12223.85166,W,000.00,095.7,040813,016.6,E,D*2C
$PGRME,2.4,M,2.4,M,3.4,M*29
$HCHDG,83.0,0.0,E,,*12
$IIMWV,177,R,06.5,N,A*11
$YXXDR,A,5.8,D,PTCH,A,2.6,D,ROLL*54
$IIMWV,182,T,06.3,N,A*1B
$HCHDG,83.0,0.0,E,,*12
$IIRMB,A,0.00,L,,Shil,,,,,001.2,337,,V,A*7D
$GPRMC,230025.2,A,4739.94884,N,12223.85166,W,000.01,095.7,040813,016.6,E,D*2F
$PGRME,2.4,M,2.4,M,3.4,M*29
$HCHDG,83.0,0.0,E,,*12
$HCHDG,83.0,0.0,E,,*12
$IIRMC,230000,A,4739.948,N,12223.851,W,00.0,095,040813,16,E,A*1A
$IIVHW,,,,,00.0,N,,*19
$GPRMC,230025.4,A,4739.94884,N,12223.85167,W,000.01,095.7,040813,016.6,E,D*28
$PGRME,2.4,M,2.4,M,3.4,M*29
$HCHDG,83.0,0.0,E,,*12
$IIVLW,02057,N,023.4,N*56
$IIVWR,177,R,06.5,N,,,,*63
$HCHDG,83.0,0.0,E,,*12
$IIDPT,011.9,-1.0,*49
$YXXDR,A,5.9,D,PTCH,A,3.1,D,ROLL*53
$PTAK,FFD1,3.1*57
$GPRMC,230025.6,A,4739.94884,N,12223.85167,W,000.01,095.7,040813,016.6,E,D*2A
$GPRMB,A,0.00,L,Shil,Shil,4741.0830,N,12224.5670,W,1.2,337,-0.00,V*2D
$PGRME,2.4,M,2.4,M,3.4,M*29
$HCHDG,83.0,0.0,E,,*12
$HCHDG,82.8,0.0,E,,*1B
$GPRMC,230025.8,A,4739.94884,N,12223.85167,W,000.01,095.7,040813,016.6,E,D*24
$PGRME,2.4,M,2.4,M,3.4,M*29
$HCHDG,82.8,0.0,E,,*1B
$HCHDG,82.8,0.0,E,,*1B
$GPRMC,230026.0,A,4739.94884,N,12223.85166,W,000.01,095.7,040813,016.6,E,D*2E
$PGRME,2.4,M,2.4,M,3.4,M*29
$HCHDG,82.8,0.0,E,,*1B
$IIGLL,4739.948,N,12223.851,W,230000,A,A*43
$YXXDR,A,5.9,D,PTCH,A,3.1,D,ROLL*53
$IIMTW,+18.0,C*31
$HCHDG,82.8,0.0,E,,*1B
$IIMWV,177,R,06.5,N,A*11
$GPRMC,230026.2,A,4739.94884,N,12223.85166,W,000.00,095.7,040813,016.6,E,D*2D
$PGRME,2.4,M,2.4,M,3.4,M*29
$HCHDG,82.8,0.0,E,,*1B
$IIMWV,177,T,06.5,N,A*17
$HCHDG,82.7,0.0,E,,*14
$IIRMB,A,0.00,L,,Shil,,,,,001.2,337,,V,A*7D
$GPRMC,230026.4,A,4739.94884,N,12223.85166,W,000.01,095.7,040813,016.6,E,D*2A
$PGRME,2.4,M,2.4,M,3.4,M*29
$HCHDG,82.4,0.0,E,,*17
$IIRMC,230000,A,4739.948,N,12223.851,W,00.0,095,040813,16,E,A*1A
$IIVHW,,,,,00.0,N,,*19
$HCHDG,82.5,0.0,E,,*16
$IIVLW,02057,N,023.4,N*56
$YXXDR,A,6.1,D,PTCH,A,3.2,D,ROLL*5B
$PTAK,FFD1,3.2*54
$GPRMC,230026.6,A,4739.94884,N,12223.85166,W,000.01,095.7,040813,016.6,E,D*28
$PGRME,2.4,M,2.4,M,3.4,M*29
$HCHDG,82.5,0.0,E,,*16
$HCHDG,82.5,0.0,E,,*16
$GPRMC,230026.8,A,4739.94884,N,12223.85166,W,000.01,095.7,040813,016.6,E,D*26
$GPRMB,A,0.00,L,Shil,Shil,4741.0830,N,12224.5670,W,1.2,337,-0.00,V*2D
$PGRME,2.4,M,2.4,M,3.4,M*29
$HCHDG,82.6,0.0,E,,*15
$HCHDG,82.6,0.0,E,,*15
$GPRMC,230027.0,A,4739.94884,N,12223.85166,W,000.01,095.7,040813,016.6,E,D*2F
$PGRME,2.4,M,2.4,M,3.4,M*29
$HCHDG,82.7,0.0,E,,*14
$IIVWR,179,L,06.6,N,,,,*70
$YXXDR,A,5.9,D,PTCH,A,2.7,D,ROLL*54
$IIDPT,011.9,-1.0,*49
$HCHDG,82.8,0.0,E,,*1B
$IIGLL,4739.948,N,12223.851,W,230000,A,A*43
$GPRMC,230027.2,A,4739.94884,N,12223.85166,W,000.01,095.7,040813,016.6,E,D*2D
$PGRME,2.4,M,2.4,M,3.4,M*29
$HCHDG,82.8,0.0,E,,*1B
$IIMTW,+18.0,C*31
$IIMWV,181,R,06.6,N,A*1B
$HCHDG,82.8,0.0,E,,*1B
$IIMWV,177,T,06.5,N,A*17
$GPRMC,230027.4,A,4739.94884,N,12223.85166,W,000.01,095.7,040813,016.6,E,D*2B
$PGRME,2.4,M,2.4,M,3.4,M*29
$HCHDG,82.8,0.0,E,,*1B
$IIRMB,A,0.00,L,,Shil,,,,,001.2,337,,V,A*7D
$HCHDG,82.7,0.0,E,,*14
$IIRMC,230000,A,4739.948,N,12223.851,W,00.0,095,040813,16,E,A*1A
$YXXDR,A,5.8,D,PTCH,A,2.1,D,ROLL*53
$PTAK,FFD1,2.1*56
$GPRMC,230027.6,A,4739.94884,N,12223.85166,W,000.01,095.7,040813,016.6,E,D*29
$PGRME,2.4,M,2.4,M,3.4,M*29
$HCHDG,82.7,0.0,E,,*14
$HCHDG,82.7,0.0,E,,*14
$GPRMC,230027.8,A,4739.94884,N,12223.85166,W,000.02,095.7,040813,016.6,E,D*24
$PGRME,2.4,M,2.4,M,3.4,M*29
$HCHDG,82.6,0.0,E,,*15
$HCHDG,82.4,0.0,E,,*17
$GPRMC,230028.0,A,4739.94884,N,12223.85166,W,000.00,095.7,040813,016.6,E,D*21
$GPRMB,A,0.00,L,Shil,Shil,4741.0830,N,12224.5670,W,1.2,337,-0.00,V*2D
$PGRME,2.4,M,2.4,M,3.4,M*29
$HCHDG,82.4,0.0,E,,*17
$IIVHW,,,,,00.0,N,,*19
$YXXDR,A,5.8,D,PTCH,A,1.9,D,ROLL*58
$IIVLW,02057,N,023.4,N*56
$HCHDG,82.4,0.0,E,,*17
$IIVWR,179,L,06.6,N,,,,*70
$GPRMC,230028.2,A,4739.94883,N,12223.85166,W,000.01,095.7,040813,016.6,E,D*25
$IIDPT,011.9,-1.0,*49
$PGRME,2.4,M,2.4,M,3.4,M*29
$HCHDG,82.6,0.0,E,,*15
$IIGLL,4739.948,N,12223.851,W,230000,A,A*43
$HCHDG,82.6,0.0,E,,*15
$IIMTW,+18.0,C*31
$IIMWV,181,R,06.6,N,A*1B
$GPRMC,230028.4,A,4739.94883,N,12223.85166,W,000.00,095.7,040813,016.6,E,D*22
$PGRME,2.4,M,2.4,M,3.4,M*29
$HCHDG,82.5,0.0,E,,*16
$IIMWV,181,T,06.6,N,A*1D
$HCHDG,82.5,0.0,E,,*16
$IIRMB,A,0.00,L,,Shil,,,,,001.2,337,,V,A*7D
$YXXDR,A,5.9,D,PTCH,A,2.7,D,ROLL*54
$GPRMC,230028.6,A,4739.94883,N,12223.85166,W,000.00,095.7,040813,016.6,E,D*20
$PTAK,FFP1,HEEL,@*07
$PGRME,2.4,M,2.4,M,3.4,M*29
$HCHDG,82.5,0.0,E,,*16
$HCHDG,82.5,0.0,E,,*16
$GPRMC,230028.8,A,4739.94883,N,12223.85166,W,000.01,095.7,040813,016.6,E,D*2F
$PGRME,2.4,M,2.4,M,3.4,M*29
$HCHDG,82.6,0.0,E,,*15
$HCHDG,82.6,0.0,E,,*15
$GPRMC,230029.0,A,4739.94883,N,12223.85166,W,000.01,095.7,040813,016.6,E,D*26
$PGRME,2.4,M,2.4,M,3.4,M*29
$HCHDG,82.6,0.0,E,,*15
$YXXDR,A,5.8,D,PTCH,A,2.9,D,ROLL*5B
$PTAK,FFD1,2.9*5E
$IIRMC,230000,A,4739.948,N,12223.851,W,00.0,095,040813,16,E,A*1A
$HCHDG,82.6,0.0,E,,*15
$IIVHW,,,,,00.0,N,,*19
$GPRMC,230029.2,A,4739.94883,N,12223.85166,W,000.01,095.7,040813,016.6,E,D*24
$GPRMB,A,0.00,L,Shil,Shil,4741.0830,N,12224.5670,W,1.2,337,-0.00,V*2D
$PGRME,2.4,M,2.4,M,3.4,M*29
$HCHDG,82.7,0.0,E,,*14
$IIVLW,02057,N,023.4,N*56
$IIVWR,176,L,06.7,N,,,,*7E
$HCHDG,82.7,0.0,E,,*14
$IIDPT,011.9,-1.0,*49
$GPRMC,230029.4,A,4739.94883,N,12223.85166,W,000.00,095.7,040813,016.6,E,D*23
$PGRME,2.4,M,2.4,M,3.4,M*29
$HCHDG,82.7,0.0,E,,*14
$IIGLL,4739.948,N,12223.851,W,230000,A,A*43
$IIMTW,+18.0,C*31
$HCHDG,82.8,0.0,E,,*1B
$IIMWV,184,R,06.7,N,A*1F
$IIMWV,181,T,06.6,N,A*1D
$YXXDR,A,5.8,D,PTCH,A,2.4,D,ROLL*56
$GPRMC,230029.6,A,4739.94883,N,12223.85166,W,000.01,095.7,040813,016.6,E,D*20
$PGRME,2.4,M,2.4,M,3.4,M*29
$HCHDG,82.7,0.0,E,,*14
$HCHDG,82.8,0.0,E,,*1B
$GPRMC,230029.8,A,4739.94882,N,12223.85166,W,000.01,095.7,040813,016.6,E,D*2F
$PGRME,2.4,M,2.4,M,3.4,M*29
$HCHDG,82.6,0.0,E,,*15
$HCHDG,82.5,0.0,E,,*16
$GPRMC,230030.0,A,4739.94882,N,12223.85166,W,000.01,095.7,040813,016.6,E,D*2F
$PGRME,2.4,M,2.4,M,3.4,M*29
$HCHDG,82.5,0.0,E,,*16
$IIRMB,A,0.00,L,,Shil,,,,,001.2,337,,V,A*7D
$YXXDR,A,6.0,D,PTCH,A,1.8,D,ROLL*52
$PTAK,FFD1,1.8*5C
$HCHDG,82.5,0.0,E,,*16
$GPRMC,230030.2,A,4739.94882,N,12223.85166,W,000.00,095.7,040813,016.6,E,D*2C
$PGRME,2.4,M,2.4,M,3.4,M*29
$HCHDG,82.7,0.0,E,,*14
$IIRMC,230000,A,4739.948,N,12223.851,W,00.0,095,040813,16,E,A*1A
$IIVHW,,,,,00.0,N,,*19
$HCHDG,82.7,0.0,E,,*14
$IIVLW,02057,N,023.4,N*56
$IIVWR,173,L,06.7,N,,,,*7B
$GPRMC,230030.4,A,4739.94882,N,12223.85166,W,000.00,095.7,040813,016.6,E,D*2A
$GPRMB,A,0.00,L,Shil,Shil,4741.0830,N,12224.5670,W,1.2,337,-0.00,V*2D
$PGRME,2.4,M,2.4,M,3.4,M*29
$HCHDG,82.7,0.0,E,,*14
$IIDPT,011.9,-1.0,*49
$HCHDG,82.6,0.0,E,,*15
$IIGLL,4739.948,N,12223.851,W,230000,A,A*43
$IIMTW,+18.0,C*31
$YXXDR,A,5.9,D,PTCH,A,1.9,D,ROLL*59
$GPRMC,230030.6,A,4739.94882,N,12223.85165,W,000.01,095.7,040813,016.6,E,D*2A
$PGRME,2.4,M,2.4,M,3.4,M*29
$HCHDG,82.6,0.0,E,,*15
$HCHDG,82.6,0.0,E,,*15
$GPRMC,230030.8,A,4739.94882,N,12223.85165,W,000.01,095.7,040813,016.6,E,D*24
$PGRME,2.4,M,2.4,M,3.4,M*29
$HCHDG,82.6,0.0,E,,*15
$HCHDG,82.6,0.0,E,,*15
$GPRMC,230031.0,A,4739.94882,N,12223.85165,W,000.01,095.7,040813,016.6,E,D*2D
$PGRME,2.4,M,2.4,M,3.4,M*29
$HCHDG,82.6,0.0,E,,*15
$IIMWV,185,R,06.6,N,A*1F
$YXXDR,A,5.9,D,PTCH,A,1.7,D,ROLL*57
$IIMWV,187,T,06.7,N,A*1A
$HCHDG,82.6,0.0,E,,*15
$IIRMB,A,0.00,L,,Shil,,,,,001.2,337,,V,A*7D
$GPRMC,230031.2,A,4739.94882,N,12223.85165,W,000.01,095.7,040813,016.6,E,D*2F
$PGRME,2.4,M,2.4,M,3.4,M*29
$HCHDG,82.6,0.0,E,,*15
$HCHDG,82.7,0.0,E,,*14
$IIRMC,230000,A,4739.948,N,12223.851,W,00.0,095,040813,16,E,A*1A
$IIVHW,,,,,00.0,N,,*19
$GPRMC,230031.4,A,4739.94882,N,12223.85165,W,000.01,095.7,040813,016.6,E,D*29
$PGRME,2.4,M,2.4,M,3.4,M*29
$HCHDG,82.7,0.0,E,,*14
$IIVLW,02057,N,023.4,N*56
$IIVWR,175,L,06.6,N,,,,*7C
$HCHDG,82.8,0.0,E,,*1B
$IIDPT,011.9,-1.0,*49
$YXXDR,A,6.0,D,PTCH,A,2.4,D,ROLL*5D
$PTAK,FFD1,2.4*53
$GPRMC,230031.6,A,4739.94882,N,12223.85165,W,000.01,095.7,040813,016.6,E,D*2B
$GPRMB,A,0.00,L,Shil,Shil,4741.0830,N,12224.5670,W,1.2,337,-0.00,V*2D
$PGRME,2.4,M,2.4,M,3.4,M*29
$HCHDG,82.7,0.0,E,,*14
$HCHDG,82.8,0.0,E,,*1B
$GPRMC,230031.8,A,4739.94882,N,12223.85165,W,000.00,095.7,040813,016.6,E,D*24
$PGRME,2.4,M,2.4,M,3.4,M*29
$HCHDG,82.8,0.0,E,,*1B
$HCHDG,83.0,0.0,E,,*12
$GPRMC,230032.0,A,4739.94882,N,12223.85164,W,000.01,095.7,040813,016.6,E,D*2F
$PGRME,2.4,M,2.4,M,3.4,M*29
$HCHDG,83.0,0.0,E,,*12
$IIGLL,4739.948,N,12223.851,W,230000,A,A*43
$YXXDR,A,5.7,D,PTCH,A,2.6,D,ROLL*5B
$IIMTW,+18.0,C*31
$HCHDG,83.0,0.0,E,,*12
$IIMWV,184,R,07.0,N,A*19
$GPRMC,230032.2,A,4739.94882,N,12223.85164,W,000.01,095.7,040813,016.6,E,D*2D
$PGRME,2.4,M,2.4,M,3.4,M*29
$HCHDG,83.0,0.0,E,,*12
$IIMWV,185,T,06.6,N,A*19
$HCHDG,83.1,0.0,E,,*13
$IIRMB,A,0.00,L,,Shil,,,,,001.2,337,,V,A*7D
$GPRMC,230032.4,A,4739.94882,N,12223.85164,W,000.00,095.7,040813,016.6,E,D*2A
$PGRME,2.4,M,2.4,M,3.4,M*29
$HCHDG,83.0,0.0,E,,*12
$IIRMC,230000,A,4739.948,N,12223.851,W,00.0,095,040813,16,E,A*1A
$IIVHW,,,,,00.0,N,,*19
$HCHDG,83.0,0.0,E,,*12
$IIVLW,02057,N,023.4,N*56
$GPRMC,230032.6,A,4739.94882,N,12223.85164,W,000.01,095.7,040813,016.6,E,D*29
$YXXDR,A,6.0,D,PTCH,A,1.8,D,ROLL*52
$PTAK,FFD1,1.8*5C
$PTAK,FFP1,HEEL,@*07
$PGRME,2.4,M,2.4,M,3.4,M*29
$HCHDG,83.1,0.0,E,,*13
$HCHDG,83.0,0.0,E,,*12
$GPRMC,230032.8,A,4739.94882,N,12223.85164,W,000.00,095.7,040813,016.6,E,D*26
$GPRMB,A,0.00,L,Shil,Shil,4741.0830,N,12224.5670,W,1.2,337,-0.00,V*2D
$PGRME,2.4,M,2.4,M,3.4,M*29
$HCHDG,83.0,0.0,E,,*12
$HCHDG,83.0,0.0,E,,*12
$GPRMC,230033.0,A,4739.94882,N,12223.85164,W,000.00,095.7,040813,016.6,E,D*2F
$PGRME,2.4,M,2.4,M,3.4,M*29
$HCHDG,82.9,0.0,E,,*1A
$IIVWR,171,L,07.1,N,,,,*7E
$YXXDR,A,5.8,D,PTCH,A,1.7,D,ROLL*56
$IIDPT,011.9,-1.0,*49
$HCHDG,82.9,0.0,E,,*1A
$IIGLL,4739.948,N,12223.851,W,230000,A,A*43
$GPRMC,230033.2,A,4739.94882,N,12223.85164,W,000.00,095.7,040813,016.6,E,D*2D
$PGRME,2.4,M,2.4,M,3.4,M*29
$HCHDG,82.9,0.0,E,,*1A
$IIMTW,+18.0,C*31
$IIMWV,189,R,07.1,N,A*15
$HCHDG,82.9,0.0,E,,*1A
$IIMWV,184,T,07.0,N,A*1F
$GPRMC,230033.4,A,4739.94882,N,12223.85164,W,000.00,095.7,040813,016.6,E,D*2B
$PGRME,2.4,M,2.4,M,3.4,M*29
$HCHDG,82.9,0.0,E,,*1A
$IIRMB,A,0.00,L,,Shil,,,,,001.2,337,,V,A*7D
$HCHDG,82.9,0.0,E,,*1A
$IIRMC,230000,A,4739.948,N,12223.851,W,00.0,095,040813,16,E,A*1A
$YXXDR,A,5.9,D,PTCH,A,2.3,D,ROLL*50
$GPRMC,230033.6,A,4739.94882,N,12223.85164,W,000.00,095.7,040813,016.6,E,D*29
$PGRME,2.4,M,2.4,M,3.4,M*29
$HCHDG,82.9,0.0,E,,*1A
$HCHDG,83.0,0.0,E,,*12
$GPRMC,230033.8,A,4739.94882,N,12223.85164,W,000.00,095.7,040813,016.6,E,D*27
$PGRME,2.4,M,2.4,M,3.4,M*29
$HCHDG,83.1,0.0,E,,*13
$HCHDG,83.2,0.0,E,,*10
$GPRMC,230034.0,A,4739.94882,N,12223.85164,W,000.01,095.7,040813,016.6,E,D*29
$GPRMB,A,0.00,L,Shil,Shil,4741.0830,N,12224.5670,W,1.2,337,-0.00,V*2D
$PGRME,2.4,M,2.4,M,3.4,M*29
$HCHDG,83.3,0.0,E,,*11
$IIVHW,,,,,00.0,N,,*19
$YXXDR,A,6.0,D,PTCH,A,2.7,D,ROLL*5E
$PTAK,FFD1,2.7*50
$IIVLW,02057,N,023.4,N*56
$HCHDG,83.4,0.0,E,,*16
$IIVWR,171,L,06.6,N,,,,*78
$GPRMC,230034.2,A,4739.94882,N,12223.85164,W,000.01,095.7,040813,016.6,E,D*2B
$IIDPT,011.9,-1.0,*49
$PGRME,2.4,M,2.4,M,3.4,M*29
$HCHDG,83.5,0.0,E,,*17
$IIGLL,4739.948,N,12223.851,W,230000,A,A*43
$HCHDG,83.5,0.0,E,,*17
$IIMTW,+18.0,C*31
$IIMWV,189,R,06.6,N,A*13
$GPRMC,230034.4,A,4739.94882,N,12223.85164,W,000.02,095.7,040813,016.6,E,D*2E
$PGRME,2.4,M,2.4,M,3.4,M*29
$HCHDG,83.6,0.0,E,,*14
$IIMWV,189,T,07.1,N,A*13
$HCHDG,83.5,0.0,E,,*17
$IIRMB,A,0.00,L,,Shil,,,,,001.2,337,,V,A*7D
$YXXDR,A,6.0,D,PTCH,A,2.6,D,ROLL*5F
$GPRMC,230034.6,A,4739.94882,N,12223.85164,W,000.02,095.7,040813,016.6,E,D*2C
$PGRME,2.4,M,2.4,M,3.4,M*29
$HCHDG,83.6,0.0,E,,*14
$HCHDG,83.6,0.0,E,,*14
$GPRMC,230034.8,A,4739.94882,N,12223.85164,W,000.02,095.7,040813,016.6,E,D*22
$PGRME,2.4,M,2.4,M,3.4,M*29
$HCHDG,83.6,0.0,E,,*14
$HCHDG,83.6,0.0,E,,*14
$GPRMC,230035.0,A,4739.94882,N,12223.85164,W,000.01,095.7,040813,016.6,E,D*28
$PGRME,2.4,M,2.4,M,3.4,M*29
$HCHDG,83.6,0.0,E,,*14
$YXXDR,A,6.0,D,PTCH,A,1.8,D,ROLL*52
$HCHDG,83.6,0.0,E,,*14
$GPRMC,230035.2,A,4739.94882,N,12223.85164,W,000.00,095.7,040813,016.6,E,D*2B
$GPRMB,A,0.00,L,Shil,Shil,4741.0830,N,12224.5670,W,1.2,337,-0.00,V*2D
$PGRME,2.4,M,2.4,M,3.4,M*29
$HCHDG,83.6,0.0,E,,*14
$HCHDG,83.6,0.0,E,,*14
$GPRMC,230035.4,A,4739.94882,N,12223.85165,W,000.01,095.7,040813,016.6,E,D*2D
$PGRME,2.4,M,2.4,M,3.4,M*29
$HCHDG,83.5,0.0,E,,*17
$HCHDG,83.3,0.0,E,,*11
$YXXDR,A,5.9,D,PTCH,A,1.7,D,ROLL*57
$PTAK,FFD1,1.7*53
$GPRMC,230035.6,A,4739.94882,N,12223.85165,W,000.01,095.7,040813,016.6,E,D*2F
$PGRME,2.4,M,2.4,M,3.4,M*29
$HCHDG,83.3,0.0,E,,*11
$HCHDG,83.2,0.0,E,,*10
$GPRMC,230035.8,A,4739.94882,N,12223.85164,W,000.01,095.7,040813,016.6,E,D*20
$PGRME,2.4,M,2.4,M,3.4,M*29
$HCHDG,83.2,0.0,E,,*10
$HCHDG,83.2,0.0,E,,*10
$GPRMC,230036.0,A,4739.94882,N,12223.85165,W,000.00,095.7,040813,016.6,E,D*2B
$PGRME,2.4,M,2.4,M,3.4,M*29
$HCHDG,83.1,0.0,E,,*13
$YXXDR,A,6.0,D,PTCH,A,1.9,D,ROLL*53
$HCHDG,83.2,0.0,E,,*10
$GPRMC,230036.2,A,4739.94882,N,12223.85164,W,000.01,095.7,040813,016.6,E,D*29
$GPRMB,A,0.00,L,Shil,Shil,4741.0830,N,12224.5670,W,1.2,337,-0.00,V*2D
$PGRME,2.4,M,2.4,M,3.4,M*29
$HCHDG,83.2,0.0,E,,*10
$HCHDG,83.3,0.0,E,,*11
$GPRMC,230036.4,A,4739.94882,N,12223.85164,W,000.01,095.7,040813,016.6,E,D*2F
$PGRME,2.4,M,2.4,M,3.4,M*29
$HCHDG,83.3,0.0,E,,*11
$HCHDG,83.3,0.0,E,,*11
$YXXDR,A,5.8,D,PTCH,A,2.6,D,ROLL*54
$PTAK,FFD1,2.6*51
$GPRMC,230036.6,A,4739.94882,N,12223.85164,W,000.00,095.7,040813,016.6,E,D*2C
$PGRME,2.4,M,2.4,M,3.4,M*29
$HCHDG,83.3,0.0,E,,*11
$PTAK,FFP1,HEEL,@*07
$HCHDG,83.4,0.0,E,,*16
$GPRMC,230036.8,A,4739.94882,N,12223.85164,W,000.01,095.7,040813,016.6,E,D*23
$PGRME,2.4,M,2.4,M,3.4,M*29
$HCHDG,83.3,0.0,E,,*11
$HCHDG,83.3,0.0,E,,*11
$GPRMC,230037.0,A,4739.94882,N,12223.85164,W,000.00,095.7,040813,016.6,E,D*2B
$PGRME,2.4,M,2.4,M,3.4,M*29
$HCHDG,83.3,0.0,E,,*11
$YXXDR,A,5.8,D,PTCH,A,2.4,D,ROLL*56
$IIRMC,230000,A,4739.948,N,12223.851,W,00.0,095,040813,16,E,A*1A
$HCHDG,83.4,0.0,E,,*16
$IIVHW,,,,,00.0,N,,*19
$GPRMC,230037.2,A,4739.94882,N,12223.85164,W,000.01,095.7,040813,016.6,E,D*28
$GPRMB,A,0.00,L,Shil,Shil,4741.0830,N,12224.5670,W,1.2,337,-0.00,V*2D
$HCHDG,83.4,0.0,E,,*16
$PGRME,2.4,M,2.4,M,3.4,M*29
$IIVLW,02057,N,023.4,N*56
$IIVWR,174,L,06.5,N,,,,*7E
$HCHDG,83.4,0.0,E,,*16
$IIDPT,011.9,-1.0,*49
$GPRMC,230037.4,A,4739.94882,N,12223.85164,W,000.01,095.7,040813,016.6,E,D*2E
$PGRME,2.4,M,2.4,M,3.4,M*29
$HCHDG,83.3,0.0,E,,*11
$IIGLL,4739.948,N,12223.851,W,230000,A,A*43
$IIMTW,+18.0,C*31
$HCHDG,83.3,0.0,E,,*11
$IIMWV,186,R,06.5,N,A*1F
$IIMWV,189,T,06.6,N,A*15
$YXXDR,A,5.9,D,PTCH,A,2.0,D,ROLL*53
$PTAK,FFD1,2.0*57
$GPRMC,230037.6,A,4739.94882,N,12223.85164,W,000.00,095.7,040813,016.6,E,D*2D
$PGRME,2.4,M,2.4,M,3.4,M*29
$HCHDG,83.3,0.0,E,,*11
$HCHDG,83.2,0.0,E,,*10
$GPRMC,230037.8,A,4739.94881,N,12223.85164,W,000.01,095.7,040813,016.6,E,D*21
$PGRME,2.4,M,2.4,M,3.4,M*29
$HCHDG,83.2,0.0,E,,*10
$HCHDG,83.2,0.0,E,,*10
$GPRMC,230038.0,A,4739.94881,N,12223.85164,W,000.01,095.7,040813,016.6,E,D*26
$PGRME,2.4,M,2.4,M,3.4,M*29
$HCHDG,83.1,0.0,E,,*13
$IIRMB,A,0.00,L,,Shil,,,,,001.2,337,,V,A*7D
$YXXDR,A,6.0,D,PTCH,A,2.0,D,ROLL*59
$HCHDG,83.1,0.0,E,,*13
$GPRMC,230038.2,A,4739.94881,N,12223.85164,W,000.01,095.7,040813,016.6,E,D*24
$PGRME,2.4,M,2.4,M,3.4,M*29
$HCHDG,83.1,0.0,E,,*13
$IIRMC,230000,A,4739.948,N,12223.851,W,00.0,095,040813,16,E,A*1A
$IIVHW,,,,,00.0,N,,*19
$HCHDG,83.1,0.0,E,,*13
$IIVLW,02057,N,023.4,N*56
$IIVWR,168,L,05.7,N,,,,*72
$GPRMC,230038.4,A,4739.94881,N,12223.85164,W,000.00,095.7,040813,016.6,E,D*23
$GPRMB,A,0.00,L,Shil,Shil,4741.0830,N,12224.5670,W,1.2,337,-0.00,V*2D
$HCHDG,83.0,0.0,E,,*12
$PGRME,2.4,M,2.4,M,3.4,M*29
$IIDPT,021.7,-1.0,*44
$HCHDG,83.0,0.0,E,,*12
$IIGLL,4739.948,N,12223.851,W,230000,A,A*43
$IIMTW,+18.0,C*31
$YXXDR,A,5.8,D,PTCH,A,1.9,D,ROLL*58
$PTAK,FFD1,1.9*5D
$GPRMC,230038.6,A,4739.94881,N,12223.85164,W,000.01,095.7,040813,016.6,E,D*20
$PGRME,2.4,M,2.4,M,3.4,M*29
$HCHDG,82.9,0.0,E,,*1A
$HCHDG,82.9,0.0,E,,*1A
$GPRMC,230038.8,A,4739.94881,N,12223.85164,W,000.01,095.7,040813,016.6,E,D*2E
$PGRME,2.4,M,2.4,M,3.4,M*29
$HCHDG,82.9,0.0,E,,*1A
$HCHDG,82.9,0.0,E,,*1A
$GPRMC,230039.0,A,4739.94881,N,12223.85164,W,000.01,095.7,040813,016.6,E,D*27
$PGRME,2.4,M,2.4,M,3.4,M*29
$HCHDG,82.9,0.0,E,,*1A
$IIMWV,195,R,05.6,N,A*1D
$YXXDR,A,5.8,D,PTCH,A,1.7,D,ROLL*56
$IIMWV,192,T,05.7,N,A*1D
$HCHDG,83.0,0.0,E,,*12
$IIRMB,A,0.00,L,,Shil,,,,,001.2,337,,V,A*7D
$GPRMC,230039.2,A,4739.94881,N,12223.85164,W,000.01,095.7,040813,016.6,E,D*25
$PGRME,2.4,M,2.4,M,3.4,M*29
$HCHDG,83.0,0.0,E,,*12
$HCHDG,83.0,0.0,E,,*12
$IIRMC,230000,A,4739.948,N,12223.851,W,00.0,095,040813,16,E,A*1A
$IIVHW,,,,,00.0,N,,*19
$GPRMC,230039.4,A,4739.94881,N,12223.85164,W,000.01,095.7,040813,016.6,E,D*23
$PGRME,2.4,M,2.4,M,3.4,M*29
$HCHDG,83.0,0.0,E,,*12
$IIVLW,02057,N,023.4,N*56
$IIVWR,165,L,05.6,N,,,,*7E
$HCHDG,83.0,0.0,E,,*12
$IIDPT,022.0,-1.0,*40
$YXXDR,A,5.8,D,PTCH,A,1.4,D,ROLL*55
$GPRMC,230039.6,A,4739.94881,N,12223.85164,W,000.01,095.7,040813,016.6,E,D*21
$GPRMB,A,0.00,L,Shil,Shil,4741.0830,N,12224.5670,W,1.2,337,-0.00,V*2D
$PGRME,2.4,M,2.4,M,3.4,M*29
$HCHDG,83.0,0.0,E,,*12
$HCHDG,83.0,0.0,E,,*12
$GPRMC,230039.8,A,4739.94881,N,12223.85164,W,000.01,095.7,040813,016.6,E,D*2F
$PGRME,2.4,M,2.4,M,3.4,M*29
$HCHDG,83.0,0.0,E,,*12
$HCHDG,82.9,0.0,E,,*1A
$GPRMC,230040.0,A,4739.94881,N,12223.85164,W,000.01,095.7,040813,016.6,E,D*29
$PGRME,2.4,M,2.4,M,3.4,M*29
$HCHDG,83.0,0.0,E,,*12
$IIGLL,4739.948,N,12223.851,W,230000,A,A*43
$YXXDR,A,5.8,D,PTCH,A,0.7,D,ROLL*57
$PTAK,FFD1,0.7*52
$IIMTW,+18.0,C*31
$HCHDG,82.9,0.0,E,,*1A
$IIMWV,195,R,05.4,N,A*1F
$GPRMC,230040.2,A,4739.94881,N,12223.85164,W,000.01,095.7,040813,016.6,E,D*2B
$PGRME,2.4,M,2.4,M,3.4,M*29
$HCHDG,82.9,0.0,E,,*1A
$IIMWV,195,T,05.6,N,A*1B
$HCHDG,82.9,0.0,E,,*1A
$IIRMB,A,0.00,L,,Shil,,,,,001.2,337,,V,A*7D
$GPRMC,230040.4,A,4739.94881,N,12223.85164,W,000.01,095.7,040813,016.6,E,D*2D
$PGRME,2.4,M,2.4,M,3.4,M*29
$HCHDG,82.8,0.0,E,,*1B
$IIRMC,230000,A,4739.948,N,12223.851,W,00.0,095,040813,16,E,A*1A
$HCHDG,82.8,0.0,E,,*1B
$IIVHW,,,,,00.0,N,,*19
$IIVLW,02057,N,023.4,N*56
$YXXDR,A,5.9,D,PTCH,A,0.5,D,ROLL*54
$GPRMC,230040.6,A,4739.94880,N,12223.85164,W,000.00,095.7,040813,016.6,E,D*2F
$PGRME,2.4,M,2.4,M,3.4,M*29
$HCHDG,82.8,0.0,E,,*1B
$HCHDG,82.7,0.0,E,,*14
$PTAK,FFP1,HEEL,@*07
$GPRMC,230040.8,A,4739.94880,N,12223.85164,W,000.01,095.7,040813,016.6,E,D*20
$GPRMB,A,0.00,L,Shil,Shil,4741.0830,N,12224.5670,W,1.2,337,-0.00,V*2D
$PGRME,2.4,M,2.4,M,3.4,M*29
$HCHDG,82.6,0.0,E,,*15
$HCHDG,82.6,0.0,E,,*15
$GPRMC,230041.0,A,4739.94880,N,12223.85165,W,000.01,095.7,040813,016.6,E,D*28
$PGRME,2.4,M,2.4,M,3.5,M*28
$HCHDG,82.6,0.0,E,,*15
$IIVWR,171,L,05.4,N,,,,*79
$YXXDR,A,6.0,D,PTCH,A,1.8,D,ROLL*52
$IIDPT,011.9,-1.0,*49
$HCHDG,82.6,0.0,E,,*15
$IIGLL,4739.948,N,12223.851,W,230000,A,A*43
$GPRMC,230041.2,A,4739.94880,N,12223.85165,W,000.01,095.7,040813,016.6,E,D*2A
$PGRME,2.5,M,2.4,M,3.5,M*29
$HCHDG,82.6,0.0,E,,*15
$IIMTW,+18.0,C*31
$IIMWV,189,R,05.4,N,A*12
$HCHDG,82.6,0.0,E,,*15
$IIMWV,195,T,05.4,N,A*19
$GPRMC,230041.4,A,4739.94879,N,12223.85166,W,000.00,095.7,040813,016.6,E,D*28
$PGRME,2.5,M,2.4,M,3.5,M*29
$HCHDG,82.6,0.0,E,,*15
$IIRMB,A,0.00,L,,Shil,,,,,001.2,337,,V,A*7D
$HCHDG,82.7,0.0,E,,*14
$IIRMC,230000,A,4739.948,N,12223.851,W,00.0,095,040813,16,E,A*1A
$YXXDR,A,5.8,D,PTCH,A,2.3,D,ROLL*51
$PTAK,FFD1,2.3*54
$GPRMC,230041.6,A,4739.94879,N,12223.85166,W,000.01,095.7,040813,016.6,E,D*2B
$PGRME,2.5,M,2.4,M,3.5,M*29
$HCHDG,82.7,0.0,E,,*14
$HCHDG,82.7,0.0,E,,*14
$GPRMC,230041.8,A,4739.94878,N,12223.85166,W,000.01,095.7,040813,016.6,E,D*24
$GPRMB,A,0.00,L,Shil,Shil,4741.0830,N,12224.5670,W,1.2,337,-0.00,V*2D
$PGRME,2.5,M,2.4,M,3.5,M*29
$HCHDG,82.8,0.0,E,,*1B
$HCHDG,82.9,0.0,E,,*1A
$GPRMC,230042.0,A,4739.94878,N,12223.85167,W,000.01,095.7,040813,016.6,E,D*2E
$PGRME,2.5,M,2.4,M,3.5,M*29
$HCHDG,82.8,0.0,E,,*1B
$IIVHW,,,,,00.0,N,,*19
$YXXDR,A,5.9,D,PTCH,A,2.0,D,ROLL*53
$IIVLW,02057,N,023.4,N*56
$HCHDG,82.8,0.0,E,,*1B
$IIVWR,172,L,05.4,N,,,,*7A
$GPRMC,230042.2,A,4739.94878,N,12223.85167,W,000.01,095.7,040813,016.6,E,D*2C
$PGRME,2.5,M,2.4,M,3.5,M*29
$IIDPT,011.9,-1.0,*49
$HCHDG,82.8,0.0,E,,*1B
$IIGLL,4739.948,N,12223.851,W,230000,A,A*43
$HCHDG,82.8,0.0,E,,*1B
$IIMTW,+18.0,C*31
$IIMWV,188,R,05.4,N,A*13
$GPRMC,230042.4,A,4739.94878,N,12223.85167,W,000.01,095.7,040813,016.6,E,D*2A
$PGRME,2.5,M,2.4,M,3.5,M*29
$HCHDG,82.8,0.0,E,,*1B
$IIMWV,189,T,05.4,N,A*14
$HCHDG,82.8,0.0,E,,*1B
$IIRMB,A,0.00,L,,Shil,,,,,001.2,337,,V,A*7D
$YXXDR,A,5.8,D,PTCH,A,1.7,D,ROLL*56
$GPRMC,230042.6,A,4739.94879,N,12223.85167,W,000.01,095.7,040813,016.6,E,D*29
$PGRME,2.5,M,2.4,M,3.5,M*29
$HCHDG,82.8,0.0,E,,*1B
$HCHDG,82.8,0.0,E,,*1B
$GPRMC,230042.8,A,4739.94878,N,12223.85167,W,000.01,095.7,040813,016.6,E,D*26
$GPRMB,A,0.00,L,Shil,Shil,4741.0830,N,12224.5670,W,1.2,337,-0.00,V*2D
$PGRME,2.5,M,2.4,M,3.5,M*29
$HCHDG,82.8,0.0,E,,*1B
$HCHDG,82.8,0.0,E,,*1B
$GPRMC,230043.0,A,4739.94879,N,12223.85167,W,000.01,095.7,040813,016.6,E,D*2E
$PGRME,2.5,M,2.4,M,3.5,M*29
$HCHDG,82.8,0.0,E,,*1B
$YXXDR,A,5.9,D,PTCH,A,1.4,D,ROLL*54
$PTAK,FFD1,1.4*50
$IIRMC,230000,A,4739.948,N,12223.851,W,00.0,095,040813,16,E,A*1A
$HCHDG,82.8,0.0,E,,*1B
$IIVHW,,,,,00.0,N,,*19
$GPRMC,230043.2,A,4739.94879,N,12223.85167,W,000.01,095.7,040813,016.6,E,D*2C
$PGRME,2.5,M,2.4,M,3.5,M*29
$HCHDG,82.7,0.0,E,,*14
$IIVLW,02057,N,023.4,N*56
$IIVWR,169,L,05.4,N,,,,*70
$HCHDG,82.7,0.0,E,,*14
$IIDPT,011.9,-1.0,*49
$GPRMC,230043.4,A,4739.94879,N,12223.85167,W,000.01,095.7,040813,016.6,E,D*2A
$PGRME,2.5,M,2.4,M,3.5,M*29
$HCHDG,82.7,0.0,E,,*14
$IIGLL,4739.948,N,12223.851,W,230000,A,A*43
$IIMTW,+18.0,C*31
$HCHDG,82.7,0.0,E,,*14
$IIMWV,191,R,05.4,N,A*1B
$IIMWV,188,T,05.4,N,A*15
$GPRMC,230043.6,A,4739.94879,N,12223.85167,W,000.01,095.7,040813,016.6,E,D*28
$YXXDR,A,5.9,D,PTCH,A,1.6,D,ROLL*56
$PGRME,2.5,M,2.4,M,3.5,M*29
$HCHDG,82.7,0.0,E,,*14
$HCHDG,82.7,0.0,E,,*14
$GPRMC,230043.8,A,4739.94879,N,12223.85166,W,000.01,095.7,040813,016.6,E,D*27
$GPRMB,A,0.00,L,Shil,Shil,4741.0830,N,12224.5670,W,1.2,337,-0.00,V*2D
$PGRME,2.5,M,2.4,M,3.5,M*29
$HCHDG,82.8,0.0,E,,*1B
$HCHDG,82.8,0.0,E,,*1B
$GPRMC,230044.0,A,4739.94879,N,12223.85166,W,000.01,095.7,040813,016.6,E,D*28
$PGRME,2.5,M,2.4,M,3.5,M*29
$PGRMT,GPS 18x-5Hz software ver. 3.20,,,,,,,,*30
$HCHDG,82.7,0.0,E,,*14
$IIRMB,A,0.00,L,,Shil,,,,,001.2,337,,V,A*7D
$YXXDR,A,6.0,D,PTCH,A,1.4,D,ROLL*5E
$PTAK,FFD1,1.4*50
$HCHDG,82.8,0.0,E,,*1B
$GPRMC,230044.2,A,4739.94879,N,12223.85166,W,000.01,095.7,040813,016.6,E,D*2A
$PGRME,2.5,M,2.4,M,3.5,M*29
$HCHDG,82.8,0.0,E,,*1B
$IIRMC,230000,A,4739.948,N,12223.851,W,00.0,095,040813,16,E,A*1A
$IIVHW,,,,,00.0,N,,*19
$HCHDG,82.7,0.0,E,,*14
$IIVLW,02057,N,023.4,N*56
$IIVWR,169,L,05.5,N,,,,*71
$GPRMC,230044.4,A,4739.94879,N,12223.85166,W,000.01,095.7,040813,016.6,E,D*2C
$PGRME,2.5,M,2.4,M,3.5,M*29
$HCHDG,82.7,0.0,E,,*14
$IIDPT,011.9,-1.0,*49
$HCHDG,82.7,0.0,E,,*14
$IIGLL,4739.948,N,12223.851,W,230000,A,A*43
$IIMTW,+18.0,C*31
$GPRMC,230044.6,A,4739.94879,N,12223.85166,W,000.01,095.7,040813,016.6,E,D*2E
$YXXDR,A,5.9,D,PTCH,A,1.2,D,ROLL*52
$PGRME,2.5,M,2.4,M,3.5,M*29
$HCHDG,82.7,0.0,E,,*14
$PTAK,FFP1,HEEL,@*07
$HCHDG,82.7,0.0,E,,*14
$GPRMC,230044.8,A,4739.94879,N,12223.85166,W,000.01,095.7,040813,016.6,E,D*20
$PGRME,2.5,M,2.4,M,3.5,M*29
$HCHDG,82.7,0.0,E,,*14
$HCHDG,82.6,0.0,E,,*15
$GPRMC,230045.0,A,4739.94879,N,12223.85167,W,000.01,095.7,040813,016.6,E,D*28
$GPRMB,A,0.00,L,Shil,Shil,4741.0830,N,12224.5670,W,1.2,337,-0.00,V*2D
$PGRME,2.5,M,2.4,M,3.5,M*29
$HCHDG,82.6,0.0,E,,*15
$IIMWV,193,R,05.5,N,A*18
$YXXDR,A,6.0,D,PTCH,A,1.2,D,ROLL*58
$PTAK,FFD1,1.2*56
$IIMWV,191,T,05.5,N,A*1C
$HCHDG,82.5,0.0,E,,*16
$IIRMB,A,0.00,L,,Shil,,,,,001.2,337,,V,A*7D
$GPRMC,230045.2,A,4739.94879,N,12223.85167,W,000.01,095.7,040813,016.6,E,D*2A
$PGRME,2.4,M,2.4,M,3.4,M*29
$HCHDG,82.5,0.0,E,,*16
$HCHDG,82.5,0.0,E,,*16
$IIRMC,230000,A,4739.948,N,12223.851,W,00.0,095,040813,16,E,A*1A
$IIVHW,,,,,00.0,N,,*19
$GPRMC,230045.4,A,4739.94878,N,12223.85166,W,000.01,095.7,040813,016.6,E,D*2C
$PGRME,2.4,M,2.4,M,3.4,M*29
$HCHDG,82.5,0.0,E,,*16
$IIVLW,02057,N,023.4,N*56
$IIVWR,167,L,05.5,N,,,,*7F
$HCHDG,82.4,0.0,E,,*17
$IIDPT,067.7,-1.0,*46
$YXXDR,A,5.9,D,PTCH,A,1.2,D,ROLL*52
$GPRMC,230045.6,A,4739.94878,N,12223.85167,W,000.01,095.7,040813,016.6,E,D*2F
$PGRME,2.4,M,2.4,M,3.4,M*29
$HCHDG,82.1,0.0,E,,*12
$HCHDG,82.0,0.0,E,,*13
$GPRMC,230045.8,A,4739.94878,N,12223.85167,W,000.01,095.7,040813,016.6,E,D*21
$PGRME,2.4,M,2.4,M,3.4,M*29
$HCHDG,82.0,0.0,E,,*13
$HCHDG,82.0,0.0,E,,*13
$GPRMC,230046.0,A,4739.94878,N,12223.85167,W,000.01,095.7,040813,016.6,E,D*2A
$PGRME,2.4,M,2.4,M,3.4,M*29
$HCHDG,82.0,0.0,E,,*13
$IIGLL,4739.948,N,12223.851,W,230000,A,A*43
$YXXDR,A,6.0,D,PTCH,A,1.9,D,ROLL*53
$IIMTW,+18.0,C*31
$HCHDG,81.9,0.0,E,,*19
$IIMWV,194,R,05.5,N,A*1F
$GPRMC,230046.2,A,4739.94878,N,12223.85167,W,000.01,095.7,040813,016.6,E,D*28
$GPRMB,A,0.00,L,Shil,Shil,4741.0830,N,12224.5670,W,1.2,337,-0.00,V*2D
$PGRME,2.4,M,2.4,M,3.4,M*29
$HCHDG,82.0,0.0,E,,*13
$IIMWV,193,T,05.5,N,A*1E
$HCHDG,81.9,0.0,E,,*19
$IIRMB,A,0.00,L,,Shil,,,,,001.2,337,,V,A*7D
$GPRMC,230046.4,A,4739.94878,N,12223.85167,W,000.01,095.7,040813,016.6,E,D*2E
$PGRME,2.4,M,2.4,M,3.4,M*29
$HCHDG,81.9,0.0,E,,*19
$IIRMC,230000,A,4739.948,N,12223.851,W,00.0,095,040813,16,E,A*1A
$HCHDG,81.9,0.0,E,,*19
$IIVHW,,,,,00.0,N,,*19
$IIVLW,02057,N,023.4,N*56
$YXXDR,A,5.9,D,PTCH,A,2.3,D,ROLL*50
$PTAK,FFD1,2.3*54
$GPRMC,230046.6,A,4739.94878,N,12223.85167,W,000.01,095.7,040813,016.6,E,D*2C
$PGRME,2.4,M,2.4,M,3.4,M*29
$HCHDG,81.9,0.0,E,,*19
$HCHDG,81.8,0.0,E,,*18
$GPRMC,230046.8,A,4739.94878,N,12223.85167,W,000.01,095.7,040813,016.6,E,D*22
$PGRME,2.4,M,2.4,M,3.4,M*29
$HCHDG,81.8,0.0,E,,*18
$HCHDG,81.8,0.0,E,,*18
$GPRMC,230047.0,A,4739.94878,N,12223.85167,W,000.01,095.7,040813,016.6,E,D*2B
$PGRME,2.4,M,2.4,M,3.4,M*29
$HCHDG,81.8,0.0,E,,*18
$IIVWR,161,L,05.5,N,,,,*79
$YXXDR,A,6.0,D,PTCH,A,1.4,D,ROLL*5E
$IIDPT,011.9,-1.0,*49
$HCHDG,81.9,0.0,E,,*19
$IIGLL,4739.948,N,12223.851,W,230000,A,A*43
$GPRMC,230047.2,A,4739.94878,N,12223.85168,W,000.00,095.7,040813,016.6,E,D*27
$GPRMB,A,0.00,L,Shil,Shil,4741.0830,N,12224.5670,W,1.2,337,-0.00,V*2D
$PGRME,2.4,M,2.4,M,3.4,M*29
$HCHDG,81.8,0.0,E,,*18
$IIMTW,+18.0,C*31
$IIMWV,199,R,05.5,N,A*12
$HCHDG,81.8,0.0,E,,*18
$IIMWV,194,T,05.5,N,A*19
$GPRMC,230047.4,A,4739.94878,N,12223.85168,W,000.01,095.7,040813,016.6,E,D*20
$PGRME,2.4,M,2.4,M,3.4,M*29
$HCHDG,81.8,0.0,E,,*18
$IIRMB,A,0.00,L,,Shil,,,,,001.2,337,,V,A*7D
$HCHDG,81.8,0.0,E,,*18
$IIRMC,230000,A,4739.948,N,12223.851,W,00.0,095,040813,16,E,A*1A
$YXXDR,A,5.8,D,PTCH,A,1.4,D,ROLL*55
$PTAK,FFD1,1.4*50
$GPRMC,230047.6,A,4739.94878,N,12223.85168,W,000.01,095.7,040813,016.6,E,D*22
$PGRME,2.4,M,2.4,M,3.4,M*29
$HCHDG,81.8,0.0,E,,*18
$HCHDG,81.8,0.0,E,,*18
$GPRMC,230047.8,A,4739.94879,N,12223.85168,W,000.02,095.7,040813,016.6,E,D*2E
$PGRME,2.4,M,2.4,M,3.4,M*29
$HCHDG,81.8,0.0,E,,*18
$HCHDG,81.8,0.0,E,,*18
$GPRMC,230048.0,A,4739.94879,N,12223.85168,W,000.01,095.7,040813,016.6,E,D*2A
$PGRME,2.4,M,2.4,M,3.4,M*29
$HCHDG,81.7,0.0,E,,*17
$IIVHW,,,,,00.0,N,,*19
$YXXDR,A,5.8,D,PTCH,A,1.9,D,ROLL*58
$IIVLW,02057,N,023.4,N*56
$HCHDG,81.9,0.0,E,,*19
$IIVWR,159,L,05.8,N,,,,*7F
$GPRMC,230048.2,A,4739.94879,N,12223.85168,W,000.01,095.7,040813,016.6,E,D*28
$IIDPT,011.9,-1.0,*49
$PGRME,2.4,M,2.4,M,3.4,M*29
$HCHDG,82.0,0.0,E,,*13
$IIGLL,4739.948,N,12223.851,W,230000,A,A*43
$HCHDG,81.9,0.0,E,,*19
$IIMTW,+18.0,C*31
$IIMWV,201,R,05.8,N,A*1D
$GPRMC,230048.4,A,4739.94879,N,12223.85168,W,000.01,095.7,040813,016.6,E,D*2E
$GPRMB,A,0.00,L,Shil,Shil,4741.0830,N,12224.5670,W,1.2,337,-0.00,V*2D
$PGRME,2.4,M,2.4,M,3.4,M*29
$HCHDG,81.9,0.0,E,,*19
$IIMWV,199,T,05.5,N,A*14
$HCHDG,81.8,0.0,E,,*18
$IIRMB,A,0.00,L,,Shil,,,,,001.2,337,,V,A*7D
$YXXDR,A,5.8,D,PTCH,A,2.1,D,ROLL*53
$PTAK,FFD1,2.1*56
$GPRMC,230048.6,A,4739.94879,N,12223.85168,W,000.02,095.7,040813,016.6,E,D*2F
$PGRME,2.4,M,2.4,M,3.4,M*29
$HCHDG,81.9,0.0,E,,*19
$PTAK,FFP1,HEEL,@*07
$HCHDG,81.9,0.0,E,,*19
$GPRMC,230048.8,A,4739.94879,N,12223.85168,W,000.02,095.7,040813,016.6,E,D*21
$PGRME,2.4,M,2.4,M,3.4,M*29
$HCHDG,81.9,0.0,E,,*19
$HCHDG,81.9,0.0,E,,*19
$GPRMC,230049.0,A,4739.94879,N,12223.85168,W,000.01,095.7,040813,016.6,E,D*2B
$PGRME,2.4,M,2.4,M,3.4,M*29
$HCHDG,82.1,0.0,E,,*12
$YXXDR,A,6.0,D,PTCH,A,3.2,D,ROLL*5A
$IIRMC,230000,A,4739.948,N,12223.851,W,00.0,095,040813,16,E,A*1A
$HCHDG,81.9,0.0,E,,*19
$IIVHW,,,,,00.0,N,,*19
$GPRMC,230049.2,A,4739.94879,N,12223.85168,W,000.01,095.7,040813,016.6,E,D*29
$PGRME,2.4,M,2.4,M,3.4,M*29
$HCHDG,81.9,0.0,E,,*19
$IIVLW,02057,N,023.4,N*56
$IIVWR,161,L,05.5,N,,,,*79
$HCHDG,81.9,0.0,E,,*19
$IIDPT,011.9,-1.0,*49
$GPRMC,230049.4,A,4739.94879,N,12223.85168,W,000.01,095.7,040813,016.6,E,D*2F
$PGRME,2.4,M,2.4,M,3.4,M*29
$HCHDG,81.9,0.0,E,,*19
$IIGLL,4739.948,N,12223.851,W,230000,A,A*43
$IIMTW,+18.0,C*31
$HCHDG,82.0,0.0,E,,*13
$IIMWV,199,R,05.5,N,A*12
$IIMWV,201,T,05.8,N,A*1B
$YXXDR,A,5.9,D,PTCH,A,3.7,D,ROLL*55
$GPRMC,230049.6,A,4739.94880,N,12223.85168,W,000.01,095.7,040813,016.6,E,D*2B
$GPRMB,A,0.00,L,Shil,Shil,4741.0830,N,12224.5670,W,1.2,337,-0.00,V*2D
$PGRME,2.4,M,2.4,M,3.4,M*29
$HCHDG,82.0,0.0,E,,*13
$HCHDG,82.0,0.0,E,,*13
$GPRMC,230049.8,A,4739.94880,N,12223.85168,W,000.01,095.7,040813,016.6,E,D*25
$PGRME,2.4,M,2.4,M,3.4,M*29
$HCHDG,82.0,0.0,E,,*13
$HCHDG,82.0,0.0,E,,*13
$GPRMC,230050.0,A,4739.94880,N,12223.85168,W,000.01,095.7,040813,016.6,E,D*25
$PGRME,2.4,M,2.4,M,3.4,M*29
$HCHDG,82.0,0.0,E,,*13
$IIRMB,A,0.00,L,,Shil,,,,,001.2,337,,V,A*7D
$YXXDR,A,5.8,D,PTCH,A,4.5,D,ROLL*51
$PTAK,FFD1,4.5*54
$HCHDG,82.0,0.0,E,,*13
$GPRMC,230050.2,A,4739.94880,N,12223.85168,W,000.00,095.7,040813,016.6,E,D*26
$PGRME,2.4,M,2.4,M,3.4,M*29
$HCHDG,81.8,0.0,E,,*18
$IIRMC,230000,A,4739.948,N,12223.851,W,00.0,095,040813,16,E,A*1A
$IIVHW,,,,,00.0,N,,*19
$HCHDG,81.8,0.0,E,,*18
$IIVLW,02057,N,023.4,N*56
$IIVWR,156,L,05.5,N,,,,*7D
$GPRMC,230050.4,A,4739.94880,N,12223.85168,W,000.00,095.7,040813,016.6,E,D*20
$PGRME,2.4,M,2.4,M,3.4,M*29
