$HCHDG,291.6,0.0,E,,*25
$GPRMC,000000.8,A,4845.42674,N,12230.28317,W,000.00,313.9,310813,016.9,E,D*27
$PGRME,2.4,M,2.4,M,3.4,M*29
$HCHDG,291.6,0.0,E,,*25
$HCHDG,291.6,0.0,E,,*25
$GPRMC,000001.0,A,4845.42674,N,12230.28317,W,000.00,313.9,310813,016.9,E,D*2E
$PGRME,2.4,M,2.4,M,3.4,M*29
$HCHDG,291.6,0.0,E,,*25
$HCHDG,291.6,0.0,E,,*25
$GPRMC,000001.2,A,4845.42674,N,12230.28317,W,000.01,313.9,310813,016.9,E,D*2D
$PGRME,2.4,M,2.4,M,3.4,M*29
$YXXDR,A,5.8,D,PTCH,A,3.3,D,ROLL*50
$HCHDG,291.6,0.0,E,,*25
$HCHDG,291.6,0.0,E,,*25
$GPRMC,000001.4,A,4845.42674,N,12230.28317,W,000.00,313.9,310813,016.9,E,D*2A
$PGRME,2.4,M,2.4,M,3.4,M*29
$HCHDG,291.6,0.0,E,,*25
$HCHDG,291.5,0.0,E,,*26
$GPRMC,000001.6,A,4845.42674,N,12230.28317,W,000.00,313.9,310813,016.9,E,D*28
$PGRME,2.4,M,2.4,M,3.4,M*29
$HCHDG,291.5,0.0,E,,*26
$YXXDR,A,5.8,D,PTCH,A,3.3,D,ROLL*50
$HCHDG,291.5,0.0,E,,*26
$GPRMC,000001.8,A,4845.42674,N,12230.28317,W,000.00,313.9,310813,016.9,E,D*26
$GPRMB,A,2.47,L,,Oh,4814.8080,N,12233.9900,W,30.7,185,-0.00,V*31
$PGRME,2.4,M,2.4,M,3.4,M*29
$HCHDG,291.5,0.0,E,,*26
$HCHDG,291.5,0.0,E,,*26
$GPRMC,000002.0,A,4845.42674,N,12230.28317,W,000.01,313.9,310813,016.9,E,D*2C
$PGRME,2.4,M,2.4,M,3.4,M*29
$HCHDG,291.5,0.0,E,,*26
$HCHDG,291.5,0.0,E,,*26
$GPRMC,000002.2,A,4845.42674,N,12230.28317,W,000.01,313.9,310813,016.9,E,D*2E
$PGRME,2.4,M,2.4,M,3.4,M*29
$YXXDR,A,5.9,D,PTCH,A,3.4,D,ROLL*56
$PTAK,FFD1,3.4*52
$HCHDG,291.5,0.0,E,,*26
$HCHDG,291.5,0.0,E,,*26
$GPRMC,000002.4,A,4845.42674,N,12230.28316,W,000.01,313.9,310813,016.9,E,D*29
$PGRME,2.4,M,2.4,M,3.4,M*29
$HCHDG,291.5,0.0,E,,*26
$HCHDG,291.5,0.0,E,,*26
$GPRMC,000002.6,A,4845.42674,N,12230.28316,W,000.00,313.9,310813,016.9,E,D*2A
$PGRME,2.4,M,2.4,M,3.4,M*29
$HCHDG,291.5,0.0,E,,*26
$YXXDR,A,5.9,D,PTCH,A,3.4,D,ROLL*56
$HCHDG,291.5,0.0,E,,*26
$GPRMC,000002.8,A,4845.42674,N,12230.28316,W,000.00,313.9,310813,016.9,E,D*24
$GPRMB,A,2.47,L,,Oh,4814.8080,N,12233.9900,W,30.7,185,-0.00,V*31
$PGRME,2.4,M,2.4,M,3.4,M*29
$HCHDG,291.4,0.0,E,,*27
$HCHDG,291.4,0.0,E,,*27
$GPRMC,000003.0,A,4845.42674,N,12230.28316,W,000.00,313.9,310813,016.9,E,D*2D
$PGRME,2.4,M,2.4,M,3.4,M*29
$HCHDG,291.4,0.0,E,,*27
$HCHDG,291.4,0.0,E,,*27
$GPRMC,000003.2,A,4845.42674,N,12230.28317,W,000.00,313.9,310813,016.9,E,D*2E
$PGRME,2.4,M,2.4,M,3.4,M*29
$YXXDR,A,5.9,D,PTCH,A,3.4,D,ROLL*56
$HCHDG,291.4,0.0,E,,*27
$HCHDG,291.4,0.0,E,,*27
$GPRMC,000003.4,A,4845.42674,N,12230.28317,W,000.01,313.9,310813,016.9,E,D*29
$PGRME,2.4,M,2.4,M,3.4,M*29
$HCHDG,291.4,0.0,E,,*27
$HCHDG,291.4,0.0,E,,*27
$GPRMC,000003.6,A,4845.42674,N,12230.28317,W,000.00,313.9,310813,016.9,E,D*2A
$PGRME,2.4,M,2.4,M,3.4,M*29
$HCHDG,291.4,0.0,E,,*27
$YXXDR,A,5.8,D,PTCH,A,3.3,D,ROLL*50
$PTAK,FFD1,3.3*55
$HCHDG,291.4,0.0,E,,*27
$GPRMC,000003.8,A,4845.42674,N,12230.28317,W,000.00,313.9,310813,016.9,E,D*24
$PGRME,2.4,M,2.4,M,3.4,M*29
$HCHDG,291.4,0.0,E,,*27
$HCHDG,291.4,0.0,E,,*27
$GPRMC,000004.0,A,4845.42674,N,12230.28317,W,000.00,313.9,310813,016.9,E,D*2B
$GPRMB,A,2.47,L,,Oh,4814.8080,N,12233.9900,W,30.7,185,-0.00,V*31
$PGRME,2.4,M,2.4,M,3.4,M*29
$HCHDG,291.3,0.0,E,,*20
$HCHDG,291.3,0.0,E,,*20
$GPRMC,000004.2,A,4845.42674,N,12230.28316,W,000.01,313.9,310813,016.9,E,D*29
$PGRME,2.4,M,2.4,M,3.4,M*29
$YXXDR,A,6.0,D,PTCH,A,3.2,D,ROLL*5A
$HCHDG,291.4,0.0,E,,*27
$HCHDG,291.4,0.0,E,,*27
$GPRMC,000004.4,A,4845.42674,N,12230.28316,W,000.00,313.9,310813,016.9,E,D*2E
$PGRME,2.4,M,2.4,M,3.4,M*29
$HCHDG,291.4,0.0,E,,*27
$HCHDG,291.4,0.0,E,,*27
$GPRMC,000004.6,A,4845.42674,N,12230.28316,W,000.00,313.9,310813,016.9,E,D*2C
$PGRME,2.4,M,2.4,M,3.4,M*29
$HCHDG,291.4,0.0,E,,*27
$YXXDR,A,5.9,D,PTCH,A,3.4,D,ROLL*56
$PTAK,FFD1,3.4*52
$HCHDG,291.4,0.0,E,,*27
$GPRMC,000004.8,A,4845.42674,N,12230.28316,W,000.00,313.9,310813,016.9,E,D*22
$PTAK,FFP1,HEEL,@*07
$PGRME,2.4,M,2.4,M,3.4,M*29
$HCHDG,291.4,0.0,E,,*27
$HCHDG,291.3,0.0,E,,*20
$GPRMC,000005.0,A,4845.42674,N,12230.28317,W,000.01,313.9,310813,016.9,E,D*2B
$PGRME,2.4,M,2.4,M,3.4,M*29
$HCHDG,291.3,0.0,E,,*20
$HCHDG,291.3,0.0,E,,*20
$GPRMC,000005.2,A,4845.42674,N,12230.28317,W,000.00,313.9,310813,016.9,E,D*28
$GPRMB,A,2.47,L,,Oh,4814.8080,N,12233.9900,W,30.7,185,-0.00,V*31
$PGRME,2.4,M,2.4,M,3.4,M*29
$YXXDR,A,5.9,D,PTCH,A,3.4,D,ROLL*56
$HCHDG,291.3,0.0,E,,*20
$HCHDG,291.3,0.0,E,,*20
$GPRMC,000005.4,A,4845.42674,N,12230.28317,W,000.00,313.9,310813,016.9,E,D*2E
$PGRME,2.4,M,2.4,M,3.4,M*29
$HCHDG,291.3,0.0,E,,*20
$HCHDG,291.3,0.0,E,,*20
$GPRMC,000005.6,A,4845.42674,N,12230.28317,W,000.00,313.9,310813,016.9,E,D*2C
$PGRME,2.4,M,2.4,M,3.4,M*29
$HCHDG,291.3,0.0,E,,*20
$YXXDR,A,5.8,D,PTCH,A,3.4,D,ROLL*57
$HCHDG,291.4,0.0,E,,*27
$GPRMC,000005.8,A,4845.42674,N,12230.28317,W,000.01,313.9,310813,016.9,E,D*23
$PGRME,2.4,M,2.4,M,3.4,M*29
$HCHDG,291.4,0.0,E,,*27
$HCHDG,291.4,0.0,E,,*27
$GPRMC,000006.0,A,4845.42674,N,12230.28317,W,000.00,313.9,310813,016.9,E,D*29
$PGRME,2.4,M,2.4,M,3.4,M*29
$HCHDG,291.4,0.0,E,,*27
$HCHDG,291.4,0.0,E,,*27
$GPRMC,000006.2,A,4845.42674,N,12230.28317,W,000.01,313.9,310813,016.9,E,D*2A
$GPRMB,A,2.47,L,,Oh,4814.8080,N,12233.9900,W,30.7,185,-0.01,V*30
$PGRME,2.4,M,2.4,M,3.4,M*29
$YXXDR,A,6.0,D,PTCH,A,3.4,D,ROLL*5C
$PTAK,FFD1,3.4*52
$HCHDG,291.4,0.0,E,,*27
$HCHDG,291.4,0.0,E,,*27
$GPRMC,000006.4,A,4845.42674,N,12230.28317,W,000.00,313.9,310813,016.9,E,D*2D
$PGRME,2.4,M,2.4,M,3.4,M*29
$HCHDG,291.4,0.0,E,,*27
$HCHDG,291.4,0.0,E,,*27
$GPRMC,000006.6,A,4845.42674,N,12230.28317,W,000.00,313.9,310813,016.9,E,D*2F
$PGRME,2.4,M,2.4,M,3.4,M*29
$HCHDG,291.4,0.0,E,,*27
$YXXDR,A,5.8,D,PTCH,A,3.4,D,ROLL*57
$HCHDG,291.4,0.0,E,,*27
$GPRMC,000006.8,A,4845.42674,N,12230.28316,W,000.01,313.9,310813,016.9,E,D*21
$PGRME,2.4,M,2.4,M,3.4,M*29
$HCHDG,291.4,0.0,E,,*27
$HCHDG,291.4,0.0,E,,*27
$GPRMC,000007.0,A,4845.42674,N,12230.28316,W,000.00,313.9,310813,016.9,E,D*29
$PGRME,2.4,M,2.4,M,3.4,M*29
$HCHDG,291.4,0.0,E,,*27
$HCHDG,291.4,0.0,E,,*27
$GPRMC,000007.2,A,4845.42674,N,12230.28316,W,000.00,313.9,310813,016.9,E,D*2B
$GPRMB,A,2.47,L,,Oh,4814.8080,N,12233.9900,W,30.7,185,-0.00,V*31
$PGRME,2.4,M,2.4,M,3.4,M*29
$YXXDR,A,5.8,D,PTCH,A,3.4,D,ROLL*57
$PTAK,FFD1,3.4*52
$HCHDG,291.5,0.0,E,,*26
$HCHDG,291.5,0.0,E,,*26
$GPRMC,000007.4,A,4845.42674,N,12230.28316,W,000.01,313.9,310813,016.9,E,D*2C
$PGRME,2.4,M,2.4,M,3.4,M*29
$HCHDG,291.5,0.0,E,,*26
$HCHDG,291.5,0.0,E,,*26
$GPRMC,000007.6,A,4845.42674,N,12230.28316,W,000.00,313.9,310813,016.9,E,D*2F
$PGRME,2.4,M,2.4,M,3.4,M*29
$HCHDG,291.5,0.0,E,,*26
$YXXDR,A,5.8,D,PTCH,A,3.4,D,ROLL*57
$HCHDG,291.5,0.0,E,,*26
$GPRMC,000007.8,A,4845.42674,N,12230.28317,W,000.00,313.9,310813,016.9,E,D*20
$PGRME,2.4,M,2.4,M,3.4,M*29
$HCHDG,291.5,0.0,E,,*26
$HCHDG,291.5,0.0,E,,*26
$GPRMC,000008.0,A,4845.42674,N,12230.28317,W,000.00,313.9,310813,016.9,E,D*27
$PGRME,2.4,M,2.4,M,3.4,M*29
$HCHDG,291.5,0.0,E,,*26
$HCHDG,291.5,0.0,E,,*26
$GPRMC,000008.2,A,4845.42674,N,12230.28317,W,000.00,313.9,310813,016.9,E,D*25
$GPRMB,A,2.47,L,,Oh,4814.8080,N,12233.9900,W,30.7,185,-0.00,V*31
$PGRME,2.4,M,2.4,M,3.4,M*29
$YXXDR,A,5.9,D,PTCH,A,3.4,D,ROLL*56
$HCHDG,291.5,0.0,E,,*26
$HCHDG,291.5,0.0,E,,*26
$GPRMC,000008.4,A,4845.42674,N,12230.28317,W,000.00,313.9,310813,016.9,E,D*23
$PGRME,2.4,M,2.4,M,3.4,M*29
$HCHDG,291.5,0.0,E,,*26
$HCHDG,291.4,0.0,E,,*27
$GPRMC,000008.6,A,4845.42674,N,12230.28317,W,000.00,313.9,310813,016.9,E,D*21
$PGRME,2.4,M,2.4,M,3.4,M*29
$HCHDG,291.4,0.0,E,,*27
$YXXDR,A,5.8,D,PTCH,A,3.5,D,ROLL*56
$PTAK,FFD1,3.5*53
$HCHDG,291.4,0.0,E,,*27
$GPRMC,000008.8,A,4845.42674,N,12230.28317,W,000.00,313.9,310813,016.9,E,D*2F
$PTAK,FFP1,HEEL,@*07
$PGRME,2.4,M,2.4,M,3.4,M*29
$HCHDG,291.4,0.0,E,,*27
$HCHDG,291.4,0.0,E,,*27
$GPRMC,000009.0,A,4845.42674,N,12230.28317,W,000.00,313.9,310813,016.9,E,D*26
$PGRME,2.4,M,2.4,M,3.4,M*29
$HCHDG,291.4,0.0,E,,*27
$HCHDG,291.4,0.0,E,,*27
$GPRMC,000009.2,A,4845.42674,N,12230.28317,W,000.00,313.9,310813,016.9,E,D*24
$GPRMB,A,2.47,L,,Oh,4814.8080,N,12233.9900,W,30.7,185,-0.00,V*31
$PGRME,2.4,M,2.4,M,3.4,M*29
$YXXDR,A,5.8,D,PTCH,A,3.5,D,ROLL*56
$HCHDG,291.4,0.0,E,,*27
$HCHDG,291.4,0.0,E,,*27
$GPRMC,000009.4,A,4845.42674,N,12230.28317,W,000.01,313.9,310813,016.9,E,D*23
$PGRME,2.4,M,2.4,M,3.4,M*29
$HCHDG,291.4,0.0,E,,*27
$HCHDG,291.4,0.0,E,,*27
$GPRMC,000009.6,A,4845.42674,N,12230.28317,W,000.00,313.9,310813,016.9,E,D*20
$PGRME,2.4,M,2.4,M,3.4,M*29
$HCHDG,291.4,0.0,E,,*27
$YXXDR,A,5.8,D,PTCH,A,3.5,D,ROLL*56
$PTAK,FFD1,3.5*53
$HCHDG,291.4,0.0,E,,*27
$GPRMC,000009.8,A,4845.42674,N,12230.28317,W,000.01,313.9,310813,016.9,E,D*2F
$PGRME,2.4,M,2.4,M,3.4,M*29
$HCHDG,291.4,0.0,E,,*27
$HCHDG,291.4,0.0,E,,*27
$GPRMC,000010.0,A,4845.42675,N,12230.28317,W,000.00,313.9,310813,016.9,E,D*2F
$PGRME,2.4,M,2.4,M,3.4,M*29
$HCHDG,291.4,0.0,E,,*27
$HCHDG,291.4,0.0,E,,*27
$GPRMC,000010.2,A,4845.42675,N,12230.28317,W,000.01,313.9,310813,016.9,E,D*2C
$PGRME,2.4,M,2.4,M,3.4,M*29
$YXXDR,A,5.8,D,PTCH,A,3.4,D,ROLL*57
$HCHDG,291.4,0.0,E,,*27
$HCHDG,291.4,0.0,E,,*27
$GPRMC,000010.4,A,4845.42675,N,12230.28317,W,000.00,313.9,310813,016.9,E,D*2B
$GPRMB,A,2.47,L,,Oh,4814.8080,N,12233.9900,W,30.7,185,-0.00,V*31
$PGRME,2.4,M,2.4,M,3.4,M*29
$HCHDG,291.4,0.0,E,,*27
$HCHDG,291.5,0.0,E,,*26
$GPRMC,000010.6,A,4845.42675,N,12230.28317,W,000.01,313.9,310813,016.9,E,D*28
$PGRME,2.4,M,2.4,M,3.4,M*29
$HCHDG,291.5,0.0,E,,*26
$YXXDR,A,5.8,D,PTCH,A,3.4,D,ROLL*57
$PTAK,FFD1,3.4*52
$HCHDG,291.5,0.0,E,,*26
$GPRMC,000010.8,A,4845.42675,N,12230.28317,W,000.00,313.9,310813,016.9,E,D*27
$PGRME,2.4,M,2.4,M,3.4,M*29
$HCHDG,291.5,0.0,E,,*26
$HCHDG,291.5,0.0,E,,*26
$GPRMC,000011.0,A,4845.42675,N,12230.28317,W,000.00,313.9,310813,016.9,E,D*2E
$PGRME,2.4,M,2.4,M,3.4,M*29
$HCHDG,291.5,0.0,E,,*26
$HCHDG,291.5,0.0,E,,*26
$GPRMC,000011.2,A,4845.42675,N,12230.28317,W,000.00,313.9,310813,016.9,E,D*2C
$PGRME,2.4,M,2.4,M,3.4,M*29
$YXXDR,A,5.8,D,PTCH,A,3.4,D,ROLL*57
$HCHDG,291.5,0.0,E,,*26
$HCHDG,291.5,0.0,E,,*26
$GPRMC,000011.4,A,4845.42675,N,12230.28317,W,000.01,313.9,310813,016.9,E,D*2B
$PGRME,2.4,M,2.4,M,3.4,M*29
$HCHDG,291.5,0.0,E,,*26
$HCHDG,291.4,0.0,E,,*27
$GPRMC,000011.6,A,4845.42676,N,12230.28317,W,000.01,313.9,310813,016.9,E,D*2A
$GPRMB,A,2.47,L,,Oh,4814.8080,N,12233.9900,W,30.7,185,-0.01,V*30
$PGRME,2.4,M,2.4,M,3.4,M*29
$HCHDG,291.4,0.0,E,,*27
$YXXDR,A,5.8,D,PTCH,A,3.4,D,ROLL*57
$PTAK,FFD1,3.4*52
$HCHDG,291.4,0.0,E,,*27
$GPRMC,000011.8,A,4845.42676,N,12230.28317,W,000.00,313.9,310813,016.9,E,D*25
$PGRME,2.4,M,2.4,M,3.4,M*29
$HCHDG,291.4,0.0,E,,*27
$HCHDG,291.4,0.0,E,,*27
$GPRMC,000012.0,A,4845.42676,N,12230.28317,W,000.01,313.9,310813,016.9,E,D*2F
$PGRME,2.4,M,2.4,M,3.4,M*29
$HCHDG,291.4,0.0,E,,*27
$HCHDG,291.4,0.0,E,,*27
$GPRMC,000012.2,A,4845.42676,N,12230.28317,W,000.00,313.9,310813,016.9,E,D*2C
$PGRME,2.4,M,2.4,M,3.4,M*29
$YXXDR,A,5.8,D,PTCH,A,3.5,D,ROLL*56
$HCHDG,291.4,0.0,E,,*27
$HCHDG,291.4,0.0,E,,*27
$GPRMC,000012.4,A,4845.42676,N,12230.28317,W,000.00,313.9,310813,016.9,E,D*2A
$PGRME,2.4,M,2.4,M,3.4,M*29
$HCHDG,291.4,0.0,E,,*27
$HCHDG,291.4,0.0,E,,*27
$GPRMC,000012.6,A,4845.42676,N,12230.28317,W,000.01,313.9,310813,016.9,E,D*29
$GPRMB,A,2.47,L,,Oh,4814.8080,N,12233.9900,W,30.7,185,-0.01,V*30
$PGRME,2.4,M,2.4,M,3.4,M*29
$HCHDG,291.4,0.0,E,,*27
$YXXDR,A,5.8,D,PTCH,A,3.5,D,ROLL*56
$PTAK,FFP1,HEEL,@*07
$HCHDG,291.4,0.0,E,,*27
$GPRMC,000012.8,A,4845.42676,N,12230.28317,W,000.01,313.9,310813,016.9,E,D*27
$PGRME,2.4,M,2.4,M,3.4,M*29
$HCHDG,291.4,0.0,E,,*27
$HCHDG,291.4,0.0,E,,*27
$GPRMC,000013.0,A,4845.42676,N,12230.28317,W,000.00,313.9,310813,016.9,E,D*2F
$PGRME,2.4,M,2.4,M,3.4,M*29
$HCHDG,291.4,0.0,E,,*27
$HCHDG,291.4,0.0,E,,*27
$GPRMC,000013.2,A,4845.42676,N,12230.28317,W,000.01,313.9,310813,016.9,E,D*2C
$PGRME,2.4,M,2.4,M,3.4,M*29
$YXXDR,A,5.9,D,PTCH,A,3.4,D,ROLL*56
$PTAK,FFD1,3.4*52
$HCHDG,291.4,0.0,E,,*27
$HCHDG,291.4,0.0,E,,*27
$GPRMC,000013.4,A,4845.42676,N,12230.28317,W,000.00,313.9,310813,016.9,E,D*2B
$PGRME,2.4,M,2.4,M,3.4,M*29
$HCHDG,291.4,0.0,E,,*27
$HCHDG,291.4,0.0,E,,*27
$GPRMC,000013.6,A,4845.42676,N,12230.28317,W,000.01,313.9,310813,016.9,E,D*28
$GPRMB,A,2.47,L,,Oh,4814.8080,N,12233.9900,W,30.7,185,-0.01,V*30
$PGRME,2.4,M,2.4,M,3.4,M*29
$HCHDG,291.4,0.0,E,,*27
$YXXDR,A,5.8,D,PTCH,A,3.4,D,ROLL*57
$HCHDG,291.4,0.0,E,,*27
$GPRMC,000013.8,A,4845.42676,N,12230.28317,W,000.01,313.9,310813,016.9,E,D*26
$PGRME,2.4,M,2.4,M,3.4,M*29
$HCHDG,291.4,0.0,E,,*27
$HCHDG,291.4,0.0,E,,*27
$GPRMC,000014.0,A,4845.42676,N,12230.28317,W,000.01,313.9,310813,016.9,E,D*29
$PGRME,2.4,M,2.4,M,3.4,M*29
$HCHDG,291.4,0.0,E,,*27
$HCHDG,291.4,0.0,E,,*27
$GPRMC,000014.2,A,4845.42676,N,12230.28317,W,000.00,313.9,310813,016.9,E,D*2A
$PGRME,2.4,M,2.4,M,3.4,M*29
$YXXDR,A,5.8,D,PTCH,A,3.4,D,ROLL*57
$PTAK,FFD1,3.4*52
$HCHDG,291.5,0.0,E,,*26
$HCHDG,291.5,0.0,E,,*26
$GPRMC,000014.4,A,4845.42677,N,12230.28318,W,000.00,313.9,310813,016.9,E,D*22
$PGRME,2.4,M,2.4,M,3.4,M*29
$HCHDG,291.5,0.0,E,,*26
$HCHDG,291.5,0.0,E,,*26
$GPRMC,000014.6,A,4845.42677,N,12230.28318,W,000.00,313.9,310813,016.9,E,D*20
$PGRME,2.4,M,2.4,M,3.4,M*29
$HCHDG,291.5,0.0,E,,*26
$YXXDR,A,5.8,D,PTCH,A,3.4,D,ROLL*57
$HCHDG,291.5,0.0,E,,*26
$GPRMC,000014.8,A,4845.42677,N,12230.28318,W,000.00,313.9,310813,016.9,E,D*2E
$GPRMB,A,2.47,L,,Oh,4814.8080,N,12233.9900,W,30.7,185,-0.00,V*31
$PGRME,2.4,M,2.4,M,3.4,M*29
$HCHDG,291.5,0.0,E,,*26
$HCHDG,291.5,0.0,E,,*26
$GPRMC,000015.0,A,4845.42677,N,12230.28318,W,000.01,313.9,310813,016.9,E,D*26
$PGRME,2.4,M,2.4,M,3.4,M*29
$HCHDG,291.5,0.0,E,,*26
$HCHDG,291.5,0.0,E,,*26
$GPRMC,000015.2,A,4845.42677,N,12230.28318,W,000.00,313.9,310813,016.9,E,D*25
$PGRME,2.4,M,2.4,M,3.4,M*29
$YXXDR,A,5.8,D,PTCH,A,3.4,D,ROLL*57
$HCHDG,291.5,0.0,E,,*26
$HCHDG,291.6,0.0,E,,*25
$GPRMC,000015.4,A,4845.42677,N,12230.28318,W,000.00,313.9,310813,016.9,E,D*23
$PGRME,2.4,M,2.4,M,3.4,M*29
$HCHDG,291.6,0.0,E,,*25
$HCHDG,291.6,0.0,E,,*25
$GPRMC,000015.6,A,4845.42677,N,12230.28318,W,000.00,313.9,310813,016.9,E,D*21
$PGRME,2.4,M,2.4,M,3.4,M*29
$HCHDG,291.6,0.0,E,,*25
$YXXDR,A,5.8,D,PTCH,A,3.4,D,ROLL*57
$PTAK,FFD1,3.4*52
$HCHDG,291.6,0.0,E,,*25
$GPRMC,000015.8,A,4845.42677,N,12230.28318,W,000.00,313.9,310813,016.9,E,D*2F
$GPRMB,A,2.47,L,,Oh,4814.8080,N,12233.9900,W,30.7,185,-0.00,V*31
$PGRME,2.4,M,2.4,M,3.4,M*29
$HCHDG,291.7,0.0,E,,*24
$HCHDG,291.7,0.0,E,,*24
$GPRMC,000016.0,A,4845.42677,N,12230.28318,W,000.01,313.9,310813,016.9,E,D*25
$PGRME,2.4,M,2.4,M,3.4,M*29
$HCHDG,291.7,0.0,E,,*24
$HCHDG,291.7,0.0,E,,*24
$GPRMC,000016.2,A,4845.42677,N,12230.28318,W,000.00,313.9,310813,016.9,E,D*26
$PGRME,2.4,M,2.4,M,3.4,M*29
$YXXDR,A,5.8,D,PTCH,A,3.5,D,ROLL*56
$HCHDG,291.7,0.0,E,,*24
$HCHDG,291.6,0.0,E,,*25
$GPRMC,000016.4,A,4845.42677,N,12230.28318,W,000.00,313.9,310813,016.9,E,D*20
$PGRME,2.4,M,2.4,M,3.4,M*29
$HCHDG,291.6,0.0,E,,*25
$HCHDG,291.6,0.0,E,,*25
$GPRMC,000016.6,A,4845.42677,N,12230.28318,W,000.00,313.9,310813,016.9,E,D*22
$PGRME,2.4,M,2.4,M,3.4,M*29
$HCHDG,291.6,0.0,E,,*25
$YXXDR,A,5.8,D,PTCH,A,3.4,D,ROLL*57
$PTAK,FFD1,3.4*52
$HCHDG,291.6,0.0,E,,*25
$GPRMC,000016.8,A,4845.42677,N,12230.28318,W,000.00,313.9,310813,016.9,E,D*2C
$GPRMB,A,2.47,L,,Oh,4814.8080,N,12233.9900,W,30.7,185,-0.00,V*31
$PTAK,FFP1,HEEL,@*07
$PGRME,2.4,M,2.4,M,3.4,M*29
$HCHDG,291.6,0.0,E,,*25
$HCHDG,291.7,0.0,E,,*24
$GPRMC,000017.0,A,4845.42677,N,12230.28318,W,000.00,313.9,310813,016.9,E,D*25
$PGRME,2.4,M,2.4,M,3.4,M*29
$HCHDG,291.7,0.0,E,,*24
$HCHDG,291.7,0.0,E,,*24
$GPRMC,000017.2,A,4845.42677,N,12230.28319,W,000.00,313.9,310813,016.9,E,D*26
$PGRME,2.4,M,2.4,M,3.4,M*29
$YXXDR,A,5.8,D,PTCH,A,3.3,D,ROLL*50
$HCHDG,291.6,0.0,E,,*25
$HCHDG,291.6,0.0,E,,*25
$GPRMC,000017.4,A,4845.42677,N,12230.28319,W,000.01,313.9,310813,016.9,E,D*21
$PGRME,2.4,M,2.4,M,3.4,M*29
$HCHDG,291.6,0.0,E,,*25
$HCHDG,291.6,0.0,E,,*25
$GPRMC,000017.6,A,4845.42677,N,12230.28319,W,000.01,313.9,310813,016.9,E,D*23
$PGRME,2.4,M,2.4,M,3.4,M*29
$HCHDG,291.6,0.0,E,,*25
$YXXDR,A,5.8,D,PTCH,A,3.4,D,ROLL*57
$HCHDG,291.6,0.0,E,,*25
$GPRMC,000017.8,A,4845.42677,N,12230.28319,W,000.01,313.9,310813,016.9,E,D*2D
$PGRME,2.4,M,2.4,M,3.4,M*29
$HCHDG,291.6,0.0,E,,*25
$HCHDG,291.6,0.0,E,,*25
$GPRMC,000018.0,A,4845.42677,N,12230.28319,W,000.01,313.9,310813,016.9,E,D*2A
$GPRMB,A,2.47,L,,Oh,4814.8080,N,12233.9900,W,30.7,185,-0.01,V*30
$PGRME,2.4,M,2.4,M,3.4,M*29
$HCHDG,291.6,0.0,E,,*25
$HCHDG,291.6,0.0,E,,*25
$GPRMC,000018.2,A,4845.42677,N,12230.28319,W,000.00,313.9,310813,016.9,E,D*29
$PGRME,2.4,M,2.4,M,3.4,M*29
$YXXDR,A,5.8,D,PTCH,A,3.4,D,ROLL*57
$PTAK,FFD1,3.4*52
$HCHDG,291.5,0.0,E,,*26
$HCHDG,291.5,0.0,E,,*26
$GPRMC,000018.4,A,4845.42677,N,12230.28319,W,000.00,313.9,310813,016.9,E,D*2F
$PGRME,2.4,M,2.4,M,3.4,M*29
$HCHDG,291.5,0.0,E,,*26
$HCHDG,291.5,0.0,E,,*26
$GPRMC,000018.6,A,4845.42677,N,12230.28319,W,000.00,313.9,310813,016.9,E,D*2D
$PGRME,2.4,M,2.4,M,3.4,M*29
$HCHDG,291.4,0.0,E,,*27
$YXXDR,A,5.8,D,PTCH,A,3.5,D,ROLL*56
$HCHDG,291.4,0.0,E,,*27
$GPRMC,000018.8,A,4845.42677,N,12230.28319,W,000.00,313.9,310813,016.9,E,D*23
$PGRME,2.4,M,2.4,M,3.4,M*29
$HCHDG,291.4,0.0,E,,*27
$HCHDG,291.4,0.0,E,,*27
$GPRMC,000019.0,A,4845.42677,N,12230.28319,W,000.00,313.9,310813,016.9,E,D*2A
$GPRMB,A,2.47,L,,Oh,4814.8080,N,12233.9900,W,30.7,185,-0.00,V*31
$PGRME,2.4,M,2.4,M,3.4,M*29
$HCHDG,291.5,0.0,E,,*26
$HCHDG,291.5,0.0,E,,*26
$GPRMC,000019.2,A,4845.42677,N,12230.28320,W,000.00,313.9,310813,016.9,E,D*22
$PGRME,2.4,M,2.4,M,3.4,M*29
$YXXDR,A,5.8,D,PTCH,A,3.4,D,ROLL*57
$PTAK,FFD1,3.4*52
$HCHDG,291.5,0.0,E,,*26
$HCHDG,291.5,0.0,E,,*26
$GPRMC,000019.4,A,4845.42677,N,12230.28320,W,000.01,313.9,310813,016.9,E,D*25
$PGRME,2.4,M,2.4,M,3.4,M*29
$HCHDG,291.5,0.0,E,,*26
$HCHDG,291.5,0.0,E,,*26
$GPRMC,000019.6,A,4845.42677,N,12230.28320,W,000.00,313.9,310813,016.9,E,D*26
$PGRME,2.4,M,2.4,M,3.4,M*29
$HCHDG,291.5,0.0,E,,*26
$YXXDR,A,5.8,D,PTCH,A,3.4,D,ROLL*57
$HCHDG,291.6,0.0,E,,*25
$GPRMC,000019.8,A,4845.42677,N,12230.28320,W,000.00,313.9,310813,016.9,E,D*28
$PGRME,2.4,M,2.4,M,3.4,M*29
$HCHDG,291.6,0.0,E,,*25
$HCHDG,291.6,0.0,E,,*25
$GPRMC,000020.0,A,4845.42677,N,12230.28320,W,000.00,313.9,310813,016.9,E,D*2A
$PGRME,2.4,M,2.4,M,3.4,M*29
$HCHDG,291.6,0.0,E,,*25
$HCHDG,291.6,0.0,E,,*25
$GPRMC,000020.2,A,4845.42677,N,12230.28320,W,000.00,313.9,310813,016.9,E,D*28
$GPRMB,A,2.47,L,,Oh,4814.8080,N,12233.9900,W,30.7,185,-0.00,V*31
$PGRME,2.4,M,2.4,M,3.4,M*29
$YXXDR,A,5.8,D,PTCH,A,3.4,D,ROLL*57
$PTAK,FFD1,3.4*52
$HCHDG,291.6,0.0,E,,*25
$HCHDG,291.6,0.0,E,,*25
$GPRMC,000020.4,A,4845.42678,N,12230.28319,W,000.00,313.9,310813,016.9,E,D*2B
$PGRME,2.4,M,2.4,M,3.4,M*29
$HCHDG,291.6,0.0,E,,*25
$HCHDG,291.6,0.0,E,,*25
$GPRMC,000020.6,A,4845.42678,N,12230.28319,W,000.00,313.9,310813,016.9,E,D*29
$PGRME,2.4,M,2.4,M,3.4,M*29
$HCHDG,291.5,0.0,E,,*26
$YXXDR,A,5.8,D,PTCH,A,3.3,D,ROLL*50
$HCHDG,291.5,0.0,E,,*26
$GPRMC,000020.8,A,4845.42678,N,12230.28319,W,000.00,313.9,310813,016.9,E,D*27
$PGRME,2.4,M,2.4,M,3.4,M*29
$HCHDG,291.5,0.0,E,,*26
$PTAK,FFP1,HEEL,@*07
$HCHDG,291.6,0.0,E,,*25
$GPRMC,000021.0,A,4845.42678,N,12230.28319,W,000.00,313.9,310813,016.9,E,D*2E
$PGRME,2.4,M,2.4,M,3.4,M*29
$HCHDG,291.6,0.0,E,,*25
$HCHDG,291.6,0.0,E,,*25
$GPRMC,000021.2,A,4845.42678,N,12230.28319,W,000.00,313.9,310813,016.9,E,D*2C
$PGRME,2.4,M,2.4,M,3.4,M*29
$YXXDR,A,5.8,D,PTCH,A,3.4,D,ROLL*57
$HCHDG,291.6,0.0,E,,*25
$HCHDG,291.7,0.0,E,,*24
$GPRMC,000021.4,A,4845.42678,N,12230.28320,W,000.00,313.9,310813,016.9,E,D*20
$GPRMB,A,2.47,L,,Oh,4814.8080,N,12233.9900,W,30.7,185,-0.00,V*31
$PGRME,2.4,M,2.4,M,3.4,M*29
$HCHDG,291.6,0.0,E,,*25
$HCHDG,291.6,0.0,E,,*25
$GPRMC,000021.6,A,4845.42678,N,12230.28320,W,000.00,313.9,310813,016.9,E,D*22
$PGRME,2.4,M,2.4,M,3.4,M*29
$HCHDG,291.6,0.0,E,,*25
$YXXDR,A,5.8,D,PTCH,A,3.5,D,ROLL*56
$PTAK,FFD1,3.5*53
$HCHDG,291.6,0.0,E,,*25
$GPRMC,000021.8,A,4845.42678,N,12230.28320,W,000.00,313.9,310813,016.9,E,D*2C
$PGRME,2.4,M,2.4,M,3.4,M*29
$HCHDG,291.6,0.0,E,,*25
$HCHDG,291.6,0.0,E,,*25
$GPRMC,000022.0,A,4845.42678,N,12230.28320,W,000.00,313.9,310813,016.9,E,D*27
$PGRME,2.4,M,2.4,M,3.4,M*29
$HCHDG,291.6,0.0,E,,*25
$HCHDG,291.6,0.0,E,,*25
$GPRMC,000022.2,A,4845.42678,N,12230.28320,W,000.00,313.9,310813,016.9,E,D*25
$PGRME,2.4,M,2.4,M,3.4,M*29
$YXXDR,A,5.8,D,PTCH,A,3.5,D,ROLL*56
$HCHDG,291.6,0.0,E,,*25
$HCHDG,291.6,0.0,E,,*25
$GPRMC,000022.4,A,4845.42678,N,12230.28320,W,000.00,313.9,310813,016.9,E,D*23
$GPRMB,A,2.47,L,,Oh,4814.8080,N,12233.9900,W,30.7,185,-0.00,V*31
$PGRME,2.4,M,2.4,M,3.4,M*29
$HCHDG,291.6,0.0,E,,*25
$HCHDG,291.6,0.0,E,,*25
$GPRMC,000022.6,A,4845.42678,N,12230.28320,W,000.00,313.9,310813,016.9,E,D*21
$PGRME,2.4,M,2.4,M,3.4,M*29
$HCHDG,291.6,0.0,E,,*25
$YXXDR,A,5.9,D,PTCH,A,3.4,D,ROLL*56
$HCHDG,291.6,0.0,E,,*25
$GPRMC,000022.8,A,4845.42679,N,12230.28320,W,000.00,313.9,310813,016.9,E,D*2E
$PGRME,2.4,M,2.4,M,3.4,M*29
$HCHDG,291.6,0.0,E,,*25
$HCHDG,291.6,0.0,E,,*25
$GPRMC,000023.0,A,4845.42679,N,12230.28320,W,000.00,313.9,310813,016.9,E,D*27
$PGRME,2.4,M,2.4,M,3.4,M*29
$HCHDG,291.6,0.0,E,,*25
$HCHDG,291.6,0.0,E,,*25
$GPRMC,000023.2,A,4845.42679,N,12230.28320,W,000.00,313.9,310813,016.9,E,D*25
$PGRME,2.4,M,2.4,M,3.4,M*29
$YXXDR,A,5.8,D,PTCH,A,3.4,D,ROLL*57
$PTAK,FFD1,3.4*52
$HCHDG,291.6,0.0,E,,*25
$HCHDG,291.5,0.0,E,,*26
$GPRMC,000023.4,A,4845.42679,N,12230.28320,W,000.00,313.9,310813,016.9,E,D*23
$PGRME,2.4,M,2.4,M,3.4,M*29
$HCHDG,291.5,0.0,E,,*26
$HCHDG,291.5,0.0,E,,*26
$GPRMC,000023.6,A,4845.42679,N,12230.28320,W,000.00,313.9,310813,016.9,E,D*21
$GPRMB,A,2.47,L,,Oh,4814.8080,N,12233.9900,W,30.7,185,-0.00,V*31
$PGRME,2.4,M,2.4,M,3.4,M*29
$HCHDG,291.5,0.0,E,,*26
$YXXDR,A,5.8,D,PTCH,A,3.4,D,ROLL*57
$HCHDG,291.5,0.0,E,,*26
$GPRMC,000023.8,A,4845.42679,N,12230.28320,W,000.00,313.9,310813,016.9,E,D*2F
$PGRME,2.4,M,2.4,M,3.4,M*29
$HCHDG,291.5,0.0,E,,*26
$HCHDG,291.5,0.0,E,,*26
$GPRMC,000024.0,A,4845.42679,N,12230.28319,W,000.00,313.9,310813,016.9,E,D*2A
$PGRME,2.4,M,2.4,M,3.4,M*29
$HCHDG,291.5,0.0,E,,*26
$HCHDG,291.5,0.0,E,,*26
$GPRMC,000024.2,A,4845.42679,N,12230.28319,W,000.00,313.9,310813,016.9,E,D*28
$PGRME,2.4,M,2.4,M,3.4,M*29
$YXXDR,A,5.8,D,PTCH,A,3.4,D,ROLL*57
$PTAK,FFD1,3.4*52
$HCHDG,291.5,0.0,E,,*26
$HCHDG,291.5,0.0,E,,*26
$GPRMC,000024.4,A,4845.42679,N,12230.28319,W,000.01,313.9,310813,016.9,E,D*2F
$PGRME,2.4,M,2.4,M,3.4,M*29
$HCHDG,291.5,0.0,E,,*26
$HCHDG,291.5,0.0,E,,*26
$GPRMC,000024.6,A,4845.42679,N,12230.28319,W,000.01,313.9,310813,016.9,E,D*2D
$PGRME,2.4,M,2.4,M,3.4,M*29
$HCHDG,291.5,0.0,E,,*26
$YXXDR,A,5.8,D,PTCH,A,3.4,D,ROLL*57
$HCHDG,291.5,0.0,E,,*26
$GPRMC,000024.8,A,4845.42679,N,12230.28319,W,000.01,313.9,310813,016.9,E,D*23
$GPRMB,A,2.47,L,,Oh,4814.8080,N,12233.9900,W,30.7,185,-0.01,V*30
$PGRME,2.4,M,2.4,M,3.4,M*29
$HCHDG,291.5,0.0,E,,*26
$PTAK,FFP1,HEEL,@*07
$HCHDG,291.5,0.0,E,,*26
$GPRMC,000025.0,A,4845.42679,N,12230.28319,W,000.01,313.9,310813,016.9,E,D*2A
$PGRME,2.4,M,2.4,M,3.4,M*29
$HCHDG,291.5,0.0,E,,*26
$HCHDG,291.5,0.0,E,,*26
$GPRMC,000025.2,A,4845.42679,N,12230.28318,W,000.01,313.9,310813,016.9,E,D*29
$PGRME,2.4,M,2.4,M,3.4,M*29
$YXXDR,A,5.8,D,PTCH,A,3.5,D,ROLL*56
$PTAK,FFD1,3.5*53
$HCHDG,291.5,0.0,E,,*26
$HCHDG,291.5,0.0,E,,*26
$GPRMC,000025.4,A,4845.42679,N,12230.28318,W,000.01,313.9,310813,016.9,E,D*2F
$PGRME,2.4,M,2.4,M,3.4,M*29
$HCHDG,291.5,0.0,E,,*26
$HCHDG,291.5,0.0,E,,*26
$GPRMC,000025.6,A,4845.42679,N,12230.28318,W,000.01,313.9,310813,016.9,E,D*2D
$PGRME,2.4,M,2.4,M,3.4,M*29
$HCHDG,291.5,0.0,E,,*26
$YXXDR,A,5.8,D,PTCH,A,3.5,D,ROLL*56
$HCHDG,291.5,0.0,E,,*26
$GPRMC,000025.8,A,4845.42679,N,12230.28317,W,000.01,313.9,310813,016.9,E,D*2C
$PGRME,2.4,M,2.4,M,3.4,M*29
$HCHDG,291.5,0.0,E,,*26
$HCHDG,291.5,0.0,E,,*26
$GPRMC,000026.0,A,4845.42679,N,12230.28317,W,000.00,313.9,310813,016.9,E,D*26
$GPRMB,A,2.47,L,,Oh,4814.8080,N,12233.9900,W,30.7,185,-0.00,V*31
$PGRME,2.4,M,2.4,M,3.4,M*29
$HCHDG,291.5,0.0,E,,*26
$HCHDG,291.5,0.0,E,,*26
$GPRMC,000026.2,A,4845.42679,N,12230.28317,W,000.01,313.9,310813,016.9,E,D*25
$PGRME,2.4,M,2.4,M,3.4,M*29
$YXXDR,A,5.8,D,PTCH,A,3.4,D,ROLL*57
$HCHDG,291.5,0.0,E,,*26
$HCHDG,291.5,0.0,E,,*26
$GPRMC,000026.4,A,4845.42679,N,12230.28317,W,000.01,313.9,310813,016.9,E,D*23
$PGRME,2.4,M,2.4,M,3.4,M*29
$HCHDG,291.6,0.0,E,,*25
$HCHDG,291.5,0.0,E,,*26
$GPRMC,000026.6,A,4845.42679,N,12230.28317,W,000.01,313.9,310813,016.9,E,D*21
$PGRME,2.4,M,2.4,M,3.4,M*29
$HCHDG,291.4,0.0,E,,*27
$YXXDR,A,5.8,D,PTCH,A,3.4,D,ROLL*57
$PTAK,FFD1,3.4*52
$HCHDG,291.5,0.0,E,,*26
$GPRMC,000026.8,A,4845.42679,N,12230.28317,W,000.01,313.9,310813,016.9,E,D*2F
$PGRME,2.4,M,2.4,M,3.4,M*29
$HCHDG,291.5,0.0,E,,*26
$HCHDG,291.5,0.0,E,,*26
$GPRMC,000027.0,A,4845.42679,N,12230.28317,W,000.00,313.9,310813,016.9,E,D*27
$PGRME,2.4,M,2.4,M,3.4,M*29
$HCHDG,291.5,0.0,E,,*26
$HCHDG,291.5,0.0,E,,*26
$GPRMC,000027.2,A,4845.42679,N,12230.28317,W,000.00,313.9,310813,016.9,E,D*25
$GPRMB,A,2.47,L,,Oh,4814.8080,N,12233.9900,W,30.7,185,-0.00,V*31
$PGRME,2.4,M,2.4,M,3.4,M*29
$YXXDR,A,5.8,D,PTCH,A,3.4,D,ROLL*57
$HCHDG,291.5,0.0,E,,*26
$HCHDG,291.5,0.0,E,,*26
$GPRMC,000027.4,A,4845.42679,N,12230.28316,W,000.01,313.9,310813,016.9,E,D*23
$PGRME,2.4,M,2.4,M,3.4,M*29
$HCHDG,291.5,0.0,E,,*26
$HCHDG,291.5,0.0,E,,*26
$GPRMC,000027.6,A,4845.42679,N,12230.28316,W,000.01,313.9,310813,016.9,E,D*21
$PGRME,2.4,M,2.4,M,3.4,M*29
$HCHDG,291.5,0.0,E,,*26
$YXXDR,A,5.8,D,PTCH,A,3.4,D,ROLL*57
$HCHDG,291.5,0.0,E,,*26
$GPRMC,000027.8,A,4845.42679,N,12230.28316,W,000.01,313.9,310813,016.9,E,D*2F
$PGRME,2.4,M,2.4,M,3.4,M*29
$HCHDG,291.5,0.0,E,,*26
$HCHDG,291.5,0.0,E,,*26
$GPRMC,000028.0,A,4845.42679,N,12230.28316,W,000.01,313.9,310813,016.9,E,D*28
$PGRME,2.4,M,2.4,M,3.4,M*29
$HCHDG,291.5,0.0,E,,*26
$HCHDG,291.5,0.0,E,,*26
$GPRMC,000028.2,A,4845.42679,N,12230.28316,W,000.00,313.9,310813,016.9,E,D*2B
$GPRMB,A,2.47,L,,Oh,4814.8080,N,12233.9900,W,30.7,185,-0.00,V*31
$PGRME,2.4,M,2.4,M,3.4,M*29
$YXXDR,A,5.8,D,PTCH,A,3.5,D,ROLL*56
$PTAK,FFD1,3.5*53
$HCHDG,291.5,0.0,E,,*26
$HCHDG,291.5,0.0,E,,*26
$GPRMC,000028.4,A,4845.42679,N,12230.28316,W,000.01,313.9,310813,016.9,E,D*2C
$PGRME,2.4,M,2.4,M,3.4,M*29
$HCHDG,291.5,0.0,E,,*26
$HCHDG,291.5,0.0,E,,*26
$GPRMC,000028.6,A,4845.42679,N,12230.28316,W,000.01,313.9,310813,016.9,E,D*2E
$PGRME,2.4,M,2.4,M,3.4,M*29
$HCHDG,291.5,0.0,E,,*26
$YXXDR,A,5.8,D,PTCH,A,3.5,D,ROLL*56
$HCHDG,291.5,0.0,E,,*26
$GPRMC,000028.8,A,4845.42679,N,12230.28316,W,000.01,313.9,310813,016.9,E,D*20
$PGRME,2.4,M,2.4,M,3.4,M*29
$HCHDG,291.5,0.0,E,,*26
$HCHDG,291.5,0.0,E,,*26
$GPRMC,000029.0,A,4845.42679,N,12230.28315,W,000.01,313.9,310813,016.9,E,D*2A
$PGRME,2.4,M,2.4,M,3.4,M*29
$HCHDG,291.5,0.0,E,,*26
$PTAK,FFP1,HEEL,@*07
$HCHDG,291.5,0.0,E,,*26
$GPRMC,000029.2,A,4845.42679,N,12230.28315,W,000.01,313.9,310813,016.9,E,D*28
$PGRME,2.4,M,2.4,M,3.4,M*29
$YXXDR,A,5.9,D,PTCH,A,3.4,D,ROLL*56
$HCHDG,291.5,0.0,E,,*26
$HCHDG,291.5,0.0,E,,*26
$GPRMC,000029.4,A,4845.42680,N,12230.28315,W,000.01,313.9,310813,016.9,E,D*28
$GPRMB,A,2.47,L,,Oh,4814.8080,N,12233.9900,W,30.7,185,-0.01,V*30
$PGRME,2.4,M,2.4,M,3.4,M*29
$HCHDG,291.5,0.0,E,,*26
$HCHDG,291.5,0.0,E,,*26
$GPRMC,000029.6,A,4845.42680,N,12230.28315,W,000.01,313.9,310813,016.9,E,D*2A
$PGRME,2.4,M,2.4,M,3.4,M*29
$HCHDG,291.5,0.0,E,,*26
$YXXDR,A,5.8,D,PTCH,A,3.4,D,ROLL*57
$PTAK,FFD1,3.4*52
$HCHDG,291.5,0.0,E,,*26
$GPRMC,000029.8,A,4845.42680,N,12230.28315,W,000.01,313.9,310813,016.9,E,D*24
$PGRME,2.4,M,2.4,M,3.4,M*29
$HCHDG,291.5,0.0,E,,*26
$HCHDG,291.5,0.0,E,,*26
$GPRMC,000030.0,A,4845.42680,N,12230.28315,W,000.01,313.9,310813,016.9,E,D*24
$PGRME,2.4,M,2.4,M,3.4,M*29
$HCHDG,291.5,0.0,E,,*26
$HCHDG,291.6,0.0,E,,*25
$GPRMC,000030.2,A,4845.42680,N,12230.28315,W,000.01,313.9,310813,016.9,E,D*26
$PGRME,2.4,M,2.4,M,3.4,M*29
$YXXDR,A,5.8,D,PTCH,A,3.4,D,ROLL*57
$HCHDG,291.6,0.0,E,,*25
$HCHDG,291.6,0.0,E,,*25
$GPRMC,000030.4,A,4845.42680,N,12230.28315,W,000.01,313.9,310813,016.9,E,D*20
$GPRMB,A,2.47,L,,Oh,4814.8080,N,12233.9900,W,30.7,185,-0.01,V*30
$PGRME,2.4,M,2.4,M,3.4,M*29
$HCHDG,291.6,0.0,E,,*25
$HCHDG,291.6,0.0,E,,*25
$GPRMC,000030.6,A,4845.42680,N,12230.28315,W,000.00,313.9,310813,016.9,E,D*23
$PGRME,2.4,M,2.4,M,3.4,M*29
$HCHDG,291.6,0.0,E,,*25
$YXXDR,A,5.8,D,PTCH,A,3.4,D,ROLL*57
$HCHDG,291.6,0.0,E,,*25
$GPRMC,000030.8,A,4845.42680,N,12230.28315,W,000.01,313.9,310813,016.9,E,D*2C
$PGRME,2.4,M,2.4,M,3.4,M*29
$HCHDG,291.6,0.0,E,,*25
$HCHDG,291.7,0.0,E,,*24
$GPRMC,000031.0,A,4845.42680,N,12230.28315,W,000.00,313.9,310813,016.9,E,D*24
$PGRME,2.4,M,2.4,M,3.4,M*29
$HCHDG,291.7,0.0,E,,*24
$HCHDG,291.7,0.0,E,,*24
$GPRMC,000031.2,A,4845.42680,N,12230.28315,W,000.00,313.9,310813,016.9,E,D*26
$PGRME,2.4,M,2.4,M,3.4,M*29
$YXXDR,A,5.9,D,PTCH,A,3.4,D,ROLL*56
$PTAK,FFD1,3.4*52
$HCHDG,291.7,0.0,E,,*24
$HCHDG,291.7,0.0,E,,*24
$GPRMC,000031.4,A,4845.42680,N,12230.28315,W,000.00,313.9,310813,016.9,E,D*20
$PGRME,2.4,M,2.4,M,3.4,M*29
$HCHDG,291.7,0.0,E,,*24
$HCHDG,291.7,0.0,E,,*24
$GPRMC,000031.6,A,4845.42680,N,12230.28315,W,000.00,313.9,310813,016.9,E,D*22
$GPRMB,A,2.47,L,,Oh,4814.8080,N,12233.9900,W,30.7,185,-0.00,V*31
$PGRME,2.4,M,2.4,M,3.4,M*29
$HCHDG,291.7,0.0,E,,*24
$YXXDR,A,5.8,D,PTCH,A,3.4,D,ROLL*57
$HCHDG,291.7,0.0,E,,*24
$GPRMC,000031.8,A,4845.42680,N,12230.28314,W,000.01,313.9,310813,016.9,E,D*2C
$PGRME,2.4,M,2.4,M,3.4,M*29
$HCHDG,291.8,0.0,E,,*2B
$HCHDG,291.8,0.0,E,,*2B
$GPRMC,000032.0,A,4845.42680,N,12230.28314,W,000.00,313.9,310813,016.9,E,D*26
$PGRME,2.4,M,2.4,M,3.4,M*29
$HCHDG,291.8,0.0,E,,*2B
$HCHDG,291.8,0.0,E,,*2B
$GPRMC,000032.2,A,4845.42680,N,12230.28314,W,000.01,313.9,310813,016.9,E,D*25
$PGRME,2.4,M,2.4,M,3.4,M*29
$YXXDR,A,5.8,D,PTCH,A,3.4,D,ROLL*57
$PTAK,FFD1,3.4*52
$HCHDG,291.8,0.0,E,,*2B
$HCHDG,291.8,0.0,E,,*2B
$GPRMC,000032.4,A,4845.42680,N,12230.28314,W,000.00,313.9,310813,016.9,E,D*22
$PGRME,2.4,M,2.4,M,3.4,M*29
$HCHDG,291.7,0.0,E,,*24
$HCHDG,291.7,0.0,E,,*24
$GPRMC,000032.6,A,4845.42680,N,12230.28314,W,000.00,313.9,310813,016.9,E,D*20
$PGRME,2.4,M,2.4,M,3.4,M*29
$HCHDG,291.8,0.0,E,,*2B
$YXXDR,A,5.8,D,PTCH,A,3.4,D,ROLL*57
$HCHDG,291.8,0.0,E,,*2B
$GPRMC,000032.8,A,4845.42680,N,12230.28314,W,000.01,313.9,310813,016.9,E,D*2F
$GPRMB,A,2.47,L,,Oh,4814.8080,N,12233.9900,W,30.7,185,-0.01,V*30
$PGRME,2.4,M,2.4,M,3.4,M*29
$HCHDG,291.8,0.0,E,,*2B
$PTAK,FFP1,HEEL,@*07
$HCHDG,291.8,0.0,E,,*2B
$GPRMC,000033.0,A,4845.42680,N,12230.28314,W,000.01,313.9,310813,016.9,E,D*26
$PGRME,2.4,M,2.4,M,3.4,M*29
$HCHDG,291.8,0.0,E,,*2B
$HCHDG,291.8,0.0,E,,*2B
$GPRMC,000033.2,A,4845.42680,N,12230.28313,W,000.00,313.9,310813,016.9,E,D*22
$PGRME,2.4,M,2.4,M,3.4,M*29
$YXXDR,A,5.8,D,PTCH,A,3.4,D,ROLL*57
$HCHDG,291.8,0.0,E,,*2B
$HCHDG,291.8,0.0,E,,*2B
$GPRMC,000033.4,A,4845.42680,N,12230.28313,W,000.00,313.9,310813,016.9,E,D*24
$PGRME,2.4,M,2.4,M,3.4,M*29
$HCHDG,291.9,0.0,E,,*2A
$HCHDG,291.9,0.0,E,,*2A
$GPRMC,000033.6,A,4845.42680,N,12230.28313,W,000.00,313.9,310813,016.9,E,D*26
$PGRME,2.4,M,2.4,M,3.4,M*29
$HCHDG,291.9,0.0,E,,*2A
$YXXDR,A,5.8,D,PTCH,A,3.5,D,ROLL*56
$PTAK,FFD1,3.5*53
$HCHDG,291.9,0.0,E,,*2A
$GPRMC,000033.8,A,4845.42680,N,12230.28313,W,000.00,313.9,310813,016.9,E,D*28
$GPRMB,A,2.47,L,,Oh,4814.8080,N,12233.9900,W,30.7,185,-0.00,V*31
$PGRME,2.4,M,2.4,M,3.4,M*29
$HCHDG,291.9,0.0,E,,*2A
$HCHDG,291.8,0.0,E,,*2B
$GPRMC,000034.0,A,4845.42680,N,12230.28313,W,000.01,313.9,310813,016.9,E,D*26
$PGRME,2.4,M,2.4,M,3.4,M*29
$HCHDG,291.8,0.0,E,,*2B
$HCHDG,291.9,0.0,E,,*2A
$GPRMC,000034.2,A,4845.42680,N,12230.28313,W,000.00,313.9,310813,016.9,E,D*25
$PGRME,2.4,M,2.4,M,3.4,M*29
$YXXDR,A,6.0,D,PTCH,A,3.4,D,ROLL*5C
$HCHDG,291.9,0.0,E,,*2A
$HCHDG,291.9,0.0,E,,*2A
$GPRMC,000034.4,A,4845.42680,N,12230.28313,W,000.01,313.9,310813,016.9,E,D*22
$PGRME,2.4,M,2.4,M,3.4,M*29
$HCHDG,291.9,0.0,E,,*2A
$HCHDG,291.9,0.0,E,,*2A
$GPRMC,000034.6,A,4845.42680,N,12230.28313,W,000.00,313.9,310813,016.9,E,D*21
$PGRME,2.4,M,2.4,M,3.4,M*29
$HCHDG,291.9,0.0,E,,*2A
$YXXDR,A,5.8,D,PTCH,A,3.4,D,ROLL*57
$PTAK,FFD1,3.4*52
$HCHDG,291.9,0.0,E,,*2A
$GPRMC,000034.8,A,4845.42680,N,12230.28313,W,000.00,313.9,310813,016.9,E,D*2F
$GPRMB,A,2.47,L,,Oh,4814.8080,N,12233.9900,W,30.7,185,-0.00,V*31
$PGRME,2.4,M,2.4,M,3.4,M*29
$HCHDG,291.9,0.0,E,,*2A
$HCHDG,291.9,0.0,E,,*2A
$GPRMC,000035.0,A,4845.42681,N,12230.28313,W,000.01,313.9,310813,016.9,E,D*26
$PGRME,2.4,M,2.4,M,3.4,M*29
$HCHDG,291.9,0.0,E,,*2A
$HCHDG,291.9,0.0,E,,*2A
$GPRMC,000035.2,A,4845.42681,N,12230.28313,W,000.00,313.9,310813,016.9,E,D*25
$PGRME,2.4,M,2.4,M,3.4,M*29
$YXXDR,A,6.0,D,PTCH,A,3.2,D,ROLL*5A
$HCHDG,291.8,0.0,E,,*2B
$HCHDG,291.8,0.0,E,,*2B
$GPRMC,000035.4,A,4845.42681,N,12230.28313,W,000.00,313.9,310813,016.9,E,D*23
$PGRME,2.4,M,2.4,M,3.4,M*29
$HCHDG,291.8,0.0,E,,*2B
$HCHDG,291.8,0.0,E,,*2B
$GPRMC,000035.6,A,4845.42681,N,12230.28313,W,000.00,313.9,310813,016.9,E,D*21
$PGRME,2.4,M,2.4,M,3.4,M*29
$HCHDG,291.8,0.0,E,,*2B
$YXXDR,A,6.0,D,PTCH,A,3.2,D,ROLL*5A
$HCHDG,291.8,0.0,E,,*2B
$GPRMC,000035.8,A,4845.42681,N,12230.28314,W,000.00,313.9,310813,016.9,E,D*28
$PGRME,2.4,M,2.4,M,3.4,M*29
$HCHDG,291.8,0.0,E,,*2B
$HCHDG,291.8,0.0,E,,*2B
$GPRMC,000036.0,A,4845.42681,N,12230.28314,W,000.00,313.9,310813,016.9,E,D*23
$GPRMB,A,2.47,L,,Oh,4814.8080,N,12233.9900,W,30.7,185,-0.00,V*31
$PGRME,2.4,M,2.4,M,3.4,M*29
$HCHDG,291.8,0.0,E,,*2B
$HCHDG,291.8,0.0,E,,*2B
$GPRMC,000036.2,A,4845.42681,N,12230.28314,W,000.00,313.9,310813,016.9,E,D*21
$PGRME,2.4,M,2.4,M,3.4,M*29
$YXXDR,A,6.0,D,PTCH,A,3.2,D,ROLL*5A
$PTAK,FFD1,3.2*54
$HCHDG,291.8,0.0,E,,*2B
$HCHDG,291.8,0.0,E,,*2B
$GPRMC,000036.4,A,4845.42681,N,12230.28314,W,000.01,313.9,310813,016.9,E,D*26
$PGRME,2.4,M,2.4,M,3.4,M*29
$HCHDG,291.8,0.0,E,,*2B
$HCHDG,291.8,0.0,E,,*2B
$GPRMC,000036.6,A,4845.42681,N,12230.28314,W,000.01,313.9,310813,016.9,E,D*24
$PGRME,2.4,M,2.4,M,3.4,M*29
$HCHDG,291.8,0.0,E,,*2B
$YXXDR,A,5.8,D,PTCH,A,3.5,D,ROLL*56
$HCHDG,291.8,0.0,E,,*2B
$GPRMC,000036.8,A,4845.42681,N,12230.28314,W,000.01,313.9,310813,016.9,E,D*2A
$PGRME,2.4,M,2.4,M,3.4,M*29
$HCHDG,291.8,0.0,E,,*2B
$HCHDG,291.8,0.0,E,,*2B
$GPRMC,000037.0,A,4845.42682,N,12230.28314,W,000.01,313.9,310813,016.9,E,D*20
$PGRME,2.4,M,2.4,M,3.4,M*29
$HCHDG,291.8,0.0,E,,*2B
$PTAK,FFP1,HEEL,@*07
$HCHDG,291.8,0.0,E,,*2B
$GPRMC,000037.2,A,4845.42682,N,12230.28314,W,000.01,313.9,310813,016.9,E,D*22
$GPRMB,A,2.47,L,,Oh,4814.8080,N,12233.9900,W,30.7,185,-0.01,V*30
$PGRME,2.4,M,2.4,M,3.4,M*29
$YXXDR,A,6.0,D,PTCH,A,3.4,D,ROLL*5C
$PTAK,FFD1,3.4*52
$HCHDG,291.9,0.0,E,,*2A
$HCHDG,291.9,0.0,E,,*2A
$GPRMC,000037.4,A,4845.42682,N,12230.28314,W,000.01,313.9,310813,016.9,E,D*24
$PGRME,2.4,M,2.4,M,3.4,M*29
$HCHDG,291.8,0.0,E,,*2B
$HCHDG,291.8,0.0,E,,*2B
$GPRMC,000037.6,A,4845.42682,N,12230.28314,W,000.01,313.9,310813,016.9,E,D*26
$PGRME,2.4,M,2.4,M,3.4,M*29
$HCHDG,291.8,0.0,E,,*2B
$YXXDR,A,6.0,D,PTCH,A,3.4,D,ROLL*5C
$HCHDG,291.8,0.0,E,,*2B
$GPRMC,000037.8,A,4845.42682,N,12230.28314,W,000.01,313.9,310813,016.9,E,D*28
$PGRME,2.4,M,2.4,M,3.4,M*29
$HCHDG,291.7,0.0,E,,*24
$HCHDG,291.7,0.0,E,,*24
$GPRMC,000038.0,A,4845.42682,N,12230.28314,W,000.01,313.9,310813,016.9,E,D*2F
$PGRME,2.4,M,2.4,M,3.4,M*29
$HCHDG,291.7,0.0,E,,*24
$HCHDG,291.7,0.0,E,,*24
$GPRMC,000038.2,A,4845.42682,N,12230.28315,W,000.01,313.9,310813,016.9,E,D*2C
$GPRMB,A,2.47,L,,Oh,4814.8080,N,12233.9900,W,30.7,185,-0.01,V*30
$PGRME,2.4,M,2.4,M,3.4,M*29
$YXXDR,A,5.8,D,PTCH,A,3.3,D,ROLL*50
$PTAK,FFD1,3.3*55
$HCHDG,291.8,0.0,E,,*2B
$HCHDG,291.8,0.0,E,,*2B
$GPRMC,000038.4,A,4845.42682,N,12230.28315,W,000.01,313.9,310813,016.9,E,D*2A
$PGRME,2.4,M,2.4,M,3.4,M*29
$HCHDG,291.8,0.0,E,,*2B
$HCHDG,291.8,0.0,E,,*2B
$GPRMC,000038.6,A,4845.42683,N,12230.28315,W,000.00,313.9,310813,016.9,E,D*28
$PGRME,2.4,M,2.4,M,3.4,M*29
$HCHDG,291.7,0.0,E,,*24
$YXXDR,A,5.8,D,PTCH,A,3.3,D,ROLL*50
$HCHDG,291.7,0.0,E,,*24
$GPRMC,000038.8,A,4845.42683,N,12230.28315,W,000.00,313.9,310813,016.9,E,D*26
$PGRME,2.4,M,2.4,M,3.4,M*29
$HCHDG,291.7,0.0,E,,*24
$HCHDG,291.7,0.0,E,,*24
$GPRMC,000039.0,A,4845.42683,N,12230.28315,W,000.01,313.9,310813,016.9,E,D*2E
$PGRME,2.4,M,2.4,M,3.4,M*29
$HCHDG,291.8,0.0,E,,*2B
$HCHDG,291.8,0.0,E,,*2B
$GPRMC,000039.2,A,4845.42683,N,12230.28316,W,000.00,313.9,310813,016.9,E,D*2E
$PGRME,2.4,M,2.4,M,3.4,M*29
$YXXDR,A,5.8,D,PTCH,A,3.4,D,ROLL*57
$HCHDG,291.8,0.0,E,,*2B
$HCHDG,291.8,0.0,E,,*2B
$GPRMC,000039.4,A,4845.42683,N,12230.28316,W,000.01,313.9,310813,016.9,E,D*29
$GPRMB,A,2.47,L,,Oh,4814.8080,N,12233.9900,W,30.7,185,-0.01,V*30
$PGRME,2.4,M,2.4,M,3.4,M*29
$HCHDG,291.8,0.0,E,,*2B
$HCHDG,291.8,0.0,E,,*2B
$GPRMC,000039.6,A,4845.42683,N,12230.28316,W,000.01,313.9,310813,016.9,E,D*2B
$PGRME,2.4,M,2.4,M,3.4,M*29
$HCHDG,291.8,0.0,E,,*2B
$YXXDR,A,5.8,D,PTCH,A,3.5,D,ROLL*56
$PTAK,FFD1,3.5*53
$HCHDG,291.8,0.0,E,,*2B
$GPRMC,000039.8,A,4845.42683,N,12230.28316,W,000.01,313.9,310813,016.9,E,D*25
$PGRME,2.4,M,2.4,M,3.4,M*29
$HCHDG,291.8,0.0,E,,*2B
$HCHDG,291.7,0.0,E,,*24
$GPRMC,000040.0,A,4845.42683,N,12230.28316,W,000.01,313.9,310813,016.9,E,D*23
$PGRME,2.4,M,2.4,M,3.4,M*29
$HCHDG,291.7,0.0,E,,*24
$HCHDG,291.7,0.0,E,,*24
$GPRMC,000040.2,A,4845.42683,N,12230.28316,W,000.01,313.9,310813,016.9,E,D*21
$PGRME,2.4,M,2.4,M,3.4,M*29
$YXXDR,A,6.0,D,PTCH,A,3.5,D,ROLL*5D
$HCHDG,291.7,0.0,E,,*24
$HCHDG,291.7,0.0,E,,*24
$GPRMC,000040.4,A,4845.42683,N,12230.28316,W,000.00,313.9,310813,016.9,E,D*26
$PGRME,2.4,M,2.4,M,3.4,M*29
$HCHDG,291.8,0.0,E,,*2B
$HCHDG,291.8,0.0,E,,*2B
$GPRMC,000040.6,A,4845.42683,N,12230.28316,W,000.01,313.9,310813,016.9,E,D*25
$GPRMB,A,2.47,L,,Oh,4814.8080,N,12233.9900,W,30.7,185,-0.01,V*30
$PGRME,2.4,M,2.4,M,3.4,M*29
$HCHDG,291.8,0.0,E,,*2B
$YXXDR,A,6.0,D,PTCH,A,3.4,D,ROLL*5C
$PTAK,FFD1,3.4*52
$HCHDG,291.8,0.0,E,,*2B
$GPRMC,000040.8,A,4845.42683,N,12230.28315,W,000.01,313.9,310813,016.9,E,D*28
$PGRME,2.4,M,2.4,M,3.4,M*29
$HCHDG,291.8,0.0,E,,*2B
$HCHDG,291.8,0.0,E,,*2B
$GPRMC,000041.0,A,4845.42683,N,12230.28315,W,000.01,313.9,310813,016.9,E,D*21
$PGRME,2.4,M,2.4,M,3.4,M*29
$HCHDG,291.8,0.0,E,,*2B
$PTAK,FFP1,HEEL,@*07
$HCHDG,291.8,0.0,E,,*2B
$GPRMC,000041.2,A,4845.42683,N,12230.28316,W,000.01,313.9,310813,016.9,E,D*20
$PGRME,2.4,M,2.4,M,3.4,M*29
$YXXDR,A,5.8,D,PTCH,A,3.4,D,ROLL*57
$HCHDG,291.8,0.0,E,,*2B
$HCHDG,291.8,0.0,E,,*2B
$GPRMC,000041.4,A,4845.42683,N,12230.28316,W,000.01,313.9,310813,016.9,E,D*26
$PGRME,2.4,M,2.4,M,3.4,M*29
$HCHDG,291.8,0.0,E,,*2B
$HCHDG,291.7,0.0,E,,*24
$GPRMC,000041.6,A,4845.42683,N,12230.28316,W,000.01,313.9,310813,016.9,E,D*24
$PGRME,2.4,M,2.4,M,3.4,M*29
$HCHDG,291.8,0.0,E,,*2B
$YXXDR,A,5.8,D,PTCH,A,3.3,D,ROLL*50
$HCHDG,291.8,0.0,E,,*2B
$GPRMC,000041.8,A,4845.42683,N,12230.28316,W,000.00,313.9,310813,016.9,E,D*2B
$GPRMB,A,2.47,L,,Oh,4814.8080,N,12233.9900,W,30.7,185,-0.00,V*31
$PGRME,2.4,M,2.4,M,3.4,M*29
$HCHDG,291.8,0.0,E,,*2B
$HCHDG,291.8,0.0,E,,*2B
$GPRMC,000042.0,A,4845.42683,N,12230.28316,W,000.00,313.9,310813,016.9,E,D*20
$PGRME,2.4,M,2.4,M,3.4,M*29
$HCHDG,291.7,0.0,E,,*24
$HCHDG,291.7,0.0,E,,*24
$GPRMC,000042.2,A,4845.42683,N,12230.28316,W,000.01,313.9,310813,016.9,E,D*23
$PGRME,2.4,M,2.4,M,3.4,M*29
$YXXDR,A,6.0,D,PTCH,A,3.2,D,ROLL*5A
$PTAK,FFD1,3.2*54
$HCHDG,291.7,0.0,E,,*24
$HCHDG,291.7,0.0,E,,*24
$GPRMC,000042.4,A,4845.42683,N,12230.28316,W,000.01,313.9,310813,016.9,E,D*25
$PGRME,2.4,M,2.4,M,3.4,M*29
$HCHDG,291.7,0.0,E,,*24
$HCHDG,291.7,0.0,E,,*24
$GPRMC,000042.6,A,4845.42683,N,12230.28316,W,000.00,313.9,310813,016.9,E,D*26
$PGRME,2.4,M,2.4,M,3.4,M*29
$HCHDG,291.7,0.0,E,,*24
$YXXDR,A,5.9,D,PTCH,A,3.4,D,ROLL*56
$HCHDG,291.7,0.0,E,,*24
$GPRMC,000042.8,A,4845.42683,N,12230.28316,W,000.00,313.9,310813,016.9,E,D*28
$PGRME,2.4,M,2.4,M,3.4,M*29
$HCHDG,291.7,0.0,E,,*24
$HCHDG,291.7,0.0,E,,*24
$GPRMC,000043.0,A,4845.42684,N,12230.28316,W,000.00,313.9,310813,016.9,E,D*26
$GPRMB,A,2.47,L,,Oh,4814.8080,N,12233.9900,W,30.7,185,-0.00,V*31
$PGRME,2.4,M,2.4,M,3.4,M*29
$HCHDG,291.6,0.0,E,,*25
$HCHDG,291.6,0.0,E,,*25
$GPRMC,000043.2,A,4845.42683,N,12230.28316,W,000.01,313.9,310813,016.9,E,D*22
$PGRME,2.4,M,2.4,M,3.4,M*29
$YXXDR,A,5.8,D,PTCH,A,3.5,D,ROLL*56
$PTAK,FFD1,3.5*53
$HCHDG,291.6,0.0,E,,*25
$HCHDG,291.6,0.0,E,,*25
$GPRMC,000043.4,A,4845.42683,N,12230.28316,W,000.00,313.9,310813,016.9,E,D*25
$PGRME,2.4,M,2.4,M,3.4,M*29
$HCHDG,291.6,0.0,E,,*25
$HCHDG,291.6,0.0,E,,*25
$GPRMC,000043.6,A,4845.42683,N,12230.28316,W,000.00,313.9,310813,016.9,E,D*27
$PGRME,2.4,M,2.4,M,3.4,M*29
$HCHDG,291.6,0.0,E,,*25
$YXXDR,A,5.8,D,PTCH,A,3.5,D,ROLL*56
$HCHDG,291.6,0.0,E,,*25
$GPRMC,000043.8,A,4845.42683,N,12230.28317,W,000.00,313.9,310813,016.9,E,D*28
$PGRME,2.4,M,2.4,M,3.4,M*29
$HCHDG,291.6,0.0,E,,*25
$HCHDG,291.7,0.0,E,,*24
$GPRMC,000044.0,A,4845.42683,N,12230.28317,W,000.00,313.9,310813,016.9,E,D*27
$PGRME,2.4,M,2.4,M,3.4,M*29
$PGRMT,GPS 18x-5Hz software ver. 3.20,,,,,,,,*30
$HCHDG,291.7,0.0,E,,*24
$HCHDG,291.6,0.0,E,,*25
$GPRMC,000044.2,A,4845.42684,N,12230.28317,W,000.00,313.9,310813,016.9,E,D*22
$GPRMB,A,2.47,L,,Oh,4814.8080,N,12233.9900,W,30.7,185,-0.00,V*31
$PGRME,2.4,M,2.4,M,3.4,M*29
$YXXDR,A,6.0,D,PTCH,A,3.4,D,ROLL*5C
$PTAK,FFD1,3.4*52
$HCHDG,291.6,0.0,E,,*25
$HCHDG,291.7,0.0,E,,*24
$GPRMC,000044.4,A,4845.42684,N,12230.28317,W,000.00,313.9,310813,016.9,E,D*24
$PGRME,2.4,M,2.4,M,3.4,M*29
$HCHDG,291.7,0.0,E,,*24
$HCHDG,291.7,0.0,E,,*24
$GPRMC,000044.6,A,4845.42684,N,12230.28317,W,000.00,313.9,310813,016.9,E,D*26
$PGRME,2.4,M,2.4,M,3.4,M*29
$HCHDG,291.7,0.0,E,,*24
$YXXDR,A,6.0,D,PTCH,A,3.4,D,ROLL*5C
$HCHDG,291.7,0.0,E,,*24
$GPRMC,000044.8,A,4845.42684,N,12230.28317,W,000.00,313.9,310813,016.9,E,D*28
$PGRME,2.4,M,2.4,M,3.4,M*29
$HCHDG,291.7,0.0,E,,*24
$HCHDG,291.6,0.0,E,,*25
$GPRMC,000045.0,A,4845.42684,N,12230.28317,W,000.00,313.9,310813,016.9,E,D*21
$PGRME,2.4,M,2.4,M,3.4,M*29
$HCHDG,291.6,0.0,E,,*25
$HCHDG,291.6,0.0,E,,*25
$PTAK,FFP1,HEEL,@*07
$GPRMC,000045.2,A,4845.42684,N,12230.28317,W,000.00,313.9,310813,016.9,E,D*23
$GPRMB,A,2.47,L,,Oh,4814.8080,N,12233.9900,W,30.7,185,-0.00,V*31
$PGRME,2.4,M,2.4,M,3.4,M*29
$YXXDR,A,5.9,D,PTCH,A,3.4,D,ROLL*56
$HCHDG,291.6,0.0,E,,*25
$HCHDG,291.6,0.0,E,,*25
$GPRMC,000045.4,A,4845.42683,N,12230.28317,W,000.01,313.9,310813,016.9,E,D*23
$PGRME,2.4,M,2.4,M,3.4,M*29
$HCHDG,291.6,0.0,E,,*25
$HCHDG,291.6,0.0,E,,*25
$GPRMC,000045.6,A,4845.42683,N,12230.28317,W,000.00,313.9,310813,016.9,E,D*20
$PGRME,2.4,M,2.4,M,3.4,M*29
$HCHDG,291.6,0.0,E,,*25
$YXXDR,A,5.8,D,PTCH,A,3.4,D,ROLL*57
$PTAK,FFD1,3.4*52
$HCHDG,291.7,0.0,E,,*24
$GPRMC,000045.8,A,4845.42683,N,12230.28317,W,000.00,313.9,310813,016.9,E,D*2E
$PGRME,2.4,M,2.4,M,3.4,M*29
$HCHDG,291.7,0.0,E,,*24
$HCHDG,291.7,0.0,E,,*24
$GPRMC,000046.0,A,4845.42683,N,12230.28317,W,000.00,313.9,310813,016.9,E,D*25
$PGRME,2.4,M,2.4,M,3.4,M*29
$HCHDG,291.7,0.0,E,,*24
$HCHDG,291.7,0.0,E,,*24
$GPRMC,000046.2,A,4845.42683,N,12230.28317,W,000.00,313.9,310813,016.9,E,D*27
$PGRME,2.4,M,2.4,M,3.4,M*29
$YXXDR,A,5.8,D,PTCH,A,3.5,D,ROLL*56
$HCHDG,291.7,0.0,E,,*24
$HCHDG,291.7,0.0,E,,*24
$GPRMC,000046.4,A,4845.42683,N,12230.28317,W,000.00,313.9,310813,016.9,E,D*21
$GPRMB,A,2.47,L,,Oh,4814.8080,N,12233.9900,W,30.7,185,-0.00,V*31
$PGRME,2.4,M,2.4,M,3.4,M*29
$HCHDG,291.7,0.0,E,,*24
$HCHDG,291.7,0.0,E,,*24
$GPRMC,000046.6,A,4845.42683,N,12230.28317,W,000.01,313.9,310813,016.9,E,D*22
$PGRME,2.4,M,2.4,M,3.4,M*29
$HCHDG,291.8,0.0,E,,*2B
$YXXDR,A,6.0,D,PTCH,A,3.4,D,ROLL*5C
$HCHDG,291.8,0.0,E,,*2B
$GPRMC,000046.8,A,4845.42683,N,12230.28317,W,000.01,313.9,310813,016.9,E,D*2C
$PGRME,2.4,M,2.4,M,3.4,M*29
$HCHDG,291.8,0.0,E,,*2B
$HCHDG,291.8,0.0,E,,*2B
$GPRMC,000047.0,A,4845.42682,N,12230.28317,W,000.01,313.9,310813,016.9,E,D*24
$PGRME,2.4,M,2.4,M,3.4,M*29
$HCHDG,291.8,0.0,E,,*2B
$HCHDG,291.8,0.0,E,,*2B
$GPRMC,000047.2,A,4845.42682,N,12230.28316,W,000.01,313.9,310813,016.9,E,D*27
$PGRME,2.4,M,2.4,M,3.4,M*29
$YXXDR,A,5.8,D,PTCH,A,3.5,D,ROLL*56
$PTAK,FFD1,3.5*53
$HCHDG,291.8,0.0,E,,*2B
$HCHDG,291.8,0.0,E,,*2B
$GPRMC,000047.4,A,4845.42682,N,12230.28316,W,000.00,313.9,310813,016.9,E,D*20
$GPRMB,A,2.47,L,,Oh,4814.8080,N,12233.9900,W,30.7,185,-0.00,V*31
$PGRME,2.4,M,2.4,M,3.4,M*29
$HCHDG,291.9,0.0,E,,*2A
$HCHDG,291.9,0.0,E,,*2A
$GPRMC,000047.6,A,4845.42682,N,12230.28316,W,000.00,313.9,310813,016.9,E,D*22
$PGRME,2.4,M,2.4,M,3.4,M*29
$HCHDG,292.0,0.0,E,,*20
$YXXDR,A,5.8,D,PTCH,A,3.5,D,ROLL*56
$HCHDG,292.0,0.0,E,,*20
$GPRMC,000047.8,A,4845.42682,N,12230.28316,W,000.00,313.9,310813,016.9,E,D*2C
$PGRME,2.4,M,2.4,M,3.4,M*29
$HCHDG,292.0,0.0,E,,*20
$HCHDG,292.0,0.0,E,,*20
$GPRMC,000048.0,A,4845.42682,N,12230.28316,W,000.00,313.9,310813,016.9,E,D*2B
$PGRME,2.4,M,2.4,M,3.4,M*29
$HCHDG,292.0,0.0,E,,*20
$HCHDG,292.0,0.0,E,,*20
$GPRMC,000048.2,A,4845.42682,N,12230.28316,W,000.00,313.9,310813,016.9,E,D*29
$PGRME,2.4,M,2.4,M,3.4,M*29
$YXXDR,A,5.9,D,PTCH,A,3.4,D,ROLL*56
$PTAK,FFD1,3.4*52
$HCHDG,292.0,0.0,E,,*20
$HCHDG,292.0,0.0,E,,*20
$GPRMC,000048.4,A,4845.42681,N,12230.28316,W,000.01,313.9,310813,016.9,E,D*2D
$GPRMB,A,2.47,L,,Oh,4814.8080,N,12233.9900,W,30.7,185,-0.01,V*30
$PGRME,2.4,M,2.4,M,3.4,M*29
$HCHDG,291.9,0.0,E,,*2A
$HCHDG,292.0,0.0,E,,*20
$GPRMC,000048.6,A,4845.42681,N,12230.28316,W,000.01,313.9,310813,016.9,E,D*2F
$PGRME,2.4,M,2.4,M,3.4,M*29
$HCHDG,292.0,0.0,E,,*20
$YXXDR,A,5.8,D,PTCH,A,3.4,D,ROLL*57
$HCHDG,292.0,0.0,E,,*20
$GPRMC,000048.8,A,4845.42681,N,12230.28316,W,000.00,313.9,310813,016.9,E,D*20
$PGRME,2.4,M,2.4,M,3.4,M*29
$HCHDG,292.0,0.0,E,,*20
$HCHDG,292.0,0.0,E,,*20
$GPRMC,000049.0,A,4845.42681,N,12230.28316,W,000.00,313.9,310813,016.9,E,D*29
$PGRME,2.4,M,2.4,M,3.4,M*29
$HCHDG,292.0,0.0,E,,*20
$HCHDG,292.0,0.0,E,,*20
$GPRMC,000049.2,A,4845.42681,N,12230.28316,W,000.01,313.9,310813,016.9,E,D*2A
$PTAK,FFP1,HEEL,@*07
$PGRME,2.4,M,2.4,M,3.4,M*29
$YXXDR,A,5.8,D,PTCH,A,3.5,D,ROLL*56
$PTAK,FFD1,3.5*53
$HCHDG,292.0,0.0,E,,*20
$HCHDG,292.0,0.0,E,,*20
$GPRMC,000049.4,A,4845.42681,N,12230.28316,W,000.00,313.9,310813,016.9,E,D*2D
$GPRMB,A,2.47,L,,Oh,4814.8080,N,12233.9900,W,30.7,185,-0.00,V*31
$PGRME,2.4,M,2.4,M,3.4,M*29
$HCHDG,292.1,0.0,E,,*21
$HCHDG,292.1,0.0,E,,*21
$GPRMC,000049.6,A,4845.42680,N,12230.28316,W,000.01,313.9,310813,016.9,E,D*2F
$PGRME,2.4,M,2.4,M,3.4,M*29
$HCHDG,292.1,0.0,E,,*21
$YXXDR,A,6.0,D,PTCH,A,3.4,D,ROLL*5C
$HCHDG,292.1,0.0,E,,*21
$GPRMC,000049.8,A,4845.42680,N,12230.28316,W,000.01,313.9,310813,016.9,E,D*21
$PGRME,2.4,M,2.4,M,3.4,M*29
$HCHDG,292.1,0.0,E,,*21
$HCHDG,292.1,0.0,E,,*21
$GPRMC,000050.0,A,4845.42680,N,12230.28316,W,000.00,313.9,310813,016.9,E,D*20
$PGRME,2.4,M,2.4,M,3.4,M*29
$HCHDG,292.1,0.0,E,,*21
$HCHDG,292.1,0.0,E,,*21
$GPRMC,000050.2,A,4845.42680,N,12230.28316,W,000.00,313.9,310813,016.9,E,D*22
$PGRME,2.4,M,2.4,M,3.4,M*29
$YXXDR,A,6.0,D,PTCH,A,3.4,D,ROLL*5C
$PTAK,FFD1,3.4*52
$HCHDG,292.1,0.0,E,,*21
$HCHDG,292.1,0.0,E,,*21
$GPRMC,000050.4,A,4845.42680,N,12230.28316,W,000.00,313.9,310813,016.9,E,D*24
$PGRME,2.4,M,2.4,M,3.4,M*29
$HCHDG,292.1,0.0,E,,*21
$HCHDG,292.1,0.0,E,,*21
$GPRMC,000050.6,A,4845.42680,N,12230.28316,W,000.00,313.9,310813,016.9,E,D*26
$GPRMB,A,2.47,L,,Oh,4814.8080,N,12233.9900,W,30.7,185,-0.00,V*31
$PGRME,2.4,M,2.4,M,3.4,M*29
$HCHDG,292.1,0.0,E,,*21
$YXXDR,A,5.9,D,PTCH,A,3.4,D,ROLL*56
$HCHDG,292.2,0.0,E,,*22
$GPRMC,000050.8,A,4845.42680,N,12230.28316,W,000.01,313.9,310813,016.9,E,D*29
$PGRME,2.4,M,2.4,M,3.4,M*29
$HCHDG,292.2,0.0,E,,*22
$HCHDG,292.2,0.0,E,,*22
$GPRMC,000051.0,A,4845.42680,N,12230.28316,W,000.00,313.9,310813,016.9,E,D*21
$PGRME,2.4,M,2.4,M,3.4,M*29
$HCHDG,292.2,0.0,E,,*22
$HCHDG,292.2,0.0,E,,*22
$GPRMC,000051.2,A,4845.42680,N,12230.28316,W,000.00,313.9,310813,016.9,E,D*23
$PGRME,2.4,M,2.4,M,3.4,M*29
$YXXDR,A,5.8,D,PTCH,A,3.4,D,ROLL*57
$HCHDG,292.2,0.0,E,,*22
$HCHDG,292.2,0.0,E,,*22
$GPRMC,000051.4,A,4845.42680,N,12230.28315,W,000.01,313.9,310813,016.9,E,D*27
$PGRME,2.4,M,2.4,M,3.4,M*29
$HCHDG,292.2,0.0,E,,*22
$HCHDG,292.2,0.0,E,,*22
$GPRMC,000051.6,A,4845.42680,N,12230.28315,W,000.00,313.9,310813,016.9,E,D*24
$PGRME,2.4,M,2.4,M,3.4,M*29
$HCHDG,292.2,0.0,E,,*22
$YXXDR,A,5.8,D,PTCH,A,3.4,D,ROLL*57
$PTAK,FFD1,3.4*52
$HCHDG,292.2,0.0,E,,*22
$GPRMC,000051.8,A,4845.42680,N,12230.28315,W,000.01,313.9,310813,016.9,E,D*2B
$GPRMB,A,2.47,L,,Oh,4814.8080,N,12233.9900,W,30.7,185,-0.01,V*30
$PGRME,2.4,M,2.4,M,3.4,M*29
$HCHDG,292.2,0.0,E,,*22
$HCHDG,292.2,0.0,E,,*22
$GPRMC,000052.0,A,4845.42680,N,12230.28315,W,000.01,313.9,310813,016.9,E,D*20
$PGRME,2.4,M,2.4,M,3.4,M*29
$HCHDG,292.2,0.0,E,,*22
$HCHDG,292.2,0.0,E,,*22
$GPRMC,000052.2,A,4845.42679,N,12230.28315,W,000.00,313.9,310813,016.9,E,D*25
$PGRME,2.4,M,2.4,M,3.4,M*29
$YXXDR,A,5.9,D,PTCH,A,3.4,D,ROLL*56
$HCHDG,292.2,0.0,E,,*22
$HCHDG,292.2,0.0,E,,*22
$GPRMC,000052.4,A,4845.42679,N,12230.28315,W,000.00,313.9,310813,016.9,E,D*23
$PGRME,2.4,M,2.4,M,3.4,M*29
$HCHDG,292.2,0.0,E,,*22
$HCHDG,292.2,0.0,E,,*22
$GPRMC,000052.6,A,4845.42679,N,12230.28315,W,000.00,313.9,310813,016.9,E,D*21
$PGRME,2.4,M,2.4,M,3.4,M*29
$HCHDG,292.2,0.0,E,,*22
$YXXDR,A,6.0,D,PTCH,A,3.4,D,ROLL*5C
$PTAK,FFD1,3.4*52
$HCHDG,292.2,0.0,E,,*22
$GPRMC,000052.8,A,4845.42679,N,12230.28315,W,000.00,313.9,310813,016.9,E,D*2F
$PGRME,2.4,M,2.4,M,3.4,M*29
$HCHDG,292.2,0.0,E,,*22
$HCHDG,292.2,0.0,E,,*22
$GPRMC,000053.0,A,4845.42679,N,12230.28315,W,000.00,313.9,310813,016.9,E,D*26
$GPRMB,A,2.47,L,,Oh,4814.8080,N,12233.9900,W,30.7,185,-0.00,V*31
$PGRME,2.4,M,2.4,M,3.4,M*29
$HCHDG,292.2,0.0,E,,*22
$PTAK,FFP1,HEEL,@*07
$HCHDG,292.2,0.0,E,,*22
$GPRMC,000053.2,A,4845.42679,N,12230.28315,W,000.00,313.9,310813,016.9,E,D*24
$PGRME,2.4,M,2.4,M,3.4,M*29
$YXXDR,A,5.8,D,PTCH,A,3.4,D,ROLL*57
$HCHDG,292.1,0.0,E,,*21
$HCHDG,292.1,0.0,E,,*21
$GPRMC,000053.4,A,4845.42679,N,12230.28315,W,000.00,313.9,310813,016.9,E,D*22
$PGRME,2.4,M,2.4,M,3.4,M*29
$HCHDG,292.2,0.0,E,,*22
$HCHDG,292.2,0.0,E,,*22
$GPRMC,000053.6,A,4845.42679,N,12230.28315,W,000.00,313.9,310813,016.9,E,D*20
$PGRME,2.4,M,2.4,M,3.4,M*29
$HCHDG,292.2,0.0,E,,*22
$YXXDR,A,5.8,D,PTCH,A,3.4,D,ROLL*57
$PTAK,FFD1,3.4*52
$HCHDG,292.2,0.0,E,,*22
$GPRMC,000053.8,A,4845.42679,N,12230.28315,W,000.00,313.9,310813,016.9,E,D*2E
$PGRME,2.4,M,2.4,M,3.4,M*29
$HCHDG,292.2,0.0,E,,*22
$HCHDG,292.2,0.0,E,,*22
$GPRMC,000054.0,A,4845.42679,N,12230.28315,W,000.00,313.9,310813,016.9,E,D*21
$GPRMB,A,2.47,L,,Oh,4814.8080,N,12233.9900,W,30.7,185,-0.00,V*31
$PGRME,2.4,M,2.4,M,3.4,M*29
$HCHDG,292.2,0.0,E,,*22
$HCHDG,292.2,0.0,E,,*22
$GPRMC,000054.2,A,4845.42679,N,12230.28314,W,000.00,313.9,310813,016.9,E,D*22
$PGRME,2.4,M,2.4,M,3.4,M*29
$YXXDR,A,5.8,D,PTCH,A,3.4,D,ROLL*57
$HCHDG,292.2,0.0,E,,*22
$HCHDG,292.2,0.0,E,,*22
$GPRMC,000054.4,A,4845.42679,N,12230.28314,W,000.00,313.9,310813,016.9,E,D*24
$PGRME,2.4,M,2.4,M,3.4,M*29
$HCHDG,292.3,0.0,E,,*23
$HCHDG,292.2,0.0,E,,*22
$GPRMC,000054.6,A,4845.42679,N,12230.28314,W,000.00,313.9,310813,016.9,E,D*26
$PGRME,2.4,M,2.4,M,3.4,M*29
$HCHDG,292.2,0.0,E,,*22
$YXXDR,A,5.8,D,PTCH,A,3.4,D,ROLL*57
$PTAK,FFD1,3.4*52
$HCHDG,292.2,0.0,E,,*22
$GPRMC,000054.8,A,4845.42679,N,12230.28314,W,000.00,313.9,310813,016.9,E,D*28
$PGRME,2.4,M,2.4,M,3.4,M*29
$HCHDG,292.2,0.0,E,,*22
$HCHDG,292.2,0.0,E,,*22
$GPRMC,000055.0,A,4845.42679,N,12230.28314,W,000.00,313.9,310813,016.9,E,D*21
$PGRME,2.4,M,2.4,M,3.4,M*29
$HCHDG,292.2,0.0,E,,*22
$HCHDG,292.1,0.0,E,,*21
$GPRMC,000055.2,A,4845.42679,N,12230.28314,W,000.00,313.9,310813,016.9,E,D*23
$GPRMB,A,2.47,L,,Oh,4814.8080,N,12233.9900,W,30.7,185,-0.00,V*31
$PGRME,2.4,M,2.4,M,3.4,M*29
$YXXDR,A,5.8,D,PTCH,A,3.3,D,ROLL*50
$HCHDG,292.1,0.0,E,,*21
$HCHDG,292.1,0.0,E,,*21
$GPRMC,000055.4,A,4845.42679,N,12230.28314,W,000.01,313.9,310813,016.9,E,D*24
$PGRME,2.4,M,2.4,M,3.4,M*29
$HCHDG,292.1,0.0,E,,*21
$HCHDG,292.1,0.0,E,,*21
$GPRMC,000055.6,A,4845.42679,N,12230.28314,W,000.00,313.9,310813,016.9,E,D*27
$PGRME,2.4,M,2.4,M,3.4,M*29
$HCHDG,292.1,0.0,E,,*21
$YXXDR,A,5.8,D,PTCH,A,3.3,D,ROLL*50
$HCHDG,292.1,0.0,E,,*21
$GPRMC,000055.8,A,4845.42679,N,12230.28314,W,000.00,313.9,310813,016.9,E,D*29
$PGRME,2.4,M,2.4,M,3.4,M*29
$HCHDG,292.1,0.0,E,,*21
$HCHDG,292.1,0.0,E,,*21
$GPRMC,000056.0,A,4845.42679,N,12230.28314,W,000.00,313.9,310813,016.9,E,D*22
$PGRME,2.4,M,2.4,M,3.4,M*29
$HCHDG,292.1,0.0,E,,*21
$HCHDG,292.1,0.0,E,,*21
$GPRMC,000056.2,A,4845.42679,N,12230.28314,W,000.00,313.9,310813,016.9,E,D*20
$GPRMB,A,2.47,L,,Oh,4814.8080,N,12233.9900,W,30.7,185,-0.00,V*31
$PGRME,2.4,M,2.4,M,3.4,M*29
$YXXDR,A,5.8,D,PTCH,A,3.4,D,ROLL*57
$PTAK,FFD1,3.4*52
$HCHDG,292.1,0.0,E,,*21
$HCHDG,292.1,0.0,E,,*21
$GPRMC,000056.4,A,4845.42679,N,12230.28314,W,000.00,313.9,310813,016.9,E,D*26
$PGRME,2.4,M,2.4,M,3.4,M*29
$HCHDG,292.1,0.0,E,,*21
$HCHDG,292.1,0.0,E,,*21
$GPRMC,000056.6,A,4845.42679,N,12230.28314,W,000.01,313.9,310813,016.9,E,D*25
$PGRME,2.4,M,2.4,M,3.4,M*29
$HCHDG,292.1,0.0,E,,*21
$YXXDR,A,5.8,D,PTCH,A,3.4,D,ROLL*57
$HCHDG,292.1,0.0,E,,*21
$GPRMC,000056.8,A,4845.42679,N,12230.28314,W,000.00,313.9,310813,016.9,E,D*2A
$PGRME,2.4,M,2.4,M,3.4,M*29
$HCHDG,292.1,0.0,E,,*21
$HCHDG,292.1,0.0,E,,*21
$GPRMC,000057.0,A,4845.42679,N,12230.28314,W,000.00,313.9,310813,016.9,E,D*23
$PGRME,2.4,M,2.4,M,3.4,M*29
$HCHDG,292.1,0.0,E,,*21
$HCHDG,292.0,0.0,E,,*20
$GPRMC,000057.2,A,4845.42679,N,12230.28314,W,000.00,313.9,310813,016.9,E,D*21
$PGRME,2.4,M,2.4,M,3.4,M*29
$YXXDR,A,5.8,D,PTCH,A,3.4,D,ROLL*57
$PTAK,FFP1,HEEL,@*07
$HCHDG,292.0,0.0,E,,*20
$HCHDG,292.0,0.0,E,,*20
$GPRMC,000057.4,A,4845.42679,N,12230.28314,W,000.00,313.9,310813,016.9,E,D*27
$GPRMB,A,2.47,L,,Oh,4814.8080,N,12233.9900,W,30.7,185,-0.00,V*31
$PGRME,2.4,M,2.4,M,3.4,M*29
$HCHDG,292.0,0.0,E,,*20
$HCHDG,292.0,0.0,E,,*20
$GPRMC,000057.6,A,4845.42679,N,12230.28315,W,000.00,313.9,310813,016.9,E,D*24
$PGRME,2.4,M,2.4,M,3.4,M*29
$HCHDG,292.0,0.0,E,,*20
$YXXDR,A,5.8,D,PTCH,A,3.4,D,ROLL*57
$PTAK,FFD1,3.4*52
$HCHDG,292.0,0.0,E,,*20
$GPRMC,000057.8,A,4845.42679,N,12230.28315,W,000.00,313.9,310813,016.9,E,D*2A
$PGRME,2.4,M,2.4,M,3.4,M*29
$HCHDG,292.0,0.0,E,,*20
$HCHDG,292.0,0.0,E,,*20
$GPRMC,000058.0,A,4845.42679,N,12230.28314,W,000.00,313.9,310813,016.9,E,D*2C
$PGRME,2.4,M,2.4,M,3.4,M*29
$HCHDG,292.0,0.0,E,,*20
$HCHDG,292.0,0.0,E,,*20
$GPRMC,000058.2,A,4845.42679,N,12230.28314,W,000.00,313.9,310813,016.9,E,D*2E
$PGRME,2.4,M,2.4,M,3.4,M*29
$YXXDR,A,5.8,D,PTCH,A,3.3,D,ROLL*50
$HCHDG,292.0,0.0,E,,*20
$HCHDG,292.0,0.0,E,,*20
$GPRMC,000058.4,A,4845.42679,N,12230.28314,W,000.00,313.9,310813,016.9,E,D*28
$PGRME,2.4,M,2.4,M,3.4,M*29
$HCHDG,292.0,0.0,E,,*20
$HCHDG,292.0,0.0,E,,*20
$GPRMC,000058.6,A,4845.42679,N,12230.28314,W,000.01,313.9,310813,016.9,E,D*2B
$GPRMB,A,2.47,L,,Oh,4814.8080,N,12233.9900,W,30.7,185,-0.01,V*30
$PGRME,2.4,M,2.4,M,3.4,M*29
$HCHDG,292.0,0.0,E,,*20
$YXXDR,A,5.8,D,PTCH,A,3.3,D,ROLL*50
$PTAK,FFD1,3.3*55
$HCHDG,292.0,0.0,E,,*20
$GPRMC,000058.8,A,4845.42679,N,12230.28315,W,000.00,313.9,310813,016.9,E,D*25
$PGRME,2.4,M,2.4,M,3.4,M*29
$HCHDG,291.9,0.0,E,,*2A
$HCHDG,291.9,0.0,E,,*2A
$GPRMC,000059.0,A,4845.42679,N,12230.28315,W,000.00,313.9,310813,016.9,E,D*2C
$PGRME,2.4,M,2.4,M,3.4,M*29
$HCHDG,291.9,0.0,E,,*2A
$HCHDG,291.9,0.0,E,,*2A
$GPRMC,000059.2,A,4845.42679,N,12230.28315,W,000.00,313.9,310813,016.9,E,D*2E
$PGRME,2.4,M,2.4,M,3.4,M*29
$YXXDR,A,5.8,D,PTCH,A,3.3,D,ROLL*50
$HCHDG,291.9,0.0,E,,*2A
$HCHDG,291.9,0.0,E,,*2A
$GPRMC,000059.4,A,4845.42679,N,12230.28315,W,000.00,313.9,310813,016.9,E,D*28
$PGRME,2.4,M,2.4,M,3.4,M*29
$HCHDG,291.9,0.0,E,,*2A
$HCHDG,291.9,0.0,E,,*2A
$GPRMC,000059.6,A,4845.42679,N,12230.28315,W,000.00,313.9,310813,016.9,E,D*2A
$PGRME,2.4,M,2.4,M,3.4,M*29
$HCHDG,291.9,0.0,E,,*2A
$YXXDR,A,5.8,D,PTCH,A,3.4,D,ROLL*57
$HCHDG,291.9,0.0,E,,*2A
$GPRMC,000059.8,A,4845.42679,N,12230.28315,W,000.00,313.9,310813,016.9,E,D*24
$GPRMB,A,2.47,L,,Oh,4814.8080,N,12233.9900,W,30.7,185,-0.00,V*31
$PGRME,2.4,M,2.4,M,3.4,M*29
$HCHDG,291.9,0.0,E,,*2A
$HCHDG,291.8,0.0,E,,*2B
$GPRMC,000100.0,A,4845.42679,N,12230.28315,W,000.00,313.9,310813,016.9,E,D*21
$PGRME,2.4,M,2.4,M,3.4,M*29
$HCHDG,291.8,0.0,E,,*2B
$HCHDG,291.8,0.0,E,,*2B
$GPRMC,000100.2,A,4845.42679,N,12230.28315,W,000.00,313.9,310813,016.9,E,D*23
$PGRME,2.4,M,2.4,M,3.4,M*29
$YXXDR,A,5.8,D,PTCH,A,3.4,D,ROLL*57
$PTAK,FFD1,3.4*52
$HCHDG,291.8,0.0,E,,*2B
$HCHDG,291.8,0.0,E,,*2B
$GPRMC,000100.4,A,4845.42679,N,12230.28315,W,000.00,313.9,310813,016.9,E,D*25
$PGRME,2.4,M,2.4,M,3.4,M*29
$HCHDG,291.8,0.0,E,,*2B
$HCHDG,291.8,0.0,E,,*2B
$GPRMC,000100.6,A,4845.42679,N,12230.28315,W,000.01,313.9,310813,016.9,E,D*26
$PGRME,2.4,M,2.4,M,3.4,M*29
$HCHDG,291.8,0.0,E,,*2B
$YXXDR,A,5.8,D,PTCH,A,3.4,D,ROLL*57
$HCHDG,291.8,0.0,E,,*2B
$GPRMC,000100.8,A,4845.42679,N,12230.28315,W,000.00,313.9,310813,016.9,E,D*29
$PGRME,2.4,M,2.4,M,3.4,M*29
$HCHDG,291.7,0.0,E,,*24
$HCHDG,291.7,0.0,E,,*24
$GPRMC,000101.0,A,4845.42679,N,12230.28315,W,000.00,313.9,310813,016.9,E,D*20
$GPRMB,A,2.47,L,,Oh,4814.8080,N,12233.9900,W,30.7,185,-0.00,V*31
$PGRME,2.4,M,2.4,M,3.4,M*29
$HCHDG,291.7,0.0,E,,*24
$HCHDG,291.7,0.0,E,,*24
$GPRMC,000101.2,A,4845.42679,N,12230.28315,W,000.00,313.9,310813,016.9,E,D*22
$PGRME,2.4,M,2.4,M,3.4,M*29
$YXXDR,A,5.8,D,PTCH,A,3.4,D,ROLL*57
$PTAK,FFD1,3.4*52
$PTAK,FFP1,HEEL,@*07
$HCHDG,291.7,0.0,E,,*24
$HCHDG,291.7,0.0,E,,*24
$GPRMC,000101.4,A,4845.42679,N,12230.28315,W,000.00,313.9,310813,016.9,E,D*24
$PGRME,2.4,M,2.4,M,3.4,M*29
$HCHDG,291.7,0.0,E,,*24
$HCHDG,291.7,0.0,E,,*24
$GPRMC,000101.6,A,4845.42679,N,12230.28315,W,000.00,313.9,310813,016.9,E,D*26
$PGRME,2.4,M,2.4,M,3.4,M*29
$HCHDG,291.7,0.0,E,,*24
$YXXDR,A,5.8,D,PTCH,A,3.4,D,ROLL*57
$HCHDG,291.7,0.0,E,,*24
$GPRMC,000101.8,A,4845.42679,N,12230.28315,W,000.00,313.9,310813,016.9,E,D*28
$PGRME,2.4,M,2.4,M,3.4,M*29
$HCHDG,291.7,0.0,E,,*24
$HCHDG,291.7,0.0,E,,*24
$GPRMC,000102.0,A,4845.42679,N,12230.28315,W,000.01,313.9,310813,016.9,E,D*22
$GPRMB,A,2.47,L,,Oh,4814.8080,N,12233.9900,W,30.7,185,-0.01,V*30
$PGRME,2.4,M,2.4,M,3.4,M*29
$HCHDG,291.7,0.0,E,,*24
$HCHDG,291.7,0.0,E,,*24
$GPRMC,000102.2,A,4845.42679,N,12230.28315,W,000.01,313.9,310813,016.9,E,D*20
$PGRME,2.4,M,2.4,M,3.4,M*29
$YXXDR,A,5.8,D,PTCH,A,3.4,D,ROLL*57
$PTAK,FFD1,3.4*52
$HCHDG,291.7,0.0,E,,*24
$HCHDG,291.7,0.0,E,,*24
$GPRMC,000102.4,A,4845.42679,N,12230.28316,W,000.00,313.9,310813,016.9,E,D*24
$PGRME,2.4,M,2.4,M,3.4,M*29
$HCHDG,291.7,0.0,E,,*24
$HCHDG,291.7,0.0,E,,*24
$GPRMC,000102.6,A,4845.42679,N,12230.28316,W,000.00,313.9,310813,016.9,E,D*26
$PGRME,2.4,M,2.4,M,3.4,M*29
$HCHDG,291.7,0.0,E,,*24
$YXXDR,A,5.8,D,PTCH,A,3.4,D,ROLL*57
$HCHDG,291.7,0.0,E,,*24
$GPRMC,000102.8,A,4845.42679,N,12230.28316,W,000.01,313.9,310813,016.9,E,D*29
$PGRME,2.4,M,2.4,M,3.4,M*29
$HCHDG,291.7,0.0,E,,*24
$HCHDG,291.7,0.0,E,,*24
$GPRMC,000103.0,A,4845.42680,N,12230.28316,W,000.01,313.9,310813,016.9,E,D*26
$PGRME,2.4,M,2.4,M,3.4,M*29
$HCHDG,291.7,0.0,E,,*24
$HCHDG,291.7,0.0,E,,*24
$GPRMC,000103.2,A,4845.42680,N,12230.28316,W,000.01,313.9,310813,016.9,E,D*24
$GPRMB,A,2.47,L,,Oh,4814.8080,N,12233.9900,W,30.7,185,-0.01,V*30
$PGRME,2.4,M,2.4,M,3.4,M*29
$YXXDR,A,5.8,D,PTCH,A,3.4,D,ROLL*57
$PTAK,FFD1,3.4*52
$HCHDG,291.7,0.0,E,,*24
$HCHDG,291.7,0.0,E,,*24
$GPRMC,000103.4,A,4845.42680,N,12230.28316,W,000.01,313.9,310813,016.9,E,D*22
$PGRME,2.4,M,2.4,M,3.4,M*29
$HCHDG,291.7,0.0,E,,*24
$HCHDG,291.7,0.0,E,,*24
$GPRMC,000103.6,A,4845.42680,N,12230.28316,W,000.00,313.9,310813,016.9,E,D*21
$PGRME,2.4,M,2.4,M,3.4,M*29
$HCHDG,291.7,0.0,E,,*24
$YXXDR,A,5.8,D,PTCH,A,3.3,D,ROLL*50
$HCHDG,291.7,0.0,E,,*24
$GPRMC,000103.8,A,4845.42680,N,12230.28316,W,000.00,313.9,310813,016.9,E,D*2F
$PGRME,2.4,M,2.4,M,3.4,M*29
$HCHDG,291.7,0.0,E,,*24
$HCHDG,291.7,0.0,E,,*24
$GPRMC,000104.0,A,4845.42680,N,12230.28316,W,000.00,313.9,310813,016.9,E,D*20
$PGRME,2.4,M,2.4,M,3.4,M*29
$HCHDG,291.7,0.0,E,,*24
$HCHDG,291.7,0.0,E,,*24
$GPRMC,000104.2,A,4845.42680,N,12230.28316,W,000.01,313.9,310813,016.9,E,D*23
$PGRME,2.4,M,2.4,M,3.4,M*29
$YXXDR,A,5.8,D,PTCH,A,3.4,D,ROLL*57
$HCHDG,291.7,0.0,E,,*24
