$PGRME,2.4,M,2.4,M,3.4,M*29
$HCHDG,300.6,0.0,E,,*2C
$IIMWV,009,R,07.5,N,A*18
$HCHDG,300.5,0.0,E,,*2F
$GPRMC,020000.2,A,4739.76396,N,12222.98512,W,001.96,316.1,130813,016.6,E,D*22
$PGRME,2.4,M,2.4,M,3.4,M*29
$IIMWV,012,T,05.1,N,A*12
$HCHDG,300.6,0.0,E,,*2C
$IIRMB,A,0.00,L,,Shil,,,,,001.7,321,,V,A*7F
$HCHDG,300.6,0.0,E,,*2C
$GPRMC,020000.4,A,4739.76406,N,12222.98523,W,001.95,313.5,130813,016.6,E,D*2A
$PGRME,2.4,M,2.4,M,3.4,M*29
$YXXDR,A,6.0,D,PTCH,A,3.3,D,ROLL*5B
$IIRMC,015900,A,4739.763,N,12222.984,W,01.9,316,120813,16,E,A*1E
$HCHDG,300.7,0.0,E,,*2D
$IIVHW,,,,,01.8,N,,*10
$IIVLW,02118,N,002.9,N*52
$HCHDG,300.7,0.0,E,,*2D
$GPRMC,020000.6,A,4739.76415,N,12222.98546,W,001.92,313.9,130813,016.6,E,D*22
$PTAK,FFP1,HEEL,@*07
$PGRME,2.4,M,2.4,M,3.4,M*29
$IIVWR,009,R,07.5,N,,,,*6A
$IIDPT,009.2,-1.0,*4B
$HCHDG,300.8,0.0,E,,*22
$HCHDG,300.9,0.0,E,,*23
$GPRMC,020000.8,A,4739.76419,N,12222.98561,W,001.92,318.3,130813,016.6,E,D*24
$GPRMB,A,0.00,L,Shil,Shil,4741.0830,N,12224.5670,W,1.7,321,1.92,V*08
$PGRME,2.4,M,2.4,M,3.4,M*29
$HCHDG,300.9,0.0,E,,*23
$YXXDR,A,6.2,D,PTCH,A,2.7,D,ROLL*5C
$GPRMC,020001.0,A,4739.76427,N,12222.98570,W,001.89,313.2,130813,016.6,E,D*20
$PGRME,2.4,M,2.4,M,3.4,M*29
$HCHDG,300.7,0.0,E,,*2D
$HCHDG,300.9,0.0,E,,*23
$HCHDG,300.9,0.0,E,,*23
$GPRMC,020001.2,A,4739.76428,N,12222.98576,W,001.89,311.8,130813,016.6,E,D*23
$PGRME,2.4,M,2.4,M,3.4,M*29
$IIGLL,4739.764,N,12222.985,W,020000,A,A*49
$IIMTW,+20.5,C*3F
$HCHDG,300.9,0.0,E,,*23
$IIMWV,007,R,08.3,N,A*1F
$IIMWV,012,T,05.7,N,A*14
$HCHDG,301.0,0.0,E,,*2B
$GPRMC,020001.4,A,4739.76430,N,12222.98578,W,001.91,311.9,130813,016.6,E,D*2A
$PGRME,2.4,M,2.4,M,3.4,M*29
$IIRMB,A,0.00,L,,Shil,,,,,001.7,321,,V,A*7F
$YXXDR,A,6.0,D,PTCH,A,2.8,D,ROLL*51
$PTAK,FFD1,2.8*5F
$HCHDG,301.1,0.0,E,,*2A
$HCHDG,301.2,0.0,E,,*29
$IIRMC,020000,A,4739.764,N,12222.985,W,01.9,318,120813,16,E,A*19
$GPRMC,020001.6,A,4739.76437,N,12222.98604,W,001.91,316.1,130813,016.6,E,D*28
$PGRME,2.4,M,2.4,M,3.4,M*29
$IIVHW,,,,,01.8,N,,*10
$HCHDG,301.2,0.0,E,,*29
$IIVLW,02118,N,002.9,N*52
$HCHDG,300.9,0.0,E,,*23
$GPRMC,020001.8,A,4739.76441,N,12222.98631,W,001.92,308.6,130813,016.6,E,D*2A
$PGRME,2.4,M,2.4,M,3.4,M*29
$HCHDG,301.0,0.0,E,,*2B
$YXXDR,A,5.8,D,PTCH,A,2.4,D,ROLL*56
$GPRMC,020002.0,A,4739.76450,N,12222.98650,W,001.93,317.2,130813,016.6,E,D*2D
$GPRMB,A,0.00,L,Shil,Shil,4741.0830,N,12224.5670,W,1.7,321,1.93,V*09
$PGRME,2.4,M,2.4,M,3.4,M*29
$HCHDG,301.0,0.0,E,,*2B
$HCHDG,301.0,0.0,E,,*2B
$IIVWR,008,R,08.7,N,,,,*66
$HCHDG,300.9,0.0,E,,*23
$GPRMC,020002.2,A,4739.76465,N,12222.98658,W,001.94,318.2,130813,016.6,E,D*29
$PGRME,2.4,M,2.4,M,3.4,M*29
$IIDPT,009.0,-1.0,*49
$HCHDG,301.1,0.0,E,,*2A
$IIGLL,4739.764,N,12222.986,W,020000,A,A*4A
$IIMTW,+20.5,C*3F
$HCHDG,301.0,0.0,E,,*2B
$GPRMC,020002.4,A,4739.76483,N,12222.98663,W,001.93,315.4,130813,016.6,E,D*23
$PGRME,2.4,M,2.4,M,3.4,M*29
$IIMWV,008,R,08.7,N,A*14
$YXXDR,A,5.5,D,PTCH,A,2.3,D,ROLL*5C
$IIMWV,008,T,06.4,N,A*1F
$HCHDG,301.1,0.0,E,,*2A
$IIRMB,A,0.00,L,,Shil,,,,,001.7,321,,V,A*7F
$HCHDG,301.2,0.0,E,,*29
$GPRMC,020002.6,A,4739.76482,N,12222.98674,W,001.92,311.0,130813,016.6,E,D*27
$PGRME,2.4,M,2.4,M,3.4,M*29
$HCHDG,301.4,0.0,E,,*2F
$IIRMC,020000,A,4739.764,N,12222.986,W,01.9,308,120813,16,E,A*1B
$HCHDG,301.7,0.0,E,,*2C
$GPRMC,020002.8,A,4739.76494,N,12222.98686,W,001.90,309.6,130813,016.6,E,D*2E
$PGRME,2.4,M,2.4,M,3.4,M*29
$HCHDG,301.7,0.0,E,,*2C
$YXXDR,A,6.1,D,PTCH,A,2.4,D,ROLL*5C
$PTAK,FFD1,2.4*53
$GPRMC,020003.0,A,4739.76499,N,12222.98708,W,001.93,314.4,130813,016.6,E,D*20
$HCHDG,301.8,0.0,E,,*23
$PGRME,2.4,M,2.4,M,3.4,M*29
$HCHDG,301.9,0.0,E,,*22
$IIVHW,,,,,01.8,N,,*10
$HCHDG,302.0,0.0,E,,*28
$GPRMC,020003.2,A,4739.76510,N,12222.98718,W,001.93,320.4,130813,016.6,E,D*24
$GPRMB,A,0.00,L,Shil,Shil,4741.0830,N,12224.5670,W,1.7,321,1.93,V*09
$PGRME,2.4,M,2.4,M,3.4,M*29
$IIVLW,02118,N,002.9,N*52
$HCHDG,302.0,0.0,E,,*28
$IIVWR,010,R,09.5,N,,,,*6C
$IIDPT,009.0,-1.0,*49
$HCHDG,302.3,0.0,E,,*2B
$GPRMC,020003.4,A,4739.76511,N,12222.98741,W,001.94,313.1,130813,016.6,E,D*2D
$PGRME,2.4,M,2.4,M,3.4,M*29
$IIGLL,4739.764,N,12222.986,W,020000,A,A*4A
$YXXDR,A,6.3,D,PTCH,A,3.3,D,ROLL*58
$IIMTW,+20.5,C*3F
$HCHDG,302.3,0.0,E,,*2B
$IIMWV,010,R,09.5,N,A*1E
$IIMWV,010,T,06.9,N,A*1B
$HCHDG,302.3,0.0,E,,*2B
$GPRMC,020003.6,A,4739.76517,N,12222.98766,W,001.98,318.7,130813,016.6,E,D*2D
$PGRME,2.4,M,2.4,M,3.4,M*29
$IIRMB,A,0.00,L,,Shil,,,,,001.7,321,,V,A*7F
$HCHDG,302.8,0.0,E,,*20
$HCHDG,303.0,0.0,E,,*29
$GPRMC,020003.8,A,4739.76528,N,12222.98773,W,001.97,313.9,130813,016.6,E,D*21
$PGRME,2.4,M,2.4,M,3.4,M*29
$HCHDG,303.0,0.0,E,,*29
$YXXDR,A,6.2,D,PTCH,A,3.6,D,ROLL*5C
$PTAK,FFD1,3.6*50
$GPRMC,020004.0,A,4739.76536,N,12222.98780,W,001.98,315.9,130813,016.6,E,D*24
$HCHDG,303.3,0.0,E,,*2A
$PGRME,2.4,M,2.4,M,3.4,M*29
$HCHDG,303.4,0.0,E,,*2D
$HCHDG,303.4,0.0,E,,*2D
$GPRMC,020004.2,A,4739.76545,N,12222.98777,W,001.96,313.1,130813,016.6,E,D*2A
$PGRME,2.4,M,2.4,M,3.4,M*29
$IIRMC,020000,A,4739.764,N,12222.986,W,01.9,309,120813,16,E,A*1A
$HCHDG,303.5,0.0,E,,*2C
$IIVHW,,,,,01.8,N,,*10
$IIVLW,02118,N,002.9,N*52
$HCHDG,303.7,0.0,E,,*2E
$GPRMC,020004.4,A,4739.76546,N,12222.98793,W,001.96,315.5,130813,016.6,E,D*27
$GPRMB,A,0.00,L,Shil,Shil,4741.0830,N,12224.5670,W,1.7,321,1.95,V*0F
$PGRME,2.4,M,2.4,M,3.4,M*29
$IIVWR,010,R,09.5,N,,,,*6C
$YXXDR,A,6.2,D,PTCH,A,3.3,D,ROLL*59
$IIDPT,009.0,-1.0,*49
$HCHDG,303.9,0.0,E,,*20
$PTAK,FFP1,HEEL,@*07
$IIGLL,4739.764,N,12222.986,W,020000,A,A*4A
$HCHDG,304.0,0.0,E,,*2E
$GPRMC,020004.6,A,4739.76537,N,12222.98806,W,001.93,311.1,130813,016.6,E,D*25
$IIMTW,+20.5,C*3F
$PGRME,2.4,M,2.4,M,3.4,M*29
$IIMWV,010,R,09.5,N,A*1E
$HCHDG,304.1,0.0,E,,*2F
$IIMWV,012,T,07.6,N,A*17
$HCHDG,304.4,0.0,E,,*2A
$GPRMC,020004.8,A,4739.76553,N,12222.98814,W,001.95,317.8,130813,016.6,E,D*23
$PGRME,2.4,M,2.4,M,3.4,M*29
$HCHDG,304.5,0.0,E,,*2B
$YXXDR,A,5.8,D,PTCH,A,3.2,D,ROLL*51
$PTAK,FFD1,3.2*54
$GPRMC,020005.0,A,4739.76560,N,12222.98813,W,001.94,317.2,130813,016.6,E,D*26
$PGRME,2.4,M,2.4,M,3.4,M*29
$HCHDG,304.5,0.0,E,,*2B
$HCHDG,304.7,0.0,E,,*29
$HCHDG,304.8,0.0,E,,*26
$GPRMC,020005.2,A,4739.76568,N,12222.98824,W,001.98,316.9,130813,016.6,E,D*2E
$PGRME,2.4,M,2.4,M,3.4,M*29
$IIRMB,A,0.00,L,,Shil,,,,,001.7,321,,V,A*7F
$HCHDG,305.0,0.0,E,,*2F
$IIRMC,020000,A,4739.765,N,12222.987,W,01.9,315,120813,16,E,A*17
$HCHDG,305.0,0.0,E,,*2F
$IIVHW,,,,,01.8,N,,*10
$GPRMC,020005.4,A,4739.76574,N,12222.98837,W,001.95,315.8,130813,016.6,E,D*28
$GPRMB,A,0.00,L,Shil,Shil,4741.0830,N,12224.5670,W,1.7,321,1.94,V*0E
$PGRME,2.4,M,2.4,M,3.4,M*29
$IIVLW,02118,N,002.9,N*52
$YXXDR,A,6.0,D,PTCH,A,2.8,D,ROLL*51
$HCHDG,305.3,0.0,E,,*2C
$IIVWR,007,R,09.6,N,,,,*69
$IIDPT,009.0,-1.0,*49
$HCHDG,305.5,0.0,E,,*2A
$GPRMC,020005.6,A,4739.76582,N,12222.98850,W,001.96,316.6,130813,016.6,E,D*2C
$PGRME,2.4,M,2.4,M,3.4,M*29
$IIGLL,4739.765,N,12222.987,W,020000,A,A*4A
$HCHDG,305.6,0.0,E,,*29
$IIMTW,+20.5,C*3F
$HCHDG,305.8,0.0,E,,*27
$GPRMC,020005.8,A,4739.76581,N,12222.98859,W,001.95,313.3,130813,016.6,E,D*2B
$PGRME,2.4,M,2.4,M,3.4,M*29
$HCHDG,305.9,0.0,E,,*26
$YXXDR,A,6.0,D,PTCH,A,3.4,D,ROLL*5C
$GPRMC,020006.0,A,4739.76593,N,12222.98859,W,001.96,317.8,130813,016.6,E,D*2F
$PGRME,2.4,M,2.4,M,3.4,M*29
$HCHDG,306.2,0.0,E,,*2E
$HCHDG,306.1,0.0,E,,*2D
$IIMWV,006,R,09.5,N,A*19
$HCHDG,306.3,0.0,E,,*2F
$GPRMC,020006.2,A,4739.76597,N,12222.98872,W,001.96,318.6,130813,016.6,E,D*21
$PGRME,2.4,M,2.4,M,3.4,M*29
$IIMWV,008,T,07.7,N,A*1D
$HCHDG,306.7,0.0,E,,*2B
$IIRMB,A,0.00,L,,Shil,,,,,001.7,321,,V,A*7F
$HCHDG,307.0,0.0,E,,*2D
$GPRMC,020006.4,A,4739.76598,N,12222.98875,W,001.98,316.4,130813,016.6,E,D*2D
$PGRME,2.4,M,2.4,M,3.4,M*29
$YXXDR,A,6.2,D,PTCH,A,4.3,D,ROLL*5E
$PTAK,FFD1,4.3*52
$IIRMC,020000,A,4739.765,N,12222.988,W,01.9,317,120813,16,E,A*1A
$HCHDG,307.0,0.0,E,,*2D
$IIVHW,,,,,01.8,N,,*10
$IIVLW,02118,N,002.9,N*52
$HCHDG,307.3,0.0,E,,*2E
$GPRMC,020006.6,A,4739.76611,N,12222.98887,W,001.98,312.9,130813,016.6,E,D*29
$GPRMB,A,0.00,L,Shil,Shil,4741.0830,N,12224.5670,W,1.7,321,1.96,V*0C
$PGRME,2.4,M,2.4,M,3.4,M*29
$IIVWR,006,R,09.5,N,,,,*6B
$IIDPT,009.0,-1.0,*49
$HCHDG,307.8,0.0,E,,*25
$HCHDG,308.0,0.0,E,,*22
$GPRMC,020006.8,A,4739.76618,N,12222.98890,W,002.00,317.0,130813,016.6,E,D*26
$PGRME,2.4,M,2.4,M,3.4,M*29
$HCHDG,308.3,0.0,E,,*21
$YXXDR,A,6.2,D,PTCH,A,4.8,D,ROLL*55
$GPRMC,020007.0,A,4739.76629,N,12222.98883,W,002.00,320.3,130813,016.6,E,D*28
$HCHDG,308.6,0.0,E,,*24
$PGRME,2.4,M,2.4,M,3.4,M*29
$HCHDG,308.9,0.0,E,,*2B
$HCHDG,309.3,0.0,E,,*20
$GPRMC,020007.2,A,4739.76638,N,12222.98898,W,002.00,313.8,130813,016.6,E,D*2B
$PGRME,2.4,M,2.4,M,3.4,M*29
$IIGLL,4739.765,N,12222.988,W,020000,A,A*45
$IIMTW,+20.5,C*3F
$HCHDG,309.4,0.0,E,,*27
$IIMWV,003,R,09.5,N,A*1C
$IIMWV,007,T,07.5,N,A*10
$HCHDG,309.6,0.0,E,,*25
$GPRMC,020007.4,A,4739.76651,N,12222.98926,W,001.99,311.2,130813,016.6,E,D*2D
$PGRME,2.4,M,2.4,M,3.4,M*29
$IIRMB,A,0.00,L,,Shil,,,,,001.7,321,,V,A*7F
$YXXDR,A,6.1,D,PTCH,A,4.5,D,ROLL*5B
$PTAK,FFD1,4.5*54
$HCHDG,310.0,0.0,E,,*2B
$HCHDG,310.2,0.0,E,,*29
$IIRMC,020000,A,4739.765,N,12222.988,W,01.9,317,120813,16,E,A*1A
$GPRMC,020007.6,A,4739.76659,N,12222.98951,W,001.98,311.2,130813,016.6,E,D*26
$GPRMB,A,0.00,L,Shil,Shil,4741.0830,N,12224.5670,W,1.7,321,1.95,V*0F
$PGRME,2.4,M,2.4,M,3.4,M*29
$IIVHW,,,,,01.8,N,,*10
$HCHDG,310.5,0.0,E,,*2E
$IIVLW,02118,N,002.9,N*52
$HCHDG,310.8,0.0,E,,*23
$GPRMC,020007.8,A,4739.76668,N,12222.98970,W,001.98,318.2,130813,016.6,E,D*20
$PGRME,2.4,M,2.4,M,3.4,M*29
$HCHDG,311.2,0.0,E,,*28
$YXXDR,A,6.3,D,PTCH,A,4.1,D,ROLL*5D
$GPRMC,020008.0,A,4739.76681,N,12222.98983,W,001.99,317.1,130813,016.6,E,D*21
$HCHDG,311.7,0.0,E,,*2D
$PGRME,2.4,M,2.4,M,3.4,M*29
$HCHDG,311.7,0.0,E,,*2D
$IIVWR,002,R,09.5,N,,,,*6F
$HCHDG,312.0,0.0,E,,*29
$GPRMC,020008.2,A,4739.76696,N,12222.98996,W,002.00,316.4,130813,016.6,E,D*26
$PGRME,2.4,M,2.4,M,3.4,M*29
$IIDPT,008.8,-1.0,*40
$HCHDG,312.1,0.0,E,,*28
$IIGLL,4739.766,N,12222.988,W,020000,A,A*46
$IIMTW,+20.5,C*3F
$HCHDG,312.4,0.0,E,,*2D
$GPRMC,020008.4,A,4739.76702,N,12222.98996,W,001.97,312.1,130813,016.6,E,D*20
$PGRME,2.4,M,2.4,M,3.4,M*29
$IIMWV,002,R,09.5,N,A*1D
$YXXDR,A,5.7,D,PTCH,A,3.8,D,ROLL*54
$IIMWV,003,T,07.6,N,A*17
$HCHDG,312.8,0.0,E,,*21
$IIRMB,A,0.00,L,,Shil,,,,,001.7,321,,V,A*7F
$HCHDG,313.2,0.0,E,,*2A
$GPRMC,020008.6,A,4739.76709,N,12222.99007,W,001.97,315.4,130813,016.6,E,D*2B
$PGRME,2.4,M,2.4,M,3.4,M*29
$HCHDG,313.5,0.0,E,,*2D
$PTAK,FFP1,HEEL,@*07
$IIRMC,020000,A,4739.766,N,12222.988,W,02.0,320,120813,16,E,A*17
$HCHDG,313.8,0.0,E,,*20
$GPRMC,020008.8,A,4739.76716,N,12222.99029,W,001.98,314.5,130813,016.6,E,D*28
$GPRMB,A,0.00,L,Shil,Shil,4741.0830,N,12224.5670,W,1.7,321,1.97,V*0D
$PGRME,2.4,M,2.4,M,3.4,M*29
$HCHDG,314.2,0.0,E,,*2D
$YXXDR,A,6.1,D,PTCH,A,3.3,D,ROLL*5A
$PTAK,FFD1,3.3*55
$GPRMC,020009.0,A,4739.76725,N,12222.99044,W,001.97,317.6,130813,016.6,E,D*25
$PGRME,2.4,M,2.4,M,3.4,M*29
$HCHDG,314.3,0.0,E,,*2C
$HCHDG,314.7,0.0,E,,*28
$IIVHW,,,,,01.8,N,,*10
$HCHDG,314.8,0.0,E,,*27
$GPRMC,020009.2,A,4739.76735,N,12222.99058,W,001.81,318.3,130813,016.6,E,D*26
$PGRME,2.4,M,2.4,M,3.4,M*29
$IIVLW,02118,N,002.9,N*52
$HCHDG,315.3,0.0,E,,*2D
$IIVWR,002,R,09.7,N,,,,*6D
$IIDPT,008.8,-1.0,*40
$HCHDG,315.5,0.0,E,,*2B
$GPRMC,020009.4,A,4739.76749,N,12222.99066,W,001.99,319.9,130813,016.6,E,D*24
$PGRME,2.4,M,2.4,M,3.4,M*29
$IIGLL,4739.766,N,12222.989,W,020000,A,A*47
$YXXDR,A,6.1,D,PTCH,A,3.0,D,ROLL*59
$IIMTW,+20.5,C*3F
$HCHDG,316.0,0.0,E,,*2D
$IIMWV,002,R,09.7,N,A*1F
$IIMWV,001,T,07.6,N,A*15
$HCHDG,316.2,0.0,E,,*2F
$GPRMC,020009.6,A,4739.76755,N,12222.99061,W,001.96,321.6,130813,016.6,E,D*27
$PGRME,2.4,M,2.4,M,3.4,M*29
$IIRMB,A,0.00,L,,Shil,,,,,001.7,321,,V,A*7F
$HCHDG,316.4,0.0,E,,*29
$HCHDG,316.8,0.0,E,,*25
$GPRMC,020009.8,A,4739.76761,N,12222.99072,W,002.00,318.6,130813,016.6,E,D*2A
$PGRME,2.4,M,2.4,M,3.4,M*29
$HCHDG,317.1,0.0,E,,*2D
$YXXDR,A,5.8,D,PTCH,A,3.5,D,ROLL*56
$GPRMC,020010.0,A,4739.76770,N,12222.99083,W,002.00,329.0,130813,016.6,E,D*20
$GPRMB,A,0.00,L,Shil,Shil,4741.0830,N,12224.5670,W,1.7,321,1.98,V*02
$HCHDG,317.1,0.0,E,,*2D
$PGRME,2.4,M,2.4,M,3.4,M*29
$HCHDG,317.4,0.0,E,,*28
$HCHDG,317.8,0.0,E,,*24
$GPRMC,020010.2,A,4739.76783,N,12222.99091,W,001.93,321.3,130813,016.6,E,D*2F
$PGRME,2.4,M,2.4,M,3.4,M*29
$IIRMC,020000,A,4739.767,N,12222.990,W,01.8,318,120813,16,E,A*1F
$HCHDG,318.3,0.0,E,,*20
$IIVHW,,,,,01.8,N,,*10
$IIVLW,02118,N,002.9,N*52
$HCHDG,318.5,0.0,E,,*26
$GPRMC,020010.4,A,4739.76795,N,12222.99100,W,001.95,321.8,130813,016.6,E,D*2A
$PGRME,2.4,M,2.4,M,3.4,M*29
$IIVWR,002,R,10.2,N,,,,*60
$YXXDR,A,6.2,D,PTCH,A,4.3,D,ROLL*5E
$PTAK,FFD1,4.3*52
$IIDPT,008.8,-1.0,*40
$HCHDG,318.7,0.0,E,,*24
$IIGLL,4739.767,N,12222.990,W,020000,A,A*4E
$HCHDG,319.0,0.0,E,,*22
$GPRMC,020010.6,A,4739.76803,N,12222.99103,W,001.95,315.1,130813,016.6,E,D*25
$IIMTW,+20.5,C*3F
$PGRME,2.4,M,2.4,M,3.4,M*29
$IIMWV,002,R,10.2,N,A*12
$HCHDG,319.4,0.0,E,,*26
$IIMWV,001,T,07.8,N,A*1B
$HCHDG,319.8,0.0,E,,*2A
$GPRMC,020010.8,A,4739.76807,N,12222.99110,W,001.92,326.3,130813,016.6,E,D*28
$PGRME,2.4,M,2.4,M,3.4,M*29
$HCHDG,320.3,0.0,E,,*2B
$YXXDR,A,6.0,D,PTCH,A,4.5,D,ROLL*5A
$GPRMC,020011.0,A,4739.76814,N,12222.99115,W,001.93,328.1,130813,016.6,E,D*2B
$GPRMB,A,0.00,L,Shil,Shil,4741.0830,N,12224.5670,W,1.7,321,1.92,V*08
$HCHDG,320.5,0.0,E,,*2D
$PGRME,2.4,M,2.4,M,3.4,M*29
$HCHDG,321.0,0.0,E,,*29
$HCHDG,321.3,0.0,E,,*2A
$GPRMC,020011.2,A,4739.76824,N,12222.99128,W,002.12,309.3,130813,016.6,E,D*2F
$PGRME,2.4,M,2.4,M,3.4,M*29
$IIRMB,A,0.00,L,,Shil,,,,,001.7,321,,V,A*7F
$HCHDG,321.8,0.0,E,,*21
$IIRMC,020000,A,4739.767,N,12222.990,W,01.9,321,120813,16,E,A*14
$HCHDG,322.2,0.0,E,,*28
$GPRMC,020011.4,A,4739.76832,N,12222.99138,W,002.18,316.3,130813,016.6,E,D*2B
$IIVHW,,,,,01.9,N,,*11
$PGRME,2.4,M,2.4,M,3.4,M*29
$IIVLW,02118,N,002.9,N*52
$YXXDR,A,6.1,D,PTCH,A,5.0,D,ROLL*5F
$PTAK,FFD1,5.0*50
$HCHDG,322.6,0.0,E,,*2C
$IIVWR,000,R,11.0,N,,,,*61
$IIDPT,008.1,-1.0,*49
$HCHDG,323.0,0.0,E,,*2B
$GPRMC,020011.6,A,4739.76844,N,12222.99152,W,002.16,314.4,130813,016.6,E,D*2F
$PGRME,2.4,M,2.4,M,3.4,M*29
$IIGLL,4739.767,N,12222.990,W,020000,A,A*4E
$HCHDG,323.5,0.0,E,,*2E
$IIMTW,+20.5,C*3F
$HCHDG,324.0,0.0,E,,*2C
$GPRMC,020011.8,A,4739.76855,N,12222.99164,W,002.21,312.5,130813,016.6,E,D*27
$PGRME,2.4,M,2.4,M,3.4,M*29
$HCHDG,324.4,0.0,E,,*28
$YXXDR,A,5.9,D,PTCH,A,5.2,D,ROLL*56
$GPRMC,020012.0,A,4739.76860,N,12222.99170,W,001.97,316.5,130813,016.6,E,D*25
$GPRMB,A,0.00,L,Shil,Shil,4741.0830,N,12224.5670,W,1.7,321,1.96,V*0C
$HCHDG,325.0,0.0,E,,*2D
$PGRME,2.4,M,2.4,M,3.4,M*29
$HCHDG,325.6,0.0,E,,*2B
$IIMWV,359,R,11.7,N,A*1B
$HCHDG,326.0,0.0,E,,*2E
$GPRMC,020012.2,A,4739.76862,N,12222.99174,W,001.95,317.8,130813,016.6,E,D*2F
$PGRME,2.4,M,2.4,M,3.4,M*29
$IIMWV,000,T,09.1,N,A*1D
$HCHDG,326.5,0.0,E,,*2B
$IIRMB,A,0.00,L,,Shil,,,,,001.7,321,,V,A*7F
$HCHDG,327.1,0.0,E,,*2E
$GPRMC,020012.4,A,4739.76867,N,12222.99176,W,001.91,319.6,130813,016.6,E,D*2A
$PGRME,2.4,M,2.4,M,3.4,M*29
$YXXDR,A,5.8,D,PTCH,A,4.7,D,ROLL*53
$IIRMC,020000,A,4739.768,N,12222.991,W,02.1,309,120813,16,E,A*1B
$IIVHW,,,,,01.9,N,,*11
$HCHDG,327.6,0.0,E,,*29
$IIVLW,02118,N,002.9,N*52
$HCHDG,328.2,0.0,E,,*22
$GPRMC,020012.6,A,4739.76871,N,12222.99179,W,001.90,317.5,130813,016.6,E,D*2C
$PGRME,2.4,M,2.4,M,3.4,M*29
$IIVWR,001,L,11.7,N,,,,*79
$IIDPT,008.4,-1.0,*4C
$HCHDG,328.3,0.0,E,,*23
$PTAK,FFP1,HEEL,@*07
$HCHDG,328.9,0.0,E,,*29
$GPRMC,020012.8,A,4739.76882,N,12222.99189,W,001.90,320.4,130813,016.6,E,D*24
$PGRME,2.4,M,2.4,M,3.4,M*29
$HCHDG,329.6,0.0,E,,*27
$YXXDR,A,6.1,D,PTCH,A,4.1,D,ROLL*5F
$PTAK,FFD1,4.1*50
$GPRMC,020013.0,A,4739.76890,N,12222.99196,W,001.94,321.7,130813,016.6,E,D*26
$GPRMB,A,0.00,L,Shil,Shil,4741.0830,N,12224.5670,W,1.7,321,1.94,V*0E
$HCHDG,330.0,0.0,E,,*29
$PGRME,2.4,M,2.4,M,3.4,M*29
$HCHDG,330.5,0.0,E,,*2C
$HCHDG,331.1,0.0,E,,*29
$GPRMC,020013.2,A,4739.76902,N,12222.99209,W,001.93,315.4,130813,016.6,E,D*28
$PGRME,2.4,M,2.4,M,3.4,M*29
$IIGLL,4739.768,N,12222.991,W,020000,A,A*40
$IIMTW,+20.5,C*3F
$HCHDG,331.7,0.0,E,,*2F
$IIMWV,358,R,12.6,N,A*18
$IIMWV,359,T,09.8,N,A*1B
$HCHDG,332.2,0.0,E,,*29
$GPRMC,020013.4,A,4739.76907,N,12222.99218,W,001.94,321.8,130813,016.6,E,D*27
$PGRME,2.4,M,2.4,M,3.4,M*29
$IIRMB,A,0.00,L,,Shil,,,,,001.7,321,,V,A*7F
$YXXDR,A,6.1,D,PTCH,A,4.0,D,ROLL*5E
$HCHDG,332.7,0.0,E,,*2C
$HCHDG,333.4,0.0,E,,*2E
$IIRMC,020000,A,4739.768,N,12222.991,W,01.9,317,120813,16,E,A*1F
$GPRMC,020013.6,A,4739.76910,N,12222.99222,W,001.94,316.4,130813,016.6,E,D*22
$PGRME,2.4,M,2.4,M,3.4,M*29
$IIVHW,,,,,01.9,N,,*11
$HCHDG,334.2,0.0,E,,*2F
$IIVLW,02118,N,002.9,N*52
$HCHDG,334.8,0.0,E,,*25
$GPRMC,020013.8,A,4739.76916,N,12222.99230,W,001.95,319.2,130813,016.6,E,D*21
$PGRME,2.4,M,2.4,M,3.4,M*29
$HCHDG,335.5,0.0,E,,*29
$YXXDR,A,6.0,D,PTCH,A,4.3,D,ROLL*5C
$PTAK,FFD1,4.3*52
$GPRMC,020014.0,A,4739.76921,N,12222.99238,W,001.98,327.6,130813,016.6,E,D*26
$HCHDG,336.0,0.0,E,,*2F
$PGRME,2.4,M,2.4,M,3.4,M*29
$HCHDG,336.8,0.0,E,,*27
$IIVWR,004,L,13.3,N,,,,*7A
$HCHDG,337.3,0.0,E,,*2D
$GPRMC,020014.2,A,4739.76926,N,12222.99242,W,001.96,324.5,130813,016.6,E,D*20
$GPRMB,A,0.00,L,Shil,Shil,4741.0830,N,12224.5670,W,1.7,321,1.96,V*0C
$PGRME,2.4,M,2.4,M,3.4,M*29
$IIDPT,008.0,-1.0,*48
$HCHDG,337.9,0.0,E,,*27
$IIGLL,4739.769,N,12222.992,W,020000,A,A*42
$IIMTW,+20.5,C*3F
$HCHDG,338.5,0.0,E,,*24
$GPRMC,020014.4,A,4739.76932,N,12222.99255,W,001.76,321.1,130813,016.6,E,D*2A
$PGRME,2.4,M,2.4,M,3.4,M*29
$IIMWV,356,R,13.3,N,A*12
$YXXDR,A,6.1,D,PTCH,A,4.5,D,ROLL*5B
$IIMWV,358,T,10.7,N,A*1D
$HCHDG,339.1,0.0,E,,*21
$IIRMB,A,0.00,L,,Shil,,,,,001.7,321,,V,A*7F
$HCHDG,339.3,0.0,E,,*23
$GPRMC,020014.6,A,4739.76936,N,12222.99260,W,001.76,326.1,130813,016.6,E,D*2D
$PGRME,2.4,M,2.4,M,3.4,M*29
$HCHDG,340.0,0.0,E,,*2E
$IIRMC,020000,A,4739.769,N,12222.992,W,01.9,315,120813,16,E,A*1F
$HCHDG,340.8,0.0,E,,*26
$GPRMC,020014.8,A,4739.76945,N,12222.99264,W,001.75,323.0,130813,016.6,E,D*24
$PGRME,2.4,M,2.4,M,3.4,M*29
$HCHDG,341.4,0.0,E,,*2B
$YXXDR,A,6.0,D,PTCH,A,4.8,D,ROLL*57
$PTAK,FFD1,4.8*59
$GPRMC,020015.0,A,4739.76958,N,12222.99267,W,001.81,324.8,130813,016.6,E,D*26
$HCHDG,341.8,0.0,E,,*27
$PGRME,2.4,M,2.4,M,3.4,M*29
$HCHDG,342.4,0.0,E,,*28
$IIVHW,,,,,01.8,N,,*10
$HCHDG,343.1,0.0,E,,*2C
$GPRMC,020015.2,A,4739.76966,N,12222.99268,W,001.77,329.8,130813,016.6,E,D*22
$PGRME,2.4,M,2.4,M,3.4,M*29
$IIVLW,02118,N,002.9,N*52
$HCHDG,343.6,0.0,E,,*2B
$IIVWR,007,L,13.6,N,,,,*7C
$IIDPT,007.4,-1.0,*43
$HCHDG,344.2,0.0,E,,*28
$GPRMC,020015.4,A,4739.76973,N,12222.99270,W,001.75,329.4,130813,016.6,E,D*27
$GPRMB,A,0.00,L,Shil,Shil,4741.0830,N,12224.5670,W,1.7,321,1.73,V*07
$PGRME,2.4,M,2.4,M,3.4,M*29
$IIGLL,4739.769,N,12222.992,W,020000,A,A*42
$YXXDR,A,6.0,D,PTCH,A,4.6,D,ROLL*59
$IIMTW,+20.5,C*3F
$HCHDG,344.8,0.0,E,,*22
$IIMWV,353,R,13.6,N,A*12
$IIMWV,355,T,11.4,N,A*12
$HCHDG,345.4,0.0,E,,*2F
$GPRMC,020015.6,A,4739.76982,N,12222.99272,W,001.76,325.5,130813,016.6,E,D*27
$PGRME,2.4,M,2.4,M,3.4,M*29
$IIRMB,A,0.00,L,,Shil,,,,,001.7,321,,V,A*7F
$HCHDG,345.9,0.0,E,,*22
$HCHDG,346.6,0.0,E,,*2E
$GPRMC,020015.8,A,4739.76988,N,12222.99274,W,001.78,330.9,130813,016.6,E,D*23
$PGRME,2.4,M,2.4,M,3.4,M*29
$HCHDG,347.2,0.0,E,,*2B
$YXXDR,A,6.2,D,PTCH,A,4.3,D,ROLL*5E
$PTAK,FFD1,4.3*52
$GPRMC,020016.0,A,4739.76997,N,12222.99278,W,001.78,337.7,130813,016.6,E,D*23
$HCHDG,347.9,0.0,E,,*20
$PGRME,2.4,M,2.4,M,3.4,M*29
$HCHDG,348.2,0.0,E,,*24
$HCHDG,349.0,0.0,E,,*27
$GPRMC,020016.2,A,4739.77010,N,12222.99271,W,001.82,333.9,130813,016.6,E,D*20
$PGRME,2.4,M,2.4,M,3.4,M*29
$IIRMC,020000,A,4739.769,N,12222.992,W,01.7,329,120813,16,E,A*1E
$HCHDG,349.5,0.0,E,,*22
$IIVHW,,,,,01.8,N,,*10
$IIVLW,02118,N,002.9,N*52
$HCHDG,349.8,0.0,E,,*2F
$GPRMC,020016.4,A,4739.77024,N,12222.99281,W,001.86,334.8,130813,016.6,E,D*2C
$GPRMB,A,0.00,L,Shil,Shil,4741.0830,N,12224.5670,W,1.7,321,1.81,V*0A
$PGRME,2.4,M,2.4,M,3.4,M*29
$IIVWR,011,L,13.5,N,,,,*78
$YXXDR,A,6.2,D,PTCH,A,3.6,D,ROLL*5C
$IIDPT,007.8,-1.0,*4F
$HCHDG,350.4,0.0,E,,*2B
$IIGLL,4739.769,N,12222.992,W,020000,A,A*42
$HCHDG,351.1,0.0,E,,*2F
$IIMTW,+20.5,C*3F
$GPRMC,020016.6,A,4739.77029,N,12222.99276,W,001.65,332.4,130813,016.6,E,D*2C
$PGRME,2.4,M,2.4,M,3.4,M*29
$IIMWV,349,R,13.5,N,A*1A
$PTAK,FFP1,HEEL,@*07
$HCHDG,351.5,0.0,E,,*2B
$IIMWV,352,T,11.6,N,A*17
$HCHDG,352.2,0.0,E,,*2F
$GPRMC,020016.8,A,4739.77040,N,12222.99285,W,001.63,333.3,130813,016.6,E,D*21
$PGRME,2.4,M,2.4,M,3.4,M*29
$HCHDG,352.6,0.0,E,,*2B
$YXXDR,A,6.3,D,PTCH,A,3.2,D,ROLL*59
$GPRMC,020017.0,A,4739.77053,N,12222.99294,W,001.61,337.3,130813,016.6,E,D*2C
$HCHDG,353.2,0.0,E,,*2E
$PGRME,2.4,M,2.4,M,3.4,M*29
$HCHDG,354.0,0.0,E,,*2B
$HCHDG,354.4,0.0,E,,*2F
$GPRMC,020017.2,A,4739.77064,N,12222.99300,W,001.62,343.2,130813,016.6,E,D*27
$PGRME,2.4,M,2.4,M,3.4,M*29
$IIRMB,A,0.00,L,,Shil,,,,,001.7,321,,V,A*7F
$HCHDG,355.1,0.0,E,,*2B
$IIRMC,020000,A,4739.770,N,12222.992,W,01.8,334,120813,16,E,A*15
$HCHDG,355.7,0.0,E,,*2D
$IIVHW,,,,,01.7,N,,*1F
$GPRMC,020017.4,A,4739.77070,N,12222.99298,W,001.64,344.0,130813,016.6,E,D*27
$GPRMB,A,0.00,L,Shil,Shil,4741.0830,N,12224.5670,W,1.7,321,1.51,V*07
$PGRME,2.4,M,2.4,M,3.4,M*29
$IIVLW,02118,N,002.9,N*52
$YXXDR,A,6.3,D,PTCH,A,3.5,D,ROLL*5E
$PTAK,FFD1,3.5*53
$HCHDG,356.4,0.0,E,,*2D
$IIVWR,011,L,13.4,N,,,,*79
$IIDPT,006.8,-1.0,*4E
$HCHDG,356.7,0.0,E,,*2E
$GPRMC,020017.6,A,4739.77074,N,12222.99299,W,001.64,342.1,130813,016.6,E,D*27
$PGRME,2.4,M,2.4,M,3.4,M*29
$IIGLL,4739.770,N,12222.992,W,020000,A,A*4A
$HCHDG,357.2,0.0,E,,*2A
$IIMTW,+20.5,C*3F
$HCHDG,358.2,0.0,E,,*25
$GPRMC,020017.8,A,4739.77083,N,12222.99299,W,001.89,347.0,130813,016.6,E,D*26
$PGRME,2.4,M,2.4,M,3.4,M*29
$HCHDG,358.8,0.0,E,,*2F
$YXXDR,A,6.1,D,PTCH,A,3.7,D,ROLL*5E
$GPRMC,020018.0,A,4739.77093,N,12222.99297,W,001.62,345.0,130813,016.6,E,D*29
$HCHDG,359.1,0.0,E,,*27
$PGRME,2.4,M,2.4,M,3.4,M*29
$HCHDG,359.7,0.0,E,,*21
$IIMWV,350,R,12.7,N,A*11
$HCHDG,0.5,0.0,E,,*2C
$GPRMC,020018.2,A,4739.77102,N,12222.99301,W,001.68,346.3,130813,016.6,E,D*26
$PGRME,2.4,M,2.4,M,3.4,M*29
$IIMWV,348,T,11.6,N,A*1C
$HCHDG,1.3,0.0,E,,*2B
$IIRMB,A,0.00,L,,Shil,,,,,001.7,321,,V,A*7F
$HCHDG,1.9,0.0,E,,*21
$GPRMC,020018.4,A,4739.77113,N,12222.99305,W,001.66,350.0,130813,016.6,E,D*2E
$PGRME,2.4,M,2.4,M,3.4,M*29
$YXXDR,A,6.8,D,PTCH,A,4.3,D,ROLL*54
$IIRMC,020000,A,4739.770,N,12222.992,W,01.6,344,120813,16,E,A*1C
$HCHDG,2.4,0.0,E,,*2F
$IIVHW,,,,,01.6,N,,*1E
$IIVLW,02118,N,002.9,N*52
$HCHDG,3.1,0.0,E,,*2B
$GPRMC,020018.6,A,4739.77121,N,12222.99304,W,001.70,349.8,130813,016.6,E,D*2B
$PGRME,2.4,M,2.4,M,3.4,M*29
$IIVWR,010,L,12.7,N,,,,*7A
$IIDPT,007.0,-1.0,*47
$HCHDG,3.5,0.0,E,,*2F
$HCHDG,4.2,0.0,E,,*2F
$GPRMC,020018.8,A,4739.77134,N,12222.99304,W,001.74,352.4,130813,016.6,E,D*23
$GPRMB,A,0.00,L,Shil,Shil,4741.0830,N,12224.5670,W,1.7,321,1.49,V*0E
$PGRME,2.4,M,2.4,M,3.4,M*29
$HCHDG,4.7,0.0,E,,*2A
$YXXDR,A,6.3,D,PTCH,A,3.7,D,ROLL*5C
$PTAK,FFD1,3.7*51
$HCHDG,5.1,0.0,E,,*2D
$GPRMC,020019.0,A,4739.77153,N,12222.99303,W,001.71,353.3,130813,016.6,E,D*2F
$PGRME,2.4,M,2.4,M,3.4,M*29
$HCHDG,5.4,0.0,E,,*28
$HCHDG,6.0,0.0,E,,*2F
$GPRMC,020019.2,A,4739.77158,N,12222.99309,W,001.69,358.0,130813,016.6,E,D*2D
$PGRME,2.4,M,2.4,M,3.4,M*29
$IIGLL,4739.771,N,12222.993,W,020000,A,A*4A
$IIMTW,+20.5,C*3F
$HCHDG,6.3,0.0,E,,*2C
$IIMWV,346,R,11.5,N,A*17
$IIMWV,349,T,10.9,N,A*13
$HCHDG,6.9,0.0,E,,*26
$GPRMC,020019.4,A,4739.77178,N,12222.99327,W,001.72,356.0,130813,016.6,E,D*21
$PGRME,2.4,M,2.4,M,3.4,M*29
$YXXDR,A,6.3,D,PTCH,A,3.3,D,ROLL*58
$IIRMB,A,0.00,L,,Shil,,,,,001.7,321,,V,A*7F
$HCHDG,7.5,0.0,E,,*2B
$HCHDG,7.7,0.0,E,,*29
$IIRMC,020000,A,4739.771,N,12222.993,W,01.6,350,120813,16,E,A*19
$GPRMC,020019.6,A,4739.77191,N,12222.99335,W,001.68,002.2,130813,016.6,E,D*2C
$PGRME,2.4,M,2.4,M,3.4,M*29
$IIVHW,,,,,01.6,N,,*1E
$HCHDG,8.1,0.0,E,,*20
$IIVLW,02118,N,002.9,N*52
$HCHDG,8.5,0.0,E,,*24
$GPRMC,020019.8,A,4739.77195,N,12222.99341,W,001.68,355.4,130813,016.6,E,D*22
$PGRME,2.4,M,2.4,M,3.4,M*29
$HCHDG,9.1,0.0,E,,*21
$YXXDR,A,6.3,D,PTCH,A,2.9,D,ROLL*53
$HCHDG,9.6,0.0,E,,*26
$GPRMC,020020.0,A,4739.77203,N,12222.99331,W,001.87,354.9,130813,016.6,E,D*26
$GPRMB,A,0.00,L,Shil,Shil,4741.0830,N,12224.5670,W,1.7,321,1.55,V*03
$PGRME,2.4,M,2.4,M,3.4,M*29
$HCHDG,10.0,0.0,E,,*18
$IIVWR,023,L,10.7,N,,,,*78
$HCHDG,10.6,0.0,E,,*1E
$GPRMC,020020.2,A,4739.77217,N,12222.99330,W,001.82,004.1,130813,016.6,E,D*2B
$PGRME,2.4,M,2.4,M,3.4,M*29
$IIDPT,006.6,-1.0,*40
$HCHDG,10.9,0.0,E,,*11
$IIGLL,4739.771,N,12222.993,W,020000,A,A*4A
$IIMTW,+20.5,C*3F
$HCHDG,11.4,0.0,E,,*1D
$GPRMC,020020.4,A,4739.77227,N,12222.99326,W,001.53,008.3,130813,016.6,E,D*2B
$PGRME,2.4,M,2.4,M,3.4,M*29
$IIMWV,337,R,10.7,N,A*12
$YXXDR,A,6.4,D,PTCH,A,2.8,D,ROLL*55
$PTAK,FFD1,2.8*5F
$IIMWV,344,T,09.8,N,A*17
$HCHDG,12.0,0.0,E,,*1A
$IIRMB,A,0.00,L,,Shil,,,,,001.7,321,,V,A*7F
$HCHDG,12.3,0.0,E,,*19
$GPRMC,020020.6,A,4739.77243,N,12222.99317,W,001.56,013.0,130813,016.6,E,D*25
$PGRME,2.4,M,2.4,M,3.4,M*29
$HCHDG,12.8,0.0,E,,*12
$IIRMC,020000,A,4739.771,N,12222.993,W,01.7,356,120813,16,E,A*1E
$HCHDG,13.1,0.0,E,,*1A
$PTAK,FFP1,HEEL,@*07
$GPRMC,020020.8,A,4739.77251,N,12222.99313,W,001.55,009.3,130813,016.6,E,D*27
$PGRME,2.4,M,2.4,M,3.4,M*29
$HCHDG,13.6,0.0,E,,*1D
$YXXDR,A,6.2,D,PTCH,A,2.8,D,ROLL*53
$GPRMC,020021.0,A,4739.77252,N,12222.99310,W,001.53,015.1,130813,016.6,E,D*27
$HCHDG,14.1,0.0,E,,*1D
$PGRME,2.4,M,2.4,M,3.4,M*29
$HCHDG,14.6,0.0,E,,*1A
$IIVHW,,,,,01.5,N,,*1D
$HCHDG,15.1,0.0,E,,*1C
$GPRMC,020021.2,A,4739.77268,N,12222.99303,W,001.53,021.6,130813,016.6,E,D*2E
$GPRMB,A,0.00,L,Shil,Shil,4741.0830,N,12224.5670,W,1.7,321,0.75,V*00
$PGRME,2.4,M,2.4,M,3.4,M*29
$IIVLW,02118,N,002.9,N*52
$HCHDG,15.2,0.0,E,,*1F
$IIVWR,032,L,10.3,N,,,,*7C
$IIDPT,006.3,-1.0,*45
$HCHDG,15.7,0.0,E,,*1A
$GPRMC,020021.4,A,4739.77283,N,12222.99300,W,001.53,021.3,130813,016.6,E,D*2B
$PGRME,2.4,M,2.4,M,3.4,M*29
$IIGLL,4739.771,N,12222.993,W,020000,A,A*4A
$YXXDR,A,6.2,D,PTCH,A,2.9,D,ROLL*52
$PTAK,FFD1,2.9*5E
$IIMTW,+20.5,C*3F
$HCHDG,16.1,0.0,E,,*1F
$IIMWV,328,R,10.3,N,A*18
$IIMWV,333,T,09.1,N,A*1E
$HCHDG,16.2,0.0,E,,*1C
$GPRMC,020021.6,A,4739.77295,N,12222.99301,W,001.53,013.3,130813,016.6,E,D*2E
$PGRME,2.4,M,2.4,M,3.4,M*29
$IIRMB,A,0.00,L,,Shil,,,,,001.7,321,,V,A*7F
$HCHDG,16.6,0.0,E,,*18
$HCHDG,17.0,0.0,E,,*1F
$GPRMC,020021.8,A,4739.77310,N,12222.99297,W,001.56,021.7,130813,016.6,E,D*22
$PGRME,2.4,M,2.4,M,3.4,M*29
$HCHDG,17.4,0.0,E,,*1B
$YXXDR,A,6.3,D,PTCH,A,3.3,D,ROLL*58
$GPRMC,020022.0,A,4739.77315,N,12222.99308,W,001.57,019.8,130813,016.6,E,D*2E
$PGRME,2.4,M,2.4,M,3.4,M*29
$HCHDG,18.0,0.0,E,,*10
$HCHDG,18.3,0.0,E,,*13
$HCHDG,18.6,0.0,E,,*16
$GPRMC,020022.2,A,4739.77319,N,12222.99311,W,001.59,022.5,130813,016.6,E,D*23
$GPRMB,A,0.00,L,Shil,Shil,4741.0830,N,12224.5670,W,1.7,321,0.76,V*03
$PGRME,2.4,M,2.4,M,3.4,M*29
$IIRMC,020000,A,4739.772,N,12222.993,W,01.5,021,120813,16,E,A*1C
$HCHDG,19.0,0.0,E,,*11
$IIVHW,,,,,01.5,N,,*1D
$IIVLW,02118,N,002.9,N*52
$HCHDG,19.1,0.0,E,,*10
$GPRMC,020022.4,A,4739.77328,N,12222.99307,W,001.58,027.7,130813,016.6,E,D*26
$PGRME,2.4,M,2.4,M,3.4,M*29
$IIVWR,038,L,09.6,N,,,,*7B
$YXXDR,A,6.3,D,PTCH,A,3.5,D,ROLL*5E
$PTAK,FFD1,3.5*53
$IIDPT,006.4,-1.0,*42
$HCHDG,19.4,0.0,E,,*15
$IIGLL,4739.772,N,12222.993,W,020000,A,A*49
$HCHDG,20.0,0.0,E,,*1B
$GPRMC,020022.6,A,4739.77333,N,12222.99306,W,001.54,030.0,130813,016.6,E,D*22
$IIMTW,+20.5,C*3F
$PGRME,2.4,M,2.4,M,3.4,M*29
$IIMWV,322,R,09.6,N,A*1F
$HCHDG,20.2,0.0,E,,*19
$IIMWV,323,T,09.0,N,A*1E
$HCHDG,20.4,0.0,E,,*1F
$GPRMC,020022.8,A,4739.77343,N,12222.99297,W,001.50,024.6,130813,016.6,E,D*25
$PGRME,2.4,M,2.4,M,3.4,M*29
$HCHDG,20.9,0.0,E,,*12
$YXXDR,A,6.3,D,PTCH,A,3.9,D,ROLL*52
$GPRMC,020023.0,A,4739.77349,N,12222.99291,W,001.32,032.5,130813,016.6,E,D*20
$PGRME,2.4,M,2.4,M,3.4,M*29
$HCHDG,21.2,0.0,E,,*18
$HCHDG,21.5,0.0,E,,*1F
$HCHDG,22.0,0.0,E,,*19
$GPRMC,020023.2,A,4739.77353,N,12222.99290,W,001.55,030.7,130813,016.6,E,D*29
$GPRMB,A,0.00,L,Shil,Shil,4741.0830,N,12224.5670,W,1.7,321,0.54,V*03
$PGRME,2.4,M,2.4,M,3.4,M*29
$IIRMB,A,0.00,L,,Shil,,,,,001.7,321,,V,A*7F
$HCHDG,22.2,0.0,E,,*1B
$IIRMC,020000,A,4739.773,N,12222.993,W,01.5,030,120813,16,E,A*1D
$HCHDG,22.5,0.0,E,,*1C
$IIVHW,,,,,01.5,N,,*1D
$GPRMC,020023.4,A,4739.77359,N,12222.99297,W,001.56,030.0,130813,016.6,E,D*26
$PGRME,2.4,M,2.4,M,3.4,M*29
$YXXDR,A,6.1,D,PTCH,A,3.7,D,ROLL*5E
$IIVLW,02118,N,002.9,N*52
$HCHDG,22.6,0.0,E,,*1F
$IIVWR,045,L,09.3,N,,,,*74
$IIDPT,006.3,-1.0,*45
$HCHDG,22.9,0.0,E,,*10
$GPRMC,020023.6,A,4739.77364,N,12222.99287,W,001.55,038.8,130813,016.6,E,D*28
$PGRME,2.4,M,2.4,M,3.4,M*29
$IIGLL,4739.773,N,12222.993,W,020000,A,A*48
$HCHDG,22.9,0.0,E,,*10
$IIMTW,+20.5,C*3F
$HCHDG,23.2,0.0,E,,*1A
$GPRMC,020023.8,A,4739.77374,N,12222.99286,W,001.55,032.7,130813,016.6,E,D*23
$PGRME,2.4,M,2.4,M,3.4,M*29
$HCHDG,23.5,0.0,E,,*1D
$YXXDR,A,6.0,D,PTCH,A,3.4,D,ROLL*5C
$PTAK,FFD1,3.4*52
$GPRMC,020024.0,A,4739.77382,N,12222.99287,W,001.49,042.9,130813,016.6,E,D*20
$HCHDG,23.7,0.0,E,,*1F
$PGRME,2.4,M,2.4,M,3.4,M*29
$HCHDG,24.0,0.0,E,,*1F
$IIMWV,307,R,09.1,N,A*1F
$HCHDG,24.2,0.0,E,,*1D
$GPRMC,020024.2,A,4739.77397,N,12222.99274,W,001.55,035.7,130813,016.6,E,D*29
$PGRME,2.4,M,2.4,M,3.4,M*29
$IIMWV,308,T,08.3,N,A*15
$HCHDG,24.4,0.0,E,,*1B
$IIRMB,A,0.00,L,,Shil,,,,,001.7,321,,V,A*7F
$HCHDG,24.6,0.0,E,,*19
$GPRMC,020024.4,A,4739.77394,N,12222.99280,W,001.51,039.9,130813,016.6,E,D*21
$GPRMB,A,0.00,L,Shil,Shil,4741.0830,N,12224.5670,W,1.7,321,0.29,V*09
$PGRME,2.4,M,2.4,M,3.4,M*29
$YXXDR,A,6.0,D,PTCH,A,3.6,D,ROLL*5E
$IIRMC,020000,A,4739.773,N,12222.992,W,01.5,038,120813,16,E,A*14
$IIVHW,,,,,01.5,N,,*1D
$HCHDG,25.1,0.0,E,,*1F
$IIVLW,02118,N,002.9,N*52
$HCHDG,25.4,0.0,E,,*1A
$GPRMC,020024.6,A,4739.77397,N,12222.99277,W,001.52,044.8,130813,016.6,E,D*20
$PGRME,2.4,M,2.4,M,3.4,M*29
$IIVWR,053,L,09.1,N,,,,*71
$IIDPT,006.3,-1.0,*45
$HCHDG,25.5,0.0,E,,*1B
$HCHDG,25.8,0.0,E,,*16
$GPRMC,020024.8,A,4739.77401,N,12222.99276,W,001.52,043.6,130813,016.6,E,D*2E
$PTAK,FFP1,HEEL,@*07
$PGRME,2.4,M,2.4,M,3.4,M*29
$HCHDG,25.9,0.0,E,,*17
$YXXDR,A,6.0,D,PTCH,A,3.8,D,ROLL*50
$GPRMC,020025.0,A,4739.77409,N,12222.99263,W,001.55,038.8,130813,016.6,E,D*2E
$HCHDG,26.4,0.0,E,,*19
$PGRME,2.4,M,2.4,M,3.4,M*29
$HCHDG,26.5,0.0,E,,*18
$HCHDG,26.6,0.0,E,,*1B
$GPRMC,020025.2,A,4739.77420,N,12222.99246,W,001.56,046.5,130813,016.6,E,D*27
$PGRME,2.4,M,2.4,M,3.4,M*29
$IIGLL,4739.774,N,12222.992,W,020000,A,A*4E
$IIMTW,+20.5,C*3F
$HCHDG,27.1,0.0,E,,*1D
$IIMWV,297,R,08.9,N,A*1E
$IIMWV,299,T,08.1,N,A*1E
$HCHDG,27.1,0.0,E,,*1D
$GPRMC,020025.4,A,4739.77418,N,12222.99241,W,001.56,044.5,130813,016.6,E,D*2F
$GPRMB,A,0.00,L,Shil,Shil,4741.0830,N,12224.5670,W,1.7,321,0.18,V*0B
$PGRME,2.4,M,2.4,M,3.4,M*29
$IIRMB,A,0.00,L,,Shil,,,,,001.7,321,,V,A*7F
$YXXDR,A,6.0,D,PTCH,A,4.5,D,ROLL*5A
$PTAK,FFD1,4.5*54
$HCHDG,27.4,0.0,E,,*18
$HCHDG,27.4,0.0,E,,*18
$IIRMC,020000,A,4739.774,N,12222.992,W,01.5,043,120813,16,E,A*1F
$GPRMC,020025.6,A,4739.77425,N,12222.99232,W,001.55,041.9,130813,016.6,E,D*2D
$PGRME,2.4,M,2.4,M,3.4,M*29
$IIVHW,,,,,01.5,N,,*1D
$HCHDG,27.5,0.0,E,,*19
$IIVLW,02118,N,002.9,N*52
$HCHDG,27.8,0.0,E,,*14
$GPRMC,020025.8,A,4739.77430,N,12222.99220,W,001.56,050.0,130813,016.6,E,D*2E
$PGRME,2.4,M,2.4,M,3.4,M*29
$HCHDG,27.9,0.0,E,,*15
$YXXDR,A,6.1,D,PTCH,A,4.5,D,ROLL*5B
$HCHDG,28.0,0.0,E,,*13
$GPRMC,020026.0,A,4739.77433,N,12222.99208,W,001.55,041.5,130813,016.6,E,D*2A
$PGRME,2.4,M,2.4,M,3.4,M*29
$HCHDG,28.5,0.0,E,,*16
$HCHDG,28.6,0.0,E,,*15
$IIVWR,069,L,08.8,N,,,,*70
$GPRMC,020026.2,A,4739.77442,N,12222.99196,W,001.55,038.1,130813,016.6,E,D*20
$PGRME,2.4,M,2.4,M,3.4,M*29
$IIDPT,006.1,-1.0,*47
$HCHDG,28.6,0.0,E,,*15
$IIGLL,4739.774,N,12222.992,W,020000,A,A*4E
$IIMTW,+20.5,C*3F
$HCHDG,28.7,0.0,E,,*14
$GPRMC,020026.4,A,4739.77449,N,12222.99190,W,001.55,046.5,130813,016.6,E,D*26
$IIMWV,291,R,08.8,N,A*19
$PGRME,2.4,M,2.4,M,3.4,M*29
$YXXDR,A,6.0,D,PTCH,A,4.4,D,ROLL*5B
$IIMWV,287,T,08.2,N,A*12
$HCHDG,28.8,0.0,E,,*1B
$IIRMB,A,0.00,L,,Shil,,,,,001.7,321,,V,A*7F
$HCHDG,29.0,0.0,E,,*12
$GPRMC,020026.6,A,4739.77458,N,12222.99181,W,001.55,046.8,130813,016.6,E,D*29
$GPRMB,A,0.00,L,Shil,Shil,4741.0830,N,12224.5670,W,1.7,321,0.11,V*02
$PGRME,2.4,M,2.4,M,3.4,M*29
$HCHDG,29.1,0.0,E,,*13
$IIRMC,020000,A,4739.774,N,12222.992,W,01.5,050,120813,16,E,A*1D
$HCHDG,29.1,0.0,E,,*13
$GPRMC,020026.8,A,4739.77464,N,12222.99174,W,001.58,048.6,130813,016.6,E,D*2F
$PGRME,2.4,M,2.4,M,3.4,M*29
$HCHDG,29.5,0.0,E,,*17
$YXXDR,A,6.1,D,PTCH,A,3.9,D,ROLL*50
$PTAK,FFD1,3.9*5F
$GPRMC,020027.0,A,4739.77469,N,12222.99163,W,001.62,051.9,130813,016.6,E,D*23
$HCHDG,29.5,0.0,E,,*17
$PGRME,2.4,M,2.4,M,3.4,M*29
$HCHDG,29.9,0.0,E,,*1B
$IIVHW,,,,,01.5,N,,*1D
$HCHDG,30.0,0.0,E,,*1A
$GPRMC,020027.2,A,4739.77475,N,12222.99151,W,001.59,047.3,130813,016.6,E,D*28
$PGRME,2.4,M,2.4,M,3.4,M*29
$IIVLW,02118,N,002.9,N*52
$HCHDG,29.9,0.0,E,,*1B
$IIVWR,072,L,08.4,N,,,,*76
$IIDPT,005.9,-1.0,*4C
$HCHDG,30.0,0.0,E,,*1A
$GPRMC,020027.4,A,4739.77480,N,12222.99143,W,001.63,051.3,130813,016.6,E,D*29
$PGRME,2.4,M,2.4,M,3.4,M*29
$IIGLL,4739.774,N,12222.992,W,020000,A,A*4E
$YXXDR,A,6.2,D,PTCH,A,3.9,D,ROLL*53
$IIMTW,+20.5,C*3F
$HCHDG,30.2,0.0,E,,*18
$IIMWV,288,R,08.4,N,A*1D
$IIMWV,281,T,08.2,N,A*14
$HCHDG,30.3,0.0,E,,*19
$GPRMC,020027.6,A,4739.77488,N,12222.99132,W,001.59,049.9,130813,016.6,E,D*2F
$GPRMB,A,0.00,L,Shil,Shil,4741.0830,N,12224.5670,W,1.7,321,0.03,V*01
$PGRME,2.4,M,2.4,M,3.4,M*29
$IIRMB,A,0.00,L,,Shil,,,,,001.7,321,,V,A*7F
$HCHDG,30.6,0.0,E,,*1C
$HCHDG,30.6,0.0,E,,*1C
$GPRMC,020027.8,A,4739.77493,N,12222.99118,W,001.76,051.4,130813,016.6,E,D*2A
$PGRME,2.4,M,2.4,M,3.4,M*29
$HCHDG,30.7,0.0,E,,*1D
$YXXDR,A,6.2,D,PTCH,A,3.9,D,ROLL*53
$PTAK,FFD1,3.9*5F
$HCHDG,30.7,0.0,E,,*1D
$GPRMC,020028.0,A,4739.77498,N,12222.99110,W,001.47,050.0,130813,016.6,E,D*29
$PGRME,2.4,M,2.4,M,3.4,M*29
$HCHDG,30.8,0.0,E,,*12
$HCHDG,30.9,0.0,E,,*13
$GPRMC,020028.2,A,4739.77503,N,12222.99109,W,001.74,051.6,130813,016.6,E,D*27
$PGRME,2.4,M,2.4,M,3.4,M*29
$IIRMC,020000,A,4739.774,N,12222.991,W,01.6,051,120813,16,E,A*1C
$HCHDG,31.0,0.0,E,,*1B
$IIVHW,,,,,01.5,N,,*1D
$IIVLW,02118,N,002.9,N*52
$HCHDG,31.1,0.0,E,,*1A
$GPRMC,020028.4,A,4739.77509,N,12222.99115,W,001.52,048.7,130813,016.6,E,D*2B
$PGRME,2.4,M,2.4,M,3.4,M*29
$IIVWR,068,L,07.9,N,,,,*7F
$YXXDR,A,6.1,D,PTCH,A,4.1,D,ROLL*5F
$IIDPT,005.9,-1.0,*4C
$HCHDG,31.3,0.0,E,,*18
$IIGLL,4739.774,N,12222.991,W,020000,A,A*4D
$HCHDG,31.4,0.0,E,,*1F
$IIMTW,+20.5,C*3F
$GPRMC,020028.6,A,4739.77512,N,12222.99114,W,001.59,050.7,130813,016.6,E,D*20
$GPRMB,A,0.00,L,Shil,Shil,4741.0830,N,12224.5670,W,1.7,321,0.01,V*03
$PGRME,2.4,M,2.4,M,3.4,M*29
$IIMWV,292,R,07.9,N,A*14
$HCHDG,31.3,0.0,E,,*18
$PTAK,FFP1,HEEL,@*07
$IIMWV,277,T,07.9,N,A*19
$HCHDG,31.4,0.0,E,,*1F
$GPRMC,020028.8,A,4739.77518,N,12222.99105,W,001.61,052.6,130813,016.6,E,D*2C
$PGRME,2.4,M,2.4,M,3.4,M*29
$HCHDG,31.5,0.0,E,,*1E
$YXXDR,A,6.2,D,PTCH,A,4.3,D,ROLL*5E
$PTAK,FFD1,4.3*52
$GPRMC,020029.0,A,4739.77529,N,12222.99096,W,001.58,049.0,130813,016.6,E,D*2A
$HCHDG,31.5,0.0,E,,*1E
$PGRME,2.4,M,2.4,M,3.4,M*29
$HCHDG,31.6,0.0,E,,*1D
$HCHDG,32.0,0.0,E,,*18
$GPRMC,020029.2,A,4739.77533,N,12222.99086,W,001.61,055.9,130813,016.6,E,D*2C
$IIRMB,A,0.00,L,,Shil,,,,,001.7,321,,V,A*7F
$PGRME,2.4,M,2.4,M,3.4,M*29
$HCHDG,32.0,0.0,E,,*18
$IIRMC,020000,A,4739.774,N,12222.991,W,01.4,050,120813,16,E,A*1F
$HCHDG,32.1,0.0,E,,*19
$IIVHW,,,,,01.5,N,,*1D
$GPRMC,020029.4,A,4739.77535,N,12222.99072,W,001.64,050.6,130813,016.6,E,D*28
$PGRME,2.4,M,2.4,M,3.4,M*29
$IIVLW,02118,N,002.9,N*52
$YXXDR,A,6.0,D,PTCH,A,4.3,D,ROLL*5C
$IIVWR,065,L,08.0,N,,,,*74
$HCHDG,32.2,0.0,E,,*1A
$IIDPT,005.9,-1.0,*4C
$HCHDG,32.3,0.0,E,,*1B
$GPRMC,020029.6,A,4739.77544,N,12222.99064,W,001.80,060.1,130813,016.6,E,D*25
$PGRME,2.4,M,2.4,M,3.4,M*29
$IIGLL,4739.774,N,12222.991,W,020000,A,A*4D
$HCHDG,32.2,0.0,E,,*1A
$IIMTW,+20.5,C*3F
$HCHDG,32.3,0.0,E,,*1B
$GPRMC,020029.8,A,4739.77551,N,12222.99061,W,001.57,054.8,130813,016.6,E,D*2E
$GPRMB,A,0.00,L,Shil,Shil,4741.0830,N,12224.5670,W,1.7,321,-0.11,V*2F
$PGRME,2.4,M,2.4,M,3.4,M*29
$HCHDG,32.4,0.0,E,,*1C
$YXXDR,A,6.0,D,PTCH,A,4.4,D,ROLL*5B
$PTAK,FFD1,4.4*55
$GPRMC,020030.0,A,4739.77560,N,12222.99040,W,001.59,050.0,130813,016.6,E,D*2D
$HCHDG,32.4,0.0,E,,*1C
$PGRME,2.4,M,2.4,M,3.4,M*29
$HCHDG,32.5,0.0,E,,*1D
$IIMWV,297,R,07.7,N,A*1F
$HCHDG,32.7,0.0,E,,*1F
$GPRMC,020030.2,A,4739.77565,N,12222.99029,W,001.64,054.4,130813,016.6,E,D*2B
$PGRME,2.4,M,2.4,M,3.4,M*29
$IIMWV,283,T,07.3,N,A*18
$HCHDG,32.7,0.0,E,,*1F
$IIRMB,A,0.00,L,,Shil,,,,,001.7,321,,V,A*7F
$HCHDG,32.8,0.0,E,,*10
$GPRMC,020030.4,A,4739.77575,N,12222.99014,W,001.85,059.6,130813,016.6,E,D*22
$PGRME,2.4,M,2.4,M,3.4,M*29
$YXXDR,A,6.2,D,PTCH,A,4.3,D,ROLL*5E
$IIRMC,020000,A,4739.775,N,12222.990,W,01.5,049,120813,16,E,A*16
$HCHDG,32.9,0.0,E,,*11
$IIVHW,,,,,01.6,N,,*1E
$IIVLW,02118,N,002.9,N*52
$HCHDG,33.0,0.0,E,,*19
$GPRMC,020030.6,A,4739.77574,N,12222.99009,W,001.46,047.4,130813,016.6,E,D*2F
$PGRME,2.4,M,2.4,M,3.4,M*29
$IIVWR,063,L,07.7,N,,,,*7A
$IIDPT,005.9,-1.0,*4C
$HCHDG,33.1,0.0,E,,*18
$HCHDG,33.1,0.0,E,,*18
$GPRMC,020030.8,A,4739.77574,N,12222.98991,W,001.72,055.0,130813,016.6,E,D*28
$PGRME,2.4,M,2.4,M,3.4,M*29
$HCHDG,33.1,0.0,E,,*18
$YXXDR,A,6.0,D,PTCH,A,4.3,D,ROLL*5C
$HCHDG,33.4,0.0,E,,*1D
$GPRMC,020031.0,A,4739.77575,N,12222.98982,W,001.65,053.9,130813,016.6,E,D*2B
$GPRMB,A,0.00,L,Shil,Shil,4741.0830,N,12224.5670,W,1.7,321,-0.09,V*26
$PGRME,2.4,M,2.4,M,3.4,M*29
$HCHDG,33.4,0.0,E,,*1D
$HCHDG,33.5,0.0,E,,*1C
$GPRMC,020031.2,A,4739.77581,N,12222.98957,W,001.67,055.0,130813,016.6,E,D*27
$IIGLL,4739.775,N,12222.990,W,020000,A,A*4D
$PGRME,2.4,M,2.4,M,3.4,M*29
$IIMTW,+20.5,C*3F
$HCHDG,33.5,0.0,E,,*1C
$IIMWV,295,R,07.5,N,A*1F
$IIMWV,285,T,07.0,N,A*1D
$HCHDG,33.6,0.0,E,,*1F
$GPRMC,020031.4,A,4739.77596,N,12222.98934,W,001.65,058.4,130813,016.6,E,D*29
$PGRME,2.4,M,2.4,M,3.4,M*29
$IIRMB,A,0.00,L,,Shil,,,,,001.7,321,,V,A*7F
$YXXDR,A,6.0,D,PTCH,A,4.2,D,ROLL*5D
$PTAK,FFD1,4.2*53
$HCHDG,33.4,0.0,E,,*1D
$HCHDG,33.4,0.0,E,,*1D
$IIRMC,020000,A,4739.775,N,12222.990,W,01.5,050,120813,16,E,A*1E
$GPRMC,020031.6,A,4739.77605,N,12222.98932,W,001.67,059.4,130813,016.6,E,D*27
$PGRME,2.4,M,2.4,M,3.4,M*29
$IIVHW,,,,,01.6,N,,*1E
$HCHDG,33.4,0.0,E,,*1D
$IIVLW,02118,N,002.9,N*52
$HCHDG,33.5,0.0,E,,*1C
$GPRMC,020031.8,A,4739.77622,N,12222.98948,W,001.68,055.6,130813,016.6,E,D*20
$PGRME,2.4,M,2.4,M,3.4,M*29
$HCHDG,33.5,0.0,E,,*1C
$YXXDR,A,6.0,D,PTCH,A,4.1,D,ROLL*5E
$HCHDG,33.6,0.0,E,,*1F
$GPRMC,020032.0,A,4739.77624,N,12222.98942,W,001.70,059.7,130813,016.6,E,D*23
$PGRME,2.4,M,2.4,M,3.4,M*29
$HCHDG,33.6,0.0,E,,*1F
$HCHDG,33.5,0.0,E,,*1C
$IIVWR,065,L,07.5,N,,,,*7E
$GPRMC,020032.2,A,4739.77632,N,12222.98932,W,001.92,052.5,130813,016.6,E,D*24
$GPRMB,A,0.00,L,Shil,Shil,4741.0830,N,12224.5670,W,1.7,321,-0.05,V*2A
$PGRME,2.4,M,2.4,M,3.4,M*29
$IIDPT,005.9,-1.0,*4C
$HCHDG,33.8,0.0,E,,*11
$IIGLL,4739.775,N,12222.989,W,020000,A,A*45
$IIMTW,+20.5,C*3F
$HCHDG,33.7,0.0,E,,*1E
$GPRMC,020032.4,A,4739.77649,N,12222.98916,W,001.70,057.4,130813,016.6,E,D*20
$IIMWV,295,R,07.5,N,A*1F
$PGRME,2.4,M,2.4,M,3.4,M*29
$YXXDR,A,6.0,D,PTCH,A,4.4,D,ROLL*5B
$PTAK,FFD1,4.4*55
$IIMWV,282,T,06.9,N,A*12
$HCHDG,33.8,0.0,E,,*11
$IIRMB,A,0.00,L,,Shil,,,,,001.7,321,,V,A*7F
$HCHDG,33.8,0.0,E,,*11
$GPRMC,020032.6,A,4739.77654,N,12222.98907,W,001.75,063.7,130813,016.6,E,D*2F
$PGRME,2.4,M,2.4,M,3.4,M*29
$HCHDG,33.7,0.0,E,,*1E
$IIRMC,020000,A,4739.775,N,12222.989,W,01.6,053,120813,16,E,A*16
$HCHDG,33.8,0.0,E,,*11
$GPRMC,020032.8,A,4739.77653,N,12222.98899,W,001.69,050.5,130813,016.6,E,D*2F
$PGRME,2.4,M,2.4,M,3.4,M*29
$HCHDG,33.8,0.0,E,,*11
$PTAK,FFP1,HEEL,@*07
$YXXDR,A,6.0,D,PTCH,A,4.3,D,ROLL*5C
$GPRMC,020033.0,A,4739.77656,N,12222.98883,W,001.73,053.7,130813,016.6,E,D*22
$HCHDG,33.7,0.0,E,,*1E
$PGRME,2.4,M,2.4,M,3.4,M*29
$HCHDG,33.7,0.0,E,,*1E
$IIVHW,,,,,01.6,N,,*1E
$HCHDG,33.9,0.0,E,,*10
$GPRMC,020033.2,A,4739.77643,N,12222.98834,W,001.76,051.3,130813,016.6,E,D*2B
$PGRME,2.4,M,2.4,M,3.4,M*29
$IIVLW,02118,N,002.9,N*52
$HCHDG,33.8,0.0,E,,*11
$IIVWR,061,L,07.1,N,,,,*7E
$IIDPT,005.9,-1.0,*4C
$HCHDG,33.9,0.0,E,,*10
$GPRMC,020033.4,A,4739.77651,N,12222.98817,W,001.75,052.7,130813,016.6,E,D*2B
$GPRMB,A,0.00,L,Shil,Shil,4741.0830,N,12224.5670,W,1.7,321,-0.06,V*29
$PGRME,2.4,M,2.4,M,3.4,M*29
$IIGLL,4739.776,N,12222.989,W,020000,A,A*46
$YXXDR,A,6.0,D,PTCH,A,4.2,D,ROLL*5D
$IIMTW,+20.5,C*3F
$HCHDG,34.0,0.0,E,,*1E
$IIMWV,299,R,07.1,N,A*17
$IIMWV,282,T,06.9,N,A*12
$HCHDG,33.7,0.0,E,,*1E
$GPRMC,020033.6,A,4739.77659,N,12222.98800,W,001.77,055.7,130813,016.6,E,D*22
$PGRME,2.4,M,2.4,M,3.4,M*29
$IIRMB,A,0.00,L,,Shil,,,,,001.7,321,,V,A*7F
$HCHDG,33.7,0.0,E,,*1E
$HCHDG,33.8,0.0,E,,*11
$GPRMC,020033.8,A,4739.77662,N,12222.98783,W,001.93,055.0,130813,016.6,E,D*2D
$PGRME,2.4,M,2.4,M,3.4,M*29
$HCHDG,33.9,0.0,E,,*10
$YXXDR,A,6.2,D,PTCH,A,4.3,D,ROLL*5E
$PTAK,FFD1,4.3*52
$GPRMC,020034.0,A,4739.77671,N,12222.98775,W,001.88,053.3,130813,016.6,E,D*26
$HCHDG,34.0,0.0,E,,*1E
$PGRME,2.4,M,2.4,M,3.4,M*29
$HCHDG,34.0,0.0,E,,*1E
$HCHDG,34.0,0.0,E,,*1E
$GPRMC,020034.2,A,4739.77671,N,12222.98758,W,001.85,055.6,130813,016.6,E,D*25
$PGRME,2.4,M,2.4,M,3.4,M*29
$IIRMC,020000,A,4739.776,N,12222.988,W,01.7,053,120813,16,E,A*15
$HCHDG,34.1,0.0,E,,*1F
$IIVHW,,,,,01.6,N,,*1E
$IIVLW,02118,N,002.9,N*52
$HCHDG,34.1,0.0,E,,*1F
$GPRMC,020034.4,A,4739.77673,N,12222.98746,W,001.81,054.2,130813,016.6,E,D*2F
$PGRME,2.4,M,2.4,M,3.4,M*29
$IIVWR,060,L,06.9,N,,,,*76
$YXXDR,A,5.9,D,PTCH,A,4.3,D,ROLL*56
$IIDPT,005.9,-1.0,*4C
$HCHDG,34.0,0.0,E,,*1E
$IIGLL,4739.776,N,12222.988,W,020000,A,A*47
$HCHDG,34.0,0.0,E,,*1E
$IIMTW,+20.5,C*3F
$GPRMC,020034.6,A,4739.77677,N,12222.98736,W,001.83,062.0,130813,016.6,E,D*2B
$GPRMB,A,0.00,L,Shil,Shil,4741.0830,N,12224.5670,W,1.7,321,-0.35,V*29
$PGRME,2.4,M,2.4,M,3.4,M*29
$IIMWV,300,R,06.9,N,A*1F
$HCHDG,34.1,0.0,E,,*1F
$IIMWV,285,T,06.3,N,A*1F
$HCHDG,34.1,0.0,E,,*1F
$GPRMC,020034.8,A,4739.77678,N,12222.98713,W,001.82,056.6,130813,016.6,E,D*2D
$PGRME,2.4,M,2.4,M,3.4,M*29
$HCHDG,34.2,0.0,E,,*1C
$YXXDR,A,6.3,D,PTCH,A,4.1,D,ROLL*5D
$GPRMC,020035.0,A,4739.77677,N,12222.98696,W,001.82,053.8,130813,016.6,E,D*2C
$HCHDG,34.1,0.0,E,,*1F
$PGRME,2.4,M,2.4,M,3.4,M*29
$HCHDG,34.2,0.0,E,,*1C
$HCHDG,34.3,0.0,E,,*1D
$GPRMC,020035.2,A,4739.77683,N,12222.98685,W,001.81,056.6,130813,016.6,E,D*2F
$PGRME,2.4,M,2.4,M,3.4,M*29
$IIRMB,A,0.00,L,,Shil,,,,,001.7,321,,V,A*7F
$HCHDG,34.2,0.0,E,,*1C
$IIRMC,020000,A,4739.776,N,12222.987,W,01.8,053,120813,16,E,A*15
$HCHDG,34.3,0.0,E,,*1D
$IIVHW,,,,,01.6,N,,*1E
$GPRMC,020035.4,A,4739.77687,N,12222.98680,W,001.84,053.8,130813,016.6,E,D*26
$PGRME,2.4,M,2.4,M,3.4,M*29
$IIVLW,02118,N,002.9,N*52
$YXXDR,A,6.0,D,PTCH,A,4.3,D,ROLL*5C
$PTAK,FFD1,4.3*52
$HCHDG,34.3,0.0,E,,*1D
$IIVWR,059,L,06.8,N,,,,*7D
$IIDPT,005.7,-1.0,*42
$HCHDG,34.3,0.0,E,,*1D
$GPRMC,020035.6,A,4739.77692,N,12222.98673,W,001.81,060.3,130813,016.6,E,D*22
$PGRME,2.4,M,2.4,M,3.4,M*29
$IIGLL,4739.776,N,12222.987,W,020000,A,A*48
$HCHDG,34.4,0.0,E,,*1A
$IIMTW,+20.5,C*3F
$HCHDG,34.4,0.0,E,,*1A
$GPRMC,020035.8,A,4739.77693,N,12222.98654,W,001.82,054.3,130813,016.6,E,D*2C
$GPRMB,A,0.00,L,Shil,Shil,4741.0830,N,12224.5670,W,1.7,321,-0.11,V*2F
$PGRME,2.4,M,2.4,M,3.4,M*29
$HCHDG,34.4,0.0,E,,*1A
$YXXDR,A,6.2,D,PTCH,A,4.3,D,ROLL*5E
$GPRMC,020036.0,A,4739.77689,N,12222.98623,W,001.80,058.4,130813,016.6,E,D*25
$HCHDG,34.5,0.0,E,,*1B
$PGRME,2.4,M,2.4,M,3.4,M*29
$HCHDG,34.5,0.0,E,,*1B
$IIMWV,304,R,07.3,N,A*10
$HCHDG,34.5,0.0,E,,*1B
$GPRMC,020036.2,A,4739.77689,N,12222.98594,W,001.83,053.3,130813,016.6,E,D*27
$PGRME,2.4,M,2.4,M,3.4,M*29
$IIMWV,287,T,06.0,N,A*1E
$HCHDG,34.5,0.0,E,,*1B
$IIRMB,A,0.00,L,,Shil,,,,,001.7,321,,V,A*7F
$HCHDG,34.5,0.0,E,,*1B
$GPRMC,020036.4,A,4739.77693,N,12222.98564,W,001.85,059.8,130813,016.6,E,D*22
$PGRME,2.4,M,2.4,M,3.4,M*29
$YXXDR,A,6.2,D,PTCH,A,4.3,D,ROLL*5E
$PTAK,FFD1,4.3*52
$IIRMC,020000,A,4739.776,N,12222.986,W,01.8,053,120813,16,E,A*14
$HCHDG,34.5,0.0,E,,*1B
$IIVHW,,,,,01.6,N,,*1E
$IIVLW,02118,N,002.9,N*52
$HCHDG,34.6,0.0,E,,*18
$GPRMC,020036.6,A,4739.77705,N,12222.98562,W,001.86,052.0,130813,016.6,E,D*28
$PGRME,2.4,M,2.4,M,3.4,M*29
$IIVWR,056,L,07.3,N,,,,*78
$IIDPT,005.7,-1.0,*42
$HCHDG,34.6,0.0,E,,*18
$HCHDG,34.7,0.0,E,,*19
$GPRMC,020036.8,A,4739.77704,N,12222.98547,W,001.84,053.8,130813,016.6,E,D*2B
$GPRMB,A,0.00,L,Shil,Shil,4741.0830,N,12224.5670,W,1.7,321,-0.10,V*2E
$PGRME,2.4,M,2.4,M,3.4,M*29
$HCHDG,34.7,0.0,E,,*19
$PTAK,FFP1,HEEL,@*07
$YXXDR,A,5.9,D,PTCH,A,4.6,D,ROLL*53
$GPRMC,020037.0,A,4739.77704,N,12222.98526,W,001.84,057.9,130813,016.6,E,D*20
$HCHDG,34.7,0.0,E,,*19
$PGRME,2.4,M,2.4,M,3.4,M*29
$HCHDG,34.8,0.0,E,,*16
$HCHDG,34.7,0.0,E,,*19
$GPRMC,020037.2,A,4739.77704,N,12222.98505,W,001.83,053.9,130813,016.6,E,D*20
$PGRME,2.4,M,2.4,M,3.4,M*29
$IIGLL,4739.776,N,12222.986,W,020000,A,A*49
$IIMTW,+20.5,C*3F
$HCHDG,34.7,0.0,E,,*19
$IIMWV,312,R,08.6,N,A*1D
$IIMWV,291,T,06.4,N,A*1D
$HCHDG,34.9,0.0,E,,*17
$GPRMC,020037.4,A,4739.77697,N,12222.98487,W,001.65,056.3,130813,016.6,E,D*21
$PGRME,2.4,M,2.4,M,3.4,M*29
$IIRMB,A,0.00,L,,Shil,,,,,001.7,321,,V,A*7F
$YXXDR,A,6.2,D,PTCH,A,4.6,D,ROLL*5B
$PTAK,FFD1,4.6*57
$HCHDG,34.9,0.0,E,,*17
$HCHDG,35.0,0.0,E,,*1F
$IIRMC,020000,A,4739.776,N,12222.986,W,01.8,058,120813,16,E,A*1F
$GPRMC,020037.6,A,4739.77705,N,12222.98470,W,001.66,054.0,130813,016.6,E,D*23
$PGRME,2.4,M,2.4,M,3.4,M*29
$IIVHW,,,,,01.7,N,,*1F
$HCHDG,34.9,0.0,E,,*17
$IIVLW,02118,N,002.9,N*52
$HCHDG,34.9,0.0,E,,*17
$GPRMC,020037.8,A,4739.77724,N,12222.98477,W,001.86,060.3,130813,016.6,E,D*23
$GPRMB,A,0.00,L,Shil,Shil,4741.0830,N,12224.5670,W,1.7,321,-0.31,V*2D
$PGRME,2.4,M,2.4,M,3.4,M*29
$HCHDG,35.0,0.0,E,,*1F
$YXXDR,A,5.7,D,PTCH,A,4.8,D,ROLL*53
$GPRMC,020038.0,A,4739.77738,N,12222.98484,W,001.84,057.6,130813,016.6,E,D*26
$HCHDG,35.3,0.0,E,,*1C
$PGRME,2.4,M,2.4,M,3.4,M*29
$HCHDG,35.2,0.0,E,,*1D
$IIVWR,041,L,10.2,N,,,,*79
$HCHDG,35.2,0.0,E,,*1D
$GPRMC,020038.2,A,4739.77738,N,12222.98457,W,001.84,053.0,130813,016.6,E,D*28
$PGRME,2.4,M,2.4,M,3.4,M*29
$IIDPT,005.7,-1.0,*42
$HCHDG,35.3,0.0,E,,*1C
$IIGLL,4739.777,N,12222.985,W,020000,A,A*4B
$IIMTW,+20.5,C*3F
$HCHDG,35.1,0.0,E,,*1E
$GPRMC,020038.4,A,4739.77743,N,12222.98450,W,001.77,050.7,130813,016.6,E,D*2D
$IIMWV,319,R,10.2,N,A*1B
$PGRME,2.4,M,2.4,M,3.4,M*29
$YXXDR,A,6.1,D,PTCH,A,5.1,D,ROLL*5E
$IIMWV,303,T,07.4,N,A*16
$HCHDG,35.1,0.0,E,,*1E
$IIRMB,A,0.00,L,,Shil,,,,,001.7,321,,V,A*7F
$HCHDG,35.1,0.0,E,,*1E
$GPRMC,020038.6,A,4739.77733,N,12222.98413,W,001.77,051.9,130813,016.6,E,D*20
$PGRME,2.4,M,2.4,M,3.4,M*29
$HCHDG,35.4,0.0,E,,*1B
$IIRMC,020000,A,4739.777,N,12222.985,W,01.8,057,120813,16,E,A*12
$HCHDG,35.4,0.0,E,,*1B
$GPRMC,020038.8,A,4739.77727,N,12222.98380,W,001.74,051.5,130813,016.6,E,D*29
$PGRME,2.4,M,2.4,M,3.4,M*29
$HCHDG,35.3,0.0,E,,*1C
$YXXDR,A,6.2,D,PTCH,A,5.0,D,ROLL*5C
$PTAK,FFD1,5.0*50
$HCHDG,35.3,0.0,E,,*1C
$GPRMC,020039.0,A,4739.77730,N,12222.98372,W,001.74,044.4,130813,016.6,E,D*2E
$GPRMB,A,0.00,L,Shil,Shil,4741.0830,N,12224.5670,W,1.7,321,0.19,V*0A
$PGRME,2.4,M,2.4,M,3.4,M*29
$HCHDG,35.3,0.0,E,,*1C
$IIVHW,,,,,01.7,N,,*1F
$HCHDG,35.5,0.0,E,,*1A
$GPRMC,020039.2,A,4739.77741,N,12222.98371,W,001.74,044.1,130813,016.6,E,D*2C
$PGRME,2.4,M,2.4,M,3.4,M*29
$IIVLW,02118,N,002.9,N*52
$HCHDG,35.5,0.0,E,,*1A
$IIVWR,037,L,11.3,N,,,,*78
$IIDPT,005.7,-1.0,*42
$HCHDG,35.6,0.0,E,,*19
$GPRMC,020039.4,A,4739.77752,N,12222.98357,W,001.74,060.0,130813,016.6,E,D*2B
$PGRME,2.4,M,2.4,M,3.4,M*29
$IIGLL,4739.777,N,12222.984,W,020000,A,A*4A
$YXXDR,A,5.8,D,PTCH,A,4.5,D,ROLL*51
$IIMTW,+20.5,C*3F
$HCHDG,35.5,0.0,E,,*1A
$IIMWV,323,R,11.3,N,A*12
$IIMWV,311,T,08.9,N,A*17
$HCHDG,35.5,0.0,E,,*1A
$GPRMC,020039.6,A,4739.77763,N,12222.98343,W,001.73,057.2,130813,016.6,E,D*2F
$PGRME,2.4,M,2.4,M,3.4,M*29
$IIRMB,A,0.00,L,,Shil,,,,,001.7,321,,V,A*7F
$HCHDG,35.9,0.0,E,,*16
$HCHDG,35.9,0.0,E,,*16
$GPRMC,020039.8,A,4739.77774,N,12222.98329,W,001.75,056.8,130813,016.6,E,D*26
$PGRME,2.4,M,2.4,M,3.4,M*29
$HCHDG,35.9,0.0,E,,*16
$YXXDR,A,5.6,D,PTCH,A,4.4,D,ROLL*5E
$PTAK,FFD1,4.4*55
$GPRMC,020040.0,A,4739.77778,N,12222.98320,W,001.75,056.5,130813,016.6,E,D*28
$HCHDG,35.9,0.0,E,,*16
$PGRME,2.4,M,2.4,M,3.4,M*29
$HCHDG,35.9,0.0,E,,*16
$HCHDG,36.0,0.0,E,,*1C
$GPRMC,020040.2,A,4739.77780,N,12222.98315,W,001.77,060.2,130813,016.6,E,D*2B
$GPRMB,A,0.00,L,Shil,Shil,4741.0830,N,12224.5670,W,1.7,321,-0.29,V*24
$PGRME,2.4,M,2.4,M,3.4,M*29
$IIRMC,020000,A,4739.777,N,12222.983,W,01.7,044,120813,16,E,A*19
$HCHDG,36.0,0.0,E,,*1C
$IIVHW,,,,,01.7,N,,*1F
$IIVLW,02118,N,002.9,N*52
$HCHDG,35.9,0.0,E,,*16
$GPRMC,020040.4,A,4739.77786,N,12222.98302,W,001.75,058.9,130813,016.6,E,D*2F
$PGRME,2.4,M,2.4,M,3.4,M*29
$IIVWR,036,L,12.1,N,,,,*78
$YXXDR,A,5.9,D,PTCH,A,4.3,D,ROLL*56
$IIDPT,005.7,-1.0,*42
$HCHDG,35.7,0.0,E,,*18
$IIGLL,4739.777,N,12222.983,W,020000,A,A*4D
$HCHDG,35.7,0.0,E,,*18
$IIMTW,+20.5,C*3F
$GPRMC,020040.6,A,4739.77792,N,12222.98287,W,001.76,055.4,130813,016.6,E,D*27
$PGRME,2.4,M,2.4,M,3.4,M*29
$IIMWV,324,R,12.1,N,A*14
$HCHDG,35.7,0.0,E,,*18
$IIMWV,317,T,09.9,N,A*10
$HCHDG,35.8,0.0,E,,*17
$GPRMC,020040.8,A,4739.77802,N,12222.98270,W,001.75,055.0,130813,016.6,E,D*20
$PGRME,2.4,M,2.4,M,3.4,M*29
$HCHDG,35.9,0.0,E,,*16
$YXXDR,A,6.0,D,PTCH,A,4.5,D,ROLL*5A
$PTAK,FFD1,4.5*54
$GPRMC,020041.0,A,4739.77807,N,12222.98272,W,001.74,050.8,130813,016.6,E,D*22
$PGRME,2.4,M,2.4,M,3.4,M*29
$HCHDG,35.9,0.0,E,,*16
$PTAK,FFP1,HEEL,@*07
$HCHDG,35.9,0.0,E,,*16
$HCHDG,36.0,0.0,E,,*1C
$GPRMC,020041.2,A,4739.77817,N,12222.98269,W,001.74,059.1,130813,016.6,E,D*2B
$GPRMB,A,0.00,L,Shil,Shil,4741.0830,N,12224.5670,W,1.7,321,-0.25,V*28
$PGRME,2.4,M,2.4,M,3.4,M*29
$IIRMB,A,0.00,L,,Shil,,,,,001.7,321,,V,A*7F
$HCHDG,36.2,0.0,E,,*1E
$IIRMC,020000,A,4739.777,N,12222.983,W,01.7,060,120813,16,E,A*1F
$HCHDG,36.2,0.0,E,,*1E
$IIVHW,,,,,01.7,N,,*1F
$GPRMC,020041.4,A,4739.77824,N,12222.98255,W,001.79,060.9,130813,016.6,E,D*2D
$PGRME,2.4,M,2.4,M,3.4,M*29
$IIVLW,02118,N,002.9,N*52
$YXXDR,A,5.7,D,PTCH,A,4.6,D,ROLL*5D
$IIVWR,036,L,12.7,N,,,,*7E
$HCHDG,36.1,0.0,E,,*1D
$IIDPT,005.5,-1.0,*40
$HCHDG,36.3,0.0,E,,*1F
$GPRMC,020041.6,A,4739.77826,N,12222.98244,W,001.76,057.7,130813,016.6,E,D*28
$PGRME,2.4,M,2.4,M,3.4,M*29
$IIGLL,4739.777,N,12222.983,W,020000,A,A*4D
$HCHDG,36.2,0.0,E,,*1E
$IIMTW,+20.5,C*3F
$HCHDG,36.3,0.0,E,,*1F
$GPRMC,020041.8,A,4739.77827,N,12222.98224,W,001.76,061.7,130813,016.6,E,D*24
$PGRME,2.4,M,2.4,M,3.4,M*29
$HCHDG,36.1,0.0,E,,*1D
$YXXDR,A,6.0,D,PTCH,A,4.9,D,ROLL*56
$GPRMC,020042.0,A,4739.77831,N,12222.98195,W,001.76,059.6,130813,016.6,E,D*2B
$PGRME,2.4,M,2.4,M,3.4,M*29
$HCHDG,36.1,0.0,E,,*1D
$HCHDG,36.2,0.0,E,,*1E
$IIMWV,326,R,13.3,N,A*15
$HCHDG,36.3,0.0,E,,*1F
$GPRMC,020042.2,A,4739.77833,N,12222.98182,W,001.77,070.2,130813,016.6,E,D*23
$PGRME,2.4,M,2.4,M,3.4,M*29
$IIMWV,319,T,11.1,N,A*1F
$HCHDG,36.6,0.0,E,,*1A
$IIRMB,A,0.00,L,,Shil,,,,,001.7,321,,V,A*7F
$HCHDG,36.5,0.0,E,,*19
$GPRMC,020042.4,A,4739.77840,N,12222.98173,W,001.75,059.5,130813,016.6,E,D*21
$GPRMB,A,0.00,L,Shil,Shil,4741.0830,N,12224.5670,W,1.7,321,-0.27,V*2A
$PGRME,2.4,M,2.4,M,3.4,M*29
$IIRMC,020000,A,4739.778,N,12222.982,W,01.7,060,120813,16,E,A*11
$YXXDR,A,5.6,D,PTCH,A,5.1,D,ROLL*5A
$PTAK,FFD1,5.1*51
$IIVHW,,,,,01.7,N,,*1F
$HCHDG,36.4,0.0,E,,*18
$IIVLW,02118,N,002.9,N*52
$HCHDG,36.4,0.0,E,,*18
$GPRMC,020042.6,A,4739.77846,N,12222.98163,W,001.76,066.9,130813,016.6,E,D*27
$PGRME,2.4,M,2.4,M,3.4,M*29
$IIVWR,034,L,13.3,N,,,,*79
$IIDPT,005.5,-1.0,*40
$HCHDG,36.0,0.0,E,,*1C
$HCHDG,36.2,0.0,E,,*1E
$GPRMC,020042.8,A,4739.77847,N,12222.98158,W,001.73,057.8,130813,016.6,E,D*26
$PGRME,2.4,M,2.4,M,3.4,M*29
$HCHDG,36.1,0.0,E,,*1D
$YXXDR,A,6.1,D,PTCH,A,5.1,D,ROLL*5E
$GPRMC,020043.0,A,4739.77849,N,12222.98148,W,001.71,063.0,130813,016.6,E,D*2D
$PGRME,2.4,M,2.4,M,3.4,M*29
$HCHDG,36.0,0.0,E,,*1C
$HCHDG,36.0,0.0,E,,*1C
$HCHDG,35.8,0.0,E,,*17
$GPRMC,020043.2,A,4739.77847,N,12222.98122,W,001.69,068.3,130813,016.6,E,D*2C
$PGRME,2.4,M,2.4,M,3.4,M*29
$IIGLL,4739.778,N,12222.981,W,020000,A,A*40
$IIMTW,+20.5,C*3F
$HCHDG,35.8,0.0,E,,*17
$IIMWV,321,R,13.6,N,A*17
$IIMWV,321,T,11.8,N,A*1D
$HCHDG,35.7,0.0,E,,*18
$GPRMC,020043.4,A,4739.77850,N,12222.98107,W,001.73,064.1,130813,016.6,E,D*2E
$PGRME,2.4,M,2.4,M,3.4,M*29
$IIRMB,A,0.00,L,,Shil,,,,,001.7,321,,V,A*7F
$YXXDR,A,6.2,D,PTCH,A,5.0,D,ROLL*5C
$HCHDG,35.7,0.0,E,,*18
$HCHDG,35.7,0.0,E,,*18
$IIRMC,020000,A,4739.778,N,12222.981,W,01.7,066,120813,16,E,A*14
$GPRMC,020043.6,A,4739.77859,N,12222.98087,W,001.73,062.3,130813,016.6,E,D*28
$GPRMB,A,0.00,L,Shil,Shil,4741.0830,N,12224.5670,W,1.7,321,-0.35,V*29
$PGRME,2.4,M,2.4,M,3.4,M*29
$IIVHW,,,,,01.7,N,,*1F
$HCHDG,35.6,0.0,E,,*19
$IIVLW,02118,N,002.9,N*52
$HCHDG,35.3,0.0,E,,*1C
$GPRMC,020043.8,A,4739.77866,N,12222.98076,W,001.74,060.0,130813,016.6,E,D*22
$PGRME,2.4,M,2.4,M,3.4,M*29
$HCHDG,35.3,0.0,E,,*1C
$YXXDR,A,6.0,D,PTCH,A,4.9,D,ROLL*56
$PTAK,FFD1,4.9*58
$GPRMC,020044.0,A,4739.77877,N,12222.98075,W,001.79,058.4,130813,016.6,E,D*2C
$PGRME,2.4,M,2.4,M,3.4,M*29
$HCHDG,35.2,0.0,E,,*1D
$PGRMT,GPS 18x-5Hz software ver. 3.20,,,,,,,,*30
$HCHDG,35.4,0.0,E,,*1B
$IIVWR,044,L,14.0,N,,,,*7A
$HCHDG,35.3,0.0,E,,*1C
$GPRMC,020044.2,A,4739.77881,N,12222.98061,W,001.76,063.7,130813,016.6,E,D*26
$PGRME,2.4,M,2.4,M,3.4,M*29
$IIDPT,005.5,-1.0,*40
$HCHDG,35.4,0.0,E,,*1B
$IIGLL,4739.778,N,12222.980,W,020000,A,A*41
$IIMTW,+20.5,C*3F
$HCHDG,35.3,0.0,E,,*1C
$GPRMC,020044.4,A,4739.77888,N,12222.98055,W,001.75,061.6,130813,016.6,E,D*2E
$PGRME,2.4,M,2.4,M,3.4,M*29
$IIMWV,316,R,14.0,N,A*12
$YXXDR,A,6.1,D,PTCH,A,5.0,D,ROLL*5F
$IIMWV,316,T,12.2,N,A*10
$HCHDG,35.2,0.0,E,,*1D
$IIRMB,A,0.00,L,,Shil,,,,,001.7,321,,V,A*7F
$HCHDG,35.5,0.0,E,,*1A
$GPRMC,020044.6,A,4739.77893,N,12222.98051,W,001.75,055.3,130813,016.6,E,D*20
$PGRME,2.4,M,2.4,M,3.4,M*29
$HCHDG,35.6,0.0,E,,*19
$IIRMC,020000,A,4739.778,N,12222.980,W,01.7,062,120813,16,E,A*11
$HCHDG,35.5,0.0,E,,*1A
$GPRMC,020044.8,A,4739.77893,N,12222.98043,W,001.72,057.5,130813,016.6,E,D*2E
$GPRMB,A,0.00,L,Shil,Shil,4741.0830,N,12224.5670,W,1.7,321,-0.20,V*2D
$PGRME,2.4,M,2.4,M,3.4,M*29
$HCHDG,35.6,0.0,E,,*19
$YXXDR,A,6.0,D,PTCH,A,5.4,D,ROLL*5A
$PTAK,FFD1,5.4*54
$GPRMC,020045.0,A,4739.77898,N,12222.98033,W,001.74,065.6,130813,016.6,E,D*2F
$HCHDG,35.7,0.0,E,,*18
$PGRME,2.4,M,2.4,M,3.4,M*29
$HCHDG,35.8,0.0,E,,*17
$PTAK,FFP1,HEEL,@*07
$IIVHW,,,,,01.7,N,,*1F
$HCHDG,35.8,0.0,E,,*17
$GPRMC,020045.2,A,4739.77902,N,12222.98034,W,001.74,059.2,130813,016.6,E,D*23
$PGRME,2.4,M,2.4,M,3.4,M*29
$IIVLW,02118,N,002.9,N*52
$HCHDG,35.9,0.0,E,,*16
$IIVWR,047,L,14.2,N,,,,*7B
$IIDPT,005.5,-1.0,*40
$HCHDG,35.8,0.0,E,,*17
$GPRMC,020045.4,A,4739.77910,N,12222.98031,W,001.71,053.6,130813,016.6,E,D*28
$PGRME,2.4,M,2.4,M,3.4,M*29
$IIGLL,4739.778,N,12222.980,W,020000,A,A*41
$YXXDR,A,5.9,D,PTCH,A,5.6,D,ROLL*52
$IIMTW,+20.5,C*3F
$HCHDG,35.8,0.0,E,,*17
$IIMWV,313,R,14.2,N,A*15
$IIMWV,310,T,12.6,N,A*12
$HCHDG,35.8,0.0,E,,*17
$GPRMC,020045.6,A,4739.77916,N,12222.98022,W,001.68,055.4,130813,016.6,E,D*22
$PGRME,2.4,M,2.4,M,3.4,M*29
$IIRMB,A,0.00,L,,Shil,,,,,001.7,321,,V,A*7F
$HCHDG,35.8,0.0,E,,*17
$HCHDG,35.8,0.0,E,,*17
$GPRMC,020045.8,A,4739.77927,N,12222.98006,W,001.67,057.5,130813,016.6,E,D*24
$PGRME,2.4,M,2.4,M,3.4,M*29
$HCHDG,35.9,0.0,E,,*16
$YXXDR,A,6.0,D,PTCH,A,5.7,D,ROLL*59
$GPRMC,020046.0,A,4739.77946,N,12222.97987,W,001.65,051.4,130813,016.6,E,D*22
$GPRMB,A,0.00,L,Shil,Shil,4741.0830,N,12224.5670,W,1.7,321,-0.02,V*2D
$HCHDG,35.8,0.0,E,,*17
$PGRME,2.4,M,2.4,M,3.4,M*29
$HCHDG,35.8,0.0,E,,*17
$HCHDG,35.7,0.0,E,,*18
$GPRMC,020046.2,A,4739.77950,N,12222.97982,W,001.66,052.1,130813,016.6,E,D*27
$PGRME,2.4,M,2.4,M,3.4,M*29
$IIRMC,020000,A,4739.779,N,12222.980,W,01.6,057,120813,16,E,A*17
$HCHDG,35.4,0.0,E,,*1B
$IIVHW,,,,,01.7,N,,*1F
$IIVLW,02118,N,002.9,N*52
$HCHDG,35.3,0.0,E,,*1C
$GPRMC,020046.4,A,4739.77958,N,12222.97993,W,001.66,043.9,130813,016.6,E,D*21
$PGRME,2.4,M,2.4,M,3.4,M*29
$IIVWR,052,L,14.5,N,,,,*78
$YXXDR,A,6.1,D,PTCH,A,5.5,D,ROLL*5A
$PTAK,FFD1,5.5*55
$IIDPT,005.5,-1.0,*40
$HCHDG,35.2,0.0,E,,*1D
$IIGLL,4739.779,N,12222.980,W,020000,A,A*40
$HCHDG,35.2,0.0,E,,*1D
$IIMTW,+20.5,C*3F
$GPRMC,020046.6,A,4739.77972,N,12222.97992,W,001.64,050.7,130813,016.6,E,D*24
$PGRME,2.4,M,2.4,M,3.4,M*29
$IIMWV,308,R,14.5,N,A*18
$HCHDG,35.3,0.0,E,,*1C
$IIMWV,307,T,12.9,N,A*1B
$HCHDG,35.2,0.0,E,,*1D
$GPRMC,020046.8,A,4739.77984,N,12222.97984,W,001.64,055.2,130813,016.6,E,D*24
$PGRME,2.4,M,2.4,M,3.4,M*29
$HCHDG,35.1,0.0,E,,*1E
$YXXDR,A,6.1,D,PTCH,A,5.0,D,ROLL*5F
$HCHDG,35.1,0.0,E,,*1E
$GPRMC,020047.0,A,4739.77999,N,12222.97982,W,001.62,056.5,130813,016.6,E,D*25
$GPRMB,A,0.00,L,Shil,Shil,4741.0830,N,12224.5670,W,1.7,321,-0.17,V*29
$PGRME,2.4,M,2.4,M,3.4,M*29
$HCHDG,35.0,0.0,E,,*1F
$HCHDG,35.0,0.0,E,,*1F
$GPRMC,020047.2,A,4739.78006,N,12222.97975,W,001.59,046.5,130813,016.6,E,D*26
$IIRMB,A,0.00,L,,Shil,,,,,001.7,321,,V,A*7F
$PGRME,2.4,M,2.4,M,3.4,M*29
$HCHDG,35.0,0.0,E,,*1F
$IIRMC,020000,A,4739.779,N,12222.979,W,01.6,055,120813,16,E,A*13
$HCHDG,34.8,0.0,E,,*16
$IIVHW,,,,,01.7,N,,*1F
$GPRMC,020047.4,A,4739.78008,N,12222.97976,W,001.61,042.3,130813,016.6,E,D*24
$PGRME,2.4,M,2.4,M,3.4,M*29
$IIVLW,02118,N,002.9,N*52
$YXXDR,A,6.0,D,PTCH,A,4.8,D,ROLL*57
$PTAK,FFD1,4.8*59
$HCHDG,34.8,0.0,E,,*16
$IIVWR,055,L,14.4,N,,,,*7E
$IIDPT,005.5,-1.0,*40
$HCHDG,34.9,0.0,E,,*17
$GPRMC,020047.6,A,4739.78011,N,12222.97970,W,001.60,049.9,130813,016.6,E,D*28
$PGRME,2.4,M,2.4,M,3.4,M*29
$IIGLL,4739.779,N,12222.979,W,020000,A,A*46
$HCHDG,34.7,0.0,E,,*19
$IIMTW,+20.5,C*3F
$HCHDG,34.8,0.0,E,,*16
$GPRMC,020047.8,A,4739.78017,N,12222.97962,W,001.59,052.6,130813,016.6,E,D*2C
$PGRME,2.4,M,2.4,M,3.4,M*29
$HCHDG,34.8,0.0,E,,*16
$YXXDR,A,6.0,D,PTCH,A,4.8,D,ROLL*57
$GPRMC,020048.0,A,4739.78024,N,12222.97954,W,001.61,054.7,130813,016.6,E,D*22
$PGRME,2.4,M,2.4,M,3.4,M*29
$HCHDG,34.9,0.0,E,,*17
$HCHDG,34.7,0.0,E,,*19
$IIMWV,305,R,14.6,N,A*16
$HCHDG,34.5,0.0,E,,*1B
$GPRMC,020048.2,A,4739.78027,N,12222.97953,W,001.60,054.7,130813,016.6,E,D*25
$GPRMB,A,0.00,L,Shil,Shil,4741.0830,N,12224.5670,W,1.7,321,-0.11,V*2F
$PGRME,2.4,M,2.4,M,3.4,M*29
$IIMWV,299,T,13.4,N,A*11
$HCHDG,34.7,0.0,E,,*19
$IIRMB,A,0.00,L,,Shil,,,,,001.7,321,,V,A*7F
$HCHDG,34.7,0.0,E,,*19
$GPRMC,020048.4,A,4739.78035,N,12222.97950,W,001.59,050.6,130813,016.6,E,D*2C
$PGRME,2.4,M,2.4,M,3.4,M*29
$IIRMC,020000,A,4739.779,N,12222.979,W,01.6,055,120813,16,E,A*13
$YXXDR,A,6.1,D,PTCH,A,4.6,D,ROLL*58
$PTAK,FFD1,4.6*57
$IIVHW,,,,,01.6,N,,*1E
$HCHDG,34.5,0.0,E,,*1B
$IIVLW,02118,N,002.9,N*52
$HCHDG,34.4,0.0,E,,*1A
$GPRMC,020048.6,A,4739.78044,N,12222.97941,W,001.61,051.4,130813,016.6,E,D*20
$PGRME,2.4,M,2.4,M,3.4,M*29
$IIVWR,055,L,14.6,N,,,,*7C
$IIDPT,005.5,-1.0,*40
$HCHDG,34.5,0.0,E,,*1B
$HCHDG,34.4,0.0,E,,*1A
$GPRMC,020048.8,A,4739.78053,N,12222.97927,W,001.65,054.6,130813,016.6,E,D*2B
$PGRME,2.4,M,2.4,M,3.4,M*29
$HCHDG,34.5,0.0,E,,*1B
$YXXDR,A,6.0,D,PTCH,A,4.7,D,ROLL*58
$GPRMC,020049.0,A,4739.78052,N,12222.97914,W,001.64,058.1,130813,016.6,E,D*29
$PGRME,2.4,M,2.4,M,3.4,M*29
$HCHDG,34.4,0.0,E,,*1A
$HCHDG,34.5,0.0,E,,*1B
$HCHDG,34.3,0.0,E,,*1D
$PTAK,FFP1,HEEL,@*07
$GPRMC,020049.2,A,4739.78059,N,12222.97907,W,001.64,058.9,130813,016.6,E,D*2A
$GPRMB,A,0.00,L,Shil,Shil,4741.0830,N,12224.5670,W,1.7,321,-0.24,V*29
$PGRME,2.4,M,2.4,M,3.4,M*29
$IIGLL,4739.780,N,12222.979,W,020000,A,A*40
$IIMTW,+20.5,C*3F
$HCHDG,34.4,0.0,E,,*1A
$IIMWV,305,R,14.1,N,A*11
$IIMWV,299,T,13.6,N,A*13
$HCHDG,34.4,0.0,E,,*1A
