$GPRMB,A,-1.20,L,,Shil,4741.0830,N,12224.5670,W,25.2,3,3.62,V*25
$HCHDG,322.2,0.0,E,,*28
$PTAK,FFP1,HEEL,@*07
$PGRME,3.0,M,3.0,M,4.3,M*29
$HCHDG,322.3,0.0,E,,*29
$HCHDG,322.3,0.0,E,,*29
$GPRMC,165231.0,A,4715.94777,N,12226.35223,W,003.97,339.8,100813,016.5,E,A*2D
$GPRMB,A,-1.20,L,,Shil,4741.0830,N,12224.5670,W,25.2,3,3.66,V*21
$PGRME,3.0,M,3.0,M,4.3,M*29
$YXXDR,A,5.4,D,PTCH,A,3.7,D,ROLL*58
$PTAK,FFD1,3.7*51
$HCHDG,322.2,0.0,E,,*28
$HCHDG,322.1,0.0,E,,*2B
$GPRMC,165231.2,A,4715.94804,N,12226.35238,W,003.91,340.0,100813,016.5,E,A*2E
$GPRMB,A,-1.20,L,,Shil,4741.0830,N,12224.5670,W,25.2,3,3.61,V*26
$PGRME,3.0,M,3.0,M,4.3,M*29
$HCHDG,322.2,0.0,E,,*28
$HCHDG,322.4,0.0,E,,*2E
$GPRMC,165231.4,A,4715.94836,N,12226.35250,W,003.95,339.8,100813,016.5,E,A*25
$PGRME,3.0,M,3.0,M,4.3,M*29
$HCHDG,322.4,0.0,E,,*2E
$YXXDR,A,5.2,D,PTCH,A,3.9,D,ROLL*50
$GPRMC,165231.6,A,4715.94865,N,12226.35270,W,003.91,340.1,100813,016.5,E,A*20
$PGRME,3.0,M,3.0,M,4.3,M*29
$HCHDG,322.4,0.0,E,,*2E
$HCHDG,322.3,0.0,E,,*29
$HCHDG,322.3,0.0,E,,*29
$GPRMC,165231.8,A,4715.94887,N,12226.35278,W,003.97,340.0,100813,016.5,E,A*2D
$PGRME,3.0,M,3.0,M,4.3,M*29
$HCHDG,322.4,0.0,E,,*2E
$IIVWR,057,L,06.9,N,,,,*72
$IIDPT,054.6,-1.0,*47
$HCHDG,322.5,0.0,E,,*2F
$GPRMC,165232.0,A,4715.94906,N,12226.35279,W,003.95,340.1,100813,016.5,E,A*2C
$PGRME,3.0,M,3.0,M,4.3,M*29
$YXXDR,A,5.2,D,PTCH,A,3.8,D,ROLL*51
$IIGLL,4715.945,N,12226.351,W,165200,A,A*4F
$IIMTW,+15.5,C*39
$HCHDG,322.4,0.0,E,,*2E
$IIMWV,303,R,06.9,N,A*1C
$HCHDG,322.3,0.0,E,,*29
$GPRMC,165232.2,A,4715.94927,N,12226.35314,W,003.94,339.3,100813,016.5,E,A*2A
$IIMWV,270,T,05.6,N,A*13
$PGRME,3.0,M,3.0,M,4.3,M*29
$HCHDG,322.5,0.0,E,,*2F
$IIRMC,165200,A,4715.945,N,12226.351,W,03.9,339,100813,16,E,A*1C
$HCHDG,322.2,0.0,E,,*28
$IIVHW,,,,,03.5,N,,*1F
$GPRMC,165232.4,A,4715.94951,N,12226.35340,W,003.90,339.8,100813,016.5,E,A*23
$GPRMB,A,-1.20,L,,Shil,4741.0830,N,12224.5670,W,25.2,3,3.59,V*2D
$PGRME,3.0,M,3.0,M,4.3,M*29
$IIVLW,02061,N,000.0,N*56
$HCHDG,322.2,0.0,E,,*28
$YXXDR,A,5.3,D,PTCH,A,3.9,D,ROLL*51
$PTAK,FFD1,3.9*5F
$GPRMC,165232.6,A,4715.94974,N,12226.35348,W,003.88,339.5,100813,016.5,E,A*2A
$PGRME,3.0,M,3.0,M,4.3,M*29
$HCHDG,322.3,0.0,E,,*29
$HCHDG,322.4,0.0,E,,*2E
$HCHDG,322.5,0.0,E,,*2F
$GPRMC,165232.8,A,4715.94999,N,12226.35360,W,003.96,340.7,100813,016.5,E,A*2E
$PGRME,3.0,M,3.0,M,4.3,M*29
$HCHDG,322.3,0.0,E,,*29
$IIVWR,053,L,07.4,N,,,,*7A
$IIDPT,054.6,-1.0,*47
$HCHDG,322.1,0.0,E,,*2B
$GPRMC,165233.0,A,4715.95016,N,12226.35366,W,003.95,339.9,100813,016.5,E,A*2D
$PGRME,3.0,M,3.0,M,4.3,M*29
$YXXDR,A,5.3,D,PTCH,A,3.5,D,ROLL*5D
$IIGLL,4715.948,N,12226.352,W,165200,A,A*41
$IIMTW,+15.5,C*39
$HCHDG,322.3,0.0,E,,*29
$IIMWV,307,R,07.4,N,A*14
$HCHDG,322.3,0.0,E,,*29
$GPRMC,165233.2,A,4715.95031,N,12226.35376,W,003.99,341.1,100813,016.5,E,A*20
$GPRMB,A,-1.20,L,,Shil,4741.0830,N,12224.5670,W,25.2,3,3.71,V*27
$PGRME,3.0,M,3.0,M,4.3,M*29
$IIMWV,274,T,05.7,N,A*16
$HCHDG,322.3,0.0,E,,*29
$IIRMB,A,,,,Shil,,,,,025.2,003,,V,A*2D
$HCHDG,322.1,0.0,E,,*2B
$GPRMC,165233.4,A,4715.95051,N,12226.35386,W,003.97,341.3,100813,016.5,E,A*23
$PGRME,3.0,M,3.0,M,4.3,M*29
$IIRMC,165200,A,4715.948,N,12226.352,W,03.9,340,100813,16,E,A*1C
$HCHDG,322.1,0.0,E,,*2B
$YXXDR,A,5.4,D,PTCH,A,3.5,D,ROLL*5A
$PTAK,FFD1,3.5*53
$GPRMC,165233.6,A,4715.95059,N,12226.35387,W,003.87,340.0,100813,016.5,E,A*2B
$PGRME,3.0,M,3.0,M,4.3,M*29
$HCHDG,322.1,0.0,E,,*2B
$HCHDG,322.1,0.0,E,,*2B
$HCHDG,322.0,0.0,E,,*2A
$GPRMC,165233.8,A,4715.95077,N,12226.35403,W,003.91,340.8,100813,016.5,E,A*2D
$PGRME,3.0,M,3.0,M,4.3,M*29
$HCHDG,322.1,0.0,E,,*2B
$IIVHW,,,,,03.8,N,,*12
$IIVLW,02061,N,000.0,N*56
$HCHDG,322.1,0.0,E,,*2B
$PTAK,FFP1,HEEL,@*07
$GPRMC,165234.0,A,4715.95093,N,12226.35410,W,003.92,339.7,100813,016.5,E,A*28
$PGRME,3.0,M,3.0,M,4.3,M*29
$IIVWR,052,L,07.5,N,,,,*7A
$YXXDR,A,5.4,D,PTCH,A,3.8,D,ROLL*57
$IIDPT,054.6,-1.0,*47
$HCHDG,322.2,0.0,E,,*28
$IIGLL,4715.950,N,12226.353,W,165200,A,A*49
$HCHDG,322.2,0.0,E,,*28
$GPRMC,165234.2,A,4715.95112,N,12226.35423,W,003.96,341.0,100813,016.5,E,A*2E
$GPRMB,A,-1.20,L,,Shil,4741.0830,N,12224.5670,W,25.2,3,3.68,V*2F
$PGRME,3.0,M,3.0,M,4.3,M*29
$IIMTW,+15.5,C*39
$IIMWV,308,R,07.5,N,A*1A
$HCHDG,322.4,0.0,E,,*2E
$IIMWV,278,T,05.9,N,A*14
$HCHDG,322.4,0.0,E,,*2E
$GPRMC,165234.4,A,4715.95131,N,12226.35430,W,003.98,339.7,100813,016.5,E,A*2D
$PGRME,3.0,M,3.0,M,4.3,M*29
$IIRMB,A,,,,Shil,,,,,025.2,003,,V,A*2D
$HCHDG,322.4,0.0,E,,*2E
$YXXDR,A,5.3,D,PTCH,A,3.9,D,ROLL*51
$PTAK,FFD1,3.9*5F
$GPRMC,165234.6,A,4715.95153,N,12226.35448,W,003.96,340.8,100813,016.5,E,A*2B
$PGRME,3.0,M,3.0,M,4.3,M*29
$HCHDG,322.4,0.0,E,,*2E
$HCHDG,322.3,0.0,E,,*29
$HCHDG,322.3,0.0,E,,*29
$GPRMC,165234.8,A,4715.95176,N,12226.35464,W,003.98,339.4,100813,016.5,E,A*20
$PGRME,3.0,M,3.0,M,4.3,M*29
$HCHDG,322.3,0.0,E,,*29
$HCHDG,322.4,0.0,E,,*2E
$GPRMC,165235.0,A,4715.95193,N,12226.35479,W,003.94,341.2,100813,016.5,E,A*2B
$PGRME,3.0,M,3.0,M,4.3,M*29
$IIRMC,165200,A,4715.951,N,12226.354,W,03.9,340,100813,16,E,A*12
$IIVHW,,,,,03.8,N,,*12
$YXXDR,A,5.5,D,PTCH,A,3.6,D,ROLL*58
$IIVLW,02061,N,000.0,N*56
$HCHDG,322.4,0.0,E,,*2E
$IIVWR,052,L,07.5,N,,,,*7A
$HCHDG,322.4,0.0,E,,*2E
$GPRMC,165235.2,A,4715.95212,N,12226.35485,W,003.94,340.4,100813,016.5,E,A*27
$PGRME,3.0,M,3.0,M,4.3,M*29
$IIDPT,054.6,-1.0,*47
$HCHDG,322.4,0.0,E,,*2E
$IIGLL,4715.951,N,12226.354,W,165200,A,A*4F
$IIMTW,+15.5,C*39
$HCHDG,322.2,0.0,E,,*28
$GPRMC,165235.4,A,4715.95234,N,12226.35497,W,003.95,341.1,100813,016.5,E,A*23
$IIMWV,308,R,07.5,N,A*1A
$PGRME,3.0,M,3.0,M,4.3,M*29
$IIMWV,278,T,05.9,N,A*14
$HCHDG,322.1,0.0,E,,*2B
$YXXDR,A,5.4,D,PTCH,A,3.5,D,ROLL*5A
$GPRMC,165235.6,A,4715.95248,N,12226.35493,W,003.94,340.1,100813,016.5,E,A*2E
$GPRMB,A,-1.20,L,,Shil,4741.0830,N,12224.5670,W,25.2,3,3.64,V*23
$PGRME,3.0,M,3.0,M,4.3,M*29
$HCHDG,322.0,0.0,E,,*2A
$HCHDG,321.9,0.0,E,,*20
$HCHDG,321.9,0.0,E,,*20
$GPRMC,165235.8,A,4715.95272,N,12226.35492,W,003.98,340.9,100813,016.5,E,A*2C
$PGRME,3.0,M,3.0,M,4.3,M*29
$HCHDG,321.9,0.0,E,,*20
$IIRMB,A,,,,Shil,,,,,025.2,003,,V,A*2D
$HCHDG,321.8,0.0,E,,*21
$GPRMC,165236.0,A,4715.95297,N,12226.35505,W,003.98,341.3,100813,016.5,E,A*28
$PGRME,3.0,M,3.0,M,4.3,M*29
$YXXDR,A,5.4,D,PTCH,A,3.6,D,ROLL*59
$IIRMC,165200,A,4715.952,N,12226.354,W,03.9,340,100813,16,E,A*11
$HCHDG,321.8,0.0,E,,*21
$IIVHW,,,,,03.7,N,,*1D
$HCHDG,321.7,0.0,E,,*2E
$IIVLW,02061,N,000.0,N*56
$GPRMC,165236.2,A,4715.95322,N,12226.35506,W,003.93,341.5,100813,016.5,E,A*2B
$PGRME,3.0,M,3.0,M,4.3,M*29
$IIVWR,052,L,07.5,N,,,,*7A
$HCHDG,321.6,0.0,E,,*2F
$IIDPT,054.6,-1.0,*47
$HCHDG,321.9,0.0,E,,*20
$IIGLL,4715.952,N,12226.354,W,165200,A,A*4C
$GPRMC,165236.4,A,4715.95337,N,12226.35505,W,003.98,340.9,100813,016.5,E,A*2C
$PGRME,3.0,M,3.0,M,4.3,M*29
$IIMTW,+15.5,C*39
$HCHDG,321.9,0.0,E,,*20
$IIMWV,308,R,07.5,N,A*1A
$YXXDR,A,5.5,D,PTCH,A,4.0,D,ROLL*59
$PTAK,FFD1,4.0*51
$GPRMC,165236.6,A,4715.95358,N,12226.35522,W,003.91,341.1,100813,016.5,E,A*22
$GPRMB,A,-1.20,L,,Shil,4741.0830,N,12224.5670,W,25.2,3,3.63,V*24
$PGRME,3.0,M,3.0,M,4.3,M*29
$HCHDG,321.8,0.0,E,,*21
$HCHDG,321.7,0.0,E,,*2E
$HCHDG,321.8,0.0,E,,*21
$GPRMC,165236.8,A,4715.95374,N,12226.35536,W,003.89,340.7,100813,016.5,E,A*29
$PGRME,3.0,M,3.0,M,4.3,M*29
$HCHDG,321.8,0.0,E,,*21
$IIMWV,278,T,05.9,N,A*14
$HCHDG,321.7,0.0,E,,*2E
$GPRMC,165237.0,A,4715.95398,N,12226.35544,W,003.93,341.6,100813,016.5,E,A*2C
$PGRME,3.0,M,3.0,M,4.3,M*29
$IIRMB,A,,,,Shil,,,,,025.2,003,,V,A*2D
$YXXDR,A,5.5,D,PTCH,A,4.2,D,ROLL*5B
$HCHDG,321.8,0.0,E,,*21
$IIRMC,165200,A,4715.952,N,12226.354,W,03.9,340,100813,16,E,A*11
$GPRMC,165237.2,A,4715.95418,N,12226.35541,W,003.94,341.5,100813,016.5,E,A*20
$HCHDG,321.8,0.0,E,,*21
$IIVHW,,,,,03.8,N,,*12
$PGRME,3.0,M,3.0,M,4.3,M*29
$IIVLW,02061,N,000.0,N*56
$HCHDG,321.7,0.0,E,,*2E
$IIVWR,051,L,07.8,N,,,,*74
$IIDPT,054.6,-1.0,*47
$HCHDG,321.6,0.0,E,,*2F
$GPRMC,165237.4,A,4715.95444,N,12226.35551,W,003.94,340.4,100813,016.5,E,A*2E
$PGRME,3.0,M,3.0,M,4.3,M*29
$IIGLL,4715.952,N,12226.354,W,165200,A,A*4C
$HCHDG,321.8,0.0,E,,*21
$IIMTW,+15.5,C*39
$YXXDR,A,5.4,D,PTCH,A,4.4,D,ROLL*5C
$GPRMC,165237.6,A,4715.95470,N,12226.35561,W,003.96,340.6,100813,016.5,E,A*28
$PGRME,3.0,M,3.0,M,4.3,M*29
$HCHDG,321.7,0.0,E,,*2E
$HCHDG,321.8,0.0,E,,*21
$HCHDG,321.7,0.0,E,,*2E
$GPRMC,165237.8,A,4715.95496,N,12226.35580,W,003.95,341.4,100813,016.5,E,A*21
$GPRMB,A,-1.21,L,,Shil,4741.0830,N,12224.5670,W,25.2,3,3.68,V*2E
$PGRME,3.0,M,3.0,M,4.3,M*29
$HCHDG,321.8,0.0,E,,*21
$IIMWV,310,R,08.0,N,A*19
$IIMWV,280,T,06.1,N,A*18
$HCHDG,321.7,0.0,E,,*2E
$GPRMC,165238.0,A,4715.95518,N,12226.35587,W,003.94,340.6,100813,016.5,E,A*24
$PGRME,3.0,M,3.0,M,4.3,M*29
$IIRMB,A,,,,Shil,,,,,025.2,003,,V,A*2D
$YXXDR,A,5.3,D,PTCH,A,4.6,D,ROLL*59
$PTAK,FFD1,4.6*57
$HCHDG,321.9,0.0,E,,*20
$HCHDG,321.6,0.0,E,,*2F
$GPRMC,165238.2,A,4715.95527,N,12226.35592,W,003.98,341.1,100813,016.5,E,A*24
$IIRMC,165200,A,4715.953,N,12226.355,W,03.8,340,100813,16,E,A*10
$PGRME,3.0,M,3.0,M,4.3,M*29
$IIVHW,,,,,03.7,N,,*1D
$PTAK,FFP1,HEEL,@*07
$HCHDG,321.6,0.0,E,,*2F
$IIVLW,02061,N,000.0,N*56
$IIVWR,050,L,08.0,N,,,,*72
$HCHDG,321.7,0.0,E,,*2E
$GPRMC,165238.4,A,4715.95544,N,12226.35605,W,003.97,340.6,100813,016.5,E,A*23
$PGRME,3.0,M,3.0,M,4.3,M*29
$IIDPT,054.6,-1.0,*47
$HCHDG,321.5,0.0,E,,*2C
$YXXDR,A,5.7,D,PTCH,A,4.7,D,ROLL*5C
$GPRMC,165238.6,A,4715.95561,N,12226.35619,W,003.96,338.8,100813,016.5,E,A*2B
$PGRME,3.0,M,3.0,M,4.3,M*29
$HCHDG,321.6,0.0,E,,*2F
$HCHDG,321.5,0.0,E,,*2C
$HCHDG,321.6,0.0,E,,*2F
$GPRMC,165238.8,A,4715.95577,N,12226.35624,W,003.98,339.7,100813,016.5,E,A*2C
$PGRME,3.0,M,3.0,M,4.3,M*29
$HCHDG,321.6,0.0,E,,*2F
$IIGLL,4715.954,N,12226.355,W,165200,A,A*4B
$HCHDG,321.6,0.0,E,,*2F
$GPRMC,165239.0,A,4715.95592,N,12226.35642,W,003.86,340.6,100813,016.5,E,A*2E
$GPRMB,A,-1.21,L,,Shil,4741.0830,N,12224.5670,W,25.2,3,3.58,V*2D
$PGRME,3.0,M,3.0,M,4.3,M*29
$IIMTW,+15.5,C*39
$IIMWV,311,R,08.1,N,A*19
$YXXDR,A,5.4,D,PTCH,A,4.6,D,ROLL*5E
$PTAK,FFD1,4.6*57
$IIMWV,282,T,06.2,N,A*19
$HCHDG,321.6,0.0,E,,*2F
$GPRMC,165239.2,A,4715.95615,N,12226.35657,W,003.95,338.0,100813,016.5,E,A*2F
$HCHDG,321.4,0.0,E,,*2D
$IIRMB,A,,,,Shil,,,,,025.2,003,,V,A*2D
$PGRME,3.0,M,3.0,M,4.3,M*29
$HCHDG,321.4,0.0,E,,*2D
$IIRMC,165200,A,4715.954,N,12226.355,W,03.9,341,100813,16,E,A*17
$IIVHW,,,,,03.7,N,,*1D
$HCHDG,321.4,0.0,E,,*2D
$GPRMC,165239.4,A,4715.95636,N,12226.35673,W,003.96,338.5,100813,016.5,E,A*28
$PGRME,3.0,M,3.0,M,4.3,M*29
$IIVLW,02061,N,000.0,N*56
$HCHDG,321.2,0.0,E,,*2B
$YXXDR,A,5.5,D,PTCH,A,4.0,D,ROLL*59
$GPRMC,165239.6,A,4715.95658,N,12226.35692,W,003.99,339.8,100813,016.5,E,A*2E
$PGRME,3.0,M,3.0,M,4.3,M*29
$HCHDG,321.2,0.0,E,,*2B
$HCHDG,321.0,0.0,E,,*29
$HCHDG,320.8,0.0,E,,*20
$GPRMC,165239.8,A,4715.95681,N,12226.35701,W,003.97,340.5,100813,016.5,E,A*22
$PGRME,3.0,M,3.0,M,4.3,M*29
$HCHDG,321.0,0.0,E,,*29
$IIVWR,047,L,08.3,N,,,,*77
$IIDPT,054.6,-1.0,*47
$HCHDG,320.8,0.0,E,,*20
$GPRMC,165240.0,A,4715.95700,N,12226.35714,W,003.94,339.9,100813,016.5,E,A*29
$PGRME,3.0,M,3.0,M,4.3,M*29
$YXXDR,A,5.4,D,PTCH,A,3.3,D,ROLL*5C
$IIGLL,4715.955,N,12226.356,W,165200,A,A*49
$IIMTW,+15.5,C*39
$HCHDG,320.9,0.0,E,,*21
$IIMWV,313,R,08.3,N,A*19
$HCHDG,320.7,0.0,E,,*2F
$GPRMC,165240.2,A,4715.95722,N,12226.35734,W,003.94,339.1,100813,016.5,E,A*21
$GPRMB,A,-1.21,L,,Shil,4741.0830,N,12224.5670,W,25.2,3,3.61,V*27
$PGRME,3.0,M,3.0,M,4.3,M*29
$IIMWV,284,T,06.1,N,A*1C
$HCHDG,320.7,0.0,E,,*2F
$IIRMB,A,,,,Shil,,,,,025.2,003,,V,A*2D
$HCHDG,320.4,0.0,E,,*2C
$GPRMC,165240.4,A,4715.95744,N,12226.35742,W,003.99,339.7,100813,016.5,E,A*2D
$PGRME,3.0,M,3.0,M,4.3,M*29
$IIRMC,165200,A,4715.955,N,12226.356,W,03.9,339,100813,16,E,A*1A
$HCHDG,320.4,0.0,E,,*2C
$YXXDR,A,5.5,D,PTCH,A,3.3,D,ROLL*5D
$PTAK,FFD1,3.3*55
$GPRMC,165240.6,A,4715.95773,N,12226.35749,W,004.01,339.4,100813,016.5,E,A*25
$PGRME,3.0,M,3.0,M,4.3,M*29
$HCHDG,320.5,0.0,E,,*2D
$HCHDG,320.3,0.0,E,,*2B
$HCHDG,320.3,0.0,E,,*2B
$GPRMC,165240.8,A,4715.95794,N,12226.35767,W,003.90,339.6,100813,016.5,E,A*23
$PGRME,3.0,M,3.0,M,4.3,M*29
$HCHDG,320.3,0.0,E,,*2B
$IIVHW,,,,,03.6,N,,*1C
$IIVLW,02061,N,000.0,N*56
$HCHDG,320.3,0.0,E,,*2B
$GPRMC,165241.0,A,4715.95820,N,12226.35773,W,003.89,338.7,100813,016.5,E,A*27
$PGRME,3.0,M,3.0,M,4.3,M*29
$IIVWR,045,L,08.4,N,,,,*72
$YXXDR,A,5.5,D,PTCH,A,3.1,D,ROLL*5F
$IIDPT,054.6,-1.0,*47
$HCHDG,320.4,0.0,E,,*2C
$IIGLL,4715.955,N,12226.356,W,165200,A,A*49
$HCHDG,320.4,0.0,E,,*2C
$GPRMC,165241.2,A,4715.95846,N,12226.35769,W,003.92,338.0,100813,016.5,E,A*23
$GPRMB,A,-1.21,L,,Shil,4741.0830,N,12224.5670,W,25.2,3,3.56,V*23
$PGRME,3.0,M,3.0,M,4.3,M*29
$IIMTW,+15.5,C*39
$IIMWV,315,R,08.4,N,A*18
$HCHDG,320.4,0.0,E,,*2C
$IIMWV,288,T,06.3,N,A*12
$HCHDG,320.4,0.0,E,,*2C
$GPRMC,165241.4,A,4715.95873,N,12226.35784,W,003.97,339.1,100813,016.5,E,A*25
$IIRMB,A,,,,Shil,,,,,025.2,003,,V,A*2D
$PGRME,3.0,M,3.0,M,4.3,M*29
$HCHDG,320.4,0.0,E,,*2C
$YXXDR,A,5.4,D,PTCH,A,3.5,D,ROLL*5A
$GPRMC,165241.6,A,4715.95892,N,12226.35793,W,003.97,337.6,100813,016.5,E,A*27
$PGRME,3.0,M,3.0,M,4.3,M*29
$HCHDG,320.4,0.0,E,,*2C
$HCHDG,320.3,0.0,E,,*2B
$HCHDG,320.1,0.0,E,,*29
$GPRMC,165241.8,A,4715.95910,N,12226.35804,W,003.89,339.1,100813,016.5,E,A*25
$PGRME,3.0,M,3.0,M,4.3,M*29
$HCHDG,320.1,0.0,E,,*29
$HCHDG,320.0,0.0,E,,*28
$GPRMC,165242.0,A,4715.95926,N,12226.35810,W,003.93,339.1,100813,016.5,E,A*25
$PGRME,3.0,M,3.0,M,4.3,M*29
$IIRMC,165200,A,4715.958,N,12226.357,W,03.8,338,100813,16,E,A*16
$IIVHW,,,,,03.7,N,,*1D
$YXXDR,A,5.5,D,PTCH,A,3.3,D,ROLL*5D
$PTAK,FFD1,3.3*55
$HCHDG,320.0,0.0,E,,*28
$IIVLW,02061,N,000.0,N*56
$IIVWR,043,L,08.4,N,,,,*74
$HCHDG,320.0,0.0,E,,*28
$GPRMC,165242.2,A,4715.95948,N,12226.35820,W,003.91,339.2,100813,016.5,E,A*2D
$PGRME,3.0,M,3.0,M,4.3,M*29
$IIDPT,057.6,-1.0,*44
$HCHDG,319.9,0.0,E,,*2B
$IIGLL,4715.958,N,12226.357,W,165200,A,A*45
$IIMTW,+15.5,C*39
$HCHDG,319.9,0.0,E,,*2B
$PTAK,FFP1,HEEL,@*07
$GPRMC,165242.4,A,4715.95975,N,12226.35830,W,004.02,338.6,100813,016.5,E,A*2C
$GPRMB,A,-1.21,L,,Shil,4741.0830,N,12224.5670,W,25.2,3,3.67,V*21
$PGRME,3.0,M,3.0,M,4.3,M*29
$IIMWV,317,R,08.4,N,A*1A
$IIMWV,291,T,06.3,N,A*1A
$HCHDG,319.6,0.0,E,,*24
$YXXDR,A,5.4,D,PTCH,A,3.4,D,ROLL*5B
$GPRMC,165242.6,A,4715.95996,N,12226.35839,W,003.89,339.3,100813,016.5,E,A*2A
$PGRME,3.0,M,3.0,M,4.3,M*29
$HCHDG,319.6,0.0,E,,*24
$HCHDG,319.5,0.0,E,,*27
$HCHDG,319.7,0.0,E,,*25
$GPRMC,165242.8,A,4715.96020,N,12226.35835,W,003.89,338.4,100813,016.5,E,A*29
$PGRME,3.0,M,3.0,M,4.3,M*29
$HCHDG,319.6,0.0,E,,*24
$IIRMB,A,,,,Shil,,,,,025.2,003,,V,A*2D
$HCHDG,319.5,0.0,E,,*27
$GPRMC,165243.0,A,4715.96040,N,12226.35846,W,003.97,338.1,100813,016.5,E,A*28
$PGRME,3.0,M,3.0,M,4.3,M*29
$YXXDR,A,5.4,D,PTCH,A,3.8,D,ROLL*57
$PTAK,FFD1,3.8*5E
$IIRMC,165200,A,4715.959,N,12226.358,W,03.9,339,100813,16,E,A*18
$HCHDG,319.5,0.0,E,,*27
$IIVHW,,,,,03.7,N,,*1D
$HCHDG,319.6,0.0,E,,*24
$GPRMC,165243.2,A,4715.96064,N,12226.35857,W,003.88,337.7,100813,016.5,E,A*2B
$IIVLW,02061,N,000.0,N*56
$PGRME,3.0,M,3.0,M,4.3,M*29
$IIVWR,042,L,08.2,N,,,,*73
$HCHDG,319.5,0.0,E,,*27
$IIDPT,057.6,-1.0,*44
$HCHDG,319.4,0.0,E,,*26
$GPRMC,165243.4,A,4715.96083,N,12226.35873,W,003.94,337.5,100813,016.5,E,A*2D
$GPRMB,A,-1.21,L,,Shil,4741.0830,N,12224.5670,W,25.2,3,3.56,V*23
$IIGLL,4715.959,N,12226.358,W,165200,A,A*4B
$PGRME,3.0,M,3.0,M,4.3,M*29
$IIMTW,+15.5,C*39
$IIMWV,318,R,08.2,N,A*13
$HCHDG,319.4,0.0,E,,*26
$YXXDR,A,5.2,D,PTCH,A,4.0,D,ROLL*5E
$GPRMC,165243.6,A,4715.96099,N,12226.35893,W,003.93,337.6,100813,016.5,E,A*2E
$PGRME,3.0,M,3.0,M,4.3,M*29
$HCHDG,319.2,0.0,E,,*20
$HCHDG,319.1,0.0,E,,*23
$HCHDG,319.0,0.0,E,,*22
$GPRMC,165243.8,A,4715.96119,N,12226.35907,W,003.91,337.7,100813,016.5,E,A*26
$PGRME,3.0,M,3.0,M,4.3,M*29
$HCHDG,318.9,0.0,E,,*2A
$IIMWV,293,T,05.8,N,A*10
$HCHDG,319.0,0.0,E,,*22
$GPRMC,165244.0,A,4715.96138,N,12226.35927,W,003.89,336.3,100813,016.5,E,A*24
$PGRME,3.0,M,3.0,M,4.3,M*29
$IIRMB,A,,,,Shil,,,,,025.2,003,,V,A*2D
$PGRMT,GPS 18x-5Hz software ver. 3.20,,,,,,,,*30
$YXXDR,A,5.5,D,PTCH,A,3.8,D,ROLL*56
$HCHDG,319.1,0.0,E,,*23
$IIRMC,165200,A,4715.960,N,12226.358,W,03.9,338,100813,16,E,A*13
$HCHDG,319.0,0.0,E,,*22
$IIVHW,,,,,03.7,N,,*1D
$GPRMC,165244.2,A,4715.96158,N,12226.35944,W,003.94,337.5,100813,016.5,E,A*2E
$PGRME,3.0,M,3.0,M,4.3,M*29
$IIVLW,02061,N,000.0,N*56
$HCHDG,319.0,0.0,E,,*22
$IIVWR,041,L,08.3,N,,,,*71
$IIDPT,058.0,-1.0,*4D
$HCHDG,318.9,0.0,E,,*2A
$GPRMC,165244.4,A,4715.96181,N,12226.35959,W,003.87,336.3,100813,016.5,E,A*25
$PGRME,3.0,M,3.0,M,4.3,M*29
$IIGLL,4715.960,N,12226.358,W,165200,A,A*41
$HCHDG,319.0,0.0,E,,*22
$IIMTW,+15.5,C*39
$YXXDR,A,5.4,D,PTCH,A,3.8,D,ROLL*57
$PTAK,FFD1,3.8*5E
$GPRMC,165244.6,A,4715.96198,N,12226.35978,W,003.90,337.5,100813,016.5,E,A*2D
$GPRMB,A,-1.21,L,,Shil,4741.0830,N,12224.5670,W,25.2,3,3.53,V*26
$PGRME,3.0,M,3.0,M,4.3,M*29
$HCHDG,319.0,0.0,E,,*22
$HCHDG,319.0,0.0,E,,*22
$HCHDG,319.0,0.0,E,,*22
$GPRMC,165244.8,A,4715.96218,N,12226.35984,W,003.83,336.5,100813,016.5,E,A*28
$PGRME,3.0,M,3.0,M,4.3,M*29
$HCHDG,318.9,0.0,E,,*2A
$IIMWV,322,R,08.3,N,A*1B
$IIMWV,295,T,05.9,N,A*17
$HCHDG,318.8,0.0,E,,*2B
$GPRMC,165245.0,A,4715.96244,N,12226.35992,W,004.03,336.2,100813,016.5,E,A*27
$PGRME,3.0,M,3.0,M,4.3,M*29
$IIRMB,A,,,,Shil,,,,,025.2,003,,V,A*2D
$YXXDR,A,5.3,D,PTCH,A,3.8,D,ROLL*50
$HCHDG,318.8,0.0,E,,*2B
$HCHDG,319.0,0.0,E,,*22
$GPRMC,165245.2,A,4715.96271,N,12226.36005,W,003.85,337.0,100813,016.5,E,A*2D
$IIRMC,165200,A,4715.961,N,12226.359,W,03.8,336,100813,16,E,A*1C
$PGRME,3.0,M,3.0,M,4.3,M*29
$IIVHW,,,,,03.9,N,,*13
$HCHDG,319.1,0.0,E,,*23
$IIVLW,02061,N,000.0,N*56
$IIVWR,038,L,08.3,N,,,,*7F
$HCHDG,319.1,0.0,E,,*23
$GPRMC,165245.4,A,4715.96285,N,12226.36015,W,003.92,336.3,100813,016.5,E,A*25
$PGRME,3.0,M,3.0,M,4.3,M*29
$IIDPT,058.0,-1.0,*4D
$HCHDG,318.8,0.0,E,,*2B
$YXXDR,A,5.2,D,PTCH,A,3.6,D,ROLL*5F
$PTAK,FFD1,3.6*50
$GPRMC,165245.6,A,4715.96305,N,12226.36028,W,003.89,336.5,100813,016.5,E,A*2C
$GPRMB,A,-1.21,L,,Shil,4741.0830,N,12224.5670,W,25.2,3,3.49,V*2D
$PGRME,3.0,M,3.0,M,4.3,M*29
$HCHDG,318.8,0.0,E,,*2B
$HCHDG,318.9,0.0,E,,*2A
$HCHDG,319.0,0.0,E,,*22
$GPRMC,165245.8,A,4715.96324,N,12226.36049,W,003.92,336.9,100813,016.5,E,A*20
$PGRME,3.0,M,3.0,M,4.3,M*29
$HCHDG,319.0,0.0,E,,*22
$IIGLL,4715.962,N,12226.359,W,165200,A,A*42
$HCHDG,318.8,0.0,E,,*2B
$GPRMC,165246.0,A,4715.96342,N,12226.36068,W,003.89,336.6,100813,016.5,E,A*2D
$PGRME,3.0,M,3.0,M,4.3,M*29
$IIMTW,+15.5,C*39
$IIMWV,323,R,08.2,N,A*1B
$YXXDR,A,5.4,D,PTCH,A,3.5,D,ROLL*5A
$IIMWV,296,T,05.6,N,A*1B
$HCHDG,318.9,0.0,E,,*2A
$HCHDG,318.9,0.0,E,,*2A
$GPRMC,165246.2,A,4715.96358,N,12226.36073,W,003.92,337.2,100813,016.5,E,A*21
$IIRMB,A,,,,Shil,,,,,025.2,003,,V,A*2D
$PGRME,3.0,M,3.0,M,4.3,M*29
$HCHDG,318.8,0.0,E,,*2B
$IIRMC,165200,A,4715.962,N,12226.359,W,04.0,336,100813,16,E,A*10
$IIVHW,,,,,03.9,N,,*13
$HCHDG,318.7,0.0,E,,*24
$PTAK,FFP1,HEEL,@*07
$GPRMC,165246.4,A,4715.96383,N,12226.36092,W,003.87,337.7,100813,016.5,E,A*2F
$PGRME,3.0,M,3.0,M,4.3,M*29
$IIVLW,02061,N,000.0,N*56
$HCHDG,318.9,0.0,E,,*2A
$YXXDR,A,5.4,D,PTCH,A,3.1,D,ROLL*5E
$GPRMC,165246.6,A,4715.96409,N,12226.36099,W,003.94,337.8,100813,016.5,E,A*2E
$PGRME,3.0,M,3.0,M,4.3,M*29
$HCHDG,318.7,0.0,E,,*24
$HCHDG,318.7,0.0,E,,*24
$HCHDG,318.7,0.0,E,,*24
$GPRMC,165246.8,A,4715.96432,N,12226.36110,W,003.92,337.0,100813,016.5,E,A*26
$GPRMB,A,-1.21,L,,Shil,4741.0830,N,12224.5670,W,25.2,3,3.53,V*26
$PGRME,3.0,M,3.0,M,4.3,M*29
$HCHDG,318.8,0.0,E,,*2B
$IIVWR,038,L,08.0,N,,,,*7C
$IIDPT,058.5,-1.0,*48
$HCHDG,318.6,0.0,E,,*25
$GPRMC,165247.0,A,4715.96458,N,12226.36111,W,003.85,337.7,100813,016.5,E,A*23
$PGRME,3.0,M,3.0,M,4.3,M*29
$YXXDR,A,5.5,D,PTCH,A,2.9,D,ROLL*56
$PTAK,FFD1,2.9*5E
$IIGLL,4715.963,N,12226.360,W,165200,A,A*49
$IIMTW,+15.5,C*39
$HCHDG,318.6,0.0,E,,*25
$IIMWV,322,R,08.0,N,A*18
$HCHDG,318.5,0.0,E,,*26
$GPRMC,165247.2,A,4715.96481,N,12226.36103,W,003.87,336.8,100813,016.5,E,A*2A
$PGRME,3.0,M,3.0,M,4.3,M*29
$IIMWV,297,T,05.5,N,A*19
$HCHDG,318.3,0.0,E,,*20
$IIRMB,A,,,,Shil,,,,,025.2,003,,V,A*2D
$HCHDG,318.3,0.0,E,,*20
$GPRMC,165247.4,A,4715.96500,N,12226.36122,W,003.94,337.4,100813,016.5,E,A*28
$PGRME,3.0,M,3.0,M,4.3,M*29
$IIRMC,165200,A,4715.963,N,12226.360,W,03.8,336,100813,16,E,A*14
$HCHDG,318.3,0.0,E,,*20
$YXXDR,A,5.5,D,PTCH,A,3.1,D,ROLL*5F
$GPRMC,165247.6,A,4715.96518,N,12226.36143,W,003.88,338.0,100813,016.5,E,A*22
$PGRME,3.0,M,3.0,M,4.3,M*29
$HCHDG,318.3,0.0,E,,*20
$HCHDG,318.3,0.0,E,,*20
$HCHDG,318.3,0.0,E,,*20
$GPRMC,165247.8,A,4715.96533,N,12226.36154,W,003.92,337.3,100813,016.5,E,A*24
$GPRMB,A,-1.21,L,,Shil,4741.0830,N,12224.5670,W,25.2,3,3.54,V*21
$PGRME,3.0,M,3.0,M,4.3,M*29
$HCHDG,318.5,0.0,E,,*26
$IIVHW,,,,,03.7,N,,*1D
$IIVLW,02061,N,000.0,N*56
$HCHDG,318.4,0.0,E,,*27
$GPRMC,165248.0,A,4715.96551,N,12226.36165,W,003.87,337.5,100813,016.5,E,A*27
$PGRME,3.0,M,3.0,M,4.3,M*29
$IIVWR,048,L,08.0,N,,,,*7B
$YXXDR,A,5.4,D,PTCH,A,3.4,D,ROLL*5B
$PTAK,FFD1,3.4*52
$IIDPT,058.5,-1.0,*48
$HCHDG,318.4,0.0,E,,*27
$IIGLL,4715.964,N,12226.361,W,165200,A,A*4F
$HCHDG,318.4,0.0,E,,*27
$GPRMC,165248.2,A,4715.96570,N,12226.36181,W,003.87,337.6,100813,016.5,E,A*2F
$PGRME,3.0,M,3.0,M,4.3,M*29
$IIMTW,+15.5,C*39
$IIMWV,312,R,08.0,N,A*1B
$HCHDG,318.4,0.0,E,,*27
$IIMWV,297,T,05.5,N,A*19
$HCHDG,318.6,0.0,E,,*25
$GPRMC,165248.4,A,4715.96590,N,12226.36186,W,003.87,338.7,100813,016.5,E,A*2E
$PGRME,3.0,M,3.0,M,4.3,M*29
$IIRMB,A,,,,Shil,,,,,025.2,003,,V,A*2D
$HCHDG,318.5,0.0,E,,*26
$YXXDR,A,5.5,D,PTCH,A,3.6,D,ROLL*58
$GPRMC,165248.6,A,4715.96617,N,12226.36193,W,003.92,337.6,100813,016.5,E,A*2E
$PGRME,3.0,M,3.0,M,4.3,M*29
$HCHDG,318.5,0.0,E,,*26
$HCHDG,318.5,0.0,E,,*26
$HCHDG,318.3,0.0,E,,*20
$GPRMC,165248.8,A,4715.96636,N,12226.36210,W,003.84,337.4,100813,016.5,E,A*2E
$PGRME,3.0,M,3.0,M,4.3,M*29
$HCHDG,318.3,0.0,E,,*20
$HCHDG,318.4,0.0,E,,*27
$GPRMC,165249.0,A,4715.96654,N,12226.36230,W,003.91,336.7,100813,016.5,E,A*27
$GPRMB,A,-1.21,L,,Shil,4741.0830,N,12224.5670,W,25.2,3,3.51,V*24
$PGRME,3.0,M,3.0,M,4.3,M*29
$IIRMC,165200,A,4715.965,N,12226.361,W,03.8,337,100813,16,E,A*12
$IIVHW,,,,,03.5,N,,*1F
$YXXDR,A,5.6,D,PTCH,A,3.6,D,ROLL*5B
$PTAK,FFD1,3.6*50
$IIVLW,02061,N,000.0,N*56
$HCHDG,318.3,0.0,E,,*20
$IIVWR,054,L,08.0,N,,,,*76
$HCHDG,318.2,0.0,E,,*21
$GPRMC,165249.2,A,4715.96673,N,12226.36243,W,003.87,337.7,100813,016.5,E,A*22
$PGRME,3.0,M,3.0,M,4.3,M*29
$IIDPT,059.1,-1.0,*4D
$HCHDG,318.3,0.0,E,,*20
$IIGLL,4715.965,N,12226.361,W,165200,A,A*4E
$IIMTW,+15.5,C*39
$HCHDG,318.1,0.0,E,,*22
$GPRMC,165249.4,A,4715.96687,N,12226.36254,W,003.87,337.6,100813,016.5,E,A*28
$PGRME,3.0,M,3.0,M,4.3,M*29
$IIMWV,306,R,08.0,N,A*1E
$IIMWV,285,T,06.1,N,A*1D
$HCHDG,318.0,0.0,E,,*23
$YXXDR,A,5.4,D,PTCH,A,4.1,D,ROLL*59
$GPRMC,165249.6,A,4715.96707,N,12226.36264,W,003.88,336.4,100813,016.5,E,A*2C
$PGRME,3.0,M,3.0,M,4.3,M*29
$HCHDG,318.2,0.0,E,,*21
$HCHDG,318.1,0.0,E,,*22
$HCHDG,318.2,0.0,E,,*21
$GPRMC,165249.8,A,4715.96730,N,12226.36284,W,003.86,335.4,100813,016.5,E,A*25
$PGRME,3.0,M,3.0,M,4.3,M*29
$HCHDG,318.1,0.0,E,,*22
$IIRMB,A,,,,Shil,,,,,025.2,003,,V,A*2D
$HCHDG,318.1,0.0,E,,*22
$GPRMC,165250.0,A,4715.96748,N,12226.36295,W,003.82,336.8,100813,016.5,E,A*21
$GPRMB,A,-1.21,L,,Shil,4741.0830,N,12224.5670,W,25.2,3,3.43,V*27
$PGRME,3.0,M,3.0,M,4.3,M*29
$YXXDR,A,5.4,D,PTCH,A,4.3,D,ROLL*5B
$IIRMC,165200,A,4715.965,N,12226.361,W,03.8,337,100813,16,E,A*12
$HCHDG,318.0,0.0,E,,*23
$IIVHW,,,,,03.4,N,,*1E
$HCHDG,318.0,0.0,E,,*23
$IIVLW,02061,N,000.0,N*56
$GPRMC,165250.2,A,4715.96765,N,12226.36301,W,003.76,336.4,100813,016.5,E,A*27
$PGRME,3.0,M,3.0,M,4.3,M*29
$IIVWR,057,L,08.2,N,,,,*77
$HCHDG,318.0,0.0,E,,*23
$IIDPT,059.5,-1.0,*49
$HCHDG,317.9,0.0,E,,*25
$GPRMC,165250.4,A,4715.96785,N,12226.36311,W,003.88,337.1,100813,016.5,E,A*2B
$PTAK,FFP1,HEEL,@*07
$IIGLL,4715.965,N,12226.361,W,165200,A,A*4E
$PGRME,3.0,M,3.0,M,4.3,M*29
$IIMTW,+15.5,C*39
$HCHDG,317.9,0.0,E,,*25
$IIMWV,303,R,08.2,N,A*19
$YXXDR,A,5.2,D,PTCH,A,3.7,D,ROLL*5E
$PTAK,FFD1,3.7*51
$GPRMC,165250.6,A,4715.96806,N,12226.36320,W,003.86,336.2,100813,016.5,E,A*23
$PGRME,3.0,M,3.0,M,4.3,M*29
$HCHDG,317.9,0.0,E,,*25
$HCHDG,317.9,0.0,E,,*25
$HCHDG,317.8,0.0,E,,*24
$GPRMC,165250.8,A,4715.96823,N,12226.36327,W,003.86,337.0,100813,016.5,E,A*2E
$PGRME,3.0,M,3.0,M,4.3,M*29
$HCHDG,318.0,0.0,E,,*23
$IIMWV,278,T,06.8,N,A*16
$HCHDG,317.9,0.0,E,,*25
$GPRMC,165251.0,A,4715.96848,N,12226.36345,W,003.87,335.7,100813,016.5,E,A*2A
$PGRME,3.0,M,3.0,M,4.3,M*29
$IIRMB,A,,,,Shil,,,,,025.2,003,,V,A*2D
$YXXDR,A,5.4,D,PTCH,A,4.0,D,ROLL*58
$HCHDG,317.9,0.0,E,,*25
$IIRMC,165200,A,4715.967,N,12226.362,W,03.8,336,100813,16,E,A*12
$HCHDG,318.1,0.0,E,,*22
$GPRMC,165251.2,A,4715.96871,N,12226.36368,W,003.88,335.7,100813,016.5,E,A*22
$GPRMB,A,-1.21,L,,Shil,4741.0830,N,12224.5670,W,25.2,3,3.46,V*22
$IIVHW,,,,,03.3,N,,*19
$PGRME,3.0,M,3.0,M,4.3,M*29
$IIVLW,02061,N,000.0,N*56
$HCHDG,318.1,0.0,E,,*22
$IIVWR,059,L,08.3,N,,,,*78
$IIDPT,059.5,-1.0,*49
$HCHDG,317.9,0.0,E,,*25
$GPRMC,165251.4,A,4715.96892,N,12226.36386,W,003.84,336.6,100813,016.5,E,A*27
$PGRME,3.0,M,3.0,M,4.3,M*29
$IIGLL,4715.967,N,12226.362,W,165200,A,A*4F
$HCHDG,317.9,0.0,E,,*25
$IIMTW,+15.5,C*39
$YXXDR,A,5.6,D,PTCH,A,3.9,D,ROLL*54
$PTAK,FFD1,3.9*5F
$GPRMC,165251.6,A,4715.96914,N,12226.36397,W,003.81,336.4,100813,016.5,E,A*2D
$PGRME,3.0,M,3.0,M,4.3,M*29
$HCHDG,318.0,0.0,E,,*23
$HCHDG,318.0,0.0,E,,*23
$HCHDG,317.7,0.0,E,,*2B
$GPRMC,165251.8,A,4715.96938,N,12226.36405,W,003.81,336.2,100813,016.5,E,A*27
$PGRME,3.0,M,3.0,M,4.3,M*29
$HCHDG,317.7,0.0,E,,*2B
$IIMWV,299,R,08.4,N,A*1D
$IIMWV,277,T,07.1,N,A*11
$HCHDG,317.7,0.0,E,,*2B
$GPRMC,165252.0,A,4715.96963,N,12226.36416,W,003.81,336.8,100813,016.5,E,A*2A
$PGRME,3.0,M,3.0,M,4.3,M*29
$IIRMB,A,,,,Shil,,,,,025.2,003,,V,A*2D
$YXXDR,A,5.4,D,PTCH,A,3.5,D,ROLL*5A
$HCHDG,317.8,0.0,E,,*24
$HCHDG,317.7,0.0,E,,*2B
$GPRMC,165252.2,A,4715.96986,N,12226.36425,W,003.88,336.5,100813,016.5,E,A*27
$GPRMB,A,-1.21,L,,Shil,4741.0830,N,12224.5670,W,25.2,3,3.48,V*2C
$IIRMC,165200,A,4715.968,N,12226.363,W,03.8,335,100813,16,E,A*1F
$PGRME,3.0,M,3.0,M,4.3,M*29
$IIVHW,,,,,03.3,N,,*19
$HCHDG,317.7,0.0,E,,*2B
$IIVLW,02061,N,000.0,N*56
$IIVWR,061,L,08.4,N,,,,*74
$HCHDG,317.7,0.0,E,,*2B
$GPRMC,165252.4,A,4715.97003,N,12226.36438,W,003.83,337.2,100813,016.5,E,A*25
$PGRME,3.0,M,3.0,M,4.3,M*29
$IIDPT,059.5,-1.0,*49
$HCHDG,317.7,0.0,E,,*2B
$YXXDR,A,5.4,D,PTCH,A,3.7,D,ROLL*58
$GPRMC,165252.6,A,4715.97027,N,12226.36444,W,003.82,336.0,100813,016.5,E,A*28
$PGRME,3.0,M,3.0,M,4.3,M*29
$HCHDG,317.6,0.0,E,,*2A
$HCHDG,317.6,0.0,E,,*2A
$HCHDG,317.5,0.0,E,,*29
$GPRMC,165252.8,A,4715.97048,N,12226.36459,W,003.87,336.1,100813,016.5,E,A*27
$PGRME,3.0,M,3.0,M,4.3,M*29
$HCHDG,317.4,0.0,E,,*28
$IIGLL,4715.969,N,12226.364,W,165200,A,A*47
$HCHDG,317.3,0.0,E,,*2F
$GPRMC,165253.0,A,4715.97063,N,12226.36468,W,003.76,335.7,100813,016.5,E,A*2E
$PGRME,3.0,M,3.0,M,4.3,M*29
$IIMTW,+15.5,C*39
$IIMWV,299,R,08.2,N,A*1B
$YXXDR,A,5.5,D,PTCH,A,3.7,D,ROLL*59
$PTAK,FFD1,3.7*51
$IIMWV,275,T,07.3,N,A*11
$HCHDG,317.3,0.0,E,,*2F
$GPRMC,165253.2,A,4715.97078,N,12226.36491,W,003.80,336.2,100813,016.5,E,A*2F
$HCHDG,317.3,0.0,E,,*2F
$IIRMB,A,,,,Shil,,,,,025.2,003,,V,A*2D
$PGRME,3.0,M,3.0,M,4.3,M*29
$HCHDG,317.2,0.0,E,,*2E
$IIRMC,165200,A,4715.969,N,12226.364,W,03.8,336,100813,16,E,A*1A
$IIVHW,,,,,03.5,N,,*1F
$GPRMC,165253.4,A,4715.97097,N,12226.36514,W,003.78,334.5,100813,016.5,E,A*26
$GPRMB,A,-1.21,L,,Shil,4741.0830,N,12224.5670,W,25.2,3,3.33,V*20
$HCHDG,317.2,0.0,E,,*2E
$PGRME,3.0,M,3.0,M,4.3,M*29
$IIVLW,02061,N,000.0,N*56
$HCHDG,317.2,0.0,E,,*2E
$YXXDR,A,5.3,D,PTCH,A,4.0,D,ROLL*5F
$GPRMC,165253.6,A,4715.97111,N,12226.36528,W,003.80,335.8,100813,016.5,E,A*2F
$PGRME,3.0,M,3.0,M,4.3,M*29
$HCHDG,317.1,0.0,E,,*2D
$HCHDG,317.1,0.0,E,,*2D
$GPRMC,165253.8,A,4715.97114,N,12226.36548,W,003.75,335.3,100813,016.5,E,A*23
$HCHDG,316.9,0.0,E,,*24
$PGRME,3.0,M,3.0,M,4.3,M*29
$HCHDG,316.8,0.0,E,,*25
$IIVWR,064,L,07.8,N,,,,*72
$IIDPT,060.1,-1.0,*47
$GPRMC,165254.0,A,4715.97125,N,12226.36569,W,003.78,335.0,100813,016.5,E,A*23
$HCHDG,316.8,0.0,E,,*25
$PGRME,3.0,M,3.0,M,4.3,M*29
$IIGLL,4715.970,N,12226.364,W,165200,A,A*4F
$YXXDR,A,5.3,D,PTCH,A,3.8,D,ROLL*50
$PTAK,FFD1,3.8*5E
$IIMTW,+15.5,C*39
$HCHDG,316.7,0.0,E,,*2A
$IIMWV,296,R,07.8,N,A*11
$HCHDG,316.7,0.0,E,,*2A
$GPRMC,165254.2,A,4715.97137,N,12226.36587,W,003.88,334.5,100813,016.5,E,A*29
$PGRME,3.0,M,3.0,M,4.3,M*29
$IIMWV,272,T,07.1,N,A*14
$HCHDG,316.8,0.0,E,,*25
$IIRMB,A,,,,Shil,,,,,025.2,003,,V,A*2D
$HCHDG,316.8,0.0,E,,*25
$GPRMC,165254.4,A,4715.97158,N,12226.36597,W,003.80,334.8,100813,016.5,E,A*22
$GPRMB,A,-1.21,L,,Shil,4741.0830,N,12224.5670,W,25.2,3,3.36,V*25
$PTAK,FFP1,HEEL,@*07
$PGRME,3.0,M,3.0,M,4.3,M*29
$IIRMC,165200,A,4715.970,N,12226.364,W,03.7,335,100813,16,E,A*1E
$HCHDG,317.0,0.0,E,,*2C
$YXXDR,A,5.6,D,PTCH,A,4.1,D,ROLL*5B
$GPRMC,165254.6,A,4715.97170,N,12226.36601,W,003.79,335.0,100813,016.5,E,A*29
$PGRME,3.0,M,3.0,M,4.3,M*29
$HCHDG,317.0,0.0,E,,*2C
$HCHDG,317.0,0.0,E,,*2C
$HCHDG,317.0,0.0,E,,*2C
$GPRMC,165254.8,A,4715.97186,N,12226.36609,W,003.74,334.1,100813,016.5,E,A*2B
$PGRME,3.0,M,3.0,M,4.3,M*29
$HCHDG,317.0,0.0,E,,*2C
$IIVHW,,,,,03.7,N,,*1D
$IIVLW,02061,N,000.0,N*56
$HCHDG,316.9,0.0,E,,*24
$GPRMC,165255.0,A,4715.97208,N,12226.36615,W,003.80,335.0,100813,016.5,E,A*21
$PGRME,3.0,M,3.0,M,4.3,M*29
$IIVWR,065,L,07.7,N,,,,*7C
$YXXDR,A,5.6,D,PTCH,A,3.8,D,ROLL*55
$IIDPT,060.1,-1.0,*47
$HCHDG,316.9,0.0,E,,*24
$IIGLL,4715.971,N,12226.365,W,165200,A,A*4F
$HCHDG,317.0,0.0,E,,*2C
$GPRMC,165255.2,A,4715.97215,N,12226.36612,W,003.79,334.5,100813,016.5,E,A*2A
$PGRME,3.0,M,3.0,M,4.3,M*29
$IIMTW,+15.5,C*39
$IIMWV,295,R,07.7,N,A*1D
$HCHDG,316.8,0.0,E,,*25
$IIMWV,268,T,07.0,N,A*1E
$HCHDG,316.9,0.0,E,,*24
$GPRMC,165255.4,A,4715.97223,N,12226.36627,W,003.77,333.7,100813,016.5,E,A*24
$GPRMB,A,-1.21,L,,Shil,4741.0830,N,12224.5670,W,25.2,3,3.30,V*23
$PGRME,3.0,M,3.0,M,4.3,M*29
$IIRMB,A,,,,Shil,,,,,025.2,003,,V,A*2D
$HCHDG,316.7,0.0,E,,*2A
$YXXDR,A,5.0,D,PTCH,A,3.2,D,ROLL*59
$PTAK,FFD1,3.2*54
$GPRMC,165255.6,A,4715.97237,N,12226.36648,W,003.81,334.2,100813,016.5,E,A*21
$PGRME,3.0,M,3.0,M,4.3,M*29
$HCHDG,316.7,0.0,E,,*2A
$HCHDG,316.5,0.0,E,,*28
$HCHDG,316.6,0.0,E,,*2B
$GPRMC,165255.8,A,4715.97262,N,12226.36663,W,003.83,335.2,100813,016.5,E,A*25
$PGRME,3.0,M,3.0,M,4.3,M*29
$HCHDG,316.3,0.0,E,,*2E
$HCHDG,316.3,0.0,E,,*2E
$GPRMC,165256.0,A,4715.97280,N,12226.36678,W,003.82,335.2,100813,016.5,E,A*29
$PGRME,3.0,M,3.0,M,4.3,M*29
$IIRMC,165200,A,4715.972,N,12226.366,W,03.8,335,100813,16,E,A*11
$IIVHW,,,,,03.8,N,,*12
$YXXDR,A,5.1,D,PTCH,A,3.1,D,ROLL*5B
$IIVLW,02061,N,000.0,N*56
$HCHDG,316.4,0.0,E,,*29
$IIVWR,063,L,07.7,N,,,,*7A
$HCHDG,316.2,0.0,E,,*2F
$GPRMC,165256.2,A,4715.97299,N,12226.36697,W,003.79,334.9,100813,016.5,E,A*2C
$PGRME,3.0,M,3.0,M,4.3,M*29
$IIDPT,000.8,-1.0,*48
$HCHDG,316.2,0.0,E,,*2F
$IIGLL,4715.972,N,12226.366,W,165200,A,A*4F
$IIMTW,+15.5,C*39
$HCHDG,316.3,0.0,E,,*2E
$GPRMC,165256.4,A,4715.97319,N,12226.36697,W,003.85,334.2,100813,016.5,E,A*2B
$GPRMB,A,-1.21,L,,Shil,4741.0830,N,12224.5670,W,25.2,3,3.38,V*2B
$PGRME,3.0,M,3.0,M,4.3,M*29
$IIMWV,297,R,07.7,N,A*1F
$IIMWV,265,T,07.0,N,A*13
$HCHDG,316.1,0.0,E,,*2C
$YXXDR,A,5.5,D,PTCH,A,2.8,D,ROLL*57
$PTAK,FFD1,2.8*5F
$GPRMC,165256.6,A,4715.97341,N,12226.36718,W,003.83,334.7,100813,016.5,E,A*21
$PGRME,3.0,M,3.0,M,4.3,M*29
$HCHDG,316.1,0.0,E,,*2C
$HCHDG,316.2,0.0,E,,*2F
$HCHDG,316.0,0.0,E,,*2D
$GPRMC,165256.8,A,4715.97355,N,12226.36737,W,003.79,335.5,100813,016.5,E,A*21
$PGRME,3.0,M,3.0,M,4.3,M*29
$HCHDG,316.0,0.0,E,,*2D
$IIRMB,A,,,,Shil,,,,,025.2,003,,V,A*2D
$HCHDG,316.1,0.0,E,,*2C
$GPRMC,165257.0,A,4715.97381,N,12226.36746,W,003.77,333.5,100813,016.5,E,A*2F
$PGRME,3.0,M,3.0,M,4.3,M*29
$YXXDR,A,5.5,D,PTCH,A,2.7,D,ROLL*58
$IIRMC,165200,A,4715.972,N,12226.366,W,03.8,335,100813,16,E,A*11
$HCHDG,316.2,0.0,E,,*2F
$IIVHW,,,,,03.8,N,,*12
$HCHDG,316.2,0.0,E,,*2F
$GPRMC,165257.2,A,4715.97405,N,12226.36772,W,003.81,333.5,100813,016.5,E,A*28
$IIVLW,02061,N,000.0,N*56
$PGRME,3.0,M,3.0,M,4.3,M*29
$IIVWR,063,L,07.7,N,,,,*7A
$HCHDG,316.5,0.0,E,,*28
$IIDPT,000.8,-1.0,*48
$HCHDG,316.3,0.0,E,,*2E
$IIGLL,4715.972,N,12226.366,W,165200,A,A*4F
$GPRMC,165257.4,A,4715.97418,N,12226.36802,W,003.79,334.3,100813,016.5,E,A*2C
$GPRMB,A,-1.21,L,,Shil,4741.0830,N,12224.5670,W,25.2,3,3.33,V*20
$PGRME,3.0,M,3.0,M,4.3,M*29
$IIMTW,+15.5,C*39
$HCHDG,316.3,0.0,E,,*2E
$IIMWV,297,R,07.7,N,A*1F
$YXXDR,A,5.3,D,PTCH,A,2.8,D,ROLL*51
$PTAK,FFD1,2.8*5F
$GPRMC,165257.6,A,4715.97438,N,12226.36820,W,003.81,333.3,100813,016.5,E,A*2C
$PGRME,3.0,M,3.0,M,4.3,M*29
$HCHDG,316.4,0.0,E,,*29
$HCHDG,316.3,0.0,E,,*2E
$HCHDG,316.2,0.0,E,,*2F
$GPRMC,165257.8,A,4715.97460,N,12226.36834,W,003.81,333.9,100813,016.5,E,A*20
$PGRME,3.0,M,3.0,M,4.3,M*29
$HCHDG,316.3,0.0,E,,*2E
$IIMWV,267,T,06.8,N,A*18
$HCHDG,316.2,0.0,E,,*2F
$GPRMC,165258.0,A,4715.97480,N,12226.36857,W,003.80,334.2,100813,016.5,E,A*21
$PGRME,3.0,M,3.0,M,4.3,M*29
$IIRMB,A,,,,Shil,,,,,025.2,003,,V,A*2D
$YXXDR,A,5.4,D,PTCH,A,3.0,D,ROLL*5F
$HCHDG,316.1,0.0,E,,*2C
$IIRMC,165200,A,4715.973,N,12226.367,W,03.7,333,100813,16,E,A*18
$HCHDG,316.2,0.0,E,,*2F
$IIVHW,,,,,03.8,N,,*12
$GPRMC,165258.2,A,4715.97502,N,12226.36882,W,003.76,333.6,100813,016.5,E,A*2A
$PGRME,3.0,M,3.0,M,4.3,M*29
$IIVLW,02061,N,000.0,N*56
$HCHDG,316.2,0.0,E,,*2F
$IIVWR,062,L,07.4,N,,,,*78
$IIDPT,000.8,-1.0,*48
$HCHDG,316.3,0.0,E,,*2E
$GPRMC,165258.4,A,4715.97522,N,12226.36902,W,003.76,334.5,100813,016.5,E,A*23
$PTAK,FFP1,HEEL,@*07
$PGRME,3.0,M,3.0,M,4.3,M*29
$IIGLL,4715.973,N,12226.367,W,165200,A,A*4F
$HCHDG,316.2,0.0,E,,*2F
$IIMTW,+15.5,C*39
$YXXDR,A,5.4,D,PTCH,A,3.0,D,ROLL*5F
$GPRMC,165258.6,A,4715.97538,N,12226.36913,W,003.77,335.5,100813,016.5,E,A*2A
$GPRMB,A,-1.21,L,,Shil,4741.0830,N,12224.5670,W,25.2,3,3.35,V*26
$PGRME,3.0,M,3.0,M,4.3,M*29
$HCHDG,316.2,0.0,E,,*2F
$HCHDG,316.0,0.0,E,,*2D
$HCHDG,316.1,0.0,E,,*2C
$GPRMC,165258.8,A,4715.97551,N,12226.36935,W,003.78,334.4,100813,016.5,E,A*20
$PGRME,3.0,M,3.0,M,4.3,M*29
$HCHDG,316.3,0.0,E,,*2E
$IIMWV,298,R,07.3,N,A*14
$IIMWV,266,T,06.5,N,A*14
$HCHDG,316.2,0.0,E,,*2F
$GPRMC,165259.0,A,4715.97568,N,12226.36949,W,003.81,334.7,100813,016.5,E,A*2D
$PGRME,3.0,M,3.0,M,4.3,M*29
$IIRMB,A,,,,Shil,,,,,025.2,003,,V,A*2D
$YXXDR,A,5.4,D,PTCH,A,3.3,D,ROLL*5C
$PTAK,FFD1,3.3*55
$HCHDG,316.3,0.0,E,,*2E
$HCHDG,316.2,0.0,E,,*2F
$GPRMC,165259.2,A,4715.97588,N,12226.36971,W,003.80,334.3,100813,016.5,E,A*2F
$IIRMC,165200,A,4715.974,N,12226.368,W,03.8,334,100813,16,E,A*18
$PGRME,3.0,M,3.0,M,4.3,M*29
$IIVHW,,,,,03.6,N,,*1C
$HCHDG,316.3,0.0,E,,*2E
$IIVLW,02061,N,000.0,N*56
$IIVWR,062,L,07.3,N,,,,*7F
$HCHDG,316.3,0.0,E,,*2E
$GPRMC,165259.4,A,4715.97605,N,12226.36979,W,003.81,334.7,100813,016.5,E,A*22
$PGRME,3.0,M,3.0,M,4.3,M*29
$IIDPT,000.8,-1.0,*48
$HCHDG,316.5,0.0,E,,*28
$YXXDR,A,5.6,D,PTCH,A,3.8,D,ROLL*55
$GPRMC,165259.6,A,4715.97619,N,12226.36989,W,003.79,334.3,100813,016.5,E,A*21
$GPRMB,A,-1.21,L,,Shil,4741.0830,N,12224.5670,W,25.2,3,3.33,V*20
$PGRME,3.0,M,3.0,M,4.3,M*29
$HCHDG,316.4,0.0,E,,*29
$HCHDG,316.4,0.0,E,,*29
$HCHDG,316.4,0.0,E,,*29
$GPRMC,165259.8,A,4715.97633,N,12226.37004,W,003.78,334.4,100813,016.5,E,A*2C
$PGRME,3.0,M,3.0,M,4.3,M*29
$HCHDG,316.4,0.0,E,,*29
$IIGLL,4715.974,N,12226.368,W,165200,A,A*47
$HCHDG,316.5,0.0,E,,*28
$GPRMC,165300.0,A,4715.97645,N,12226.37018,W,003.80,333.7,100813,016.5,E,A*26
$PGRME,3.0,M,3.0,M,4.3,M*29
$IIMTW,+15.5,C*39
$IIMWV,297,R,07.0,N,A*18
$YXXDR,A,5.5,D,PTCH,A,3.7,D,ROLL*59
$IIMWV,268,T,06.4,N,A*1B
$HCHDG,316.3,0.0,E,,*2E
$HCHDG,316.3,0.0,E,,*2E
$IIRMB,A,,,,Shil,,,,,025.2,003,,V,A*2D
$GPRMC,165300.2,A,4715.97658,N,12226.37032,W,003.79,335.4,100813,016.5,E,A*23
$PGRME,3.0,M,3.0,M,4.3,M*29
$HCHDG,316.1,0.0,E,,*2C
$IIRMC,165200,A,4715.974,N,12226.368,W,03.8,334,100813,16,E,A*18
$IIVHW,,,,,03.3,N,,*19
$HCHDG,316.1,0.0,E,,*2C
$GPRMC,165300.4,A,4715.97677,N,12226.37045,W,003.80,334.1,100813,016.5,E,A*2A
$PGRME,3.0,M,3.0,M,4.3,M*29
$IIVLW,02061,N,000.0,N*56
$HCHDG,316.0,0.0,E,,*2D
$YXXDR,A,5.2,D,PTCH,A,3.7,D,ROLL*5E
$PTAK,FFD1,3.7*51
$GPRMC,165300.6,A,4715.97701,N,12226.37061,W,003.84,335.6,100813,016.5,E,A*2C
$GPRMB,A,-1.22,L,,Shil,4741.0830,N,12224.5670,W,25.2,3,3.42,V*25
$PGRME,3.0,M,3.0,M,4.3,M*29
$HCHDG,316.3,0.0,E,,*2E
$HCHDG,316.3,0.0,E,,*2E
$HCHDG,316.2,0.0,E,,*2F
$GPRMC,165300.8,A,4715.97724,N,12226.37067,W,003.84,335.0,100813,016.5,E,A*25
$PGRME,3.0,M,3.0,M,4.3,M*29
$HCHDG,316.1,0.0,E,,*2C
$IIVWR,062,L,06.6,N,,,,*7B
$IIDPT,000.8,-1.0,*48
$HCHDG,316.1,0.0,E,,*2C
$GPRMC,165301.0,A,4715.97748,N,12226.37077,W,003.83,333.9,100813,016.5,E,A*2F
$PGRME,3.0,M,3.0,M,4.3,M*29
$YXXDR,A,5.5,D,PTCH,A,3.7,D,ROLL*59
$IIGLL,4715.976,N,12226.370,W,165300,A,A*4D
$IIMTW,+15.5,C*39
$HCHDG,316.1,0.0,E,,*2C
$IIMWV,298,R,06.6,N,A*10
$HCHDG,315.9,0.0,E,,*27
$GPRMC,165301.2,A,4715.97767,N,12226.37095,W,003.82,334.9,100813,016.5,E,A*2A
$PGRME,3.0,M,3.0,M,4.3,M*29
$IIMWV,267,T,06.2,N,A*12
$HCHDG,315.9,0.0,E,,*27
$IIRMB,A,,,,Shil,,,,,025.2,003,,V,A*2D
$HCHDG,316.1,0.0,E,,*2C
$GPRMC,165301.4,A,4715.97783,N,12226.37106,W,003.81,334.4,100813,016.5,E,A*23
$PGRME,3.0,M,3.0,M,4.3,M*29
$IIRMC,165300,A,4715.976,N,12226.370,W,03.8,333,100813,16,E,A*15
$HCHDG,316.1,0.0,E,,*2C
$YXXDR,A,5.4,D,PTCH,A,3.5,D,ROLL*5A
$PTAK,FFD1,3.5*53
$GPRMC,165301.6,A,4715.97807,N,12226.37123,W,003.84,334.1,100813,016.5,E,A*25
$GPRMB,A,-1.22,L,,Shil,4741.0830,N,12224.5670,W,25.2,3,3.37,V*27
$PGRME,3.0,M,3.0,M,4.3,M*29
$HCHDG,316.3,0.0,E,,*2E
$HCHDG,316.1,0.0,E,,*2C
$HCHDG,316.1,0.0,E,,*2C
$GPRMC,165301.8,A,4715.97825,N,12226.37144,W,003.84,335.0,100813,016.5,E,A*2A
$PGRME,3.0,M,3.0,M,4.3,M*29
$HCHDG,316.1,0.0,E,,*2C
$IIVHW,,,,,03.3,N,,*19
$IIVLW,02061,N,000.1,N*57
$HCHDG,316.0,0.0,E,,*2D
$GPRMC,165302.0,A,4715.97844,N,12226.37162,W,003.86,332.9,100813,016.5,E,A*2E
$PGRME,3.0,M,3.0,M,4.3,M*29
$IIVWR,066,L,06.8,N,,,,*71
$YXXDR,A,5.6,D,PTCH,A,2.9,D,ROLL*55
$IIDPT,000.8,-1.0,*48
$HCHDG,316.0,0.0,E,,*2D
$IIGLL,4715.977,N,12226.370,W,165300,A,A*4C
$HCHDG,316.1,0.0,E,,*2C
$GPRMC,165302.2,A,4715.97867,N,12226.37173,W,003.85,332.8,100813,016.5,E,A*2F
$PGRME,3.0,M,3.0,M,4.3,M*29
$IIMTW,+15.5,C*39
$IIMWV,294,R,06.8,N,A*12
$HCHDG,316.0,0.0,E,,*2D
$IIMWV,267,T,05.8,N,A*1B
$HCHDG,315.9,0.0,E,,*27
$GPRMC,165302.4,A,4715.97894,N,12226.37192,W,003.82,332.6,100813,016.5,E,A*23
$PTAK,FFP1,HEEL,@*07
$PGRME,3.0,M,3.0,M,4.3,M*29
$IIRMB,A,,,,Shil,,,,,025.2,003,,V,A*2D
$HCHDG,316.0,0.0,E,,*2D
$YXXDR,A,5.4,D,PTCH,A,2.2,D,ROLL*5C
$GPRMC,165302.6,A,4715.97918,N,12226.37209,W,003.78,332.1,100813,016.5,E,A*27
$PGRME,3.0,M,3.0,M,4.3,M*29
$HCHDG,315.9,0.0,E,,*27
$HCHDG,316.0,0.0,E,,*2D
$HCHDG,316.0,0.0,E,,*2D
$GPRMC,165302.8,A,4715.97939,N,12226.37224,W,003.76,334.7,100813,016.5,E,A*2B
$GPRMB,A,-1.22,L,,Shil,4741.0830,N,12224.5670,W,25.2,3,3.32,V*22
$PGRME,3.0,M,3.0,M,4.3,M*29
$HCHDG,315.9,0.0,E,,*27
$HCHDG,315.9,0.0,E,,*27
$GPRMC,165303.0,A,4715.97963,N,12226.37247,W,003.76,332.8,100813,016.5,E,A*21
$PGRME,3.0,M,3.0,M,4.3,M*29
$IIRMC,165300,A,4715.978,N,12226.371,W,03.8,332,100813,16,E,A*1B
$IIVHW,,,,,03.2,N,,*18
$YXXDR,A,5.2,D,PTCH,A,1.2,D,ROLL*59
$PTAK,FFD1,1.2*56
$IIVLW,02061,N,000.1,N*57
$HCHDG,315.8,0.0,E,,*26
$IIVWR,067,L,06.9,N,,,,*71
$HCHDG,315.9,0.0,E,,*27
$GPRMC,165303.2,A,4715.97981,N,12226.37264,W,003.77,334.6,100813,016.5,E,A*27
$PGRME,3.0,M,3.0,M,4.3,M*29
$IIDPT,000.8,-1.0,*48
$HCHDG,315.9,0.0,E,,*27
$IIGLL,4715.978,N,12226.371,W,165300,A,A*42
$IIMTW,+15.5,C*39
$HCHDG,316.0,0.0,E,,*2D
$GPRMC,165303.4,A,4715.98002,N,12226.37281,W,003.79,333.9,100813,016.5,E,A*21
$PGRME,3.0,M,3.0,M,4.3,M*29
$IIMWV,293,R,06.9,N,A*14
$IIMWV,263,T,06.1,N,A*15
$HCHDG,315.9,0.0,E,,*27
$YXXDR,A,5.2,D,PTCH,A,1.0,D,ROLL*5B
$GPRMC,165303.6,A,4715.98023,N,12226.37299,W,003.81,334.8,100813,016.5,E,A*28
$PGRME,3.0,M,3.0,M,4.3,M*29
$HCHDG,315.9,0.0,E,,*27
$HCHDG,315.9,0.0,E,,*27
$HCHDG,315.9,0.0,E,,*27
$GPRMC,165303.8,A,4715.98050,N,12226.37314,W,003.82,334.3,100813,016.5,E,A*2E
$PGRME,3.0,M,3.0,M,4.3,M*29
$HCHDG,316.1,0.0,E,,*2C
$IIRMB,A,,,,Shil,,,,,025.2,003,,V,A*2D
$HCHDG,315.9,0.0,E,,*27
$GPRMC,165304.0,A,4715.98071,N,12226.37329,W,003.82,332.9,100813,016.5,E,A*20
$GPRMB,A,-1.22,L,,Shil,4741.0830,N,12224.5670,W,25.1,3,3.31,V*22
$PGRME,3.0,M,3.0,M,4.3,M*29
$YXXDR,A,5.1,D,PTCH,A,0.7,D,ROLL*5E
$PTAK,FFD1,0.7*52
$IIRMC,165300,A,4715.979,N,12226.372,W,03.7,332,100813,16,E,A*16
$HCHDG,315.9,0.0,E,,*27
$IIVHW,,,,,03.3,N,,*19
$HCHDG,315.8,0.0,E,,*26
$GPRMC,165304.2,A,4715.98096,N,12226.37337,W,003.81,334.2,100813,016.5,E,A*2A
$IIVLW,02061,N,000.1,N*57
$PGRME,3.0,M,3.0,M,4.3,M*29
$IIVWR,065,L,07.0,N,,,,*7B
$HCHDG,316.0,0.0,E,,*2D
$IIDPT,000.8,-1.0,*48
$HCHDG,316.0,0.0,E,,*2D
$IIGLL,4715.979,N,12226.372,W,165300,A,A*40
$GPRMC,165304.4,A,4715.98116,N,12226.37344,W,003.77,336.3,100813,016.5,E,A*2B
$PGRME,3.0,M,3.0,M,4.3,M*29
$IIMTW,+15.5,C*39
$HCHDG,316.0,0.0,E,,*2D
$IIMWV,295,R,07.0,N,A*1A
$YXXDR,A,5.1,D,PTCH,A,1.4,D,ROLL*5C
$GPRMC,165304.6,A,4715.98132,N,12226.37362,W,003.75,334.5,100813,016.5,E,A*2D
$PGRME,3.0,M,3.0,M,4.3,M*29
$HCHDG,315.9,0.0,E,,*27
$HCHDG,315.9,0.0,E,,*27
$HCHDG,315.8,0.0,E,,*26
$GPRMC,165304.8,A,4715.98142,N,12226.37382,W,003.74,336.8,100813,016.5,E,A*24
$PGRME,3.0,M,3.0,M,4.3,M*29
$HCHDG,315.7,0.0,E,,*29
$IIMWV,266,T,06.3,N,A*12
$HCHDG,315.8,0.0,E,,*26
$GPRMC,165305.0,A,4715.98153,N,12226.37391,W,003.75,335.4,100813,016.5,E,A*21
$PGRME,3.0,M,3.0,M,4.3,M*29
$IIRMB,A,,,,Shil,,,,,025.1,003,,V,A*2E
$YXXDR,A,5.2,D,PTCH,A,1.6,D,ROLL*5D
$HCHDG,316.0,0.0,E,,*2D
$IIRMC,165300,A,4715.980,N,12226.373,W,03.8,332,100813,16,E,A*1E
$HCHDG,315.9,0.0,E,,*27
$IIVHW,,,,,03.2,N,,*18
$GPRMC,165305.2,A,4715.98170,N,12226.37411,W,003.80,332.6,100813,016.5,E,A*22
$GPRMB,A,-1.22,L,,Shil,4741.0830,N,12224.5670,W,25.1,3,3.29,V*2B
$PGRME,3.0,M,3.0,M,4.3,M*29
$IIVLW,02061,N,000.1,N*57
$HCHDG,315.9,0.0,E,,*27
$IIVWR,061,L,06.9,N,,,,*77
$IIDPT,000.8,-1.0,*48
$HCHDG,315.7,0.0,E,,*29
$GPRMC,165305.4,A,4715.98193,N,12226.37430,W,003.81,334.1,100813,016.5,E,A*2A
$PGRME,3.0,M,3.0,M,4.3,M*29
$IIGLL,4715.980,N,12226.373,W,165300,A,A*47
$HCHDG,315.8,0.0,E,,*26
$IIMTW,+15.5,C*39
$YXXDR,A,5.1,D,PTCH,A,2.0,D,ROLL*5B
$PTAK,FFD1,2.0*57
$GPRMC,165305.6,A,4715.98221,N,12226.37444,W,003.84,333.9,100813,016.5,E,A*2B
$PGRME,3.0,M,3.0,M,4.3,M*29
$HCHDG,315.8,0.0,E,,*26
$HCHDG,315.7,0.0,E,,*29
$HCHDG,315.9,0.0,E,,*27
$GPRMC,165305.8,A,4715.98242,N,12226.37452,W,003.83,335.7,100813,016.5,E,A*28
$PGRME,3.0,M,3.0,M,4.3,M*29
$HCHDG,315.9,0.0,E,,*27
$IIMWV,299,R,06.8,N,A*1F
$IIMWV,270,T,06.0,N,A*16
$HCHDG,315.7,0.0,E,,*29
$GPRMC,165306.0,A,4715.98262,N,12226.37471,W,003.81,336.2,100813,016.5,E,A*24
$PGRME,3.0,M,3.0,M,4.3,M*29
$IIRMB,A,,,,Shil,,,,,025.1,003,,V,A*2E
$YXXDR,A,5.2,D,PTCH,A,2.1,D,ROLL*59
$HCHDG,315.8,0.0,E,,*26
$HCHDG,315.7,0.0,E,,*29
$GPRMC,165306.2,A,4715.98284,N,12226.37483,W,003.83,333.4,100813,016.5,E,A*22
$IIRMC,165300,A,4715.981,N,12226.373,W,03.7,335,100813,16,E,A*17
$PGRME,3.0,M,3.0,M,4.3,M*29
$IIVHW,,,,,03.5,N,,*1F
$HCHDG,315.9,0.0,E,,*27
$IIVLW,02061,N,000.1,N*57
$IIVWR,061,L,06.8,N,,,,*76
$HCHDG,315.9,0.0,E,,*27
$GPRMC,165306.4,A,4715.98309,N,12226.37495,W,003.87,335.2,100813,016.5,E,D*26
$GPRMB,A,-1.22,L,,Shil,4741.0830,N,12224.5670,W,25.1,3,3.43,V*27
$PTAK,FFP1,HEEL,@*07
$IIDPT,000.8,-1.0,*48
$PGRME,2.4,M,2.4,M,3.4,M*29
$HCHDG,315.8,0.0,E,,*26
$YXXDR,A,5.0,D,PTCH,A,1.9,D,ROLL*50
$PTAK,FFD1,1.9*5D
$GPRMC,165306.6,A,4715.98329,N,12226.37511,W,003.89,334.7,100813,016.5,E,D*21
$PGRME,2.4,M,2.4,M,3.4,M*29
$HCHDG,315.8,0.0,E,,*26
$HCHDG,316.0,0.0,E,,*2D
$HCHDG,315.6,0.0,E,,*28
$GPRMC,165306.8,A,4715.98351,N,12226.37528,W,003.91,332.6,100813,016.5,E,D*24
$PGRME,2.4,M,2.4,M,3.4,M*29
$HCHDG,315.6,0.0,E,,*28
$IIGLL,4715.982,N,12226.374,W,165300,A,A*42
$HCHDG,315.6,0.0,E,,*28
$IIMTW,+15.5,C*39
$GPRMC,165307.0,A,4715.98372,N,12226.37550,W,003.90,333.8,100813,016.5,E,D*2D
$PGRME,2.4,M,2.4,M,3.4,M*29
$IIMWV,299,R,07.0,N,A*16
$YXXDR,A,5.0,D,PTCH,A,1.2,D,ROLL*5B
$IIMWV,267,T,05.9,N,A*1A
$HCHDG,315.7,0.0,E,,*29
$HCHDG,315.8,0.0,E,,*26
$IIRMB,A,,,,Shil,,,,,025.1,003,,V,A*2E
$GPRMC,165307.2,A,4715.98397,N,12226.37571,W,003.88,335.3,100813,016.5,E,D*23
$PGRME,2.4,M,2.4,M,3.4,M*29
$HCHDG,315.7,0.0,E,,*29
$IIRMC,165300,A,4715.982,N,12226.374,W,03.8,336,100813,16,E,A*1F
$IIVHW,,,,,03.4,N,,*1E
$HCHDG,315.8,0.0,E,,*26
$GPRMC,165307.4,A,4715.98418,N,12226.37585,W,003.86,333.5,100813,016.5,E,D*20
$GPRMB,A,-1.22,L,,Shil,4741.0830,N,12224.5670,W,25.1,3,3.37,V*24
$PGRME,2.4,M,2.4,M,3.4,M*29
$IIVLW,02061,N,000.1,N*57
$HCHDG,315.8,0.0,E,,*26
$YXXDR,A,5.1,D,PTCH,A,1.1,D,ROLL*59
$PTAK,FFD1,1.1*55
$GPRMC,165307.6,A,4715.98442,N,12226.37603,W,003.84,334.3,100813,016.5,E,D*23
$PGRME,2.4,M,2.4,M,3.4,M*29
$HCHDG,315.7,0.0,E,,*29
$HCHDG,315.8,0.0,E,,*26
$HCHDG,315.6,0.0,E,,*28
$GPRMC,165307.8,A,4715.98467,N,12226.37612,W,003.84,334.8,100813,016.5,E,D*21
$PGRME,2.4,M,2.4,M,3.4,M*29
$HCHDG,315.7,0.0,E,,*29
$IIVWR,059,L,07.2,N,,,,*76
$IIDPT,000.8,-1.0,*48
$HCHDG,315.5,0.0,E,,*2B
$GPRMC,165308.0,A,4715.98494,N,12226.37626,W,003.84,336.0,100813,016.5,E,D*27
$PGRME,2.4,M,2.4,M,3.4,M*29
$YXXDR,A,5.1,D,PTCH,A,0.9,D,ROLL*50
$IIGLL,4715.983,N,12226.375,W,165300,A,A*42
$IIMTW,+15.5,C*39
$HCHDG,315.6,0.0,E,,*28
$IIMWV,301,R,07.2,N,A*14
$HCHDG,315.9,0.0,E,,*27
$GPRMC,165308.2,A,4715.98520,N,12226.37638,W,003.84,334.4,100813,016.5,E,D*22
$IIMWV,268,T,06.0,N,A*1F
$PGRME,2.4,M,2.4,M,3.4,M*29
$HCHDG,315.9,0.0,E,,*27
$IIRMB,A,,,,Shil,,,,,025.1,003,,V,A*2E
$HCHDG,315.7,0.0,E,,*29
$GPRMC,165308.4,A,4715.98543,N,12226.37646,W,003.85,334.3,100813,016.5,E,D*2E
$PGRME,2.4,M,2.4,M,3.4,M*29
$IIRMC,165300,A,4715.983,N,12226.375,W,03.9,333,100813,16,E,A*1B
$HCHDG,316.0,0.0,E,,*2D
$YXXDR,A,5.2,D,PTCH,A,1.3,D,ROLL*58
$GPRMC,165308.6,A,4715.98565,N,12226.37663,W,003.86,334.5,100813,016.5,E,D*2A
$GPRMB,A,-1.22,L,,Shil,4741.0830,N,12224.5670,W,25.1,3,3.40,V*24
$PGRME,2.4,M,2.4,M,3.4,M*29
$HCHDG,315.9,0.0,E,,*27
$HCHDG,315.8,0.0,E,,*26
$HCHDG,315.8,0.0,E,,*26
$GPRMC,165308.8,A,4715.98586,N,12226.37679,W,003.84,337.5,100813,016.5,E,D*23
$PGRME,2.4,M,2.4,M,3.4,M*29
$HCHDG,315.6,0.0,E,,*28
$IIVHW,,,,,03.5,N,,*1F
$IIVLW,02061,N,000.1,N*57
$HCHDG,315.5,0.0,E,,*2B
$GPRMC,165309.0,A,4715.98600,N,12226.37700,W,003.81,337.2,100813,016.5,E,D*2A
$PGRME,2.4,M,2.4,M,3.4,M*29
$IIVWR,057,L,07.3,N,,,,*79
$YXXDR,A,5.0,D,PTCH,A,1.6,D,ROLL*5F
$PTAK,FFD1,1.6*52
$IIDPT,000.8,-1.0,*48
$HCHDG,315.7,0.0,E,,*29
$IIGLL,4715.984,N,12226.376,W,165300,A,A*46
$HCHDG,315.6,0.0,E,,*28
$GPRMC,165309.2,A,4715.98624,N,12226.37717,W,003.80,336.9,100813,016.5,E,D*23
$IIMTW,+15.5,C*39
$PGRME,2.4,M,2.4,M,3.4,M*29
$IIMWV,303,R,07.3,N,A*17
$HCHDG,315.5,0.0,E,,*2B
$IIMWV,274,T,06.1,N,A*13
$HCHDG,315.5,0.0,E,,*2B
$IIRMB,A,,,,Shil,,,,,025.1,003,,V,A*2E
$GPRMC,165309.4,A,4715.98646,N,12226.37733,W,003.81,336.7,100813,016.5,E,D*28
$PGRME,2.4,M,2.4,M,3.4,M*29
$HCHDG,315.5,0.0,E,,*2B
$YXXDR,A,5.1,D,PTCH,A,2.2,D,ROLL*59
$GPRMC,165309.6,A,4715.98668,N,12226.37744,W,003.84,334.7,100813,016.5,E,D*21
$GPRMB,A,-1.22,L,,Shil,4741.0830,N,12224.5670,W,25.1,3,3.39,V*2A
$PGRME,2.4,M,2.4,M,3.4,M*29
$HCHDG,315.6,0.0,E,,*28
$HCHDG,315.5,0.0,E,,*2B
$HCHDG,315.6,0.0,E,,*28
$GPRMC,165309.8,A,4715.98687,N,12226.37756,W,003.86,333.8,100813,016.5,E,D*27
$PGRME,2.4,M,2.4,M,3.4,M*29
$HCHDG,315.6,0.0,E,,*28
$HCHDG,315.6,0.0,E,,*28
$GPRMC,165310.0,A,4715.98706,N,12226.37766,W,003.87,333.7,100813,016.5,E,D*22
$IIRMC,165300,A,4715.986,N,12226.377,W,03.8,337,100813,16,E,A*19
$PGRME,2.4,M,2.4,M,3.4,M*29
$IIVHW,,,,,03.5,N,,*1F
$YXXDR,A,5.2,D,PTCH,A,3.6,D,ROLL*5F
$PTAK,FFD1,3.6*50
$IIVLW,02061,N,000.1,N*57
$HCHDG,315.6,0.0,E,,*28
$IIVWR,055,L,07.2,N,,,,*7A
$HCHDG,315.6,0.0,E,,*28
$GPRMC,165310.2,A,4715.98724,N,12226.37759,W,003.87,332.7,100813,016.5,E,D*2D
$PGRME,2.4,M,2.4,M,3.4,M*29
$IIDPT,000.8,-1.0,*48
$HCHDG,315.8,0.0,E,,*26
$IIGLL,4715.986,N,12226.377,W,165300,A,A*45
$IIMTW,+15.5,C*39
$HCHDG,315.8,0.0,E,,*26
$GPRMC,165310.4,A,4715.98744,N,12226.37771,W,003.87,333.7,100813,016.5,E,D*26
$IIMWV,305,R,07.2,N,A*10
$PTAK,FFP1,HEEL,@*07
$PGRME,2.4,M,2.4,M,3.4,M*29
$IIMWV,274,T,06.1,N,A*13
$HCHDG,315.9,0.0,E,,*27
$YXXDR,A,5.1,D,PTCH,A,3.4,D,ROLL*5E
$GPRMC,165310.6,A,4715.98763,N,12226.37791,W,003.88,334.0,100813,016.5,E,D*20
$GPRMB,A,-1.22,L,,Shil,4741.0830,N,12224.5670,W,25.1,3,3.40,V*24
$PGRME,2.4,M,2.4,M,3.4,M*29
$HCHDG,315.8,0.0,E,,*26
$HCHDG,315.8,0.0,E,,*26
$HCHDG,315.8,0.0,E,,*26
$GPRMC,165310.8,A,4715.98787,N,12226.37807,W,003.88,333.3,100813,016.5,E,D*20
$PGRME,2.4,M,2.4,M,3.4,M*29
$HCHDG,315.9,0.0,E,,*27
$IIRMB,A,,,,Shil,,,,,025.1,003,,V,A*2E
$HCHDG,315.9,0.0,E,,*27
$GPRMC,165311.0,A,4715.98802,N,12226.37831,W,003.88,334.1,100813,016.5,E,D*2B
$PGRME,2.4,M,2.4,M,3.4,M*29
$YXXDR,A,5.1,D,PTCH,A,3.1,D,ROLL*5B
$IIRMC,165300,A,4715.987,N,12226.377,W,03.8,333,100813,16,E,A*1C
$HCHDG,315.9,0.0,E,,*27
$IIVHW,,,,,03.7,N,,*1D
$HCHDG,315.9,0.0,E,,*27
$IIVLW,02061,N,000.1,N*57
$GPRMC,165311.2,A,4715.98823,N,12226.37858,W,003.87,333.4,100813,016.5,E,D*28
$PGRME,2.4,M,2.4,M,3.4,M*29
$IIVWR,056,L,07.2,N,,,,*79
$HCHDG,315.9,0.0,E,,*27
$IIDPT,000.8,-1.0,*48
$HCHDG,316.0,0.0,E,,*2D
$IIGLL,4715.987,N,12226.377,W,165300,A,A*44
$GPRMC,165311.4,A,4715.98845,N,12226.37872,W,003.87,334.1,100813,016.5,E,D*24
$PGRME,2.4,M,2.4,M,3.4,M*29
$IIMTW,+15.5,C*39
$HCHDG,315.9,0.0,E,,*27
$IIMWV,304,R,07.2,N,A*11
$YXXDR,A,5.1,D,PTCH,A,2.9,D,ROLL*52
$PTAK,FFD1,2.9*5E
$GPRMC,165311.6,A,4715.98868,N,12226.37881,W,003.86,335.0,100813,016.5,E,D*24
$GPRMB,A,-1.22,L,,Shil,4741.0830,N,12224.5670,W,25.1,3,3.42,V*26
$HCHDG,316.1,0.0,E,,*2C
$PGRME,2.4,M,2.4,M,3.4,M*29
$HCHDG,316.0,0.0,E,,*2D
$HCHDG,315.9,0.0,E,,*27
$GPRMC,165311.8,A,4715.98897,N,12226.37892,W,003.87,334.1,100813,016.5,E,D*29
$PGRME,2.4,M,2.4,M,3.4,M*29
$HCHDG,315.9,0.0,E,,*27
$IIMWV,272,T,05.9,N,A*1E
$HCHDG,316.0,0.0,E,,*2D
$IIRMB,A,,,,Shil,,,,,025.1,003,,V,A*2E
$GPRMC,165312.0,A,4715.98920,N,12226.37900,W,003.88,333.5,100813,016.5,E,D*29
$PGRME,2.4,M,2.4,M,3.4,M*29
$YXXDR,A,5.1,D,PTCH,A,2.8,D,ROLL*53
$HCHDG,316.0,0.0,E,,*2D
$IIRMC,165300,A,4715.988,N,12226.378,W,03.8,334,100813,16,E,A*1B
$HCHDG,316.0,0.0,E,,*2D
$IIVHW,,,,,03.7,N,,*1D
$GPRMC,165312.2,A,4715.98938,N,12226.37903,W,003.88,333.9,100813,016.5,E,D*2D
$PGRME,2.4,M,2.4,M,3.4,M*29
$IIVLW,02061,N,000.1,N*57
$HCHDG,316.0,0.0,E,,*2D
$IIVWR,058,L,07.6,N,,,,*73
$IIDPT,000.8,-1.0,*48
$HCHDG,316.0,0.0,E,,*2D
$GPRMC,165312.4,A,4715.98948,N,12226.37922,W,003.87,334.4,100813,016.5,E,D*2A
$PGRME,2.4,M,2.4,M,3.4,M*29
$IIGLL,4715.988,N,12226.378,W,165300,A,A*44
$HCHDG,316.1,0.0,E,,*2C
$IIMTW,+15.5,C*39
$YXXDR,A,5.2,D,PTCH,A,2.6,D,ROLL*5E
$GPRMC,165312.6,A,4715.98966,N,12226.37941,W,003.88,333.2,100813,016.5,E,D*2F
$HCHDG,316.3,0.0,E,,*2E
$PGRME,2.4,M,2.4,M,3.4,M*29
$HCHDG,316.1,0.0,E,,*2C
$HCHDG,316.0,0.0,E,,*2D
$GPRMC,165312.8,A,4715.98986,N,12226.37963,W,003.86,334.6,100813,016.5,E,D*22
$GPRMB,A,-1.22,L,,Shil,4741.0830,N,12224.5670,W,25.1,3,3.40,V*24
$PGRME,2.4,M,2.4,M,3.4,M*29
$HCHDG,316.0,0.0,E,,*2D
$IIMWV,302,R,07.6,N,A*13
$IIMWV,272,T,06.4,N,A*10
$HCHDG,316.0,0.0,E,,*2D
$GPRMC,165313.0,A,4715.99006,N,12226.37979,W,003.86,333.8,100813,016.5,E,D*29
$PGRME,2.4,M,2.4,M,3.4,M*29
$IIRMB,A,,,,Shil,,,,,025.1,003,,V,A*2E
$YXXDR,A,5.1,D,PTCH,A,2.4,D,ROLL*5F
$PTAK,FFD1,2.4*53
$HCHDG,316.1,0.0,E,,*2C
$HCHDG,315.9,0.0,E,,*27
$IIRMC,165300,A,4715.989,N,12226.379,W,03.8,333,100813,16,E,A*1C
$GPRMC,165313.2,A,4715.99021,N,12226.37995,W,003.86,334.7,100813,016.5,E,D*24
$PGRME,2.4,M,2.4,M,3.4,M*29
$IIVHW,,,,,03.8,N,,*12
$HCHDG,316.1,0.0,E,,*2C
$IIVLW,02061,N,000.1,N*57
$IIVWR,058,L,07.6,N,,,,*73
$HCHDG,316.0,0.0,E,,*2D
$GPRMC,165313.4,A,4715.99040,N,12226.38002,W,003.87,336.0,100813,016.5,E,D*29
$PGRME,2.4,M,2.4,M,3.4,M*29
$IIGLL,4715.989,N,12226.379,W,165300,A,A*44
$HCHDG,316.1,0.0,E,,*2C
$YXXDR,A,5.6,D,PTCH,A,2.0,D,ROLL*5C
$GPRMC,165313.6,A,4715.99060,N,12226.38008,W,003.88,336.2,100813,016.5,E,D*2E
$PGRME,2.4,M,2.4,M,3.4,M*29
$HCHDG,316.2,0.0,E,,*2F
$HCHDG,316.2,0.0,E,,*2F
$HCHDG,316.2,0.0,E,,*2F
$GPRMC,165313.8,A,4715.99074,N,12226.38014,W,003.91,336.8,100813,016.5,E,D*2A
$PGRME,2.4,M,2.4,M,3.4,M*29
$HCHDG,316.2,0.0,E,,*2F
$IIMTW,+15.5,C*39
$IIMWV,303,R,07.6,N,A*12
$HCHDG,316.2,0.0,E,,*2F
$GPRMC,165314.0,A,4715.99093,N,12226.38022,W,003.90,334.7,100813,016.5,E,D*25
$GPRMB,A,-1.22,L,,Shil,4741.0830,N,12224.5670,W,25.1,3,3.44,V*20
$IIMWV,272,T,06.4,N,A*10
$PGRME,2.4,M,2.4,M,3.4,M*29
$YXXDR,A,5.3,D,PTCH,A,2.4,D,ROLL*5D
$PTAK,FFD1,2.4*53
$IIRMB,A,,,,Shil,,,,,025.1,003,,V,A*2E
$HCHDG,316.1,0.0,E,,*2C
$HCHDG,316.0,0.0,E,,*2D
$GPRMC,165314.2,A,4715.99115,N,12226.38025,W,003.93,336.3,100813,016.5,E,D*2A
$PGRME,2.4,M,2.4,M,3.4,M*29
$IIRMC,165300,A,4715.990,N,12226.379,W,03.8,333,100813,16,E,A*14
$IIVHW,,,,,04.0,N,,*1D
$HCHDG,316.0,0.0,E,,*2D
$IIVLW,02061,N,000.1,N*57
$HCHDG,316.1,0.0,E,,*2C
$IIVWR,057,L,07.6,N,,,,*7C
$GPRMC,165314.4,A,4715.99133,N,12226.38033,W,003.91,335.9,100813,016.5,E,D*24
$PGRME,2.4,M,2.4,M,3.4,M*29
$HCHDG,316.0,0.0,E,,*2D
$PTAK,FFP1,HEEL,@*07
$YXXDR,A,5.1,D,PTCH,A,2.8,D,ROLL*53
$GPRMC,165314.6,A,4715.99149,N,12226.38053,W,003.90,337.2,100813,016.5,E,D*25
$PGRME,2.4,M,2.4,M,3.4,M*29
$HCHDG,315.9,0.0,E,,*27
$HCHDG,316.0,0.0,E,,*2D
$HCHDG,315.8,0.0,E,,*26
$GPRMC,165314.8,A,4715.99169,N,12226.38066,W,003.89,336.1,100813,016.5,E,D*25
$PGRME,2.4,M,2.4,M,3.4,M*29
$HCHDG,315.8,0.0,E,,*26
$IIGLL,4715.990,N,12226.380,W,165300,A,A*4A
$HCHDG,315.9,0.0,E,,*27
$IIMTW,+15.5,C*39
$GPRMC,165315.0,A,4715.99184,N,12226.38069,W,003.89,335.3,100813,016.5,E,D*21
$GPRMB,A,-1.22,L,,Shil,4741.0830,N,12224.5670,W,25.1,3,3.45,V*21
$PGRME,2.4,M,2.4,M,3.4,M*29
$IIMWV,303,R,07.6,N,A*12
$YXXDR,A,5.4,D,PTCH,A,3.1,D,ROLL*5E
$PTAK,FFD1,3.1*57
$IIMWV,271,T,06.3,N,A*14
$HCHDG,315.8,0.0,E,,*26
$IIRMB,A,,,,Shil,,,,,025.1,003,,V,A*2E
$HCHDG,315.9,0.0,E,,*27
$GPRMC,165315.2,A,4715.99196,N,12226.38078,W,003.88,333.9,100813,016.5,E,D*2D
$PGRME,2.4,M,2.4,M,3.4,M*29
$HCHDG,315.8,0.0,E,,*26
$IIRMC,165300,A,4715.990,N,12226.380,W,03.9,334,100813,16,E,A*14
$IIVHW,,,,,04.0,N,,*1D
$HCHDG,315.9,0.0,E,,*27
$GPRMC,165315.4,A,4715.99211,N,12226.38088,W,003.86,336.9,100813,016.5,E,D*23
$PGRME,2.4,M,2.4,M,3.4,M*29
$IIVLW,02061,N,000.1,N*57
$HCHDG,315.9,0.0,E,,*27
$YXXDR,A,5.4,D,PTCH,A,3.7,D,ROLL*58
$GPRMC,165315.6,A,4715.99235,N,12226.38094,W,003.87,336.4,100813,016.5,E,D*26
$PGRME,2.4,M,2.4,M,3.4,M*29
$HCHDG,315.8,0.0,E,,*26
$HCHDG,315.9,0.0,E,,*27
$HCHDG,316.0,0.0,E,,*2D
$GPRMC,165315.8,A,4715.99256,N,12226.38100,W,003.87,336.1,100813,016.5,E,D*24
$PGRME,2.4,M,2.4,M,3.4,M*29
$HCHDG,315.9,0.0,E,,*27
$IIVWR,059,L,07.6,N,,,,*72
$IIDPT,001.0,-1.0,*41
$HCHDG,316.0,0.0,E,,*2D
$GPRMC,165316.0,A,4715.99275,N,12226.38109,W,003.88,335.4,100813,016.5,E,D*2E
$PGRME,2.4,M,2.4,M,3.4,M*29
$IIGLL,4715.991,N,12226.380,W,165300,A,A*4B
$YXXDR,A,5.4,D,PTCH,A,3.7,D,ROLL*58
$IIMTW,+15.5,C*39
$HCHDG,315.7,0.0,E,,*29
$IIMWV,301,R,07.6,N,A*10
$HCHDG,315.6,0.0,E,,*28
$GPRMC,165316.2,A,4715.99306,N,12226.38124,W,003.91,335.9,100813,016.5,E,D*23
$GPRMB,A,-1.22,L,,Shil,4741.0830,N,12224.5670,W,25.1,3,3.49,V*2D
$IIMWV,271,T,06.3,N,A*14
$PGRME,2.4,M,2.4,M,3.4,M*29
$HCHDG,315.9,0.0,E,,*27
$IIRMB,A,,,,Shil,,,,,025.1,003,,V,A*2E
$HCHDG,316.0,0.0,E,,*2D
$GPRMC,165316.4,A,4715.99327,N,12226.38138,W,003.75,336.6,100813,016.5,E,D*2D
$PGRME,2.4,M,2.4,M,3.4,M*29
$IIRMC,165300,A,4715.991,N,12226.380,W,03.8,335,100813,16,E,A*15
$HCHDG,316.0,0.0,E,,*2D
$YXXDR,A,5.6,D,PTCH,A,4.0,D,ROLL*5A
$PTAK,FFD1,4.0*51
$GPRMC,165316.6,A,4715.99345,N,12226.38147,W,003.78,336.5,100813,016.5,E,D*2D
$PGRME,2.4,M,2.4,M,3.4,M*29
$HCHDG,316.1,0.0,E,,*2C
$HCHDG,316.2,0.0,E,,*2F
$HCHDG,316.1,0.0,E,,*2C
$GPRMC,165316.8,A,4715.99366,N,12226.38150,W,003.78,334.3,100813,016.5,E,D*20
$PGRME,2.4,M,2.4,M,3.4,M*29
$HCHDG,316.3,0.0,E,,*2E
$IIVHW,,,,,04.0,N,,*1D
$IIVLW,02061,N,000.1,N*57
$HCHDG,316.1,0.0,E,,*2C
$GPRMC,165317.0,A,4715.99391,N,12226.38148,W,003.85,335.6,100813,016.5,E,D*2E
$PGRME,2.4,M,2.4,M,3.4,M*29
$IIVWR,061,L,07.6,N,,,,*79
$YXXDR,A,5.6,D,PTCH,A,4.3,D,ROLL*59
$IIDPT,001.0,-1.0,*41
$HCHDG,316.2,0.0,E,,*2F
$IIGLL,4715.992,N,12226.381,W,165300,A,A*49
$HCHDG,316.1,0.0,E,,*2C
$GPRMC,165317.2,A,4715.99416,N,12226.38156,W,003.83,335.2,100813,016.5,E,D*29
$GPRMB,A,-1.22,L,,Shil,4741.0830,N,12224.5670,W,25.1,3,3.39,V*2A
$IIMTW,+15.5,C*39
$PGRME,2.4,M,2.4,M,3.4,M*29
$IIMWV,299,R,07.6,N,A*10
$HCHDG,316.0,0.0,E,,*2D
$IIMWV,269,T,06.5,N,A*1B
$HCHDG,316.1,0.0,E,,*2C
$IIRMB,A,,,,Shil,,,,,025.1,003,,V,A*2E
$GPRMC,165317.4,A,4715.99433,N,12226.38156,W,003.83,334.0,100813,016.5,E,D*2B
$PGRME,2.4,M,2.4,M,3.4,M*29
$HCHDG,316.2,0.0,E,,*2F
$YXXDR,A,6.0,D,PTCH,A,4.8,D,ROLL*57
$PTAK,FFD1,4.8*59
$GPRMC,165317.6,A,4715.99455,N,12226.38161,W,003.84,335.4,100813,016.5,E,D*2F
$HCHDG,316.2,0.0,E,,*2F
$PGRME,2.4,M,2.4,M,3.4,M*29
$HCHDG,316.1,0.0,E,,*2C
$HCHDG,316.2,0.0,E,,*2F
$GPRMC,165317.8,A,4715.99481,N,12226.38174,W,003.86,333.8,100813,016.5,E,D*24
$PGRME,2.4,M,2.4,M,3.4,M*29
$HCHDG,316.2,0.0,E,,*2F
$HCHDG,315.9,0.0,E,,*27
$IIRMC,165300,A,4715.993,N,12226.381,W,03.8,335,100813,16,E,A*16
$GPRMC,165318.0,A,4715.99500,N,12226.38191,W,003.87,334.1,100813,016.5,E,D*2F
$PGRME,2.4,M,2.4,M,3.4,M*29
$IIVHW,,,,,04.0,N,,*1D
$YXXDR,A,5.8,D,PTCH,A,5.0,D,ROLL*55
$IIVLW,02061,N,000.1,N*57
$HCHDG,316.2,0.0,E,,*2F
$IIVWR,065,L,07.9,N,,,,*72
$HCHDG,316.2,0.0,E,,*2F
$GPRMC,165318.2,A,4715.99520,N,12226.38210,W,003.91,334.1,100813,016.5,E,D*22
$PGRME,2.4,M,2.4,M,3.4,M*29
$IIDPT,001.0,-1.0,*41
$HCHDG,316.1,0.0,E,,*2C
$IIGLL,4715.993,N,12226.381,W,165300,A,A*48
$IIMTW,+15.5,C*39
$HCHDG,316.1,0.0,E,,*2C
$IIMWV,295,R,07.9,N,A*13
$GPRMC,165318.4,A,4715.99537,N,12226.38216,W,003.91,334.1,100813,016.5,E,D*24
$GPRMB,A,-1.22,L,,Shil,4741.0830,N,12224.5670,W,25.1,3,3.43,V*27
$PGRME,2.4,M,2.4,M,3.4,M*29
$IIMWV,266,T,06.6,N,A*17
$HCHDG,316.0,0.0,E,,*2D
$PTAK,FFP1,HEEL,@*07
$YXXDR,A,5.9,D,PTCH,A,5.6,D,ROLL*52
$PTAK,FFD1,5.6*56
$GPRMC,165318.6,A,4715.99558,N,12226.38222,W,003.74,333.6,100813,016.5,E,D*23
$PGRME,2.4,M,2.4,M,3.4,M*29
$HCHDG,316.2,0.0,E,,*2F
$HCHDG,316.4,0.0,E,,*29
$HCHDG,316.5,0.0,E,,*28
$GPRMC,165318.8,A,4715.99570,N,12226.38251,W,003.76,333.5,100813,016.5,E,D*22
$PGRME,2.4,M,2.4,M,3.4,M*29
$HCHDG,316.5,0.0,E,,*28
$IIRMB,A,,,,Shil,,,,,025.1,003,,V,A*2E
$HCHDG,316.6,0.0,E,,*2B
$GPRMC,165319.0,A,4715.99585,N,12226.38282,W,003.76,332.2,100813,016.5,E,D*29
$PGRME,2.4,M,2.4,M,3.4,M*29
$YXXDR,A,5.7,D,PTCH,A,5.7,D,ROLL*5D
$IIRMC,165300,A,4715.995,N,12226.381,W,03.8,334,100813,16,E,A*11
$HCHDG,316.6,0.0,E,,*2B
$IIVHW,,,,,04.0,N,,*1D
$HCHDG,316.5,0.0,E,,*28
$IIVLW,02061,N,000.1,N*57
$GPRMC,165319.2,A,4715.99606,N,12226.38300,W,003.96,333.0,100813,016.5,E,D*25
$PGRME,2.4,M,2.4,M,3.4,M*29
$IIVWR,069,L,07.8,N,,,,*7F
$HCHDG,316.5,0.0,E,,*28
$IIDPT,001.0,-1.0,*41
$HCHDG,316.4,0.0,E,,*29
$IIGLL,4715.995,N,12226.381,W,165300,A,A*4E
$GPRMC,165319.4,A,4715.99618,N,12226.38319,W,003.88,333.9,100813,016.5,E,D*22
$PGRME,2.4,M,2.4,M,3.4,M*29
$IIMTW,+15.5,C*39
$HCHDG,316.4,0.0,E,,*29
$IIMWV,291,R,07.8,N,A*16
$YXXDR,A,6.0,D,PTCH,A,4.9,D,ROLL*56
$GPRMC,165319.6,A,4715.99630,N,12226.38326,W,003.90,333.9,100813,016.5,E,D*2F
$GPRMB,A,-1.22,L,,Shil,4741.0830,N,12224.5670,W,25.1,3,3.41,V*25
$PGRME,2.4,M,2.4,M,3.4,M*29
$HCHDG,316.4,0.0,E,,*29
$HCHDG,316.4,0.0,E,,*29
$HCHDG,316.4,0.0,E,,*29
$GPRMC,165319.8,A,4715.99651,N,12226.38346,W,003.86,335.9,100813,016.5,E,D*21
$PGRME,2.4,M,2.4,M,3.4,M*29
$HCHDG,316.4,0.0,E,,*29
$IIMWV,261,T,07.2,N,A*15
$HCHDG,316.5,0.0,E,,*28
