$GPRMB,A,-0.13,L,,Shil,4741.0830,N,12224.5670,W,0.1,84,2.12,V*29
$PGRME,3.0,M,3.0,M,4.3,M*29
$IIRMC,122500,A,4741.065,N,12224.763,W,06.6,009,300813,16,E,A*1D
$HCHDG,351.5,0.0,E,,*2B
$PTAK,FFP1,HEEL,@*07
$IIVHW,,,,,05.8,N,,*14
$IIVLW,02141,N,001.2,N*56
$HCHDG,351.5,0.0,E,,*2B
$GPRMC,122554.8,A,4741.06946,N,12224.76263,W,006.99,011.5,300813,016.6,E,A*2B
$GPRMB,A,-0.13,L,,Shil,4741.0830,N,12224.5670,W,0.1,84,2.09,V*23
$PGRME,3.0,M,3.0,M,4.3,M*29
$YXXDR,A,6.6,D,PTCH,A,3.6,D,ROLL*58
$PTAK,FFD1,3.6*50
$HCHDG,351.8,0.0,E,,*26
$HCHDG,351.9,0.0,E,,*27
$GPRMC,122555.0,A,4741.06980,N,12224.76251,W,007.04,011.3,300813,016.6,E,A*2A
$PGRME,3.0,M,3.0,M,4.3,M*29
$HCHDG,352.2,0.0,E,,*2F
$HCHDG,352.1,0.0,E,,*2C
$GPRMC,122555.2,A,4741.07012,N,12224.76237,W,006.83,012.1,300813,016.6,E,A*24
$PGRME,3.0,M,3.0,M,4.3,M*29
$IIVWR,135,R,04.5,N,,,,*67
$HCHDG,352.0,0.0,E,,*2D
$IIDPT,026.7,-1.0,*43
$YXXDR,A,6.3,D,PTCH,A,5.0,D,ROLL*5D
$IIGLL,4741.065,N,12224.763,W,122500,A,A*46
$HCHDG,352.2,0.0,E,,*2F
$GPRMC,122555.4,A,4741.07043,N,12224.76226,W,007.09,011.5,300813,016.6,E,A*22
$IIMTW,+16.0,C*3F
$PGRME,3.0,M,3.0,M,4.3,M*29
$IIMWV,135,R,04.5,N,A*15
$HCHDG,352.3,0.0,E,,*2E
$IIMWV,161,T,09.4,N,A*1E
$HCHDG,352.3,0.0,E,,*2E
$GPRMC,122555.6,A,4741.07080,N,12224.76224,W,007.06,012.3,300813,016.6,E,A*27
$PGRME,3.0,M,3.0,M,4.3,M*29
$IIRMC,122500,A,4741.065,N,12224.763,W,06.6,009,300813,16,E,A*1D
$HCHDG,352.1,0.0,E,,*2C
$IIVHW,,,,,05.6,N,,*1A
$IIVLW,02141,N,001.2,N*56
$HCHDG,352.0,0.0,E,,*2D
$GPRMC,122555.8,A,4741.07113,N,12224.76210,W,006.49,013.1,300813,016.6,E,A*2C
$PGRME,3.0,M,3.0,M,4.3,M*29
$YXXDR,A,6.1,D,PTCH,A,5.3,D,ROLL*5C
$HCHDG,352.2,0.0,E,,*2F
$HCHDG,352.1,0.0,E,,*2C
$GPRMC,122556.0,A,4741.07150,N,12224.76191,W,006.64,012.8,300813,016.6,E,A*2D
$PGRME,3.0,M,3.0,M,4.3,M*29
$HCHDG,352.1,0.0,E,,*2C
$HCHDG,352.3,0.0,E,,*2E
$GPRMC,122556.2,A,4741.07186,N,12224.76174,W,006.68,011.0,300813,016.6,E,A*28
$PGRME,3.0,M,3.0,M,4.3,M*29
$IIVWR,130,R,04.7,N,,,,*60
$HCHDG,352.6,0.0,E,,*2B
$IIDPT,026.7,-1.0,*43
$YXXDR,A,6.7,D,PTCH,A,6.3,D,ROLL*59
$IIGLL,4741.065,N,12224.763,W,122500,A,A*46
$HCHDG,352.6,0.0,E,,*2B
$GPRMC,122556.4,A,4741.07223,N,12224.76162,W,006.75,009.5,300813,016.6,E,A*25
$IIMTW,+16.0,C*3F
$PGRME,3.0,M,3.0,M,4.3,M*29
$IIMWV,130,R,04.7,N,A*12
$HCHDG,352.8,0.0,E,,*25
$IIMWV,160,T,09.3,N,A*18
$HCHDG,353.1,0.0,E,,*2D
$GPRMC,122556.6,A,4741.07263,N,12224.76156,W,006.99,008.2,300813,016.6,E,A*20
$PGRME,3.0,M,3.0,M,4.3,M*29
$IIRMC,122500,A,4741.065,N,12224.763,W,06.6,009,300813,16,E,A*1D
$HCHDG,353.2,0.0,E,,*2E
$IIVHW,,,,,05.7,N,,*1B
$IIVLW,02141,N,001.2,N*56
$HCHDG,353.4,0.0,E,,*28
$GPRMC,122556.8,A,4741.07295,N,12224.76149,W,006.97,008.4,300813,016.6,E,A*21
$PGRME,3.0,M,3.0,M,4.3,M*29
$YXXDR,A,6.4,D,PTCH,A,6.7,D,ROLL*5E
$HCHDG,353.3,0.0,E,,*2F
$HCHDG,353.2,0.0,E,,*2E
$GPRMC,122557.0,A,4741.07316,N,12224.76142,W,006.99,008.0,300813,016.6,E,A*23
$PGRME,3.0,M,3.0,M,4.3,M*29
$HCHDG,353.2,0.0,E,,*2E
$HCHDG,353.0,0.0,E,,*2C
$GPRMC,122557.2,A,4741.07350,N,12224.76146,W,006.91,009.1,300813,016.6,E,A*2F
$PGRME,3.0,M,3.0,M,4.3,M*29
$IIVWR,133,R,04.9,N,,,,*6D
$HCHDG,353.0,0.0,E,,*2C
$IIDPT,027.1,-1.0,*44
$YXXDR,A,6.0,D,PTCH,A,5.2,D,ROLL*5C
$PTAK,FFD1,5.2*52
$IIGLL,4741.072,N,12224.761,W,122500,A,A*42
$HCHDG,352.9,0.0,E,,*24
$IIMTW,+16.0,C*3F
$GPRMC,122557.4,A,4741.07390,N,12224.76133,W,006.79,010.4,300813,016.6,E,A*2C
$PGRME,3.0,M,3.0,M,4.3,M*29
$IIMWV,133,R,04.9,N,A*1F
$HCHDG,352.7,0.0,E,,*2A
$IIMWV,157,T,09.4,N,A*1B
$HCHDG,352.3,0.0,E,,*2E
$IIRMB,A,,,,Shil,,,,,000.1,084,,V,A*26
$GPRMC,122557.6,A,4741.07424,N,12224.76127,W,006.82,012.0,300813,016.6,E,A*21
$PGRME,3.0,M,3.0,M,4.3,M*29
$HCHDG,352.2,0.0,E,,*2F
$IIRMC,122500,A,4741.072,N,12224.761,W,06.7,009,300813,16,E,A*18
$HCHDG,351.8,0.0,E,,*26
$GPRMC,122557.8,A,4741.07465,N,12224.76116,W,006.50,012.8,300813,016.6,E,A*2F
$PGRME,3.0,M,3.0,M,4.3,M*29
$YXXDR,A,6.2,D,PTCH,A,2.7,D,ROLL*5C
$HCHDG,351.7,0.0,E,,*29
$HCHDG,351.6,0.0,E,,*28
$GPRMC,122558.0,A,4741.07506,N,12224.76101,W,006.40,012.3,300813,016.6,E,A*20
$PGRME,3.0,M,3.0,M,4.3,M*29
$HCHDG,351.8,0.0,E,,*26
$HCHDG,351.7,0.0,E,,*29
$GPRMC,122558.2,A,4741.07542,N,12224.76093,W,006.57,010.7,300813,016.6,E,A*28
$PGRME,3.0,M,3.0,M,4.3,M*29
$IIVHW,,,,,05.8,N,,*14
$HCHDG,352.0,0.0,E,,*2D
$IIVLW,02141,N,001.2,N*56
$IIVWR,133,R,04.9,N,,,,*6D
$YXXDR,A,6.8,D,PTCH,A,3.6,D,ROLL*56
$IIDPT,027.2,-1.0,*47
$HCHDG,352.1,0.0,E,,*2C
$GPRMC,122558.4,A,4741.07580,N,12224.76084,W,006.97,009.9,300813,016.6,E,A*2C
$GPRMB,A,-0.13,L,,Shil,4741.0830,N,12224.5670,W,0.1,87,1.57,V*28
$PGRME,3.0,M,3.0,M,4.3,M*29
$HCHDG,352.4,0.0,E,,*29
$IIGLL,4741.072,N,12224.761,W,122500,A,A*42
$IIMTW,+16.0,C*3F
$IIMWV,133,R,04.9,N,A*1F
$HCHDG,352.7,0.0,E,,*2A
$GPRMC,122558.6,A,4741.07614,N,12224.76079,W,006.85,009.4,300813,016.6,E,A*2C
$PGRME,3.0,M,3.0,M,4.3,M*29
$IIMWV,159,T,09.9,N,A*18
$HCHDG,352.6,0.0,E,,*2B
$IIRMB,A,,,,Shil,,,,,000.1,084,,V,A*26
$HCHDG,352.7,0.0,E,,*2A
$GPRMC,122558.8,A,4741.07650,N,12224.76071,W,007.04,010.1,300813,016.6,E,A*2F
$PGRME,3.0,M,3.0,M,4.3,M*29
$YXXDR,A,6.6,D,PTCH,A,4.5,D,ROLL*5C
$PTAK,FFD1,4.5*54
$HCHDG,352.8,0.0,E,,*25
$HCHDG,352.6,0.0,E,,*2B
$GPRMC,122559.0,A,4741.07681,N,12224.76061,W,006.95,011.0,300813,016.6,E,A*22
$PGRME,3.0,M,3.0,M,4.3,M*29
$HCHDG,352.3,0.0,E,,*2E
$HCHDG,352.2,0.0,E,,*2F
$GPRMC,122559.2,A,4741.07716,N,12224.76057,W,007.11,012.5,300813,016.6,E,A*21
$PGRME,3.0,M,3.0,M,4.3,M*29
$HCHDG,351.9,0.0,E,,*27
$IIRMC,122500,A,4741.075,N,12224.760,W,06.9,009,300813,16,E,A*10
$YXXDR,A,5.9,D,PTCH,A,4.2,D,ROLL*57
$IIVHW,,,,,05.6,N,,*1A
$HCHDG,351.8,0.0,E,,*26
$GPRMC,122559.4,A,4741.07751,N,12224.76046,W,006.75,013.1,300813,016.6,E,A*22
$IIVLW,02141,N,001.2,N*56
$PGRME,3.0,M,3.0,M,4.3,M*29
$HCHDG,351.6,0.0,E,,*28
$IIVWR,134,R,05.0,N,,,,*62
$IIDPT,027.3,-1.0,*46
$HCHDG,351.5,0.0,E,,*2B
$GPRMC,122559.6,A,4741.07788,N,12224.76028,W,006.49,013.2,300813,016.6,E,A*20
$GPRMB,A,-0.13,L,,Shil,4741.0830,N,12224.5670,W,0.1,88,1.73,V*21
$IIGLL,4741.075,N,12224.760,W,122500,A,A*44
$PGRME,3.0,M,3.0,M,4.3,M*29
$IIMTW,+16.0,C*3F
$HCHDG,351.5,0.0,E,,*2B
$IIMWV,134,R,05.0,N,A*10
$IIMWV,159,T,09.7,N,A*16
$HCHDG,351.6,0.0,E,,*28
$GPRMC,122559.8,A,4741.07824,N,12224.76015,W,006.63,012.3,300813,016.6,E,A*21
$PGRME,3.0,M,3.0,M,4.3,M*29
$YXXDR,A,6.2,D,PTCH,A,4.8,D,ROLL*55
$PTAK,FFD1,4.8*59
$HCHDG,351.7,0.0,E,,*29
$HCHDG,352.0,0.0,E,,*2D
$GPRMC,122600.0,A,4741.07857,N,12224.76005,W,006.60,011.2,300813,016.6,E,A*22
$PGRME,3.0,M,3.0,M,4.3,M*29
$HCHDG,352.2,0.0,E,,*2F
$HCHDG,352.2,0.0,E,,*2F
$GPRMC,122600.2,A,4741.07891,N,12224.75997,W,006.74,010.3,300813,016.6,E,A*2E
$PGRME,3.0,M,3.0,M,4.3,M*29
$IIRMB,A,,,,Shil,,,,,000.1,088,,V,A*2A
$HCHDG,352.3,0.0,E,,*2E
$YXXDR,A,6.5,D,PTCH,A,6.3,D,ROLL*5B
$IIRMC,122500,A,4741.077,N,12224.760,W,06.7,013,300813,16,E,A*17
$HCHDG,352.4,0.0,E,,*29
$GPRMC,122600.4,A,4741.07928,N,12224.75991,W,006.94,008.8,300813,016.6,E,A*21
$PGRME,3.0,M,3.0,M,4.3,M*29
$IIVHW,,,,,05.3,N,,*1F
$HCHDG,352.4,0.0,E,,*29
$IIVLW,02141,N,001.2,N*56
$IIVWR,134,R,04.9,N,,,,*6A
$HCHDG,352.5,0.0,E,,*28
$IIDPT,027.4,-1.0,*41
$GPRMC,122600.6,A,4741.07964,N,12224.75984,W,006.91,009.5,300813,016.6,E,A*26
$GPRMB,A,-0.13,L,,Shil,4741.0830,N,12224.5670,W,0.1,89,1.32,V*25
$PGRME,3.0,M,3.0,M,4.3,M*29
$HCHDG,352.5,0.0,E,,*28
$IIGLL,4741.077,N,12224.760,W,122500,A,A*46
$IIMTW,+16.0,C*3F
$HCHDG,352.3,0.0,E,,*2E
$IIMWV,134,R,04.9,N,A*18
$GPRMC,122600.8,A,4741.08008,N,12224.75974,W,007.06,009.0,300813,016.6,E,A*21
$PGRME,3.0,M,3.0,M,4.3,M*29
$YXXDR,A,6.8,D,PTCH,A,6.1,D,ROLL*54
$HCHDG,352.4,0.0,E,,*29
$HCHDG,352.2,0.0,E,,*2F
$GPRMC,122601.0,A,4741.08051,N,12224.75962,W,006.99,010.3,300813,016.6,E,A*2F
$PGRME,3.0,M,3.0,M,4.3,M*29
$HCHDG,351.7,0.0,E,,*29
$HCHDG,351.6,0.0,E,,*28
$GPRMC,122601.2,A,4741.08094,N,12224.75942,W,006.85,011.1,300813,016.6,E,A*28
$PGRME,3.0,M,3.0,M,4.3,M*29
$IIMWV,158,T,09.3,N,A*13
$HCHDG,351.3,0.0,E,,*2D
$IIRMB,A,,,,Shil,,,,,000.1,089,,V,A*2B
$YXXDR,A,6.1,D,PTCH,A,5.1,D,ROLL*5E
$PTAK,FFD1,5.1*51
$PTAK,FFP1,HEEL,@*07
$HCHDG,351.1,0.0,E,,*2F
$GPRMC,122601.4,A,4741.08135,N,12224.75922,W,006.78,011.9,300813,016.6,E,A*28
$PGRME,3.0,M,3.0,M,4.3,M*29
$IIRMC,122600,A,4741.079,N,12224.759,W,06.9,008,300813,16,E,A*14
$HCHDG,351.0,0.0,E,,*2E
$IIVHW,,,,,05.3,N,,*1F
$IIVLW,02141,N,001.2,N*56
$HCHDG,350.7,0.0,E,,*28
$IIVWR,139,R,05.0,N,,,,*6F
$GPRMC,122601.6,A,4741.08176,N,12224.75905,W,006.42,011.6,300813,016.6,E,A*2E
$GPRMB,A,-0.13,L,,Shil,4741.0830,N,12224.5670,W,0.1,89,1.35,V*22
$PGRME,3.0,M,3.0,M,4.3,M*29
$IIDPT,027.6,-1.0,*43
$HCHDG,350.9,0.0,E,,*26
$IIGLL,4741.079,N,12224.759,W,122600,A,A*41
$HCHDG,350.8,0.0,E,,*27
$IIMTW,+16.0,C*3F
$GPRMC,122601.8,A,4741.08214,N,12224.75894,W,006.63,010.1,300813,016.6,E,A*2B
$PGRME,3.0,M,3.0,M,4.3,M*29
$YXXDR,A,6.1,D,PTCH,A,5.2,D,ROLL*5D
$HCHDG,350.9,0.0,E,,*26
$HCHDG,351.1,0.0,E,,*2F
$GPRMC,122602.0,A,4741.08254,N,12224.75897,W,006.76,008.9,300813,016.6,E,A*22
$PGRME,3.0,M,3.0,M,4.3,M*29
$HCHDG,351.1,0.0,E,,*2F
$HCHDG,351.3,0.0,E,,*2D
$GPRMC,122602.2,A,4741.08296,N,12224.75891,W,007.14,008.0,300813,016.6,E,A*24
$PGRME,3.0,M,3.0,M,4.3,M*29
$IIMWV,146,R,05.0,N,A*15
$HCHDG,351.3,0.0,E,,*2D
$IIMWV,160,T,09.5,N,A*1E
$YXXDR,A,6.4,D,PTCH,A,5.9,D,ROLL*53
$IIRMB,A,,,,Shil,,,,,000.1,089,,V,A*2B
$HCHDG,351.6,0.0,E,,*28
$GPRMC,122602.4,A,4741.08344,N,12224.75882,W,006.94,007.9,300813,016.6,E,A*21
$PGRME,3.0,M,3.0,M,4.3,M*29
$HCHDG,351.7,0.0,E,,*29
$IIRMC,122600,A,4741.081,N,12224.759,W,06.7,011,300813,16,E,A*15
$IIVHW,,,,,05.1,N,,*1D
$HCHDG,351.6,0.0,E,,*28
$IIVLW,02141,N,001.2,N*56
$GPRMC,122602.6,A,4741.08377,N,12224.75872,W,006.89,007.0,300813,016.6,E,A*29
$PGRME,3.0,M,3.0,M,4.3,M*29
$IIVWR,146,R,05.0,N,,,,*67
$HCHDG,351.9,0.0,E,,*27
$IIDPT,027.7,-1.0,*42
$HCHDG,351.8,0.0,E,,*26
$GPRMC,122602.8,A,4741.08415,N,12224.75859,W,006.91,007.4,300813,016.6,E,A*20
$GPRMB,A,-0.13,L,,Shil,4741.0830,N,12224.5670,W,0.1,91,0.83,V*27
$PGRME,3.0,M,3.0,M,4.3,M*29
$YXXDR,A,6.1,D,PTCH,A,5.8,D,ROLL*57
$PTAK,FFD1,5.8*58
$HCHDG,351.6,0.0,E,,*28
$HCHDG,351.5,0.0,E,,*2B
$GPRMC,122603.0,A,4741.08454,N,12224.75848,W,006.91,007.5,300813,016.6,E,A*2D
$PGRME,3.0,M,3.0,M,4.3,M*29
$HCHDG,351.2,0.0,E,,*2C
$HCHDG,351.1,0.0,E,,*2F
$GPRMC,122603.2,A,4741.08493,N,12224.75837,W,006.91,008.3,300813,016.6,E,A*25
$PGRME,3.0,M,3.0,M,4.3,M*29
$IIGLL,4741.083,N,12224.758,W,122600,A,A*45
$HCHDG,351.2,0.0,E,,*2C
$IIMTW,+16.0,C*3F
$YXXDR,A,5.9,D,PTCH,A,5.0,D,ROLL*54
$IIMWV,148,R,05.2,N,A*19
$HCHDG,350.9,0.0,E,,*26
$GPRMC,122603.4,A,4741.08532,N,12224.75833,W,006.72,008.6,300813,016.6,E,A*25
$IIMWV,163,T,09.6,N,A*1E
$PGRME,3.0,M,3.0,M,4.3,M*29
$HCHDG,350.8,0.0,E,,*27
$IIRMB,A,,,,Shil,,,,,000.1,089,,V,A*2B
$HCHDG,350.5,0.0,E,,*2A
$GPRMC,122603.6,A,4741.08567,N,12224.75825,W,006.69,009.5,300813,016.6,E,A*28
$PGRME,3.0,M,3.0,M,4.3,M*29
$IIRMC,122600,A,4741.083,N,12224.758,W,06.9,007,300813,16,E,A*1F
$HCHDG,350.5,0.0,E,,*2A
$IIVHW,,,,,05.1,N,,*1D
$IIVLW,02141,N,001.2,N*56
$HCHDG,350.3,0.0,E,,*2C
$GPRMC,122603.8,A,4741.08607,N,12224.75820,W,006.71,009.1,300813,016.6,E,A*2B
$PGRME,3.0,M,3.0,M,4.3,M*29
$YXXDR,A,6.1,D,PTCH,A,4.5,D,ROLL*5B
$HCHDG,350.3,0.0,E,,*2C
$HCHDG,350.1,0.0,E,,*2E
$GPRMC,122604.0,A,4741.08646,N,12224.75819,W,006.88,009.6,300813,016.6,E,A*2A
$GPRMB,A,-0.13,L,,Shil,4741.0830,N,12224.5670,W,0.1,92,0.96,V*20
$PGRME,3.0,M,3.0,M,4.3,M*29
$HCHDG,350.2,0.0,E,,*2D
$HCHDG,350.2,0.0,E,,*2D
$GPRMC,122604.2,A,4741.08686,N,12224.75816,W,006.85,007.6,300813,016.6,E,A*28
$PGRME,3.0,M,3.0,M,4.3,M*29
$IIVWR,152,R,05.2,N,,,,*60
$HCHDG,350.2,0.0,E,,*2D
$IIDPT,027.9,-1.0,*4C
$YXXDR,A,6.5,D,PTCH,A,5.0,D,ROLL*5B
$PTAK,FFD1,5.0*50
$IIGLL,4741.083,N,12224.758,W,122600,A,A*45
$HCHDG,350.5,0.0,E,,*2A
$GPRMC,122604.4,A,4741.08723,N,12224.75807,W,007.05,008.6,300813,016.6,E,A*26
$IIMTW,+16.0,C*3F
$PGRME,3.0,M,3.0,M,4.3,M*29
$IIMWV,152,R,05.2,N,A*12
$HCHDG,350.5,0.0,E,,*2A
$IIMWV,164,T,09.8,N,A*17
$HCHDG,350.7,0.0,E,,*28
$IIRMB,A,,,,Shil,,,,,000.1,091,,V,A*22
$GPRMC,122604.6,A,4741.08757,N,12224.75803,W,007.04,007.6,300813,016.6,E,A*2D
$PGRME,3.0,M,3.0,M,4.3,M*29
$HCHDG,350.8,0.0,E,,*27
$IIRMC,122600,A,4741.083,N,12224.758,W,06.9,007,300813,16,E,A*1F
$HCHDG,350.7,0.0,E,,*28
$GPRMC,122604.8,A,4741.08803,N,12224.75800,W,007.01,007.5,300813,016.6,E,A*28
$PGRME,3.0,M,3.0,M,4.3,M*29
$YXXDR,A,6.4,D,PTCH,A,5.5,D,ROLL*5F
$HCHDG,350.7,0.0,E,,*28
$HCHDG,350.7,0.0,E,,*28
$GPRMC,122605.0,A,4741.08839,N,12224.75788,W,006.85,008.2,300813,016.6,E,A*22
$PGRME,3.0,M,3.0,M,4.3,M*29
$HCHDG,350.7,0.0,E,,*28
$HCHDG,350.6,0.0,E,,*29
$GPRMC,122605.2,A,4741.08874,N,12224.75777,W,006.80,008.0,300813,016.6,E,A*2E
$GPRMB,A,-0.13,L,,Shil,4741.0830,N,12224.5670,W,0.1,93,0.64,V*2C
$PTAK,FFP1,HEEL,@*07
$PGRME,3.0,M,3.0,M,4.3,M*29
$IIVHW,,,,,05.4,N,,*18
$IIVLW,02141,N,001.2,N*56
$HCHDG,350.6,0.0,E,,*29
$IIVWR,155,R,05.3,N,,,,*66
$YXXDR,A,6.3,D,PTCH,A,5.5,D,ROLL*58
$PTAK,FFD1,5.5*55
$IIDPT,027.9,-1.0,*4C
$HCHDG,350.7,0.0,E,,*28
$GPRMC,122605.4,A,4741.08913,N,12224.75762,W,006.86,007.9,300813,016.6,E,A*2C
$PGRME,3.0,M,3.0,M,4.3,M*29
$IIGLL,4741.087,N,12224.758,W,122600,A,A*41
$HCHDG,350.9,0.0,E,,*26
$IIMTW,+16.0,C*3F
$IIMWV,155,R,05.3,N,A*14
$HCHDG,350.8,0.0,E,,*27
$GPRMC,122605.6,A,4741.08951,N,12224.75750,W,007.03,008.7,300813,016.6,E,A*24
$PGRME,3.0,M,3.0,M,4.3,M*29
$IIMWV,166,T,10.0,N,A*15
$HCHDG,350.7,0.0,E,,*28
$IIRMB,A,,,,Shil,,,,,000.1,092,,V,A*21
$HCHDG,350.8,0.0,E,,*27
$GPRMC,122605.8,A,4741.08991,N,12224.75741,W,006.96,008.2,300813,016.6,E,A*2E
$PGRME,3.0,M,3.0,M,4.3,M*29
$YXXDR,A,6.4,D,PTCH,A,5.5,D,ROLL*5F
$HCHDG,350.7,0.0,E,,*28
$HCHDG,350.9,0.0,E,,*26
$GPRMC,122606.0,A,4741.09033,N,12224.75736,W,006.88,008.5,300813,016.6,E,A*2D
$PGRME,3.0,M,3.0,M,4.3,M*29
$HCHDG,350.9,0.0,E,,*26
$HCHDG,350.9,0.0,E,,*26
$GPRMC,122606.2,A,4741.09076,N,12224.75731,W,006.87,008.1,300813,016.6,E,A*22
$PGRME,3.0,M,3.0,M,4.3,M*29
$HCHDG,351.1,0.0,E,,*2F
$IIRMC,122600,A,4741.089,N,12224.757,W,06.8,007,300813,16,E,A*1B
$YXXDR,A,6.4,D,PTCH,A,5.8,D,ROLL*52
$IIVHW,,,,,05.5,N,,*19
$HCHDG,351.1,0.0,E,,*2F
$GPRMC,122606.4,A,4741.09118,N,12224.75715,W,006.62,007.2,300813,016.6,E,A*2C
$IIVLW,02141,N,001.2,N*56
$PGRME,3.0,M,3.0,M,4.3,M*29
$HCHDG,351.4,0.0,E,,*2A
$IIVWR,158,R,05.3,N,,,,*6B
$IIDPT,028.3,-1.0,*49
$HCHDG,351.4,0.0,E,,*2A
$GPRMC,122606.6,A,4741.09156,N,12224.75700,W,006.65,007.4,300813,016.6,E,A*21
$IIGLL,4741.089,N,12224.757,W,122600,A,A*40
$PGRME,3.0,M,3.0,M,4.3,M*29
$IIMTW,+16.0,C*3F
$HCHDG,351.5,0.0,E,,*2B
$IIMWV,158,R,05.3,N,A*19
$IIMWV,168,T,10.4,N,A*1F
$HCHDG,351.7,0.0,E,,*29
$GPRMC,122606.8,A,4741.09200,N,12224.75695,W,006.91,006.4,300813,016.6,E,A*28
$PGRME,3.0,M,3.0,M,4.3,M*29
$YXXDR,A,6.1,D,PTCH,A,5.8,D,ROLL*57
$HCHDG,351.8,0.0,E,,*26
$HCHDG,351.9,0.0,E,,*27
$GPRMC,122607.0,A,4741.09237,N,12224.75689,W,006.90,007.2,300813,016.6,E,A*2E
$GPRMB,A,-0.13,L,,Shil,4741.0830,N,12224.5670,W,0.1,94,0.36,V*2C
$PGRME,3.0,M,3.0,M,4.3,M*29
$HCHDG,352.1,0.0,E,,*2C
$HCHDG,352.0,0.0,E,,*2D
$GPRMC,122607.2,A,4741.09276,N,12224.75682,W,006.85,007.4,300813,016.6,E,A*20
$PGRME,3.0,M,3.0,M,4.3,M*29
$IIRMB,A,,,,Shil,,,,,000.1,093,,V,A*20
$HCHDG,352.2,0.0,E,,*2F
$YXXDR,A,6.0,D,PTCH,A,5.0,D,ROLL*5E
$PTAK,FFD1,5.0*50
$IIRMC,122600,A,4741.091,N,12224.757,W,06.6,007,300813,16,E,A*1C
$HCHDG,351.9,0.0,E,,*27
$GPRMC,122607.4,A,4741.09316,N,12224.75671,W,006.88,009.7,300813,016.6,E,A*2D
$PGRME,3.0,M,3.0,M,4.3,M*29
$IIVHW,,,,,05.5,N,,*19
$HCHDG,351.8,0.0,E,,*26
$IIVLW,02141,N,001.2,N*56
$IIVWR,161,R,05.3,N,,,,*61
$HCHDG,351.4,0.0,E,,*2A
$IIDPT,028.5,-1.0,*4F
$GPRMC,122607.6,A,4741.09355,N,12224.75661,W,006.84,010.8,300813,016.6,E,A*22
$PGRME,3.0,M,3.0,M,4.3,M*29
$HCHDG,351.1,0.0,E,,*2F
$IIGLL,4741.091,N,12224.757,W,122600,A,A*49
$IIMTW,+16.0,C*3F
$HCHDG,351.0,0.0,E,,*2E
$IIMWV,161,R,05.3,N,A*13
$GPRMC,122607.8,A,4741.09389,N,12224.75644,W,006.88,011.6,300813,016.6,E,A*29
$PGRME,3.0,M,3.0,M,4.3,M*29
$YXXDR,A,6.2,D,PTCH,A,3.5,D,ROLL*5F
$HCHDG,350.8,0.0,E,,*27
$HCHDG,350.5,0.0,E,,*2A
$GPRMC,122608.0,A,4741.09428,N,12224.75632,W,006.87,012.1,300813,016.6,E,A*28
$GPRMB,A,-0.13,L,,Shil,4741.0830,N,12224.5670,W,0.1,95,0.84,V*24
$PGRME,3.0,M,3.0,M,4.3,M*29
$HCHDG,350.6,0.0,E,,*29
$HCHDG,350.5,0.0,E,,*2A
$GPRMC,122608.2,A,4741.09468,N,12224.75621,W,006.88,011.7,300813,016.6,E,A*26
$PGRME,3.0,M,3.0,M,4.3,M*29
$IIMWV,171,T,10.6,N,A*15
$HCHDG,350.7,0.0,E,,*28
$IIRMB,A,,,,Shil,,,,,000.1,094,,V,A*27
$YXXDR,A,6.4,D,PTCH,A,3.8,D,ROLL*54
$PTAK,FFD1,3.8*5E
$HCHDG,350.7,0.0,E,,*28
$GPRMC,122608.4,A,4741.09508,N,12224.75612,W,006.63,011.6,300813,016.6,E,A*23
$PGRME,3.0,M,3.0,M,4.3,M*29
$IIRMC,122600,A,4741.093,N,12224.756,W,06.8,009,300813,16,E,A*1F
$HCHDG,350.9,0.0,E,,*26
$IIVHW,,,,,05.5,N,,*19
$IIVLW,02141,N,001.2,N*56
$HCHDG,351.0,0.0,E,,*2E
$IIVWR,158,R,05.3,N,,,,*6B
$GPRMC,122608.6,A,4741.09549,N,12224.75594,W,006.90,011.7,300813,016.6,E,A*24
$PGRME,3.0,M,3.0,M,4.3,M*29
$IIDPT,028.7,-1.0,*4D
$HCHDG,351.0,0.0,E,,*2E
$IIGLL,4741.093,N,12224.756,W,122600,A,A*4A
$HCHDG,351.3,0.0,E,,*2D
$IIMTW,+16.0,C*3F
$GPRMC,122608.8,A,4741.09589,N,12224.75582,W,006.74,010.7,300813,016.6,E,A*2A
$PGRME,3.0,M,3.0,M,4.3,M*29
$YXXDR,A,6.4,D,PTCH,A,5.2,D,ROLL*58
$HCHDG,351.2,0.0,E,,*2C
$HCHDG,351.4,0.0,E,,*2A
$GPRMC,122609.0,A,4741.09628,N,12224.75572,W,006.90,009.9,300813,016.6,E,A*28
$GPRMB,A,-0.13,L,,Shil,4741.0830,N,12224.5670,W,0.1,96,0.47,V*28
$PGRME,3.0,M,3.0,M,4.3,M*29
$HCHDG,351.5,0.0,E,,*2B
$HCHDG,351.7,0.0,E,,*29
$GPRMC,122609.2,A,4741.09668,N,12224.75566,W,007.12,009.4,300813,016.6,E,A*2D
$PGRME,3.0,M,3.0,M,4.3,M*29
$IIMWV,154,R,05.3,N,A*15
$HCHDG,351.8,0.0,E,,*26
$IIMWV,170,T,10.5,N,A*17
$YXXDR,A,6.3,D,PTCH,A,6.0,D,ROLL*5E
$IIRMB,A,,,,Shil,,,,,000.1,094,,V,A*27
$HCHDG,351.9,0.0,E,,*27
$GPRMC,122609.4,A,4741.09707,N,12224.75555,W,006.95,009.9,300813,016.6,E,A*20
$PGRME,3.0,M,3.0,M,4.3,M*29
$HCHDG,351.7,0.0,E,,*29
$IIRMC,122600,A,4741.095,N,12224.756,W,06.6,011,300813,16,E,A*1E
$IIVHW,,,,,05.4,N,,*18
$HCHDG,351.8,0.0,E,,*26
$IIVLW,02141,N,001.2,N*56
$GPRMC,122609.6,A,4741.09740,N,12224.75547,W,007.01,009.7,300813,016.6,E,A*20
$PGRME,3.0,M,3.0,M,4.3,M*29
$IIVWR,154,R,05.3,N,,,,*67
$HCHDG,351.9,0.0,E,,*27
$IIDPT,028.8,-1.0,*42
$HCHDG,351.6,0.0,E,,*28
$GPRMC,122609.8,A,4741.09778,N,12224.75536,W,007.04,010.2,300813,016.6,E,A*2B
$PGRME,3.0,M,3.0,M,4.3,M*29
$YXXDR,A,5.9,D,PTCH,A,6.0,D,ROLL*57
$PTAK,FFD1,6.0*53
$PTAK,FFP1,HEEL,@*07
$HCHDG,351.4,0.0,E,,*2A
$HCHDG,351.5,0.0,E,,*2B
$GPRMC,122610.0,A,4741.09815,N,12224.75525,W,007.09,010.6,300813,016.6,E,A*24
$PGRME,3.0,M,3.0,M,4.3,M*29
$HCHDG,351.3,0.0,E,,*2D
$HCHDG,351.0,0.0,E,,*2E
$GPRMC,122610.2,A,4741.09854,N,12224.75521,W,007.03,010.5,300813,016.6,E,A*2E
$GPRMB,A,-0.13,L,,Shil,4741.0830,N,12224.5670,W,0.1,97,0.43,V*2D
$PGRME,3.0,M,3.0,M,4.3,M*29
$IIGLL,4741.097,N,12224.755,W,122600,A,A*4D
$HCHDG,351.2,0.0,E,,*2C
$IIMTW,+16.0,C*3F
$YXXDR,A,6.1,D,PTCH,A,5.9,D,ROLL*56
$IIMWV,153,R,05.4,N,A*15
$HCHDG,351.2,0.0,E,,*2C
$GPRMC,122610.4,A,4741.09892,N,12224.75499,W,006.87,010.6,300813,016.6,E,A*2E
$IIMWV,167,T,10.3,N,A*17
$PGRME,3.0,M,3.0,M,4.3,M*29
$HCHDG,351.1,0.0,E,,*2F
$IIRMB,A,,,,Shil,,,,,000.1,094,,V,A*27
$HCHDG,351.4,0.0,E,,*2A
$GPRMC,122610.6,A,4741.09927,N,12224.75474,W,006.67,010.5,300813,016.6,E,A*2D
$PGRME,3.0,M,3.0,M,4.3,M*29
$IIRMC,122600,A,4741.097,N,12224.755,W,06.9,009,300813,16,E,A*19
$HCHDG,351.4,0.0,E,,*2A
$IIVHW,,,,,05.4,N,,*18
$IIVLW,02141,N,001.2,N*56
$HCHDG,351.3,0.0,E,,*2D
$GPRMC,122610.8,A,4741.09962,N,12224.75459,W,006.70,010.1,300813,016.6,E,A*2F
$PGRME,3.0,M,3.0,M,4.3,M*29
$YXXDR,A,6.2,D,PTCH,A,6.2,D,ROLL*5D
$PTAK,FFD1,6.2*51
$HCHDG,351.6,0.0,E,,*28
$HCHDG,351.8,0.0,E,,*26
$GPRMC,122611.0,A,4741.10002,N,12224.75454,W,006.77,008.2,300813,016.6,E,A*21
$PGRME,3.0,M,3.0,M,4.3,M*29
$HCHDG,351.8,0.0,E,,*26
$HCHDG,351.8,0.0,E,,*26
$GPRMC,122611.2,A,4741.10040,N,12224.75446,W,006.93,007.9,300813,016.6,E,A*28
$GPRMB,A,-0.13,L,,Shil,4741.0830,N,12224.5670,W,0.1,98,0.01,V*24
$PGRME,3.0,M,3.0,M,4.3,M*29
$IIVWR,153,R,05.2,N,,,,*61
$HCHDG,352.0,0.0,E,,*2D
$IIDPT,029.0,-1.0,*4B
$YXXDR,A,6.7,D,PTCH,A,6.4,D,ROLL*5E
$IIGLL,4741.098,N,12224.754,W,122600,A,A*43
$HCHDG,352.1,0.0,E,,*2C
$IIMTW,+16.0,C*3F
$GPRMC,122611.4,A,4741.10077,N,12224.75444,W,006.96,008.1,300813,016.6,E,A*2A
$PGRME,3.0,M,3.0,M,4.3,M*29
$IIMWV,153,R,05.2,N,A*13
$HCHDG,352.0,0.0,E,,*2D
$IIMWV,167,T,10.4,N,A*10
$HCHDG,352.1,0.0,E,,*2C
$IIRMB,A,,,,Shil,,,,,000.1,097,,V,A*24
$GPRMC,122611.6,A,4741.10113,N,12224.75442,W,006.98,007.0,300813,016.6,E,A*2D
$PGRME,3.0,M,3.0,M,4.3,M*29
$HCHDG,352.2,0.0,E,,*2F
$IIRMC,122600,A,4741.098,N,12224.754,W,06.8,010,300813,16,E,A*1E
$HCHDG,352.4,0.0,E,,*29
$GPRMC,122611.8,A,4741.10155,N,12224.75435,W,007.06,007.5,300813,016.6,E,A*22
$PGRME,3.0,M,3.0,M,4.3,M*29
$YXXDR,A,6.6,D,PTCH,A,6.1,D,ROLL*5A
$HCHDG,352.4,0.0,E,,*29
$HCHDG,352.4,0.0,E,,*29
$GPRMC,122612.0,A,4741.10190,N,12224.75425,W,006.69,007.3,300813,016.6,E,A*2F
$PGRME,3.0,M,3.0,M,4.3,M*29
$HCHDG,352.5,0.0,E,,*28
$HCHDG,352.2,0.0,E,,*2F
$GPRMC,122612.2,A,4741.10231,N,12224.75415,W,006.93,009.4,300813,016.6,E,A*2A
$PGRME,3.0,M,3.0,M,4.3,M*29
$IIVHW,,,,,05.6,N,,*1A
$HCHDG,352.2,0.0,E,,*2F
$IIVLW,02141,N,001.2,N*56
$IIVWR,150,R,05.1,N,,,,*61
$YXXDR,A,6.2,D,PTCH,A,5.0,D,ROLL*5C
$PTAK,FFD1,5.0*50
$IIDPT,029.2,-1.0,*49
$HCHDG,351.9,0.0,E,,*27
$GPRMC,122612.4,A,4741.10271,N,12224.75402,W,006.75,009.4,300813,016.6,E,A*26
$GPRMB,A,-0.13,L,,Shil,4741.0830,N,12224.5670,W,0.1,99,0.06,V*22
$PGRME,3.0,M,3.0,M,4.3,M*29
$HCHDG,351.8,0.0,E,,*26
$IIGLL,4741.100,N,12224.754,W,122600,A,A*43
$IIMTW,+16.0,C*3F
$IIMWV,150,R,05.1,N,A*13
$HCHDG,351.7,0.0,E,,*29
$GPRMC,122612.6,A,4741.10305,N,12224.75388,W,006.76,010.2,300813,016.6,E,A*2E
$PGRME,3.0,M,3.0,M,4.3,M*29
$IIMWV,167,T,10.2,N,A*16
$HCHDG,351.4,0.0,E,,*2A
$IIRMB,A,,,,Shil,,,,,000.1,097,,V,A*24
$HCHDG,351.3,0.0,E,,*2D
$GPRMC,122612.8,A,4741.10347,N,12224.75378,W,006.79,010.7,300813,016.6,E,A*23
$PGRME,3.0,M,3.0,M,4.3,M*29
$YXXDR,A,6.4,D,PTCH,A,3.9,D,ROLL*55
$HCHDG,351.3,0.0,E,,*2D
$HCHDG,351.1,0.0,E,,*2F
$GPRMC,122613.0,A,4741.10382,N,12224.75374,W,006.82,010.3,300813,016.6,E,A*2F
$PGRME,3.0,M,3.0,M,4.3,M*29
$HCHDG,351.1,0.0,E,,*2F
$HCHDG,351.2,0.0,E,,*2C
$GPRMC,122613.2,A,4741.10417,N,12224.75368,W,007.00,010.7,300813,016.6,E,A*24
$PGRME,3.0,M,3.0,M,4.3,M*29
$HCHDG,351.2,0.0,E,,*2C
$IIRMC,122600,A,4741.102,N,12224.754,W,06.7,009,300813,16,E,A*1B
$YXXDR,A,6.2,D,PTCH,A,3.9,D,ROLL*53
$IIVHW,,,,,05.8,N,,*14
$HCHDG,351.0,0.0,E,,*2E
$GPRMC,122613.4,A,4741.10454,N,12224.75363,W,007.18,011.3,300813,016.6,E,A*22
$GPRMB,A,-0.13,L,,Shil,4741.0830,N,12224.5670,W,0.1,100,0.20,V*17
$IIVLW,02141,N,001.2,N*56
$PGRME,3.0,M,3.0,M,4.3,M*29
$HCHDG,350.8,0.0,E,,*27
$IIVWR,149,R,05.0,N,,,,*68
$IIDPT,029.4,-1.0,*4F
$HCHDG,350.7,0.0,E,,*28
$GPRMC,122613.6,A,4741.10489,N,12224.75361,W,006.89,012.1,300813,016.6,E,A*2A
$IIGLL,4741.102,N,12224.754,W,122600,A,A*41
$PGRME,3.0,M,3.0,M,4.3,M*29
$IIMTW,+16.0,C*3F
$HCHDG,350.8,0.0,E,,*27
$IIMWV,149,R,05.0,N,A*1A
$IIMWV,166,T,10.3,N,A*16
$HCHDG,350.6,0.0,E,,*29
$GPRMC,122613.8,A,4741.10525,N,12224.75350,W,006.91,012.3,300813,016.6,E,A*2A
$PGRME,3.0,M,3.0,M,4.3,M*29
$YXXDR,A,6.0,D,PTCH,A,4.0,D,ROLL*5F
$PTAK,FFD1,4.0*51
$PTAK,FFP1,HEEL,@*07
$HCHDG,350.6,0.0,E,,*29
$HCHDG,350.7,0.0,E,,*28
$GPRMC,122614.0,A,4741.10563,N,12224.75345,W,006.88,012.3,300813,016.6,E,A*2B
$PGRME,3.0,M,3.0,M,4.3,M*29
$HCHDG,350.7,0.0,E,,*28
$HCHDG,350.5,0.0,E,,*2A
$GPRMC,122614.2,A,4741.10605,N,12224.75339,W,006.72,012.4,300813,016.6,E,A*23
$PGRME,3.0,M,3.0,M,4.3,M*29
$IIRMB,A,,,,Shil,,,,,000.1,099,,V,A*2A
$HCHDG,350.5,0.0,E,,*2A
$YXXDR,A,6.4,D,PTCH,A,5.1,D,ROLL*5B
$IIRMC,122600,A,4741.104,N,12224.753,W,07.1,011,300813,16,E,A*14
$HCHDG,350.7,0.0,E,,*28
$GPRMC,122614.4,A,4741.10645,N,12224.75332,W,006.73,012.0,300813,016.6,E,A*2F
$GPRMB,A,-0.13,L,,Shil,4741.0830,N,12224.5670,W,0.1,101,0.17,V*12
$PGRME,3.0,M,3.0,M,4.3,M*29
$IIVHW,,,,,05.9,N,,*15
$HCHDG,350.7,0.0,E,,*28
$IIVLW,02141,N,001.2,N*56
$IIVWR,143,R,04.9,N,,,,*6A
$HCHDG,350.8,0.0,E,,*27
$IIDPT,029.6,-1.0,*4D
$GPRMC,122614.6,A,4741.10684,N,12224.75326,W,006.76,011.1,300813,016.6,E,A*22
$PGRME,3.0,M,3.0,M,4.3,M*29
$HCHDG,351.0,0.0,E,,*2E
$IIGLL,4741.104,N,12224.753,W,122600,A,A*40
$IIMTW,+16.0,C*3F
$HCHDG,350.9,0.0,E,,*26
$IIMWV,143,R,04.9,N,A*18
$GPRMC,122614.8,A,4741.10718,N,12224.75314,W,006.95,009.8,300813,016.6,E,A*24
$PGRME,3.0,M,3.0,M,4.3,M*29
$YXXDR,A,6.5,D,PTCH,A,6.2,D,ROLL*5A
$PTAK,FFD1,6.2*51
$HCHDG,351.1,0.0,E,,*2F
$HCHDG,351.4,0.0,E,,*2A
$GPRMC,122615.0,A,4741.10754,N,12224.75304,W,007.14,009.3,300813,016.6,E,A*27
$PGRME,3.0,M,3.0,M,4.3,M*29
$HCHDG,351.3,0.0,E,,*2D
$HCHDG,351.1,0.0,E,,*2F
$GPRMC,122615.2,A,4741.10788,N,12224.75303,W,006.92,009.9,300813,016.6,E,A*26
$PGRME,3.0,M,3.0,M,4.3,M*29
$IIMWV,164,T,10.3,N,A*14
$HCHDG,351.1,0.0,E,,*2F
$IIRMB,A,,,,Shil,,,,,000.1,101,,V,A*2A
$YXXDR,A,6.3,D,PTCH,A,7.0,D,ROLL*5F
$HCHDG,351.0,0.0,E,,*2E
$GPRMC,122615.4,A,4741.10825,N,12224.75302,W,006.96,009.4,300813,016.6,E,A*20
$PGRME,3.0,M,3.0,M,4.3,M*29
$IIRMC,122600,A,4741.106,N,12224.753,W,06.7,012,300813,16,E,A*12
$HCHDG,350.7,0.0,E,,*28
$IIVHW,,,,,05.9,N,,*15
$IIVLW,02141,N,001.2,N*56
$HCHDG,350.5,0.0,E,,*2A
$GPRMC,122615.6,A,4741.10868,N,12224.75287,W,006.97,009.5,300813,016.6,E,A*27
$GPRMB,A,-0.13,L,,Shil,4741.0830,N,12224.5670,W,0.1,102,-0.25,V*3D
$IIVWR,142,R,05.0,N,,,,*63
$PGRME,3.0,M,3.0,M,4.3,M*29
$IIDPT,029.8,-1.0,*43
$HCHDG,350.6,0.0,E,,*29
$IIGLL,4741.106,N,12224.753,W,122600,A,A*42
$HCHDG,350.5,0.0,E,,*2A
$IIMTW,+16.0,C*3F
$GPRMC,122615.8,A,4741.10905,N,12224.75282,W,006.78,010.5,300813,016.6,E,A*2F
$PGRME,3.0,M,3.0,M,4.3,M*29
$YXXDR,A,6.4,D,PTCH,A,6.8,D,ROLL*51
$PTAK,FFD1,6.8*5B
$HCHDG,350.5,0.0,E,,*2A
$HCHDG,350.1,0.0,E,,*2E
$GPRMC,122616.0,A,4741.10944,N,12224.75265,W,006.85,009.7,300813,016.6,E,A*20
$PGRME,3.0,M,3.0,M,4.3,M*29
$HCHDG,350.3,0.0,E,,*2C
$HCHDG,350.3,0.0,E,,*2C
$GPRMC,122616.2,A,4741.10985,N,12224.75259,W,006.67,008.3,300813,016.6,E,A*29
$PGRME,3.0,M,3.0,M,4.3,M*29
$IIMWV,150,R,05.0,N,A*12
$HCHDG,350.1,0.0,E,,*2E
$IIMWV,163,T,10.2,N,A*12
$YXXDR,A,6.3,D,PTCH,A,6.8,D,ROLL*56
$IIRMB,A,,,,Shil,,,,,000.1,102,,V,A*29
$HCHDG,350.2,0.0,E,,*2D
$GPRMC,122616.4,A,4741.11023,N,12224.75236,W,006.68,008.7,300813,016.6,E,A*29
$PGRME,3.0,M,3.0,M,4.3,M*29
$HCHDG,350.2,0.0,E,,*2D
$IIRMC,122600,A,4741.108,N,12224.753,W,06.9,009,300813,16,E,A*18
$IIVHW,,,,,05.7,N,,*1B
$HCHDG,350.4,0.0,E,,*2B
$IIVLW,02141,N,001.2,N*56
$GPRMC,122616.6,A,4741.11059,N,12224.75230,W,006.89,007.2,300813,016.6,E,A*25
$GPRMB,A,-0.12,L,,Shil,4741.0830,N,12224.5670,W,0.1,102,-0.63,V*3E
$PGRME,3.0,M,3.0,M,4.3,M*29
$IIVWR,150,R,05.0,N,,,,*60
$HCHDG,350.3,0.0,E,,*2C
$IIDPT,029.9,-1.0,*42
$HCHDG,350.2,0.0,E,,*2D
$GPRMC,122616.8,A,4741.11097,N,12224.75218,W,006.86,005.1,300813,016.6,E,A*2D
$PGRME,3.0,M,3.0,M,4.3,M*29
$YXXDR,A,6.4,D,PTCH,A,6.7,D,ROLL*5E
$HCHDG,350.3,0.0,E,,*2C
$HCHDG,350.3,0.0,E,,*2C
$GPRMC,122617.0,A,4741.11139,N,12224.75210,W,006.89,004.8,300813,016.6,E,A*2E
$PGRME,3.0,M,3.0,M,4.3,M*29
$HCHDG,350.4,0.0,E,,*2B
$HCHDG,350.5,0.0,E,,*2A
$GPRMC,122617.2,A,4741.11183,N,12224.75204,W,006.90,004.7,300813,016.6,E,A*2F
$PGRME,3.0,M,3.0,M,4.3,M*29
$IIGLL,4741.110,N,12224.752,W,122600,A,A*44
$HCHDG,350.2,0.0,E,,*2D
$IIMTW,+16.0,C*3F
$YXXDR,A,6.2,D,PTCH,A,6.2,D,ROLL*5D
$PTAK,FFD1,6.2*51
$IIMWV,154,R,04.9,N,A*1E
$HCHDG,350.4,0.0,E,,*2B
$IIMWV,166,T,10.3,N,A*16
$GPRMC,122617.4,A,4741.11222,N,12224.75193,W,006.83,005.2,300813,016.6,E,A*2A
$PGRME,3.0,M,3.0,M,4.3,M*29
$HCHDG,350.3,0.0,E,,*2C
$IIRMB,A,,,,Shil,,,,,000.1,102,,V,A*29
$HCHDG,350.2,0.0,E,,*2D
$GPRMC,122617.6,A,4741.11263,N,12224.75187,W,006.79,006.7,300813,016.6,E,A*2B
$PGRME,3.0,M,3.0,M,4.3,M*29
$IIRMC,122600,A,4741.110,N,12224.752,W,06.6,008,300813,16,E,A*1E
$HCHDG,350.2,0.0,E,,*2D
$IIVHW,,,,,05.6,N,,*1A
$IIVLW,02141,N,001.2,N*56
$HCHDG,350.0,0.0,E,,*2F
$GPRMC,122617.8,A,4741.11305,N,12224.75185,W,006.59,006.3,300813,016.6,E,A*20
$GPRMB,A,-0.12,L,,Shil,4741.0830,N,12224.5670,W,0.1,104,-0.83,V*36
$PGRME,3.0,M,3.0,M,4.3,M*29
$YXXDR,A,6.3,D,PTCH,A,5.1,D,ROLL*5C
$PTAK,FFP1,HEEL,@*07
$HCHDG,349.9,0.0,E,,*2E
$HCHDG,349.8,0.0,E,,*2F
$GPRMC,122618.0,A,4741.11343,N,12224.75174,W,006.75,006.4,300813,016.6,E,A*22
$PGRME,3.0,M,3.0,M,4.3,M*29
$HCHDG,349.8,0.0,E,,*2F
$HCHDG,349.7,0.0,E,,*20
$GPRMC,122618.2,A,4741.11383,N,12224.75168,W,006.78,007.0,300813,016.6,E,A*29
$PGRME,3.0,M,3.0,M,4.3,M*29
$IIVWR,152,R,04.8,N,,,,*6B
$HCHDG,349.7,0.0,E,,*20
$IIDPT,030.4,-1.0,*47
$YXXDR,A,6.4,D,PTCH,A,4.3,D,ROLL*58
$IIGLL,4741.110,N,12224.752,W,122600,A,A*44
$HCHDG,349.3,0.0,E,,*24
$IIMTW,+16.0,C*3F
$GPRMC,122618.4,A,4741.11419,N,12224.75164,W,006.74,007.5,300813,016.6,E,A*2E
$PGRME,3.0,M,3.0,M,4.3,M*29
$IIMWV,152,R,04.8,N,A*19
$HCHDG,349.6,0.0,E,,*21
$IIMWV,168,T,10.3,N,A*18
$HCHDG,349.2,0.0,E,,*25
$IIRMB,A,,,,Shil,,,,,000.1,102,,V,A*29
$GPRMC,122618.6,A,4741.11454,N,12224.75146,W,006.91,008.0,300813,016.6,E,A*24
$PGRME,3.0,M,3.0,M,4.3,M*29
$HCHDG,349.0,0.0,E,,*27
$IIRMC,122600,A,4741.110,N,12224.752,W,06.6,008,300813,16,E,A*1E
$HCHDG,348.8,0.0,E,,*2E
$GPRMC,122618.8,A,4741.11490,N,12224.75141,W,006.91,008.3,300813,016.6,E,A*26
$PGRME,3.0,M,3.0,M,4.3,M*29
$YXXDR,A,6.1,D,PTCH,A,4.1,D,ROLL*5F
$PTAK,FFD1,4.1*50
$HCHDG,348.9,0.0,E,,*2F
$HCHDG,348.7,0.0,E,,*21
$GPRMC,122619.0,A,4741.11527,N,12224.75131,W,006.91,008.7,300813,016.6,E,A*21
$GPRMB,A,-0.12,L,,Shil,4741.0830,N,12224.5670,W,0.1,105,-0.71,V*3A
$PGRME,3.0,M,3.0,M,4.3,M*29
$HCHDG,348.8,0.0,E,,*2E
$HCHDG,348.7,0.0,E,,*21
$GPRMC,122619.2,A,4741.11567,N,12224.75122,W,006.86,009.2,300813,016.6,E,A*27
$PGRME,3.0,M,3.0,M,4.3,M*29
$IIVHW,,,,,05.5,N,,*19
$HCHDG,348.8,0.0,E,,*2E
$IIVLW,02141,N,001.2,N*56
$IIVWR,153,R,04.5,N,,,,*67
$YXXDR,A,6.1,D,PTCH,A,4.6,D,ROLL*58
$IIDPT,030.6,-1.0,*45
$HCHDG,348.7,0.0,E,,*21
$GPRMC,122619.4,A,4741.11611,N,12224.75106,W,006.81,008.7,300813,016.6,E,A*26
$PGRME,3.0,M,3.0,M,4.3,M*29
$HCHDG,348.9,0.0,E,,*2F
$IIGLL,4741.114,N,12224.751,W,122600,A,A*43
$IIMTW,+16.0,C*3F
$IIMWV,153,R,04.5,N,A*15
$HCHDG,348.8,0.0,E,,*2E
$GPRMC,122619.6,A,4741.11661,N,12224.75102,W,006.77,008.6,300813,016.6,E,A*2F
$PGRME,3.0,M,3.0,M,4.3,M*29
$IIMWV,167,T,10.0,N,A*14
$HCHDG,348.9,0.0,E,,*2F
$IIRMB,A,,,,Shil,,,,,000.1,104,,V,A*2F
$HCHDG,349.1,0.0,E,,*26
$GPRMC,122619.8,A,4741.11706,N,12224.75096,W,006.78,007.7,300813,016.6,E,A*2C
$PGRME,3.0,M,3.0,M,4.3,M*29
$YXXDR,A,6.1,D,PTCH,A,5.8,D,ROLL*57
$HCHDG,349.2,0.0,E,,*25
$HCHDG,349.5,0.0,E,,*22
$GPRMC,122620.0,A,4741.11746,N,12224.75091,W,006.78,007.3,300813,016.6,E,A*29
$PGRME,3.0,M,3.0,M,4.3,M*29
$HCHDG,349.3,0.0,E,,*24
$HCHDG,349.5,0.0,E,,*22
$GPRMC,122620.2,A,4741.11780,N,12224.75088,W,007.01,006.9,300813,016.6,E,A*2D
$GPRMB,A,-0.12,L,,Shil,4741.0830,N,12224.5670,W,0.1,106,-1.07,V*39
$PGRME,3.0,M,3.0,M,4.3,M*29
$HCHDG,349.7,0.0,E,,*20
$IIRMC,122600,A,4741.116,N,12224.751,W,06.7,008,300813,16,E,A*1A
$IIVHW,,,,,05.4,N,,*18
$YXXDR,A,6.4,D,PTCH,A,6.5,D,ROLL*5C
$PTAK,FFD1,6.5*56
$HCHDG,349.7,0.0,E,,*20
$GPRMC,122620.4,A,4741.11821,N,12224.75087,W,006.97,006.0,300813,016.6,E,A*27
$PGRME,3.0,M,3.0,M,4.3,M*29
$IIVLW,02141,N,001.2,N*56
$HCHDG,349.6,0.0,E,,*21
$IIVWR,154,R,04.5,N,,,,*60
$IIDPT,030.8,-1.0,*4B
$HCHDG,349.7,0.0,E,,*20
$GPRMC,122620.6,A,4741.11858,N,12224.75075,W,006.95,007.2,300813,016.6,E,A*27
$IIGLL,4741.116,N,12224.751,W,122600,A,A*41
$PGRME,3.0,M,3.0,M,4.3,M*29
$IIMTW,+16.0,C*3F
$HCHDG,349.5,0.0,E,,*22
$IIMWV,154,R,04.5,N,A*12
$IIMWV,168,T,09.7,N,A*14
$HCHDG,349.7,0.0,E,,*20
$GPRMC,122620.8,A,4741.11894,N,12224.75056,W,006.99,007.3,300813,016.6,E,A*25
$PGRME,3.0,M,3.0,M,4.3,M*29
$YXXDR,A,6.7,D,PTCH,A,6.5,D,ROLL*5F
$HCHDG,349.5,0.0,E,,*22
$HCHDG,349.3,0.0,E,,*24
$GPRMC,122621.0,A,4741.11940,N,12224.75050,W,006.81,007.5,300813,016.6,E,A*2D
$PGRME,3.0,M,3.0,M,4.3,M*29
$HCHDG,349.3,0.0,E,,*24
$HCHDG,349.3,0.0,E,,*24
$GPRMC,122621.2,A,4741.11978,N,12224.75047,W,006.76,007.3,300813,016.6,E,A*2C
$PGRME,3.0,M,3.0,M,4.3,M*29
$IIRMB,A,,,,Shil,,,,,000.1,106,,V,A*2D
$HCHDG,349.2,0.0,E,,*25
$YXXDR,A,6.3,D,PTCH,A,6.0,D,ROLL*5E
$IIRMC,122600,A,4741.118,N,12224.750,W,06.9,007,300813,16,E,A*14
$HCHDG,349.1,0.0,E,,*26
$GPRMC,122621.4,A,4741.12015,N,12224.75036,W,006.78,006.6,300813,016.6,E,A*27
$GPRMB,A,-0.12,L,,Shil,4741.0830,N,12224.5670,W,0.1,107,-1.19,V*37
$PGRME,3.0,M,3.0,M,4.3,M*29
$IIVHW,,,,,05.6,N,,*1A
$HCHDG,349.1,0.0,E,,*26
$IIVLW,02141,N,001.2,N*56
$IIVWR,148,R,04.3,N,,,,*6B
$HCHDG,349.4,0.0,E,,*23
$IIDPT,031.0,-1.0,*42
$GPRMC,122621.6,A,4741.12056,N,12224.75026,W,006.95,006.5,300813,016.6,E,A*23
$PGRME,3.0,M,3.0,M,4.3,M*29
$HCHDG,349.3,0.0,E,,*24
$IIGLL,4741.118,N,12224.750,W,122600,A,A*4E
$IIMTW,+16.0,C*3F
$HCHDG,349.3,0.0,E,,*24
$IIMWV,148,R,04.3,N,A*19
$GPRMC,122621.8,A,4741.12098,N,12224.75022,W,006.92,006.0,300813,016.6,E,A*29
$PGRME,3.0,M,3.0,M,4.3,M*29
$YXXDR,A,6.1,D,PTCH,A,5.8,D,ROLL*57
$PTAK,FFD1,5.8*58
$HCHDG,349.4,0.0,E,,*23
$HCHDG,349.1,0.0,E,,*26
$GPRMC,122622.0,A,4741.12135,N,12224.75016,W,006.93,006.4,300813,016.6,E,A*26
$PGRME,3.0,M,3.0,M,4.3,M*29
$HCHDG,349.3,0.0,E,,*24
$PTAK,FFP1,HEEL,@*07
$HCHDG,349.1,0.0,E,,*26
$GPRMC,122622.2,A,4741.12173,N,12224.75009,W,006.94,006.9,300813,016.6,E,A*22
$PGRME,3.0,M,3.0,M,4.3,M*29
$IIMWV,167,T,09.4,N,A*18
$HCHDG,349.0,0.0,E,,*27
$IIRMB,A,,,,Shil,,,,,000.1,107,,V,A*2C
$YXXDR,A,7.0,D,PTCH,A,4.2,D,ROLL*5C
$HCHDG,349.0,0.0,E,,*27
$GPRMC,122622.4,A,4741.12210,N,12224.75000,W,006.88,007.4,300813,016.6,E,A*2A
$PGRME,3.0,M,3.0,M,4.3,M*29
$IIRMC,122600,A,4741.118,N,12224.750,W,06.9,007,300813,16,E,A*14
$HCHDG,349.0,0.0,E,,*27
$IIVHW,,,,,05.8,N,,*14
$IIVLW,02141,N,001.2,N*56
$HCHDG,348.9,0.0,E,,*2F
$IIVWR,157,R,04.3,N,,,,*65
$GPRMC,122622.6,A,4741.12249,N,12224.75000,W,006.70,007.1,300813,016.6,E,A*26
$GPRMB,A,-0.12,L,,Shil,4741.0830,N,12224.5670,W,0.1,108,-1.24,V*36
$PGRME,3.0,M,3.0,M,4.3,M*29
$IIDPT,031.2,-1.0,*40
$HCHDG,349.0,0.0,E,,*27
$IIGLL,4741.118,N,12224.750,W,122600,A,A*4E
$HCHDG,348.8,0.0,E,,*2E
$IIMTW,+16.0,C*3F
$GPRMC,122622.8,A,4741.12287,N,12224.74983,W,006.65,007.2,300813,016.6,E,A*2E
$PGRME,3.0,M,3.0,M,4.3,M*29
$YXXDR,A,6.8,D,PTCH,A,4.2,D,ROLL*55
$PTAK,FFD1,4.2*53
$HCHDG,348.7,0.0,E,,*21
$HCHDG,348.9,0.0,E,,*2F
$GPRMC,122623.0,A,4741.12330,N,12224.74984,W,006.97,006.5,300813,016.6,E,A*26
$PGRME,3.0,M,3.0,M,4.3,M*29
$HCHDG,348.8,0.0,E,,*2E
$HCHDG,349.0,0.0,E,,*27
$GPRMC,122623.2,A,4741.12375,N,12224.74973,W,006.94,006.0,300813,016.6,E,A*2B
$PGRME,3.0,M,3.0,M,4.3,M*29
$IIMWV,157,R,04.2,N,A*16
$HCHDG,349.2,0.0,E,,*25
$IIMWV,171,T,09.8,N,A*13
$YXXDR,A,6.4,D,PTCH,A,5.0,D,ROLL*5A
$IIRMB,A,,,,Shil,,,,,000.1,108,,V,A*23
$HCHDG,349.3,0.0,E,,*24
$GPRMC,122623.4,A,4741.12415,N,12224.74970,W,006.92,006.4,300813,016.6,E,A*2D
$PGRME,3.0,M,3.0,M,4.3,M*29
$HCHDG,349.4,0.0,E,,*23
$IIRMC,122600,A,4741.122,N,12224.750,W,06.7,007,300813,16,E,A*13
$IIVHW,,,,,05.9,N,,*15
$HCHDG,349.5,0.0,E,,*22
$IIVLW,02141,N,001.2,N*56
$GPRMC,122623.6,A,4741.12452,N,12224.74968,W,006.89,006.2,300813,016.6,E,A*29
$PGRME,3.0,M,3.0,M,4.3,M*29
$IIVWR,157,R,04.2,N,,,,*64
$HCHDG,349.2,0.0,E,,*25
$IIDPT,031.5,-1.0,*47
$HCHDG,349.3,0.0,E,,*24
$GPRMC,122623.8,A,4741.12490,N,12224.74963,W,006.84,007.9,300813,016.6,E,A*25
$GPRMB,A,-0.12,L,,Shil,4741.0830,N,12224.5670,W,0.1,109,-1.30,V*32
$PGRME,3.0,M,3.0,M,4.3,M*29
$YXXDR,A,6.0,D,PTCH,A,4.9,D,ROLL*56
$PTAK,FFD1,4.9*58
$HCHDG,349.3,0.0,E,,*24
$HCHDG,348.9,0.0,E,,*2F
$GPRMC,122624.0,A,4741.12529,N,12224.74955,W,006.82,008.3,300813,016.6,E,A*2F
$PGRME,3.0,M,3.0,M,4.3,M*29
$HCHDG,348.9,0.0,E,,*2F
$HCHDG,349.1,0.0,E,,*26
$GPRMC,122624.2,A,4741.12562,N,12224.74948,W,006.51,008.8,300813,016.6,E,A*2B
$PGRME,3.0,M,3.0,M,4.3,M*29
$IIGLL,4741.122,N,12224.750,W,122600,A,A*47
$HCHDG,349.1,0.0,E,,*26
$IIMTW,+16.0,C*3F
$YXXDR,A,6.2,D,PTCH,A,4.8,D,ROLL*55
$IIMWV,147,R,04.0,N,A*15
$HCHDG,349.3,0.0,E,,*24
$GPRMC,122624.4,A,4741.12593,N,12224.74941,W,006.53,008.6,300813,016.6,E,A*26
$IIMWV,171,T,09.8,N,A*13
$PGRME,3.0,M,3.0,M,4.3,M*29
$HCHDG,349.3,0.0,E,,*24
$IIRMB,A,,,,Shil,,,,,000.1,108,,V,A*23
$HCHDG,349.4,0.0,E,,*23
$GPRMC,122624.6,A,4741.12626,N,12224.74932,W,006.75,007.3,300813,016.6,E,A*23
$PGRME,3.0,M,3.0,M,4.3,M*29
$IIRMC,122600,A,4741.122,N,12224.750,W,06.7,007,300813,16,E,A*13
$HCHDG,349.5,0.0,E,,*22
$IIVHW,,,,,05.9,N,,*15
$IIVLW,02141,N,001.2,N*56
$HCHDG,349.7,0.0,E,,*20
$GPRMC,122624.8,A,4741.12660,N,12224.74915,W,006.75,007.1,300813,016.6,E,A*28
$GPRMB,A,-0.12,L,,Shil,4741.0830,N,12224.5670,W,0.1,110,-1.46,V*3B
$PGRME,3.0,M,3.0,M,4.3,M*29
$YXXDR,A,6.1,D,PTCH,A,5.6,D,ROLL*59
$PTAK,FFD1,5.6*56
$HCHDG,349.6,0.0,E,,*21
$HCHDG,349.6,0.0,E,,*21
$GPRMC,122625.0,A,4741.12692,N,12224.74909,W,007.06,007.9,300813,016.6,E,A*2C
$PGRME,3.0,M,3.0,M,4.3,M*29
$HCHDG,349.7,0.0,E,,*20
$HCHDG,349.5,0.0,E,,*22
$GPRMC,122625.2,A,4741.12724,N,12224.74898,W,007.10,009.0,300813,016.6,E,A*2B
$PGRME,3.0,M,3.0,M,4.3,M*29
$IIVWR,149,R,04.1,N,,,,*68
$HCHDG,349.1,0.0,E,,*26
$IIDPT,031.9,-1.0,*4B
$YXXDR,A,5.7,D,PTCH,A,4.8,D,ROLL*53
$IIGLL,4741.126,N,12224.749,W,122600,A,A*4B
$HCHDG,348.8,0.0,E,,*2E
$IIMTW,+16.0,C*3F
$GPRMC,122625.4,A,4741.12758,N,12224.74891,W,007.50,009.8,300813,016.6,E,A*23
$PGRME,3.0,M,3.0,M,4.3,M*29
$IIMWV,149,R,04.1,N,A*1A
$HCHDG,348.8,0.0,E,,*2E
$IIMWV,167,T,09.4,N,A*18
$HCHDG,348.5,0.0,E,,*23
$IIRMB,A,,,,Shil,,,,,000.1,109,,V,A*22
$GPRMC,122625.6,A,4741.12792,N,12224.74874,W,007.11,011.2,300813,016.6,E,A*2A
$PGRME,3.0,M,3.0,M,4.3,M*29
$HCHDG,348.2,0.0,E,,*24
$IIRMC,122600,A,4741.126,N,12224.749,W,06.7,007,300813,16,E,A*1F
$HCHDG,347.7,0.0,E,,*2E
$GPRMC,122625.8,A,4741.12828,N,12224.74857,W,006.63,013.1,300813,016.6,E,A*2E
$PGRME,3.0,M,3.0,M,4.3,M*29
$YXXDR,A,5.6,D,PTCH,A,4.1,D,ROLL*5B
$HCHDG,347.7,0.0,E,,*2E
$HCHDG,347.6,0.0,E,,*2F
$GPRMC,122626.0,A,4741.12864,N,12224.74846,W,006.59,012.5,300813,016.6,E,A*21
$GPRMB,A,-0.12,L,,Shil,4741.0830,N,12224.5670,W,0.1,110,-0.92,V*33
$PGRME,3.0,M,3.0,M,4.3,M*29
$HCHDG,347.8,0.0,E,,*21
$PTAK,FFP1,HEEL,@*07
$HCHDG,347.5,0.0,E,,*2C
$GPRMC,122626.2,A,4741.12899,N,12224.74839,W,006.59,011.4,300813,016.6,E,A*2B
$PGRME,3.0,M,3.0,M,4.3,M*29
$IIVHW,,,,,06.1,N,,*1E
$IIVLW,02141,N,001.2,N*56
$HCHDG,347.7,0.0,E,,*2E
$IIVWR,135,R,04.0,N,,,,*62
$YXXDR,A,6.6,D,PTCH,A,5.7,D,ROLL*5F
$PTAK,FFD1,5.7*57
$IIDPT,032.0,-1.0,*41
$HCHDG,348.1,0.0,E,,*27
$GPRMC,122626.4,A,4741.12937,N,12224.74829,W,006.75,008.7,300813,016.6,E,A*2C
$PGRME,3.0,M,3.0,M,4.3,M*29
$IIGLL,4741.127,N,12224.748,W,122600,A,A*4B
$HCHDG,348.4,0.0,E,,*22
$IIMTW,+16.0,C*3F
$IIMWV,135,R,04.0,N,A*10
$HCHDG,348.5,0.0,E,,*23
$GPRMC,122626.6,A,4741.12975,N,12224.74820,W,007.06,005.8,300813,016.6,E,A*26
$PGRME,3.0,M,3.0,M,4.3,M*29
$IIMWV,168,T,09.7,N,A*14
$HCHDG,348.8,0.0,E,,*2E
$IIRMB,A,,,,Shil,,,,,000.1,110,,V,A*2A
$HCHDG,349.1,0.0,E,,*26
$GPRMC,122626.8,A,4741.13016,N,12224.74812,W,007.23,005.3,300813,016.6,E,A*28
$PGRME,3.0,M,3.0,M,4.3,M*29
$YXXDR,A,6.9,D,PTCH,A,7.6,D,ROLL*53
$HCHDG,349.3,0.0,E,,*24
$HCHDG,349.6,0.0,E,,*21
$GPRMC,122627.0,A,4741.13055,N,12224.74811,W,007.05,003.9,300813,016.6,E,A*2D
$PGRME,3.0,M,3.0,M,4.3,M*29
$HCHDG,349.7,0.0,E,,*20
$HCHDG,349.7,0.0,E,,*20
$GPRMC,122627.2,A,4741.13096,N,12224.74814,W,006.85,004.4,300813,016.6,E,A*26
$GPRMB,A,-0.12,L,,Shil,4741.0830,N,12224.5670,W,0.1,111,-2.01,V*3A
$PGRME,3.0,M,3.0,M,4.3,M*29
$HCHDG,349.4,0.0,E,,*23
$IIRMC,122600,A,4741.130,N,12224.748,W,07.2,005,300813,16,E,A*1F
$YXXDR,A,6.2,D,PTCH,A,7.5,D,ROLL*5B
$PTAK,FFD1,7.5*57
$IIVHW,,,,,06.0,N,,*1F
$HCHDG,349.2,0.0,E,,*25
$GPRMC,122627.4,A,4741.13128,N,12224.74807,W,006.82,005.7,300813,016.6,E,A*23
$IIVLW,02141,N,001.2,N*56
$PGRME,3.0,M,3.0,M,4.3,M*29
$HCHDG,349.0,0.0,E,,*27
$IIVWR,137,R,04.1,N,,,,*61
$IIDPT,032.4,-1.0,*45
$HCHDG,348.8,0.0,E,,*2E
$GPRMC,122627.6,A,4741.13165,N,12224.74805,W,006.61,006.6,300813,016.6,E,A*25
$IIGLL,4741.130,N,12224.748,W,122600,A,A*4D
$PGRME,3.0,M,3.0,M,4.3,M*29
$IIMTW,+16.0,C*3F
$HCHDG,348.7,0.0,E,,*21
$IIMWV,137,R,04.1,N,A*13
$IIMWV,163,T,09.4,N,A*1C
$HCHDG,348.6,0.0,E,,*20
$GPRMC,122627.8,A,4741.13203,N,12224.74800,W,006.58,006.2,300813,016.6,E,A*23
$PGRME,3.0,M,3.0,M,4.3,M*29
$YXXDR,A,6.6,D,PTCH,A,5.7,D,ROLL*5F
$HCHDG,348.6,0.0,E,,*20
$HCHDG,348.6,0.0,E,,*20
$GPRMC,122628.0,A,4741.13245,N,12224.74798,W,006.60,004.6,300813,016.6,E,A*25
$PGRME,3.0,M,3.0,M,4.3,M*29
$HCHDG,348.7,0.0,E,,*21
$HCHDG,348.8,0.0,E,,*2E
$GPRMC,122628.2,A,4741.13283,N,12224.74795,W,006.67,004.0,300813,016.6,E,A*21
$GPRMB,A,-0.12,L,,Shil,4741.0830,N,12224.5670,W,0.1,112,-2.09,V*31
$PGRME,3.0,M,3.0,M,4.3,M*29
$IIRMB,A,,,,Shil,,,,,000.1,110,,V,A*2A
$HCHDG,348.9,0.0,E,,*2F
$YXXDR,A,6.4,D,PTCH,A,5.3,D,ROLL*59
$PTAK,FFD1,5.3*53
$IIRMC,122600,A,4741.132,N,12224.748,W,06.5,006,300813,16,E,A*18
$HCHDG,348.9,0.0,E,,*2F
$GPRMC,122628.4,A,4741.13321,N,12224.74795,W,006.74,004.7,300813,016.6,E,A*2B
$PGRME,3.0,M,3.0,M,4.3,M*29
$IIVHW,,,,,05.9,N,,*15
$HCHDG,348.8,0.0,E,,*2E
$IIVLW,02141,N,001.2,N*56
$IIVWR,125,R,04.2,N,,,,*61
$HCHDG,348.8,0.0,E,,*2E
$IIDPT,032.7,-1.0,*46
$GPRMC,122628.6,A,4741.13357,N,12224.74789,W,007.16,004.9,300813,016.6,E,A*2E
$PGRME,3.0,M,3.0,M,4.3,M*29
$HCHDG,348.6,0.0,E,,*20
$IIGLL,4741.132,N,12224.748,W,122600,A,A*4F
$IIMTW,+16.0,C*3F
$HCHDG,348.5,0.0,E,,*23
$IIMWV,125,R,04.2,N,A*13
$GPRMC,122628.8,A,4741.13387,N,12224.74780,W,006.66,005.3,300813,016.6,E,A*29
$PGRME,3.0,M,3.0,M,4.3,M*29
$YXXDR,A,6.0,D,PTCH,A,4.2,D,ROLL*5D
$HCHDG,348.3,0.0,E,,*25
$HCHDG,348.1,0.0,E,,*27
$GPRMC,122629.0,A,4741.13425,N,12224.74774,W,006.94,006.9,300813,016.6,E,A*20
$PGRME,3.0,M,3.0,M,4.3,M*29
$HCHDG,348.1,0.0,E,,*27
$HCHDG,348.2,0.0,E,,*24
$GPRMC,122629.2,A,4741.13458,N,12224.74774,W,006.50,005.9,300813,016.6,E,A*23
$PGRME,3.0,M,3.0,M,4.3,M*29
$IIMWV,158,T,08.9,N,A*18
$HCHDG,348.2,0.0,E,,*24
$IIRMB,A,,,,Shil,,,,,000.1,110,,V,A*2A
$YXXDR,A,6.7,D,PTCH,A,3.4,D,ROLL*5B
$HCHDG,348.0,0.0,E,,*26
$GPRMC,122629.4,A,4741.13497,N,12224.74767,W,006.54,007.8,300813,016.6,E,A*23
$PGRME,3.0,M,3.0,M,4.3,M*29
$IIRMC,122600,A,4741.133,N,12224.747,W,06.6,005,300813,16,E,A*16
$HCHDG,348.0,0.0,E,,*26
$IIVHW,,,,,05.9,N,,*15
$IIVLW,02141,N,001.2,N*56
$HCHDG,348.3,0.0,E,,*25
$GPRMC,122629.6,A,4741.13538,N,12224.74755,W,006.47,006.7,300813,016.6,E,A*28
$GPRMB,A,-0.12,L,,Shil,4741.0830,N,12224.5670,W,0.1,113,-1.85,V*37
$IIVWR,135,R,04.1,N,,,,*63
$PGRME,3.0,M,3.0,M,4.3,M*29
$IIDPT,033.0,-1.0,*40
$HCHDG,348.3,0.0,E,,*25
$IIGLL,4741.133,N,12224.747,W,122600,A,A*41
$HCHDG,348.5,0.0,E,,*23
$IIMTW,+16.0,C*3F
$GPRMC,122629.8,A,4741.13579,N,12224.74752,W,006.80,006.0,300813,016.6,E,A*28
$PGRME,3.0,M,3.0,M,4.3,M*29
$YXXDR,A,5.2,D,PTCH,A,3.9,D,ROLL*50
$PTAK,FFD1,3.9*5F
$HCHDG,348.5,0.0,E,,*23
$HCHDG,348.5,0.0,E,,*23
$GPRMC,122630.0,A,4741.13619,N,12224.74745,W,007.00,006.2,300813,016.6,E,A*20
$PGRME,3.0,M,3.0,M,4.3,M*29
$HCHDG,348.9,0.0,E,,*2F
$HCHDG,348.9,0.0,E,,*2F
$GPRMC,122630.2,A,4741.13658,N,12224.74735,W,006.82,005.9,300813,016.6,E,A*23
$PGRME,3.0,M,3.0,M,4.3,M*29
$IIMWV,136,R,04.1,N,A*12
$PTAK,FFP1,HEEL,@*07
$HCHDG,348.9,0.0,E,,*2F
$IIMWV,162,T,09.3,N,A*1A
$YXXDR,A,5.8,D,PTCH,A,5.0,D,ROLL*55
$IIRMB,A,,,,Shil,,,,,000.1,113,,V,A*29
$HCHDG,349.1,0.0,E,,*26
$GPRMC,122630.4,A,4741.13694,N,12224.74728,W,007.00,007.0,300813,016.6,E,A*29
$PGRME,3.0,M,3.0,M,4.3,M*29
$HCHDG,349.1,0.0,E,,*26
$IIRMC,122600,A,4741.135,N,12224.747,W,06.8,006,300813,16,E,A*1D
$IIVHW,,,,,06.0,N,,*1F
$HCHDG,349.0,0.0,E,,*27
$IIVLW,02141,N,001.2,N*56
$GPRMC,122630.6,A,4741.13731,N,12224.74712,W,006.69,006.9,300813,016.6,E,A*2A
$GPRMB,A,-0.12,L,,Shil,4741.0830,N,12224.5670,W,0.1,114,-1.98,V*3C
$PGRME,3.0,M,3.0,M,4.3,M*29
$IIVWR,136,R,04.1,N,,,,*60
$HCHDG,349.2,0.0,E,,*25
$IIDPT,033.2,-1.0,*42
$HCHDG,348.9,0.0,E,,*2F
$GPRMC,122630.8,A,4741.13763,N,12224.74710,W,006.74,008.6,300813,016.6,E,A*2C
$PGRME,3.0,M,3.0,M,4.3,M*29
$YXXDR,A,6.1,D,PTCH,A,5.2,D,ROLL*5D
$HCHDG,349.1,0.0,E,,*26
$HCHDG,349.3,0.0,E,,*24
$GPRMC,122631.0,A,4741.13804,N,12224.74711,W,006.57,006.9,300813,016.6,E,A*2A
$PGRME,3.0,M,3.0,M,4.3,M*29
$HCHDG,349.4,0.0,E,,*23
$HCHDG,349.4,0.0,E,,*23
$GPRMC,122631.2,A,4741.13846,N,12224.74703,W,006.65,006.0,300813,016.6,E,A*25
$PGRME,3.0,M,3.0,M,4.3,M*29
$IIGLL,4741.137,N,12224.747,W,122600,A,A*45
$HCHDG,350.0,0.0,E,,*2F
$IIMTW,+16.0,C*3F
$YXXDR,A,6.6,D,PTCH,A,6.1,D,ROLL*5A
$PTAK,FFD1,6.1*52
$IIMWV,116,R,04.0,N,A*11
$HCHDG,350.2,0.0,E,,*2D
$GPRMC,122631.4,A,4741.13876,N,12224.74706,W,006.98,005.8,300813,016.6,E,A*2C
$IIMWV,163,T,09.3,N,A*1B
$PGRME,3.0,M,3.0,M,4.3,M*29
$HCHDG,350.5,0.0,E,,*2A
$IIRMB,A,,,,Shil,,,,,000.1,114,,V,A*2E
$HCHDG,350.8,0.0,E,,*27
$GPRMC,122631.6,A,4741.13909,N,12224.74698,W,006.82,005.3,300813,016.6,E,A*21
$PGRME,3.0,M,3.0,M,4.3,M*29
$IIRMC,122600,A,4741.137,N,12224.747,W,06.7,008,300813,16,E,A*1E
$HCHDG,350.8,0.0,E,,*27
$IIVHW,,,,,06.1,N,,*1E
$IIVLW,02141,N,001.2,N*56
$HCHDG,350.9,0.0,E,,*26
$GPRMC,122631.8,A,4741.13940,N,12224.74685,W,007.01,006.7,300813,016.6,E,A*23
$GPRMB,A,-0.12,L,,Shil,4741.0830,N,12224.5670,W,0.1,115,-2.20,V*3D
$PGRME,3.0,M,3.0,M,4.3,M*29
$YXXDR,A,6.5,D,PTCH,A,5.8,D,ROLL*53
$HCHDG,350.7,0.0,E,,*28
$HCHDG,350.4,0.0,E,,*2B
$GPRMC,122632.0,A,4741.13963,N,12224.74674,W,006.61,008.9,300813,016.6,E,A*20
$PGRME,3.0,M,3.0,M,4.3,M*29
$HCHDG,350.2,0.0,E,,*2D
$HCHDG,350.0,0.0,E,,*2F
$GPRMC,122632.2,A,4741.13995,N,12224.74670,W,007.03,008.9,300813,016.6,E,A*2A
$PGRME,3.0,M,3.0,M,4.3,M*29
$IIVWR,139,R,04.0,N,,,,*6E
$IIDPT,033.8,-1.0,*48
$HCHDG,350.0,0.0,E,,*2F
$YXXDR,A,6.2,D,PTCH,A,3.9,D,ROLL*53
$IIGLL,4741.139,N,12224.746,W,122600,A,A*4A
$HCHDG,349.8,0.0,E,,*2F
$IIMTW,+16.0,C*3F
$GPRMC,122632.4,A,4741.14027,N,12224.74660,W,006.66,010.1,300813,016.6,E,A*29
$PGRME,3.0,M,3.0,M,4.3,M*29
$IIMWV,139,R,04.0,N,A*1C
$HCHDG,349.6,0.0,E,,*21
$IIMWV,155,T,08.5,N,A*19
$HCHDG,349.8,0.0,E,,*2F
$IIRMB,A,,,,Shil,,,,,000.1,114,,V,A*2E
$GPRMC,122632.6,A,4741.14059,N,12224.74657,W,006.50,010.4,300813,016.6,E,A*26
$PGRME,3.0,M,3.0,M,4.3,M*29
$HCHDG,349.8,0.0,E,,*2F
$IIRMC,122600,A,4741.139,N,12224.746,W,07.0,006,300813,16,E,A*19
$HCHDG,349.9,0.0,E,,*2E
$GPRMC,122632.8,A,4741.14096,N,12224.74652,W,006.55,010.2,300813,016.6,E,A*2D
$GPRMB,A,-0.12,L,,Shil,4741.0830,N,12224.5670,W,0.1,116,-1.74,V*3C
$PGRME,3.0,M,3.0,M,4.3,M*29
$YXXDR,A,6.5,D,PTCH,A,3.7,D,ROLL*5A
$PTAK,FFD1,3.7*51
$HCHDG,349.9,0.0,E,,*2E
$HCHDG,350.2,0.0,E,,*2D
$GPRMC,122633.0,A,4741.14131,N,12224.74655,W,006.80,008.8,300813,016.6,E,A*24
$PGRME,3.0,M,3.0,M,4.3,M*29
$HCHDG,350.1,0.0,E,,*2E
$HCHDG,350.4,0.0,E,,*2B
$GPRMC,122633.2,A,4741.14167,N,12224.74645,W,006.87,009.4,300813,016.6,E,A*2E
$PGRME,3.0,M,3.0,M,4.3,M*29
$IIVHW,,,,,05.8,N,,*14
$HCHDG,350.4,0.0,E,,*2B
$IIVLW,02141,N,001.2,N*56
$IIVWR,151,R,04.0,N,,,,*60
$YXXDR,A,6.0,D,PTCH,A,4.0,D,ROLL*5F
$IIDPT,034.1,-1.0,*46
$HCHDG,350.4,0.0,E,,*2B
$GPRMC,122633.4,A,4741.14204,N,12224.74632,W,006.91,010.1,300813,016.6,E,A*24
$PGRME,3.0,M,3.0,M,4.3,M*29
$HCHDG,350.3,0.0,E,,*2C
$IIGLL,4741.140,N,12224.746,W,122600,A,A*44
$IIMTW,+16.0,C*3F
$IIMWV,151,R,04.0,N,A*12
$HCHDG,350.2,0.0,E,,*2D
$GPRMC,122633.6,A,4741.14240,N,12224.74619,W,006.85,011.3,300813,016.6,E,A*29
$PGRME,3.0,M,3.0,M,4.3,M*29
$IIMWV,164,T,09.4,N,A*1B
$HCHDG,350.4,0.0,E,,*2B
$IIRMB,A,,,,Shil,,,,,000.1,115,,V,A*2F
$HCHDG,350.3,0.0,E,,*2C
$GPRMC,122633.8,A,4741.14274,N,12224.74604,W,006.80,011.9,300813,016.6,E,A*23
$PGRME,3.0,M,3.0,M,4.3,M*29
$YXXDR,A,6.2,D,PTCH,A,3.6,D,ROLL*5C
$HCHDG,350.0,0.0,E,,*2F
$HCHDG,350.0,0.0,E,,*2F
$GPRMC,122634.0,A,4741.14311,N,12224.74591,W,006.76,012.4,300813,016.6,E,A*26
$GPRMB,A,-0.12,L,,Shil,4741.0830,N,12224.5670,W,0.1,117,-1.65,V*3D
$PGRME,3.0,M,3.0,M,4.3,M*29
$HCHDG,350.0,0.0,E,,*2F
$HCHDG,350.0,0.0,E,,*2F
$GPRMC,122634.2,A,4741.14348,N,12224.74583,W,006.49,011.9,300813,016.6,E,A*29
$PGRME,3.0,M,3.0,M,4.3,M*29
$HCHDG,350.2,0.0,E,,*2D
$IIRMC,122600,A,4741.142,N,12224.746,W,06.8,011,300813,16,E,A*1A
$YXXDR,A,6.4,D,PTCH,A,4.1,D,ROLL*5A
$PTAK,FFD1,4.1*50
$PTAK,FFP1,HEEL,@*07
$IIVHW,,,,,05.7,N,,*1B
$HCHDG,350.2,0.0,E,,*2D
$GPRMC,122634.4,A,4741.14384,N,12224.74568,W,006.52,011.0,300813,016.6,E,A*29
$IIVLW,02141,N,001.2,N*56
$PGRME,3.0,M,3.0,M,4.3,M*29
$HCHDG,350.4,0.0,E,,*2B
$IIVWR,139,R,03.9,N,,,,*60
$IIDPT,034.4,-1.0,*43
$HCHDG,350.6,0.0,E,,*29
$GPRMC,122634.6,A,4741.14418,N,12224.74557,W,006.54,009.8,300813,016.6,E,A*22
$IIGLL,4741.142,N,12224.746,W,122600,A,A*46
$PGRME,3.0,M,3.0,M,4.3,M*29
$IIMTW,+16.0,C*3F
$HCHDG,350.7,0.0,E,,*28
$IIMWV,139,R,03.9,N,A*12
$IIMWV,168,T,09.4,N,A*17
$HCHDG,350.9,0.0,E,,*26
$GPRMC,122634.8,A,4741.14457,N,12224.74542,W,006.86,009.7,300813,016.6,E,A*23
$PGRME,3.0,M,3.0,M,4.3,M*29
$YXXDR,A,6.1,D,PTCH,A,5.3,D,ROLL*5C
$HCHDG,351.0,0.0,E,,*2E
$HCHDG,350.8,0.0,E,,*27
$GPRMC,122635.0,A,4741.14493,N,12224.74530,W,006.94,009.5,300813,016.6,E,A*26
$GPRMB,A,-0.12,L,,Shil,4741.0830,N,12224.5670,W,0.1,117,-2.12,V*3E
$PGRME,3.0,M,3.0,M,4.3,M*29
$HCHDG,350.7,0.0,E,,*28
$HCHDG,350.5,0.0,E,,*2A
$GPRMC,122635.2,A,4741.14532,N,12224.74516,W,006.91,010.0,300813,016.6,E,A*22
$PGRME,3.0,M,3.0,M,4.3,M*29
$IIRMB,A,,,,Shil,,,,,000.1,117,,V,A*2D
$HCHDG,350.7,0.0,E,,*28
$YXXDR,A,6.0,D,PTCH,A,5.2,D,ROLL*5C
$IIRMC,122600,A,4741.144,N,12224.745,W,06.8,009,300813,16,E,A*16
$HCHDG,350.2,0.0,E,,*2D
$GPRMC,122635.4,A,4741.14570,N,12224.74511,W,006.94,011.1,300813,016.6,E,A*20
$PGRME,3.0,M,3.0,M,4.3,M*29
$IIVHW,,,,,05.5,N,,*19
$HCHDG,350.0,0.0,E,,*2F
$IIVLW,02141,N,001.2,N*56
$IIVWR,143,R,04.3,N,,,,*60
$HCHDG,349.9,0.0,E,,*2E
$IIDPT,034.7,-1.0,*40
$GPRMC,122635.6,A,4741.14608,N,12224.74504,W,006.98,011.7,300813,016.6,E,A*20
$PGRME,3.0,M,3.0,M,4.3,M*29
$HCHDG,349.7,0.0,E,,*20
$IIGLL,4741.144,N,12224.745,W,122600,A,A*43
$IIMTW,+16.0,C*3F
$HCHDG,349.5,0.0,E,,*22
$IIMWV,143,R,04.3,N,A*12
$GPRMC,122635.8,A,4741.14647,N,12224.74498,W,006.74,012.3,300813,016.6,E,A*24
$PGRME,3.0,M,3.0,M,4.3,M*29
$YXXDR,A,6.0,D,PTCH,A,4.9,D,ROLL*56
$PTAK,FFD1,4.9*58
$HCHDG,349.5,0.0,E,,*22
$HCHDG,349.1,0.0,E,,*26
$GPRMC,122636.0,A,4741.14688,N,12224.74502,W,006.54,012.1,300813,016.6,E,A*2E
$PGRME,3.0,M,3.0,M,4.3,M*29
$HCHDG,349.2,0.0,E,,*25
$HCHDG,349.2,0.0,E,,*25
$GPRMC,122636.2,A,4741.14726,N,12224.74493,W,006.52,011.0,300813,016.6,E,A*24
$GPRMB,A,-0.12,L,,Shil,4741.0830,N,12224.5670,W,0.1,118,-1.93,V*3B
$PGRME,3.0,M,3.0,M,4.3,M*29
$IIMWV,165,T,09.3,N,A*1D
$HCHDG,349.5,0.0,E,,*22
$IIRMB,A,,,,Shil,,,,,000.1,117,,V,A*2D
$YXXDR,A,6.7,D,PTCH,A,6.3,D,ROLL*59
$HCHDG,349.6,0.0,E,,*21
$GPRMC,122636.4,A,4741.14759,N,12224.74475,W,006.73,010.1,300813,016.6,E,A*21
$PGRME,3.0,M,3.0,M,4.3,M*29
$IIRMC,122600,A,4741.146,N,12224.744,W,06.7,012,300813,16,E,A*10
$HCHDG,349.9,0.0,E,,*2E
$IIVHW,,,,,05.2,N,,*1E
$IIVLW,02141,N,001.2,N*56
$HCHDG,350.0,0.0,E,,*2F
$GPRMC,122636.6,A,4741.14794,N,12224.74470,W,006.97,007.4,300813,016.6,E,A*2E
$IIVWR,138,R,04.3,N,,,,*6C
$PGRME,3.0,M,3.0,M,4.3,M*29
$IIDPT,035.0,-1.0,*46
$HCHDG,350.1,0.0,E,,*2E
$IIGLL,4741.146,N,12224.744,W,122600,A,A*40
$HCHDG,350.2,0.0,E,,*2D
$IIMTW,+16.0,C*3F
$GPRMC,122636.8,A,4741.14829,N,12224.74468,W,006.91,005.4,300813,016.6,E,A*24
$PGRME,3.0,M,3.0,M,4.3,M*29
$YXXDR,A,6.7,D,PTCH,A,7.5,D,ROLL*5E
$HCHDG,350.5,0.0,E,,*2A
$HCHDG,350.4,0.0,E,,*2B
$GPRMC,122637.0,A,4741.14867,N,12224.74455,W,006.94,006.6,300813,016.6,E,A*2D
$PGRME,3.0,M,3.0,M,4.3,M*29
$HCHDG,350.5,0.0,E,,*2A
$HCHDG,350.6,0.0,E,,*29
$GPRMC,122637.2,A,4741.14911,N,12224.74447,W,006.90,005.0,300813,016.6,E,A*2D
$PGRME,3.0,M,3.0,M,4.3,M*29
$IIMWV,142,R,04.4,N,A*14
$HCHDG,350.6,0.0,E,,*29
$IIMWV,162,T,08.8,N,A*10
$YXXDR,A,6.5,D,PTCH,A,7.2,D,ROLL*5B
$PTAK,FFD1,7.2*50
$IIRMB,A,,,,Shil,,,,,000.1,118,,V,A*22
$HCHDG,350.5,0.0,E,,*2A
$GPRMC,122637.4,A,4741.14951,N,12224.74443,W,006.91,006.2,300813,016.6,E,A*2B
$GPRMB,A,-0.12,L,,Shil,4741.0830,N,12224.5670,W,0.1,119,-2.69,V*3C
$PGRME,3.0,M,3.0,M,4.3,M*29
$HCHDG,350.5,0.0,E,,*2A
$IIRMC,122600,A,4741.146,N,12224.744,W,06.7,012,300813,16,E,A*10
$IIVHW,,,,,05.0,N,,*1C
$HCHDG,350.2,0.0,E,,*2D
$IIVLW,02141,N,001.2,N*56
$GPRMC,122637.6,A,4741.14989,N,12224.74434,W,006.84,006.9,300813,016.6,E,A*23
$PGRME,3.0,M,3.0,M,4.3,M*29
$IIVWR,142,R,04.4,N,,,,*66
$HCHDG,349.8,0.0,E,,*2F
$IIDPT,035.2,-1.0,*44
$HCHDG,349.7,0.0,E,,*20
$GPRMC,122637.8,A,4741.15029,N,12224.74425,W,006.57,006.5,300813,016.6,E,A*2D
$PGRME,3.0,M,3.0,M,4.3,M*29
$YXXDR,A,6.4,D,PTCH,A,5.5,D,ROLL*5F
$HCHDG,349.8,0.0,E,,*2F
$HCHDG,349.7,0.0,E,,*20
$GPRMC,122638.0,A,4741.15072,N,12224.74416,W,006.65,007.1,300813,016.6,E,A*20
$PGRME,3.0,M,3.0,M,4.3,M*29
$HCHDG,349.5,0.0,E,,*22
$HCHDG,349.6,0.0,E,,*21
$GPRMC,122638.2,A,4741.15112,N,12224.74414,W,006.63,005.7,300813,016.6,E,A*25
$PGRME,3.0,M,3.0,M,4.3,M*29
$IIGLL,4741.148,N,12224.744,W,122600,A,A*4E
$HCHDG,349.4,0.0,E,,*23
$IIMTW,+16.0,C*3F
$YXXDR,A,6.4,D,PTCH,A,5.1,D,ROLL*5B
$PTAK,FFD1,5.1*51
$IIMWV,148,R,04.6,N,A*1C
$PTAK,FFP1,HEEL,@*07
$HCHDG,349.4,0.0,E,,*23
$GPRMC,122638.4,A,4741.15156,N,12224.74414,W,006.88,007.0,300813,016.6,E,A*23
$GPRMB,A,-0.12,L,,Shil,4741.0830,N,12224.5670,W,0.1,120,-2.68,V*37
$IIMWV,163,T,08.9,N,A*10
$PGRME,3.0,M,3.0,M,4.3,M*29
$HCHDG,349.6,0.0,E,,*21
$IIRMB,A,,,,Shil,,,,,000.1,119,,V,A*23
$HCHDG,349.5,0.0,E,,*22
$GPRMC,122638.6,A,4741.15203,N,12224.74407,W,006.84,005.9,300813,016.6,E,A*27
$PGRME,3.0,M,3.0,M,4.3,M*29
$IIRMC,122600,A,4741.148,N,12224.744,W,06.9,006,300813,16,E,A*15
$HCHDG,349.5,0.0,E,,*22
$IIVHW,,,,,05.0,N,,*1C
$IIVLW,02141,N,001.2,N*56
$HCHDG,349.4,0.0,E,,*23
$GPRMC,122638.8,A,4741.15242,N,12224.74397,W,006.84,006.2,300813,016.6,E,A*2A
$PGRME,3.0,M,3.0,M,4.3,M*29
$YXXDR,A,6.7,D,PTCH,A,4.4,D,ROLL*5C
$HCHDG,349.4,0.0,E,,*23
$HCHDG,349.3,0.0,E,,*24
$GPRMC,122639.0,A,4741.15283,N,12224.74390,W,006.84,006.8,300813,016.6,E,A*23
$PGRME,3.0,M,3.0,M,4.3,M*29
$HCHDG,349.3,0.0,E,,*24
$HCHDG,349.2,0.0,E,,*25
$GPRMC,122639.2,A,4741.15320,N,12224.74380,W,006.85,007.2,300813,016.6,E,A*22
$PGRME,3.0,M,3.0,M,4.3,M*29
$IIVWR,151,R,04.6,N,,,,*66
$HCHDG,348.8,0.0,E,,*2E
$IIDPT,035.9,-1.0,*4F
$YXXDR,A,6.2,D,PTCH,A,3.9,D,ROLL*53
$IIGLL,4741.150,N,12224.744,W,122600,A,A*47
$HCHDG,349.0,0.0,E,,*27
$GPRMC,122639.4,A,4741.15361,N,12224.74366,W,006.82,007.5,300813,016.6,E,A*29
$IIMTW,+16.0,C*3F
$PGRME,3.0,M,3.0,M,4.3,M*29
$IIMWV,151,R,04.6,N,A*14
$HCHDG,349.0,0.0,E,,*27
$IIMWV,165,T,09.2,N,A*1C
$HCHDG,348.9,0.0,E,,*2F
$IIRMB,A,,,,Shil,,,,,000.1,120,,V,A*29
$GPRMC,122639.6,A,4741.15403,N,12224.74358,W,006.60,007.8,300813,016.6,E,A*24
$GPRMB,A,-0.12,L,,Shil,4741.0830,N,12224.5670,W,0.1,121,-2.58,V*35
$PGRME,3.0,M,3.0,M,4.3,M*29
$HCHDG,348.9,0.0,E,,*2F
$IIRMC,122600,A,4741.150,N,12224.744,W,06.6,007,300813,16,E,A*12
$HCHDG,348.8,0.0,E,,*2E
$GPRMC,122639.8,A,4741.15441,N,12224.74358,W,006.57,007.9,300813,016.6,E,A*29
$PGRME,3.0,M,3.0,M,4.3,M*29
$YXXDR,A,6.7,D,PTCH,A,4.4,D,ROLL*5C
$PTAK,FFD1,4.4*55
$HCHDG,348.9,0.0,E,,*2F
$HCHDG,348.9,0.0,E,,*2F
$GPRMC,122640.0,A,4741.15479,N,12224.74352,W,006.75,006.2,300813,016.6,E,A*24
$PGRME,3.0,M,3.0,M,4.3,M*29
$HCHDG,348.9,0.0,E,,*2F
$HCHDG,349.3,0.0,E,,*24
$GPRMC,122640.2,A,4741.15516,N,12224.74352,W,006.82,006.4,300813,016.6,E,A*20
$PGRME,3.0,M,3.0,M,4.3,M*29
$IIVHW,,,,,05.6,N,,*1A
$HCHDG,349.2,0.0,E,,*25
$IIVLW,02141,N,001.2,N*56
$IIVWR,153,R,04.6,N,,,,*64
$YXXDR,A,6.4,D,PTCH,A,5.0,D,ROLL*5A
$IIDPT,036.3,-1.0,*46
$HCHDG,349.1,0.0,E,,*26
$GPRMC,122640.4,A,4741.15556,N,12224.74334,W,006.82,006.6,300813,016.6,E,A*20
$PGRME,3.0,M,3.0,M,4.3,M*29
$HCHDG,349.3,0.0,E,,*24
$IIGLL,4741.152,N,12224.743,W,122600,A,A*42
$IIMTW,+16.0,C*3F
$IIMWV,153,R,04.6,N,A*16
$HCHDG,349.2,0.0,E,,*25
$GPRMC,122640.6,A,4741.15592,N,12224.74318,W,006.87,006.3,300813,016.6,E,A*24
$PGRME,3.0,M,3.0,M,4.3,M*29
$IIMWV,167,T,09.5,N,A*19
$HCHDG,349.2,0.0,E,,*25
$IIRMB,A,,,,Shil,,,,,000.1,121,,V,A*28
$HCHDG,349.0,0.0,E,,*27
$GPRMC,122640.8,A,4741.15622,N,12224.74301,W,006.81,007.0,300813,016.6,E,A*2E
$GPRMB,A,-0.12,L,,Shil,4741.0830,N,12224.5670,W,0.1,122,-2.85,V*36
$PGRME,3.0,M,3.0,M,4.3,M*29
$YXXDR,A,5.9,D,PTCH,A,5.3,D,ROLL*57
$PTAK,FFD1,5.3*53
$HCHDG,349.2,0.0,E,,*25
$HCHDG,349.1,0.0,E,,*26
$GPRMC,122641.0,A,4741.15657,N,12224.74293,W,006.79,008.4,300813,016.6,E,A*23
$PGRME,3.0,M,3.0,M,4.3,M*29
$HCHDG,348.9,0.0,E,,*2F
$HCHDG,348.8,0.0,E,,*2E
$GPRMC,122641.2,A,4741.15694,N,12224.74285,W,006.57,009.3,300813,016.6,E,A*23
$PGRME,3.0,M,3.0,M,4.3,M*29
$HCHDG,348.6,0.0,E,,*20
$IIRMC,122600,A,4741.154,N,12224.743,W,06.7,006,300813,16,E,A*11
$YXXDR,A,6.1,D,PTCH,A,5.3,D,ROLL*5C
$IIVHW,,,,,05.7,N,,*1B
$HCHDG,348.7,0.0,E,,*21
$GPRMC,122641.4,A,4741.15731,N,12224.74279,W,006.57,008.1,300813,016.6,E,A*2B
$IIVLW,02141,N,001.2,N*56
$PGRME,3.0,M,3.0,M,4.3,M*29
$IIVWR,149,R,04.8,N,,,,*61
$HCHDG,348.7,0.0,E,,*21
$IIDPT,036.6,-1.0,*43
$HCHDG,348.7,0.0,E,,*21
$GPRMC,122641.6,A,4741.15764,N,12224.74270,W,006.64,008.8,300813,016.6,E,A*29
$IIGLL,4741.154,N,12224.743,W,122600,A,A*44
$PGRME,3.0,M,3.0,M,4.3,M*29
$IIMTW,+16.0,C*3F
$HCHDG,348.9,0.0,E,,*2F
$IIMWV,149,R,04.8,N,A*13
$IIMWV,168,T,09.8,N,A*1B
$HCHDG,348.9,0.0,E,,*2F
$GPRMC,122641.8,A,4741.15806,N,12224.74258,W,006.68,007.3,300813,016.6,E,A*2E
$PGRME,3.0,M,3.0,M,4.3,M*29
$YXXDR,A,6.4,D,PTCH,A,5.3,D,ROLL*59
$HCHDG,348.8,0.0,E,,*2E
$HCHDG,349.1,0.0,E,,*26
$GPRMC,122642.0,A,4741.15843,N,12224.74251,W,006.70,007.5,300813,016.6,E,A*22
$GPRMB,A,-0.12,L,,Shil,4741.0830,N,12224.5670,W,0.1,123,-2.84,V*36
$PGRME,3.0,M,3.0,M,4.3,M*29
$HCHDG,349.1,0.0,E,,*26
$HCHDG,349.1,0.0,E,,*26
$GPRMC,122642.2,A,4741.15882,N,12224.74243,W,006.77,007.7,300813,016.6,E,A*2B
$PGRME,3.0,M,3.0,M,4.3,M*29
$IIRMB,A,,,,Shil,,,,,000.1,122,,V,A*2B
$HCHDG,349.1,0.0,E,,*26
$YXXDR,A,6.9,D,PTCH,A,5.2,D,ROLL*55
$PTAK,FFD1,5.2*52
$IIRMC,122600,A,4741.156,N,12224.742,W,06.7,008,300813,16,E,A*1C
$HCHDG,349.1,0.0,E,,*26
$PTAK,FFP1,HEEL,@*07
$GPRMC,122642.4,A,4741.15925,N,12224.74234,W,006.79,007.9,300813,016.6,E,A*21
$PGRME,3.0,M,3.0,M,4.3,M*29
$IIVHW,,,,,06.0,N,,*1F
$HCHDG,349.0,0.0,E,,*27
$IIVLW,02141,N,001.3,N*57
$IIVWR,154,R,04.8,N,,,,*6D
$HCHDG,349.0,0.0,E,,*27
$IIDPT,036.7,-1.0,*42
$GPRMC,122642.6,A,4741.15964,N,12224.74219,W,006.80,008.5,300813,016.6,E,A*2C
$PGRME,3.0,M,3.0,M,4.3,M*29
$HCHDG,349.0,0.0,E,,*27
$IIGLL,4741.156,N,12224.742,W,122600,A,A*47
$IIMTW,+16.0,C*3F
$HCHDG,349.0,0.0,E,,*27
$IIMWV,154,R,04.8,N,A*1F
$GPRMC,122642.8,A,4741.16004,N,12224.74213,W,006.59,007.9,300813,016.6,E,A*23
$PGRME,3.0,M,3.0,M,4.3,M*29
$YXXDR,A,6.7,D,PTCH,A,4.8,D,ROLL*50
$HCHDG,349.1,0.0,E,,*26
$HCHDG,348.9,0.0,E,,*2F
$GPRMC,122643.0,A,4741.16038,N,12224.74206,W,006.60,008.0,300813,016.6,E,A*2D
$PGRME,3.0,M,3.0,M,4.3,M*29
$HCHDG,349.0,0.0,E,,*27
$HCHDG,348.7,0.0,E,,*21
$GPRMC,122643.2,A,4741.16071,N,12224.74195,W,006.65,008.1,300813,016.6,E,A*2F
$GPRMB,A,-0.12,L,,Shil,4741.0830,N,12224.5670,W,0.1,123,-2.84,V*36
$PGRME,3.0,M,3.0,M,4.3,M*29
$IIMWV,168,T,10.6,N,A*1D
$HCHDG,348.9,0.0,E,,*2F
$IIRMB,A,,,,Shil,,,,,000.1,123,,V,A*2A
$YXXDR,A,6.1,D,PTCH,A,4.5,D,ROLL*5B
$PTAK,FFD1,4.5*54
$HCHDG,349.0,0.0,E,,*27
$GPRMC,122643.4,A,4741.16115,N,12224.74185,W,006.81,007.8,300813,016.6,E,A*27
$PGRME,3.0,M,3.0,M,4.3,M*29
$IIRMC,122600,A,4741.158,N,12224.742,W,06.7,007,300813,16,E,A*1D
$HCHDG,348.6,0.0,E,,*20
$IIVHW,,,,,06.1,N,,*1E
$IIVLW,02141,N,001.3,N*57
$HCHDG,348.8,0.0,E,,*2E
$GPRMC,122643.6,A,4741.16155,N,12224.74182,W,006.77,007.9,300813,016.6,E,A*2E
$IIVWR,158,R,04.8,N,,,,*61
$PGRME,3.0,M,3.0,M,4.3,M*29
$IIDPT,037.1,-1.0,*45
$HCHDG,348.8,0.0,E,,*2E
$IIGLL,4741.158,N,12224.742,W,122600,A,A*49
$HCHDG,348.7,0.0,E,,*21
$IIMTW,+16.0,C*3F
