$GPRMC,220000.2,A,4719.40882,N,12233.87226,W,000.91,260.5,030813,016.6,E,D*24
$GPRMB,A,0.00,L,GH,GH,4719.6000,N,12234.2000,W,0.3,311,0.58,V*0E
$PGRME,2.4,M,2.4,M,3.4,M*29
$YXXDR,A,6.0,D,PTCH,A,6.7,D,ROLL*5A
$PTAK,FFD1,6.7*54
$HCHDG,304.6,0.0,E,,*28
$HCHDG,304.7,0.0,E,,*29
$GPRMC,220000.4,A,4719.40893,N,12233.87249,W,000.86,265.6,030813,016.6,E,D*2B
$PGRME,2.4,M,2.4,M,3.4,M*29
$HCHDG,304.5,0.0,E,,*2B
$IIVHW,,,,,00.0,N,,*19
$HCHDG,304.6,0.0,E,,*28
$GPRMC,220000.6,A,4719.40890,N,12233.87285,W,000.85,269.7,030813,016.6,E,D*24
$PGRME,2.4,M,2.4,M,3.4,M*29
$IIVLW,02033,N,021.1,N*53
$IIVWR,151,L,00.9,N,,,,*73
$HCHDG,304.6,0.0,E,,*28
$IIDPT,062.4,-1.0,*40
$YXXDR,A,6.0,D,PTCH,A,6.7,D,ROLL*5A
$GPRMC,220000.8,A,4719.40888,N,12233.87303,W,000.83,270.0,030813,016.6,E,D*25
$PGRME,2.4,M,2.4,M,3.4,M*29
$IIGLL,4719.408,N,12233.872,W,215900,A,A*46
$HCHDG,304.6,0.0,E,,*28
$IIMTW,+13.5,C*3F
$HCHDG,304.6,0.0,E,,*28
$IIMWV,209,R,00.9,N,A*11
$IIMWV,195,T,01.2,N,A*1B
$HCHDG,304.7,0.0,E,,*29
$GPRMC,220001.0,A,4719.40885,N,12233.87318,W,000.84,263.1,030813,016.6,E,D*2F
$PGRME,2.4,M,2.4,M,3.4,M*29
$IIRMB,A,0.00,L,,GH  ,,,,,000.3,311,,V,A*48
$HCHDG,304.9,0.0,E,,*27
$GPRMC,220001.2,A,4719.40876,N,12233.87329,W,001.10,250.0,030813,016.6,E,D*2E
$HCHDG,304.8,0.0,E,,*26
$PGRME,2.4,M,2.4,M,3.4,M*29
$YXXDR,A,6.3,D,PTCH,A,8.2,D,ROLL*52
$HCHDG,304.9,0.0,E,,*27
$HCHDG,304.9,0.0,E,,*27
$GPRMC,220001.4,A,4719.40864,N,12233.87340,W,001.07,245.7,030813,016.6,E,D*21
$GPRMB,A,0.00,L,GH,GH,4719.6000,N,12234.2000,W,0.3,311,0.45,V*02
$PTAK,FFP1,HEEL,@*07
$PGRME,2.4,M,2.4,M,3.4,M*29
$HCHDG,304.9,0.0,E,,*27
$HCHDG,305.0,0.0,E,,*2F
$GPRMC,220001.6,A,4719.40863,N,12233.87353,W,001.12,252.1,030813,016.6,E,D*22
$PGRME,2.4,M,2.4,M,3.4,M*29
$IIRMC,220000,A,4719.408,N,12233.873,W,00.8,263,030813,16,E,A*15
$HCHDG,304.9,0.0,E,,*27
$IIVHW,,,,,00.0,N,,*19
$IIVLW,02033,N,021.1,N*53
$YXXDR,A,6.0,D,PTCH,A,8.1,D,ROLL*52
$PTAK,FFD1,8.1*5C
$GPRMC,220001.8,A,4719.40874,N,12233.87360,W,000.96,258.9,030813,016.6,E,D*25
$PGRME,2.4,M,2.4,M,3.4,M*29
$IIVWR,141,L,01.0,N,,,,*7A
$HCHDG,305.1,0.0,E,,*2E
$IIDPT,062.4,-1.0,*40
$HCHDG,305.1,0.0,E,,*2E
$IIGLL,4719.408,N,12233.873,W,220000,A,A*48
$HCHDG,305.2,0.0,E,,*2D
$IIMTW,+13.5,C*3F
$GPRMC,220002.0,A,4719.40876,N,12233.87370,W,000.96,263.6,030813,016.6,E,D*2A
$PGRME,2.4,M,2.4,M,3.4,M*29
$IIMWV,219,R,01.0,N,A*18
$HCHDG,305.1,0.0,E,,*2E
$IIMWV,209,T,00.9,N,A*17
$HCHDG,305.1,0.0,E,,*2E
$GPRMC,220002.2,A,4719.40874,N,12233.87376,W,000.94,260.6,030813,016.6,E,D*2D
$PGRME,2.4,M,2.4,M,3.4,M*29
$YXXDR,A,6.0,D,PTCH,A,7.4,D,ROLL*58
$HCHDG,305.0,0.0,E,,*2F
$HCHDG,305.1,0.0,E,,*2E
$GPRMC,220002.4,A,4719.40869,N,12233.87363,W,000.97,260.5,030813,016.6,E,D*23
$GPRMB,A,0.00,L,GH,GH,4719.6000,N,12234.2000,W,0.3,311,0.62,V*07
$PGRME,2.4,M,2.4,M,3.4,M*29
$HCHDG,305.0,0.0,E,,*2F
$HCHDG,305.1,0.0,E,,*2E
$GPRMC,220002.6,A,4719.40869,N,12233.87365,W,000.92,265.0,030813,016.6,E,D*22
$PGRME,2.4,M,2.4,M,3.4,M*29
$IIRMB,A,0.00,L,,GH  ,,,,,000.3,311,,V,A*48
$HCHDG,305.2,0.0,E,,*2D
$IIRMC,220000,A,4719.408,N,12233.873,W,00.9,263,030813,16,E,A*14
$YXXDR,A,5.9,D,PTCH,A,6.8,D,ROLL*5F
$IIVHW,,,,,00.0,N,,*19
$GPRMC,220002.8,A,4719.40881,N,12233.87387,W,000.97,262.6,030813,016.6,E,D*22
$PGRME,2.4,M,2.4,M,3.4,M*29
$HCHDG,305.2,0.0,E,,*2D
$IIVLW,02033,N,021.1,N*53
$HCHDG,305.1,0.0,E,,*2E
$IIVWR,130,L,01.0,N,,,,*7C
$IIDPT,062.4,-1.0,*40
$HCHDG,305.1,0.0,E,,*2E
$GPRMC,220003.0,A,4719.40887,N,12233.87411,W,000.95,264.3,030813,016.6,E,D*24
$PGRME,2.4,M,2.4,M,3.4,M*29
$IIGLL,4719.408,N,12233.873,W,220000,A,A*48
$HCHDG,305.2,0.0,E,,*2D
$IIMTW,+13.5,C*3F
$HCHDG,304.9,0.0,E,,*27
$GPRMC,220003.2,A,4719.40889,N,12233.87421,W,000.94,271.8,030813,016.6,E,D*25
$PGRME,2.4,M,2.4,M,3.4,M*29
$YXXDR,A,6.1,D,PTCH,A,6.9,D,ROLL*55
$PTAK,FFD1,6.9*5A
$HCHDG,304.9,0.0,E,,*27
$HCHDG,304.9,0.0,E,,*27
$GPRMC,220003.4,A,4719.40891,N,12233.87412,W,000.92,274.1,030813,016.6,E,D*20
$GPRMB,A,0.00,L,GH,GH,4719.6000,N,12234.2000,W,0.3,311,0.74,V*00
$PGRME,2.4,M,2.4,M,3.4,M*29
$HCHDG,304.7,0.0,E,,*29
$IIMWV,241,R,00.8,N,A*1C
$HCHDG,304.7,0.0,E,,*29
$GPRMC,220003.6,A,4719.40892,N,12233.87409,W,000.90,264.6,030813,016.6,E,D*2F
$PGRME,2.4,M,2.4,M,3.4,M*29
$IIMWV,230,T,01.0,N,A*15
$HCHDG,304.7,0.0,E,,*29
$IIRMB,A,0.00,L,,GH  ,,,,,000.3,311,,V,A*48
$YXXDR,A,6.1,D,PTCH,A,6.9,D,ROLL*55
$GPRMC,220003.8,A,4719.40887,N,12233.87406,W,000.90,261.1,030813,016.6,E,D*28
$PGRME,2.4,M,2.4,M,3.4,M*29
$HCHDG,304.5,0.0,E,,*2B
$IIRMC,220000,A,4719.408,N,12233.874,W,00.9,264,030813,16,E,A*14
$HCHDG,304.5,0.0,E,,*2B
$IIVHW,,,,,00.0,N,,*19
$IIVLW,02033,N,021.1,N*53
$HCHDG,304.4,0.0,E,,*2A
$GPRMC,220004.0,A,4719.40886,N,12233.87408,W,000.92,256.3,030813,016.6,E,D*2C
$PGRME,2.4,M,2.4,M,3.4,M*29
$IIVWR,119,L,00.8,N,,,,*7E
$IIDPT,062.4,-1.0,*40
$HCHDG,304.5,0.0,E,,*2B
$HCHDG,304.6,0.0,E,,*28
$GPRMC,220004.2,A,4719.40883,N,12233.87419,W,000.96,249.9,030813,016.6,E,D*2B
$PGRME,2.4,M,2.4,M,3.4,M*29
$YXXDR,A,5.9,D,PTCH,A,7.5,D,ROLL*53
$PTAK,FFD1,7.5*57
$HCHDG,304.6,0.0,E,,*28
$HCHDG,304.7,0.0,E,,*29
$GPRMC,220004.4,A,4719.40886,N,12233.87433,W,001.13,255.2,030813,016.6,E,D*2A
$GPRMB,A,0.00,L,GH,GH,4719.6000,N,12234.2000,W,0.3,311,0.64,V*01
$PGRME,2.4,M,2.4,M,3.4,M*29
$HCHDG,304.7,0.0,E,,*29
$HCHDG,304.7,0.0,E,,*29
$GPRMC,220004.6,A,4719.40889,N,12233.87451,W,001.12,259.3,030813,016.6,E,D*2F
$IIGLL,4719.408,N,12233.874,W,220000,A,A*4F
$PGRME,2.4,M,2.4,M,3.4,M*29
$IIMTW,+13.5,C*3F
$HCHDG,304.7,0.0,E,,*29
$IIMWV,259,R,00.6,N,A*1B
$IIMWV,241,T,00.8,N,A*1A
$YXXDR,A,6.0,D,PTCH,A,7.8,D,ROLL*54
$GPRMC,220004.8,A,4719.40891,N,12233.87452,W,000.92,262.7,030813,016.6,E,D*2E
$PGRME,2.4,M,2.4,M,3.4,M*29
$HCHDG,304.9,0.0,E,,*27
$IIRMB,A,0.00,L,,GH  ,,,,,000.3,311,,V,A*48
$HCHDG,305.0,0.0,E,,*2F
$IIRMC,220000,A,4719.408,N,12233.874,W,00.9,256,030813,16,E,A*15
$HCHDG,305.0,0.0,E,,*2F
$GPRMC,220005.0,A,4719.40892,N,12233.87445,W,000.98,260.2,030813,016.6,E,D*2F
$PGRME,2.4,M,2.4,M,3.4,M*29
$IIVHW,,,,,00.0,N,,*19
$HCHDG,305.0,0.0,E,,*2F
$IIVLW,02033,N,021.1,N*53
$HCHDG,305.1,0.0,E,,*2E
$GPRMC,220005.2,A,4719.40886,N,12233.87464,W,000.95,267.6,030813,016.6,E,D*25
$PGRME,2.4,M,2.4,M,3.4,M*29
$YXXDR,A,6.1,D,PTCH,A,6.8,D,ROLL*54
$PTAK,FFD1,6.8*5B
$HCHDG,305.0,0.0,E,,*2F
$HCHDG,304.8,0.0,E,,*26
$GPRMC,220005.4,A,4719.40883,N,12233.87477,W,000.91,276.1,030813,016.6,E,D*27
$PTAK,FFP1,HEEL,@*07
$PGRME,2.4,M,2.4,M,3.4,M*29
$HCHDG,304.9,0.0,E,,*27
$IIVWR,094,L,00.5,N,,,,*77
$HCHDG,304.9,0.0,E,,*27
$GPRMC,220005.6,A,4719.40879,N,12233.87488,W,000.87,267.9,030813,016.6,E,D*2F
$GPRMB,A,0.00,L,GH,GH,4719.6000,N,12234.2000,W,0.3,311,0.64,V*01
$PGRME,2.4,M,2.4,M,3.4,M*29
$IIDPT,062.4,-1.0,*40
$HCHDG,304.8,0.0,E,,*26
$IIGLL,4719.408,N,12233.874,W,220000,A,A*4F
$IIMTW,+13.5,C*3F
$YXXDR,A,6.1,D,PTCH,A,6.8,D,ROLL*54
$GPRMC,220005.8,A,4719.40877,N,12233.87505,W,000.88,263.3,030813,016.6,E,D*2A
$PGRME,2.4,M,2.4,M,3.4,M*29
$IIMWV,266,R,00.5,N,A*14
$HCHDG,304.9,0.0,E,,*27
$IIMWV,259,T,00.6,N,A*1D
$HCHDG,304.8,0.0,E,,*26
$IIRMB,A,0.00,L,,GH  ,,,,,000.3,311,,V,A*48
$HCHDG,304.7,0.0,E,,*29
$GPRMC,220006.0,A,4719.40881,N,12233.87509,W,001.07,257.8,030813,016.6,E,D*2E
$PGRME,2.4,M,2.4,M,3.4,M*29
$HCHDG,304.8,0.0,E,,*26
$IIRMC,220000,A,4719.408,N,12233.874,W,00.9,260,030813,16,E,A*10
$HCHDG,304.8,0.0,E,,*26
$GPRMC,220006.2,A,4719.40872,N,12233.87499,W,001.29,263.0,030813,016.6,E,D*2B
$PGRME,2.4,M,2.4,M,3.4,M*29
$YXXDR,A,6.0,D,PTCH,A,7.1,D,ROLL*5D
$HCHDG,304.9,0.0,E,,*27
$HCHDG,305.0,0.0,E,,*2F
$GPRMC,220006.4,A,4719.40858,N,12233.87499,W,001.24,262.5,030813,016.6,E,D*2C
$PGRME,2.4,M,2.4,M,3.4,M*29
$HCHDG,305.0,0.0,E,,*2F
$IIVHW,,,,,01.1,N,,*19
$HCHDG,305.1,0.0,E,,*2E
$GPRMC,220006.6,A,4719.40854,N,12233.87506,W,000.98,269.8,030813,016.6,E,D*25
$PGRME,2.4,M,2.4,M,3.4,M*29
$IIVLW,02033,N,021.1,N*53
$IIVWR,156,L,00.6,N,,,,*7B
$HCHDG,304.8,0.0,E,,*26
$IIDPT,062.4,-1.0,*40
$YXXDR,A,5.9,D,PTCH,A,6.8,D,ROLL*5F
$PTAK,FFD1,6.8*5B
$GPRMC,220006.8,A,4719.40868,N,12233.87518,W,000.92,271.2,030813,016.6,E,D*22
$GPRMB,A,0.00,L,GH,GH,4719.6000,N,12234.2000,W,0.3,311,0.71,V*05
$PGRME,2.4,M,2.4,M,3.4,M*29
$HCHDG,304.8,0.0,E,,*26
$IIGLL,4719.408,N,12233.874,W,220000,A,A*4F
$IIMTW,+13.5,C*3F
$HCHDG,304.7,0.0,E,,*29
$IIMWV,204,R,00.6,N,A*13
$IIMWV,203,T,01.3,N,A*16
$HCHDG,304.3,0.0,E,,*2D
$GPRMC,220007.0,A,4719.40892,N,12233.87519,W,000.67,283.7,030813,016.6,E,D*2D
$PGRME,2.4,M,2.4,M,3.4,M*29
$IIRMB,A,0.00,L,,GH  ,,,,,000.3,311,,V,A*48
$HCHDG,304.4,0.0,E,,*2A
$HCHDG,304.1,0.0,E,,*2F
$GPRMC,220007.2,A,4719.40908,N,12233.87523,W,000.72,292.9,030813,016.6,E,D*2E
$PGRME,2.4,M,2.4,M,3.4,M*29
$YXXDR,A,6.0,D,PTCH,A,5.4,D,ROLL*5A
$HCHDG,303.8,0.0,E,,*21
$HCHDG,303.6,0.0,E,,*2F
$GPRMC,220007.4,A,4719.40921,N,12233.87527,W,000.74,273.8,030813,016.6,E,D*2F
$PGRME,2.4,M,2.4,M,3.4,M*29
$HCHDG,303.3,0.0,E,,*2A
$HCHDG,303.0,0.0,E,,*29
$GPRMC,220007.6,A,4719.40930,N,12233.87533,W,000.74,275.1,030813,016.6,E,D*27
$PGRME,2.4,M,2.4,M,3.4,M*29
$IIRMC,220000,A,4719.409,N,12233.875,W,00.7,292,030813,16,E,A*13
$HCHDG,302.9,0.0,E,,*21
$IIVHW,,,,,01.2,N,,*1A
$IIVLW,02033,N,021.1,N*53
$YXXDR,A,5.9,D,PTCH,A,6.4,D,ROLL*53
$PTAK,FFD1,6.4*57
$GPRMC,220007.8,A,4719.40932,N,12233.87530,W,000.75,265.7,030813,016.6,E,D*2E
$GPRMB,A,0.00,L,GH,GH,4719.6000,N,12234.2000,W,0.3,311,0.53,V*05
$PGRME,2.4,M,2.4,M,3.4,M*29
$IIVWR,172,R,00.7,N,,,,*62
$HCHDG,302.8,0.0,E,,*20
$IIDPT,062.4,-1.0,*40
$HCHDG,302.7,0.0,E,,*2F
$IIGLL,4719.409,N,12233.875,W,220000,A,A*4F
$HCHDG,302.5,0.0,E,,*2D
$IIMTW,+13.5,C*3F
$GPRMC,220008.0,A,4719.40928,N,12233.87523,W,000.77,268.9,030813,016.6,E,D*21
$PGRME,2.4,M,2.4,M,3.4,M*29
$IIMWV,172,R,00.7,N,A*10
$HCHDG,302.3,0.0,E,,*2B
$IIMWV,187,T,01.7,N,A*1D
$HCHDG,302.2,0.0,E,,*2A
$GPRMC,220008.2,A,4719.40925,N,12233.87523,W,000.79,268.2,030813,016.6,E,D*2B
$PGRME,2.4,M,2.4,M,3.4,M*29
$YXXDR,A,5.9,D,PTCH,A,7.5,D,ROLL*53
$HCHDG,302.3,0.0,E,,*2B
$HCHDG,302.1,0.0,E,,*29
$GPRMC,220008.4,A,4719.40927,N,12233.87529,W,000.82,265.4,030813,016.6,E,D*2A
$PGRME,2.4,M,2.4,M,3.4,M*29
$HCHDG,302.1,0.0,E,,*29
$HCHDG,301.7,0.0,E,,*2C
$GPRMC,220008.6,A,4719.40918,N,12233.87533,W,000.85,265.2,030813,016.6,E,D*2E
$IIRMB,A,0.00,L,,GH  ,,,,,000.3,311,,V,A*48
$PGRME,2.4,M,2.4,M,3.4,M*29
$HCHDG,301.8,0.0,E,,*23
$IIRMC,220000,A,4719.409,N,12233.875,W,00.7,268,030813,16,E,A*16
$YXXDR,A,5.9,D,PTCH,A,7.4,D,ROLL*52
$IIVHW,,,,,01.1,N,,*19
$GPRMC,220008.8,A,4719.40900,N,12233.87533,W,000.87,272.7,030813,016.6,E,D*28
$GPRMB,A,0.00,L,GH,GH,4719.6000,N,12234.2000,W,0.3,311,0.68,V*0D
$PGRME,2.4,M,2.4,M,3.4,M*29
$HCHDG,301.6,0.0,E,,*2D
$IIVLW,02033,N,021.1,N*53
$HCHDG,301.6,0.0,E,,*2D
$IIVWR,168,R,00.5,N,,,,*6B
$IIDPT,062.4,-1.0,*40
$HCHDG,301.4,0.0,E,,*2F
$GPRMC,220009.0,A,4719.40885,N,12233.87538,W,000.88,279.4,030813,016.6,E,D*21
$PGRME,2.4,M,2.4,M,3.4,M*29
$IIGLL,4719.409,N,12233.875,W,220000,A,A*4F
$HCHDG,301.2,0.0,E,,*29
$IIMTW,+13.5,C*3F
$HCHDG,301.0,0.0,E,,*2B
$GPRMC,220009.2,A,4719.40883,N,12233.87553,W,000.90,281.9,030813,016.6,E,D*2B
$PGRME,2.4,M,2.4,M,3.4,M*29
$YXXDR,A,6.1,D,PTCH,A,6.4,D,ROLL*58
$PTAK,FFD1,6.4*57
$HCHDG,300.7,0.0,E,,*2D
$HCHDG,300.6,0.0,E,,*2C
$GPRMC,220009.4,A,4719.40901,N,12233.87557,W,000.88,287.5,030813,016.6,E,D*21
$PGRME,2.4,M,2.4,M,3.4,M*29
$HCHDG,300.3,0.0,E,,*29
$PTAK,FFP1,HEEL,@*07
$IIMWV,180,R,00.4,N,A*1E
$HCHDG,300.1,0.0,E,,*2B
$GPRMC,220009.6,A,4719.40914,N,12233.87583,W,000.86,293.7,030813,016.6,E,D*27
$PGRME,2.4,M,2.4,M,3.4,M*29
$IIMWV,176,T,01.6,N,A*12
$HCHDG,299.7,0.0,E,,*2C
$IIRMB,A,0.00,L,,GH  ,,,,,000.3,311,,V,A*48
$YXXDR,A,6.2,D,PTCH,A,6.2,D,ROLL*5D
$GPRMC,220009.8,A,4719.40917,N,12233.87601,W,000.84,291.5,030813,016.6,E,D*21
$PGRME,2.4,M,2.4,M,3.4,M*29
$HCHDG,299.5,0.0,E,,*2E
$IIRMC,220000,A,4719.409,N,12233.875,W,00.7,268,030813,16,E,A*16
$HCHDG,299.2,0.0,E,,*29
$IIVHW,,,,,01.1,N,,*19
$IIVLW,02033,N,021.1,N*53
$HCHDG,298.9,0.0,E,,*23
$GPRMC,220010.0,A,4719.40914,N,12233.87607,W,000.85,282.8,030813,016.6,E,D*2A
$GPRMB,A,0.00,L,GH,GH,4719.6000,N,12234.2000,W,0.3,311,0.75,V*01
$PGRME,2.4,M,2.4,M,3.4,M*29
$IIVWR,180,R,00.4,N,,,,*6C
$IIDPT,062.2,-1.0,*46
$HCHDG,298.7,0.0,E,,*2D
$HCHDG,298.6,0.0,E,,*2C
$GPRMC,220010.2,A,4719.40904,N,12233.87612,W,000.87,284.9,030813,016.6,E,D*28
$PGRME,2.4,M,2.4,M,3.4,M*29
$YXXDR,A,6.1,D,PTCH,A,7.6,D,ROLL*5B
$PTAK,FFD1,7.6*54
$HCHDG,298.5,0.0,E,,*2F
$HCHDG,298.4,0.0,E,,*2E
$GPRMC,220010.4,A,4719.40891,N,12233.87618,W,000.89,274.6,030813,016.6,E,D*27
$PGRME,2.4,M,2.4,M,3.4,M*29
$HCHDG,298.2,0.0,E,,*28
$HCHDG,298.4,0.0,E,,*2E
$GPRMC,220010.6,A,4719.40883,N,12233.87630,W,000.94,266.7,030813,016.6,E,D*22
$PGRME,2.4,M,2.4,M,3.4,M*29
$IIGLL,4719.409,N,12233.875,W,220000,A,A*4F
$IIMTW,+13.5,C*3F
$HCHDG,298.3,0.0,E,,*29
$IIMWV,203,R,00.3,N,A*11
$IIMWV,180,T,01.6,N,A*1B
$YXXDR,A,6.3,D,PTCH,A,8.5,D,ROLL*55
$GPRMC,220010.8,A,4719.40878,N,12233.87645,W,000.98,260.8,030813,016.6,E,D*2F
$PGRME,2.4,M,2.4,M,3.4,M*29
$HCHDG,298.2,0.0,E,,*28
$IIRMB,A,0.00,L,,GH  ,,,,,000.3,311,,V,A*48
$HCHDG,298.0,0.0,E,,*2A
$IIRMC,220000,A,4719.409,N,12233.875,W,00.8,287,030813,16,E,A*18
$HCHDG,298.1,0.0,E,,*2B
$GPRMC,220011.0,A,4719.40873,N,12233.87661,W,001.01,258.1,030813,016.6,E,D*28
$GPRMB,A,0.00,L,GH,GH,4719.6000,N,12234.2000,W,0.3,311,0.61,V*04
$PGRME,2.4,M,2.4,M,3.4,M*29
$IIVHW,,,,,01.1,N,,*19
$HCHDG,298.0,0.0,E,,*2A
$IIVLW,02033,N,021.1,N*53
$HCHDG,298.1,0.0,E,,*2B
$GPRMC,220011.2,A,4719.40869,N,12233.87670,W,001.06,261.8,030813,016.6,E,D*25
$PGRME,2.4,M,2.4,M,3.4,M*29
$YXXDR,A,6.0,D,PTCH,A,7.9,D,ROLL*55
$PTAK,FFD1,7.9*5B
$HCHDG,298.0,0.0,E,,*2A
$HCHDG,297.9,0.0,E,,*2C
$GPRMC,220011.4,A,4719.40861,N,12233.87680,W,001.09,258.5,030813,016.6,E,D*2C
$PGRME,2.4,M,2.4,M,3.4,M*29
$HCHDG,297.8,0.0,E,,*2D
$IIVWR,131,L,00.3,N,,,,*7F
$HCHDG,297.8,0.0,E,,*2D
$GPRMC,220011.6,A,4719.40857,N,12233.87690,W,001.14,259.4,030813,016.6,E,D*26
$PGRME,2.4,M,2.4,M,3.4,M*29
$IIDPT,062.2,-1.0,*46
$HCHDG,297.8,0.0,E,,*2D
$IIGLL,4719.408,N,12233.876,W,220000,A,A*4D
$IIMTW,+13.5,C*3F
$YXXDR,A,6.0,D,PTCH,A,7.7,D,ROLL*5B
$GPRMC,220011.8,A,4719.40862,N,12233.87697,W,001.30,260.6,030813,016.6,E,D*27
$IIMWV,229,R,00.3,N,A*19
$PGRME,2.4,M,2.4,M,3.4,M*29
$HCHDG,297.7,0.0,E,,*22
$IIMWV,184,T,01.4,N,A*1D
$HCHDG,297.8,0.0,E,,*2D
$IIRMB,A,0.00,L,,GH  ,,,,,000.3,311,,V,A*48
$HCHDG,297.7,0.0,E,,*22
$GPRMC,220012.0,A,4719.40871,N,12233.87723,W,001.13,265.9,030813,016.6,E,D*2B
$PGRME,2.4,M,2.4,M,3.4,M*29
$HCHDG,297.6,0.0,E,,*23
$IIRMC,220000,A,4719.408,N,12233.876,W,00.8,274,030813,16,E,A*16
$HCHDG,297.6,0.0,E,,*23
$GPRMC,220012.2,A,4719.40872,N,12233.87749,W,001.17,267.4,030813,016.6,E,D*2D
$GPRMB,A,0.00,L,GH,GH,4719.6000,N,12234.2000,W,0.3,311,0.84,V*0F
$PGRME,2.4,M,2.4,M,3.4,M*29
$YXXDR,A,6.1,D,PTCH,A,7.0,D,ROLL*5D
$PTAK,FFD1,7.0*52
$HCHDG,297.4,0.0,E,,*21
$HCHDG,297.4,0.0,E,,*21
$GPRMC,220012.4,A,4719.40872,N,12233.87764,W,001.18,268.1,030813,016.6,E,D*21
$PGRME,2.4,M,2.4,M,3.4,M*29
$HCHDG,297.4,0.0,E,,*21
$IIVHW,,,,,01.1,N,,*19
$HCHDG,297.5,0.0,E,,*20
$GPRMC,220012.6,A,4719.40868,N,12233.87769,W,001.19,261.6,030813,016.6,E,D*2A
$PGRME,2.4,M,2.4,M,3.4,M*29
$IIVLW,02033,N,021.1,N*53
$IIVWR,107,L,00.2,N,,,,*7B
$HCHDG,297.5,0.0,E,,*20
$IIDPT,062.2,-1.0,*46
$YXXDR,A,5.9,D,PTCH,A,7.9,D,ROLL*5F
$GPRMC,220012.8,A,4719.40857,N,12233.87770,W,001.23,261.5,030813,016.6,E,D*2A
$PGRME,2.4,M,2.4,M,3.4,M*29
$IIGLL,4719.408,N,12233.876,W,220000,A,A*4D
$HCHDG,297.5,0.0,E,,*20
$IIMTW,+13.5,C*3F
$HCHDG,297.7,0.0,E,,*22
$IIMWV,253,R,00.2,N,A*15
$IIMWV,229,T,00.3,N,A*1F
$HCHDG,297.7,0.0,E,,*22
$GPRMC,220013.0,A,4719.40847,N,12233.87779,W,001.23,255.4,030813,016.6,E,D*2D
$PGRME,2.4,M,2.4,M,3.4,M*29
$IIRMB,A,0.00,L,,GH  ,,,,,000.3,311,,V,A*48
$HCHDG,297.6,0.0,E,,*23
$HCHDG,297.6,0.0,E,,*23
$GPRMC,220013.2,A,4719.40842,N,12233.87799,W,001.48,261.4,030813,016.6,E,D*2E
$PGRME,2.4,M,2.4,M,3.4,M*29
$YXXDR,A,6.3,D,PTCH,A,7.5,D,ROLL*5A
$HCHDG,297.8,0.0,E,,*2D
$HCHDG,297.7,0.0,E,,*22
$GPRMC,220013.4,A,4719.40845,N,12233.87830,W,001.44,258.7,030813,016.6,E,D*26
$GPRMB,A,0.00,L,GH,GH,4719.6000,N,12234.2000,W,0.3,311,0.87,V*0C
$PGRME,2.4,M,2.4,M,3.4,M*29
$HCHDG,297.6,0.0,E,,*23
$PTAK,FFP1,HEEL,@*07
$HCHDG,297.6,0.0,E,,*23
$GPRMC,220013.6,A,4719.40854,N,12233.87865,W,001.13,261.0,030813,016.6,E,D*2B
$PGRME,2.4,M,2.4,M,3.4,M*29
$IIRMC,220000,A,4719.408,N,12233.877,W,01.1,268,030813,16,E,A*12
$HCHDG,297.5,0.0,E,,*20
$IIVHW,,,,,01.2,N,,*1A
$IIVLW,02033,N,021.1,N*53
$YXXDR,A,6.0,D,PTCH,A,6.8,D,ROLL*55
$PTAK,FFD1,6.8*5B
$GPRMC,220013.8,A,4719.40851,N,12233.87894,W,001.17,265.1,030813,016.6,E,D*2F
$PGRME,2.4,M,2.4,M,3.4,M*29
$IIVWR,096,L,00.2,N,,,,*72
$HCHDG,297.3,0.0,E,,*26
$IIDPT,062.2,-1.0,*46
$HCHDG,297.3,0.0,E,,*26
$IIGLL,4719.408,N,12233.877,W,220000,A,A*4C
$HCHDG,297.3,0.0,E,,*26
$IIMTW,+13.5,C*3F
$GPRMC,220014.0,A,4719.40856,N,12233.87906,W,001.41,262.3,030813,016.6,E,D*2B
$PGRME,2.4,M,2.4,M,3.4,M*29
$IIMWV,264,R,00.2,N,A*11
$HCHDG,297.2,0.0,E,,*27
$IIMWV,185,T,01.2,N,A*1A
$HCHDG,297.2,0.0,E,,*27
$GPRMC,220014.2,A,4719.40854,N,12233.87926,W,001.25,256.0,030813,016.6,E,D*2F
$PGRME,2.4,M,2.4,M,3.4,M*29
$YXXDR,A,5.9,D,PTCH,A,7.3,D,ROLL*55
$HCHDG,297.1,0.0,E,,*24
$HCHDG,297.2,0.0,E,,*27
$GPRMC,220014.4,A,4719.40854,N,12233.87940,W,001.22,254.6,030813,016.6,E,D*2A
$PGRME,2.4,M,2.4,M,3.4,M*29
$HCHDG,297.4,0.0,E,,*21
$HCHDG,297.5,0.0,E,,*20
$GPRMC,220014.6,A,4719.40851,N,12233.87945,W,001.28,258.2,030813,016.6,E,D*2A
$GPRMB,A,0.00,L,GH,GH,4719.6000,N,12234.2000,W,0.3,311,0.77,V*03
$IIRMB,A,0.00,L,,GH  ,,,,,000.3,311,,V,A*48
$PGRME,2.4,M,2.4,M,3.4,M*29
$HCHDG,297.5,0.0,E,,*20
$IIRMC,220000,A,4719.408,N,12233.878,W,01.1,261,030813,16,E,A*14
$YXXDR,A,5.9,D,PTCH,A,7.5,D,ROLL*53
$PTAK,FFD1,7.5*57
$IIVHW,,,,,01.2,N,,*1A
$GPRMC,220014.8,A,4719.40839,N,12233.87957,W,001.28,259.4,030813,016.6,E,D*2E
$PGRME,2.4,M,2.4,M,3.4,M*29
$HCHDG,297.6,0.0,E,,*23
$IIVLW,02033,N,021.1,N*53
$HCHDG,297.5,0.0,E,,*20
$IIVWR,098,L,00.1,N,,,,*7F
$IIDPT,062.2,-1.0,*46
$HCHDG,297.4,0.0,E,,*21
$GPRMC,220015.0,A,4719.40824,N,12233.87965,W,001.28,258.4,030813,016.6,E,D*2B
$PGRME,2.4,M,2.4,M,3.4,M*29
$IIGLL,4719.408,N,12233.878,W,220000,A,A*43
$IIMTW,+13.5,C*3F
$HCHDG,297.5,0.0,E,,*20
$HCHDG,297.5,0.0,E,,*20
$GPRMC,220015.2,A,4719.40814,N,12233.87971,W,001.25,264.2,030813,016.6,E,D*2B
$PGRME,2.4,M,2.4,M,3.4,M*29
$YXXDR,A,5.8,D,PTCH,A,6.5,D,ROLL*53
$HCHDG,297.6,0.0,E,,*23
$HCHDG,297.4,0.0,E,,*21
$GPRMC,220015.4,A,4719.40800,N,12233.87976,W,001.27,261.1,030813,016.6,E,D*2B
$PGRME,2.4,M,2.4,M,3.4,M*29
$HCHDG,297.5,0.0,E,,*20
$IIMWV,265,R,00.1,N,A*13
$HCHDG,297.4,0.0,E,,*21
$GPRMC,220015.6,A,4719.40792,N,12233.87987,W,001.26,256.3,030813,016.6,E,D*24
$GPRMB,A,0.00,L,GH,GH,4719.6000,N,12234.2000,W,0.3,312,0.72,V*05
$PGRME,2.4,M,2.4,M,3.4,M*29
$IIMWV,180,T,01.3,N,A*1E
$HCHDG,297.5,0.0,E,,*20
$IIRMB,A,0.00,L,,GH  ,,,,,000.3,311,,V,A*48
$YXXDR,A,6.0,D,PTCH,A,6.8,D,ROLL*55
$GPRMC,220015.8,A,4719.40795,N,12233.87999,W,001.27,259.3,030813,016.6,E,D*2C
$PGRME,2.4,M,2.4,M,3.4,M*29
$HCHDG,297.5,0.0,E,,*20
$IIRMC,220000,A,4719.408,N,12233.879,W,01.2,258,030813,16,E,A*1C
$HCHDG,297.4,0.0,E,,*21
$IIVHW,,,,,01.3,N,,*1B
$IIVLW,02033,N,021.1,N*53
$HCHDG,297.7,0.0,E,,*22
$GPRMC,220016.0,A,4719.40803,N,12233.88023,W,001.25,264.6,030813,016.6,E,D*29
$PGRME,2.4,M,2.4,M,3.4,M*29
$IIVWR,095,L,00.1,N,,,,*72
$IIDPT,062.2,-1.0,*46
$HCHDG,297.7,0.0,E,,*22
$HCHDG,297.6,0.0,E,,*23
$GPRMC,220016.2,A,4719.40813,N,12233.88056,W,001.27,263.2,030813,016.6,E,D*29
$PGRME,2.4,M,2.4,M,3.4,M*29
$YXXDR,A,6.1,D,PTCH,A,7.0,D,ROLL*5D
$PTAK,FFD1,7.0*52
$HCHDG,297.7,0.0,E,,*22
$HCHDG,297.5,0.0,E,,*20
$GPRMC,220016.4,A,4719.40816,N,12233.88058,W,001.27,266.5,030813,016.6,E,D*26
$PGRME,2.4,M,2.4,M,3.4,M*29
$HCHDG,297.6,0.0,E,,*23
$HCHDG,297.6,0.0,E,,*23
$GPRMC,220016.6,A,4719.40817,N,12233.88060,W,001.27,269.4,030813,016.6,E,D*20
$GPRMB,A,0.00,L,GH,GH,4719.6000,N,12234.2000,W,0.3,312,0.94,V*0D
$IIGLL,4719.407,N,12233.879,W,220000,A,A*4D
$PGRME,2.4,M,2.4,M,3.4,M*29
$IIMTW,+13.5,C*3F
$HCHDG,297.7,0.0,E,,*22
$IIMWV,272,R,00.1,N,A*15
$IIMWV,185,T,01.3,N,A*1B
$YXXDR,A,6.1,D,PTCH,A,7.0,D,ROLL*5D
$GPRMC,220016.8,A,4719.40812,N,12233.88061,W,001.46,263.5,030813,016.6,E,D*26
$PGRME,2.4,M,2.4,M,3.4,M*29
$HCHDG,297.8,0.0,E,,*2D
$IIRMB,A,0.00,L,,GH  ,,,,,000.3,312,,V,A*4B
$HCHDG,298.0,0.0,E,,*2A
$IIRMC,220000,A,4719.407,N,12233.879,W,01.2,256,030813,16,E,A*1D
$HCHDG,297.8,0.0,E,,*2D
$GPRMC,220017.0,A,4719.40804,N,12233.88039,W,001.22,265.9,030813,016.6,E,D*2D
$PGRME,2.4,M,2.4,M,3.4,M*29
$IIVHW,,,,,01.3,N,,*1B
$HCHDG,297.8,0.0,E,,*2D
$IIVLW,02033,N,021.1,N*53
$HCHDG,297.8,0.0,E,,*2D
$GPRMC,220017.2,A,4719.40792,N,12233.88049,W,001.23,265.6,030813,016.6,E,D*26
$PGRME,2.4,M,2.4,M,3.4,M*29
$YXXDR,A,6.4,D,PTCH,A,7.3,D,ROLL*5B
$HCHDG,297.9,0.0,E,,*2C
$HCHDG,298.0,0.0,E,,*2A
$GPRMC,220017.4,A,4719.40781,N,12233.88067,W,001.29,265.3,030813,016.6,E,D*21
$PGRME,2.4,M,2.4,M,3.4,M*29
$HCHDG,297.8,0.0,E,,*2D
$IIVWR,093,L,00.1,N,,,,*74
$HCHDG,297.6,0.0,E,,*23
$GPRMC,220017.6,A,4719.40773,N,12233.88080,W,001.27,268.2,030813,016.6,E,D*25
$PTAK,FFP1,HEEL,@*07
$PGRME,2.4,M,2.4,M,3.4,M*29
$IIDPT,062.2,-1.0,*46
$HCHDG,297.4,0.0,E,,*21
$IIGLL,4719.408,N,12233.880,W,220000,A,A*44
$IIMTW,+13.5,C*3F
$YXXDR,A,6.1,D,PTCH,A,6.9,D,ROLL*55
$PTAK,FFD1,6.9*5A
$GPRMC,220017.8,A,4719.40766,N,12233.88093,W,001.30,262.9,030813,016.6,E,D*2A
$GPRMB,A,0.00,L,GH,GH,4719.6000,N,12234.2000,W,0.3,312,0.86,V*0E
$IIMWV,267,R,00.1,N,A*11
$PGRME,2.4,M,2.4,M,3.4,M*29
$HCHDG,297.3,0.0,E,,*26
$IIMWV,185,T,01.3,N,A*1B
$HCHDG,297.4,0.0,E,,*21
$IIRMB,A,0.00,L,,GH  ,,,,,000.3,312,,V,A*4B
$HCHDG,297.3,0.0,E,,*26
$GPRMC,220018.0,A,4719.40763,N,12233.88099,W,001.25,263.5,030813,016.6,E,D*2B
$PGRME,2.4,M,2.4,M,3.4,M*29
$HCHDG,297.2,0.0,E,,*27
$IIRMC,220000,A,4719.408,N,12233.880,W,01.2,269,030813,16,E,A*18
$HCHDG,297.3,0.0,E,,*26
$GPRMC,220018.2,A,4719.40758,N,12233.88107,W,001.28,262.8,030813,016.6,E,D*26
$PGRME,2.4,M,2.4,M,3.4,M*29
$YXXDR,A,5.8,D,PTCH,A,7.1,D,ROLL*56
$HCHDG,297.2,0.0,E,,*27
$HCHDG,297.2,0.0,E,,*27
$GPRMC,220018.4,A,4719.40766,N,12233.88120,W,001.26,265.2,030813,016.6,E,D*2B
$PGRME,2.4,M,2.4,M,3.4,M*29
$HCHDG,297.1,0.0,E,,*24
$IIVHW,,,,,01.4,N,,*1C
$HCHDG,297.2,0.0,E,,*27
$GPRMC,220018.6,A,4719.40781,N,12233.88140,W,001.26,266.3,030813,016.6,E,D*24
$PGRME,2.4,M,2.4,M,3.4,M*29
$IIVLW,02033,N,021.1,N*53
$IIVWR,109,L,00.2,N,,,,*75
$HCHDG,297.4,0.0,E,,*21
$IIDPT,062.2,-1.0,*46
$YXXDR,A,5.9,D,PTCH,A,7.4,D,ROLL*52
$GPRMC,220018.8,A,4719.40787,N,12233.88146,W,001.26,263.4,030813,016.6,E,D*28
$PGRME,2.4,M,2.4,M,3.4,M*29
$HCHDG,297.2,0.0,E,,*27
$IIGLL,4719.407,N,12233.880,W,220000,A,A*4B
$IIMTW,+13.5,C*3F
$HCHDG,297.3,0.0,E,,*26
$IIMWV,251,R,00.2,N,A*17
$IIMWV,184,T,01.4,N,A*1D
$HCHDG,297.4,0.0,E,,*21
$GPRMC,220019.0,A,4719.40786,N,12233.88150,W,001.26,268.7,030813,016.6,E,D*2F
$GPRMB,A,0.00,L,GH,GH,4719.6000,N,12234.2000,W,0.3,312,0.92,V*0B
$PGRME,2.4,M,2.4,M,3.4,M*29
$IIRMB,A,0.00,L,,GH  ,,,,,000.3,312,,V,A*4B
$HCHDG,297.3,0.0,E,,*26
$HCHDG,297.4,0.0,E,,*21
$GPRMC,220019.2,A,4719.40779,N,12233.88153,W,001.26,265.7,030813,016.6,E,D*23
$PGRME,2.4,M,2.4,M,3.4,M*29
$YXXDR,A,6.0,D,PTCH,A,7.1,D,ROLL*5D
$PTAK,FFD1,7.1*53
$HCHDG,297.5,0.0,E,,*20
$HCHDG,297.6,0.0,E,,*23
$GPRMC,220019.4,A,4719.40768,N,12233.88156,W,001.25,270.1,030813,016.6,E,D*21
$PGRME,2.4,M,2.4,M,3.4,M*29
$HCHDG,297.7,0.0,E,,*22
$HCHDG,297.7,0.0,E,,*22
$GPRMC,220019.6,A,4719.40753,N,12233.88168,W,001.29,264.6,030813,016.6,E,D*28
$PGRME,2.4,M,2.4,M,3.4,M*29
$IIRMC,220000,A,4719.407,N,12233.881,W,01.2,266,030813,16,E,A*19
$HCHDG,297.7,0.0,E,,*22
$IIVHW,,,,,01.3,N,,*1B
$IIVLW,02033,N,021.1,N*53
$YXXDR,A,6.1,D,PTCH,A,7.4,D,ROLL*59
$GPRMC,220019.8,A,4719.40751,N,12233.88187,W,001.32,264.8,030813,016.6,E,D*21
$PGRME,2.4,M,2.4,M,3.4,M*29
$IIVWR,109,L,00.5,N,,,,*72
$HCHDG,297.6,0.0,E,,*23
$IIDPT,062.2,-1.0,*46
$HCHDG,297.6,0.0,E,,*23
$IIGLL,4719.407,N,12233.881,W,220000,A,A*4A
$IIMTW,+13.5,C*3F
$HCHDG,297.6,0.0,E,,*23
$GPRMC,220020.0,A,4719.40762,N,12233.88220,W,001.33,268.4,030813,016.6,E,D*2C
$GPRMB,A,0.00,L,GH,GH,4719.6000,N,12234.2000,W,0.3,312,0.97,V*0E
$PGRME,2.4,M,2.4,M,3.4,M*29
$IIMWV,251,R,00.5,N,A*10
$HCHDG,297.6,0.0,E,,*23
$IIMWV,184,T,01.4,N,A*1D
$HCHDG,297.4,0.0,E,,*21
$GPRMC,220020.2,A,4719.40766,N,12233.88240,W,001.32,267.8,030813,016.6,E,D*2E
$PGRME,2.4,M,2.4,M,3.4,M*29
$YXXDR,A,6.1,D,PTCH,A,7.0,D,ROLL*5D
$PTAK,FFD1,7.0*52
$HCHDG,297.4,0.0,E,,*21
$HCHDG,297.4,0.0,E,,*21
$GPRMC,220020.4,A,4719.40773,N,12233.88232,W,001.29,271.5,030813,016.6,E,D*29
$PGRME,2.4,M,2.4,M,3.4,M*29
$HCHDG,297.3,0.0,E,,*26
$HCHDG,297.4,0.0,E,,*21
$GPRMC,220020.6,A,4719.40780,N,12233.88245,W,001.28,266.8,030813,016.6,E,D*2D
$IIRMB,A,0.00,L,,GH  ,,,,,000.3,312,,V,A*4B
$PGRME,2.4,M,2.4,M,3.4,M*29
$HCHDG,297.4,0.0,E,,*21
$IIRMC,220000,A,4719.407,N,12233.881,W,01.2,264,030813,16,E,A*1B
$YXXDR,A,6.0,D,PTCH,A,7.1,D,ROLL*5D
$IIVHW,,,,,01.3,N,,*1B
$GPRMC,220020.8,A,4719.40786,N,12233.88254,W,001.29,265.1,030813,016.6,E,D*2E
$PGRME,2.4,M,2.4,M,3.4,M*29
$HCHDG,297.4,0.0,E,,*21
$IIVLW,02033,N,021.1,N*53
$HCHDG,297.5,0.0,E,,*20
$IIVWR,100,L,00.6,N,,,,*78
$IIDPT,062.2,-1.0,*46
$HCHDG,297.5,0.0,E,,*20
$GPRMC,220021.0,A,4719.40793,N,12233.88270,W,001.29,267.3,030813,016.6,E,D*25
$PGRME,2.4,M,2.4,M,3.4,M*29
$IIGLL,4719.407,N,12233.881,W,220000,A,A*4A
$IIMTW,+13.5,C*3F
$HCHDG,297.5,0.0,E,,*20
$HCHDG,297.5,0.0,E,,*20
$GPRMC,220021.2,A,4719.40788,N,12233.88289,W,001.28,268.0,030813,016.6,E,D*26
$GPRMB,A,0.00,L,GH,GH,4719.6000,N,12234.2000,W,0.3,312,0.92,V*0B
$PGRME,2.4,M,2.4,M,3.4,M*29
$YXXDR,A,6.2,D,PTCH,A,7.5,D,ROLL*5B
$PTAK,FFD1,7.5*57
$HCHDG,297.5,0.0,E,,*20
$HCHDG,297.5,0.0,E,,*20
$GPRMC,220021.4,A,4719.40784,N,12233.88300,W,001.30,271.3,030813,016.6,E,D*2E
$PGRME,2.4,M,2.4,M,3.4,M*29
$HCHDG,297.3,0.0,E,,*26
$IIMWV,267,R,00.8,N,A*18
$HCHDG,297.3,0.0,E,,*26
$GPRMC,220021.6,A,4719.40775,N,12233.88311,W,001.28,267.5,030813,016.6,E,D*2A
$PTAK,FFP1,HEEL,@*07
$PGRME,2.4,M,2.4,M,3.4,M*29
$IIMWV,198,T,01.5,N,A*11
$HCHDG,297.3,0.0,E,,*26
$IIRMB,A,0.00,L,,GH  ,,,,,000.3,312,,V,A*4B
$YXXDR,A,6.1,D,PTCH,A,7.0,D,ROLL*5D
$GPRMC,220021.8,A,4719.40762,N,12233.88320,W,001.29,264.9,030813,016.6,E,D*2E
$PGRME,2.4,M,2.4,M,3.4,M*29
$HCHDG,297.2,0.0,E,,*27
$IIRMC,220000,A,4719.407,N,12233.882,W,01.2,266,030813,16,E,A*1A
$HCHDG,297.2,0.0,E,,*27
$IIVHW,,,,,01.3,N,,*1B
$IIVLW,02033,N,021.1,N*53
$HCHDG,297.1,0.0,E,,*24
$GPRMC,220022.0,A,4719.40752,N,12233.88312,W,001.30,265.2,030813,016.6,E,D*25
$PGRME,2.4,M,2.4,M,3.4,M*29
$IIVWR,093,L,00.8,N,,,,*7D
$IIDPT,062.0,-1.0,*44
$HCHDG,297.1,0.0,E,,*24
$HCHDG,297.1,0.0,E,,*24
$GPRMC,220022.2,A,4719.40745,N,12233.88319,W,001.31,264.4,030813,016.6,E,D*2C
$PGRME,2.4,M,2.4,M,3.4,M*29
$YXXDR,A,5.9,D,PTCH,A,7.3,D,ROLL*55
$HCHDG,297.3,0.0,E,,*26
$HCHDG,297.3,0.0,E,,*26
$GPRMC,220022.4,A,4719.40747,N,12233.88317,W,001.31,266.4,030813,016.6,E,D*24
$GPRMB,A,0.00,L,GH,GH,4719.6000,N,12234.2000,W,0.3,312,0.92,V*0B
$PGRME,2.4,M,2.4,M,3.4,M*29
$HCHDG,297.3,0.0,E,,*26
$HCHDG,297.6,0.0,E,,*23
$GPRMC,220022.6,A,4719.40753,N,12233.88320,W,001.33,266.3,030813,016.6,E,D*22
$IIGLL,4719.407,N,12233.883,W,220000,A,A*48
$PGRME,2.4,M,2.4,M,3.4,M*29
$IIMTW,+13.5,C*3F
$HCHDG,297.6,0.0,E,,*23
$IIMWV,265,R,00.8,N,A*1A
$IIMWV,210,T,01.6,N,A*11
$YXXDR,A,6.1,D,PTCH,A,7.5,D,ROLL*58
$PTAK,FFD1,7.5*57
$GPRMC,220022.8,A,4719.40759,N,12233.88325,W,001.35,269.4,030813,016.6,E,D*2D
$PGRME,2.4,M,2.4,M,3.4,M*29
$HCHDG,297.4,0.0,E,,*21
$IIRMB,A,0.00,L,,GH  ,,,,,000.3,312,,V,A*4B
$HCHDG,297.6,0.0,E,,*23
$IIRMC,220000,A,4719.407,N,12233.883,W,01.2,267,030813,16,E,A*1A
$HCHDG,297.6,0.0,E,,*23
$GPRMC,220023.0,A,4719.40761,N,12233.88342,W,001.36,270.0,030813,016.6,E,D*21
$PGRME,2.4,M,2.4,M,3.4,M*29
$IIVHW,,,,,01.3,N,,*1B
$IIVLW,02033,N,021.1,N*53
$HCHDG,297.7,0.0,E,,*22
$HCHDG,297.6,0.0,E,,*23
$GPRMC,220023.2,A,4719.40758,N,12233.88363,W,001.35,270.8,030813,016.6,E,D*21
$PGRME,2.4,M,2.4,M,3.4,M*29
$YXXDR,A,6.1,D,PTCH,A,7.1,D,ROLL*5C
$HCHDG,297.7,0.0,E,,*22
$HCHDG,297.7,0.0,E,,*22
$GPRMC,220023.4,A,4719.40758,N,12233.88373,W,001.36,273.0,030813,016.6,E,D*2E
$PGRME,2.4,M,2.4,M,3.4,M*29
$HCHDG,297.8,0.0,E,,*2D
$IIVWR,095,L,00.9,N,,,,*7A
$HCHDG,297.7,0.0,E,,*22
$GPRMC,220023.6,A,4719.40754,N,12233.88396,W,001.37,269.5,030813,016.6,E,D*24
$GPRMB,A,0.00,L,GH,GH,4719.6000,N,12234.2000,W,0.3,312,1.01,V*00
$PGRME,2.4,M,2.4,M,3.4,M*29
$IIDPT,062.0,-1.0,*44
$HCHDG,297.7,0.0,E,,*22
$IIGLL,4719.407,N,12233.883,W,220000,A,A*48
$IIMTW,+13.5,C*3F
$YXXDR,A,6.3,D,PTCH,A,7.0,D,ROLL*5F
$PTAK,FFD1,7.0*52
$GPRMC,220023.8,A,4719.40748,N,12233.88413,W,001.36,270.8,030813,016.6,E,D*29
$IIMWV,265,R,00.9,N,A*1B
$PGRME,2.4,M,2.4,M,3.4,M*29
$HCHDG,297.6,0.0,E,,*23
$IIMWV,210,T,01.6,N,A*11
$HCHDG,297.7,0.0,E,,*22
$IIRMB,A,0.00,L,,GH  ,,,,,000.3,312,,V,A*4B
$HCHDG,297.6,0.0,E,,*23
$GPRMC,220024.0,A,4719.40744,N,12233.88414,W,001.21,266.4,030813,016.6,E,D*20
$PGRME,2.4,M,2.4,M,3.4,M*29
$HCHDG,297.6,0.0,E,,*23
$IIRMC,220000,A,4719.407,N,12233.883,W,01.3,266,030813,16,E,A*1A
$HCHDG,297.6,0.0,E,,*23
$GPRMC,220024.2,A,4719.40740,N,12233.88415,W,001.38,271.0,030813,016.6,E,D*2D
$PGRME,2.4,M,2.4,M,3.4,M*29
$YXXDR,A,6.1,D,PTCH,A,7.0,D,ROLL*5D
$HCHDG,297.5,0.0,E,,*20
$HCHDG,297.5,0.0,E,,*20
$GPRMC,220024.4,A,4719.40727,N,12233.88421,W,001.44,268.4,030813,016.6,E,D*2A
$PGRME,2.4,M,2.4,M,3.4,M*29
$HCHDG,297.5,0.0,E,,*20
$IIVHW,,,,,01.4,N,,*1C
$HCHDG,297.3,0.0,E,,*26
$GPRMC,220024.6,A,4719.40712,N,12233.88429,W,001.45,264.4,030813,016.6,E,D*2B
$GPRMB,A,0.00,L,GH,GH,4719.6000,N,12234.2000,W,0.3,312,0.98,V*01
$PGRME,2.4,M,2.4,M,3.4,M*29
$IIVLW,02033,N,021.1,N*53
$IIVWR,099,L,00.9,N,,,,*76
$HCHDG,297.3,0.0,E,,*26
$IIDPT,062.0,-1.0,*44
$YXXDR,A,5.9,D,PTCH,A,7.4,D,ROLL*52
$GPRMC,220024.8,A,4719.40708,N,12233.88434,W,001.43,266.3,030813,016.6,E,D*21
$PGRME,2.4,M,2.4,M,3.4,M*29
$IIGLL,4719.407,N,12233.883,W,220000,A,A*48
$HCHDG,297.5,0.0,E,,*20
$IIMTW,+13.5,C*3F
$HCHDG,297.5,0.0,E,,*20
$IIMWV,261,R,00.9,N,A*1F
$IIMWV,213,T,01.6,N,A*12
$HCHDG,297.6,0.0,E,,*23
$GPRMC,220025.0,A,4719.40714,N,12233.88445,W,001.45,266.3,030813,016.6,E,D*25
$PGRME,2.4,M,2.4,M,3.4,M*29
$IIRMB,A,0.00,L,,GH  ,,,,,000.3,312,,V,A*4B
$HCHDG,297.5,0.0,E,,*20
$HCHDG,297.5,0.0,E,,*20
$GPRMC,220025.2,A,4719.40723,N,12233.88472,W,001.26,266.0,030813,016.6,E,D*21
$PGRME,2.4,M,2.4,M,3.4,M*29
$YXXDR,A,6.0,D,PTCH,A,7.4,D,ROLL*58
$PTAK,FFD1,7.4*56
$HCHDG,297.6,0.0,E,,*23
$HCHDG,297.6,0.0,E,,*23
$GPRMC,220025.4,A,4719.40731,N,12233.88490,W,001.31,266.0,030813,016.6,E,D*2E
$PGRME,2.4,M,2.4,M,3.4,M*29
$HCHDG,297.6,0.0,E,,*23
$HCHDG,297.6,0.0,E,,*23
$GPRMC,220025.6,A,4719.40737,N,12233.88505,W,001.37,266.3,030813,016.6,E,D*22
$PGRME,2.4,M,2.4,M,3.4,M*29
$IIRMC,220000,A,4719.407,N,12233.884,W,01.4,266,030813,16,E,A*1A
$HCHDG,297.6,0.0,E,,*23
$PTAK,FFP1,HEEL,@*07
$IIVHW,,,,,01.4,N,,*1C
$IIVLW,02033,N,021.1,N*53
$YXXDR,A,6.0,D,PTCH,A,7.2,D,ROLL*5E
$GPRMC,220025.8,A,4719.40737,N,12233.88513,W,001.41,266.8,030813,016.6,E,D*21
$GPRMB,A,0.00,L,GH,GH,4719.6000,N,12234.2000,W,0.3,312,0.99,V*00
$PGRME,2.4,M,2.4,M,3.4,M*29
$IIVWR,100,L,01.0,N,,,,*7F
$HCHDG,297.5,0.0,E,,*20
$IIDPT,062.0,-1.0,*44
$HCHDG,297.5,0.0,E,,*20
$IIGLL,4719.407,N,12233.884,W,220000,A,A*4F
$HCHDG,297.4,0.0,E,,*21
$IIMTW,+13.5,C*3F
$GPRMC,220026.0,A,4719.40736,N,12233.88508,W,001.39,267.0,030813,016.6,E,D*27
$PGRME,2.4,M,2.4,M,3.4,M*29
$IIMWV,260,R,01.0,N,A*16
$HCHDG,297.4,0.0,E,,*21
$IIMWV,208,T,01.7,N,A*19
$HCHDG,297.5,0.0,E,,*20
$GPRMC,220026.2,A,4719.40732,N,12233.88510,W,001.37,265.1,030813,016.6,E,D*25
$PGRME,2.4,M,2.4,M,3.4,M*29
$YXXDR,A,6.1,D,PTCH,A,7.1,D,ROLL*5C
$PTAK,FFD1,7.1*53
$HCHDG,297.6,0.0,E,,*23
$HCHDG,297.6,0.0,E,,*23
$GPRMC,220026.4,A,4719.40730,N,12233.88516,W,001.40,266.5,030813,016.6,E,D*20
$PGRME,2.4,M,2.4,M,3.4,M*29
$HCHDG,297.6,0.0,E,,*23
$HCHDG,297.7,0.0,E,,*22
$GPRMC,220026.6,A,4719.40731,N,12233.88520,W,001.38,266.1,030813,016.6,E,D*2D
$IIRMB,A,0.00,L,,GH  ,,,,,000.3,312,,V,A*4B
$PGRME,2.4,M,2.4,M,3.4,M*29
$HCHDG,297.8,0.0,E,,*2D
$IIRMC,220000,A,4719.407,N,12233.885,W,01.3,267,030813,16,E,A*1D
$YXXDR,A,6.1,D,PTCH,A,7.2,D,ROLL*5F
$IIVHW,,,,,01.4,N,,*1C
$GPRMC,220026.8,A,4719.40735,N,12233.88525,W,001.35,271.2,030813,016.6,E,D*2A
$GPRMB,A,0.00,L,GH,GH,4719.6000,N,12234.2000,W,0.3,312,1.02,V*03
$PGRME,2.4,M,2.4,M,3.4,M*29
$HCHDG,297.8,0.0,E,,*2D
$IIVLW,02033,N,021.1,N*53
$HCHDG,297.8,0.0,E,,*2D
$IIVWR,097,L,00.9,N,,,,*78
$IIDPT,062.0,-1.0,*44
$HCHDG,297.7,0.0,E,,*22
$GPRMC,220027.0,A,4719.40732,N,12233.88531,W,001.38,268.7,030813,016.6,E,D*21
$PGRME,2.4,M,2.4,M,3.4,M*29
$IIGLL,4719.407,N,12233.885,W,220000,A,A*4E
$IIMTW,+13.5,C*3F
$HCHDG,297.7,0.0,E,,*22
$HCHDG,297.7,0.0,E,,*22
$GPRMC,220027.2,A,4719.40728,N,12233.88541,W,001.42,267.3,030813,016.6,E,D*29
$PGRME,2.4,M,2.4,M,3.4,M*29
$YXXDR,A,6.1,D,PTCH,A,6.9,D,ROLL*55
$HCHDG,297.6,0.0,E,,*23
$HCHDG,297.7,0.0,E,,*22
$GPRMC,220027.4,A,4719.40736,N,12233.88549,W,001.41,269.2,030813,016.6,E,D*24
$PGRME,2.4,M,2.4,M,3.4,M*29
$HCHDG,297.7,0.0,E,,*22
$IIMWV,267,R,00.9,N,A*19
$HCHDG,297.7,0.0,E,,*22
$GPRMC,220027.6,A,4719.40757,N,12233.88578,W,001.43,265.1,030813,016.6,E,D*2E
$PGRME,2.4,M,2.4,M,3.4,M*29
$IIMWV,208,T,01.7,N,A*19
$HCHDG,297.8,0.0,E,,*2D
$IIRMB,A,0.00,L,,GH  ,,,,,000.3,312,,V,A*4B
$YXXDR,A,6.1,D,PTCH,A,7.6,D,ROLL*5B
$PTAK,FFD1,7.6*54
$GPRMC,220027.8,A,4719.40769,N,12233.88599,W,001.47,267.4,030813,016.6,E,D*21
$PGRME,2.4,M,2.4,M,3.4,M*29
$HCHDG,297.8,0.0,E,,*2D
$IIRMC,220000,A,4719.407,N,12233.885,W,01.3,268,030813,16,E,A*12
$HCHDG,297.8,0.0,E,,*2D
$IIVHW,,,,,01.4,N,,*1C
$IIVLW,02033,N,021.1,N*53
$HCHDG,297.8,0.0,E,,*2D
$GPRMC,220028.0,A,4719.40770,N,12233.88623,W,001.45,267.3,030813,016.6,E,D*29
$GPRMB,A,0.00,L,GH,GH,4719.6000,N,12234.2000,W,0.3,312,1.03,V*02
$PGRME,2.4,M,2.4,M,3.4,M*29
$IIVWR,093,L,00.9,N,,,,*7C
$IIDPT,062.0,-1.0,*44
$HCHDG,297.8,0.0,E,,*2D
$HCHDG,297.8,0.0,E,,*2D
$GPRMC,220028.2,A,4719.40769,N,12233.88619,W,001.43,266.4,030813,016.6,E,D*2A
$PGRME,2.4,M,2.4,M,3.4,M*29
$YXXDR,A,6.0,D,PTCH,A,7.0,D,ROLL*5C
$HCHDG,297.8,0.0,E,,*2D
$HCHDG,297.7,0.0,E,,*22
$GPRMC,220028.4,A,4719.40756,N,12233.88617,W,001.40,267.4,030813,016.6,E,D*2C
$PGRME,2.4,M,2.4,M,3.4,M*29
$HCHDG,297.6,0.0,E,,*23
$HCHDG,297.5,0.0,E,,*20
$GPRMC,220028.6,A,4719.40742,N,12233.88624,W,001.39,264.7,030813,016.6,E,D*25
$PGRME,2.4,M,2.4,M,3.4,M*29
$IIGLL,4719.407,N,12233.886,W,220000,A,A*4D
$IIMTW,+13.5,C*3F
$HCHDG,297.5,0.0,E,,*20
$IIMWV,265,R,00.9,N,A*1B
$IIMWV,213,T,01.6,N,A*12
$YXXDR,A,5.8,D,PTCH,A,6.9,D,ROLL*5F
$PTAK,FFD1,6.9*5A
$GPRMC,220028.8,A,4719.40736,N,12233.88627,W,001.35,266.0,030813,016.6,E,D*22
$PGRME,2.4,M,2.4,M,3.4,M*29
$HCHDG,297.5,0.0,E,,*20
$IIRMB,A,0.00,L,,GH  ,,,,,000.3,312,,V,A*4B
$HCHDG,297.4,0.0,E,,*21
$IIRMC,220000,A,4719.407,N,12233.886,W,01.4,267,030813,16,E,A*19
$HCHDG,297.6,0.0,E,,*23
$GPRMC,220029.0,A,4719.40733,N,12233.88645,W,001.34,269.7,030813,016.6,E,D*23
$GPRMB,A,0.00,L,GH,GH,4719.6000,N,12234.2000,W,0.3,312,0.99,V*00
$PGRME,2.4,M,2.4,M,3.4,M*29
$IIVHW,,,,,01.4,N,,*1C
$IIVLW,02033,N,021.1,N*53
$HCHDG,297.6,0.0,E,,*23
$HCHDG,297.8,0.0,E,,*2D
$GPRMC,220029.2,A,4719.40742,N,12233.88667,W,001.60,267.8,030813,016.6,E,D*27
$PGRME,2.4,M,2.4,M,3.4,M*29
$YXXDR,A,5.9,D,PTCH,A,7.6,D,ROLL*50
$HCHDG,297.9,0.0,E,,*2C
$HCHDG,297.9,0.0,E,,*2C
$GPRMC,220029.4,A,4719.40747,N,12233.88679,W,001.56,273.0,030813,016.6,E,D*23
$PGRME,2.4,M,2.4,M,3.4,M*29
$HCHDG,298.0,0.0,E,,*2A
$IIVWR,101,L,01.0,N,,,,*7E
$HCHDG,298.2,0.0,E,,*28
$GPRMC,220029.6,A,4719.40750,N,12233.88700,W,001.29,272.4,030813,016.6,E,D*25
$PGRME,2.4,M,2.4,M,3.4,M*29
$IIDPT,062.0,-1.0,*44
$HCHDG,298.3,0.0,E,,*29
$IIGLL,4719.407,N,12233.886,W,220000,A,A*4D
$IIMTW,+13.5,C*3F
$YXXDR,A,6.2,D,PTCH,A,7.5,D,ROLL*5B
$PTAK,FFP1,HEEL,@*07
$GPRMC,220029.8,A,4719.40750,N,12233.88697,W,001.34,272.9,030813,016.6,E,D*25
$IIMWV,259,R,01.0,N,A*1C
$PGRME,2.4,M,2.4,M,3.4,M*29
$HCHDG,298.2,0.0,E,,*28
$IIMWV,213,T,01.6,N,A*12
$HCHDG,298.1,0.0,E,,*2B
$IIRMB,A,0.00,L,,GH  ,,,,,000.3,312,,V,A*4B
$HCHDG,298.2,0.0,E,,*28
$GPRMC,220030.0,A,4719.40755,N,12233.88720,W,001.57,274.6,030813,016.6,E,D*21
$PGRME,2.4,M,2.4,M,3.4,M*29
$IIRMC,220000,A,4719.407,N,12233.886,W,01.4,267,030813,16,E,A*19
$HCHDG,298.2,0.0,E,,*28
$HCHDG,298.2,0.0,E,,*28
$GPRMC,220030.2,A,4719.40761,N,12233.88731,W,001.51,271.3,030813,016.6,E,D*22
$GPRMB,A,0.00,L,GH,GH,4719.6000,N,12234.2000,W,0.3,312,1.14,V*04
$PGRME,2.4,M,2.4,M,3.4,M*29
$YXXDR,A,6.4,D,PTCH,A,7.0,D,ROLL*58
$PTAK,FFD1,7.0*52
$HCHDG,298.1,0.0,E,,*2B
$HCHDG,298.3,0.0,E,,*29
$GPRMC,220030.4,A,4719.40757,N,12233.88750,W,001.49,271.0,030813,016.6,E,D*2C
$PGRME,2.4,M,2.4,M,3.4,M*29
$HCHDG,298.2,0.0,E,,*28
$IIVHW,,,,,01.4,N,,*1C
$HCHDG,298.4,0.0,E,,*2E
$GPRMC,220030.6,A,4719.40748,N,12233.88771,W,001.48,267.6,030813,016.6,E,D*23
$PGRME,2.4,M,2.4,M,3.4,M*29
$IIVLW,02033,N,021.1,N*53
$IIVWR,100,L,01.0,N,,,,*7F
$HCHDG,298.1,0.0,E,,*2B
$IIDPT,062.0,-1.0,*44
$YXXDR,A,6.0,D,PTCH,A,7.4,D,ROLL*58
$GPRMC,220030.8,A,4719.40739,N,12233.88781,W,001.42,270.6,030813,016.6,E,D*28
$PGRME,2.4,M,2.4,M,3.4,M*29
$IIGLL,4719.407,N,12233.887,W,220000,A,A*4C
$HCHDG,298.0,0.0,E,,*2A
$IIMTW,+13.5,C*3F
$HCHDG,297.9,0.0,E,,*2C
$IIMWV,260,R,01.0,N,A*16
$IIMWV,211,T,01.7,N,A*11
$HCHDG,297.9,0.0,E,,*2C
$GPRMC,220031.0,A,4719.40730,N,12233.88776,W,001.39,273.5,030813,016.6,E,D*2C
$PGRME,2.4,M,2.4,M,3.4,M*29
$IIRMB,A,0.00,L,,GH  ,,,,,000.3,312,,V,A*4B
$HCHDG,297.9,0.0,E,,*2C
$HCHDG,297.9,0.0,E,,*2C
$GPRMC,220031.2,A,4719.40716,N,12233.88780,W,001.37,273.5,030813,016.6,E,D*2D
$PGRME,2.4,M,2.4,M,3.4,M*29
$YXXDR,A,5.8,D,PTCH,A,7.1,D,ROLL*56
$HCHDG,297.8,0.0,E,,*2D
$GPRMC,220031.4,A,4719.40708,N,12233.88787,W,001.34,273.1,030813,016.6,E,D*24
$HCHDG,297.9,0.0,E,,*2C
$PGRME,2.4,M,2.4,M,3.4,M*29
$HCHDG,297.7,0.0,E,,*22
$HCHDG,297.6,0.0,E,,*23
$GPRMC,220031.6,A,4719.40719,N,12233.88803,W,001.34,269.5,030813,016.6,E,D*2A
$GPRMB,A,0.00,L,GH,GH,4719.6000,N,12234.2000,W,0.3,312,0.98,V*01
$PGRME,2.4,M,2.4,M,3.4,M*29
$IIRMC,220000,A,4719.407,N,12233.887,W,01.5,271,030813,16,E,A*1E
$HCHDG,297.7,0.0,E,,*22
$IIVHW,,,,,01.4,N,,*1C
$IIVLW,02033,N,021.1,N*53
$YXXDR,A,6.0,D,PTCH,A,7.0,D,ROLL*5C
$PTAK,FFD1,7.0*52
$GPRMC,220031.8,A,4719.40724,N,12233.88815,W,001.37,273.4,030813,016.6,E,D*24
$PGRME,2.4,M,2.4,M,3.4,M*29
$IIVWR,092,L,01.0,N,,,,*75
$HCHDG,297.7,0.0,E,,*22
$IIDPT,062.0,-1.0,*44
$HCHDG,297.7,0.0,E,,*22
$IIGLL,4719.407,N,12233.887,W,220000,A,A*4C
$HCHDG,297.8,0.0,E,,*2D
$IIMTW,+13.5,C*3F
$GPRMC,220032.0,A,4719.40731,N,12233.88832,W,001.37,272.3,030813,016.6,E,D*28
$PGRME,2.4,M,2.4,M,3.4,M*29
$IIMWV,268,R,01.0,N,A*1E
$HCHDG,297.8,0.0,E,,*2D
$IIMWV,209,T,01.8,N,A*17
$HCHDG,298.0,0.0,E,,*2A
$GPRMC,220032.2,A,4719.40736,N,12233.88847,W,001.38,267.4,030813,016.6,E,D*23
$PGRME,2.4,M,2.4,M,3.4,M*29
$YXXDR,A,6.2,D,PTCH,A,7.5,D,ROLL*5B
$HCHDG,297.9,0.0,E,,*2C
$HCHDG,297.9,0.0,E,,*2C
$GPRMC,220032.4,A,4719.40744,N,12233.88855,W,001.38,267.4,030813,016.6,E,D*23
$PGRME,2.4,M,2.4,M,3.4,M*29
$HCHDG,297.9,0.0,E,,*2C
$HCHDG,298.0,0.0,E,,*2A
$GPRMC,220032.6,A,4719.40748,N,12233.88852,W,001.40,265.6,030813,016.6,E,D*25
$GPRMB,A,0.00,L,GH,GH,4719.6000,N,12234.2000,W,0.3,312,0.96,V*0F
$PGRME,2.4,M,2.4,M,3.4,M*29
$IIRMB,A,0.00,L,,GH  ,,,,,000.3,312,,V,A*4B
$HCHDG,298.1,0.0,E,,*2B
$IIRMC,220000,A,4719.407,N,12233.887,W,01.3,273,030813,16,E,A*1A
$YXXDR,A,6.0,D,PTCH,A,7.6,D,ROLL*5A
$IIVHW,,,,,01.4,N,,*1C
$GPRMC,220032.8,A,4719.40746,N,12233.88866,W,001.42,268.9,030813,016.6,E,D*22
$PGRME,2.4,M,2.4,M,3.4,M*29
$HCHDG,298.3,0.0,E,,*29
$IIVLW,02033,N,021.1,N*53
$HCHDG,298.2,0.0,E,,*28
$IIVWR,082,L,01.0,N,,,,*74
$IIDPT,062.0,-1.0,*44
$HCHDG,298.3,0.0,E,,*29
$GPRMC,220033.0,A,4719.40740,N,12233.88892,W,001.42,272.9,030813,016.6,E,D*2D
$PGRME,2.4,M,2.4,M,3.4,M*29
$IIGLL,4719.407,N,12233.887,W,220000,A,A*4C
$IIMTW,+13.5,C*3F
$HCHDG,298.4,0.0,E,,*2E
$HCHDG,298.4,0.0,E,,*2E
$GPRMC,220033.2,A,4719.40737,N,12233.88915,W,001.45,270.5,030813,016.6,E,D*28
$PGRME,2.4,M,2.4,M,3.4,M*29
$YXXDR,A,5.9,D,PTCH,A,7.4,D,ROLL*52
$PTAK,FFD1,7.4*56
$HCHDG,298.5,0.0,E,,*2F
$HCHDG,298.4,0.0,E,,*2E
$GPRMC,220033.4,A,4719.40730,N,12233.88931,W,001.45,271.5,030813,016.6,E,D*2E
$PGRME,2.4,M,2.4,M,3.4,M*29
$HCHDG,298.5,0.0,E,,*2F
$IIMWV,276,R,01.1,N,A*10
$HCHDG,298.5,0.0,E,,*2F
$GPRMC,220033.6,A,4719.40714,N,12233.88941,W,001.43,273.7,030813,016.6,E,D*2B
$GPRMB,A,0.00,L,GH,GH,4719.6000,N,12234.2000,W,0.3,312,1.11,V*01
$PGRME,2.4,M,2.4,M,3.4,M*29
$IIMWV,213,T,01.6,N,A*12
$HCHDG,298.3,0.0,E,,*29
$PTAK,FFP1,HEEL,@*07
$IIRMB,A,0.00,L,,GH  ,,,,,000.3,312,,V,A*4B
$YXXDR,A,6.1,D,PTCH,A,7.0,D,ROLL*5D
$GPRMC,220033.8,A,4719.40713,N,12233.88935,W,001.43,275.3,030813,016.6,E,D*23
$PGRME,2.4,M,2.4,M,3.4,M*29
$HCHDG,298.5,0.0,E,,*2F
$IIRMC,220000,A,4719.407,N,12233.888,W,01.3,267,030813,16,E,A*10
$HCHDG,298.6,0.0,E,,*2C
$IIVHW,,,,,01.5,N,,*1D
$IIVLW,02033,N,021.1,N*53
$HCHDG,298.6,0.0,E,,*2C
$GPRMC,220034.0,A,4719.40724,N,12233.88940,W,001.45,272.3,030813,016.6,E,D*2B
$PGRME,2.4,M,2.4,M,3.4,M*29
$IIVWR,084,L,01.1,N,,,,*73
$IIDPT,062.0,-1.0,*44
$HCHDG,298.6,0.0,E,,*2C
$HCHDG,298.6,0.0,E,,*2C
$GPRMC,220034.2,A,4719.40737,N,12233.88947,W,001.45,270.3,030813,016.6,E,D*2E
$PGRME,2.4,M,2.4,M,3.4,M*29
$YXXDR,A,6.2,D,PTCH,A,7.5,D,ROLL*5B
$HCHDG,298.6,0.0,E,,*2C
$HCHDG,298.6,0.0,E,,*2C
$GPRMC,220034.4,A,4719.40746,N,12233.88963,W,001.48,268.0,030813,016.6,E,D*2F
$PGRME,2.4,M,2.4,M,3.4,M*29
$HCHDG,298.7,0.0,E,,*2D
$HCHDG,298.7,0.0,E,,*2D
$GPRMC,220034.6,A,4719.40753,N,12233.88968,W,001.49,269.1,030813,016.6,E,D*23
$IIGLL,4719.407,N,12233.889,W,220000,A,A*42
$PGRME,2.4,M,2.4,M,3.4,M*29
$IIMTW,+13.5,C*3F
$HCHDG,298.7,0.0,E,,*2D
$IIMWV,265,R,01.2,N,A*11
$IIMWV,216,T,01.7,N,A*16
$YXXDR,A,6.0,D,PTCH,A,7.1,D,ROLL*5D
$PTAK,FFD1,7.1*53
$GPRMC,220034.8,A,4719.40756,N,12233.88973,W,001.32,270.9,030813,016.6,E,D*2E
$GPRMB,A,0.00,L,GH,GH,4719.6000,N,12234.2000,W,0.3,312,0.99,V*00
$PGRME,2.4,M,2.4,M,3.4,M*29
$HCHDG,298.6,0.0,E,,*2C
$IIRMB,A,0.00,L,,GH  ,,,,,000.3,312,,V,A*4B
$HCHDG,298.7,0.0,E,,*2D
$IIRMC,220000,A,4719.407,N,12233.889,W,01.4,271,030813,16,E,A*11
$HCHDG,298.7,0.0,E,,*2D
$GPRMC,220035.0,A,4719.40754,N,12233.88972,W,001.36,275.0,030813,016.6,E,D*2C
$PGRME,2.4,M,2.4,M,3.4,M*29
$IIVHW,,,,,01.5,N,,*1D
$IIVLW,02033,N,021.1,N*53
$HCHDG,298.7,0.0,E,,*2D
$HCHDG,298.7,0.0,E,,*2D
$GPRMC,220035.2,A,4719.40750,N,12233.88971,W,001.34,279.4,030813,016.6,E,D*23
$PGRME,2.4,M,2.4,M,3.4,M*29
$YXXDR,A,6.1,D,PTCH,A,7.0,D,ROLL*5D
$HCHDG,298.7,0.0,E,,*2D
$HCHDG,298.7,0.0,E,,*2D
$GPRMC,220035.4,A,4719.40739,N,12233.88999,W,001.40,271.4,030813,016.6,E,D*27
$PGRME,2.4,M,2.4,M,3.4,M*29
$HCHDG,298.7,0.0,E,,*2D
$IIVWR,102,L,01.0,N,,,,*7D
$HCHDG,298.8,0.0,E,,*22
$GPRMC,220035.6,A,4719.40738,N,12233.89020,W,001.40,271.9,030813,016.6,E,D*23
$PGRME,2.4,M,2.4,M,3.4,M*29
$IIDPT,062.0,-1.0,*44
$HCHDG,298.8,0.0,E,,*22
$IIGLL,4719.407,N,12233.889,W,220000,A,A*42
$IIMTW,+13.5,C*3F
$YXXDR,A,5.9,D,PTCH,A,7.4,D,ROLL*52
$GPRMC,220035.8,A,4719.40735,N,12233.89029,W,001.44,270.9,030813,016.6,E,D*2C
$GPRMB,A,0.00,L,GH,GH,4719.6000,N,12234.2000,W,0.3,313,1.08,V*08
$IIMWV,258,R,01.0,N,A*1D
$PGRME,2.4,M,2.4,M,3.4,M*29
$HCHDG,298.9,0.0,E,,*23
$IIMWV,217,T,02.0,N,A*13
$HCHDG,299.0,0.0,E,,*2B
$IIRMB,A,0.00,L,,GH  ,,,,,000.3,312,,V,A*4B
$HCHDG,299.0,0.0,E,,*2B
$GPRMC,220036.0,A,4719.40730,N,12233.89034,W,001.45,269.8,030813,016.6,E,D*26
$PGRME,2.4,M,2.4,M,3.4,M*29
$IIRMC,220000,A,4719.407,N,12233.889,W,01.4,268,030813,16,E,A*19
$HCHDG,299.1,0.0,E,,*2A
$GPRMC,220036.2,A,4719.40727,N,12233.89046,W,001.49,273.3,030813,016.6,E,D*2B
$HCHDG,299.1,0.0,E,,*2A
$PGRME,2.4,M,2.4,M,3.4,M*29
$YXXDR,A,6.1,D,PTCH,A,7.4,D,ROLL*59
$PTAK,FFD1,7.4*56
$HCHDG,299.1,0.0,E,,*2A
$HCHDG,299.1,0.0,E,,*2A
$GPRMC,220036.4,A,4719.40727,N,12233.89060,W,001.51,265.5,030813,016.6,E,D*21
$PGRME,2.4,M,2.4,M,3.4,M*29
$HCHDG,299.1,0.0,E,,*2A
$IIVHW,,,,,01.5,N,,*1D
$HCHDG,299.0,0.0,E,,*2B
$GPRMC,220036.6,A,4719.40733,N,12233.89075,W,001.52,271.7,030813,016.6,E,D*26
$PGRME,2.4,M,2.4,M,3.4,M*29
$IIVLW,02033,N,021.1,N*53
$IIVWR,102,L,01.1,N,,,,*7C
$HCHDG,299.2,0.0,E,,*29
$IIDPT,062.0,-1.0,*44
$YXXDR,A,6.2,D,PTCH,A,7.1,D,ROLL*5F
$GPRMC,220036.8,A,4719.40738,N,12233.89092,W,001.51,268.8,030813,016.6,E,D*2E
$GPRMB,A,0.00,L,GH,GH,4719.6000,N,12234.2000,W,0.3,313,1.09,V*09
$PGRME,2.4,M,2.4,M,3.4,M*29
$IIGLL,4719.407,N,12233.889,W,220000,A,A*42
$HCHDG,299.2,0.0,E,,*29
$IIMTW,+13.5,C*3F
$HCHDG,299.4,0.0,E,,*2F
$IIMWV,258,R,01.1,N,A*1C
$IIMWV,208,T,01.9,N,A*17
$GPRMC,220037.0,A,4719.40743,N,12233.89111,W,001.53,268.2,030813,016.6,E,D*29
$HCHDG,299.5,0.0,E,,*2E
$PGRME,2.4,M,2.4,M,3.4,M*29
$IIRMB,A,0.00,L,,GH  ,,,,,000.3,313,,V,A*4A
$HCHDG,299.5,0.0,E,,*2E
$HCHDG,299.7,0.0,E,,*2C
$GPRMC,220037.2,A,4719.40748,N,12233.89119,W,001.51,273.8,030813,016.6,E,D*2A
$PGRME,2.4,M,2.4,M,3.4,M*29
$YXXDR,A,5.9,D,PTCH,A,7.5,D,ROLL*53
$HCHDG,299.7,0.0,E,,*2C
$HCHDG,299.7,0.0,E,,*2C
$GPRMC,220037.4,A,4719.40750,N,12233.89109,W,001.52,268.5,030813,016.6,E,D*20
$PGRME,2.4,M,2.4,M,3.4,M*29
$HCHDG,299.8,0.0,E,,*23
$HCHDG,299.9,0.0,E,,*22
$GPRMC,220037.6,A,4719.40744,N,12233.89105,W,001.54,269.7,030813,016.6,E,D*2E
$PGRME,2.4,M,2.4,M,3.4,M*29
$IIRMC,220000,A,4719.407,N,12233.890,W,01.5,271,030813,16,E,A*18
$HCHDG,299.9,0.0,E,,*22
$IIVHW,,,,,01.5,N,,*1D
$IIVLW,02033,N,021.1,N*53
$YXXDR,A,5.9,D,PTCH,A,7.5,D,ROLL*53
$PTAK,FFD1,7.5*57
$GPRMC,220037.8,A,4719.40733,N,12233.89112,W,001.53,274.1,030813,016.6,E,D*2B
$GPRMB,A,0.00,L,GH,GH,4719.6000,N,12234.2000,W,0.3,313,1.20,V*02
$PTAK,FFP1,HEEL,@*07
$PGRME,2.4,M,2.4,M,3.4,M*29
$IIVWR,099,L,01.1,N,,,,*7F
$HCHDG,299.9,0.0,E,,*22
$IIDPT,062.0,-1.0,*44
$HCHDG,299.9,0.0,E,,*22
$IIGLL,4719.407,N,12233.890,W,220000,A,A*4A
$HCHDG,299.8,0.0,E,,*23
$IIMTW,+13.5,C*3F
$GPRMC,220038.0,A,4719.40733,N,12233.89132,W,001.50,277.3,030813,016.6,E,D*2C
$PGRME,2.4,M,2.4,M,3.4,M*29
$IIMWV,261,R,01.1,N,A*16
$HCHDG,299.8,0.0,E,,*23
$IIMWV,211,T,01.9,N,A*1F
$HCHDG,299.8,0.0,E,,*23
$GPRMC,220038.2,A,4719.40736,N,12233.89150,W,001.67,270.5,030813,016.6,E,D*2A
$PGRME,2.4,M,2.4,M,3.4,M*29
$YXXDR,A,6.1,D,PTCH,A,7.1,D,ROLL*5C
$HCHDG,299.7,0.0,E,,*2C
$HCHDG,299.6,0.0,E,,*2D
$GPRMC,220038.4,A,4719.40738,N,12233.89168,W,001.24,273.2,030813,016.6,E,D*2A
$PGRME,2.4,M,2.4,M,3.4,M*29
$HCHDG,299.6,0.0,E,,*2D
$HCHDG,299.6,0.0,E,,*2D
$GPRMC,220038.6,A,4719.40736,N,12233.89184,W,001.31,272.3,030813,016.6,E,D*20
$PGRME,2.4,M,2.4,M,3.4,M*29
$IIRMB,A,0.00,L,,GH  ,,,,,000.3,313,,V,A*4A
$HCHDG,299.5,0.0,E,,*2E
$IIRMC,220000,A,4719.407,N,12233.891,W,01.5,269,030813,16,E,A*10
$YXXDR,A,6.1,D,PTCH,A,7.2,D,ROLL*5F
$IIVHW,,,,,01.5,N,,*1D
$GPRMC,220038.8,A,4719.40733,N,12233.89198,W,001.37,274.8,030813,016.6,E,D*2D
$GPRMB,A,0.00,L,GH,GH,4719.6000,N,12234.2000,W,0.3,313,1.08,V*08
$PGRME,2.4,M,2.4,M,3.4,M*29
$HCHDG,299.4,0.0,E,,*2F
$IIVLW,02033,N,021.1,N*53
$HCHDG,299.5,0.0,E,,*2E
$IIVWR,099,L,01.1,N,,,,*7F
$IIDPT,062.0,-1.0,*44
$HCHDG,299.5,0.0,E,,*2E
$GPRMC,220039.0,A,4719.40739,N,12233.89214,W,001.41,274.6,030813,016.6,E,D*26
$PGRME,2.4,M,2.4,M,3.4,M*29
$IIGLL,4719.407,N,12233.891,W,220000,A,A*4B
$IIMTW,+13.5,C*3F
$HCHDG,299.6,0.0,E,,*2D
$HCHDG,299.5,0.0,E,,*2E
$GPRMC,220039.2,A,4719.40744,N,12233.89236,W,001.42,267.6,030813,016.6,E,D*2F
$PGRME,2.4,M,2.4,M,3.4,M*29
$YXXDR,A,6.0,D,PTCH,A,7.8,D,ROLL*54
$PTAK,FFD1,7.8*5A
$HCHDG,299.6,0.0,E,,*2D
$HCHDG,299.6,0.0,E,,*2D
$GPRMC,220039.4,A,4719.40733,N,12233.89275,W,001.48,271.1,030813,016.6,E,D*24
$PGRME,2.4,M,2.4,M,3.4,M*29
$HCHDG,299.9,0.0,E,,*22
$IIMWV,261,R,00.8,N,A*1E
$HCHDG,300.0,0.0,E,,*2A
$GPRMC,220039.6,A,4719.40730,N,12233.89289,W,001.51,267.6,030813,016.6,E,D*2E
$PGRME,2.4,M,2.4,M,3.4,M*29
$IIMWV,212,T,01.8,N,A*1D
$HCHDG,300.2,0.0,E,,*28
$IIRMB,A,0.00,L,,GH  ,,,,,000.3,313,,V,A*4A
$YXXDR,A,6.1,D,PTCH,A,8.4,D,ROLL*56
$GPRMC,220039.8,A,4719.40732,N,12233.89303,W,001.55,269.4,030813,016.6,E,D*29
$PGRME,2.4,M,2.4,M,3.4,M*29
$HCHDG,300.4,0.0,E,,*2E
$IIRMC,220000,A,4719.407,N,12233.891,W,01.3,272,030813,16,E,A*1C
$HCHDG,300.2,0.0,E,,*28
$IIVHW,,,,,01.5,N,,*1D
$IIVLW,02033,N,021.1,N*53
$HCHDG,300.5,0.0,E,,*2F
$GPRMC,220040.0,A,4719.40732,N,12233.89313,W,001.56,269.8,030813,016.6,E,D*21
$GPRMB,A,0.00,L,GH,GH,4719.6000,N,12234.2000,W,0.3,313,1.14,V*05
$PGRME,2.4,M,2.4,M,3.4,M*29
$IIVWR,099,L,00.8,N,,,,*77
$IIDPT,062.0,-1.0,*44
$HCHDG,300.6,0.0,E,,*2C
$HCHDG,300.8,0.0,E,,*22
$GPRMC,220040.2,A,4719.40728,N,12233.89304,W,001.58,274.5,030813,016.6,E,D*21
$PGRME,2.4,M,2.4,M,3.4,M*29
$YXXDR,A,6.1,D,PTCH,A,7.6,D,ROLL*5B
$PTAK,FFD1,7.6*54
$HCHDG,300.7,0.0,E,,*2D
$HCHDG,300.6,0.0,E,,*2C
$GPRMC,220040.4,A,4719.40728,N,12233.89309,W,001.57,275.9,030813,016.6,E,D*28
$PGRME,2.4,M,2.4,M,3.4,M*29
$HCHDG,300.7,0.0,E,,*2D
$HCHDG,300.7,0.0,E,,*2D
$GPRMC,220040.6,A,4719.40727,N,12233.89321,W,001.55,280.7,030813,016.6,E,D*29
$IIGLL,4719.407,N,12233.892,W,220000,A,A*48
$PGRME,2.4,M,2.4,M,3.4,M*29
$IIMTW,+13.5,C*3F
$HCHDG,300.7,0.0,E,,*2D
$IIMWV,262,R,00.9,N,A*1C
$IIMWV,204,T,01.7,N,A*15
$YXXDR,A,6.3,D,PTCH,A,7.2,D,ROLL*5D
$GPRMC,220040.8,A,4719.40733,N,12233.89331,W,001.55,277.2,030813,016.6,E,D*2E
$PGRME,2.4,M,2.4,M,3.4,M*29
$HCHDG,300.8,0.0,E,,*22
$IIRMB,A,0.00,L,,GH  ,,,,,000.3,313,,V,A*4A
$HCHDG,300.9,0.0,E,,*23
$IIRMC,220000,A,4719.407,N,12233.892,W,01.5,267,030813,16,E,A*1D
$HCHDG,300.7,0.0,E,,*2D
$GPRMC,220041.0,A,4719.40736,N,12233.89345,W,001.53,274.7,030813,016.6,E,D*21
$GPRMB,A,0.00,L,GH,GH,4719.6000,N,12234.2000,W,0.3,313,1.20,V*02
$PGRME,2.4,M,2.4,M,3.4,M*29
$IIVHW,,,,,01.5,N,,*1D
$IIVLW,02033,N,021.1,N*53
$HCHDG,300.6,0.0,E,,*2C
$HCHDG,300.6,0.0,E,,*2C
$GPRMC,220041.2,A,4719.40738,N,12233.89361,W,001.51,273.2,030813,016.6,E,D*2B
$PGRME,2.4,M,2.4,M,3.4,M*29
$YXXDR,A,6.0,D,PTCH,A,7.1,D,ROLL*5D
$PTAK,FFD1,7.1*53
$HCHDG,300.5,0.0,E,,*2F
$HCHDG,300.7,0.0,E,,*2D
$GPRMC,220041.4,A,4719.40745,N,12233.89376,W,001.48,275.3,030813,016.6,E,D*2E
$PGRME,2.4,M,2.4,M,3.4,M*29
$HCHDG,300.6,0.0,E,,*2C
$IIVWR,108,L,01.0,N,,,,*77
$HCHDG,300.6,0.0,E,,*2C
$GPRMC,220041.6,A,4719.40760,N,12233.89386,W,001.47,276.8,030813,016.6,E,D*23
$PGRME,2.4,M,2.4,M,3.4,M*29
$IIDPT,061.9,-1.0,*4E
$HCHDG,300.5,0.0,E,,*2F
$IIGLL,4719.407,N,12233.893,W,220000,A,A*49
$IIMTW,+13.5,C*3F
$YXXDR,A,6.0,D,PTCH,A,8.0,D,ROLL*53
$GPRMC,220041.8,A,4719.40769,N,12233.89389,W,001.48,274.2,030813,016.6,E,D*2C
$IIMWV,252,R,01.0,N,A*17
$PTAK,FFP1,HEEL,@*07
$PGRME,2.4,M,2.4,M,3.4,M*29
$HCHDG,300.5,0.0,E,,*2F
$IIMWV,207,T,01.7,N,A*16
$HCHDG,300.6,0.0,E,,*2C
$IIRMB,A,0.00,L,,GH  ,,,,,000.3,313,,V,A*4A
$HCHDG,300.7,0.0,E,,*2D
$GPRMC,220042.0,A,4719.40771,N,12233.89404,W,001.47,275.2,030813,016.6,E,D*22
$PGRME,2.4,M,2.4,M,3.4,M*29
$IIRMC,220000,A,4719.407,N,12233.893,W,01.5,280,030813,16,E,A*15
$HCHDG,300.8,0.0,E,,*22
$HCHDG,301.0,0.0,E,,*2B
$GPRMC,220042.2,A,4719.40774,N,12233.89404,W,001.50,277.1,030813,016.6,E,D*22
$GPRMB,A,0.00,L,GH,GH,4719.6000,N,12234.2000,W,0.3,313,1.22,V*00
$PGRME,2.4,M,2.4,M,3.4,M*29
$YXXDR,A,5.9,D,PTCH,A,7.9,D,ROLL*5F
$PTAK,FFD1,7.9*5B
$HCHDG,300.8,0.0,E,,*22
$HCHDG,300.8,0.0,E,,*22
$GPRMC,220042.4,A,4719.40776,N,12233.89402,W,001.52,280.9,030813,016.6,E,D*22
$PGRME,2.4,M,2.4,M,3.4,M*29
$HCHDG,301.0,0.0,E,,*2B
$IIVHW,,,,,01.5,N,,*1D
$HCHDG,300.9,0.0,E,,*23
$GPRMC,220042.6,A,4719.40779,N,12233.89404,W,001.52,277.0,030813,016.6,E,D*28
$PGRME,2.4,M,2.4,M,3.4,M*29
$IIVLW,02033,N,021.1,N*53
$IIVWR,116,L,00.8,N,,,,*71
$HCHDG,300.9,0.0,E,,*23
$IIDPT,061.9,-1.0,*4E
$YXXDR,A,6.2,D,PTCH,A,7.5,D,ROLL*5B
$GPRMC,220042.8,A,4719.40778,N,12233.89402,W,001.52,278.8,030813,016.6,E,D*26
$PGRME,2.4,M,2.4,M,3.4,M*29
$IIGLL,4719.407,N,12233.893,W,220000,A,A*49
$HCHDG,301.1,0.0,E,,*2A
$IIMTW,+13.5,C*3F
$HCHDG,301.1,0.0,E,,*2A
$IIMWV,244,R,00.8,N,A*19
$IIMWV,207,T,02.0,N,A*12
$HCHDG,301.1,0.0,E,,*2A
$GPRMC,220043.0,A,4719.40781,N,12233.89419,W,001.52,276.9,030813,016.6,E,D*2C
$PGRME,2.4,M,2.4,M,3.4,M*29
$IIRMB,A,0.00,L,,GH  ,,,,,000.3,313,,V,A*4A
$HCHDG,301.0,0.0,E,,*2B
$HCHDG,300.9,0.0,E,,*23
$GPRMC,220043.2,A,4719.40799,N,12233.89443,W,001.49,275.9,030813,016.6,E,D*21
$GPRMB,A,0.00,L,GH,GH,4719.6000,N,12234.2000,W,0.3,313,1.19,V*08
$PGRME,2.4,M,2.4,M,3.4,M*29
$YXXDR,A,5.9,D,PTCH,A,7.5,D,ROLL*53
$HCHDG,300.9,0.0,E,,*23
$HCHDG,300.9,0.0,E,,*23
$GPRMC,220043.4,A,4719.40811,N,12233.89453,W,001.46,274.6,030813,016.6,E,D*28
$PGRME,2.4,M,2.4,M,3.4,M*29
$HCHDG,300.9,0.0,E,,*23
$HCHDG,301.0,0.0,E,,*2B
$GPRMC,220043.6,A,4719.40818,N,12233.89462,W,001.44,278.9,030813,016.6,E,D*20
$PGRME,2.4,M,2.4,M,3.4,M*29
$IIRMC,220000,A,4719.407,N,12233.894,W,01.5,277,030813,16,E,A*1A
$HCHDG,301.0,0.0,E,,*2B
$IIVHW,,,,,01.5,N,,*1D
$IIVLW,02033,N,021.1,N*53
$YXXDR,A,6.1,D,PTCH,A,7.5,D,ROLL*58
$PTAK,FFD1,7.5*57
$GPRMC,220043.8,A,4719.40823,N,12233.89468,W,001.42,278.2,030813,016.6,E,D*21
$PGRME,2.4,M,2.4,M,3.4,M*29
$IIVWR,115,L,00.8,N,,,,*72
$HCHDG,301.1,0.0,E,,*2A
$IIDPT,061.9,-1.0,*4E
$HCHDG,301.2,0.0,E,,*29
$IIGLL,4719.407,N,12233.894,W,220000,A,A*4E
$HCHDG,301.3,0.0,E,,*28
$IIMTW,+13.5,C*3F
$GPRMC,220044.0,A,4719.40824,N,12233.89476,W,001.59,278.4,030813,016.6,E,D*2A
$PGRME,2.4,M,2.4,M,3.4,M*29
$PGRMT,GPS 18x-5Hz software ver. 3.20,,,,,,,,*30
$IIMWV,245,R,00.8,N,A*18
$HCHDG,301.3,0.0,E,,*28
$IIMWV,200,T,02.0,N,A*15
$HCHDG,301.4,0.0,E,,*2F
$GPRMC,220044.2,A,4719.40827,N,12233.89472,W,001.55,277.1,030813,016.6,E,D*29
$GPRMB,A,0.00,L,GH,GH,4719.6000,N,12234.2000,W,0.3,313,1.26,V*04
$PGRME,2.4,M,2.4,M,3.4,M*29
$YXXDR,A,5.9,D,PTCH,A,7.6,D,ROLL*50
$HCHDG,301.4,0.0,E,,*2F
$HCHDG,301.5,0.0,E,,*2E
$GPRMC,220044.4,A,4719.40825,N,12233.89482,W,001.51,279.0,030813,016.6,E,D*29
$PGRME,2.4,M,2.4,M,3.4,M*29
$HCHDG,301.5,0.0,E,,*2E
$HCHDG,301.5,0.0,E,,*2E
$GPRMC,220044.6,A,4719.40821,N,12233.89493,W,001.54,279.4,030813,016.6,E,D*2E
$IIRMB,A,0.00,L,,GH  ,,,,,000.3,313,,V,A*4A
$PGRME,2.4,M,2.4,M,3.4,M*29
$HCHDG,301.6,0.0,E,,*2D
$IIRMC,220000,A,4719.408,N,12233.894,W,01.4,278,030813,16,E,A*1B
$YXXDR,A,6.0,D,PTCH,A,7.4,D,ROLL*58
$IIVHW,,,,,01.5,N,,*1D
$GPRMC,220044.8,A,4719.40819,N,12233.89516,W,001.52,277.4,030813,016.6,E,D*2F
$PGRME,2.4,M,2.4,M,3.4,M*29
$HCHDG,301.6,0.0,E,,*2D
$IIVLW,02033,N,021.1,N*53
$HCHDG,301.5,0.0,E,,*2E
$IIVWR,105,L,00.9,N,,,,*72
$IIDPT,061.9,-1.0,*4E
$HCHDG,301.7,0.0,E,,*2C
$GPRMC,220045.0,A,4719.40815,N,12233.89533,W,001.49,274.7,030813,016.6,E,D*27
$PGRME,2.4,M,2.4,M,3.4,M*29
$IIGLL,4719.408,N,12233.894,W,220000,A,A*41
$IIMTW,+13.5,C*3F
$HCHDG,301.6,0.0,E,,*2D
$HCHDG,301.6,0.0,E,,*2D
$GPRMC,220045.2,A,4719.40814,N,12233.89550,W,001.66,275.1,030813,016.6,E,D*2B
$PGRME,2.4,M,2.4,M,3.4,M*29
$YXXDR,A,6.0,D,PTCH,A,7.6,D,ROLL*5A
$PTAK,FFD1,7.6*54
$HCHDG,301.7,0.0,E,,*2C
$HCHDG,301.7,0.0,E,,*2C
$GPRMC,220045.4,A,4719.40813,N,12233.89563,W,001.64,277.2,030813,016.6,E,D*29
$GPRMB,A,0.00,L,GH,GH,4719.6000,N,12234.2000,W,0.3,313,1.33,V*00
$PGRME,2.4,M,2.4,M,3.4,M*29
$HCHDG,301.9,0.0,E,,*22
$IIMWV,267,R,00.7,N,A*17
$HCHDG,301.9,0.0,E,,*22
$GPRMC,220045.6,A,4719.40832,N,12233.89576,W,001.48,282.5,030813,016.6,E,D*2F
$PGRME,2.4,M,2.4,M,3.4,M*29
$IIMWV,204,T,01.9,N,A*1B
$HCHDG,301.9,0.0,E,,*22
$IIRMB,A,0.00,L,,GH  ,,,,,000.3,313,,V,A*4A
$YXXDR,A,6.1,D,PTCH,A,7.5,D,ROLL*58
$GPRMC,220045.8,A,4719.40853,N,12233.89607,W,001.44,283.0,030813,016.6,E,D*2B
$PGRME,2.4,M,2.4,M,3.4,M*29
$HCHDG,301.9,0.0,E,,*22
$PTAK,FFP1,HEEL,@*07
$IIRMC,220000,A,4719.408,N,12233.894,W,01.5,279,030813,16,E,A*1B
$HCHDG,302.0,0.0,E,,*28
$IIVHW,,,,,01.5,N,,*1D
$IIVLW,02033,N,021.1,N*53
$HCHDG,301.9,0.0,E,,*22
$GPRMC,220046.0,A,4719.40869,N,12233.89627,W,001.41,287.1,030813,016.6,E,D*2B
$PGRME,2.4,M,2.4,M,3.4,M*29
$IIVWR,093,L,00.7,N,,,,*72
$IIDPT,061.9,-1.0,*4E
$HCHDG,301.6,0.0,E,,*2D
$HCHDG,301.7,0.0,E,,*2C
$GPRMC,220046.2,A,4719.40883,N,12233.89634,W,001.47,287.6,030813,016.6,E,D*2E
$PGRME,2.4,M,2.4,M,3.4,M*29
$YXXDR,A,6.1,D,PTCH,A,7.0,D,ROLL*5D
$HCHDG,301.4,0.0,E,,*2F
$HCHDG,301.4,0.0,E,,*2F
$GPRMC,220046.4,A,4719.40886,N,12233.89647,W,001.49,286.6,030813,016.6,E,D*26
$GPRMB,A,0.00,L,GH,GH,4719.6000,N,12234.2000,W,0.3,313,1.34,V*07
$PGRME,2.4,M,2.4,M,3.4,M*29
$HCHDG,301.2,0.0,E,,*29
$HCHDG,301.3,0.0,E,,*28
$GPRMC,220046.6,A,4719.40890,N,12233.89654,W,001.46,280.7,030813,016.6,E,D*29
$IIGLL,4719.408,N,12233.895,W,220000,A,A*40
$PGRME,2.4,M,2.4,M,3.4,M*29
$IIMTW,+13.5,C*3F
$HCHDG,301.3,0.0,E,,*28
$IIMWV,277,R,00.6,N,A*17
$IIMWV,204,T,01.7,N,A*15
$YXXDR,A,6.0,D,PTCH,A,7.6,D,ROLL*5A
$PTAK,FFD1,7.6*54
$GPRMC,220046.8,A,4719.40885,N,12233.89661,W,001.44,274.1,030813,016.6,E,D*2A
$PGRME,2.4,M,2.4,M,3.4,M*29
$HCHDG,301.3,0.0,E,,*28
$IIRMB,A,0.00,L,,GH  ,,,,,000.3,313,,V,A*4A
$HCHDG,301.3,0.0,E,,*28
$IIRMC,220000,A,4719.408,N,12233.895,W,01.4,282,030813,16,E,A*1F
$HCHDG,301.3,0.0,E,,*28
$GPRMC,220047.0,A,4719.40876,N,12233.89679,W,001.45,274.7,030813,016.6,E,D*21
$PGRME,2.4,M,2.4,M,3.4,M*29
$IIVHW,,,,,01.6,N,,*1E
$IIVLW,02033,N,021.1,N*53
$HCHDG,301.2,0.0,E,,*29
$HCHDG,301.1,0.0,E,,*2A
$GPRMC,220047.2,A,4719.40879,N,12233.89686,W,001.45,277.6,030813,016.6,E,D*2E
$PGRME,2.4,M,2.4,M,3.4,M*29
$YXXDR,A,6.0,D,PTCH,A,7.8,D,ROLL*54
$HCHDG,301.2,0.0,E,,*29
$HCHDG,301.4,0.0,E,,*2F
$GPRMC,220047.4,A,4719.40883,N,12233.89695,W,001.44,278.7,030813,016.6,E,D*20
$PGRME,2.4,M,2.4,M,3.4,M*29
$HCHDG,301.4,0.0,E,,*2F
$IIVWR,078,L,00.4,N,,,,*74
$HCHDG,301.3,0.0,E,,*28
$GPRMC,220047.6,A,4719.40886,N,12233.89700,W,001.45,279.7,030813,016.6,E,D*2A
$GPRMB,A,0.00,L,GH,GH,4719.6000,N,12234.2000,W,0.3,313,1.21,V*03
$PGRME,2.4,M,2.4,M,3.4,M*29
$IIDPT,061.9,-1.0,*4E
$HCHDG,301.4,0.0,E,,*2F
$IIGLL,4719.408,N,12233.896,W,220000,A,A*43
$IIMTW,+13.5,C*3F
$YXXDR,A,5.8,D,PTCH,A,7.3,D,ROLL*54
$PTAK,FFD1,7.3*51
$GPRMC,220047.8,A,4719.40890,N,12233.89705,W,001.46,284.5,030813,016.6,E,D*25
$IIMWV,282,R,00.4,N,A*1F
$PGRME,2.4,M,2.4,M,3.4,M*29
$HCHDG,301.5,0.0,E,,*2E
$IIMWV,197,T,01.6,N,A*1D
$HCHDG,301.4,0.0,E,,*2F
$IIRMB,A,0.00,L,,GH  ,,,,,000.3,313,,V,A*4A
$HCHDG,301.4,0.0,E,,*2F
$GPRMC,220048.0,A,4719.40904,N,12233.89698,W,001.46,286.0,030813,016.6,E,D*2C
$PGRME,2.4,M,2.4,M,3.4,M*29
$HCHDG,301.4,0.0,E,,*2F
$IIRMC,220000,A,4719.408,N,12233.896,W,01.4,280,030813,16,E,A*1E
$HCHDG,301.1,0.0,E,,*2A
$GPRMC,220048.2,A,4719.40914,N,12233.89702,W,001.48,283.0,030813,016.6,E,D*26
$PGRME,2.4,M,2.4,M,3.4,M*29
$YXXDR,A,6.1,D,PTCH,A,6.9,D,ROLL*55
$HCHDG,301.1,0.0,E,,*2A
$HCHDG,301.0,0.0,E,,*2B
$GPRMC,220048.4,A,4719.40928,N,12233.89715,W,001.49,282.0,030813,016.6,E,D*29
$PGRME,2.4,M,2.4,M,3.4,M*29
$HCHDG,301.2,0.0,E,,*29
$IIVHW,,,,,01.6,N,,*1E
$HCHDG,301.0,0.0,E,,*2B
$GPRMC,220048.6,A,4719.40940,N,12233.89727,W,001.50,282.5,030813,016.6,E,D*29
$PGRME,2.4,M,2.4,M,3.4,M*29
$IIVLW,02033,N,021.1,N*53
$IIVWR,077,L,00.3,N,,,,*7C
$HCHDG,300.8,0.0,E,,*22
$IIDPT,061.9,-1.0,*4E
$YXXDR,A,6.1,D,PTCH,A,7.5,D,ROLL*58
$GPRMC,220048.8,A,4719.40943,N,12233.89742,W,001.51,280.7,030813,016.6,E,D*26
$GPRMB,A,0.00,L,GH,GH,4719.6000,N,12234.2000,W,0.3,313,1.28,V*0A
$PGRME,2.4,M,2.4,M,3.4,M*29
$IIGLL,4719.408,N,12233.897,W,220000,A,A*42
$HCHDG,300.8,0.0,E,,*22
$IIMTW,+13.5,C*3F
$HCHDG,300.8,0.0,E,,*22
$IIMWV,283,R,00.3,N,A*19
$IIMWV,191,T,01.6,N,A*1B
$HCHDG,300.7,0.0,E,,*2D
$GPRMC,220049.0,A,4719.40944,N,12233.89747,W,001.50,282.5,030813,016.6,E,D*2C
$PGRME,2.4,M,2.4,M,3.4,M*29
$IIRMB,A,0.00,L,,GH  ,,,,,000.3,313,,V,A*4A
$HCHDG,300.7,0.0,E,,*2D
$HCHDG,300.6,0.0,E,,*2C
$GPRMC,220049.2,A,4719.40934,N,12233.89761,W,001.51,280.3,030813,016.6,E,D*28
$PGRME,2.4,M,2.4,M,3.4,M*29
$YXXDR,A,6.0,D,PTCH,A,7.8,D,ROLL*54
$PTAK,FFD1,7.8*5A
$HCHDG,300.5,0.0,E,,*2F
$HCHDG,300.7,0.0,E,,*2D
