$PGRME,2.4,M,2.4,M,3.4,M*29
$IIMWV,001,R,07.4,N,A*11
$IIMWV,000,T,07.6,N,A*14
$HCHDG,318.4,0.0,E,,*27
$IIRMB,A,,,,Shil,,,,,025.6,002,,V,A*28
$HCHDG,318.4,0.0,E,,*27
$GPRMC,000000.6,A,4715.49386,N,12226.19772,W,000.01,354.8,110813,016.5,E,D*2F
$GPRMB,A,-1.10,L,,Shil,4741.0830,N,12224.5670,W,25.6,2,0.01,V*25
$PGRME,2.4,M,2.4,M,3.4,M*29
$YXXDR,A,6.1,D,PTCH,A,6.6,D,ROLL*5A
$IIRMC,235900,A,4715.493,N,12226.197,W,00.0,354,100813,16,E,A*1E
$HCHDG,318.4,0.0,E,,*27
$IIVHW,,,,,00.0,N,,*19
$HCHDG,318.5,0.0,E,,*26
$IIVLW,02080,N,019.4,N*55
$GPRMC,000000.8,A,4715.49386,N,12226.19772,W,000.01,354.8,110813,016.5,E,D*21
$PGRME,2.4,M,2.4,M,3.4,M*29
$HCHDG,318.5,0.0,E,,*26
$HCHDG,318.5,0.0,E,,*26
$GPRMC,000001.0,A,4715.49386,N,12226.19772,W,000.00,354.8,110813,016.5,E,D*29
$PGRME,2.4,M,2.4,M,3.4,M*29
$HCHDG,318.4,0.0,E,,*27
$YXXDR,A,6.0,D,PTCH,A,6.2,D,ROLL*5F
$PTAK,FFD1,6.2*51
$GPRMC,000001.2,A,4715.49386,N,12226.19772,W,000.01,354.8,110813,016.5,E,D*2A
$PGRME,2.4,M,2.4,M,3.4,M*29
$HCHDG,318.2,0.0,E,,*21
$HCHDG,318.2,0.0,E,,*21
$IIVWR,000,R,07.5,N,,,,*63
$IIDPT,011.7,-1.0,*47
$HCHDG,318.3,0.0,E,,*20
$GPRMC,000001.4,A,4715.49387,N,12226.19772,W,000.01,354.8,110813,016.5,E,D*2D
$PGRME,2.4,M,2.4,M,3.4,M*29
$IIGLL,4715.493,N,12226.197,W,000000,A,A*41
$IIMTW,+17.5,C*3B
$HCHDG,318.4,0.0,E,,*27
$IIMWV,000,R,07.5,N,A*11
$IIMWV,001,T,07.4,N,A*17
$HCHDG,318.4,0.0,E,,*27
$GPRMC,000001.6,A,4715.49387,N,12226.19772,W,000.01,354.8,110813,016.5,E,D*2F
$GPRMB,A,-1.10,L,,Shil,4741.0830,N,12224.5670,W,25.6,2,0.01,V*25
$PGRME,2.4,M,2.4,M,3.4,M*29
$IIRMB,A,,,,Shil,,,,,025.6,002,,V,A*28
$YXXDR,A,6.1,D,PTCH,A,5.9,D,ROLL*56
$HCHDG,318.4,0.0,E,,*27
$HCHDG,318.4,0.0,E,,*27
$IIRMC,000000,A,4715.493,N,12226.197,W,00.0,354,100813,16,E,A*13
$GPRMC,000001.8,A,4715.49387,N,12226.19772,W,000.00,354.8,110813,016.5,E,D*20
$PGRME,2.4,M,2.4,M,3.4,M*29
$HCHDG,318.5,0.0,E,,*26
$HCHDG,318.5,0.0,E,,*26
$GPRMC,000002.0,A,4715.49387,N,12226.19772,W,000.01,354.8,110813,016.5,E,D*2A
$PGRME,2.4,M,2.4,M,3.4,M*29
$HCHDG,318.2,0.0,E,,*21
$PTAK,FFP1,HEEL,@*07
$YXXDR,A,6.2,D,PTCH,A,6.0,D,ROLL*5F
$PTAK,FFD1,6.0*53
$GPRMC,000002.2,A,4715.49387,N,12226.19772,W,000.01,354.8,110813,016.5,E,D*28
$PGRME,2.4,M,2.4,M,3.4,M*29
$HCHDG,318.3,0.0,E,,*20
$IIVHW,,,,,00.0,N,,*19
$HCHDG,318.3,0.0,E,,*20
$IIVLW,02080,N,019.4,N*55
$HCHDG,318.3,0.0,E,,*20
$IIVWR,001,R,07.4,N,,,,*63
$GPRMC,000002.4,A,4715.49387,N,12226.19772,W,000.01,354.8,110813,016.5,E,D*2E
$PGRME,2.4,M,2.4,M,3.4,M*29
$IIDPT,011.7,-1.0,*47
$HCHDG,318.3,0.0,E,,*20
$IIGLL,4715.493,N,12226.197,W,000000,A,A*41
$IIMTW,+17.5,C*3B
$HCHDG,318.3,0.0,E,,*20
$GPRMC,000002.6,A,4715.49387,N,12226.19772,W,000.01,354.8,110813,016.5,E,D*2C
$PGRME,2.4,M,2.4,M,3.4,M*29
$IIMWV,001,R,07.4,N,A*11
$YXXDR,A,6.1,D,PTCH,A,5.8,D,ROLL*57
$IIMWV,000,T,07.5,N,A*17
$HCHDG,318.1,0.0,E,,*22
$IIRMB,A,,,,Shil,,,,,025.6,002,,V,A*28
$HCHDG,318.3,0.0,E,,*20
$GPRMC,000002.8,A,4715.49388,N,12226.19773,W,000.01,354.8,110813,016.5,E,D*2C
$GPRMB,A,-1.10,L,,Shil,4741.0830,N,12224.5670,W,25.6,2,0.01,V*25
$PGRME,2.4,M,2.4,M,3.4,M*29
$HCHDG,318.3,0.0,E,,*20
$HCHDG,318.3,0.0,E,,*20
$GPRMC,000003.0,A,4715.49388,N,12226.19773,W,000.02,354.8,110813,016.5,E,D*26
$PGRME,2.4,M,2.4,M,3.4,M*29
$HCHDG,318.3,0.0,E,,*20
$YXXDR,A,6.2,D,PTCH,A,6.0,D,ROLL*5F
$GPRMC,000003.2,A,4715.49388,N,12226.19773,W,000.00,354.8,110813,016.5,E,D*26
$PGRME,2.4,M,2.4,M,3.4,M*29
$HCHDG,318.3,0.0,E,,*20
$HCHDG,318.2,0.0,E,,*21
$IIRMC,000000,A,4715.493,N,12226.197,W,00.0,354,100813,16,E,A*13
$HCHDG,318.2,0.0,E,,*21
$GPRMC,000003.4,A,4715.49388,N,12226.19773,W,000.00,354.8,110813,016.5,E,D*20
$PGRME,2.4,M,2.4,M,3.4,M*29
$IIVHW,,,,,00.0,N,,*19
$IIVLW,02080,N,019.4,N*55
$HCHDG,318.2,0.0,E,,*21
$IIVWR,001,R,07.4,N,,,,*63
$IIDPT,011.7,-1.0,*47
$HCHDG,318.4,0.0,E,,*27
$GPRMC,000003.6,A,4715.49388,N,12226.19773,W,000.00,354.8,110813,016.5,E,D*22
$PGRME,2.4,M,2.4,M,3.4,M*29
$YXXDR,A,6.2,D,PTCH,A,6.0,D,ROLL*5F
$PTAK,FFD1,6.0*53
$IIGLL,4715.493,N,12226.197,W,000000,A,A*41
$IIMTW,+17.5,C*3B
$HCHDG,318.3,0.0,E,,*20
$IIMWV,001,R,07.4,N,A*11
$HCHDG,318.3,0.0,E,,*20
$GPRMC,000003.8,A,4715.49388,N,12226.19773,W,000.01,354.8,110813,016.5,E,D*2D
$GPRMB,A,-1.10,L,,Shil,4741.0830,N,12224.5670,W,25.6,2,0.01,V*25
$PGRME,2.4,M,2.4,M,3.4,M*29
$IIMWV,001,T,07.4,N,A*17
$HCHDG,318.3,0.0,E,,*20
$HCHDG,318.3,0.0,E,,*20
$GPRMC,000004.0,A,4715.49388,N,12226.19773,W,000.01,354.8,110813,016.5,E,D*22
$PGRME,2.4,M,2.4,M,3.4,M*29
$HCHDG,318.3,0.0,E,,*20
$YXXDR,A,6.2,D,PTCH,A,6.2,D,ROLL*5D
$GPRMC,000004.2,A,4715.49388,N,12226.19773,W,000.01,354.8,110813,016.5,E,D*20
$PGRME,2.4,M,2.4,M,3.4,M*29
$HCHDG,318.4,0.0,E,,*27
$HCHDG,318.4,0.0,E,,*27
$IIRMB,A,,,,Shil,,,,,025.6,002,,V,A*28
$HCHDG,318.4,0.0,E,,*27
$GPRMC,000004.4,A,4715.49388,N,12226.19773,W,000.01,354.8,110813,016.5,E,D*26
$PGRME,2.4,M,2.4,M,3.4,M*29
$IIRMC,000000,A,4715.493,N,12226.197,W,00.0,354,100813,16,E,A*13
$HCHDG,318.4,0.0,E,,*27
$IIVHW,,,,,00.0,N,,*19
$IIVLW,02080,N,019.4,N*55
$HCHDG,318.3,0.0,E,,*20
$GPRMC,000004.6,A,4715.49388,N,12226.19773,W,000.00,354.8,110813,016.5,E,D*25
$PGRME,2.4,M,2.4,M,3.4,M*29
$IIVWR,002,R,07.5,N,,,,*61
$IIDPT,011.7,-1.0,*47
$YXXDR,A,6.2,D,PTCH,A,6.2,D,ROLL*5D
$PTAK,FFD1,6.2*51
$HCHDG,318.3,0.0,E,,*20
$IIGLL,4715.493,N,12226.197,W,000000,A,A*41
$HCHDG,318.2,0.0,E,,*21
$IIMTW,+17.5,C*3B
$GPRMC,000004.8,A,4715.49388,N,12226.19773,W,000.01,354.8,110813,016.5,E,D*2A
$PGRME,2.4,M,2.4,M,3.4,M*29
$IIMWV,002,R,07.5,N,A*13
$HCHDG,318.4,0.0,E,,*27
$HCHDG,318.4,0.0,E,,*27
$GPRMC,000005.0,A,4715.49388,N,12226.19773,W,000.01,354.8,110813,016.5,E,D*23
$GPRMB,A,-1.10,L,,Shil,4741.0830,N,12224.5670,W,25.6,2,0.01,V*25
$PGRME,2.4,M,2.4,M,3.4,M*29
$HCHDG,318.3,0.0,E,,*20
$YXXDR,A,6.2,D,PTCH,A,6.6,D,ROLL*59
$GPRMC,000005.2,A,4715.49388,N,12226.19773,W,000.01,354.8,110813,016.5,E,D*21
$PGRME,2.4,M,2.4,M,3.4,M*29
$HCHDG,318.3,0.0,E,,*20
$HCHDG,318.5,0.0,E,,*26
$IIMWV,002,T,07.5,N,A*15
$IIRMB,A,,,,Shil,,,,,025.6,002,,V,A*28
$HCHDG,318.5,0.0,E,,*26
$GPRMC,000005.4,A,4715.49388,N,12226.19773,W,000.01,354.8,110813,016.5,E,D*27
$PGRME,2.4,M,2.4,M,3.4,M*29
$HCHDG,318.4,0.0,E,,*27
$IIRMC,000000,A,4715.493,N,12226.197,W,00.0,354,100813,16,E,A*13
$IIVHW,,,,,00.0,N,,*19
$HCHDG,318.4,0.0,E,,*27
$GPRMC,000005.6,A,4715.49389,N,12226.19773,W,000.01,354.8,110813,016.5,E,D*24
$PGRME,2.4,M,2.4,M,3.4,M*29
$IIVLW,02080,N,019.4,N*55
$YXXDR,A,6.2,D,PTCH,A,6.2,D,ROLL*5D
$IIVWR,001,R,07.3,N,,,,*64
$HCHDG,318.4,0.0,E,,*27
$IIDPT,011.7,-1.0,*47
$HCHDG,318.2,0.0,E,,*21
$GPRMC,000005.8,A,4715.49389,N,12226.19773,W,000.00,354.8,110813,016.5,E,D*2B
$PGRME,2.4,M,2.4,M,3.4,M*29
$IIGLL,4715.493,N,12226.197,W,000000,A,A*41
$IIMTW,+17.5,C*3B
$HCHDG,318.3,0.0,E,,*20
$HCHDG,318.2,0.0,E,,*21
$GPRMC,000006.0,A,4715.49389,N,12226.19774,W,000.01,354.8,110813,016.5,E,D*26
$PGRME,2.4,M,2.4,M,3.4,M*29
$HCHDG,318.2,0.0,E,,*21
$PTAK,FFP1,HEEL,@*07
$YXXDR,A,6.0,D,PTCH,A,5.8,D,ROLL*56
$PTAK,FFD1,5.8*58
$GPRMC,000006.2,A,4715.49389,N,12226.19774,W,000.00,354.8,110813,016.5,E,D*25
$GPRMB,A,-1.10,L,,Shil,4741.0830,N,12224.5670,W,25.6,2,0.00,V*24
$PGRME,2.4,M,2.4,M,3.4,M*29
$HCHDG,318.0,0.0,E,,*23
$IIMWV,001,R,07.3,N,A*16
$HCHDG,318.1,0.0,E,,*22
$IIMWV,001,T,07.3,N,A*10
$HCHDG,318.1,0.0,E,,*22
$GPRMC,000006.4,A,4715.49389,N,12226.19774,W,000.00,354.8,110813,016.5,E,D*23
$PGRME,2.4,M,2.4,M,3.4,M*29
$IIRMB,A,,,,Shil,,,,,025.6,002,,V,A*28
$HCHDG,318.1,0.0,E,,*22
$IIRMC,000000,A,4715.493,N,12226.197,W,00.0,354,100813,16,E,A*13
$HCHDG,318.0,0.0,E,,*23
$GPRMC,000006.6,A,4715.49389,N,12226.19774,W,000.01,354.8,110813,016.5,E,D*20
$IIVHW,,,,,00.0,N,,*19
$PGRME,2.4,M,2.4,M,3.4,M*29
$YXXDR,A,6.1,D,PTCH,A,5.8,D,ROLL*57
$IIVLW,02080,N,019.4,N*55
$HCHDG,318.0,0.0,E,,*23
$IIVWR,001,R,07.3,N,,,,*64
$IIDPT,011.7,-1.0,*47
$HCHDG,318.0,0.0,E,,*23
$GPRMC,000006.8,A,4715.49389,N,12226.19774,W,000.01,354.8,110813,016.5,E,D*2E
$PGRME,2.4,M,2.4,M,3.4,M*29
$HCHDG,318.0,0.0,E,,*23
$HCHDG,318.0,0.0,E,,*23
$GPRMC,000007.0,A,4715.49389,N,12226.19774,W,000.00,354.8,110813,016.5,E,D*26
$PGRME,2.4,M,2.4,M,3.4,M*29
$HCHDG,318.1,0.0,E,,*22
$YXXDR,A,6.1,D,PTCH,A,6.1,D,ROLL*5D
$GPRMC,000007.2,A,4715.49389,N,12226.19774,W,000.01,354.8,110813,016.5,E,D*25
$PGRME,2.4,M,2.4,M,3.4,M*29
$HCHDG,318.0,0.0,E,,*23
$HCHDG,318.0,0.0,E,,*23
$IIGLL,4715.493,N,12226.197,W,000000,A,A*41
$IIMTW,+17.5,C*3B
$HCHDG,318.0,0.0,E,,*23
$GPRMC,000007.4,A,4715.49389,N,12226.19775,W,000.00,354.8,110813,016.5,E,D*23
$GPRMB,A,-1.10,L,,Shil,4741.0830,N,12224.5670,W,25.6,2,0.00,V*24
$PGRME,2.4,M,2.4,M,3.4,M*29
$IIMWV,000,R,07.2,N,A*16
$IIMWV,001,T,07.3,N,A*10
$HCHDG,318.0,0.0,E,,*23
$IIRMB,A,,,,Shil,,,,,025.6,002,,V,A*28
$HCHDG,317.9,0.0,E,,*25
$GPRMC,000007.6,A,4715.49389,N,12226.19775,W,000.01,354.8,110813,016.5,E,D*20
$PGRME,2.4,M,2.4,M,3.4,M*29
$YXXDR,A,6.2,D,PTCH,A,6.2,D,ROLL*5D
$PTAK,FFD1,6.2*51
$IIRMC,000000,A,4715.493,N,12226.197,W,00.0,354,100813,16,E,A*13
$HCHDG,318.3,0.0,E,,*20
$IIVHW,,,,,00.0,N,,*19
$HCHDG,318.3,0.0,E,,*20
$IIVLW,02080,N,019.4,N*55
$GPRMC,000007.8,A,4715.49389,N,12226.19775,W,000.01,354.8,110813,016.5,E,D*2E
$PGRME,2.4,M,2.4,M,3.4,M*29
$HCHDG,318.2,0.0,E,,*21
$HCHDG,318.1,0.0,E,,*22
$GPRMC,000008.0,A,4715.49389,N,12226.19775,W,000.00,354.8,110813,016.5,E,D*28
$PGRME,2.4,M,2.4,M,3.4,M*29
$HCHDG,318.3,0.0,E,,*20
$YXXDR,A,6.0,D,PTCH,A,6.3,D,ROLL*5E
$GPRMC,000008.2,A,4715.49389,N,12226.19775,W,000.00,354.8,110813,016.5,E,D*2A
$PGRME,2.4,M,2.4,M,3.4,M*29
$HCHDG,318.3,0.0,E,,*20
$IIVWR,001,L,07.2,N,,,,*7B
$HCHDG,318.2,0.0,E,,*21
$IIDPT,011.7,-1.0,*47
$HCHDG,318.3,0.0,E,,*20
$GPRMC,000008.4,A,4715.49389,N,12226.19775,W,000.01,354.8,110813,016.5,E,D*2D
$GPRMB,A,-1.10,L,,Shil,4741.0830,N,12224.5670,W,25.6,2,0.01,V*25
$PGRME,2.4,M,2.4,M,3.4,M*29
$IIGLL,4715.493,N,12226.197,W,000000,A,A*41
$IIMTW,+17.5,C*3B
$HCHDG,318.5,0.0,E,,*26
$IIMWV,359,R,07.2,N,A*19
$IIMWV,000,T,07.2,N,A*10
$HCHDG,318.5,0.0,E,,*26
$GPRMC,000008.6,A,4715.49389,N,12226.19775,W,000.00,354.8,110813,016.5,E,D*2E
$PGRME,2.4,M,2.4,M,3.4,M*29
$IIRMB,A,,,,Shil,,,,,025.6,002,,V,A*28
$YXXDR,A,6.2,D,PTCH,A,6.2,D,ROLL*5D
$PTAK,FFD1,6.2*51
$HCHDG,318.6,0.0,E,,*25
$HCHDG,318.4,0.0,E,,*27
$IIRMC,000000,A,4715.493,N,12226.197,W,00.0,354,100813,16,E,A*13
$GPRMC,000008.8,A,4715.49389,N,12226.19775,W,000.01,354.8,110813,016.5,E,D*21
$PGRME,2.4,M,2.4,M,3.4,M*29
$HCHDG,318.4,0.0,E,,*27
$HCHDG,318.4,0.0,E,,*27
$GPRMC,000009.0,A,4715.49389,N,12226.19775,W,000.00,354.8,110813,016.5,E,D*29
$PGRME,2.4,M,2.4,M,3.4,M*29
$HCHDG,318.4,0.0,E,,*27
$YXXDR,A,6.1,D,PTCH,A,5.8,D,ROLL*57
$GPRMC,000009.2,A,4715.49389,N,12226.19775,W,000.00,354.8,110813,016.5,E,D*2B
$PGRME,2.4,M,2.4,M,3.4,M*29
$HCHDG,318.4,0.0,E,,*27
$IIVHW,,,,,00.0,N,,*19
$HCHDG,318.4,0.0,E,,*27
$IIVLW,02080,N,019.4,N*55
$HCHDG,318.3,0.0,E,,*20
$IIVWR,002,L,07.3,N,,,,*79
$GPRMC,000009.4,A,4715.49389,N,12226.19775,W,000.01,354.8,110813,016.5,E,D*2C
$GPRMB,A,-1.10,L,,Shil,4741.0830,N,12224.5670,W,25.6,2,0.01,V*25
$PGRME,2.4,M,2.4,M,3.4,M*29
$IIDPT,011.7,-1.0,*47
$HCHDG,318.3,0.0,E,,*20
$IIGLL,4715.493,N,12226.197,W,000000,A,A*41
$IIMTW,+17.5,C*3B
$HCHDG,318.5,0.0,E,,*26
$GPRMC,000009.6,A,4715.49389,N,12226.19776,W,000.01,354.8,110813,016.5,E,D*2D
$PGRME,2.4,M,2.4,M,3.4,M*29
$IIMWV,358,R,07.3,N,A*19
$YXXDR,A,6.0,D,PTCH,A,6.2,D,ROLL*5F
$IIMWV,359,T,07.2,N,A*1F
$HCHDG,318.5,0.0,E,,*26
$IIRMB,A,,,,Shil,,,,,025.6,002,,V,A*28
$HCHDG,318.6,0.0,E,,*25
$GPRMC,000009.8,A,4715.49389,N,12226.19776,W,000.01,354.8,110813,016.5,E,D*23
$PGRME,2.4,M,2.4,M,3.4,M*29
$HCHDG,318.3,0.0,E,,*20
$HCHDG,318.5,0.0,E,,*26
$GPRMC,000010.0,A,4715.49390,N,12226.19776,W,000.01,354.8,110813,016.5,E,D*2B
$PGRME,2.4,M,2.4,M,3.4,M*29
$HCHDG,318.4,0.0,E,,*27
$YXXDR,A,6.1,D,PTCH,A,5.3,D,ROLL*5C
$PTAK,FFD1,5.3*53
$PTAK,FFP1,HEEL,@*07
$GPRMC,000010.2,A,4715.49390,N,12226.19776,W,000.00,354.8,110813,016.5,E,D*28
$PGRME,2.4,M,2.4,M,3.4,M*29
$HCHDG,318.4,0.0,E,,*27
$HCHDG,318.3,0.0,E,,*20
$IIRMC,000000,A,4715.493,N,12226.197,W,00.0,354,100813,16,E,A*13
$HCHDG,318.3,0.0,E,,*20
$GPRMC,000010.4,A,4715.49390,N,12226.19776,W,000.01,354.8,110813,016.5,E,D*2F
$PGRME,2.4,M,2.4,M,3.4,M*29
$IIVHW,,,,,00.0,N,,*19
$IIVLW,02080,N,019.4,N*55
$HCHDG,318.3,0.0,E,,*20
$IIVWR,002,L,07.4,N,,,,*7E
$IIDPT,011.7,-1.0,*47
$HCHDG,318.4,0.0,E,,*27
$GPRMC,000010.6,A,4715.49390,N,12226.19776,W,000.00,354.8,110813,016.5,E,D*2C
$GPRMB,A,-1.10,L,,Shil,4741.0830,N,12224.5670,W,25.6,2,0.00,V*24
$PGRME,2.4,M,2.4,M,3.4,M*29
$YXXDR,A,6.0,D,PTCH,A,5.4,D,ROLL*5A
$IIGLL,4715.493,N,12226.197,W,000000,A,A*41
$IIMTW,+17.5,C*3B
$HCHDG,318.2,0.0,E,,*21
$IIMWV,358,R,07.4,N,A*1E
$HCHDG,318.2,0.0,E,,*21
$GPRMC,000010.8,A,4715.49390,N,12226.19776,W,000.00,354.8,110813,016.5,E,D*22
$PGRME,2.4,M,2.4,M,3.4,M*29
$IIMWV,358,T,07.3,N,A*1F
$HCHDG,318.2,0.0,E,,*21
$HCHDG,318.2,0.0,E,,*21
$GPRMC,000011.0,A,4715.49390,N,12226.19776,W,000.01,354.8,110813,016.5,E,D*2A
$PGRME,2.4,M,2.4,M,3.4,M*29
$HCHDG,318.2,0.0,E,,*21
$YXXDR,A,6.0,D,PTCH,A,5.8,D,ROLL*56
$PTAK,FFD1,5.8*58
$GPRMC,000011.2,A,4715.49390,N,12226.19776,W,000.01,354.8,110813,016.5,E,D*28
$PGRME,2.4,M,2.4,M,3.4,M*29
$HCHDG,318.3,0.0,E,,*20
$HCHDG,318.3,0.0,E,,*20
$IIRMB,A,,,,Shil,,,,,025.6,002,,V,A*28
$HCHDG,318.4,0.0,E,,*27
$GPRMC,000011.4,A,4715.49390,N,12226.19776,W,000.01,354.8,110813,016.5,E,D*2E
$PGRME,2.4,M,2.4,M,3.4,M*29
$IIRMC,000000,A,4715.493,N,12226.197,W,00.0,354,100813,16,E,A*13
$HCHDG,318.5,0.0,E,,*26
$IIVHW,,,,,00.0,N,,*19
$IIVLW,02080,N,019.4,N*55
$HCHDG,318.5,0.0,E,,*26
$GPRMC,000011.6,A,4715.49390,N,12226.19776,W,000.00,354.8,110813,016.5,E,D*2D
$GPRMB,A,-1.10,L,,Shil,4741.0830,N,12224.5670,W,25.6,2,0.00,V*24
$PGRME,2.4,M,2.4,M,3.4,M*29
$IIVWR,000,R,07.3,N,,,,*65
$IIDPT,011.9,-1.0,*49
$YXXDR,A,6.2,D,PTCH,A,6.8,D,ROLL*57
$HCHDG,318.6,0.0,E,,*25
$IIGLL,4715.493,N,12226.197,W,000000,A,A*41
$HCHDG,318.5,0.0,E,,*26
$IIMTW,+17.5,C*3B
$GPRMC,000011.8,A,4715.49391,N,12226.19776,W,000.01,354.8,110813,016.5,E,D*23
$PGRME,2.4,M,2.4,M,3.4,M*29
$IIMWV,000,R,07.3,N,A*17
$HCHDG,318.5,0.0,E,,*26
$HCHDG,318.6,0.0,E,,*25
$GPRMC,000012.0,A,4715.49391,N,12226.19776,W,000.01,354.8,110813,016.5,E,D*28
$PGRME,2.4,M,2.4,M,3.4,M*29
$HCHDG,318.5,0.0,E,,*26
$YXXDR,A,6.2,D,PTCH,A,6.4,D,ROLL*5B
$GPRMC,000012.2,A,4715.49391,N,12226.19776,W,000.00,354.8,110813,016.5,E,D*2B
$PGRME,2.4,M,2.4,M,3.4,M*29
$HCHDG,318.5,0.0,E,,*26
$HCHDG,318.4,0.0,E,,*27
$IIMWV,000,T,07.3,N,A*11
$IIRMB,A,,,,Shil,,,,,025.6,002,,V,A*28
$HCHDG,318.4,0.0,E,,*27
$GPRMC,000012.4,A,4715.49391,N,12226.19776,W,000.01,354.8,110813,016.5,E,D*2C
$PGRME,2.4,M,2.4,M,3.4,M*29
$HCHDG,318.5,0.0,E,,*26
$IIRMC,000000,A,4715.493,N,12226.197,W,00.0,354,100813,16,E,A*13
$IIVHW,,,,,00.0,N,,*19
$HCHDG,318.5,0.0,E,,*26
$GPRMC,000012.6,A,4715.49391,N,12226.19777,W,000.00,354.8,110813,016.5,E,D*2E
$PGRME,2.4,M,2.4,M,3.4,M*29
$IIVLW,02080,N,019.4,N*55
$YXXDR,A,6.2,D,PTCH,A,6.0,D,ROLL*5F
$PTAK,FFD1,6.0*53
$IIVWR,000,R,07.3,N,,,,*65
$HCHDG,318.5,0.0,E,,*26
$IIDPT,011.9,-1.0,*49
$HCHDG,318.5,0.0,E,,*26
$GPRMC,000012.8,A,4715.49391,N,12226.19777,W,000.01,354.8,110813,016.5,E,D*21
$GPRMB,A,-1.10,L,,Shil,4741.0830,N,12224.5670,W,25.6,2,0.01,V*25
$PGRME,2.4,M,2.4,M,3.4,M*29
$IIGLL,4715.493,N,12226.197,W,000000,A,A*41
$IIMTW,+17.5,C*3B
$HCHDG,318.6,0.0,E,,*25
$HCHDG,318.4,0.0,E,,*27
$GPRMC,000013.0,A,4715.49391,N,12226.19777,W,000.01,354.8,110813,016.5,E,D*28
$PGRME,2.4,M,2.4,M,3.4,M*29
$HCHDG,318.4,0.0,E,,*27
$YXXDR,A,6.0,D,PTCH,A,5.8,D,ROLL*56
$GPRMC,000013.2,A,4715.49391,N,12226.19777,W,000.00,354.8,110813,016.5,E,D*2B
$PGRME,2.4,M,2.4,M,3.4,M*29
$HCHDG,318.5,0.0,E,,*26
$IIMWV,000,R,07.3,N,A*17
$HCHDG,318.4,0.0,E,,*27
$IIMWV,000,T,07.3,N,A*11
$HCHDG,318.4,0.0,E,,*27
$GPRMC,000013.4,A,4715.49391,N,12226.19777,W,000.01,354.8,110813,016.5,E,D*2C
$PGRME,2.4,M,2.4,M,3.4,M*29
$IIRMB,A,,,,Shil,,,,,025.6,002,,V,A*28
$HCHDG,318.2,0.0,E,,*21
$IIRMC,000000,A,4715.493,N,12226.197,W,00.0,354,100813,16,E,A*13
$HCHDG,318.2,0.0,E,,*21
$GPRMC,000013.6,A,4715.49391,N,12226.19777,W,000.00,354.8,110813,016.5,E,D*2F
$PGRME,2.4,M,2.4,M,3.4,M*29
$IIVHW,,,,,00.0,N,,*19
$YXXDR,A,6.1,D,PTCH,A,5.2,D,ROLL*5D
$IIVLW,02080,N,019.4,N*55
$HCHDG,318.2,0.0,E,,*21
$IIVWR,000,R,07.3,N,,,,*65
$IIDPT,011.9,-1.0,*49
$HCHDG,318.2,0.0,E,,*21
$GPRMC,000013.8,A,4715.49391,N,12226.19777,W,000.00,354.8,110813,016.5,E,D*21
$GPRMB,A,-1.10,L,,Shil,4741.0830,N,12224.5670,W,25.6,2,0.00,V*24
$PGRME,2.4,M,2.4,M,3.4,M*29
$HCHDG,318.2,0.0,E,,*21
$HCHDG,318.2,0.0,E,,*21
$GPRMC,000014.0,A,4715.49391,N,12226.19777,W,000.00,354.8,110813,016.5,E,D*2E
$PGRME,2.4,M,2.4,M,3.4,M*29
$HCHDG,318.1,0.0,E,,*22
$YXXDR,A,6.0,D,PTCH,A,5.9,D,ROLL*57
$PTAK,FFD1,5.9*59
$PTAK,FFP1,HEEL,@*07
$GPRMC,000014.2,A,4715.49391,N,12226.19777,W,000.00,354.8,110813,016.5,E,D*2C
$PGRME,2.4,M,2.4,M,3.4,M*29
$HCHDG,318.2,0.0,E,,*21
$HCHDG,318.2,0.0,E,,*21
$IIGLL,4715.493,N,12226.197,W,000000,A,A*41
$IIMTW,+17.5,C*3B
$HCHDG,318.3,0.0,E,,*20
$GPRMC,000014.4,A,4715.49391,N,12226.19777,W,000.00,354.8,110813,016.5,E,D*2A
$PGRME,2.4,M,2.4,M,3.4,M*29
$IIMWV,002,R,07.4,N,A*12
$IIMWV,000,T,07.3,N,A*11
$HCHDG,318.3,0.0,E,,*20
$IIRMB,A,,,,Shil,,,,,025.6,002,,V,A*28
$HCHDG,318.2,0.0,E,,*21
$GPRMC,000014.6,A,4715.49391,N,12226.19777,W,000.01,354.8,110813,016.5,E,D*29
$PGRME,2.4,M,2.4,M,3.4,M*29
$YXXDR,A,6.1,D,PTCH,A,6.1,D,ROLL*5D
$IIRMC,000000,A,4715.493,N,12226.197,W,00.0,354,100813,16,E,A*13
$HCHDG,318.2,0.0,E,,*21
$IIVHW,,,,,00.0,N,,*19
$HCHDG,318.2,0.0,E,,*21
$IIVLW,02080,N,019.4,N*55
$GPRMC,000014.8,A,4715.49391,N,12226.19777,W,000.01,354.8,110813,016.5,E,D*27
$GPRMB,A,-1.10,L,,Shil,4741.0830,N,12224.5670,W,25.6,2,0.01,V*25
$PGRME,2.4,M,2.4,M,3.4,M*29
$HCHDG,318.2,0.0,E,,*21
$HCHDG,318.2,0.0,E,,*21
$GPRMC,000015.0,A,4715.49392,N,12226.19777,W,000.00,354.8,110813,016.5,E,D*2C
$PGRME,2.4,M,2.4,M,3.4,M*29
$HCHDG,318.2,0.0,E,,*21
$YXXDR,A,6.1,D,PTCH,A,5.9,D,ROLL*56
$PTAK,FFD1,5.9*59
$GPRMC,000015.2,A,4715.49392,N,12226.19777,W,000.00,354.8,110813,016.5,E,D*2E
$PGRME,2.4,M,2.4,M,3.4,M*29
$HCHDG,318.3,0.0,E,,*20
$HCHDG,318.1,0.0,E,,*22
$IIVWR,002,R,07.3,N,,,,*67
$IIDPT,011.9,-1.0,*49
$HCHDG,318.1,0.0,E,,*22
$GPRMC,000015.4,A,4715.49392,N,12226.19777,W,000.00,354.8,110813,016.5,E,D*28
$PGRME,2.4,M,2.4,M,3.4,M*29
$IIGLL,4715.493,N,12226.197,W,000000,A,A*41
$IIMTW,+17.5,C*3B
$HCHDG,318.1,0.0,E,,*22
$IIMWV,002,R,07.3,N,A*15
$IIMWV,002,T,07.4,N,A*14
$HCHDG,318.1,0.0,E,,*22
$GPRMC,000015.6,A,4715.49392,N,12226.19777,W,000.00,354.8,110813,016.5,E,D*2A
$PGRME,2.4,M,2.4,M,3.4,M*29
$IIRMB,A,,,,Shil,,,,,025.6,002,,V,A*28
$YXXDR,A,5.9,D,PTCH,A,5.9,D,ROLL*5D
$HCHDG,318.1,0.0,E,,*22
$HCHDG,318.2,0.0,E,,*21
$IIRMC,000000,A,4715.493,N,12226.197,W,00.0,354,100813,16,E,A*13
$GPRMC,000015.8,A,4715.49392,N,12226.19777,W,000.00,354.8,110813,016.5,E,D*24
$GPRMB,A,-1.10,L,,Shil,4741.0830,N,12224.5670,W,25.6,2,0.00,V*24
$PGRME,2.4,M,2.4,M,3.4,M*29
$HCHDG,318.2,0.0,E,,*21
$HCHDG,318.2,0.0,E,,*21
$GPRMC,000016.0,A,4715.49392,N,12226.19777,W,000.01,354.8,110813,016.5,E,D*2E
$PGRME,2.4,M,2.4,M,3.4,M*29
$HCHDG,318.2,0.0,E,,*21
$YXXDR,A,6.2,D,PTCH,A,6.0,D,ROLL*5F
$GPRMC,000016.2,A,4715.49392,N,12226.19778,W,000.00,354.8,110813,016.5,E,D*22
$PGRME,2.4,M,2.4,M,3.4,M*29
$HCHDG,318.2,0.0,E,,*21
$IIVHW,,,,,00.0,N,,*19
$HCHDG,318.2,0.0,E,,*21
$IIVLW,02080,N,019.4,N*55
$HCHDG,318.2,0.0,E,,*21
$IIVWR,004,R,07.3,N,,,,*61
$GPRMC,000016.4,A,4715.49392,N,12226.19778,W,000.00,354.8,110813,016.5,E,D*24
$PGRME,2.4,M,2.4,M,3.4,M*29
$IIDPT,011.9,-1.0,*49
$HCHDG,318.1,0.0,E,,*22
$IIGLL,4715.493,N,12226.197,W,000000,A,A*41
$IIMTW,+17.5,C*3B
$HCHDG,318.0,0.0,E,,*23
$GPRMC,000016.6,A,4715.49392,N,12226.19778,W,000.00,354.8,110813,016.5,E,D*26
$PGRME,2.4,M,2.4,M,3.4,M*29
$IIMWV,004,R,07.3,N,A*13
$YXXDR,A,6.1,D,PTCH,A,5.8,D,ROLL*57
$PTAK,FFD1,5.8*58
$IIMWV,002,T,07.3,N,A*13
$HCHDG,318.1,0.0,E,,*22
$IIRMB,A,,,,Shil,,,,,025.6,002,,V,A*28
$HCHDG,318.1,0.0,E,,*22
$GPRMC,000016.8,A,4715.49392,N,12226.19778,W,000.01,354.8,110813,016.5,E,D*29
$PGRME,2.4,M,2.4,M,3.4,M*29
$HCHDG,317.9,0.0,E,,*25
$HCHDG,318.0,0.0,E,,*23
$GPRMC,000017.0,A,4715.49392,N,12226.19778,W,000.00,354.8,110813,016.5,E,D*21
$GPRMB,A,-1.10,L,,Shil,4741.0830,N,12224.5670,W,25.6,2,0.00,V*24
$PGRME,2.4,M,2.4,M,3.4,M*29
$HCHDG,318.0,0.0,E,,*23
$YXXDR,A,6.1,D,PTCH,A,5.8,D,ROLL*57
$GPRMC,000017.2,A,4715.49392,N,12226.19779,W,000.01,354.8,110813,016.5,E,D*23
$PGRME,2.4,M,2.4,M,3.4,M*29
$HCHDG,318.2,0.0,E,,*21
$HCHDG,318.3,0.0,E,,*20
$IIRMC,000000,A,4715.493,N,12226.197,W,00.0,354,100813,16,E,A*13
$HCHDG,318.2,0.0,E,,*21
$GPRMC,000017.4,A,4715.49392,N,12226.19779,W,000.00,354.8,110813,016.5,E,D*24
$PGRME,2.4,M,2.4,M,3.4,M*29
$IIVHW,,,,,00.0,N,,*19
$IIVLW,02080,N,019.4,N*55
$HCHDG,318.2,0.0,E,,*21
$IIVWR,005,R,07.2,N,,,,*61
$IIDPT,011.9,-1.0,*49
$HCHDG,318.3,0.0,E,,*20
$GPRMC,000017.6,A,4715.49392,N,12226.19779,W,000.01,354.8,110813,016.5,E,D*27
$PGRME,2.4,M,2.4,M,3.4,M*29
$YXXDR,A,6.0,D,PTCH,A,6.2,D,ROLL*5F
$IIGLL,4715.493,N,12226.197,W,000000,A,A*41
$IIMTW,+17.5,C*3B
$HCHDG,318.1,0.0,E,,*22
$IIMWV,005,R,07.2,N,A*13
$HCHDG,318.1,0.0,E,,*22
$GPRMC,000017.8,A,4715.49392,N,12226.19779,W,000.01,354.8,110813,016.5,E,D*29
$PGRME,2.4,M,2.4,M,3.4,M*29
$IIMWV,004,T,07.3,N,A*15
$HCHDG,318.1,0.0,E,,*22
$HCHDG,318.0,0.0,E,,*23
$GPRMC,000018.0,A,4715.49392,N,12226.19779,W,000.01,354.8,110813,016.5,E,D*2E
$PGRME,2.4,M,2.4,M,3.4,M*29
$HCHDG,317.9,0.0,E,,*25
$YXXDR,A,5.9,D,PTCH,A,6.0,D,ROLL*57
$PTAK,FFD1,6.0*53
$PTAK,FFP1,HEEL,@*07
$GPRMC,000018.2,A,4715.49392,N,12226.19779,W,000.00,354.8,110813,016.5,E,D*2D
$GPRMB,A,-1.10,L,,Shil,4741.0830,N,12224.5670,W,25.6,2,0.00,V*24
$PGRME,2.4,M,2.4,M,3.4,M*29
$HCHDG,317.8,0.0,E,,*24
$HCHDG,317.8,0.0,E,,*24
$IIRMB,A,,,,Shil,,,,,025.6,002,,V,A*28
$HCHDG,318.0,0.0,E,,*23
$GPRMC,000018.4,A,4715.49392,N,12226.19779,W,000.00,354.8,110813,016.5,E,D*2B
$PGRME,2.4,M,2.4,M,3.4,M*29
$IIRMC,000000,A,4715.493,N,12226.197,W,00.0,354,100813,16,E,A*13
$HCHDG,318.0,0.0,E,,*23
$IIVHW,,,,,00.0,N,,*19
$IIVLW,02080,N,019.4,N*55
$HCHDG,318.0,0.0,E,,*23
$GPRMC,000018.6,A,4715.49392,N,12226.19780,W,000.00,354.8,110813,016.5,E,D*2F
$PGRME,2.4,M,2.4,M,3.4,M*29
$IIVWR,005,R,07.0,N,,,,*63
$IIDPT,011.9,-1.0,*49
$YXXDR,A,6.2,D,PTCH,A,6.2,D,ROLL*5D
$HCHDG,317.9,0.0,E,,*25
$IIGLL,4715.493,N,12226.197,W,000000,A,A*41
$HCHDG,317.9,0.0,E,,*25
$IIMTW,+17.5,C*3B
$GPRMC,000018.8,A,4715.49392,N,12226.19780,W,000.01,354.8,110813,016.5,E,D*20
$PGRME,2.4,M,2.4,M,3.4,M*29
$IIMWV,005,R,07.0,N,A*11
$HCHDG,318.0,0.0,E,,*23
$HCHDG,318.0,0.0,E,,*23
$GPRMC,000019.0,A,4715.49391,N,12226.19780,W,000.01,354.8,110813,016.5,E,D*2A
$PGRME,2.4,M,2.4,M,3.4,M*29
$HCHDG,318.2,0.0,E,,*21
$YXXDR,A,6.2,D,PTCH,A,6.4,D,ROLL*5B
$GPRMC,000019.2,A,4715.49391,N,12226.19781,W,000.00,354.8,110813,016.5,E,D*28
$PGRME,2.4,M,2.4,M,3.4,M*29
$HCHDG,318.2,0.0,E,,*21
$IIMWV,005,T,07.0,N,A*17
$HCHDG,318.2,0.0,E,,*21
$IIRMB,A,,,,Shil,,,,,025.6,002,,V,A*28
$HCHDG,318.3,0.0,E,,*20
$GPRMC,000019.4,A,4715.49391,N,12226.19781,W,000.02,354.8,110813,016.5,E,D*2C
$GPRMB,A,-1.10,L,,Shil,4741.0830,N,12224.5670,W,25.6,2,0.02,V*26
$PGRME,2.4,M,2.4,M,3.4,M*29
$HCHDG,318.3,0.0,E,,*20
$IIRMC,000000,A,4715.493,N,12226.197,W,00.0,354,100813,16,E,A*13
$IIVHW,,,,,00.0,N,,*19
$HCHDG,318.3,0.0,E,,*20
$GPRMC,000019.6,A,4715.49391,N,12226.19781,W,000.01,354.8,110813,016.5,E,D*2D
$PGRME,2.4,M,2.4,M,3.4,M*29
$IIVLW,02080,N,019.4,N*55
$IIVWR,003,R,06.9,N,,,,*6D
$YXXDR,A,6.2,D,PTCH,A,6.2,D,ROLL*5D
$PTAK,FFD1,6.2*51
$IIDPT,011.9,-1.0,*49
$HCHDG,318.3,0.0,E,,*20
$HCHDG,318.3,0.0,E,,*20
$GPRMC,000019.8,A,4715.49391,N,12226.19781,W,000.00,354.8,110813,016.5,E,D*22
$PGRME,2.4,M,2.4,M,3.4,M*29
$IIGLL,4715.493,N,12226.197,W,000000,A,A*41
$IIMTW,+17.5,C*3B
$HCHDG,318.2,0.0,E,,*21
$HCHDG,318.2,0.0,E,,*21
$GPRMC,000020.0,A,4715.49391,N,12226.19781,W,000.01,354.8,110813,016.5,E,D*21
$PGRME,2.4,M,2.4,M,3.4,M*29
$HCHDG,318.3,0.0,E,,*20
$YXXDR,A,6.1,D,PTCH,A,5.5,D,ROLL*5A
$GPRMC,000020.2,A,4715.49391,N,12226.19781,W,000.01,354.8,110813,016.5,E,D*23
$PGRME,2.4,M,2.4,M,3.4,M*29
$HCHDG,318.1,0.0,E,,*22
$IIMWV,004,R,06.5,N,A*14
$HCHDG,318.1,0.0,E,,*22
$IIMWV,003,T,06.9,N,A*19
$HCHDG,318.2,0.0,E,,*21
$GPRMC,000020.4,A,4715.49391,N,12226.19781,W,000.01,354.8,110813,016.5,E,D*25
$GPRMB,A,-1.10,L,,Shil,4741.0830,N,12224.5670,W,25.6,2,0.01,V*25
$PGRME,2.4,M,2.4,M,3.4,M*29
$IIRMB,A,,,,Shil,,,,,025.6,002,,V,A*28
$HCHDG,318.2,0.0,E,,*21
$IIRMC,000000,A,4715.493,N,12226.197,W,00.0,354,100813,16,E,A*13
$HCHDG,318.1,0.0,E,,*22
$GPRMC,000020.6,A,4715.49391,N,12226.19781,W,000.01,354.8,110813,016.5,E,D*27
$PGRME,2.4,M,2.4,M,3.4,M*29
$IIVHW,,,,,00.0,N,,*19
$IIVLW,02080,N,019.4,N*55
$YXXDR,A,6.0,D,PTCH,A,5.6,D,ROLL*58
$PTAK,FFD1,5.6*56
$IIVWR,004,R,06.5,N,,,,*66
$HCHDG,318.1,0.0,E,,*22
$IIDPT,011.9,-1.0,*49
$HCHDG,318.1,0.0,E,,*22
$GPRMC,000020.8,A,4715.49391,N,12226.19782,W,000.01,354.8,110813,016.5,E,D*2A
$PGRME,2.4,M,2.4,M,3.4,M*29
$HCHDG,318.1,0.0,E,,*22
$HCHDG,318.1,0.0,E,,*22
$GPRMC,000021.0,A,4715.49391,N,12226.19781,W,000.01,354.8,110813,016.5,E,D*20
$PGRME,2.4,M,2.4,M,3.4,M*29
$HCHDG,318.2,0.0,E,,*21
$YXXDR,A,6.3,D,PTCH,A,6.3,D,ROLL*5D
$GPRMC,000021.2,A,4715.49391,N,12226.19782,W,000.00,354.8,110813,016.5,E,D*20
$PGRME,2.4,M,2.4,M,3.4,M*29
$HCHDG,318.2,0.0,E,,*21
$HCHDG,318.1,0.0,E,,*22
$IIGLL,4715.493,N,12226.197,W,000000,A,A*41
$IIMTW,+17.5,C*3B
$HCHDG,318.3,0.0,E,,*20
$GPRMC,000021.4,A,4715.49391,N,12226.19782,W,000.01,354.8,110813,016.5,E,D*27
$PGRME,2.4,M,2.4,M,3.4,M*29
$IIMWV,004,R,06.5,N,A*14
$IIMWV,004,T,06.5,N,A*12
$HCHDG,318.2,0.0,E,,*21
$IIRMB,A,,,,Shil,,,,,025.6,002,,V,A*28
$HCHDG,318.2,0.0,E,,*21
$GPRMC,000021.6,A,4715.49391,N,12226.19782,W,000.01,354.8,110813,016.5,E,D*25
$GPRMB,A,-1.10,L,,Shil,4741.0830,N,12224.5670,W,25.6,2,0.01,V*25
$PGRME,2.4,M,2.4,M,3.4,M*29
$YXXDR,A,6.1,D,PTCH,A,6.6,D,ROLL*5A
$PTAK,FFD1,6.6*55
$IIRMC,000000,A,4715.493,N,12226.197,W,00.0,354,100813,16,E,A*13
$HCHDG,318.4,0.0,E,,*27
$IIVHW,,,,,00.0,N,,*19
$HCHDG,318.4,0.0,E,,*27
$IIVLW,02080,N,019.4,N*55
$GPRMC,000021.8,A,4715.49390,N,12226.19783,W,000.00,354.8,110813,016.5,E,D*2A
$PGRME,2.4,M,2.4,M,3.4,M*29
$HCHDG,318.3,0.0,E,,*20
$HCHDG,318.3,0.0,E,,*20
$GPRMC,000022.0,A,4715.49390,N,12226.19783,W,000.00,354.8,110813,016.5,E,D*21
$PGRME,2.4,M,2.4,M,3.4,M*29
$HCHDG,318.3,0.0,E,,*20
$YXXDR,A,5.8,D,PTCH,A,6.3,D,ROLL*55
$PTAK,FFP1,HEEL,@*07
$GPRMC,000022.2,A,4715.49391,N,12226.19783,W,000.00,354.8,110813,016.5,E,D*22
$PGRME,2.4,M,2.4,M,3.4,M*29
$HCHDG,318.3,0.0,E,,*20
$HCHDG,318.3,0.0,E,,*20
$IIVWR,003,R,06.3,N,,,,*67
$IIDPT,011.9,-1.0,*49
$HCHDG,318.1,0.0,E,,*22
$GPRMC,000022.4,A,4715.49391,N,12226.19783,W,000.01,354.8,110813,016.5,E,D*25
$PGRME,2.4,M,2.4,M,3.4,M*29
$IIGLL,4715.493,N,12226.197,W,000000,A,A*41
$IIMTW,+17.5,C*3B
$HCHDG,318.1,0.0,E,,*22
$IIMWV,003,R,06.3,N,A*15
$IIMWV,004,T,06.5,N,A*12
$HCHDG,318.0,0.0,E,,*23
$GPRMC,000022.6,A,4715.49391,N,12226.19783,W,000.00,354.8,110813,016.5,E,D*26
$GPRMB,A,-1.10,L,,Shil,4741.0830,N,12224.5670,W,25.6,2,0.00,V*24
$PGRME,2.4,M,2.4,M,3.4,M*29
$IIRMB,A,,,,Shil,,,,,025.6,002,,V,A*28
$YXXDR,A,6.4,D,PTCH,A,5.1,D,ROLL*5B
$PTAK,FFD1,5.1*51
$HCHDG,317.9,0.0,E,,*25
$HCHDG,318.1,0.0,E,,*22
$IIRMC,000000,A,4715.493,N,12226.197,W,00.0,354,100813,16,E,A*13
$GPRMC,000022.8,A,4715.49391,N,12226.19783,W,000.02,354.8,110813,016.5,E,D*2A
$PGRME,2.4,M,2.4,M,3.4,M*29
$HCHDG,317.9,0.0,E,,*25
$HCHDG,317.9,0.0,E,,*25
$GPRMC,000023.0,A,4715.49391,N,12226.19783,W,000.02,354.8,110813,016.5,E,D*23
$PGRME,2.4,M,2.4,M,3.4,M*29
$HCHDG,317.9,0.0,E,,*25
$YXXDR,A,6.3,D,PTCH,A,5.0,D,ROLL*5D
$GPRMC,000023.2,A,4715.49391,N,12226.19783,W,000.01,354.8,110813,016.5,E,D*22
$PGRME,2.4,M,2.4,M,3.4,M*29
$HCHDG,317.9,0.0,E,,*25
$IIVHW,,,,,00.0,N,,*19
$HCHDG,317.9,0.0,E,,*25
$IIVLW,02080,N,019.4,N*55
$HCHDG,318.2,0.0,E,,*21
$IIVWR,003,R,06.3,N,,,,*67
$GPRMC,000023.4,A,4715.49391,N,12226.19783,W,000.01,354.8,110813,016.5,E,D*24
$PGRME,2.4,M,2.4,M,3.4,M*29
$IIDPT,011.9,-1.0,*49
$HCHDG,318.0,0.0,E,,*23
$IIGLL,4715.493,N,12226.197,W,000000,A,A*41
$IIMTW,+17.5,C*3B
$HCHDG,318.2,0.0,E,,*21
$GPRMC,000023.6,A,4715.49391,N,12226.19783,W,000.01,354.8,110813,016.5,E,D*26
$GPRMB,A,-1.10,L,,Shil,4741.0830,N,12224.5670,W,25.6,2,0.01,V*25
$PGRME,2.4,M,2.4,M,3.4,M*29
$IIMWV,003,R,06.3,N,A*15
$YXXDR,A,6.0,D,PTCH,A,5.8,D,ROLL*56
$PTAK,FFD1,5.8*58
$IIMWV,003,T,06.3,N,A*13
$HCHDG,318.2,0.0,E,,*21
$IIRMB,A,,,,Shil,,,,,025.6,002,,V,A*28
$HCHDG,318.0,0.0,E,,*23
$GPRMC,000023.8,A,4715.49391,N,12226.19783,W,000.01,354.8,110813,016.5,E,D*28
$PGRME,2.4,M,2.4,M,3.4,M*29
$HCHDG,318.0,0.0,E,,*23
$HCHDG,317.9,0.0,E,,*25
$GPRMC,000024.0,A,4715.49391,N,12226.19783,W,000.01,354.8,110813,016.5,E,D*27
$PGRME,2.4,M,2.4,M,3.4,M*29
$HCHDG,317.8,0.0,E,,*24
$YXXDR,A,5.9,D,PTCH,A,5.0,D,ROLL*54
$GPRMC,000024.2,A,4715.49391,N,12226.19784,W,000.01,354.8,110813,016.5,E,D*22
$PGRME,2.4,M,2.4,M,3.4,M*29
$HCHDG,317.7,0.0,E,,*2B
$HCHDG,317.7,0.0,E,,*2B
$IIRMC,000000,A,4715.493,N,12226.197,W,00.0,354,100813,16,E,A*13
$HCHDG,317.6,0.0,E,,*2A
$GPRMC,000024.4,A,4715.49391,N,12226.19784,W,000.01,354.8,110813,016.5,E,D*24
$PGRME,2.4,M,2.4,M,3.4,M*29
$IIVHW,,,,,00.0,N,,*19
$IIVLW,02080,N,019.4,N*55
$HCHDG,317.6,0.0,E,,*2A
$IIVWR,001,R,06.2,N,,,,*64
$IIDPT,011.9,-1.0,*49
$HCHDG,317.6,0.0,E,,*2A
$GPRMC,000024.6,A,4715.49391,N,12226.19784,W,000.01,354.8,110813,016.5,E,D*26
$PGRME,2.4,M,2.4,M,3.4,M*29
$YXXDR,A,5.9,D,PTCH,A,3.7,D,ROLL*55
$IIGLL,4715.493,N,12226.197,W,000000,A,A*41
$IIMTW,+17.5,C*3B
$HCHDG,317.4,0.0,E,,*28
$IIMWV,001,R,06.2,N,A*16
$HCHDG,317.2,0.0,E,,*2E
$GPRMC,000024.8,A,4715.49391,N,12226.19784,W,000.01,354.8,110813,016.5,E,D*28
$GPRMB,A,-1.10,L,,Shil,4741.0830,N,12224.5670,W,25.6,2,0.01,V*25
$PGRME,2.4,M,2.4,M,3.4,M*29
$IIMWV,003,T,06.3,N,A*13
$HCHDG,317.3,0.0,E,,*2F
$HCHDG,317.4,0.0,E,,*28
$GPRMC,000025.0,A,4715.49391,N,12226.19783,W,000.02,354.8,110813,016.5,E,D*25
$PGRME,2.4,M,2.4,M,3.4,M*29
$HCHDG,317.3,0.0,E,,*2F
$YXXDR,A,5.6,D,PTCH,A,4.0,D,ROLL*5A
$PTAK,FFD1,4.0*51
$GPRMC,000025.2,A,4715.49391,N,12226.19783,W,000.01,354.8,110813,016.5,E,D*24
$PGRME,2.4,M,2.4,M,3.4,M*29
$HCHDG,317.5,0.0,E,,*29
$HCHDG,317.4,0.0,E,,*28
$IIRMB,A,,,,Shil,,,,,025.6,002,,V,A*28
$HCHDG,317.8,0.0,E,,*24
$GPRMC,000025.4,A,4715.49391,N,12226.19783,W,000.01,354.8,110813,016.5,E,D*22
$PGRME,2.4,M,2.4,M,3.4,M*29
$IIRMC,000000,A,4715.493,N,12226.197,W,00.0,354,100813,16,E,A*13
$HCHDG,317.8,0.0,E,,*24
$IIVHW,,,,,00.0,N,,*19
$IIVLW,02080,N,019.4,N*55
$HCHDG,317.9,0.0,E,,*25
$GPRMC,000025.6,A,4715.49392,N,12226.19783,W,000.01,354.8,110813,016.5,E,D*23
$PGRME,2.4,M,2.4,M,3.4,M*29
$IIVWR,000,R,06.2,N,,,,*65
$IIDPT,011.9,-1.0,*49
$YXXDR,A,6.2,D,PTCH,A,3.6,D,ROLL*5C
$HCHDG,317.8,0.0,E,,*24
$IIGLL,4715.493,N,12226.197,W,000000,A,A*41
$HCHDG,317.9,0.0,E,,*25
$IIMTW,+17.5,C*3B
$GPRMC,000025.8,A,4715.49392,N,12226.19783,W,000.00,354.8,110813,016.5,E,D*2C
$PGRME,2.4,M,2.4,M,3.4,M*29
$IIMWV,000,R,06.2,N,A*17
$HCHDG,317.9,0.0,E,,*25
$HCHDG,317.9,0.0,E,,*25
$GPRMC,000026.0,A,4715.49392,N,12226.19783,W,000.01,354.8,110813,016.5,E,D*26
$GPRMB,A,-1.10,L,,Shil,4741.0830,N,12224.5670,W,25.6,2,0.01,V*25
$PGRME,2.4,M,2.4,M,3.4,M*29
$HCHDG,317.8,0.0,E,,*24
$PTAK,FFP1,HEEL,@*07
$YXXDR,A,6.0,D,PTCH,A,2.7,D,ROLL*5E
$PTAK,FFD1,2.7*50
$GPRMC,000026.2,A,4715.49392,N,12226.19783,W,000.02,354.8,110813,016.5,E,D*27
$PGRME,2.4,M,2.4,M,3.4,M*29
$HCHDG,317.9,0.0,E,,*25
$IIMWV,000,T,06.2,N,A*11
$HCHDG,317.9,0.0,E,,*25
$IIRMB,A,,,,Shil,,,,,025.6,002,,V,A*28
$HCHDG,317.9,0.0,E,,*25
$GPRMC,000026.4,A,4715.49392,N,12226.19783,W,000.01,354.8,110813,016.5,E,D*22
$PGRME,2.4,M,2.4,M,3.4,M*29
$HCHDG,317.8,0.0,E,,*24
$IIRMC,000000,A,4715.493,N,12226.197,W,00.0,354,100813,16,E,A*13
$IIVHW,,,,,00.0,N,,*19
$HCHDG,317.8,0.0,E,,*24
$GPRMC,000026.6,A,4715.49392,N,12226.19783,W,000.01,354.8,110813,016.5,E,D*20
$PGRME,2.4,M,2.4,M,3.4,M*29
$IIVLW,02080,N,019.4,N*55
$YXXDR,A,5.7,D,PTCH,A,2.4,D,ROLL*59
$IIVWR,001,L,06.3,N,,,,*7B
$HCHDG,317.9,0.0,E,,*25
$IIDPT,011.9,-1.0,*49
$HCHDG,318.1,0.0,E,,*22
$GPRMC,000026.8,A,4715.49392,N,12226.19783,W,000.01,354.8,110813,016.5,E,D*2E
$PGRME,2.4,M,2.4,M,3.4,M*29
$IIGLL,4715.493,N,12226.197,W,000000,A,A*41
$IIMTW,+17.5,C*3B
$HCHDG,318.0,0.0,E,,*23
$HCHDG,317.9,0.0,E,,*25
$GPRMC,000027.0,A,4715.49392,N,12226.19784,W,000.02,354.8,110813,016.5,E,D*23
$PGRME,2.4,M,2.4,M,3.4,M*29
$HCHDG,317.8,0.0,E,,*24
$YXXDR,A,5.8,D,PTCH,A,1.1,D,ROLL*50
$GPRMC,000027.2,A,4715.49392,N,12226.19784,W,000.01,354.8,110813,016.5,E,D*22
$GPRMB,A,-1.10,L,,Shil,4741.0830,N,12224.5670,W,25.6,2,0.01,V*25
$PGRME,2.4,M,2.4,M,3.4,M*29
$HCHDG,318.0,0.0,E,,*23
$IIMWV,000,R,06.4,N,A*11
$HCHDG,318.0,0.0,E,,*23
$IIMWV,359,T,06.3,N,A*1F
$HCHDG,318.0,0.0,E,,*23
$GPRMC,000027.4,A,4715.49392,N,12226.19784,W,000.01,354.8,110813,016.5,E,D*24
$PGRME,2.4,M,2.4,M,3.4,M*29
$IIRMB,A,,,,Shil,,,,,025.6,002,,V,A*28
$HCHDG,318.0,0.0,E,,*23
$IIRMC,000000,A,4715.493,N,12226.197,W,00.0,354,100813,16,E,A*13
$HCHDG,318.0,0.0,E,,*23
$GPRMC,000027.6,A,4715.49392,N,12226.19784,W,000.02,354.8,110813,016.5,E,D*25
$PGRME,2.4,M,2.4,M,3.4,M*29
$IIVHW,,,,,00.0,N,,*19
$YXXDR,A,6.0,D,PTCH,A,1.3,D,ROLL*59
$PTAK,FFD1,1.3*57
$IIVLW,02080,N,019.4,N*55
$HCHDG,318.1,0.0,E,,*22
$IIVWR,000,R,06.4,N,,,,*63
$IIDPT,011.9,-1.0,*49
$HCHDG,318.2,0.0,E,,*21
$GPRMC,000027.8,A,4715.49392,N,12226.19784,W,000.01,354.8,110813,016.5,E,D*28
$PGRME,2.4,M,2.4,M,3.4,M*29
$HCHDG,318.3,0.0,E,,*20
$HCHDG,318.2,0.0,E,,*21
$GPRMC,000028.0,A,4715.49392,N,12226.19783,W,000.01,354.8,110813,016.5,E,D*28
$PGRME,2.4,M,2.4,M,3.4,M*29
$HCHDG,318.3,0.0,E,,*20
$YXXDR,A,6.1,D,PTCH,A,1.8,D,ROLL*53
$GPRMC,000028.2,A,4715.49392,N,12226.19783,W,000.02,354.8,110813,016.5,E,D*29
$GPRMB,A,-1.10,L,,Shil,4741.0830,N,12224.5670,W,25.6,2,0.02,V*26
$PGRME,2.4,M,2.4,M,3.4,M*29
$HCHDG,318.4,0.0,E,,*27
$HCHDG,318.3,0.0,E,,*20
$IIGLL,4715.493,N,12226.197,W,000000,A,A*41
$IIMTW,+17.5,C*3B
$HCHDG,318.2,0.0,E,,*21
$GPRMC,000028.4,A,4715.49392,N,12226.19783,W,000.02,354.8,110813,016.5,E,D*2F
$PGRME,2.4,M,2.4,M,3.4,M*29
$IIMWV,002,R,06.3,N,A*14
$IIMWV,000,T,06.4,N,A*17
$HCHDG,318.4,0.0,E,,*27
$IIRMB,A,,,,Shil,,,,,025.6,002,,V,A*28
$HCHDG,318.3,0.0,E,,*20
$GPRMC,000028.6,A,4715.49393,N,12226.19783,W,000.01,354.8,110813,016.5,E,D*2F
$PGRME,2.4,M,2.4,M,3.4,M*29
$YXXDR,A,6.0,D,PTCH,A,2.0,D,ROLL*59
$IIRMC,000000,A,4715.493,N,12226.197,W,00.0,354,100813,16,E,A*13
$HCHDG,318.1,0.0,E,,*22
$IIVHW,,,,,00.0,N,,*19
$HCHDG,318.3,0.0,E,,*20
$IIVLW,02080,N,019.4,N*55
$GPRMC,000028.8,A,4715.49393,N,12226.19783,W,000.01,354.8,110813,016.5,E,D*21
$PGRME,2.4,M,2.4,M,3.4,M*29
$HCHDG,318.3,0.0,E,,*20
$HCHDG,318.2,0.0,E,,*21
$GPRMC,000029.0,A,4715.49393,N,12226.19783,W,000.01,354.8,110813,016.5,E,D*28
$PGRME,2.4,M,2.4,M,3.4,M*29
$HCHDG,318.4,0.0,E,,*27
$YXXDR,A,5.8,D,PTCH,A,2.6,D,ROLL*54
$PTAK,FFD1,2.6*51
$GPRMC,000029.2,A,4715.49393,N,12226.19783,W,000.01,354.8,110813,016.5,E,D*2A
$GPRMB,A,-1.10,L,,Shil,4741.0830,N,12224.5670,W,25.6,2,0.01,V*25
$PGRME,2.4,M,2.4,M,3.4,M*29
$HCHDG,318.3,0.0,E,,*20
$HCHDG,318.5,0.0,E,,*26
$IIVWR,003,R,06.4,N,,,,*60
$IIDPT,011.9,-1.0,*49
$HCHDG,318.5,0.0,E,,*26
$GPRMC,000029.4,A,4715.49393,N,12226.19783,W,000.00,354.8,110813,016.5,E,D*2D
$PGRME,2.4,M,2.4,M,3.4,M*29
$IIGLL,4715.493,N,12226.197,W,000000,A,A*41
$IIMTW,+17.5,C*3B
$HCHDG,318.2,0.0,E,,*21
$IIMWV,003,R,06.4,N,A*12
$IIMWV,002,T,06.3,N,A*12
$HCHDG,318.2,0.0,E,,*21
$GPRMC,000029.6,A,4715.49393,N,12226.19783,W,000.01,354.8,110813,016.5,E,D*2E
$PGRME,2.4,M,2.4,M,3.4,M*29
$IIRMB,A,,,,Shil,,,,,025.6,002,,V,A*28
$YXXDR,A,5.6,D,PTCH,A,2.9,D,ROLL*55
$HCHDG,318.4,0.0,E,,*27
$HCHDG,318.3,0.0,E,,*20
$IIRMC,000000,A,4715.493,N,12226.197,W,00.0,354,100813,16,E,A*13
$GPRMC,000029.8,A,4715.49393,N,12226.19783,W,000.01,354.8,110813,016.5,E,D*20
$PGRME,2.4,M,2.4,M,3.4,M*29
$HCHDG,318.3,0.0,E,,*20
$HCHDG,318.3,0.0,E,,*20
$GPRMC,000030.0,A,4715.49393,N,12226.19783,W,000.02,354.8,110813,016.5,E,D*23
$PGRME,2.4,M,2.4,M,3.4,M*29
$HCHDG,318.3,0.0,E,,*20
$YXXDR,A,6.1,D,PTCH,A,2.2,D,ROLL*5A
$PTAK,FFD1,2.2*55
$GPRMC,000030.2,A,4715.49393,N,12226.19783,W,000.01,354.8,110813,016.5,E,D*22
$GPRMB,A,-1.10,L,,Shil,4741.0830,N,12224.5670,W,25.6,2,0.01,V*25
$PGRME,2.4,M,2.4,M,3.4,M*29
$HCHDG,318.1,0.0,E,,*22
$PTAK,FFP1,HEEL,@*07
$IIVHW,,,,,00.0,N,,*19
$HCHDG,318.1,0.0,E,,*22
$IIVLW,02080,N,019.4,N*55
$HCHDG,318.1,0.0,E,,*22
$IIVWR,000,R,06.4,N,,,,*63
$GPRMC,000030.4,A,4715.49393,N,12226.19783,W,000.00,354.8,110813,016.5,E,D*25
$PGRME,2.4,M,2.4,M,3.4,M*29
$IIDPT,011.9,-1.0,*49
$HCHDG,318.0,0.0,E,,*23
$IIGLL,4715.493,N,12226.197,W,000000,A,A*41
$IIMTW,+17.5,C*3B
$HCHDG,317.9,0.0,E,,*25
$GPRMC,000030.6,A,4715.49394,N,12226.19783,W,000.00,354.8,110813,016.5,E,D*20
$PGRME,2.4,M,2.4,M,3.4,M*29
$IIMWV,000,R,06.4,N,A*11
$YXXDR,A,5.8,D,PTCH,A,1.9,D,ROLL*58
$IIMWV,003,T,06.4,N,A*14
$HCHDG,317.8,0.0,E,,*24
$IIRMB,A,,,,Shil,,,,,025.6,002,,V,A*28
$HCHDG,317.8,0.0,E,,*24
$GPRMC,000030.8,A,4715.49394,N,12226.19783,W,000.01,354.8,110813,016.5,E,D*2F
$PGRME,2.4,M,2.4,M,3.4,M*29
$HCHDG,317.7,0.0,E,,*2B
$HCHDG,317.8,0.0,E,,*24
$GPRMC,000031.0,A,4715.49394,N,12226.19784,W,000.01,354.8,110813,016.5,E,D*21
$PGRME,2.4,M,2.4,M,3.4,M*29
$HCHDG,317.7,0.0,E,,*2B
$YXXDR,A,5.7,D,PTCH,A,1.4,D,ROLL*5A
$GPRMC,000031.2,A,4715.49394,N,12226.19784,W,000.02,354.8,110813,016.5,E,D*20
$PGRME,2.4,M,2.4,M,3.4,M*29
$HCHDG,317.5,0.0,E,,*29
$HCHDG,317.4,0.0,E,,*28
$IIRMC,000000,A,4715.493,N,12226.197,W,00.0,354,100813,16,E,A*13
$HCHDG,317.5,0.0,E,,*29
$GPRMC,000031.4,A,4715.49394,N,12226.19784,W,000.01,354.8,110813,016.5,E,D*25
$GPRMB,A,-1.10,L,,Shil,4741.0830,N,12224.5670,W,25.6,2,0.01,V*25
$PGRME,2.4,M,2.4,M,3.4,M*29
$IIVHW,,,,,00.0,N,,*19
$IIVLW,02080,N,019.4,N*55
$HCHDG,317.5,0.0,E,,*29
$IIVWR,001,L,06.4,N,,,,*7C
$IIDPT,011.9,-1.0,*49
$HCHDG,317.4,0.0,E,,*28
$GPRMC,000031.6,A,4715.49393,N,12226.19784,W,000.01,354.8,110813,016.5,E,D*20
$PGRME,2.4,M,2.4,M,3.4,M*29
$YXXDR,A,5.6,D,PTCH,A,1.5,D,ROLL*5A
$PTAK,FFD1,1.5*51
$IIGLL,4715.493,N,12226.197,W,000000,A,A*41
$IIMTW,+17.5,C*3B
$HCHDG,317.4,0.0,E,,*28
$IIMWV,359,R,06.4,N,A*1E
$HCHDG,317.5,0.0,E,,*29
$GPRMC,000031.8,A,4715.49393,N,12226.19784,W,000.01,354.8,110813,016.5,E,D*2E
$PGRME,2.4,M,2.4,M,3.4,M*29
$IIMWV,000,T,06.4,N,A*17
$HCHDG,317.2,0.0,E,,*2E
$HCHDG,317.2,0.0,E,,*2E
$GPRMC,000032.0,A,4715.49393,N,12226.19784,W,000.01,354.8,110813,016.5,E,D*25
$PGRME,2.4,M,2.4,M,3.4,M*29
$HCHDG,317.2,0.0,E,,*2E
$YXXDR,A,5.8,D,PTCH,A,1.7,D,ROLL*56
$GPRMC,000032.2,A,4715.49394,N,12226.19784,W,000.00,354.8,110813,016.5,E,D*21
$PGRME,2.4,M,2.4,M,3.4,M*29
$HCHDG,317.3,0.0,E,,*2F
$HCHDG,317.3,0.0,E,,*2F
$IIRMB,A,,,,Shil,,,,,025.6,002,,V,A*28
$HCHDG,317.2,0.0,E,,*2E
$GPRMC,000032.4,A,4715.49394,N,12226.19784,W,000.01,354.8,110813,016.5,E,D*26
$PGRME,2.4,M,2.4,M,3.4,M*29
$IIRMC,000000,A,4715.493,N,12226.197,W,00.0,354,100813,16,E,A*13
$HCHDG,317.5,0.0,E,,*29
$IIVHW,,,,,00.0,N,,*19
$IIVLW,02080,N,019.4,N*55
$HCHDG,317.5,0.0,E,,*29
$GPRMC,000032.6,A,4715.49394,N,12226.19784,W,000.00,354.8,110813,016.5,E,D*25
$GPRMB,A,-1.10,L,,Shil,4741.0830,N,12224.5670,W,25.6,2,0.00,V*24
$PGRME,2.4,M,2.4,M,3.4,M*29
$IIVWR,001,R,06.4,N,,,,*62
$IIDPT,011.9,-1.0,*49
$YXXDR,A,6.0,D,PTCH,A,2.4,D,ROLL*5D
$PTAK,FFD1,2.4*53
$HCHDG,317.4,0.0,E,,*28
$IIGLL,4715.493,N,12226.197,W,000000,A,A*41
$HCHDG,317.4,0.0,E,,*28
$IIMTW,+17.5,C*3B
$GPRMC,000032.8,A,4715.49394,N,12226.19784,W,000.01,354.8,110813,016.5,E,D*2A
$PGRME,2.4,M,2.4,M,3.4,M*29
$IIMWV,001,R,06.4,N,A*10
$HCHDG,317.5,0.0,E,,*29
$HCHDG,317.5,0.0,E,,*29
$GPRMC,000033.0,A,4715.49393,N,12226.19784,W,000.01,354.8,110813,016.5,E,D*24
$PGRME,2.4,M,2.4,M,3.4,M*29
$HCHDG,317.7,0.0,E,,*2B
$YXXDR,A,6.1,D,PTCH,A,2.6,D,ROLL*5E
$GPRMC,000033.2,A,4715.49393,N,12226.19784,W,000.01,354.8,110813,016.5,E,D*26
$PGRME,2.4,M,2.4,M,3.4,M*29
$HCHDG,317.6,0.0,E,,*2A
$IIMWV,001,T,06.4,N,A*16
$HCHDG,317.6,0.0,E,,*2A
$IIRMB,A,,,,Shil,,,,,025.6,002,,V,A*28
$HCHDG,317.5,0.0,E,,*29
$GPRMC,000033.4,A,4715.49393,N,12226.19784,W,000.01,354.8,110813,016.5,E,D*20
$PGRME,2.4,M,2.4,M,3.4,M*29
$HCHDG,317.5,0.0,E,,*29
$IIRMC,000000,A,4715.493,N,12226.197,W,00.0,354,100813,16,E,A*13
$IIVHW,,,,,00.0,N,,*19
$HCHDG,317.8,0.0,E,,*24
$GPRMC,000033.6,A,4715.49393,N,12226.19784,W,000.01,354.8,110813,016.5,E,D*22
$GPRMB,A,-1.10,L,,Shil,4741.0830,N,12224.5670,W,25.6,2,0.01,V*25
$PGRME,2.4,M,2.4,M,3.4,M*29
$IIVLW,02080,N,019.4,N*55
$YXXDR,A,6.0,D,PTCH,A,2.2,D,ROLL*5B
$IIVWR,002,R,06.3,N,,,,*66
$IIDPT,011.9,-1.0,*49
$HCHDG,317.8,0.0,E,,*24
$HCHDG,317.8,0.0,E,,*24
$GPRMC,000033.8,A,4715.49393,N,12226.19785,W,000.00,354.8,110813,016.5,E,D*2C
$PGRME,2.4,M,2.4,M,3.4,M*29
$IIGLL,4715.493,N,12226.197,W,000000,A,A*41
$IIMTW,+17.5,C*3B
$HCHDG,317.8,0.0,E,,*24
$HCHDG,317.8,0.0,E,,*24
$GPRMC,000034.0,A,4715.49393,N,12226.19785,W,000.00,354.8,110813,016.5,E,D*23
$PGRME,2.4,M,2.4,M,3.4,M*29
$HCHDG,317.6,0.0,E,,*2A
$YXXDR,A,6.0,D,PTCH,A,1.8,D,ROLL*52
$PTAK,FFD1,1.8*5C
$GPRMC,000034.2,A,4715.49393,N,12226.19785,W,000.01,354.8,110813,016.5,E,D*20
$PGRME,2.4,M,2.4,M,3.4,M*29
$HCHDG,317.6,0.0,E,,*2A
$IIMWV,001,R,06.3,N,A*17
$HCHDG,317.7,0.0,E,,*2B
$IIMWV,002,T,06.3,N,A*12
$HCHDG,317.7,0.0,E,,*2B
$GPRMC,000034.4,A,4715.49393,N,12226.19785,W,000.01,354.8,110813,016.5,E,D*26
$PTAK,FFP1,HEEL,@*07
$PGRME,2.4,M,2.4,M,3.4,M*29
$IIRMB,A,,,,Shil,,,,,025.6,002,,V,A*28
$HCHDG,317.8,0.0,E,,*24
$IIRMC,000000,A,4715.493,N,12226.197,W,00.0,354,100813,16,E,A*13
$HCHDG,317.8,0.0,E,,*24
$GPRMC,000034.6,A,4715.49393,N,12226.19785,W,000.01,354.8,110813,016.5,E,D*24
$GPRMB,A,-1.10,L,,Shil,4741.0830,N,12224.5670,W,25.6,2,0.01,V*25
$IIVHW,,,,,00.0,N,,*19
$PGRME,2.4,M,2.4,M,3.4,M*29
$IIVLW,02080,N,019.4,N*55
$YXXDR,A,6.0,D,PTCH,A,1.9,D,ROLL*53
$PTAK,FFD1,1.9*5D
$HCHDG,317.9,0.0,E,,*25
$IIVWR,001,R,06.3,N,,,,*65
$IIDPT,011.9,-1.0,*49
$HCHDG,317.7,0.0,E,,*2B
$GPRMC,000034.8,A,4715.49393,N,12226.19785,W,000.01,354.8,110813,016.5,E,D*2A
$PGRME,2.4,M,2.4,M,3.4,M*29
$HCHDG,317.8,0.0,E,,*24
$HCHDG,317.8,0.0,E,,*24
$GPRMC,000035.0,A,4715.49394,N,12226.19785,W,000.00,354.8,110813,016.5,E,D*25
$PGRME,2.4,M,2.4,M,3.4,M*29
$HCHDG,317.7,0.0,E,,*2B
$YXXDR,A,5.8,D,PTCH,A,1.9,D,ROLL*58
$GPRMC,000035.2,A,4715.49393,N,12226.19785,W,000.00,354.8,110813,016.5,E,D*20
$PGRME,2.4,M,2.4,M,3.4,M*29
$HCHDG,317.8,0.0,E,,*24
$HCHDG,317.6,0.0,E,,*2A
$IIGLL,4715.493,N,12226.197,W,000000,A,A*41
$IIMTW,+17.5,C*3B
$HCHDG,317.6,0.0,E,,*2A
$GPRMC,000035.4,A,4715.49393,N,12226.19785,W,000.01,354.8,110813,016.5,E,D*27
$PGRME,2.4,M,2.4,M,3.4,M*29
$IIMWV,002,R,06.4,N,A*13
$IIMWV,001,T,06.3,N,A*11
$HCHDG,317.6,0.0,E,,*2A
$IIRMB,A,,,,Shil,,,,,025.6,002,,V,A*28
$HCHDG,317.6,0.0,E,,*2A
$GPRMC,000035.6,A,4715.49393,N,12226.19785,W,000.00,354.8,110813,016.5,E,D*24
$PGRME,2.4,M,2.4,M,3.4,M*29
$YXXDR,A,5.8,D,PTCH,A,2.4,D,ROLL*56
$IIRMC,000000,A,4715.493,N,12226.197,W,00.0,354,100813,16,E,A*13
$HCHDG,317.5,0.0,E,,*29
$IIVHW,,,,,00.0,N,,*19
$HCHDG,317.7,0.0,E,,*2B
$IIVLW,02080,N,019.4,N*55
$GPRMC,000035.8,A,4715.49393,N,12226.19785,W,000.01,354.8,110813,016.5,E,D*2B
$PGRME,2.4,M,2.4,M,3.4,M*29
$HCHDG,317.6,0.0,E,,*2A
$HCHDG,317.6,0.0,E,,*2A
$GPRMC,000036.0,A,4715.49394,N,12226.19785,W,000.01,354.8,110813,016.5,E,D*27
$PGRME,2.4,M,2.4,M,3.4,M*29
$HCHDG,317.8,0.0,E,,*24
$YXXDR,A,5.7,D,PTCH,A,3.2,D,ROLL*5E
$GPRMC,000036.2,A,4715.49394,N,12226.19785,W,000.01,354.8,110813,016.5,E,D*25
$GPRMB,A,-1.10,L,,Shil,4741.0830,N,12224.5670,W,25.6,2,0.01,V*25
$PGRME,2.4,M,2.4,M,3.4,M*29
$HCHDG,317.7,0.0,E,,*2B
$IIVWR,004,R,06.4,N,,,,*67
$HCHDG,317.7,0.0,E,,*2B
$IIDPT,011.9,-1.0,*49
$HCHDG,317.8,0.0,E,,*24
$GPRMC,000036.4,A,4715.49394,N,12226.19785,W,000.01,354.8,110813,016.5,E,D*23
$PGRME,2.4,M,2.4,M,3.4,M*29
$IIGLL,4715.493,N,12226.197,W,000000,A,A*41
$IIMTW,+17.5,C*3B
$HCHDG,317.6,0.0,E,,*2A
$IIMWV,004,R,06.4,N,A*15
$IIMWV,002,T,06.4,N,A*15
$HCHDG,317.6,0.0,E,,*2A
$GPRMC,000036.6,A,4715.49394,N,12226.19786,W,000.01,354.8,110813,016.5,E,D*22
$PGRME,2.4,M,2.4,M,3.4,M*29
$IIRMB,A,,,,Shil,,,,,025.6,002,,V,A*28
$YXXDR,A,5.8,D,PTCH,A,3.5,D,ROLL*56
$PTAK,FFD1,3.5*53
$HCHDG,317.6,0.0,E,,*2A
$HCHDG,317.7,0.0,E,,*2B
$GPRMC,000036.8,A,4715.49394,N,12226.19786,W,000.00,354.8,110813,016.5,E,D*2D
$IIRMC,000000,A,4715.493,N,12226.197,W,00.0,354,100813,16,E,A*13
$PGRME,2.4,M,2.4,M,3.4,M*29
$HCHDG,317.6,0.0,E,,*2A
$HCHDG,317.8,0.0,E,,*24
$GPRMC,000037.0,A,4715.49394,N,12226.19786,W,000.01,354.8,110813,016.5,E,D*25
$PGRME,2.4,M,2.4,M,3.4,M*29
$HCHDG,317.8,0.0,E,,*24
$YXXDR,A,5.7,D,PTCH,A,4.2,D,ROLL*59
$GPRMC,000037.2,A,4715.49394,N,12226.19786,W,000.01,354.8,110813,016.5,E,D*27
$PGRME,2.4,M,2.4,M,3.4,M*29
$HCHDG,317.7,0.0,E,,*2B
$IIVHW,,,,,00.0,N,,*19
$HCHDG,317.6,0.0,E,,*2A
$IIVLW,02080,N,019.4,N*55
$HCHDG,317.7,0.0,E,,*2B
$IIVWR,003,R,06.3,N,,,,*67
$GPRMC,000037.4,A,4715.49394,N,12226.19786,W,000.00,354.8,110813,016.5,E,D*20
$GPRMB,A,-1.10,L,,Shil,4741.0830,N,12224.5670,W,25.6,2,0.00,V*24
$PGRME,2.4,M,2.4,M,3.4,M*29
$IIDPT,011.9,-1.0,*49
$HCHDG,317.8,0.0,E,,*24
$IIGLL,4715.493,N,12226.197,W,000000,A,A*41
$IIMTW,+17.5,C*3B
$HCHDG,317.7,0.0,E,,*2B
$GPRMC,000037.6,A,4715.49394,N,12226.19786,W,000.01,354.8,110813,016.5,E,D*23
$PGRME,2.4,M,2.4,M,3.4,M*29
$IIMWV,003,R,06.3,N,A*15
$YXXDR,A,5.5,D,PTCH,A,4.3,D,ROLL*5A
$PTAK,FFD1,4.3*52
$IIMWV,004,T,06.4,N,A*13
$HCHDG,317.8,0.0,E,,*24
$IIRMB,A,,,,Shil,,,,,025.6,002,,V,A*28
$HCHDG,317.6,0.0,E,,*2A
$GPRMC,000037.8,A,4715.49394,N,12226.19786,W,000.00,354.8,110813,016.5,E,D*2C
$PGRME,2.4,M,2.4,M,3.4,M*29
$HCHDG,317.7,0.0,E,,*2B
$HCHDG,317.7,0.0,E,,*2B
$GPRMC,000038.0,A,4715.49394,N,12226.19785,W,000.02,354.8,110813,016.5,E,D*2A
$PGRME,2.4,M,2.4,M,3.4,M*29
$HCHDG,317.7,0.0,E,,*2B
$YXXDR,A,5.8,D,PTCH,A,3.3,D,ROLL*50
$GPRMC,000038.2,A,4715.49394,N,12226.19785,W,000.01,354.8,110813,016.5,E,D*2B
$PGRME,2.4,M,2.4,M,3.4,M*29
$HCHDG,317.5,0.0,E,,*29
$HCHDG,317.3,0.0,E,,*2F
$IIRMC,000000,A,4715.493,N,12226.197,W,00.0,354,100813,16,E,A*13
$HCHDG,317.3,0.0,E,,*2F
$GPRMC,000038.4,A,4715.49394,N,12226.19785,W,000.01,354.8,110813,016.5,E,D*2D
$PTAK,FFP1,HEEL,@*07
$PGRME,2.4,M,2.4,M,3.4,M*29
$IIVHW,,,,,00.0,N,,*19
$IIVLW,02080,N,019.4,N*55
$HCHDG,317.3,0.0,E,,*2F
$IIVWR,001,R,06.4,N,,,,*62
$IIDPT,011.9,-1.0,*49
$HCHDG,317.3,0.0,E,,*2F
$GPRMC,000038.6,A,4715.49394,N,12226.19785,W,000.00,354.8,110813,016.5,E,D*2E
$GPRMB,A,-1.10,L,,Shil,4741.0830,N,12224.5670,W,25.6,2,0.00,V*24
$PGRME,2.4,M,2.4,M,3.4,M*29
$YXXDR,A,5.5,D,PTCH,A,3.4,D,ROLL*5A
$PTAK,FFD1,3.4*52
$IIGLL,4715.493,N,12226.197,W,000000,A,A*41
$IIMTW,+17.5,C*3B
$HCHDG,317.3,0.0,E,,*2F
$IIMWV,001,R,06.4,N,A*10
$HCHDG,317.4,0.0,E,,*28
$GPRMC,000038.8,A,4715.49394,N,12226.19786,W,000.01,354.8,110813,016.5,E,D*22
$PGRME,2.4,M,2.4,M,3.4,M*29
$IIMWV,003,T,06.3,N,A*13
$HCHDG,317.3,0.0,E,,*2F
$HCHDG,317.3,0.0,E,,*2F
$GPRMC,000039.0,A,4715.49394,N,12226.19786,W,000.01,354.8,110813,016.5,E,D*2B
$PGRME,2.4,M,2.4,M,3.4,M*29
$HCHDG,317.3,0.0,E,,*2F
$YXXDR,A,5.7,D,PTCH,A,3.2,D,ROLL*5E
$GPRMC,000039.2,A,4715.49394,N,12226.19786,W,000.00,354.8,110813,016.5,E,D*28
$PGRME,2.4,M,2.4,M,3.4,M*29
$HCHDG,317.2,0.0,E,,*2E
$HCHDG,317.3,0.0,E,,*2F
$IIRMB,A,,,,Shil,,,,,025.6,002,,V,A*28
$HCHDG,317.5,0.0,E,,*29
$GPRMC,000039.4,A,4715.49394,N,12226.19786,W,000.01,354.8,110813,016.5,E,D*2F
$PGRME,2.4,M,2.4,M,3.4,M*29
$IIRMC,000000,A,4715.493,N,12226.197,W,00.0,354,100813,16,E,A*13
$HCHDG,317.5,0.0,E,,*29
$IIVHW,,,,,00.0,N,,*19
$IIVLW,02080,N,019.4,N*55
$HCHDG,317.4,0.0,E,,*28
$GPRMC,000039.6,A,4715.49394,N,12226.19786,W,000.01,354.8,110813,016.5,E,D*2D
$GPRMB,A,-1.10,L,,Shil,4741.0830,N,12224.5670,W,25.6,2,0.01,V*25
$PGRME,2.4,M,2.4,M,3.4,M*29
$IIVWR,000,R,06.3,N,,,,*64
$IIDPT,011.9,-1.0,*49
$YXXDR,A,5.8,D,PTCH,A,2.9,D,ROLL*5B
$PTAK,FFD1,2.9*5E
$HCHDG,317.4,0.0,E,,*28
$IIGLL,4715.493,N,12226.197,W,000000,A,A*41
$HCHDG,317.3,0.0,E,,*2F
$IIMTW,+17.5,C*3B
$GPRMC,000039.8,A,4715.49394,N,12226.19786,W,000.00,354.8,110813,016.5,E,D*22
$PGRME,2.4,M,2.4,M,3.4,M*29
$IIMWV,000,R,06.3,N,A*16
$HCHDG,317.4,0.0,E,,*28
$HCHDG,317.4,0.0,E,,*28
$GPRMC,000040.0,A,4715.49394,N,12226.19786,W,000.01,354.8,110813,016.5,E,D*25
$PGRME,2.4,M,2.4,M,3.4,M*29
$HCHDG,317.3,0.0,E,,*2F
$YXXDR,A,5.5,D,PTCH,A,2.8,D,ROLL*57
$GPRMC,000040.2,A,4715.49394,N,12226.19786,W,000.01,354.8,110813,016.5,E,D*27
$PGRME,2.4,M,2.4,M,3.4,M*29
$HCHDG,317.3,0.0,E,,*2F
$IIMWV,000,T,06.3,N,A*10
$HCHDG,317.2,0.0,E,,*2E
$IIRMB,A,,,,Shil,,,,,025.6,002,,V,A*28
$HCHDG,317.3,0.0,E,,*2F
$GPRMC,000040.4,A,4715.49394,N,12226.19786,W,000.00,354.8,110813,016.5,E,D*20
$PGRME,2.4,M,2.4,M,3.4,M*29
$HCHDG,317.3,0.0,E,,*2F
$IIRMC,000000,A,4715.493,N,12226.197,W,00.0,354,100813,16,E,A*13
$IIVHW,,,,,00.0,N,,*19
$HCHDG,317.2,0.0,E,,*2E
$GPRMC,000040.6,A,4715.49394,N,12226.19786,W,000.01,354.8,110813,016.5,E,D*23
$GPRMB,A,-1.10,L,,Shil,4741.0830,N,12224.5670,W,25.6,2,0.01,V*25
$PGRME,2.4,M,2.4,M,3.4,M*29
$IIVLW,02080,N,019.4,N*55
$IIVWR,000,R,06.4,N,,,,*63
$YXXDR,A,5.5,D,PTCH,A,2.5,D,ROLL*5A
$PTAK,FFD1,2.5*52
$IIDPT,011.9,-1.0,*49
$HCHDG,317.1,0.0,E,,*2D
$HCHDG,317.2,0.0,E,,*2E
$GPRMC,000040.8,A,4715.49394,N,12226.19786,W,000.01,354.8,110813,016.5,E,D*2D
$PGRME,2.4,M,2.4,M,3.4,M*29
$IIGLL,4715.493,N,12226.197,W,000000,A,A*41
$IIMTW,+17.5,C*3B
$HCHDG,317.3,0.0,E,,*2F
$HCHDG,317.2,0.0,E,,*2E
$GPRMC,000041.0,A,4715.49394,N,12226.19786,W,000.01,354.8,110813,016.5,E,D*24
$PGRME,2.4,M,2.4,M,3.4,M*29
$HCHDG,317.2,0.0,E,,*2E
$YXXDR,A,5.9,D,PTCH,A,2.3,D,ROLL*50
$GPRMC,000041.2,A,4715.49394,N,12226.19786,W,000.01,354.8,110813,016.5,E,D*26
$PGRME,2.4,M,2.4,M,3.4,M*29
$HCHDG,317.5,0.0,E,,*29
$IIMWV,000,R,06.4,N,A*11
$HCHDG,317.4,0.0,E,,*28
$IIMWV,000,T,06.4,N,A*17
$HCHDG,317.5,0.0,E,,*29
$GPRMC,000041.4,A,4715.49394,N,12226.19786,W,000.00,354.8,110813,016.5,E,D*21
$PGRME,2.4,M,2.4,M,3.4,M*29
$IIRMB,A,,,,Shil,,,,,025.6,002,,V,A*28
$HCHDG,317.6,0.0,E,,*2A
$IIRMC,000000,A,4715.493,N,12226.197,W,00.0,354,100813,16,E,A*13
$HCHDG,317.7,0.0,E,,*2B
$GPRMC,000041.6,A,4715.49394,N,12226.19786,W,000.02,354.8,110813,016.5,E,D*21
$IIVHW,,,,,00.0,N,,*19
$PGRME,2.4,M,2.4,M,3.4,M*29
$IIVLW,02080,N,019.4,N*55
$YXXDR,A,5.8,D,PTCH,A,2.4,D,ROLL*56
$HCHDG,317.7,0.0,E,,*2B
$IIVWR,000,R,06.4,N,,,,*63
$IIDPT,011.9,-1.0,*49
$HCHDG,317.8,0.0,E,,*24
$GPRMC,000041.8,A,4715.49394,N,12226.19786,W,000.01,354.8,110813,016.5,E,D*2C
$GPRMB,A,-1.10,L,,Shil,4741.0830,N,12224.5670,W,25.6,2,0.01,V*25
$PGRME,2.4,M,2.4,M,3.4,M*29
$HCHDG,317.6,0.0,E,,*2A
$HCHDG,317.7,0.0,E,,*2B
$GPRMC,000042.0,A,4715.49394,N,12226.19786,W,000.01,354.8,110813,016.5,E,D*27
$PGRME,2.4,M,2.4,M,3.4,M*29
$HCHDG,317.7,0.0,E,,*2B
$YXXDR,A,5.8,D,PTCH,A,2.1,D,ROLL*53
$PTAK,FFD1,2.1*56
$GPRMC,000042.2,A,4715.49394,N,12226.19786,W,000.01,354.8,110813,016.5,E,D*25
$PGRME,2.4,M,2.4,M,3.4,M*29
$HCHDG,317.8,0.0,E,,*24
$HCHDG,317.8,0.0,E,,*24
$HCHDG,317.7,0.0,E,,*2B
$GPRMC,000042.4,A,4715.49394,N,12226.19786,W,000.00,354.8,110813,016.5,E,D*22
$PTAK,FFP1,HEEL,@*07
$PGRME,2.4,M,2.4,M,3.4,M*29
$HCHDG,317.7,0.0,E,,*2B
$HCHDG,317.8,0.0,E,,*24
$GPRMC,000042.6,A,4715.49395,N,12226.19786,W,000.01,354.8,110813,016.5,E,D*20
$PGRME,2.4,M,2.4,M,3.4,M*29
$YXXDR,A,5.8,D,PTCH,A,1.9,D,ROLL*58
$HCHDG,317.6,0.0,E,,*2A
$HCHDG,317.7,0.0,E,,*2B
$GPRMC,000042.8,A,4715.49395,N,12226.19786,W,000.01,354.8,110813,016.5,E,D*2E
$GPRMB,A,-1.10,L,,Shil,4741.0830,N,12224.5670,W,25.6,2,0.01,V*25
$PGRME,2.4,M,2.4,M,3.4,M*29
$HCHDG,317.8,0.0,E,,*24
$HCHDG,317.8,0.0,E,,*24
$GPRMC,000043.0,A,4715.49395,N,12226.19786,W,000.01,354.8,110813,016.5,E,D*27
$PGRME,2.4,M,2.4,M,3.4,M*29
$HCHDG,317.5,0.0,E,,*29
$YXXDR,A,5.7,D,PTCH,A,1.9,D,ROLL*57
$GPRMC,000043.2,A,4715.49395,N,12226.19786,W,000.01,354.8,110813,016.5,E,D*25
$PGRME,2.4,M,2.4,M,3.4,M*29
$HCHDG,317.6,0.0,E,,*2A
$HCHDG,317.7,0.0,E,,*2B
$IIGLL,4715.493,N,12226.197,W,000000,A,A*41
$IIMTW,+17.5,C*3B
$HCHDG,317.7,0.0,E,,*2B
$GPRMC,000043.4,A,4715.49395,N,12226.19786,W,000.01,354.8,110813,016.5,E,D*23
$PGRME,2.4,M,2.4,M,3.4,M*29
$IIMWV,359,R,06.5,N,A*1F
$IIMWV,000,T,06.4,N,A*17
$HCHDG,317.8,0.0,E,,*24
$IIRMB,A,,,,Shil,,,,,025.6,002,,V,A*28
$HCHDG,317.8,0.0,E,,*24
$GPRMC,000043.6,A,4715.49395,N,12226.19786,W,000.00,354.8,110813,016.5,E,D*20
$PGRME,2.4,M,2.4,M,3.4,M*29
$YXXDR,A,5.6,D,PTCH,A,2.2,D,ROLL*5E
$PTAK,FFD1,2.2*55
$IIRMC,000000,A,4715.493,N,12226.197,W,00.0,354,100813,16,E,A*13
$HCHDG,317.9,0.0,E,,*25
$IIVHW,,,,,00.0,N,,*19
$HCHDG,317.9,0.0,E,,*25
$IIVLW,02080,N,019.4,N*55
$GPRMC,000043.8,A,4715.49395,N,12226.19786,W,000.01,354.8,110813,016.5,E,D*2F
$PGRME,2.4,M,2.4,M,3.4,M*29
$HCHDG,318.0,0.0,E,,*23
$HCHDG,318.0,0.0,E,,*23
$GPRMC,000044.0,A,4715.49395,N,12226.19786,W,000.01,354.8,110813,016.5,E,D*20
$GPRMB,A,-1.10,L,,Shil,4741.0830,N,12224.5670,W,25.6,2,0.01,V*25
$PGRME,2.4,M,2.4,M,3.4,M*29
$PGRMT,GPS 18x-5Hz software ver. 3.20,,,,,,,,*30
$HCHDG,318.0,0.0,E,,*23
$YXXDR,A,5.9,D,PTCH,A,1.9,D,ROLL*59
$GPRMC,000044.2,A,4715.49395,N,12226.19786,W,000.00,354.8,110813,016.5,E,D*23
$PGRME,2.4,M,2.4,M,3.4,M*29
$HCHDG,317.8,0.0,E,,*24
$HCHDG,317.8,0.0,E,,*24
$IIVWR,001,L,06.6,N,,,,*7E
$IIDPT,011.9,-1.0,*49
$HCHDG,317.8,0.0,E,,*24
$GPRMC,000044.4,A,4715.49395,N,12226.19786,W,000.02,354.8,110813,016.5,E,D*27
$PGRME,2.4,M,2.4,M,3.4,M*29
$IIGLL,4715.493,N,12226.197,W,000000,A,A*41
$IIMTW,+17.5,C*3B
$HCHDG,317.8,0.0,E,,*24
$IIMWV,359,R,06.6,N,A*1C
$IIMWV,359,T,06.5,N,A*19
$HCHDG,317.8,0.0,E,,*24
$GPRMC,000044.6,A,4715.49395,N,12226.19786,W,000.01,354.8,110813,016.5,E,D*26
$PGRME,2.4,M,2.4,M,3.4,M*29
$IIRMB,A,,,,Shil,,,,,025.6,002,,V,A*28
$YXXDR,A,5.7,D,PTCH,A,2.1,D,ROLL*5C
$PTAK,FFD1,2.1*56
$HCHDG,317.8,0.0,E,,*24
$HCHDG,317.7,0.0,E,,*2B
$IIRMC,000000,A,4715.493,N,12226.197,W,00.0,354,100813,16,E,A*13
$GPRMC,000044.8,A,4715.49395,N,12226.19786,W,000.01,354.8,110813,016.5,E,D*28
$PGRME,2.4,M,2.4,M,3.4,M*29
$HCHDG,317.5,0.0,E,,*29
$HCHDG,317.6,0.0,E,,*2A
$GPRMC,000045.0,A,4715.49395,N,12226.19786,W,000.00,354.8,110813,016.5,E,D*20
$GPRMB,A,-1.10,L,,Shil,4741.0830,N,12224.5670,W,25.6,2,0.00,V*24
$PGRME,2.4,M,2.4,M,3.4,M*29
$HCHDG,317.6,0.0,E,,*2A
$YXXDR,A,5.5,D,PTCH,A,2.2,D,ROLL*5D
$GPRMC,000045.2,A,4715.49395,N,12226.19786,W,000.01,354.8,110813,016.5,E,D*23
$PGRME,2.4,M,2.4,M,3.4,M*29
$HCHDG,317.7,0.0,E,,*2B
$IIVHW,,,,,00.0,N,,*19
$HCHDG,317.8,0.0,E,,*24
$IIVLW,02080,N,019.4,N*55
$HCHDG,317.8,0.0,E,,*24
$IIVWR,002,L,06.6,N,,,,*7D
$GPRMC,000045.4,A,4715.49396,N,12226.19786,W,000.00,354.8,110813,016.5,E,D*27
$PGRME,2.4,M,2.4,M,3.4,M*29
$IIDPT,011.9,-1.0,*49
$HCHDG,317.7,0.0,E,,*2B
$IIGLL,4715.493,N,12226.197,W,000000,A,A*41
$IIMTW,+17.5,C*3B
$HCHDG,317.7,0.0,E,,*2B
$GPRMC,000045.6,A,4715.49396,N,12226.19786,W,000.01,354.8,110813,016.5,E,D*24
$PGRME,2.4,M,2.4,M,3.4,M*29
$IIMWV,358,R,06.6,N,A*1D
$YXXDR,A,5.9,D,PTCH,A,2.4,D,ROLL*57
$IIMWV,359,T,06.6,N,A*1A
$HCHDG,317.7,0.0,E,,*2B
$IIRMB,A,,,,Shil,,,,,025.6,002,,V,A*28
$HCHDG,317.6,0.0,E,,*2A
$GPRMC,000045.8,A,4715.49396,N,12226.19786,W,000.01,354.8,110813,016.5,E,D*2A
$PGRME,2.4,M,2.4,M,3.4,M*29
$HCHDG,317.8,0.0,E,,*24
$HCHDG,317.8,0.0,E,,*24
$GPRMC,000046.0,A,4715.49395,N,12226.19786,W,000.01,354.8,110813,016.5,E,D*22
$GPRMB,A,-1.10,L,,Shil,4741.0830,N,12224.5670,W,25.6,2,0.01,V*25
$PGRME,2.4,M,2.4,M,3.4,M*29
$HCHDG,317.9,0.0,E,,*25
$YXXDR,A,5.7,D,PTCH,A,2.6,D,ROLL*5B
$PTAK,FFD1,2.6*51
$GPRMC,000046.2,A,4715.49395,N,12226.19786,W,000.01,354.8,110813,016.5,E,D*20
$PGRME,2.4,M,2.4,M,3.4,M*29
$HCHDG,317.9,0.0,E,,*25
$HCHDG,317.9,0.0,E,,*25
$IIRMC,000000,A,4715.493,N,12226.197,W,00.0,354,100813,16,E,A*13
$HCHDG,317.9,0.0,E,,*25
$GPRMC,000046.4,A,4715.49396,N,12226.19786,W,000.01,354.8,110813,016.5,E,D*25
$PTAK,FFP1,HEEL,@*07
$PGRME,2.4,M,2.4,M,3.4,M*29
$IIVHW,,,,,00.0,N,,*19
$IIVLW,02080,N,019.4,N*55
$HCHDG,317.9,0.0,E,,*25
$IIVWR,002,L,06.6,N,,,,*7D
$IIDPT,011.9,-1.0,*49
$HCHDG,317.7,0.0,E,,*2B
$GPRMC,000046.6,A,4715.49396,N,12226.19786,W,000.01,354.8,110813,016.5,E,D*27
$PGRME,2.4,M,2.4,M,3.4,M*29
$YXXDR,A,5.6,D,PTCH,A,1.8,D,ROLL*57
$IIGLL,4715.493,N,12226.197,W,000000,A,A*41
$IIMTW,+17.5,C*3B
$HCHDG,317.8,0.0,E,,*24
$IIMWV,358,R,06.6,N,A*1D
$HCHDG,317.8,0.0,E,,*24
$GPRMC,000046.8,A,4715.49396,N,12226.19786,W,000.01,354.8,110813,016.5,E,D*29
$PGRME,2.4,M,2.4,M,3.4,M*29
$IIMWV,358,T,06.6,N,A*1B
$HCHDG,317.8,0.0,E,,*24
$HCHDG,317.8,0.0,E,,*24
$GPRMC,000047.0,A,4715.49396,N,12226.19786,W,000.01,354.8,110813,016.5,E,D*20
$PGRME,2.4,M,2.4,M,3.4,M*29
$HCHDG,317.9,0.0,E,,*25
$YXXDR,A,5.8,D,PTCH,A,2.3,D,ROLL*51
$GPRMC,000047.2,A,4715.49396,N,12226.19786,W,000.01,354.8,110813,016.5,E,D*22
$GPRMB,A,-1.10,L,,Shil,4741.0830,N,12224.5670,W,25.6,2,0.01,V*25
$PGRME,2.4,M,2.4,M,3.4,M*29
$HCHDG,317.9,0.0,E,,*25
$HCHDG,318.0,0.0,E,,*23
$IIRMB,A,,,,Shil,,,,,025.6,002,,V,A*28
$HCHDG,318.1,0.0,E,,*22
$GPRMC,000047.4,A,4715.49396,N,12226.19786,W,000.00,354.8,110813,016.5,E,D*25
$PGRME,2.4,M,2.4,M,3.4,M*29
$IIRMC,000000,A,4715.493,N,12226.197,W,00.0,354,100813,16,E,A*13
$HCHDG,318.0,0.0,E,,*23
$IIVHW,,,,,00.0,N,,*19
$IIVLW,02080,N,019.4,N*55
$HCHDG,318.1,0.0,E,,*22
$GPRMC,000047.6,A,4715.49396,N,12226.19786,W,000.01,354.8,110813,016.5,E,D*26
$PGRME,2.4,M,2.4,M,3.4,M*29
$IIVWR,000,R,06.6,N,,,,*61
$IIDPT,011.9,-1.0,*49
$YXXDR,A,6.0,D,PTCH,A,2.8,D,ROLL*51
$PTAK,FFD1,2.8*5F
$HCHDG,317.9,0.0,E,,*25
$IIGLL,4715.493,N,12226.197,W,000000,A,A*41
$HCHDG,318.0,0.0,E,,*23
$IIMTW,+17.5,C*3B
$GPRMC,000047.8,A,4715.49396,N,12226.19786,W,000.01,354.8,110813,016.5,E,D*28
$PGRME,2.4,M,2.4,M,3.4,M*29
$IIMWV,000,R,06.6,N,A*13
$HCHDG,317.9,0.0,E,,*25
$HCHDG,318.0,0.0,E,,*23
$GPRMC,000048.0,A,4715.49396,N,12226.19786,W,000.01,354.8,110813,016.5,E,D*2F
$PGRME,2.4,M,2.4,M,3.4,M*29
$HCHDG,317.8,0.0,E,,*24
$YXXDR,A,5.8,D,PTCH,A,3.5,D,ROLL*56
$GPRMC,000048.2,A,4715.49396,N,12226.19786,W,000.01,354.8,110813,016.5,E,D*2D
$PGRME,2.4,M,2.4,M,3.4,M*29
$HCHDG,318.0,0.0,E,,*23
$IIMWV,000,T,06.6,N,A*15
$HCHDG,317.9,0.0,E,,*25
$IIRMB,A,,,,Shil,,,,,025.6,002,,V,A*28
$HCHDG,317.9,0.0,E,,*25
$GPRMC,000048.4,A,4715.49396,N,12226.19786,W,000.00,354.8,110813,016.5,E,D*2A
$GPRMB,A,-1.10,L,,Shil,4741.0830,N,12224.5670,W,25.6,2,0.00,V*24
$PGRME,2.4,M,2.4,M,3.4,M*29
$HCHDG,318.0,0.0,E,,*23
$IIRMC,000000,A,4715.493,N,12226.197,W,00.0,354,100813,16,E,A*13
$IIVHW,,,,,00.0,N,,*19
$HCHDG,317.8,0.0,E,,*24
$GPRMC,000048.6,A,4715.49396,N,12226.19786,W,000.01,354.8,110813,016.5,E,D*29
$PGRME,2.4,M,2.4,M,3.4,M*29
$IIVLW,02080,N,019.4,N*55
$YXXDR,A,5.9,D,PTCH,A,3.6,D,ROLL*54
$PTAK,FFD1,3.6*50
$IIVWR,001,R,06.7,N,,,,*61
$IIDPT,011.9,-1.0,*49
$HCHDG,317.9,0.0,E,,*25
$HCHDG,317.9,0.0,E,,*25
$GPRMC,000048.8,A,4715.49396,N,12226.19786,W,000.00,354.8,110813,016.5,E,D*26
$PGRME,2.4,M,2.4,M,3.4,M*29
$IIGLL,4715.493,N,12226.197,W,000000,A,A*41
$IIMTW,+17.5,C*3B
$HCHDG,317.8,0.0,E,,*24
$HCHDG,317.9,0.0,E,,*25
$GPRMC,000049.0,A,4715.49396,N,12226.19786,W,000.01,354.8,110813,016.5,E,D*2E
$PGRME,2.4,M,2.4,M,3.4,M*29
$HCHDG,317.7,0.0,E,,*2B
$YXXDR,A,6.1,D,PTCH,A,4.0,D,ROLL*5E
$GPRMC,000049.2,A,4715.49396,N,12226.19786,W,000.01,354.8,110813,016.5,E,D*2C
$PGRME,2.4,M,2.4,M,3.4,M*29
$HCHDG,317.8,0.0,E,,*24
$IIMWV,000,R,06.7,N,A*12
$HCHDG,318.0,0.0,E,,*23
$IIMWV,001,T,06.7,N,A*15
$HCHDG,317.9,0.0,E,,*25
$GPRMC,000049.4,A,4715.49396,N,12226.19786,W,000.01,354.8,110813,016.5,E,D*2A
$GPRMB,A,-1.10,L,,Shil,4741.0830,N,12224.5670,W,25.6,2,0.01,V*25
$PGRME,2.4,M,2.4,M,3.4,M*29
$IIRMB,A,,,,Shil,,,,,025.6,002,,V,A*28
$HCHDG,317.9,0.0,E,,*25
$IIRMC,000000,A,4715.493,N,12226.197,W,00.0,354,100813,16,E,A*13
$HCHDG,318.0,0.0,E,,*23
$GPRMC,000049.6,A,4715.49396,N,12226.19786,W,000.01,354.8,110813,016.5,E,D*28
$IIVHW,,,,,00.0,N,,*19
