$GPRMB,A,2.49,L,,Oh,4814.8080,N,12233.9900,W,30.7,185,2.14,V*15
$PTAK,FFP1,HEEL,@*07
$PGRME,3.0,M,8.0,M,8.6,M*2B
$HCHDG,177.7,0.0,E,,*2F
$PTAK,FFP1,HEEL,@*07
$HCHDG,177.7,0.0,E,,*2F
$GPRMC,164649.2,A,4845.40338,N,12230.25338,W,002.35,190.3,310813,016.9,E,A*28
$GPRMB,A,2.49,L,,Oh,4814.8080,N,12233.9900,W,30.7,185,2.34,V*17
$PGRME,3.0,M,7.9,M,8.5,M*2E
$YXXDR,A,6.0,D,PTCH,A,3.5,D,ROLL*5D
$PTAK,FFD1,3.5*53
$HCHDG,177.8,0.0,E,,*20
$HCHDG,177.7,0.0,E,,*2F
$GPRMC,164649.4,A,4845.40325,N,12230.25342,W,002.24,186.9,310813,016.9,E,A*22
$PGRME,3.0,M,7.8,M,8.4,M*2E
$HCHDG,177.9,0.0,E,,*21
$HCHDG,177.7,0.0,E,,*2F
$GPRMC,164649.6,A,4845.40310,N,12230.25346,W,002.37,192.0,310813,016.9,E,A*2C
$PGRME,3.0,M,7.8,M,8.4,M*2E
$HCHDG,177.9,0.0,E,,*21
$YXXDR,A,6.2,D,PTCH,A,4.1,D,ROLL*5C
$HCHDG,177.7,0.0,E,,*2F
$GPRMC,164649.8,A,4845.40291,N,12230.25353,W,002.22,190.3,310813,016.9,E,A*2B
$PGRME,3.0,M,7.7,M,8.3,M*26
$HCHDG,178.1,0.0,E,,*26
$HCHDG,178.3,0.0,E,,*24
$GPRMC,164650.0,A,4845.40271,N,12230.25359,W,002.30,192.2,310813,016.9,E,A*2F
$PGRME,3.0,M,7.6,M,8.2,M*26
$HCHDG,178.5,0.0,E,,*22
$HCHDG,178.6,0.0,E,,*21
$GPRMC,164650.2,A,4845.40253,N,12230.25392,W,002.35,193.4,310813,016.9,E,A*28
$PGRME,3.0,M,7.4,M,8.0,M*26
$YXXDR,A,6.0,D,PTCH,A,3.8,D,ROLL*50
$HCHDG,178.8,0.0,E,,*2F
$HCHDG,179.1,0.0,E,,*27
$GPRMC,164650.4,A,4845.40235,N,12230.25412,W,002.33,194.4,310813,016.9,E,A*20
$PGRME,3.0,M,7.1,M,7.7,M*2B
$HCHDG,179.2,0.0,E,,*24
$HCHDG,179.4,0.0,E,,*22
$GPRMC,164650.6,A,4845.40226,N,12230.25413,W,002.30,194.7,310813,016.9,E,A*21
$PGRME,3.0,M,6.9,M,7.5,M*20
$HCHDG,179.7,0.0,E,,*21
$YXXDR,A,6.1,D,PTCH,A,3.7,D,ROLL*5E
$HCHDG,179.8,0.0,E,,*2E
$GPRMC,164650.8,A,4845.40212,N,12230.25432,W,002.22,197.8,310813,016.9,E,A*24
$PGRME,3.0,M,6.6,M,7.3,M*29
$HCHDG,180.0,0.0,E,,*20
$HCHDG,179.8,0.0,E,,*2E
$GPRMC,164651.0,A,4845.40194,N,12230.25451,W,002.29,196.4,310813,016.9,E,A*23
$PGRME,3.0,M,6.5,M,7.2,M*2B
$HCHDG,179.8,0.0,E,,*2E
$HCHDG,180.2,0.0,E,,*22
$GPRMC,164651.2,A,4845.40181,N,12230.25466,W,002.21,198.2,310813,016.9,E,A*21
$PGRME,3.0,M,6.3,M,7.0,M*2F
$YXXDR,A,6.1,D,PTCH,A,3.9,D,ROLL*50
$HCHDG,180.3,0.0,E,,*23
$HCHDG,180.2,0.0,E,,*22
$GPRMC,164651.4,A,4845.40160,N,12230.25498,W,002.25,194.2,310813,016.9,E,A*21
$PGRME,3.0,M,6.2,M,6.9,M*26
$HCHDG,180.3,0.0,E,,*23
$HCHDG,180.1,0.0,E,,*21
$GPRMC,164651.6,A,4845.40153,N,12230.25514,W,002.32,195.9,310813,016.9,E,A*2A
$PGRME,3.0,M,6.1,M,6.8,M*24
$HCHDG,180.3,0.0,E,,*23
$YXXDR,A,6.0,D,PTCH,A,4.2,D,ROLL*5D
$HCHDG,180.1,0.0,E,,*21
$GPRMC,164651.8,A,4845.40138,N,12230.25524,W,002.28,199.2,310813,016.9,E,A*26
$PGRME,3.0,M,6.0,M,6.7,M*2A
$HCHDG,180.2,0.0,E,,*22
$HCHDG,180.4,0.0,E,,*24
$GPRMC,164652.0,A,4845.40126,N,12230.25520,W,002.24,196.6,310813,016.9,E,A*21
$PGRME,3.0,M,5.8,M,6.6,M*20
$HCHDG,180.4,0.0,E,,*24
$HCHDG,180.4,0.0,E,,*24
$GPRMC,164652.2,A,4845.40112,N,12230.25502,W,002.21,197.1,310813,016.9,E,A*27
$PGRME,3.0,M,5.7,M,6.4,M*2D
$YXXDR,A,6.1,D,PTCH,A,3.9,D,ROLL*50
$PTAK,FFD1,3.9*5F
$HCHDG,180.4,0.0,E,,*24
$HCHDG,180.7,0.0,E,,*27
$GPRMC,164652.4,A,4845.40104,N,12230.25511,W,002.45,199.0,310813,016.9,E,A*29
$GPRMB,A,2.49,L,,Oh,4814.8080,N,12233.9900,W,30.7,185,2.37,V*14
$PGRME,3.0,M,5.5,M,6.3,M*28
$HCHDG,180.8,0.0,E,,*28
$HCHDG,180.7,0.0,E,,*27
$GPRMC,164652.6,A,4845.40089,N,12230.25511,W,002.20,200.9,310813,016.9,E,A*26
$PGRME,3.0,M,5.5,M,6.3,M*28
$HCHDG,180.7,0.0,E,,*27
$YXXDR,A,6.2,D,PTCH,A,3.3,D,ROLL*59
$HCHDG,180.8,0.0,E,,*28
$GPRMC,164652.8,A,4845.40085,N,12230.25517,W,002.28,197.5,310813,016.9,E,A*2B
$PGRME,3.0,M,5.4,M,6.2,M*28
$HCHDG,180.8,0.0,E,,*28
$HCHDG,180.6,0.0,E,,*26
$GPRMC,164653.0,A,4845.40074,N,12230.25525,W,002.29,198.4,310813,016.9,E,A*22
$PGRME,3.0,M,5.3,M,6.1,M*2C
$HCHDG,180.7,0.0,E,,*27
$HCHDG,180.6,0.0,E,,*26
$GPRMC,164653.2,A,4845.40051,N,12230.25526,W,002.27,199.2,310813,016.9,E,A*2D
$PGRME,3.0,M,5.3,M,6.1,M*2C
$YXXDR,A,6.2,D,PTCH,A,3.5,D,ROLL*5F
$HCHDG,180.5,0.0,E,,*25
$HCHDG,180.6,0.0,E,,*26
$GPRMC,164653.4,A,4845.40033,N,12230.25528,W,002.37,202.0,310813,016.9,E,A*23
$PGRME,3.0,M,5.2,M,6.0,M*2C
$HCHDG,180.4,0.0,E,,*24
$HCHDG,180.6,0.0,E,,*26
$GPRMC,164653.6,A,4845.40015,N,12230.25533,W,002.25,206.3,310813,016.9,E,A*2B
$PGRME,3.0,M,5.1,M,6.0,M*2F
$HCHDG,180.6,0.0,E,,*26
$YXXDR,A,6.0,D,PTCH,A,3.3,D,ROLL*5B
$HCHDG,181.0,0.0,E,,*21
$GPRMC,164653.8,A,4845.40004,N,12230.25541,W,002.31,205.5,310813,016.9,E,A*20
$PGRME,3.0,M,5.1,M,6.0,M*2F
$HCHDG,180.8,0.0,E,,*28
$HCHDG,180.8,0.0,E,,*28
$GPRMC,164654.0,A,4845.39993,N,12230.25547,W,002.48,200.5,310813,016.9,E,A*2B
$GPRMB,A,2.49,L,,Oh,4814.8080,N,12233.9900,W,30.7,185,2.39,V*1A
$PGRME,3.0,M,5.1,M,6.0,M*2F
$HCHDG,180.5,0.0,E,,*25
$HCHDG,180.6,0.0,E,,*26
$GPRMC,164654.2,A,4845.39978,N,12230.25542,W,002.22,203.1,310813,016.9,E,A*22
$PGRME,3.0,M,5.1,M,6.0,M*2F
$YXXDR,A,6.0,D,PTCH,A,4.0,D,ROLL*5F
$PTAK,FFD1,4.0*51
$HCHDG,180.4,0.0,E,,*24
$HCHDG,180.2,0.0,E,,*22
$GPRMC,164654.4,A,4845.39961,N,12230.25550,W,002.40,198.1,310813,016.9,E,A*2A
$PGRME,3.0,M,5.1,M,5.9,M*25
$HCHDG,179.7,0.0,E,,*21
$HCHDG,179.3,0.0,E,,*25
$GPRMC,164654.6,A,4845.39944,N,12230.25550,W,002.17,201.7,310813,016.9,E,A*28
$PGRME,3.0,M,5.1,M,5.9,M*25
$HCHDG,179.2,0.0,E,,*24
$YXXDR,A,5.9,D,PTCH,A,5.6,D,ROLL*52
$HCHDG,179.4,0.0,E,,*22
$GPRMC,164654.8,A,4845.39930,N,12230.25565,W,002.23,203.6,310813,016.9,E,A*27
$PGRME,3.0,M,5.1,M,5.9,M*25
$HCHDG,179.4,0.0,E,,*22
$HCHDG,179.3,0.0,E,,*25
$GPRMC,164655.0,A,4845.39921,N,12230.25573,W,002.44,194.2,310813,016.9,E,A*21
$PGRME,3.0,M,5.1,M,5.9,M*25
$HCHDG,179.5,0.0,E,,*23
$HCHDG,179.3,0.0,E,,*25
$GPRMC,164655.2,A,4845.39908,N,12230.25592,W,002.24,202.5,310813,016.9,E,A*2A
$GPRMB,A,2.49,L,,Oh,4814.8080,N,12233.9900,W,30.7,185,2.13,V*12
$PGRME,3.0,M,5.1,M,5.9,M*25
$YXXDR,A,5.9,D,PTCH,A,5.4,D,ROLL*50
$HCHDG,179.4,0.0,E,,*22
$HCHDG,179.3,0.0,E,,*25
$GPRMC,164655.4,A,4845.39893,N,12230.25600,W,002.25,202.0,310813,016.9,E,A*23
$PGRME,3.0,M,5.0,M,5.9,M*24
$HCHDG,179.5,0.0,E,,*23
$HCHDG,179.5,0.0,E,,*23
$GPRMC,164655.6,A,4845.39874,N,12230.25601,W,002.28,200.1,310813,016.9,E,A*27
$PGRME,3.0,M,5.0,M,5.9,M*24
$HCHDG,179.4,0.0,E,,*22
$YXXDR,A,6.1,D,PTCH,A,5.4,D,ROLL*5B
$PTAK,FFD1,5.4*54
$HCHDG,179.4,0.0,E,,*22
$GPRMC,164655.8,A,4845.39859,N,12230.25617,W,002.37,202.3,310813,016.9,E,A*2F
$PGRME,3.0,M,5.0,M,5.9,M*24
$HCHDG,179.4,0.0,E,,*22
$PTAK,FFP1,HEEL,@*07
$HCHDG,179.6,0.0,E,,*20
$GPRMC,164656.0,A,4845.39838,N,12230.25623,W,002.36,195.1,310813,016.9,E,A*2A
$PGRME,3.0,M,5.0,M,5.8,M*25
$HCHDG,179.4,0.0,E,,*22
$HCHDG,179.3,0.0,E,,*25
$GPRMC,164656.2,A,4845.39829,N,12230.25683,W,002.24,201.0,310813,016.9,E,A*2E
$PGRME,3.0,M,4.9,M,5.8,M*2D
$YXXDR,A,6.1,D,PTCH,A,5.6,D,ROLL*59
$HCHDG,179.3,0.0,E,,*25
$HCHDG,179.2,0.0,E,,*24
$GPRMC,164656.4,A,4845.39812,N,12230.25737,W,002.31,200.9,310813,016.9,E,A*22
$GPRMB,A,2.49,L,,Oh,4814.8080,N,12233.9900,W,30.7,185,2.22,V*10
$PGRME,3.0,M,4.8,M,5.7,M*23
$HCHDG,178.9,0.0,E,,*2E
$HCHDG,179.0,0.0,E,,*26
$GPRMC,164656.6,A,4845.39788,N,12230.25773,W,002.41,197.5,310813,016.9,E,A*2A
$PGRME,3.0,M,4.8,M,5.7,M*23
$HCHDG,179.0,0.0,E,,*26
$YXXDR,A,6.2,D,PTCH,A,5.6,D,ROLL*5A
$PTAK,FFD1,5.6*56
$HCHDG,179.1,0.0,E,,*27
$GPRMC,164656.8,A,4845.39769,N,12230.25796,W,002.32,200.0,310813,016.9,E,A*2C
$PGRME,3.0,M,4.7,M,5.6,M*2D
$HCHDG,179.2,0.0,E,,*24
$HCHDG,179.0,0.0,E,,*26
$GPRMC,164657.0,A,4845.39755,N,12230.25800,W,002.18,200.8,310813,016.9,E,A*2A
$PGRME,3.0,M,4.7,M,5.6,M*2D
$HCHDG,178.7,0.0,E,,*20
$HCHDG,178.4,0.0,E,,*23
$GPRMC,164657.2,A,4845.39744,N,12230.25803,W,002.40,194.9,310813,016.9,E,A*29
$PGRME,3.0,M,4.6,M,5.6,M*2C
$YXXDR,A,6.1,D,PTCH,A,5.9,D,ROLL*56
$HCHDG,178.4,0.0,E,,*23
$HCHDG,178.4,0.0,E,,*23
$GPRMC,164657.4,A,4845.39739,N,12230.25802,W,002.26,196.7,310813,016.9,E,A*28
$PGRME,3.0,M,4.6,M,5.5,M*2F
$HCHDG,178.3,0.0,E,,*24
$HCHDG,178.4,0.0,E,,*23
$GPRMC,164657.6,A,4845.39726,N,12230.25805,W,002.29,195.9,310813,016.9,E,A*21
$GPRMB,A,2.49,L,,Oh,4814.8080,N,12233.9900,W,30.7,185,2.25,V*17
$PGRME,3.0,M,4.6,M,5.5,M*2F
$HCHDG,178.5,0.0,E,,*22
$YXXDR,A,6.1,D,PTCH,A,5.1,D,ROLL*5E
$PTAK,FFD1,5.1*51
$HCHDG,178.5,0.0,E,,*22
$GPRMC,164657.8,A,4845.39704,N,12230.25816,W,002.21,197.9,310813,016.9,E,A*27
$PGRME,3.0,M,4.5,M,5.5,M*2C
$HCHDG,178.6,0.0,E,,*21
$HCHDG,178.6,0.0,E,,*21
$GPRMC,164658.0,A,4845.39692,N,12230.25838,W,002.31,194.1,310813,016.9,E,A*28
$PGRME,3.0,M,4.5,M,5.5,M*2C
$HCHDG,178.5,0.0,E,,*22
$HCHDG,178.5,0.0,E,,*22
$GPRMC,164658.2,A,4845.39670,N,12230.25844,W,002.36,195.0,310813,016.9,E,A*2A
$PGRME,3.0,M,4.5,M,5.4,M*2D
$YXXDR,A,6.0,D,PTCH,A,4.6,D,ROLL*59
$HCHDG,178.4,0.0,E,,*23
$HCHDG,178.2,0.0,E,,*25
$GPRMC,164658.4,A,4845.39663,N,12230.25841,W,002.24,193.6,310813,016.9,E,A*28
$PGRME,3.0,M,4.4,M,5.4,M*2C
$HCHDG,178.4,0.0,E,,*23
$HCHDG,178.4,0.0,E,,*23
$GPRMC,164658.6,A,4845.39649,N,12230.25850,W,002.32,195.8,310813,016.9,E,A*2D
$GPRMB,A,2.49,L,,Oh,4814.8080,N,12233.9900,W,30.7,185,2.28,V*1A
$PGRME,3.0,M,4.4,M,5.4,M*2C
$HCHDG,178.5,0.0,E,,*22
$YXXDR,A,6.0,D,PTCH,A,4.4,D,ROLL*5B
$PTAK,FFD1,4.4*55
$HCHDG,178.7,0.0,E,,*20
$GPRMC,164658.8,A,4845.39640,N,12230.25841,W,002.24,196.8,310813,016.9,E,A*2E
$PGRME,3.0,M,4.4,M,5.3,M*2B
$HCHDG,178.8,0.0,E,,*2F
$HCHDG,178.8,0.0,E,,*2F
$GPRMC,164659.0,A,4845.39628,N,12230.25839,W,002.37,195.9,310813,016.9,E,A*26
$PGRME,3.0,M,4.4,M,5.3,M*2B
$HCHDG,178.9,0.0,E,,*2E
$HCHDG,179.1,0.0,E,,*27
$GPRMC,164659.2,A,4845.39610,N,12230.25835,W,002.25,193.6,310813,016.9,E,A*29
$PGRME,3.0,M,4.4,M,5.3,M*2B
$YXXDR,A,6.1,D,PTCH,A,4.0,D,ROLL*5E
$HCHDG,179.3,0.0,E,,*25
$HCHDG,179.2,0.0,E,,*24
$GPRMC,164659.4,A,4845.39595,N,12230.25843,W,002.31,197.3,310813,016.9,E,A*24
$PGRME,3.0,M,4.3,M,5.3,M*2C
$HCHDG,179.3,0.0,E,,*25
$HCHDG,179.5,0.0,E,,*23
$GPRMC,164659.6,A,4845.39583,N,12230.25871,W,002.25,198.0,310813,016.9,E,A*29
$GPRMB,A,2.49,L,,Oh,4814.8080,N,12233.9900,W,30.7,185,2.19,V*18
$PGRME,3.0,M,4.3,M,5.3,M*2C
$HCHDG,179.5,0.0,E,,*23
$YXXDR,A,6.1,D,PTCH,A,4.1,D,ROLL*5F
$PTAK,FFD1,4.1*50
$HCHDG,179.5,0.0,E,,*23
$GPRMC,164659.8,A,4845.39574,N,12230.25892,W,002.21,194.2,310813,016.9,E,A*28
$PGRME,3.0,M,4.3,M,5.3,M*2C
$HCHDG,179.5,0.0,E,,*23
$PTAK,FFP1,HEEL,@*07
$HCHDG,179.8,0.0,E,,*2E
$GPRMC,164700.0,A,4845.39565,N,12230.25897,W,002.31,198.1,310813,016.9,E,A*26
$PGRME,3.0,M,4.3,M,5.3,M*2C
$HCHDG,179.8,0.0,E,,*2E
$HCHDG,179.9,0.0,E,,*2F
$GPRMC,164700.2,A,4845.39547,N,12230.25890,W,002.24,195.4,310813,016.9,E,A*2F
$PGRME,3.0,M,4.3,M,5.3,M*2C
$YXXDR,A,6.0,D,PTCH,A,4.0,D,ROLL*5F
$HCHDG,179.6,0.0,E,,*20
$HCHDG,179.6,0.0,E,,*20
$GPRMC,164700.4,A,4845.39529,N,12230.25875,W,002.26,197.0,310813,016.9,E,A*2E
$PGRME,3.0,M,4.3,M,5.3,M*2C
$HCHDG,179.8,0.0,E,,*2E
$HCHDG,179.8,0.0,E,,*2E
$GPRMC,164700.6,A,4845.39509,N,12230.25875,W,002.34,192.4,310813,016.9,E,A*2C
$PGRME,3.0,M,4.3,M,5.3,M*2C
$HCHDG,179.7,0.0,E,,*21
$YXXDR,A,6.0,D,PTCH,A,4.5,D,ROLL*5A
$HCHDG,179.7,0.0,E,,*21
$GPRMC,164700.8,A,4845.39496,N,12230.25878,W,002.21,197.5,310813,016.9,E,A*28
$GPRMB,A,2.49,L,,Oh,4814.8080,N,12233.9900,W,30.7,185,2.15,V*14
$PGRME,3.0,M,4.3,M,5.3,M*2C
$HCHDG,179.8,0.0,E,,*2E
$HCHDG,179.8,0.0,E,,*2E
$GPRMC,164701.0,A,4845.39489,N,12230.25880,W,002.26,194.4,310813,016.9,E,A*2D
$PGRME,3.0,M,4.3,M,5.3,M*2C
$HCHDG,179.8,0.0,E,,*2E
$HCHDG,179.8,0.0,E,,*2E
$GPRMC,164701.2,A,4845.39478,N,12230.25893,W,002.28,199.4,310813,016.9,E,A*20
$PGRME,3.0,M,4.3,M,5.3,M*2C
$YXXDR,A,6.0,D,PTCH,A,4.2,D,ROLL*5D
$PTAK,FFD1,4.2*53
$HCHDG,180.1,0.0,E,,*21
$HCHDG,180.1,0.0,E,,*21
$GPRMC,164701.4,A,4845.39466,N,12230.25905,W,002.24,195.6,310813,016.9,E,A*25
$PGRME,3.0,M,4.3,M,5.2,M*2D
$HCHDG,180.1,0.0,E,,*21
$HCHDG,180.1,0.0,E,,*21
$GPRMC,164701.6,A,4845.39442,N,12230.25923,W,002.37,194.4,310813,016.9,E,A*24
$PGRME,3.0,M,4.2,M,5.2,M*2C
$HCHDG,180.0,0.0,E,,*20
$YXXDR,A,6.1,D,PTCH,A,4.0,D,ROLL*5E
$HCHDG,180.0,0.0,E,,*20
$GPRMC,164701.8,A,4845.39432,N,12230.25939,W,002.19,197.7,310813,016.9,E,A*2A
$GPRMB,A,2.49,L,,Oh,4814.8080,N,12233.9900,W,30.7,185,2.13,V*12
$PGRME,3.0,M,4.2,M,5.2,M*2C
$HCHDG,180.1,0.0,E,,*21
$HCHDG,180.1,0.0,E,,*21
$GPRMC,164702.0,A,4845.39426,N,12230.25945,W,002.25,193.8,310813,016.9,E,A*2B
$PGRME,3.0,M,4.2,M,5.2,M*2C
$HCHDG,180.3,0.0,E,,*23
$HCHDG,180.3,0.0,E,,*23
$GPRMC,164702.2,A,4845.39418,N,12230.25950,W,002.25,195.7,310813,016.9,E,A*29
$PGRME,3.0,M,4.2,M,5.2,M*2C
$YXXDR,A,6.1,D,PTCH,A,4.1,D,ROLL*5F
$PTAK,FFD1,4.1*50
$HCHDG,180.2,0.0,E,,*22
$HCHDG,180.3,0.0,E,,*23
$GPRMC,164702.4,A,4845.39409,N,12230.25947,W,002.29,196.4,310813,016.9,E,A*25
$PGRME,3.0,M,4.1,M,5.1,M*2C
$HCHDG,180.2,0.0,E,,*22
$HCHDG,180.4,0.0,E,,*24
$GPRMC,164702.6,A,4845.39387,N,12230.25952,W,002.28,195.1,310813,016.9,E,A*25
$PGRME,3.0,M,4.1,M,5.1,M*2C
$HCHDG,180.4,0.0,E,,*24
$YXXDR,A,6.1,D,PTCH,A,3.9,D,ROLL*50
$HCHDG,180.4,0.0,E,,*24
$GPRMC,164702.8,A,4845.39371,N,12230.25947,W,002.27,194.4,310813,016.9,E,A*2D
$PGRME,3.0,M,4.1,M,5.1,M*2C
$HCHDG,180.4,0.0,E,,*24
$HCHDG,180.4,0.0,E,,*24
$GPRMC,164703.0,A,4845.39362,N,12230.25962,W,002.25,197.4,310813,016.9,E,A*20
$GPRMB,A,2.49,L,,Oh,4814.8080,N,12233.9900,W,30.7,185,2.19,V*18
$PGRME,3.0,M,4.1,M,5.1,M*2C
$HCHDG,180.6,0.0,E,,*26
$HCHDG,180.5,0.0,E,,*25
$GPRMC,164703.2,A,4845.39345,N,12230.25970,W,002.27,195.1,310813,016.9,E,A*21
$PGRME,3.0,M,4.0,M,5.0,M*2C
$YXXDR,A,6.0,D,PTCH,A,3.6,D,ROLL*5E
$HCHDG,180.6,0.0,E,,*26
$HCHDG,180.6,0.0,E,,*26
$GPRMC,164703.4,A,4845.39337,N,12230.25956,W,002.23,195.4,310813,016.9,E,A*27
$PGRME,3.0,M,4.0,M,5.0,M*2C
$HCHDG,180.9,0.0,E,,*29
$HCHDG,180.8,0.0,E,,*28
$GPRMC,164703.6,A,4845.39333,N,12230.25957,W,002.24,197.5,310813,016.9,E,A*24
$PGRME,3.0,M,3.9,M,5.0,M*22
$HCHDG,181.0,0.0,E,,*21
$YXXDR,A,6.0,D,PTCH,A,3.2,D,ROLL*5A
$PTAK,FFD1,3.2*54
$HCHDG,181.1,0.0,E,,*20
$GPRMC,164703.8,A,4845.39323,N,12230.25932,W,002.26,198.5,310813,016.9,E,A*25
$PGRME,3.0,M,3.9,M,5.0,M*22
$HCHDG,181.0,0.0,E,,*21
$HCHDG,181.2,0.0,E,,*23
$GPRMC,164704.0,A,4845.39312,N,12230.25944,W,002.26,197.3,310813,016.9,E,A*20
$PTAK,FFP1,HEEL,@*07
$PGRME,3.0,M,3.9,M,4.9,M*2A
$HCHDG,181.3,0.0,E,,*22
$HCHDG,181.3,0.0,E,,*22
$GPRMC,164704.2,A,4845.39296,N,12230.25949,W,002.28,199.0,310813,016.9,E,A*21
$GPRMB,A,2.49,L,,Oh,4814.8080,N,12233.9900,W,30.7,185,2.21,V*13
$PGRME,3.0,M,3.8,M,4.9,M*2B
$YXXDR,A,6.0,D,PTCH,A,3.6,D,ROLL*5E
$HCHDG,181.3,0.0,E,,*22
$HCHDG,181.3,0.0,E,,*22
$GPRMC,164704.4,A,4845.39286,N,12230.25967,W,002.26,198.2,310813,016.9,E,A*27
$PGRME,3.0,M,3.8,M,4.8,M*2A
$HCHDG,181.4,0.0,E,,*25
$HCHDG,181.4,0.0,E,,*25
$GPRMC,164704.6,A,4845.39276,N,12230.25983,W,002.26,198.6,310813,016.9,E,A*24
$PGRME,3.0,M,3.8,M,4.8,M*2A
$HCHDG,181.4,0.0,E,,*25
$YXXDR,A,6.0,D,PTCH,A,3.8,D,ROLL*50
$PTAK,FFD1,3.8*5E
$HCHDG,181.5,0.0,E,,*24
$GPRMC,164704.8,A,4845.39268,N,12230.25973,W,002.22,198.9,310813,016.9,E,A*21
$PGRME,3.0,M,3.7,M,4.8,M*25
$HCHDG,181.6,0.0,E,,*27
$HCHDG,181.5,0.0,E,,*24
$GPRMC,164705.0,A,4845.39256,N,12230.25957,W,002.45,198.4,310813,016.9,E,A*2F
$PGRME,3.0,M,3.7,M,4.8,M*25
$HCHDG,181.5,0.0,E,,*24
$HCHDG,181.4,0.0,E,,*25
$GPRMC,164705.2,A,4845.39249,N,12230.25945,W,002.39,198.2,310813,016.9,E,A*2D
$PGRME,3.0,M,3.7,M,4.8,M*25
$YXXDR,A,6.2,D,PTCH,A,4.1,D,ROLL*5C
$HCHDG,181.6,0.0,E,,*27
$HCHDG,181.3,0.0,E,,*22
$GPRMC,164705.4,A,4845.39241,N,12230.25939,W,002.22,202.1,310813,016.9,E,A*21
$GPRMB,A,2.49,L,,Oh,4814.8080,N,12233.9900,W,30.7,185,2.12,V*13
$PGRME,3.0,M,3.7,M,4.8,M*25
$HCHDG,181.4,0.0,E,,*25
$HCHDG,181.4,0.0,E,,*25
$GPRMC,164705.6,A,4845.39242,N,12230.25949,W,002.26,195.5,310813,016.9,E,A*2A
$PGRME,3.0,M,3.7,M,4.8,M*25
$HCHDG,181.5,0.0,E,,*24
$YXXDR,A,6.1,D,PTCH,A,4.1,D,ROLL*5F
$PTAK,FFD1,4.1*50
$HCHDG,181.2,0.0,E,,*23
$GPRMC,164705.8,A,4845.39230,N,12230.25968,W,002.20,200.7,310813,016.9,E,A*29
$PGRME,3.0,M,3.7,M,4.8,M*25
$HCHDG,181.3,0.0,E,,*22
$HCHDG,181.4,0.0,E,,*25
$GPRMC,164706.0,A,4845.39209,N,12230.25996,W,002.44,195.9,310813,016.9,E,A*2A
$PGRME,3.0,M,3.6,M,4.7,M*2B
$HCHDG,181.3,0.0,E,,*22
$HCHDG,181.3,0.0,E,,*22
$GPRMC,164706.2,A,4845.39193,N,12230.26012,W,002.21,196.3,310813,016.9,E,A*24
$PGRME,3.0,M,3.6,M,4.7,M*2B
$YXXDR,A,6.2,D,PTCH,A,4.1,D,ROLL*5C
$HCHDG,181.2,0.0,E,,*23
$HCHDG,181.2,0.0,E,,*23
$GPRMC,164706.4,A,4845.39179,N,12230.26034,W,002.24,198.7,310813,016.9,E,A*2D
$PGRME,3.0,M,3.6,M,4.7,M*2B
$HCHDG,181.2,0.0,E,,*23
$HCHDG,181.2,0.0,E,,*23
$GPRMC,164706.6,A,4845.39178,N,12230.26042,W,002.30,194.5,310813,016.9,E,A*24
$GPRMB,A,2.49,L,,Oh,4814.8080,N,12233.9900,W,30.7,185,2.27,V*15
$PGRME,3.0,M,3.5,M,4.7,M*28
$HCHDG,181.4,0.0,E,,*25
$YXXDR,A,6.1,D,PTCH,A,3.9,D,ROLL*50
$PTAK,FFD1,3.9*5F
$HCHDG,181.4,0.0,E,,*25
$GPRMC,164706.8,A,4845.39174,N,12230.26061,W,002.33,197.1,310813,016.9,E,A*23
$PGRME,3.0,M,3.5,M,4.6,M*29
$HCHDG,181.7,0.0,E,,*26
$HCHDG,181.7,0.0,E,,*26
$GPRMC,164707.0,A,4845.39169,N,12230.26064,W,002.28,198.4,310813,016.9,E,A*23
$PGRME,3.0,M,3.4,M,4.6,M*28
$HCHDG,181.6,0.0,E,,*27
$HCHDG,181.7,0.0,E,,*26
$GPRMC,164707.2,A,4845.39154,N,12230.26073,W,002.32,196.8,310813,016.9,E,A*20
$PGRME,3.0,M,3.4,M,4.6,M*28
$YXXDR,A,6.1,D,PTCH,A,3.6,D,ROLL*5F
$HCHDG,181.6,0.0,E,,*27
$HCHDG,181.6,0.0,E,,*27
$GPRMC,164707.4,A,4845.39142,N,12230.26085,W,002.30,196.8,310813,016.9,E,A*2A
$PGRME,3.0,M,3.3,M,4.5,M*2C
$HCHDG,181.6,0.0,E,,*27
$HCHDG,181.7,0.0,E,,*26
$GPRMC,164707.6,A,4845.39131,N,12230.26109,W,002.30,197.4,310813,016.9,E,A*24
$PGRME,3.0,M,3.3,M,4.5,M*2C
$HCHDG,181.7,0.0,E,,*26
$YXXDR,A,6.0,D,PTCH,A,3.6,D,ROLL*5E
$HCHDG,181.8,0.0,E,,*29
$GPRMC,164707.8,A,4845.39119,N,12230.26122,W,002.30,197.2,310813,016.9,E,A*2F
$GPRMB,A,2.48,L,,Oh,4814.8080,N,12233.9900,W,30.7,185,2.24,V*17
$PGRME,3.0,M,3.3,M,4.5,M*2C
$HCHDG,181.8,0.0,E,,*29
$PTAK,FFP1,HEEL,@*07
$HCHDG,182.0,0.0,E,,*22
$GPRMC,164708.0,A,4845.39107,N,12230.26139,W,002.31,195.6,310813,016.9,E,A*2A
$PGRME,3.0,M,3.2,M,4.4,M*2C
$HCHDG,182.0,0.0,E,,*22
$HCHDG,182.1,0.0,E,,*23
$GPRMC,164708.2,A,4845.39090,N,12230.26141,W,002.31,198.4,310813,016.9,E,A*27
$PGRME,3.0,M,3.2,M,4.4,M*2C
$YXXDR,A,5.9,D,PTCH,A,3.6,D,ROLL*54
$PTAK,FFD1,3.6*50
$HCHDG,182.1,0.0,E,,*23
$HCHDG,182.2,0.0,E,,*20
$GPRMC,164708.4,A,4845.39071,N,12230.26143,W,002.33,199.9,310813,016.9,E,A*22
$PGRME,3.0,M,3.2,M,4.4,M*2C
$HCHDG,182.1,0.0,E,,*23
$HCHDG,182.2,0.0,E,,*20
$GPRMC,164708.6,A,4845.39061,N,12230.26144,W,002.17,197.1,310813,016.9,E,A*26
$PGRME,3.0,M,3.2,M,4.4,M*2C
$HCHDG,182.3,0.0,E,,*21
$YXXDR,A,6.1,D,PTCH,A,3.9,D,ROLL*50
$HCHDG,182.3,0.0,E,,*21
$GPRMC,164708.8,A,4845.39048,N,12230.26135,W,002.42,199.2,310813,016.9,E,A*28
$GPRMB,A,2.48,L,,Oh,4814.8080,N,12233.9900,W,30.7,185,2.34,V*16
$PGRME,3.0,M,3.2,M,4.4,M*2C
$HCHDG,182.4,0.0,E,,*26
$HCHDG,182.4,0.0,E,,*26
$GPRMC,164709.0,A,4845.39045,N,12230.26144,W,002.26,198.9,310813,016.9,E,A*22
$PGRME,3.0,M,3.2,M,4.4,M*2C
$HCHDG,182.4,0.0,E,,*26
$HCHDG,182.5,0.0,E,,*27
$GPRMC,164709.2,A,4845.39039,N,12230.26151,W,002.27,199.0,310813,016.9,E,A*26
$PGRME,3.0,M,3.2,M,4.4,M*2C
$YXXDR,A,6.2,D,PTCH,A,4.4,D,ROLL*59
$PTAK,FFD1,4.4*55
$HCHDG,182.4,0.0,E,,*26
$HCHDG,182.6,0.0,E,,*24
$GPRMC,164709.4,A,4845.39030,N,12230.26163,W,002.31,197.9,310813,016.9,E,A*28
$PGRME,3.0,M,3.2,M,4.4,M*2C
$HCHDG,182.6,0.0,E,,*24
$HCHDG,182.7,0.0,E,,*25
$GPRMC,164709.6,A,4845.39015,N,12230.26170,W,002.35,199.1,310813,016.9,E,A*2D
$PGRME,3.0,M,3.2,M,4.4,M*2C
$HCHDG,182.6,0.0,E,,*24
$YXXDR,A,6.0,D,PTCH,A,4.8,D,ROLL*57
$HCHDG,182.7,0.0,E,,*25
$GPRMC,164709.8,A,4845.39000,N,12230.26169,W,002.29,198.5,310813,016.9,E,A*27
$PGRME,3.0,M,3.2,M,4.4,M*2C
$HCHDG,182.5,0.0,E,,*27
$HCHDG,182.6,0.0,E,,*24
$GPRMC,164710.0,A,4845.38985,N,12230.26171,W,002.31,200.9,310813,016.9,E,A*2C
$GPRMB,A,2.48,L,,Oh,4814.8080,N,12233.9900,W,30.7,185,2.22,V*11
$PGRME,3.0,M,3.2,M,4.4,M*2C
$HCHDG,182.7,0.0,E,,*25
$HCHDG,182.6,0.0,E,,*24
$GPRMC,164710.2,A,4845.38982,N,12230.26168,W,002.34,195.7,310813,016.9,E,A*25
$PGRME,3.0,M,3.2,M,4.5,M*2D
$YXXDR,A,6.3,D,PTCH,A,5.4,D,ROLL*59
$HCHDG,182.6,0.0,E,,*24
$HCHDG,182.6,0.0,E,,*24
$GPRMC,164710.4,A,4845.38975,N,12230.26165,W,002.35,195.5,310813,016.9,E,A*25
$PGRME,3.0,M,3.3,M,4.5,M*2C
$HCHDG,182.8,0.0,E,,*2A
$HCHDG,182.6,0.0,E,,*24
$GPRMC,164710.6,A,4845.38968,N,12230.26168,W,002.36,201.8,310813,016.9,E,A*26
$PGRME,3.0,M,3.3,M,4.5,M*2C
$HCHDG,182.9,0.0,E,,*2B
$YXXDR,A,6.1,D,PTCH,A,5.2,D,ROLL*5D
$PTAK,FFD1,5.2*52
$HCHDG,182.9,0.0,E,,*2B
$GPRMC,164710.8,A,4845.38956,N,12230.26164,W,002.37,196.9,310813,016.9,E,A*24
$PGRME,3.0,M,3.3,M,4.5,M*2C
$HCHDG,183.0,0.0,E,,*23
$HCHDG,183.2,0.0,E,,*21
$GPRMC,164711.0,A,4845.38941,N,12230.26170,W,002.39,199.9,310813,016.9,E,A*2F
$PGRME,3.0,M,3.3,M,4.5,M*2C
$HCHDG,183.3,0.0,E,,*20
$HCHDG,183.0,0.0,E,,*23
$GPRMC,164711.2,A,4845.38931,N,12230.26180,W,002.38,196.2,310813,016.9,E,A*20
$GPRMB,A,2.48,L,,Oh,4814.8080,N,12233.9900,W,30.7,185,2.33,V*11
$PGRME,3.0,M,3.3,M,4.5,M*2C
$YXXDR,A,6.2,D,PTCH,A,5.0,D,ROLL*5C
$HCHDG,183.2,0.0,E,,*21
$HCHDG,183.1,0.0,E,,*22
$GPRMC,164711.4,A,4845.38919,N,12230.26190,W,002.38,199.7,310813,016.9,E,A*27
$PGRME,3.0,M,3.3,M,4.5,M*2C
$HCHDG,183.1,0.0,E,,*22
$HCHDG,183.1,0.0,E,,*22
$GPRMC,164711.6,A,4845.38909,N,12230.26190,W,002.37,197.4,310813,016.9,E,A*26
$PGRME,3.0,M,3.3,M,4.5,M*2C
$HCHDG,183.4,0.0,E,,*27
$YXXDR,A,6.1,D,PTCH,A,4.6,D,ROLL*58
$HCHDG,183.3,0.0,E,,*20
$GPRMC,164711.8,A,4845.38893,N,12230.26192,W,002.37,195.1,310813,016.9,E,A*2F
$PGRME,3.0,M,3.3,M,4.5,M*2C
$HCHDG,183.3,0.0,E,,*20
$HCHDG,183.5,0.0,E,,*26
$GPRMC,164712.0,A,4845.38878,N,12230.26188,W,002.37,201.2,310813,016.9,E,A*27
$PGRME,3.0,M,3.3,M,4.5,M*2C
$HCHDG,183.4,0.0,E,,*27
$PTAK,FFP1,HEEL,@*07
$HCHDG,183.4,0.0,E,,*27
$GPRMC,164712.2,A,4845.38858,N,12230.26191,W,002.38,196.4,310813,016.9,E,A*2B
$GPRMB,A,2.48,L,,Oh,4814.8080,N,12233.9900,W,30.7,185,2.33,V*11
$PGRME,3.0,M,3.3,M,4.5,M*2C
$YXXDR,A,6.2,D,PTCH,A,4.3,D,ROLL*5E
$PTAK,FFD1,4.3*52
$HCHDG,183.3,0.0,E,,*20
$HCHDG,183.6,0.0,E,,*25
$GPRMC,164712.4,A,4845.38846,N,12230.26192,W,002.38,200.6,310813,016.9,E,A*2F
$PGRME,3.0,M,3.3,M,4.5,M*2C
$HCHDG,183.6,0.0,E,,*25
$HCHDG,183.5,0.0,E,,*26
$GPRMC,164712.6,A,4845.38834,N,12230.26193,W,002.36,198.8,310813,016.9,E,A*2B
$PGRME,3.0,M,3.3,M,4.5,M*2C
$HCHDG,183.7,0.0,E,,*24
$YXXDR,A,6.3,D,PTCH,A,4.0,D,ROLL*5C
$HCHDG,183.6,0.0,E,,*25
$GPRMC,164712.8,A,4845.38822,N,12230.26186,W,002.39,196.6,310813,016.9,E,A*29
$PGRME,3.0,M,3.3,M,4.5,M*2C
$HCHDG,183.8,0.0,E,,*2B
$HCHDG,183.8,0.0,E,,*2B
$GPRMC,164713.0,A,4845.38808,N,12230.26193,W,002.37,200.0,310813,016.9,E,A*28
$PGRME,3.0,M,3.3,M,4.5,M*2C
$HCHDG,183.7,0.0,E,,*24
$HCHDG,183.9,0.0,E,,*2A
$GPRMC,164713.2,A,4845.38790,N,12230.26205,W,002.38,201.0,310813,016.9,E,A*26
$GPRMB,A,2.48,L,,Oh,4814.8080,N,12233.9900,W,30.7,185,2.28,V*1B
$PGRME,3.0,M,3.3,M,4.5,M*2C
$YXXDR,A,6.2,D,PTCH,A,3.8,D,ROLL*52
$HCHDG,183.8,0.0,E,,*2B
$HCHDG,184.0,0.0,E,,*24
$GPRMC,164713.4,A,4845.38772,N,12230.26216,W,002.38,199.5,310813,016.9,E,A*29
$PGRME,3.0,M,3.3,M,4.5,M*2C
$HCHDG,183.9,0.0,E,,*2A
$HCHDG,184.3,0.0,E,,*27
$GPRMC,164713.6,A,4845.38760,N,12230.26230,W,002.39,199.5,310813,016.9,E,A*2D
$PGRME,3.0,M,3.3,M,4.5,M*2C
$HCHDG,184.1,0.0,E,,*25
$YXXDR,A,5.9,D,PTCH,A,3.6,D,ROLL*54
$PTAK,FFD1,3.6*50
$HCHDG,184.1,0.0,E,,*25
$GPRMC,164713.8,A,4845.38749,N,12230.26232,W,002.38,199.0,310813,016.9,E,A*2E
$PGRME,3.0,M,3.3,M,4.5,M*2C
$HCHDG,184.3,0.0,E,,*27
$HCHDG,184.4,0.0,E,,*20
$GPRMC,164714.0,A,4845.38733,N,12230.26237,W,002.37,199.3,310813,016.9,E,A*25
$PGRME,3.0,M,3.3,M,4.5,M*2C
$HCHDG,184.3,0.0,E,,*27
$HCHDG,184.4,0.0,E,,*20
$GPRMC,164714.2,A,4845.38718,N,12230.26235,W,002.34,204.1,310813,016.9,E,A*2A
$PGRME,3.0,M,3.3,M,4.5,M*2C
$YXXDR,A,6.1,D,PTCH,A,4.0,D,ROLL*5E
$HCHDG,184.4,0.0,E,,*20
$HCHDG,184.2,0.0,E,,*26
$GPRMC,164714.4,A,4845.38694,N,12230.26238,W,002.33,201.5,310813,016.9,E,A*22
$GPRMB,A,2.48,L,,Oh,4814.8080,N,12233.9900,W,30.7,185,2.23,V*10
$PGRME,3.0,M,3.3,M,4.5,M*2C
$HCHDG,184.2,0.0,E,,*26
$HCHDG,184.3,0.0,E,,*27
$GPRMC,164714.6,A,4845.38681,N,12230.26258,W,002.50,199.4,310813,016.9,E,A*24
$PGRME,3.0,M,3.3,M,4.5,M*2C
$HCHDG,184.4,0.0,E,,*20
$YXXDR,A,6.2,D,PTCH,A,4.3,D,ROLL*5E
$HCHDG,184.5,0.0,E,,*21
$GPRMC,164714.8,A,4845.38650,N,12230.26260,W,002.22,199.4,310813,016.9,E,A*28
$PGRME,3.0,M,3.3,M,4.5,M*2C
$HCHDG,184.5,0.0,E,,*21
$HCHDG,184.3,0.0,E,,*27
$GPRMC,164715.0,A,4845.38640,N,12230.26272,W,002.44,200.9,310813,016.9,E,A*2D
$PGRME,3.0,M,3.3,M,4.5,M*2C
$HCHDG,184.4,0.0,E,,*20
$HCHDG,184.4,0.0,E,,*20
$GPRMC,164715.2,A,4845.38631,N,12230.26276,W,002.19,201.7,310813,016.9,E,A*2A
$PGRME,3.0,M,3.3,M,4.5,M*2C
$YXXDR,A,6.1,D,PTCH,A,4.5,D,ROLL*5B
$PTAK,FFD1,4.5*54
$HCHDG,184.5,0.0,E,,*21
$HCHDG,184.3,0.0,E,,*27
$GPRMC,164715.4,A,4845.38616,N,12230.26265,W,002.48,196.4,310813,016.9,E,A*21
$PGRME,3.0,M,3.3,M,4.5,M*2C
$HCHDG,184.4,0.0,E,,*20
$HCHDG,184.5,0.0,E,,*21
$GPRMC,164715.6,A,4845.38607,N,12230.26267,W,002.27,202.1,310813,016.9,E,A*23
$GPRMB,A,2.48,L,,Oh,4814.8080,N,12233.9900,W,30.7,185,2.17,V*17
$PGRME,3.0,M,3.4,M,4.5,M*2B
$HCHDG,184.3,0.0,E,,*27
$YXXDR,A,6.0,D,PTCH,A,4.5,D,ROLL*5A
$HCHDG,184.4,0.0,E,,*20
$GPRMC,164715.8,A,4845.38600,N,12230.26273,W,002.31,201.6,310813,016.9,E,A*2C
$PGRME,3.0,M,3.4,M,4.5,M*2B
$HCHDG,184.4,0.0,E,,*20
$HCHDG,184.4,0.0,E,,*20
$GPRMC,164716.0,A,4845.38594,N,12230.26275,W,002.31,199.6,310813,016.9,E,A*2D
$PGRME,3.0,M,3.4,M,4.5,M*2B
$HCHDG,184.5,0.0,E,,*21
$PTAK,FFP1,HEEL,@*07
$HCHDG,184.6,0.0,E,,*22
$GPRMC,164716.2,A,4845.38589,N,12230.26282,W,002.32,199.2,310813,016.9,E,A*2C
$PGRME,3.0,M,3.4,M,4.5,M*2B
$YXXDR,A,6.2,D,PTCH,A,4.4,D,ROLL*59
$PTAK,FFD1,4.4*55
$HCHDG,184.5,0.0,E,,*21
$HCHDG,184.5,0.0,E,,*21
$GPRMC,164716.4,A,4845.38580,N,12230.26274,W,002.37,197.9,310813,016.9,E,A*2A
$PGRME,3.0,M,3.4,M,4.5,M*2B
$HCHDG,184.7,0.0,E,,*23
$HCHDG,184.8,0.0,E,,*2C
$GPRMC,164716.6,A,4845.38566,N,12230.26263,W,002.34,199.9,310813,016.9,E,A*2B
$PGRME,3.0,M,3.4,M,4.5,M*2B
$HCHDG,184.8,0.0,E,,*2C
$YXXDR,A,6.4,D,PTCH,A,4.3,D,ROLL*58
$HCHDG,184.9,0.0,E,,*2D
$GPRMC,164716.8,A,4845.38560,N,12230.26258,W,002.35,198.0,310813,016.9,E,A*22
$GPRMB,A,2.48,L,,Oh,4814.8080,N,12233.9900,W,30.7,185,2.29,V*1A
$PGRME,3.0,M,3.3,M,4.5,M*2C
$HCHDG,184.8,0.0,E,,*2C
$HCHDG,184.9,0.0,E,,*2D
$GPRMC,164717.0,A,4845.38549,N,12230.26263,W,002.35,203.9,310813,016.9,E,A*20
$PGRME,3.0,M,3.3,M,4.5,M*2C
$HCHDG,184.9,0.0,E,,*2D
$HCHDG,185.1,0.0,E,,*24
$GPRMC,164717.2,A,4845.38543,N,12230.26277,W,002.37,199.3,310813,016.9,E,A*25
$PGRME,3.0,M,3.3,M,4.5,M*2C
$YXXDR,A,6.2,D,PTCH,A,4.1,D,ROLL*5C
$HCHDG,185.1,0.0,E,,*24
$HCHDG,185.1,0.0,E,,*24
$GPRMC,164717.4,A,4845.38535,N,12230.26283,W,002.35,199.5,310813,016.9,E,A*2D
$PGRME,3.0,M,3.3,M,4.5,M*2C
$HCHDG,185.1,0.0,E,,*24
$HCHDG,185.2,0.0,E,,*27
$GPRMC,164717.6,A,4845.38516,N,12230.26289,W,002.35,200.3,310813,016.9,E,A*21
$PGRME,3.0,M,3.3,M,4.5,M*2C
$HCHDG,185.2,0.0,E,,*27
$YXXDR,A,6.2,D,PTCH,A,4.1,D,ROLL*5C
$PTAK,FFD1,4.1*50
$HCHDG,185.2,0.0,E,,*27
$GPRMC,164717.8,A,4845.38498,N,12230.26286,W,002.36,201.1,310813,016.9,E,A*27
$PGRME,3.0,M,3.3,M,4.5,M*2C
$HCHDG,185.2,0.0,E,,*27
$HCHDG,185.3,0.0,E,,*26
$GPRMC,164718.0,A,4845.38484,N,12230.26287,W,002.36,199.5,310813,016.9,E,A*2A
$GPRMB,A,2.48,L,,Oh,4814.8080,N,12233.9900,W,30.7,185,2.28,V*1B
$PGRME,3.0,M,3.3,M,4.5,M*2C
$HCHDG,185.0,0.0,E,,*25
$HCHDG,185.1,0.0,E,,*24
$GPRMC,164718.2,A,4845.38469,N,12230.26294,W,002.34,199.5,310813,016.9,E,A*2B
$PGRME,3.0,M,3.3,M,4.5,M*2C
$YXXDR,A,6.1,D,PTCH,A,4.5,D,ROLL*5B
$HCHDG,185.1,0.0,E,,*24
$HCHDG,185.2,0.0,E,,*27
$GPRMC,164718.4,A,4845.38460,N,12230.26305,W,002.36,201.2,310813,016.9,E,A*2A
$PGRME,3.0,M,3.3,M,4.5,M*2C
$HCHDG,185.2,0.0,E,,*27
$HCHDG,185.6,0.0,E,,*23
$GPRMC,164718.6,A,4845.38445,N,12230.26323,W,002.36,201.8,310813,016.9,E,A*21
$PGRME,3.0,M,3.3,M,4.5,M*2C
$HCHDG,185.5,0.0,E,,*20
$YXXDR,A,6.0,D,PTCH,A,4.1,D,ROLL*5E
$PTAK,FFD1,4.1*50
$HCHDG,185.6,0.0,E,,*23
$GPRMC,164718.8,A,4845.38434,N,12230.26330,W,002.37,200.5,310813,016.9,E,A*26
$PGRME,3.0,M,3.3,M,4.5,M*2C
$HCHDG,185.6,0.0,E,,*23
$HCHDG,185.5,0.0,E,,*20
$GPRMC,164719.0,A,4845.38421,N,12230.26332,W,002.39,200.6,310813,016.9,E,A*24
$GPRMB,A,2.48,L,,Oh,4814.8080,N,12233.9900,W,30.7,185,2.30,V*12
$PGRME,3.0,M,3.3,M,4.5,M*2C
$HCHDG,185.7,0.0,E,,*22
$HCHDG,185.7,0.0,E,,*22
$GPRMC,164719.2,A,4845.38414,N,12230.26340,W,002.38,202.1,310813,016.9,E,A*21
$PGRME,3.0,M,3.3,M,4.5,M*2C
$YXXDR,A,6.0,D,PTCH,A,4.3,D,ROLL*5C
$HCHDG,185.8,0.0,E,,*2D
$HCHDG,185.8,0.0,E,,*2D
$GPRMC,164719.4,A,4845.38401,N,12230.26353,W,002.37,202.4,310813,016.9,E,A*2B
$PGRME,3.0,M,3.3,M,4.5,M*2C
$HCHDG,185.8,0.0,E,,*2D
$HCHDG,185.9,0.0,E,,*2C
$GPRMC,164719.6,A,4845.38390,N,12230.26380,W,002.38,202.6,310813,016.9,E,A*25
$PGRME,3.0,M,3.3,M,4.5,M*2C
$HCHDG,185.7,0.0,E,,*22
$YXXDR,A,5.9,D,PTCH,A,4.6,D,ROLL*53
$HCHDG,185.8,0.0,E,,*2D
$GPRMC,164719.8,A,4845.38374,N,12230.26392,W,002.37,201.5,310813,016.9,E,A*2D
$PGRME,3.0,M,3.3,M,4.5,M*2C
$HCHDG,185.6,0.0,E,,*23
$HCHDG,185.6,0.0,E,,*23
$GPRMC,164720.0,A,4845.38343,N,12230.26403,W,002.37,202.3,310813,016.9,E,A*21
$GPRMB,A,2.48,L,,Oh,4814.8080,N,12233.9900,W,30.7,185,2.26,V*15
$PGRME,3.0,M,3.3,M,4.5,M*2C
$HCHDG,185.8,0.0,E,,*2D
$PTAK,FFP1,HEEL,@*07
$HCHDG,185.6,0.0,E,,*23
$GPRMC,164720.2,A,4845.38328,N,12230.26403,W,002.37,203.2,310813,016.9,E,A*2E
$PGRME,3.0,M,3.3,M,4.5,M*2C
$YXXDR,A,5.9,D,PTCH,A,5.0,D,ROLL*54
$PTAK,FFD1,5.0*50
$HCHDG,185.8,0.0,E,,*2D
$HCHDG,185.6,0.0,E,,*23
$GPRMC,164720.4,A,4845.38303,N,12230.26383,W,002.37,198.2,310813,016.9,E,A*2F
$PGRME,3.0,M,3.3,M,4.5,M*2C
$HCHDG,185.6,0.0,E,,*23
$HCHDG,185.5,0.0,E,,*20
$GPRMC,164720.6,A,4845.38299,N,12230.26380,W,002.39,202.5,310813,016.9,E,A*25
$PGRME,3.0,M,3.3,M,4.5,M*2C
$HCHDG,185.8,0.0,E,,*2D
$YXXDR,A,6.2,D,PTCH,A,5.9,D,ROLL*55
$HCHDG,185.7,0.0,E,,*22
$GPRMC,164720.8,A,4845.38291,N,12230.26381,W,002.41,199.2,310813,016.9,E,A*2B
$PGRME,3.0,M,3.3,M,4.5,M*2C
$HCHDG,185.5,0.0,E,,*20
$HCHDG,185.8,0.0,E,,*2D
$GPRMC,164721.0,A,4845.38274,N,12230.26390,W,002.40,202.1,310813,016.9,E,A*2A
$PGRME,3.0,M,3.3,M,4.5,M*2C
$HCHDG,185.8,0.0,E,,*2D
$HCHDG,185.7,0.0,E,,*22
$GPRMC,164721.2,A,4845.38248,N,12230.26400,W,002.40,200.0,310813,016.9,E,A*2A
$GPRMB,A,2.48,L,,Oh,4814.8080,N,12233.9900,W,30.7,185,2.31,V*13
$PGRME,3.0,M,3.3,M,4.5,M*2C
$YXXDR,A,6.0,D,PTCH,A,5.6,D,ROLL*58
$PTAK,FFD1,5.6*56
$HCHDG,185.9,0.0,E,,*2C
$HCHDG,185.8,0.0,E,,*2D
$GPRMC,164721.4,A,4845.38237,N,12230.26414,W,002.41,199.9,310813,016.9,E,A*2A
$PGRME,3.0,M,3.3,M,4.5,M*2C
$HCHDG,186.0,0.0,E,,*26
$HCHDG,186.2,0.0,E,,*24
$GPRMC,164721.6,A,4845.38238,N,12230.26420,W,002.40,201.0,310813,016.9,E,A*2A
$PGRME,3.0,M,3.3,M,4.5,M*2C
$HCHDG,186.0,0.0,E,,*26
$YXXDR,A,6.0,D,PTCH,A,5.8,D,ROLL*56
$HCHDG,186.2,0.0,E,,*24
$GPRMC,164721.8,A,4845.38248,N,12230.26416,W,002.41,200.6,310813,016.9,E,A*20
$PGRME,3.0,M,3.3,M,4.5,M*2C
$HCHDG,186.2,0.0,E,,*24
$HCHDG,186.1,0.0,E,,*27
$GPRMC,164722.0,A,4845.38245,N,12230.26388,W,002.40,200.6,310813,016.9,E,A*27
$PGRME,3.0,M,3.2,M,4.5,M*2D
$HCHDG,186.4,0.0,E,,*22
$HCHDG,186.4,0.0,E,,*22
$GPRMC,164722.2,A,4845.38251,N,12230.26364,W,002.39,202.1,310813,016.9,E,A*29
$PGRME,3.0,M,3.2,M,4.4,M*2C
$YXXDR,A,6.0,D,PTCH,A,5.8,D,ROLL*56
$HCHDG,186.5,0.0,E,,*23
$HCHDG,186.5,0.0,E,,*23
$GPRMC,164722.4,A,4845.38245,N,12230.26365,W,002.41,200.4,310813,016.9,E,A*23
$GPRMB,A,2.48,L,,Oh,4814.8080,N,12233.9900,W,30.7,185,2.32,V*10
$PGRME,3.0,M,3.2,M,4.4,M*2C
$HCHDG,186.6,0.0,E,,*20
$HCHDG,186.6,0.0,E,,*20
$GPRMC,164722.6,A,4845.38230,N,12230.26379,W,002.41,202.0,310813,016.9,E,A*28
$PGRME,3.0,M,3.2,M,4.4,M*2C
$HCHDG,186.7,0.0,E,,*21
$YXXDR,A,6.0,D,PTCH,A,5.4,D,ROLL*5A
$PTAK,FFD1,5.4*54
$HCHDG,186.7,0.0,E,,*21
$GPRMC,164722.8,A,4845.38219,N,12230.26402,W,002.40,200.7,310813,016.9,E,A*22
$PGRME,3.0,M,3.2,M,4.4,M*2C
$HCHDG,186.7,0.0,E,,*21
$HCHDG,186.8,0.0,E,,*2E
$GPRMC,164723.0,A,4845.38201,N,12230.26418,W,002.42,201.1,310813,016.9,E,A*2C
$PGRME,3.0,M,3.2,M,4.4,M*2C
$HCHDG,186.7,0.0,E,,*21
$HCHDG,186.9,0.0,E,,*2F
$GPRMC,164723.2,A,4845.38188,N,12230.26424,W,002.41,200.4,310813,016.9,E,A*24
$PGRME,3.0,M,3.2,M,4.4,M*2C
$YXXDR,A,6.1,D,PTCH,A,5.0,D,ROLL*5F
$HCHDG,186.7,0.0,E,,*21
$HCHDG,186.7,0.0,E,,*21
$GPRMC,164723.4,A,4845.38173,N,12230.26430,W,002.38,203.1,310813,016.9,E,A*2B
$PGRME,3.0,M,3.2,M,4.4,M*2C
$HCHDG,187.0,0.0,E,,*27
$HCHDG,186.8,0.0,E,,*2E
$GPRMC,164723.6,A,4845.38162,N,12230.26427,W,002.40,200.0,310813,016.9,E,A*22
$GPRMB,A,2.48,L,,Oh,4814.8080,N,12233.9900,W,30.7,185,2.31,V*13
$PGRME,3.0,M,3.2,M,4.4,M*2C
$HCHDG,186.8,0.0,E,,*2E
$YXXDR,A,6.0,D,PTCH,A,4.8,D,ROLL*57
$PTAK,FFD1,4.8*59
$HCHDG,187.0,0.0,E,,*27
$GPRMC,164723.8,A,4845.38148,N,12230.26424,W,002.39,200.3,310813,016.9,E,A*2A
$PGRME,3.0,M,3.1,M,4.4,M*2F
$HCHDG,186.8,0.0,E,,*2E
$HCHDG,187.0,0.0,E,,*27
$GPRMC,164724.0,A,4845.38144,N,12230.26455,W,002.39,202.5,310813,016.9,E,A*2B
$PGRME,3.0,M,3.1,M,4.3,M*28
$HCHDG,186.9,0.0,E,,*2F
$HCHDG,187.0,0.0,E,,*27
$GPRMC,164724.2,A,4845.38137,N,12230.26477,W,002.39,202.3,310813,016.9,E,A*2B
$PGRME,3.0,M,3.1,M,4.3,M*28
$YXXDR,A,6.0,D,PTCH,A,4.4,D,ROLL*5B
$PTAK,FFP1,HEEL,@*07
$HCHDG,187.0,0.0,E,,*27
$HCHDG,187.1,0.0,E,,*26
$GPRMC,164724.4,A,4845.38121,N,12230.26490,W,002.38,201.9,310813,016.9,E,A*2B
$PGRME,3.0,M,3.1,M,4.3,M*28
$HCHDG,187.1,0.0,E,,*26
$HCHDG,187.1,0.0,E,,*26
$GPRMC,164724.6,A,4845.38099,N,12230.26514,W,002.39,202.4,310813,016.9,E,A*29
$PGRME,3.0,M,3.1,M,4.3,M*28
$HCHDG,187.1,0.0,E,,*26
$YXXDR,A,6.1,D,PTCH,A,4.5,D,ROLL*5B
$HCHDG,187.0,0.0,E,,*27
$GPRMC,164724.8,A,4845.38083,N,12230.26553,W,002.38,203.6,310813,016.9,E,A*2D
$GPRMB,A,2.48,L,,Oh,4814.8080,N,12233.9900,W,30.7,185,2.25,V*16
$PGRME,3.0,M,3.0,M,4.3,M*29
$HCHDG,187.0,0.0,E,,*27
$HCHDG,186.9,0.0,E,,*2F
$GPRMC,164725.0,A,4845.38065,N,12230.26580,W,002.37,202.5,310813,016.9,E,A*2F
$PGRME,3.0,M,3.0,M,4.3,M*29
$HCHDG,187.0,0.0,E,,*27
$HCHDG,187.0,0.0,E,,*27
$GPRMC,164725.2,A,4845.38052,N,12230.26591,W,002.38,200.8,310813,016.9,E,A*29
$PGRME,3.0,M,3.0,M,4.3,M*29
$YXXDR,A,6.2,D,PTCH,A,4.8,D,ROLL*55
$PTAK,FFD1,4.8*59
$HCHDG,186.9,0.0,E,,*2F
$HCHDG,187.1,0.0,E,,*26
$GPRMC,164725.4,A,4845.38048,N,12230.26600,W,002.39,204.1,310813,016.9,E,A*23
$GPRMB,A,2.48,L,,Oh,4814.8080,N,12233.9900,W,30.7,185,2.25,V*16
$PGRME,3.0,M,3.0,M,4.3,M*29
$HCHDG,187.0,0.0,E,,*27
$HCHDG,187.0,0.0,E,,*27
$GPRMC,164725.6,A,4845.38057,N,12230.26611,W,002.39,202.1,310813,016.9,E,A*29
$PGRME,3.0,M,3.0,M,4.3,M*29
$HCHDG,187.2,0.0,E,,*25
$YXXDR,A,6.0,D,PTCH,A,5.0,D,ROLL*5E
$HCHDG,187.2,0.0,E,,*25
$GPRMC,164725.8,A,4845.38049,N,12230.26619,W,002.38,202.7,310813,016.9,E,A*27
$PGRME,3.0,M,3.0,M,4.3,M*29
$HCHDG,187.0,0.0,E,,*27
$HCHDG,186.9,0.0,E,,*2F
$GPRMC,164726.0,A,4845.38023,N,12230.26635,W,002.38,203.8,310813,016.9,E,A*20
$PGRME,3.0,M,3.0,M,4.3,M*29
$HCHDG,187.1,0.0,E,,*26
$HCHDG,187.1,0.0,E,,*26
$GPRMC,164726.2,A,4845.38005,N,12230.26669,W,002.38,204.8,310813,016.9,E,A*28
$PGRME,3.0,M,3.0,M,4.3,M*29
$YXXDR,A,6.0,D,PTCH,A,4.9,D,ROLL*56
$HCHDG,187.2,0.0,E,,*25
$HCHDG,187.2,0.0,E,,*25
$GPRMC,164726.4,A,4845.37984,N,12230.26701,W,002.40,201.6,310813,016.9,E,A*2A
$PGRME,3.0,M,3.0,M,4.3,M*29
$HCHDG,187.3,0.0,E,,*24
$HCHDG,187.1,0.0,E,,*26
$GPRMC,164726.6,A,4845.37962,N,12230.26706,W,002.41,202.1,310813,016.9,E,A*22
$PGRME,3.0,M,3.0,M,4.3,M*29
$HCHDG,187.2,0.0,E,,*25
$YXXDR,A,5.9,D,PTCH,A,5.2,D,ROLL*56
$HCHDG,187.0,0.0,E,,*27
$GPRMC,164726.8,A,4845.37948,N,12230.26711,W,002.41,202.9,310813,016.9,E,A*2A
$GPRMB,A,2.48,L,,Oh,4814.8080,N,12233.9900,W,30.7,185,2.29,V*1A
$PGRME,3.0,M,3.0,M,4.3,M*29
$HCHDG,187.0,0.0,E,,*27
$HCHDG,187.0,0.0,E,,*27
$GPRMC,164727.0,A,4845.37940,N,12230.26684,W,002.39,202.4,310813,016.9,E,A*24
$PGRME,3.0,M,3.0,M,4.3,M*29
$HCHDG,187.1,0.0,E,,*26
$HCHDG,186.8,0.0,E,,*2E
$GPRMC,164727.2,A,4845.37932,N,12230.26665,W,002.39,202.2,310813,016.9,E,A*2A
$PGRME,3.0,M,3.0,M,4.3,M*29
$YXXDR,A,6.1,D,PTCH,A,5.4,D,ROLL*5B
$PTAK,FFD1,5.4*54
$HCHDG,186.9,0.0,E,,*2F
$HCHDG,186.8,0.0,E,,*2E
$GPRMC,164727.4,A,4845.37928,N,12230.26653,W,002.37,202.1,310813,016.9,E,A*2F
$PGRME,3.0,M,3.0,M,4.3,M*29
$HCHDG,186.7,0.0,E,,*21
$HCHDG,186.6,0.0,E,,*20
$GPRMC,164727.6,A,4845.37914,N,12230.26642,W,002.37,199.9,310813,016.9,E,A*2B
$PGRME,3.0,M,3.0,M,4.3,M*29
$HCHDG,186.7,0.0,E,,*21
$YXXDR,A,6.0,D,PTCH,A,5.2,D,ROLL*5C
$HCHDG,186.6,0.0,E,,*20
$GPRMC,164727.8,A,4845.37900,N,12230.26656,W,002.37,203.0,310813,016.9,E,A*2C
$PGRME,3.0,M,3.0,M,4.3,M*29
$HCHDG,186.9,0.0,E,,*2F
$HCHDG,186.9,0.0,E,,*2F
$GPRMC,164728.0,A,4845.37888,N,12230.26675,W,002.39,200.3,310813,016.9,E,A*25
$PGRME,3.0,M,3.0,M,4.3,M*29
$HCHDG,186.9,0.0,E,,*2F
$HCHDG,186.8,0.0,E,,*2E
$GPRMC,164728.2,A,4845.37869,N,12230.26675,W,002.38,201.9,310813,016.9,E,A*22
$PGRME,3.0,M,3.0,M,4.3,M*29
$YXXDR,A,6.2,D,PTCH,A,5.0,D,ROLL*5C
$PTAK,FFP1,HEEL,@*07
$HCHDG,186.7,0.0,E,,*21
$HCHDG,186.8,0.0,E,,*2E
$GPRMC,164728.4,A,4845.37857,N,12230.26682,W,002.38,200.2,310813,016.9,E,A*2B
$GPRMB,A,2.48,L,,Oh,4814.8080,N,12233.9900,W,30.7,185,2.29,V*1A
$PGRME,3.0,M,3.0,M,4.3,M*29
$HCHDG,186.7,0.0,E,,*21
$HCHDG,186.6,0.0,E,,*20
$GPRMC,164728.6,A,4845.37845,N,12230.26691,W,002.37,200.9,310813,016.9,E,A*2C
$PGRME,3.0,M,3.0,M,4.3,M*29
$HCHDG,186.5,0.0,E,,*23
$YXXDR,A,6.0,D,PTCH,A,4.9,D,ROLL*56
$PTAK,FFD1,4.9*58
$HCHDG,186.7,0.0,E,,*21
$GPRMC,164728.8,A,4845.37840,N,12230.26692,W,002.37,200.6,310813,016.9,E,A*2B
$PGRME,3.0,M,3.0,M,4.3,M*29
$HCHDG,186.7,0.0,E,,*21
$HCHDG,186.6,0.0,E,,*20
$GPRMC,164729.0,A,4845.37832,N,12230.26696,W,002.38,199.7,310813,016.9,E,A*2E
$PGRME,3.0,M,3.0,M,4.3,M*29
$HCHDG,186.6,0.0,E,,*20
$HCHDG,186.6,0.0,E,,*20
$GPRMC,164729.2,A,4845.37823,N,12230.26699,W,002.40,199.1,310813,016.9,E,A*2A
$PGRME,3.0,M,3.0,M,4.3,M*29
$YXXDR,A,6.0,D,PTCH,A,4.9,D,ROLL*56
$HCHDG,186.6,0.0,E,,*20
$HCHDG,186.8,0.0,E,,*2E
$GPRMC,164729.4,A,4845.37804,N,12230.26710,W,002.39,201.6,310813,016.9,E,A*22
$PGRME,3.0,M,3.0,M,4.3,M*29
$HCHDG,186.7,0.0,E,,*21
$HCHDG,186.7,0.0,E,,*21
$GPRMC,164729.6,A,4845.37792,N,12230.26726,W,002.38,200.5,310813,016.9,E,A*26
$GPRMB,A,2.48,L,,Oh,4814.8080,N,12233.9900,W,30.7,185,2.29,V*1A
$PGRME,3.0,M,3.0,M,4.3,M*29
$HCHDG,187.0,0.0,E,,*27
$YXXDR,A,6.0,D,PTCH,A,4.7,D,ROLL*58
$PTAK,FFD1,4.7*56
$HCHDG,187.0,0.0,E,,*27
$GPRMC,164729.8,A,4845.37770,N,12230.26747,W,002.39,199.4,310813,016.9,E,A*20
$PGRME,3.0,M,3.0,M,4.3,M*29
$HCHDG,187.0,0.0,E,,*27
$HCHDG,187.0,0.0,E,,*27
$GPRMC,164730.0,A,4845.37746,N,12230.26762,W,002.38,199.4,310813,016.9,E,A*23
$PGRME,3.0,M,3.0,M,4.3,M*29
$HCHDG,187.0,0.0,E,,*27
$HCHDG,187.0,0.0,E,,*27
$GPRMC,164730.2,A,4845.37731,N,12230.26786,W,002.39,200.7,310813,016.9,E,A*2A
$PGRME,3.0,M,3.0,M,4.3,M*29
$YXXDR,A,6.1,D,PTCH,A,4.6,D,ROLL*58
$HCHDG,187.0,0.0,E,,*27
$HCHDG,187.0,0.0,E,,*27
$GPRMC,164730.4,A,4845.37720,N,12230.26795,W,002.39,201.0,310813,016.9,E,A*28
$PGRME,3.0,M,3.0,M,4.3,M*29
$HCHDG,187.3,0.0,E,,*24
$HCHDG,187.3,0.0,E,,*24
$GPRMC,164730.6,A,4845.37701,N,12230.26785,W,002.42,199.9,310813,016.9,E,A*2F
$PGRME,3.0,M,3.0,M,4.3,M*29
$HCHDG,187.3,0.0,E,,*24
$YXXDR,A,6.0,D,PTCH,A,4.7,D,ROLL*58
$HCHDG,187.4,0.0,E,,*23
$GPRMC,164730.8,A,4845.37690,N,12230.26786,W,002.41,201.5,310813,016.9,E,A*26
$GPRMB,A,2.48,L,,Oh,4814.8080,N,12233.9900,W,30.7,185,2.31,V*13
$PGRME,3.0,M,3.0,M,4.3,M*29
$HCHDG,187.4,0.0,E,,*23
$HCHDG,187.4,0.0,E,,*23
$GPRMC,164731.0,A,4845.37678,N,12230.26791,W,002.40,199.5,310813,016.9,E,A*2C
$PGRME,3.0,M,3.0,M,4.3,M*29
$HCHDG,187.4,0.0,E,,*23
$HCHDG,187.5,0.0,E,,*22
$GPRMC,164731.2,A,4845.37670,N,12230.26824,W,002.40,202.8,310813,016.9,E,A*2B
$PGRME,3.0,M,3.0,M,4.3,M*29
$YXXDR,A,5.9,D,PTCH,A,4.6,D,ROLL*53
$PTAK,FFD1,4.6*57
$HCHDG,187.5,0.0,E,,*22
$HCHDG,187.5,0.0,E,,*22
$GPRMC,164731.4,A,4845.37648,N,12230.26842,W,002.38,201.7,310813,016.9,E,A*25
$PGRME,3.0,M,3.0,M,4.3,M*29
$HCHDG,187.5,0.0,E,,*22
$HCHDG,187.6,0.0,E,,*21
$GPRMC,164731.6,A,4845.37617,N,12230.26846,W,002.37,200.8,310813,016.9,E,A*28
$PGRME,3.0,M,3.0,M,4.3,M*29
$HCHDG,187.6,0.0,E,,*21
$YXXDR,A,6.2,D,PTCH,A,4.8,D,ROLL*55
$HCHDG,187.4,0.0,E,,*23
$GPRMC,164731.8,A,4845.37598,N,12230.26858,W,002.39,201.2,310813,016.9,E,A*28
$GPRMB,A,2.48,L,,Oh,4814.8080,N,12233.9900,W,30.7,185,2.29,V*1A
$PGRME,3.0,M,3.0,M,4.3,M*29
$HCHDG,187.4,0.0,E,,*23
$PTAK,FFP1,HEEL,@*07
$HCHDG,187.4,0.0,E,,*23
$GPRMC,164732.0,A,4845.37590,N,12230.26861,W,002.38,200.2,310813,016.9,E,A*21
$PGRME,3.0,M,3.0,M,4.3,M*29
$HCHDG,187.6,0.0,E,,*21
$HCHDG,187.4,0.0,E,,*23
$GPRMC,164732.2,A,4845.37584,N,12230.26862,W,002.40,201.0,310813,016.9,E,A*29
$PGRME,3.0,M,3.0,M,4.3,M*29
$YXXDR,A,6.1,D,PTCH,A,5.0,D,ROLL*5F
$PTAK,FFD1,5.0*50
$HCHDG,187.3,0.0,E,,*24
$HCHDG,187.3,0.0,E,,*24
$GPRMC,164732.4,A,4845.37584,N,12230.26883,W,002.41,201.1,310813,016.9,E,A*20
$PGRME,3.0,M,3.0,M,4.3,M*29
$HCHDG,187.3,0.0,E,,*24
$HCHDG,187.4,0.0,E,,*23
$GPRMC,164732.6,A,4845.37577,N,12230.26877,W,002.40,201.4,310813,016.9,E,A*21
$PGRME,3.0,M,3.0,M,4.3,M*29
$HCHDG,187.4,0.0,E,,*23
$YXXDR,A,6.0,D,PTCH,A,5.0,D,ROLL*5E
$HCHDG,187.5,0.0,E,,*22
$GPRMC,164732.8,A,4845.37562,N,12230.26887,W,002.40,201.7,310813,016.9,E,A*27
$GPRMB,A,2.48,L,,Oh,4814.8080,N,12233.9900,W,30.7,185,2.29,V*1A
$PGRME,3.0,M,3.0,M,4.3,M*29
$HCHDG,187.5,0.0,E,,*22
$HCHDG,187.5,0.0,E,,*22
$GPRMC,164733.0,A,4845.37547,N,12230.26900,W,002.41,199.5,310813,016.9,E,A*26
$PGRME,3.0,M,3.0,M,4.3,M*29
$HCHDG,187.2,0.0,E,,*25
$HCHDG,187.3,0.0,E,,*24
$GPRMC,164733.2,A,4845.37522,N,12230.26895,W,002.39,203.0,310813,016.9,E,A*20
$PGRME,3.0,M,3.0,M,4.3,M*29
$YXXDR,A,6.1,D,PTCH,A,5.1,D,ROLL*5E
$HCHDG,187.4,0.0,E,,*23
$HCHDG,187.4,0.0,E,,*23
$GPRMC,164733.4,A,4845.37515,N,12230.26890,W,002.37,201.1,310813,016.9,E,A*2A
$PGRME,3.0,M,3.0,M,4.3,M*29
$HCHDG,187.4,0.0,E,,*23
$HCHDG,187.2,0.0,E,,*25
$GPRMC,164733.6,A,4845.37510,N,12230.26893,W,002.36,202.4,310813,016.9,E,A*29
$PGRME,3.0,M,3.0,M,4.3,M*29
$HCHDG,187.2,0.0,E,,*25
$YXXDR,A,6.1,D,PTCH,A,5.1,D,ROLL*5E
$PTAK,FFD1,5.1*51
$HCHDG,187.2,0.0,E,,*25
$GPRMC,164733.8,A,4845.37499,N,12230.26899,W,002.36,202.0,310813,016.9,E,A*29
$GPRMB,A,2.48,L,,Oh,4814.8080,N,12233.9900,W,30.7,185,2.25,V*16
$PGRME,3.0,M,3.0,M,4.3,M*29
$HCHDG,187.2,0.0,E,,*25
$HCHDG,187.2,0.0,E,,*25
$GPRMC,164734.0,A,4845.37485,N,12230.26900,W,002.37,199.9,310813,016.9,E,A*23
$PGRME,3.0,M,3.0,M,4.3,M*29
$HCHDG,187.2,0.0,E,,*25
$HCHDG,187.2,0.0,E,,*25
$GPRMC,164734.2,A,4845.37471,N,12230.26896,W,002.38,201.9,310813,016.9,E,A*29
$PGRME,3.0,M,3.0,M,4.3,M*29
$YXXDR,A,6.2,D,PTCH,A,5.4,D,ROLL*58
$HCHDG,187.1,0.0,E,,*26
$HCHDG,187.1,0.0,E,,*26
$GPRMC,164734.4,A,4845.37465,N,12230.26898,W,002.38,201.9,310813,016.9,E,A*24
$PGRME,3.0,M,3.0,M,4.3,M*29
$HCHDG,187.1,0.0,E,,*26
$HCHDG,187.0,0.0,E,,*27
$GPRMC,164734.6,A,4845.37453,N,12230.26920,W,002.37,201.7,310813,016.9,E,A*20
$PGRME,3.0,M,3.0,M,4.3,M*29
$HCHDG,187.1,0.0,E,,*26
$YXXDR,A,6.0,D,PTCH,A,5.2,D,ROLL*5C
$HCHDG,187.1,0.0,E,,*26
$GPRMC,164734.8,A,4845.37440,N,12230.26929,W,002.37,200.8,310813,016.9,E,A*2B
$PGRME,3.0,M,3.0,M,4.3,M*29
$HCHDG,187.1,0.0,E,,*26
$HCHDG,187.1,0.0,E,,*26
$GPRMC,164735.0,A,4845.37424,N,12230.26948,W,002.36,202.3,310813,016.9,E,A*2F
$GPRMB,A,2.48,L,,Oh,4814.8080,N,12233.9900,W,30.7,185,2.25,V*16
$PGRME,3.0,M,3.0,M,4.3,M*29
$HCHDG,186.8,0.0,E,,*2E
$HCHDG,186.8,0.0,E,,*2E
$GPRMC,164735.2,A,4845.37404,N,12230.26954,W,002.37,200.6,310813,016.9,E,A*24
$PGRME,3.0,M,3.0,M,4.3,M*29
$YXXDR,A,6.3,D,PTCH,A,5.4,D,ROLL*59
$PTAK,FFD1,5.4*54
$HCHDG,186.9,0.0,E,,*2F
$HCHDG,186.8,0.0,E,,*2E
$GPRMC,164735.4,A,4845.37387,N,12230.26957,W,002.36,202.5,310813,016.9,E,A*2D
$PGRME,3.0,M,3.0,M,4.3,M*29
$HCHDG,186.5,0.0,E,,*23
$HCHDG,186.5,0.0,E,,*23
$GPRMC,164735.6,A,4845.37371,N,12230.26966,W,002.35,199.6,310813,016.9,E,A*25
$PGRME,3.0,M,3.0,M,4.3,M*29
$HCHDG,186.5,0.0,E,,*23
$YXXDR,A,5.9,D,PTCH,A,5.6,D,ROLL*52
$HCHDG,186.5,0.0,E,,*23
$GPRMC,164735.8,A,4845.37369,N,12230.26972,W,002.35,202.7,310813,016.9,E,A*27
$PGRME,3.0,M,3.0,M,4.3,M*29
$HCHDG,186.4,0.0,E,,*22
$HCHDG,186.3,0.0,E,,*25
$GPRMC,164736.0,A,4845.37369,N,12230.26974,W,002.37,202.1,310813,016.9,E,A*2E
$PGRME,3.0,M,3.0,M,4.3,M*29
$HCHDG,186.3,0.0,E,,*25
$HCHDG,186.3,0.0,E,,*25
$GPRMC,164736.2,A,4845.37361,N,12230.26969,W,002.38,198.2,310813,016.9,E,A*24
$GPRMB,A,2.48,L,,Oh,4814.8080,N,12233.9900,W,30.7,185,2.31,V*13
$PGRME,3.0,M,3.0,M,4.3,M*29
$YXXDR,A,6.0,D,PTCH,A,5.2,D,ROLL*5C
$PTAK,FFD1,5.2*52
$HCHDG,186.4,0.0,E,,*22
$PTAK,FFP1,HEEL,@*07
$HCHDG,186.3,0.0,E,,*25
$GPRMC,164736.4,A,4845.37348,N,12230.26972,W,002.36,203.2,310813,016.9,E,A*2C
$PGRME,3.0,M,3.0,M,4.3,M*29
$HCHDG,186.2,0.0,E,,*24
$HCHDG,186.1,0.0,E,,*27
$GPRMC,164736.6,A,4845.37321,N,12230.26976,W,002.34,199.2,310813,016.9,E,A*27
$PGRME,3.0,M,3.0,M,4.3,M*29
$HCHDG,185.9,0.0,E,,*2C
$YXXDR,A,6.1,D,PTCH,A,5.1,D,ROLL*5E
$HCHDG,186.0,0.0,E,,*26
$GPRMC,164736.8,A,4845.37312,N,12230.27004,W,002.37,200.7,310813,016.9,E,A*21
$PGRME,3.0,M,3.0,M,4.3,M*29
$HCHDG,185.9,0.0,E,,*2C
$HCHDG,185.7,0.0,E,,*22
$GPRMC,164737.0,A,4845.37297,N,12230.27025,W,002.36,203.2,310813,016.9,E,A*20
$PGRME,3.0,M,3.0,M,4.3,M*29
$HCHDG,185.6,0.0,E,,*23
$HCHDG,185.5,0.0,E,,*20
$GPRMC,164737.2,A,4845.37287,N,12230.27031,W,002.37,199.5,310813,016.9,E,A*20
$PGRME,3.0,M,3.0,M,4.3,M*29
$YXXDR,A,6.3,D,PTCH,A,5.0,D,ROLL*5D
$HCHDG,185.4,0.0,E,,*21
$HCHDG,185.6,0.0,E,,*23
$GPRMC,164737.4,A,4845.37280,N,12230.27055,W,002.38,201.6,310813,016.9,E,A*2D
$GPRMB,A,2.48,L,,Oh,4814.8080,N,12233.9900,W,30.7,185,2.28,V*1B
$PGRME,3.0,M,3.0,M,4.3,M*29
$HCHDG,185.5,0.0,E,,*20
$HCHDG,185.5,0.0,E,,*20
$GPRMC,164737.6,A,4845.37266,N,12230.27058,W,002.37,200.3,310813,016.9,E,A*21
$PGRME,3.0,M,3.0,M,4.3,M*29
$HCHDG,185.5,0.0,E,,*20
$YXXDR,A,6.3,D,PTCH,A,5.0,D,ROLL*5D
$PTAK,FFD1,5.0*50
$HCHDG,185.3,0.0,E,,*26
$GPRMC,164737.8,A,4845.37255,N,12230.27072,W,002.36,202.0,310813,016.9,E,A*27
$PGRME,3.0,M,3.0,M,4.3,M*29
$HCHDG,185.2,0.0,E,,*27
$HCHDG,185.1,0.0,E,,*24
$GPRMC,164738.0,A,4845.37245,N,12230.27091,W,002.34,201.6,310813,016.9,E,A*2B
$PGRME,3.0,M,3.0,M,4.3,M*29
$HCHDG,185.1,0.0,E,,*24
$HCHDG,185.0,0.0,E,,*25
$GPRMC,164738.2,A,4845.37234,N,12230.27108,W,002.34,201.6,310813,016.9,E,A*2E
$PGRME,3.0,M,3.0,M,4.3,M*29
$YXXDR,A,6.2,D,PTCH,A,5.0,D,ROLL*5C
$HCHDG,184.9,0.0,E,,*2D
$HCHDG,184.8,0.0,E,,*2C
$GPRMC,164738.4,A,4845.37225,N,12230.27124,W,002.34,201.4,310813,016.9,E,A*24
$PGRME,3.0,M,3.0,M,4.3,M*29
$HCHDG,185.0,0.0,E,,*25
$HCHDG,184.8,0.0,E,,*2C
$GPRMC,164738.6,A,4845.37223,N,12230.27136,W,002.34,201.5,310813,016.9,E,A*22
$GPRMB,A,2.48,L,,Oh,4814.8080,N,12233.9900,W,30.7,185,2.24,V*17
$PGRME,3.0,M,3.0,M,4.3,M*29
$HCHDG,184.8,0.0,E,,*2C
$YXXDR,A,6.0,D,PTCH,A,4.8,D,ROLL*57
$PTAK,FFD1,4.8*59
$HCHDG,184.8,0.0,E,,*2C
$GPRMC,164738.8,A,4845.37206,N,12230.27116,W,002.36,200.8,310813,016.9,E,A*27
$PGRME,3.0,M,3.0,M,4.3,M*29
$HCHDG,184.8,0.0,E,,*2C
$HCHDG,184.7,0.0,E,,*23
$GPRMC,164739.0,A,4845.37195,N,12230.27125,W,002.34,202.3,310813,016.9,E,A*2C
$PGRME,3.0,M,3.0,M,4.3,M*29
$HCHDG,184.6,0.0,E,,*22
$HCHDG,184.5,0.0,E,,*21
$GPRMC,164739.2,A,4845.37180,N,12230.27124,W,002.36,202.5,310813,016.9,E,A*2F
$PGRME,3.0,M,3.0,M,4.3,M*29
$YXXDR,A,5.9,D,PTCH,A,4.9,D,ROLL*5C
$HCHDG,184.5,0.0,E,,*21
$HCHDG,184.4,0.0,E,,*20
$GPRMC,164739.4,A,4845.37168,N,12230.27122,W,002.34,200.5,310813,016.9,E,A*29
$PGRME,3.0,M,3.0,M,4.3,M*29
$HCHDG,184.5,0.0,E,,*21
$HCHDG,184.4,0.0,E,,*20
$GPRMC,164739.6,A,4845.37157,N,12230.27123,W,002.36,200.7,310813,016.9,E,A*26
$GPRMB,A,2.48,L,,Oh,4814.8080,N,12233.9900,W,30.7,185,2.27,V*14
$PGRME,3.0,M,3.0,M,4.3,M*29
$HCHDG,184.3,0.0,E,,*27
$YXXDR,A,5.8,D,PTCH,A,5.0,D,ROLL*55
$HCHDG,184.2,0.0,E,,*26
$GPRMC,164739.8,A,4845.37142,N,12230.27119,W,002.35,204.3,310813,016.9,E,A*26
$PGRME,3.0,M,3.0,M,4.3,M*29
$HCHDG,184.2,0.0,E,,*26
$HCHDG,184.3,0.0,E,,*27
$GPRMC,164740.0,A,4845.37123,N,12230.27122,W,002.35,200.2,310813,016.9,E,A*2A
$PGRME,3.0,M,3.0,M,4.3,M*29
$HCHDG,184.1,0.0,E,,*25
$HCHDG,184.1,0.0,E,,*25
$GPRMC,164740.2,A,4845.37111,N,12230.27126,W,002.35,201.6,310813,016.9,E,A*28
$PGRME,3.0,M,3.0,M,4.3,M*29
$YXXDR,A,5.8,D,PTCH,A,5.0,D,ROLL*55
$PTAK,FFD1,5.0*50
$HCHDG,184.1,0.0,E,,*25
$HCHDG,183.9,0.0,E,,*2A
$GPRMC,164740.4,A,4845.37101,N,12230.27140,W,002.36,201.0,310813,016.9,E,A*2A
$PGRME,3.0,M,3.0,M,4.3,M*29
$HCHDG,183.9,0.0,E,,*2A
$PTAK,FFP1,HEEL,@*07
$HCHDG,183.9,0.0,E,,*2A
$GPRMC,164740.6,A,4845.37094,N,12230.27162,W,002.35,202.3,310813,016.9,E,A*26
$GPRMB,A,2.48,L,,Oh,4814.8080,N,12233.9900,W,30.7,185,2.24,V*17
$PGRME,3.0,M,3.0,M,4.3,M*29
$HCHDG,183.9,0.0,E,,*2A
$YXXDR,A,5.9,D,PTCH,A,5.2,D,ROLL*56
$HCHDG,183.9,0.0,E,,*2A
$GPRMC,164740.8,A,4845.37082,N,12230.27174,W,002.36,201.8,310813,016.9,E,A*23
$PGRME,3.0,M,3.0,M,4.3,M*29
$HCHDG,183.9,0.0,E,,*2A
$HCHDG,183.8,0.0,E,,*2B
$GPRMC,164741.0,A,4845.37065,N,12230.27167,W,002.35,201.7,310813,016.9,E,A*2D
$PGRME,3.0,M,3.0,M,4.3,M*29
$HCHDG,183.8,0.0,E,,*2B
$HCHDG,183.8,0.0,E,,*2B
$GPRMC,164741.2,A,4845.37048,N,12230.27164,W,002.35,200.2,310813,016.9,E,A*27
$PGRME,3.0,M,3.0,M,4.3,M*29
$YXXDR,A,6.2,D,PTCH,A,5.4,D,ROLL*58
$PTAK,FFD1,5.4*54
$HCHDG,183.8,0.0,E,,*2B
$HCHDG,183.5,0.0,E,,*26
$GPRMC,164741.4,A,4845.37036,N,12230.27179,W,002.35,200.3,310813,016.9,E,A*25
$PGRME,3.0,M,3.0,M,4.3,M*29
$HCHDG,183.4,0.0,E,,*27
$HCHDG,183.4,0.0,E,,*27
$GPRMC,164741.6,A,4845.37024,N,12230.27178,W,002.34,200.6,310813,016.9,E,A*21
$PGRME,3.0,M,3.0,M,4.3,M*29
$HCHDG,183.4,0.0,E,,*27
$YXXDR,A,6.0,D,PTCH,A,5.2,D,ROLL*5C
$HCHDG,183.4,0.0,E,,*27
$GPRMC,164741.8,A,4845.37007,N,12230.27195,W,002.35,200.7,310813,016.9,E,A*2D
$GPRMB,A,2.48,L,,Oh,4814.8080,N,12233.9900,W,30.7,185,2.26,V*15
$PGRME,3.0,M,3.0,M,4.3,M*29
$HCHDG,183.3,0.0,E,,*20
$HCHDG,183.3,0.0,E,,*20
$GPRMC,164742.0,A,4845.36994,N,12230.27217,W,002.35,201.3,310813,016.9,E,A*28
$PGRME,3.0,M,3.0,M,4.3,M*29
$HCHDG,183.3,0.0,E,,*20
$HCHDG,183.3,0.0,E,,*20
$GPRMC,164742.2,A,4845.36976,N,12230.27218,W,002.35,200.0,310813,016.9,E,A*2B
$PGRME,3.0,M,3.0,M,4.3,M*29
$YXXDR,A,6.2,D,PTCH,A,5.6,D,ROLL*5A
$HCHDG,183.3,0.0,E,,*20
$HCHDG,183.3,0.0,E,,*20
$GPRMC,164742.4,A,4845.36968,N,12230.27232,W,002.36,199.5,310813,016.9,E,A*2F
$PGRME,3.0,M,3.0,M,4.3,M*29
$HCHDG,183.3,0.0,E,,*20
$HCHDG,183.3,0.0,E,,*20
$GPRMC,164742.6,A,4845.36958,N,12230.27240,W,002.36,201.6,310813,016.9,E,A*2A
$PGRME,3.0,M,3.0,M,4.3,M*29
$HCHDG,183.3,0.0,E,,*20
$YXXDR,A,6.1,D,PTCH,A,5.3,D,ROLL*5C
$PTAK,FFD1,5.3*53
$HCHDG,183.3,0.0,E,,*20
$GPRMC,164742.8,A,4845.36949,N,12230.27244,W,002.35,198.8,310813,016.9,E,A*2E
$PGRME,3.0,M,3.0,M,4.3,M*29
$HCHDG,183.3,0.0,E,,*20
$HCHDG,183.3,0.0,E,,*20
$GPRMC,164743.0,A,4845.36942,N,12230.27255,W,002.35,199.5,310813,016.9,E,A*20
$GPRMB,A,2.48,L,,Oh,4814.8080,N,12233.9900,W,30.7,185,2.27,V*14
$PGRME,3.0,M,3.0,M,4.3,M*29
$HCHDG,183.4,0.0,E,,*27
$HCHDG,183.4,0.0,E,,*27
$GPRMC,164743.2,A,4845.36921,N,12230.27269,W,002.36,199.4,310813,016.9,E,A*2A
$PGRME,3.0,M,3.0,M,4.3,M*29
$YXXDR,A,6.3,D,PTCH,A,5.2,D,ROLL*5F
$HCHDG,183.5,0.0,E,,*26
$HCHDG,183.5,0.0,E,,*26
$GPRMC,164743.4,A,4845.36899,N,12230.27292,W,002.35,201.0,310813,016.9,E,A*2F
$PGRME,3.0,M,3.0,M,4.3,M*29
$HCHDG,183.5,0.0,E,,*26
$HCHDG,183.5,0.0,E,,*26
$GPRMC,164743.6,A,4845.36886,N,12230.27300,W,002.34,200.1,310813,016.9,E,A*28
$PGRME,3.0,M,3.0,M,4.3,M*29
$HCHDG,183.2,0.0,E,,*21
$YXXDR,A,6.1,D,PTCH,A,5.3,D,ROLL*5C
$HCHDG,183.2,0.0,E,,*21
$GPRMC,164743.8,A,4845.36876,N,12230.27295,W,002.37,200.4,310813,016.9,E,A*22
$PGRME,3.0,M,3.0,M,4.3,M*29
$HCHDG,183.2,0.0,E,,*21
$HCHDG,183.2,0.0,E,,*21
$GPRMC,164744.0,A,4845.36880,N,12230.27307,W,002.37,199.2,310813,016.9,E,A*2B
$GPRMB,A,2.48,L,,Oh,4814.8080,N,12233.9900,W,30.7,185,2.29,V*1A
$PGRME,3.0,M,3.0,M,4.3,M*29
$PGRMT,GPS 18x-5Hz software ver. 3.20,,,,,,,,*30
$HCHDG,183.2,0.0,E,,*21
$HCHDG,183.5,0.0,E,,*26
$GPRMC,164744.2,A,4845.36869,N,12230.27322,W,002.34,201.1,310813,016.9,E,A*2B
$PGRME,3.0,M,3.0,M,4.3,M*29
$YXXDR,A,6.1,D,PTCH,A,5.2,D,ROLL*5D
$PTAK,FFD1,5.2*52
$HCHDG,183.5,0.0,E,,*26
$HCHDG,183.5,0.0,E,,*26
$GPRMC,164744.4,A,4845.36857,N,12230.27325,W,002.34,202.7,310813,016.9,E,A*22
$PGRME,3.0,M,3.0,M,4.3,M*29
$HCHDG,183.8,0.0,E,,*2B
$PTAK,FFP1,HEEL,@*07
$HCHDG,183.8,0.0,E,,*2B
$GPRMC,164744.6,A,4845.36849,N,12230.27325,W,002.33,201.5,310813,016.9,E,A*29
$PGRME,3.0,M,3.0,M,4.3,M*29
$HCHDG,183.8,0.0,E,,*2B
$YXXDR,A,6.0,D,PTCH,A,4.9,D,ROLL*56
$HCHDG,183.8,0.0,E,,*2B
$GPRMC,164744.8,A,4845.36828,N,12230.27332,W,002.32,201.5,310813,016.9,E,A*27
$PGRME,3.0,M,3.0,M,4.3,M*29
$HCHDG,183.8,0.0,E,,*2B
$HCHDG,183.8,0.0,E,,*2B
$GPRMC,164745.0,A,4845.36824,N,12230.27339,W,002.32,200.9,310813,016.9,E,A*24
$GPRMB,A,2.48,L,,Oh,4814.8080,N,12233.9900,W,30.7,185,2.23,V*10
$PGRME,3.0,M,3.0,M,4.3,M*29
$HCHDG,183.9,0.0,E,,*2A
$HCHDG,183.7,0.0,E,,*24
$GPRMC,164745.2,A,4845.36811,N,12230.27348,W,002.34,198.7,310813,016.9,E,A*2C
$PGRME,3.0,M,3.0,M,4.3,M*29
$YXXDR,A,6.1,D,PTCH,A,5.3,D,ROLL*5C
$HCHDG,183.7,0.0,E,,*24
$HCHDG,183.8,0.0,E,,*2B
$GPRMC,164745.4,A,4845.36801,N,12230.27349,W,002.35,202.2,310813,016.9,E,A*2E
$PGRME,3.0,M,3.0,M,4.3,M*29
$HCHDG,183.9,0.0,E,,*2A
$HCHDG,183.9,0.0,E,,*2A
$GPRMC,164745.6,A,4845.36786,N,12230.27354,W,002.34,199.6,310813,016.9,E,A*24
$PGRME,3.0,M,3.0,M,4.3,M*29
$HCHDG,183.9,0.0,E,,*2A
$YXXDR,A,6.3,D,PTCH,A,5.4,D,ROLL*59
$PTAK,FFD1,5.4*54
$HCHDG,183.7,0.0,E,,*24
$GPRMC,164745.8,A,4845.36768,N,12230.27365,W,002.34,202.7,310813,016.9,E,A*28
$PGRME,3.0,M,3.0,M,4.3,M*29
$HCHDG,183.8,0.0,E,,*2B
$HCHDG,183.8,0.0,E,,*2B
$GPRMC,164746.0,A,4845.36754,N,12230.27366,W,002.35,201.0,310813,016.9,E,A*2A
$GPRMB,A,2.48,L,,Oh,4814.8080,N,12233.9900,W,30.7,185,2.25,V*16
$PGRME,3.0,M,3.0,M,4.3,M*29
$HCHDG,183.9,0.0,E,,*2A
$HCHDG,183.9,0.0,E,,*2A
$GPRMC,164746.2,A,4845.36747,N,12230.27376,W,002.33,202.0,310813,016.9,E,A*2E
$PGRME,3.0,M,3.0,M,4.3,M*29
$YXXDR,A,6.1,D,PTCH,A,5.5,D,ROLL*5A
$HCHDG,184.0,0.0,E,,*24
$HCHDG,183.8,0.0,E,,*2B
$GPRMC,164746.4,A,4845.36736,N,12230.27390,W,002.36,199.3,310813,016.9,E,A*21
$PGRME,3.0,M,3.0,M,4.3,M*29
$HCHDG,183.9,0.0,E,,*2A
$HCHDG,183.9,0.0,E,,*2A
$GPRMC,164746.6,A,4845.36719,N,12230.27399,W,002.35,200.8,310813,016.9,E,A*2C
$PGRME,3.0,M,3.0,M,4.3,M*29
$HCHDG,184.0,0.0,E,,*24
$YXXDR,A,6.3,D,PTCH,A,5.8,D,ROLL*55
$HCHDG,184.0,0.0,E,,*24
$GPRMC,164746.8,A,4845.36699,N,12230.27410,W,002.34,201.4,310813,016.9,E,A*21
$PGRME,3.0,M,3.0,M,4.3,M*29
$HCHDG,184.0,0.0,E,,*24
$HCHDG,184.1,0.0,E,,*25
$GPRMC,164747.0,A,4845.36685,N,12230.27426,W,002.34,199.8,310813,016.9,E,A*2E
$GPRMB,A,2.48,L,,Oh,4814.8080,N,12233.9900,W,30.7,185,2.26,V*15
$PGRME,3.0,M,3.0,M,4.3,M*29
$HCHDG,184.1,0.0,E,,*25
$HCHDG,184.1,0.0,E,,*25
$GPRMC,164747.2,A,4845.36676,N,12230.27439,W,002.33,202.5,310813,016.9,E,A*25
$PGRME,3.0,M,3.0,M,4.3,M*29
$YXXDR,A,6.1,D,PTCH,A,5.4,D,ROLL*5B
$PTAK,FFD1,5.4*54
$HCHDG,184.2,0.0,E,,*26
$HCHDG,184.0,0.0,E,,*24
$GPRMC,164747.4,A,4845.36669,N,12230.27453,W,002.34,199.6,310813,016.9,E,A*24
$PGRME,3.0,M,3.0,M,4.3,M*29
$HCHDG,184.0,0.0,E,,*24
$HCHDG,184.3,0.0,E,,*27
$GPRMC,164747.6,A,4845.36659,N,12230.27471,W,002.36,201.0,310813,016.9,E,A*23
$PGRME,3.0,M,3.0,M,4.3,M*29
$HCHDG,184.3,0.0,E,,*27
$YXXDR,A,6.1,D,PTCH,A,5.3,D,ROLL*5C
$HCHDG,184.4,0.0,E,,*20
$GPRMC,164747.8,A,4845.36644,N,12230.27490,W,002.36,201.2,310813,016.9,E,A*2C
$PGRME,3.0,M,3.0,M,4.3,M*29
$HCHDG,184.4,0.0,E,,*20
$HCHDG,184.4,0.0,E,,*20
$GPRMC,164748.0,A,4845.36632,N,12230.27505,W,002.37,198.6,310813,016.9,E,A*21
$GPRMB,A,2.48,L,,Oh,4814.8080,N,12233.9900,W,30.7,185,2.30,V*12
$PGRME,3.0,M,3.0,M,4.3,M*29
$HCHDG,184.4,0.0,E,,*20
$HCHDG,184.4,0.0,E,,*20
$GPRMC,164748.2,A,4845.36611,N,12230.27530,W,002.35,203.8,310813,016.9,E,A*29
$PGRME,3.0,M,3.0,M,4.3,M*29
$YXXDR,A,6.1,D,PTCH,A,5.3,D,ROLL*5C
$HCHDG,184.5,0.0,E,,*21
$HCHDG,184.5,0.0,E,,*21
$GPRMC,164748.4,A,4845.36590,N,12230.27541,W,002.33,198.6,310813,016.9,E,A*2A
$PGRME,3.0,M,3.0,M,4.3,M*29
$HCHDG,184.5,0.0,E,,*21
$HCHDG,184.5,0.0,E,,*21
$PTAK,FFP1,HEEL,@*07
$GPRMC,164748.6,A,4845.36576,N,12230.27544,W,002.29,202.5,310813,016.9,E,A*2D
$PGRME,3.0,M,3.0,M,4.3,M*29
$HCHDG,184.5,0.0,E,,*21
$YXXDR,A,6.0,D,PTCH,A,5.2,D,ROLL*5C
$PTAK,FFD1,5.2*52
$HCHDG,184.5,0.0,E,,*21
$GPRMC,164748.8,A,4845.36564,N,12230.27528,W,002.45,199.9,310813,016.9,E,A*2D
$PGRME,3.0,M,3.0,M,4.3,M*29
$HCHDG,184.6,0.0,E,,*22
$HCHDG,184.8,0.0,E,,*2C
$GPRMC,164749.0,A,4845.36560,N,12230.27513,W,002.21,201.5,310813,016.9,E,A*24
$PGRME,3.0,M,3.0,M,4.3,M*29
$HCHDG,184.8,0.0,E,,*2C
$HCHDG,184.8,0.0,E,,*2C
$GPRMC,164749.2,A,4845.36553,N,12230.27516,W,002.26,201.4,310813,016.9,E,A*25
$GPRMB,A,2.48,L,,Oh,4814.8080,N,12233.9900,W,30.7,185,2.16,V*16
$PGRME,3.0,M,3.0,M,4.3,M*29
$YXXDR,A,6.3,D,PTCH,A,5.1,D,ROLL*5C
$HCHDG,184.9,0.0,E,,*2D
$HCHDG,184.9,0.0,E,,*2D
$GPRMC,164749.4,A,4845.36530,N,12230.27494,W,002.47,200.7,310813,016.9,E,A*28
$PGRME,3.0,M,3.0,M,4.3,M*29
$HCHDG,184.9,0.0,E,,*2D
$HCHDG,184.9,0.0,E,,*2D
$GPRMC,164749.6,A,4845.36525,N,12230.27495,W,002.21,202.6,310813,016.9,E,A*2C
$PGRME,3.0,M,3.0,M,4.3,M*29
$HCHDG,185.0,0.0,E,,*25
$YXXDR,A,6.1,D,PTCH,A,5.1,D,ROLL*5E
$PTAK,FFD1,5.1*51
$HCHDG,185.0,0.0,E,,*25
$GPRMC,164749.8,A,4845.36507,N,12230.27495,W,002.50,198.7,310813,016.9,E,A*25
$PGRME,3.0,M,3.0,M,4.3,M*29
$HCHDG,185.0,0.0,E,,*25
$HCHDG,185.0,0.0,E,,*25
$GPRMC,164750.0,A,4845.36498,N,12230.27510,W,002.23,205.9,310813,016.9,E,A*23
$PGRME,3.0,M,3.0,M,4.3,M*29
$HCHDG,185.0,0.0,E,,*25
$HCHDG,185.0,0.0,E,,*25
$GPRMC,164750.2,A,4845.36488,N,12230.27523,W,002.30,198.7,310813,016.9,E,A*2B
$PGRME,3.0,M,3.0,M,4.3,M*29
$YXXDR,A,6.1,D,PTCH,A,5.2,D,ROLL*5D
$HCHDG,185.1,0.0,E,,*24
$HCHDG,185.1,0.0,E,,*24
$GPRMC,164750.4,A,4845.36484,N,12230.27504,W,002.29,203.9,310813,016.9,E,A*23
$GPRMB,A,2.48,L,,Oh,4814.8080,N,12233.9900,W,30.7,185,2.16,V*16
$PGRME,3.0,M,3.0,M,4.3,M*29
$HCHDG,185.1,0.0,E,,*24
$HCHDG,185.1,0.0,E,,*24
$GPRMC,164750.6,A,4845.36479,N,12230.27499,W,002.32,199.8,310813,016.9,E,A*2D
$PGRME,3.0,M,3.0,M,4.3,M*29
$HCHDG,185.1,0.0,E,,*24
$YXXDR,A,6.2,D,PTCH,A,5.3,D,ROLL*5F
$PTAK,FFD1,5.3*53
$HCHDG,185.2,0.0,E,,*27
$GPRMC,164750.8,A,4845.36478,N,12230.27508,W,002.30,205.3,310813,016.9,E,A*24
$PGRME,3.0,M,3.0,M,4.3,M*29
$HCHDG,185.2,0.0,E,,*27
$HCHDG,185.2,0.0,E,,*27
$GPRMC,164751.0,A,4845.36468,N,12230.27527,W,002.33,199.1,310813,016.9,E,A*26
$PGRME,3.0,M,3.0,M,4.3,M*29
$HCHDG,185.2,0.0,E,,*27
$HCHDG,185.3,0.0,E,,*26
$GPRMC,164751.2,A,4845.36459,N,12230.27543,W,002.32,202.8,310813,016.9,E,A*2D
$PGRME,3.0,M,3.0,M,4.3,M*29
$YXXDR,A,6.1,D,PTCH,A,5.3,D,ROLL*5C
$HCHDG,185.3,0.0,E,,*26
$HCHDG,185.3,0.0,E,,*26
$GPRMC,164751.4,A,4845.36447,N,12230.27542,W,002.32,201.6,310813,016.9,E,A*28
$PGRME,3.0,M,3.0,M,4.3,M*29
$HCHDG,185.4,0.0,E,,*21
$HCHDG,185.4,0.0,E,,*21
$GPRMC,164751.6,A,4845.36430,N,12230.27543,W,002.32,200.9,310813,016.9,E,A*25
$GPRMB,A,2.48,L,,Oh,4814.8080,N,12233.9900,W,30.7,185,2.23,V*10
$PGRME,3.0,M,3.0,M,4.3,M*29
$HCHDG,185.4,0.0,E,,*21
$YXXDR,A,6.1,D,PTCH,A,5.1,D,ROLL*5E
$PTAK,FFD1,5.1*51
$HCHDG,185.5,0.0,E,,*20
$GPRMC,164751.8,A,4845.36413,N,12230.27558,W,002.32,203.0,310813,016.9,E,A*2A
$PGRME,3.0,M,3.0,M,4.3,M*29
$HCHDG,185.5,0.0,E,,*20
$HCHDG,185.5,0.0,E,,*20
$GPRMC,164752.0,A,4845.36399,N,12230.27569,W,002.29,204.0,310813,016.9,E,A*2B
$PGRME,3.0,M,3.0,M,4.3,M*29
$HCHDG,185.8,0.0,E,,*2D
$HCHDG,185.9,0.0,E,,*2C
$GPRMC,164752.2,A,4845.36394,N,12230.27571,W,002.28,202.1,310813,016.9,E,A*2B
$PGRME,3.0,M,3.0,M,4.3,M*29
$YXXDR,A,6.4,D,PTCH,A,5.1,D,ROLL*5B
$HCHDG,185.9,0.0,E,,*2C
$HCHDG,185.9,0.0,E,,*2C
$GPRMC,164752.4,A,4845.36385,N,12230.27587,W,002.29,202.7,310813,016.9,E,A*23
$PGRME,3.0,M,3.0,M,4.3,M*29
$HCHDG,185.9,0.0,E,,*2C
$HCHDG,186.0,0.0,E,,*26
$PTAK,FFP1,HEEL,@*07
$GPRMC,164752.6,A,4845.36368,N,12230.27604,W,002.29,202.3,310813,016.9,E,A*2E
$PGRME,3.0,M,3.0,M,4.3,M*29
$HCHDG,186.0,0.0,E,,*26
$YXXDR,A,6.3,D,PTCH,A,5.1,D,ROLL*5C
$HCHDG,186.0,0.0,E,,*26
