$GPRMC,230000.8,A,4844.01571,N,12231.12546,W,005.06,028.2,300813,016.9,E,D*2E
$PGRME,2.4,M,2.4,M,3.4,M*29
$HCHDG,9.4,0.0,E,,*24
$IIRMC,230000,A,4844.014,N,12231.126,W,05.0,029,300813,16,E,A*10
$YXXDR,A,6.1,D,PTCH,A,6.3,D,ROLL*5F
$PTAK,FFD1,6.3*50
$IIVHW,,,,,05.2,N,,*1E
$HCHDG,9.3,0.0,E,,*23
$GPRMC,230001.0,A,4844.01591,N,12231.12530,W,005.05,030.2,300813,016.9,E,D*22
$PGRME,2.4,M,2.4,M,3.4,M*29
$IIVLW,02190,N,050.3,N*5F
$HCHDG,9.3,0.0,E,,*23
$HCHDG,9.6,0.0,E,,*26
$GPRMC,230001.2,A,4844.01612,N,12231.12510,W,005.07,029.3,300813,016.9,E,D*21
$PGRME,2.4,M,2.4,M,3.4,M*29
$HCHDG,9.9,0.0,E,,*29
$HCHDG,10.2,0.0,E,,*1A
$GPRMC,230001.4,A,4844.01640,N,12231.12484,W,005.08,028.9,300813,016.9,E,D*28
$GPRMB,A,1.91,L,,Oh,4814.8080,N,12233.9900,W,29.3,184,-4.60,V*36
$PGRME,2.4,M,2.4,M,3.4,M*29
$YXXDR,A,6.0,D,PTCH,A,8.3,D,ROLL*50
$HCHDG,10.2,0.0,E,,*1A
$IIVWR,031,L,06.7,N,,,,*7C
$HCHDG,10.2,0.0,E,,*1A
$IIDPT,018.7,-1.0,*4E
$GPRMC,230001.6,A,4844.01667,N,12231.12460,W,005.07,029.1,300813,016.9,E,D*23
$PGRME,2.4,M,2.4,M,3.4,M*29
$HCHDG,10.2,0.0,E,,*1A
$IIGLL,4844.015,N,12231.125,W,230000,A,A*4E
$IIMTW,+19.0,C*30
$IIMWV,329,R,06.7,N,A*1A
$HCHDG,10.2,0.0,E,,*1A
$IIMWV,279,T,03.4,N,A*1E
$GPRMC,230001.8,A,4844.01698,N,12231.12439,W,005.06,027.0,300813,016.9,E,D*2F
$PGRME,2.4,M,2.4,M,3.4,M*29
$HCHDG,10.2,0.0,E,,*1A
$IIRMB,A,1.91,L,,Oh  ,,,,,029.3,184,,V,A*6C
$YXXDR,A,6.1,D,PTCH,A,6.8,D,ROLL*54
$HCHDG,10.0,0.0,E,,*18
$GPRMC,230002.0,A,4844.01729,N,12231.12423,W,005.06,030.2,300813,016.9,E,D*20
$PGRME,2.4,M,2.4,M,3.4,M*29
$IIRMC,230000,A,4844.015,N,12231.125,W,05.0,030,300813,16,E,A*1A
$HCHDG,9.7,0.0,E,,*27
$HCHDG,9.5,0.0,E,,*25
$GPRMC,230002.2,A,4844.01756,N,12231.12398,W,005.07,028.7,300813,016.9,E,D*20
$PGRME,2.4,M,2.4,M,3.4,M*29
$HCHDG,9.3,0.0,E,,*23
$HCHDG,9.1,0.0,E,,*21
$GPRMC,230002.4,A,4844.01780,N,12231.12378,W,005.07,030.3,300813,016.9,E,D*2E
$GPRMB,A,1.91,L,,Oh,4814.8080,N,12233.9900,W,29.3,184,-4.53,V*36
$PGRME,2.4,M,2.4,M,3.4,M*29
$YXXDR,A,6.3,D,PTCH,A,5.4,D,ROLL*59
$PTAK,FFD1,5.4*54
$HCHDG,8.9,0.0,E,,*28
$IIVHW,,,,,05.4,N,,*18
$HCHDG,8.7,0.0,E,,*26
$IIVLW,02190,N,050.3,N*5F
$GPRMC,230002.6,A,4844.01809,N,12231.12363,W,005.07,027.9,300813,016.9,E,D*24
$PGRME,2.4,M,2.4,M,3.4,M*29
$IIVWR,032,L,06.7,N,,,,*7F
$HCHDG,8.5,0.0,E,,*24
$IIDPT,018.7,-1.0,*4E
$HCHDG,8.4,0.0,E,,*25
$IIGLL,4844.017,N,12231.124,W,230000,A,A*4D
$IIMTW,+19.0,C*30
$GPRMC,230002.8,A,4844.01835,N,12231.12343,W,005.06,028.6,300813,016.9,E,D*26
$PGRME,2.4,M,2.4,M,3.4,M*29
$IIMWV,328,R,06.7,N,A*1B
$HCHDG,8.5,0.0,E,,*24
$IIMWV,275,T,03.4,N,A*12
$YXXDR,A,6.0,D,PTCH,A,5.2,D,ROLL*5C
$HCHDG,8.3,0.0,E,,*22
$IIRMB,A,1.91,L,,Oh  ,,,,,029.3,184,,V,A*6C
$GPRMC,230003.0,A,4844.01859,N,12231.12319,W,005.04,028.5,300813,016.9,E,D*2B
$PGRME,2.4,M,2.4,M,3.4,M*29
$HCHDG,8.4,0.0,E,,*25
$HCHDG,8.2,0.0,E,,*23
$GPRMC,230003.2,A,4844.01889,N,12231.12307,W,005.03,028.7,300813,016.9,E,D*2E
$PGRME,2.4,M,2.4,M,3.4,M*29
$HCHDG,8.0,0.0,E,,*21
$HCHDG,7.8,0.0,E,,*26
$GPRMC,230003.4,A,4844.01919,N,12231.12284,W,005.00,029.6,300813,016.9,E,D*29
$PGRME,2.4,M,2.4,M,3.4,M*29
$YXXDR,A,5.8,D,PTCH,A,4.6,D,ROLL*52
$HCHDG,7.6,0.0,E,,*28
$HCHDG,7.7,0.0,E,,*29
$IIRMC,230000,A,4844.018,N,12231.123,W,05.0,028,300813,16,E,A*18
$GPRMC,230003.6,A,4844.01949,N,12231.12261,W,004.99,029.7,300813,016.9,E,D*25
$GPRMB,A,1.91,L,,Oh,4814.8080,N,12233.9900,W,29.3,184,-4.49,V*3D
$PGRME,2.4,M,2.4,M,3.4,M*29
$IIVHW,,,,,05.4,N,,*18
$HCHDG,7.5,0.0,E,,*2B
$IIVLW,02190,N,050.3,N*5F
$HCHDG,7.6,0.0,E,,*28
$IIVWR,032,L,06.9,N,,,,*71
$IIDPT,018.7,-1.0,*4E
$GPRMC,230003.8,A,4844.01972,N,12231.12239,W,004.98,028.6,300813,016.9,E,D*2F
$PGRME,2.4,M,2.4,M,3.4,M*29
$HCHDG,7.6,0.0,E,,*28
$IIGLL,4844.018,N,12231.123,W,230000,A,A*45
$YXXDR,A,6.0,D,PTCH,A,4.8,D,ROLL*57
$PTAK,FFD1,4.8*59
$IIMTW,+19.0,C*30
$HCHDG,7.7,0.0,E,,*29
$IIMWV,328,R,06.9,N,A*15
$GPRMC,230004.0,A,4844.01994,N,12231.12216,W,004.96,028.7,300813,016.9,E,D*2A
$PGRME,2.4,M,2.4,M,3.4,M*29
$IIMWV,273,T,03.5,N,A*15
$HCHDG,8.1,0.0,E,,*20
$PTAK,FFP1,HEEL,@*07
$HCHDG,8.5,0.0,E,,*24
$GPRMC,230004.2,A,4844.02016,N,12231.12193,W,004.95,029.0,300813,016.9,E,D*23
$PGRME,2.4,M,2.4,M,3.4,M*29
$HCHDG,8.9,0.0,E,,*28
$HCHDG,9.2,0.0,E,,*22
$GPRMC,230004.4,A,4844.02042,N,12231.12168,W,004.95,029.9,300813,016.9,E,D*29
$PGRME,2.4,M,2.4,M,3.4,M*29
$YXXDR,A,6.0,D,PTCH,A,6.3,D,ROLL*5E
$HCHDG,9.5,0.0,E,,*25
$IIRMB,A,1.91,L,,Oh  ,,,,,029.3,184,,V,A*6C
$HCHDG,9.5,0.0,E,,*25
$GPRMC,230004.6,A,4844.02067,N,12231.12141,W,004.94,029.4,300813,016.9,E,D*2B
$PGRME,2.4,M,2.4,M,3.4,M*29
$HCHDG,9.6,0.0,E,,*26
$IIRMC,230000,A,4844.019,N,12231.122,W,04.9,028,300813,16,E,A*10
$IIVHW,,,,,05.4,N,,*18
$HCHDG,9.9,0.0,E,,*29
$IIVLW,02190,N,050.3,N*5F
$GPRMC,230004.8,A,4844.02094,N,12231.12112,W,004.94,028.8,300813,016.9,E,D*22
$GPRMB,A,1.91,L,,Oh,4814.8080,N,12233.9900,W,29.3,184,-4.48,V*3C
$PGRME,2.4,M,2.4,M,3.4,M*29
$IIVWR,031,L,06.8,N,,,,*73
$HCHDG,10.3,0.0,E,,*1B
$IIDPT,018.7,-1.0,*4E
$YXXDR,A,5.9,D,PTCH,A,6.4,D,ROLL*53
$PTAK,FFD1,6.4*57
$IIGLL,4844.019,N,12231.122,W,230000,A,A*45
$HCHDG,10.3,0.0,E,,*1B
$GPRMC,230005.0,A,4844.02116,N,12231.12088,W,004.93,029.5,300813,016.9,E,D*29
$PGRME,2.4,M,2.4,M,3.4,M*29
$IIMTW,+19.0,C*30
$HCHDG,10.3,0.0,E,,*1B
$HCHDG,10.4,0.0,E,,*1C
$GPRMC,230005.2,A,4844.02136,N,12231.12063,W,004.96,028.7,300813,016.9,E,D*2A
$PGRME,2.4,M,2.4,M,3.4,M*29
$HCHDG,10.5,0.0,E,,*1D
$HCHDG,10.3,0.0,E,,*1B
$GPRMC,230005.4,A,4844.02152,N,12231.12045,W,004.96,028.5,300813,016.9,E,D*28
$PGRME,2.4,M,2.4,M,3.4,M*29
$YXXDR,A,5.8,D,PTCH,A,5.2,D,ROLL*57
$HCHDG,10.1,0.0,E,,*19
$IIMWV,328,R,06.8,N,A*14
$IIMWV,277,T,03.5,N,A*11
$HCHDG,10.0,0.0,E,,*18
$GPRMC,230005.6,A,4844.02176,N,12231.12024,W,004.98,028.9,300813,016.9,E,D*29
$PGRME,2.4,M,2.4,M,3.4,M*29
$HCHDG,9.9,0.0,E,,*29
$IIRMB,A,1.91,L,,Oh  ,,,,,029.3,184,,V,A*6C
$HCHDG,10.1,0.0,E,,*19
$IIRMC,230000,A,4844.021,N,12231.120,W,04.9,029,300813,16,E,A*18
$GPRMC,230005.8,A,4844.02202,N,12231.12009,W,005.00,029.2,300813,016.9,E,D*22
$GPRMB,A,1.91,L,,Oh,4814.8080,N,12233.9900,W,29.3,184,-4.51,V*34
$PGRME,2.4,M,2.4,M,3.4,M*29
$IIVHW,,,,,05.3,N,,*1F
$HCHDG,10.3,0.0,E,,*1B
$IIVLW,02190,N,050.3,N*5F
$YXXDR,A,6.0,D,PTCH,A,4.6,D,ROLL*59
$PTAK,FFD1,4.6*57
$IIVWR,032,L,06.8,N,,,,*70
$HCHDG,10.2,0.0,E,,*1A
$IIDPT,018.7,-1.0,*4E
$GPRMC,230006.0,A,4844.02224,N,12231.11991,W,005.03,029.4,300813,016.9,E,D*23
$PGRME,2.4,M,2.4,M,3.4,M*29
$HCHDG,10.4,0.0,E,,*1C
$HCHDG,10.5,0.0,E,,*1D
$GPRMC,230006.2,A,4844.02247,N,12231.11977,W,005.04,029.6,300813,016.9,E,D*29
$PGRME,2.4,M,2.4,M,3.4,M*29
$HCHDG,10.5,0.0,E,,*1D
$HCHDG,10.6,0.0,E,,*1E
$GPRMC,230006.4,A,4844.02271,N,12231.11959,W,005.04,030.0,300813,016.9,E,D*28
$PGRME,2.4,M,2.4,M,3.4,M*29
$YXXDR,A,6.0,D,PTCH,A,4.3,D,ROLL*5C
$HCHDG,10.9,0.0,E,,*11
$IIGLL,4844.022,N,12231.119,W,230000,A,A*45
$HCHDG,10.9,0.0,E,,*11
$IIMTW,+19.0,C*30
$GPRMC,230006.6,A,4844.02294,N,12231.11943,W,005.02,029.7,300813,016.9,E,D*23
$PGRME,2.4,M,2.4,M,3.4,M*29
$IIMWV,328,R,06.7,N,A*1B
$HCHDG,11.2,0.0,E,,*1B
$IIMWV,275,T,03.6,N,A*10
$HCHDG,11.5,0.0,E,,*1C
$IIRMB,A,1.91,L,,Oh  ,,,,,029.3,184,,V,A*6C
$GPRMC,230006.8,A,4844.02317,N,12231.11926,W,005.02,029.6,300813,016.9,E,D*25
$PGRME,2.4,M,2.4,M,3.4,M*29
$HCHDG,11.7,0.0,E,,*1E
$IIRMC,230000,A,4844.022,N,12231.119,W,05.0,029,300813,16,E,A*19
$YXXDR,A,5.8,D,PTCH,A,4.8,D,ROLL*5C
$IIVHW,,,,,05.3,N,,*1F
$HCHDG,11.7,0.0,E,,*1E
$GPRMC,230007.0,A,4844.02341,N,12231.11912,W,005.02,030.0,300813,016.9,E,D*26
$GPRMB,A,1.91,L,,Oh,4814.8080,N,12233.9900,W,29.3,184,-4.50,V*35
$PGRME,2.4,M,2.4,M,3.4,M*29
$IIVLW,02190,N,050.3,N*5F
$HCHDG,11.6,0.0,E,,*1F
$HCHDG,11.1,0.0,E,,*18
$GPRMC,230007.2,A,4844.02358,N,12231.11893,W,005.00,030.7,300813,016.9,E,D*21
$PGRME,2.4,M,2.4,M,3.4,M*29
$HCHDG,11.1,0.0,E,,*18
$HCHDG,10.9,0.0,E,,*11
$GPRMC,230007.4,A,4844.02374,N,12231.11877,W,005.02,028.9,300813,016.9,E,D*26
$PGRME,2.4,M,2.4,M,3.4,M*29
$YXXDR,A,5.8,D,PTCH,A,2.3,D,ROLL*51
$PTAK,FFD1,2.3*54
$HCHDG,10.5,0.0,E,,*1D
$IIVWR,031,L,06.7,N,,,,*7C
$HCHDG,10.3,0.0,E,,*1B
$IIDPT,018.7,-1.0,*4E
$GPRMC,230007.6,A,4844.02399,N,12231.11857,W,005.05,028.9,300813,016.9,E,D*22
$PGRME,2.4,M,2.4,M,3.4,M*29
$IIGLL,4844.023,N,12231.119,W,230000,A,A*44
$HCHDG,10.4,0.0,E,,*1C
$IIMTW,+19.0,C*30
$IIMWV,329,R,06.7,N,A*1A
$HCHDG,10.3,0.0,E,,*1B
$IIMWV,273,T,03.5,N,A*15
$GPRMC,230007.8,A,4844.02426,N,12231.11827,W,005.05,029.9,300813,016.9,E,D*29
$PGRME,2.4,M,2.4,M,3.4,M*29
$HCHDG,10.4,0.0,E,,*1C
$IIRMB,A,1.91,L,,Oh  ,,,,,029.3,184,,V,A*6C
$YXXDR,A,6.1,D,PTCH,A,3.0,D,ROLL*59
$HCHDG,10.2,0.0,E,,*1A
$GPRMC,230008.0,A,4844.02454,N,12231.11796,W,005.03,030.5,300813,016.9,E,D*2C
$PGRME,2.4,M,2.4,M,3.4,M*29
$IIRMC,230000,A,4844.023,N,12231.119,W,05.0,030,300813,16,E,A*10
$HCHDG,10.4,0.0,E,,*1C
$PTAK,FFP1,HEEL,@*07
$HCHDG,10.6,0.0,E,,*1E
$GPRMC,230008.2,A,4844.02483,N,12231.11772,W,005.03,029.6,300813,016.9,E,D*25
$GPRMB,A,1.91,L,,Oh,4814.8080,N,12233.9900,W,29.3,184,-4.53,V*36
$PGRME,2.4,M,2.4,M,3.4,M*29
$HCHDG,10.8,0.0,E,,*10
$HCHDG,11.0,0.0,E,,*19
$GPRMC,230008.4,A,4844.02506,N,12231.11748,W,005.02,027.8,300813,016.9,E,D*27
$PGRME,2.4,M,2.4,M,3.4,M*29
$YXXDR,A,5.7,D,PTCH,A,4.6,D,ROLL*5D
$PTAK,FFD1,4.6*57
$HCHDG,11.5,0.0,E,,*1C
$IIVHW,,,,,05.3,N,,*1F
$HCHDG,11.7,0.0,E,,*1E
$IIVLW,02190,N,050.3,N*5F
$GPRMC,230008.6,A,4844.02532,N,12231.11721,W,004.99,029.6,300813,016.9,E,D*2E
$PGRME,2.4,M,2.4,M,3.4,M*29
$IIVWR,033,L,06.7,N,,,,*7E
$HCHDG,12.3,0.0,E,,*19
$IIDPT,018.7,-1.0,*4E
$IIGLL,4844.024,N,12231.117,W,230000,A,A*4D
$HCHDG,12.2,0.0,E,,*18
$IIMTW,+19.0,C*30
$GPRMC,230008.8,A,4844.02547,N,12231.11699,W,004.98,028.9,300813,016.9,E,D*2F
$PGRME,2.4,M,2.4,M,3.4,M*29
$IIMWV,327,R,06.7,N,A*14
$HCHDG,12.3,0.0,E,,*19
$IIMWV,275,T,03.4,N,A*12
$YXXDR,A,6.4,D,PTCH,A,4.3,D,ROLL*58
$HCHDG,12.5,0.0,E,,*1F
$IIRMB,A,1.91,L,,Oh  ,,,,,029.3,184,,V,A*6C
$GPRMC,230009.0,A,4844.02570,N,12231.11675,W,005.02,029.8,300813,016.9,E,D*22
$PGRME,2.4,M,2.4,M,3.4,M*29
$HCHDG,12.6,0.0,E,,*1C
$HCHDG,12.4,0.0,E,,*1E
$GPRMC,230009.2,A,4844.02598,N,12231.11651,W,005.03,029.7,300813,016.9,E,D*2E
$GPRMB,A,1.91,L,,Oh,4814.8080,N,12233.9900,W,29.3,184,-4.52,V*37
$PGRME,2.4,M,2.4,M,3.4,M*29
$HCHDG,12.2,0.0,E,,*18
$HCHDG,11.9,0.0,E,,*10
$GPRMC,230009.4,A,4844.02625,N,12231.11629,W,005.02,032.0,300813,016.9,E,D*2E
$PGRME,2.4,M,2.4,M,3.4,M*29
$YXXDR,A,5.9,D,PTCH,A,1.6,D,ROLL*56
$HCHDG,11.6,0.0,E,,*1F
$HCHDG,11.3,0.0,E,,*1A
$IIRMC,230000,A,4844.025,N,12231.116,W,05.0,029,300813,16,E,A*11
$GPRMC,230009.6,A,4844.02647,N,12231.11608,W,005.03,031.7,300813,016.9,E,D*2E
$PGRME,2.4,M,2.4,M,3.4,M*29
$IIVHW,,,,,05.3,N,,*1F
$HCHDG,11.3,0.0,E,,*1A
$IIVLW,02190,N,050.3,N*5F
$HCHDG,11.3,0.0,E,,*1A
$IIVWR,033,L,06.7,N,,,,*7E
$IIDPT,018.7,-1.0,*4E
$GPRMC,230009.8,A,4844.02664,N,12231.11581,W,005.02,031.2,300813,016.9,E,D*27
$PGRME,2.4,M,2.4,M,3.4,M*29
$HCHDG,11.2,0.0,E,,*1B
$IIGLL,4844.025,N,12231.116,W,230000,A,A*4D
$YXXDR,A,5.9,D,PTCH,A,1.4,D,ROLL*54
$PTAK,FFD1,1.4*50
$IIMTW,+19.0,C*30
$HCHDG,10.9,0.0,E,,*11
$IIMWV,327,R,06.7,N,A*14
$GPRMC,230010.0,A,4844.02692,N,12231.11557,W,005.01,031.7,300813,016.9,E,D*23
$PGRME,2.4,M,2.4,M,3.4,M*29
$IIMWV,275,T,03.6,N,A*10
$HCHDG,10.7,0.0,E,,*1F
$HCHDG,10.6,0.0,E,,*1E
$GPRMC,230010.2,A,4844.02723,N,12231.11530,W,005.01,031.4,300813,016.9,E,D*28
$GPRMB,A,1.92,L,,Oh,4814.8080,N,12233.9900,W,29.3,184,-4.44,V*33
$PGRME,2.4,M,2.4,M,3.4,M*29
$HCHDG,10.1,0.0,E,,*19
$HCHDG,10.3,0.0,E,,*1B
$GPRMC,230010.4,A,4844.02739,N,12231.11499,W,005.00,031.1,300813,016.9,E,D*23
$PGRME,2.4,M,2.4,M,3.4,M*29
$YXXDR,A,6.0,D,PTCH,A,1.0,D,ROLL*5A
$HCHDG,10.3,0.0,E,,*1B
$IIRMB,A,1.91,L,,Oh  ,,,,,029.3,184,,V,A*6C
$HCHDG,10.5,0.0,E,,*1D
$GPRMC,230010.6,A,4844.02760,N,12231.11480,W,005.01,029.4,300813,016.9,E,D*28
$PGRME,2.4,M,2.4,M,3.4,M*29
$HCHDG,10.7,0.0,E,,*1F
$IIRMC,230000,A,4844.027,N,12231.115,W,05.0,031,300813,16,E,A*19
$IIVHW,,,,,05.3,N,,*1F
$HCHDG,11.0,0.0,E,,*19
$IIVLW,02190,N,050.3,N*5F
$GPRMC,230010.8,A,4844.02788,N,12231.11457,W,004.98,032.0,300813,016.9,E,D*25
$PGRME,2.4,M,2.4,M,3.4,M*29
$IIVWR,031,L,06.7,N,,,,*7C
$HCHDG,11.3,0.0,E,,*1A
$IIDPT,018.7,-1.0,*4E
$YXXDR,A,6.0,D,PTCH,A,3.5,D,ROLL*5D
$HCHDG,11.3,0.0,E,,*1A
$IIGLL,4844.027,N,12231.115,W,230000,A,A*4C
$GPRMC,230011.0,A,4844.02809,N,12231.11425,W,004.97,031.5,300813,016.9,E,D*26
$PGRME,2.4,M,2.4,M,3.4,M*29
$IIMTW,+19.0,C*30
$HCHDG,11.8,0.0,E,,*11
$HCHDG,12.0,0.0,E,,*1A
$GPRMC,230011.2,A,4844.02831,N,12231.11401,W,004.97,030.7,300813,016.9,E,D*2A
$GPRMB,A,1.92,L,,Oh,4814.8080,N,12233.9900,W,29.3,184,-4.43,V*34
$PGRME,2.4,M,2.4,M,3.4,M*29
$HCHDG,12.1,0.0,E,,*1B
$HCHDG,12.3,0.0,E,,*19
$GPRMC,230011.4,A,4844.02852,N,12231.11382,W,004.95,030.2,300813,016.9,E,D*22
$PGRME,2.4,M,2.4,M,3.4,M*29
$YXXDR,A,6.0,D,PTCH,A,4.8,D,ROLL*57
$PTAK,FFD1,4.8*59
$HCHDG,12.5,0.0,E,,*1F
$IIMWV,329,R,06.6,N,A*1B
$HCHDG,12.7,0.0,E,,*1D
$IIMWV,275,T,03.4,N,A*12
$GPRMC,230011.6,A,4844.02870,N,12231.11371,W,004.94,031.2,300813,016.9,E,D*2C
$PGRME,2.4,M,2.4,M,3.4,M*29
$IIRMB,A,1.92,L,,Oh  ,,,,,029.3,184,,V,A*6F
$HCHDG,12.9,0.0,E,,*13
$HCHDG,12.8,0.0,E,,*12
$IIRMC,230000,A,4844.028,N,12231.114,W,04.9,030,300813,16,E,A*1E
$GPRMC,230011.8,A,4844.02891,N,12231.11356,W,004.95,030.0,300813,016.9,E,D*2A
$PGRME,2.4,M,2.4,M,3.4,M*29
$IIVHW,,,,,05.4,N,,*18
$HCHDG,12.5,0.0,E,,*1F
$IIVLW,02190,N,050.3,N*5F
$YXXDR,A,6.2,D,PTCH,A,3.8,D,ROLL*52
$IIVWR,031,L,06.6,N,,,,*7D
$HCHDG,12.4,0.0,E,,*1E
$IIDPT,018.7,-1.0,*4E
$GPRMC,230012.0,A,4844.02912,N,12231.11342,W,004.93,030.7,300813,016.9,E,D*2F
$PGRME,2.4,M,2.4,M,3.4,M*29
$HCHDG,12.0,0.0,E,,*1A
$HCHDG,12.0,0.0,E,,*1A
$GPRMC,230012.2,A,4844.02936,N,12231.11323,W,004.94,029.6,300813,016.9,E,D*22
$PTAK,FFP1,HEEL,@*07
$PGRME,2.4,M,2.4,M,3.4,M*29
$HCHDG,11.6,0.0,E,,*1F
$HCHDG,11.5,0.0,E,,*1C
$GPRMC,230012.4,A,4844.02959,N,12231.11298,W,004.95,030.5,300813,016.9,E,D*26
$GPRMB,A,1.92,L,,Oh,4814.8080,N,12233.9900,W,29.3,184,-4.42,V*35
$PGRME,2.4,M,2.4,M,3.4,M*29
$YXXDR,A,5.9,D,PTCH,A,2.6,D,ROLL*55
$PTAK,FFD1,2.6*51
$HCHDG,11.4,0.0,E,,*1D
$IIGLL,4844.028,N,12231.114,W,230000,A,A*42
$HCHDG,11.1,0.0,E,,*18
$IIMTW,+19.0,C*30
$GPRMC,230012.6,A,4844.02984,N,12231.11274,W,004.94,030.2,300813,016.9,E,D*20
$PGRME,2.4,M,2.4,M,3.4,M*29
$IIMWV,328,R,06.5,N,A*19
$HCHDG,10.9,0.0,E,,*11
$IIMWV,272,T,03.4,N,A*15
$HCHDG,10.6,0.0,E,,*1E
$IIRMB,A,1.92,L,,Oh  ,,,,,029.3,184,,V,A*6F
$GPRMC,230012.8,A,4844.03009,N,12231.11256,W,004.96,029.6,300813,016.9,E,D*2D
$PGRME,2.4,M,2.4,M,3.4,M*29
$HCHDG,10.7,0.0,E,,*1F
$IIRMC,230000,A,4844.028,N,12231.114,W,04.9,030,300813,16,E,A*1E
$YXXDR,A,6.0,D,PTCH,A,1.8,D,ROLL*52
$IIVHW,,,,,05.4,N,,*18
$HCHDG,10.4,0.0,E,,*1C
$GPRMC,230013.0,A,4844.03024,N,12231.11229,W,004.99,029.4,300813,016.9,E,D*2E
$PGRME,2.4,M,2.4,M,3.4,M*29
$IIVLW,02190,N,050.3,N*5F
$HCHDG,10.5,0.0,E,,*1D
$HCHDG,10.5,0.0,E,,*1D
$GPRMC,230013.2,A,4844.03044,N,12231.11202,W,005.00,030.3,300813,016.9,E,D*2D
$PGRME,2.4,M,2.4,M,3.4,M*29
$HCHDG,10.8,0.0,E,,*10
$HCHDG,10.8,0.0,E,,*10
$GPRMC,230013.4,A,4844.03065,N,12231.11177,W,005.01,031.3,300813,016.9,E,D*29
$GPRMB,A,1.92,L,,Oh,4814.8080,N,12233.9900,W,29.3,184,-4.44,V*33
$PGRME,2.4,M,2.4,M,3.4,M*29
$YXXDR,A,6.0,D,PTCH,A,2.8,D,ROLL*51
$HCHDG,11.4,0.0,E,,*1D
$IIVWR,033,L,06.5,N,,,,*7C
$HCHDG,11.5,0.0,E,,*1C
$IIDPT,018.7,-1.0,*4E
$GPRMC,230013.6,A,4844.03087,N,12231.11149,W,005.01,030.1,300813,016.9,E,D*29
$PGRME,2.4,M,2.4,M,3.4,M*29
$IIGLL,4844.029,N,12231.112,W,230000,A,A*45
$HCHDG,11.6,0.0,E,,*1F
$IIMTW,+19.0,C*30
$IIMWV,327,R,06.5,N,A*16
$HCHDG,11.5,0.0,E,,*1C
$IIMWV,270,T,03.4,N,A*17
$GPRMC,230013.8,A,4844.03111,N,12231.11123,W,005.02,030.6,300813,016.9,E,D*21
$PGRME,2.4,M,2.4,M,3.4,M*29
$HCHDG,11.3,0.0,E,,*1A
$IIRMB,A,1.92,L,,Oh  ,,,,,029.3,184,,V,A*6F
$YXXDR,A,6.0,D,PTCH,A,2.7,D,ROLL*5E
$PTAK,FFD1,2.7*50
$HCHDG,11.1,0.0,E,,*18
$GPRMC,230014.0,A,4844.03132,N,12231.11105,W,005.02,030.5,300813,016.9,E,D*28
$PGRME,2.4,M,2.4,M,3.4,M*29
$IIRMC,230000,A,4844.029,N,12231.112,W,04.9,030,300813,16,E,A*19
$HCHDG,10.9,0.0,E,,*11
$HCHDG,10.4,0.0,E,,*1C
$GPRMC,230014.2,A,4844.03155,N,12231.11086,W,005.04,030.9,300813,016.9,E,D*2B
$PGRME,2.4,M,2.4,M,3.4,M*29
$HCHDG,10.2,0.0,E,,*1A
$HCHDG,10.1,0.0,E,,*19
$GPRMC,230014.4,A,4844.03182,N,12231.11064,W,005.06,031.0,300813,016.9,E,D*21
$PGRME,2.4,M,2.4,M,3.4,M*29
$YXXDR,A,5.8,D,PTCH,A,1.2,D,ROLL*53
$HCHDG,10.1,0.0,E,,*19
$IIVHW,,,,,05.5,N,,*19
$IIVLW,02190,N,050.3,N*5F
$HCHDG,10.1,0.0,E,,*19
$GPRMC,230014.6,A,4844.03205,N,12231.11040,W,005.07,030.4,300813,016.9,E,D*2D
$GPRMB,A,1.92,L,,Oh,4814.8080,N,12233.9900,W,29.3,184,-4.53,V*35
$PGRME,2.4,M,2.4,M,3.4,M*29
$IIVWR,033,L,06.5,N,,,,*7C
$HCHDG,10.0,0.0,E,,*18
$IIDPT,018.7,-1.0,*4E
$HCHDG,10.0,0.0,E,,*18
$IIGLL,4844.030,N,12231.111,W,230000,A,A*4E
$IIMTW,+19.0,C*30
$GPRMC,230014.8,A,4844.03228,N,12231.11010,W,005.09,029.1,300813,016.9,E,D*2A
$PGRME,2.4,M,2.4,M,3.4,M*29
$IIMWV,327,R,06.5,N,A*16
$HCHDG,10.0,0.0,E,,*18
$IIMWV,270,T,03.5,N,A*16
$YXXDR,A,5.7,D,PTCH,A,1.9,D,ROLL*57
$PTAK,FFD1,1.9*5D
$HCHDG,10.0,0.0,E,,*18
$IIRMB,A,1.92,L,,Oh  ,,,,,029.3,184,,V,A*6F
$GPRMC,230015.0,A,4844.03251,N,12231.10987,W,005.10,029.4,300813,016.9,E,D*26
$PGRME,2.4,M,2.4,M,3.4,M*29
$HCHDG,9.8,0.0,E,,*28
$HCHDG,9.5,0.0,E,,*25
$GPRMC,230015.2,A,4844.03276,N,12231.10967,W,005.07,031.0,300813,016.9,E,D*24
$PGRME,2.4,M,2.4,M,3.4,M*29
$HCHDG,9.4,0.0,E,,*24
$HCHDG,9.1,0.0,E,,*21
$GPRMC,230015.4,A,4844.03303,N,12231.10946,W,005.05,030.1,300813,016.9,E,D*20
$PGRME,2.4,M,2.4,M,3.4,M*29
$YXXDR,A,5.8,D,PTCH,A,1.2,D,ROLL*53
$HCHDG,8.8,0.0,E,,*29
$HCHDG,8.8,0.0,E,,*29
$IIRMC,230000,A,4844.032,N,12231.110,W,05.0,030,300813,16,E,A*19
$GPRMC,230015.6,A,4844.03333,N,12231.10923,W,005.01,030.5,300813,016.9,E,D*22
$GPRMB,A,1.92,L,,Oh,4814.8080,N,12233.9900,W,29.3,184,-4.47,V*30
$PGRME,2.4,M,2.4,M,3.4,M*29
$IIVHW,,,,,05.4,N,,*18
$HCHDG,8.7,0.0,E,,*26
$IIVLW,02190,N,050.3,N*5F
$IIVWR,033,L,06.5,N,,,,*7C
$HCHDG,9.0,0.0,E,,*20
$IIDPT,018.7,-1.0,*4E
$GPRMC,230015.8,A,4844.03364,N,12231.10899,W,005.01,030.0,300813,016.9,E,D*2B
$PGRME,2.4,M,2.4,M,3.4,M*29
$HCHDG,9.3,0.0,E,,*23
$IIGLL,4844.032,N,12231.110,W,230000,A,A*4D
$IIMTW,+19.0,C*30
$YXXDR,A,6.0,D,PTCH,A,2.0,D,ROLL*59
$PTAK,FFD1,2.0*57
$HCHDG,9.5,0.0,E,,*25
$IIMWV,327,R,06.5,N,A*16
$GPRMC,230016.0,A,4844.03391,N,12231.10881,W,004.99,029.8,300813,016.9,E,D*23
$PGRME,2.4,M,2.4,M,3.4,M*29
$IIMWV,268,T,03.5,N,A*1F
$HCHDG,10.1,0.0,E,,*19
$HCHDG,10.4,0.0,E,,*1C
$GPRMC,230016.2,A,4844.03412,N,12231.10868,W,005.01,030.9,300813,016.9,E,D*23
$PTAK,FFP1,HEEL,@*07
$PGRME,2.4,M,2.4,M,3.4,M*29
$HCHDG,11.0,0.0,E,,*19
$HCHDG,11.0,0.0,E,,*19
$GPRMC,230016.4,A,4844.03431,N,12231.10864,W,005.03,030.3,300813,016.9,E,D*20
$PGRME,2.4,M,2.4,M,3.4,M*29
$YXXDR,A,6.2,D,PTCH,A,4.3,D,ROLL*5E
$HCHDG,10.9,0.0,E,,*11
$IIRMB,A,1.92,L,,Oh  ,,,,,029.3,184,,V,A*6F
$HCHDG,10.9,0.0,E,,*11
$GPRMC,230016.6,A,4844.03451,N,12231.10859,W,005.05,029.4,300813,016.9,E,D*23
$PGRME,2.4,M,2.4,M,3.4,M*29
$HCHDG,10.6,0.0,E,,*1E
$IIRMC,230000,A,4844.032,N,12231.110,W,05.0,030,300813,16,E,A*19
$IIVHW,,,,,05.4,N,,*18
$HCHDG,10.3,0.0,E,,*1B
$IIVLW,02190,N,050.3,N*5F
$GPRMC,230016.8,A,4844.03472,N,12231.10841,W,005.05,030.0,300813,016.9,E,D*29
$GPRMB,A,1.92,L,,Oh,4814.8080,N,12233.9900,W,29.3,184,-4.53,V*35
$PGRME,2.4,M,2.4,M,3.4,M*29
$IIVWR,034,L,06.5,N,,,,*7B
$HCHDG,10.4,0.0,E,,*1C
$IIDPT,018.7,-1.0,*4E
$YXXDR,A,5.6,D,PTCH,A,1.4,D,ROLL*5B
$PTAK,FFD1,1.4*50
$IIGLL,4844.032,N,12231.110,W,230000,A,A*4D
$HCHDG,10.2,0.0,E,,*1A
$GPRMC,230017.0,A,4844.03491,N,12231.10825,W,005.04,031.5,300813,016.9,E,D*2A
$PGRME,2.4,M,2.4,M,3.4,M*29
$IIMTW,+19.0,C*30
$HCHDG,9.9,0.0,E,,*29
$HCHDG,9.9,0.0,E,,*29
$GPRMC,230017.2,A,4844.03509,N,12231.10818,W,004.88,033.4,300813,016.9,E,D*20
$PGRME,2.4,M,2.4,M,3.4,M*29
$HCHDG,9.7,0.0,E,,*27
$HCHDG,9.7,0.0,E,,*27
$GPRMC,230017.4,A,4844.03533,N,12231.10799,W,005.05,030.5,300813,016.9,E,D*2F
$PGRME,2.4,M,2.4,M,3.4,M*29
$YXXDR,A,6.3,D,PTCH,A,1.5,D,ROLL*5C
$HCHDG,9.4,0.0,E,,*24
$IIMWV,324,R,06.7,N,A*17
$IIMWV,268,T,03.6,N,A*1C
$HCHDG,9.4,0.0,E,,*24
$GPRMC,230017.6,A,4844.03563,N,12231.10781,W,005.05,031.3,300813,016.9,E,D*26
$PGRME,2.4,M,2.4,M,3.4,M*29
$HCHDG,9.1,0.0,E,,*21
$IIRMB,A,1.92,L,,Oh  ,,,,,029.3,184,,V,A*6F
$HCHDG,9.1,0.0,E,,*21
$IIRMC,230000,A,4844.034,N,12231.108,W,05.0,029,300813,16,E,A*1E
$GPRMC,230017.8,A,4844.03593,N,12231.10748,W,005.08,030.1,300813,016.9,E,D*2C
$GPRMB,A,1.92,L,,Oh,4814.8080,N,12233.9900,W,29.3,184,-4.55,V*33
$PGRME,2.4,M,2.4,M,3.4,M*29
$IIVHW,,,,,05.4,N,,*18
$HCHDG,9.1,0.0,E,,*21
$IIVLW,02190,N,050.3,N*5F
$YXXDR,A,6.0,D,PTCH,A,1.3,D,ROLL*59
$PTAK,FFD1,1.3*57
$IIVWR,036,L,06.7,N,,,,*7B
$HCHDG,8.8,0.0,E,,*29
$IIDPT,018.7,-1.0,*4E
$GPRMC,230018.0,A,4844.03623,N,12231.10723,W,005.03,029.9,300813,016.9,E,D*25
$PGRME,2.4,M,2.4,M,3.4,M*29
$HCHDG,8.8,0.0,E,,*29
$HCHDG,8.5,0.0,E,,*24
$GPRMC,230018.2,A,4844.03652,N,12231.10697,W,004.98,031.3,300813,016.9,E,D*2F
$PGRME,2.4,M,2.4,M,3.4,M*29
$HCHDG,8.5,0.0,E,,*24
$HCHDG,8.2,0.0,E,,*23
$GPRMC,230018.4,A,4844.03680,N,12231.10678,W,004.97,031.7,300813,016.9,E,D*2C
$PGRME,2.4,M,2.4,M,3.4,M*29
$YXXDR,A,5.8,D,PTCH,A,0.8,D,ROLL*58
$HCHDG,7.9,0.0,E,,*27
$IIGLL,4844.035,N,12231.107,W,230000,A,A*4C
$HCHDG,7.9,0.0,E,,*27
$IIMTW,+19.0,C*30
$GPRMC,230018.6,A,4844.03707,N,12231.10661,W,004.94,031.2,300813,016.9,E,D*2E
$PGRME,2.4,M,2.4,M,3.4,M*29
$IIMWV,323,R,06.7,N,A*10
$HCHDG,7.6,0.0,E,,*28
$IIMWV,270,T,03.9,N,A*1A
$HCHDG,7.6,0.0,E,,*28
$IIRMB,A,1.92,L,,Oh  ,,,,,029.3,184,,V,A*6F
$GPRMC,230018.8,A,4844.03738,N,12231.10639,W,004.95,030.9,300813,016.9,E,D*2A
$PGRME,2.4,M,2.4,M,3.4,M*29
$HCHDG,7.3,0.0,E,,*2D
$IIRMC,230000,A,4844.035,N,12231.107,W,05.0,031,300813,16,E,A*19
$YXXDR,A,5.8,D,PTCH,A,0.8,D,ROLL*58
$IIVHW,,,,,05.3,N,,*1F
$HCHDG,7.3,0.0,E,,*2D
$GPRMC,230019.0,A,4844.03767,N,12231.10614,W,004.98,029.6,300813,016.9,E,D*2C
$GPRMB,A,1.92,L,,Oh,4814.8080,N,12233.9900,W,29.3,184,-4.48,V*3F
$PGRME,2.4,M,2.4,M,3.4,M*29
$IIVLW,02190,N,050.3,N*5F
$HCHDG,7.5,0.0,E,,*2B
$HCHDG,7.5,0.0,E,,*2B
$GPRMC,230019.2,A,4844.03795,N,12231.10591,W,004.98,030.9,300813,016.9,E,D*2A
$PGRME,2.4,M,2.4,M,3.4,M*29
$HCHDG,7.8,0.0,E,,*26
$HCHDG,8.0,0.0,E,,*21
$GPRMC,230019.4,A,4844.03818,N,12231.10559,W,004.98,031.2,300813,016.9,E,D*28
$PGRME,2.4,M,2.4,M,3.4,M*29
$YXXDR,A,5.6,D,PTCH,A,2.2,D,ROLL*5E
$PTAK,FFD1,2.2*55
$HCHDG,8.3,0.0,E,,*22
$IIVWR,037,L,06.7,N,,,,*7A
$HCHDG,8.8,0.0,E,,*29
$IIDPT,018.7,-1.0,*4E
$GPRMC,230019.6,A,4844.03843,N,12231.10537,W,004.97,032.4,300813,016.9,E,D*26
$PGRME,2.4,M,2.4,M,3.4,M*29
$HCHDG,9.1,0.0,E,,*21
$IIGLL,4844.037,N,12231.106,W,230000,A,A*4F
$IIMTW,+19.0,C*30
$IIMWV,323,R,06.7,N,A*10
$HCHDG,9.1,0.0,E,,*21
$IIMWV,269,T,04.0,N,A*1C
$GPRMC,230019.8,A,4844.03867,N,12231.10518,W,004.99,030.5,300813,016.9,E,D*2E
$PGRME,2.4,M,2.4,M,3.4,M*29
$HCHDG,9.4,0.0,E,,*24
$IIRMB,A,1.92,L,,Oh  ,,,,,029.3,184,,V,A*6F
$YXXDR,A,6.0,D,PTCH,A,2.8,D,ROLL*51
$HCHDG,9.4,0.0,E,,*24
$GPRMC,230020.0,A,4844.03896,N,12231.10497,W,004.98,031.3,300813,016.9,E,D*22
$PGRME,2.4,M,2.4,M,3.4,M*29
$IIRMC,230000,A,4844.037,N,12231.106,W,04.9,031,300813,16,E,A*12
$HCHDG,9.7,0.0,E,,*27
$HCHDG,9.9,0.0,E,,*29
$GPRMC,230020.2,A,4844.03923,N,12231.10469,W,005.02,029.4,300813,016.9,E,D*22
$GPRMB,A,1.92,L,,Oh,4814.8080,N,12233.9900,W,29.3,184,-4.53,V*35
$PGRME,2.4,M,2.4,M,3.4,M*29
$HCHDG,10.2,0.0,E,,*1A
$PTAK,FFP1,HEEL,@*07
$HCHDG,10.5,0.0,E,,*1D
$GPRMC,230020.4,A,4844.03949,N,12231.10437,W,005.02,030.0,300813,016.9,E,D*2F
$PGRME,2.4,M,2.4,M,3.4,M*29
$YXXDR,A,6.3,D,PTCH,A,3.5,D,ROLL*5E
$PTAK,FFD1,3.5*53
$HCHDG,10.5,0.0,E,,*1D
$IIVHW,,,,,05.2,N,,*1E
$HCHDG,10.8,0.0,E,,*10
$IIVLW,02190,N,050.3,N*5F
$GPRMC,230020.6,A,4844.03976,N,12231.10409,W,005.01,029.8,300813,016.9,E,D*2F
$PGRME,2.4,M,2.4,M,3.4,M*29
$IIVWR,037,L,06.7,N,,,,*7A
$HCHDG,10.7,0.0,E,,*1F
$IIDPT,018.5,-1.0,*4C
$HCHDG,10.7,0.0,E,,*1F
$IIGLL,4844.038,N,12231.105,W,230000,A,A*43
$IIMTW,+19.0,C*30
$GPRMC,230020.8,A,4844.04002,N,12231.10384,W,005.01,030.4,300813,016.9,E,D*2A
$PGRME,2.4,M,2.4,M,3.4,M*29
$IIMWV,323,R,06.7,N,A*10
$HCHDG,10.7,0.0,E,,*1F
$IIMWV,270,T,04.0,N,A*14
$YXXDR,A,6.2,D,PTCH,A,2.7,D,ROLL*5C
$HCHDG,10.5,0.0,E,,*1D
$IIRMB,A,1.92,L,,Oh  ,,,,,029.3,184,,V,A*6F
$GPRMC,230021.0,A,4844.04024,N,12231.10362,W,005.02,030.8,300813,016.9,E,D*20
$PGRME,2.4,M,2.4,M,3.4,M*29
$HCHDG,10.3,0.0,E,,*1B
$HCHDG,10.1,0.0,E,,*19
$GPRMC,230021.2,A,4844.04042,N,12231.10344,W,005.01,031.2,300813,016.9,E,D*2E
$GPRMB,A,1.92,L,,Oh,4814.8080,N,12233.9900,W,29.3,184,-4.45,V*32
$PGRME,2.4,M,2.4,M,3.4,M*29
$HCHDG,9.8,0.0,E,,*28
$HCHDG,9.9,0.0,E,,*29
$GPRMC,230021.4,A,4844.04057,N,12231.10326,W,005.01,030.2,300813,016.9,E,D*29
$PGRME,2.4,M,2.4,M,3.4,M*29
$YXXDR,A,5.8,D,PTCH,A,1.9,D,ROLL*58
$HCHDG,10.2,0.0,E,,*1A
$HCHDG,10.5,0.0,E,,*1D
$IIRMC,230000,A,4844.039,N,12231.104,W,05.0,029,300813,16,E,A*1F
$GPRMC,230021.6,A,4844.04073,N,12231.10304,W,005.02,031.3,300813,016.9,E,D*2E
$PGRME,2.4,M,2.4,M,3.4,M*29
$IIVHW,,,,,05.2,N,,*1E
$HCHDG,10.8,0.0,E,,*10
$IIVLW,02190,N,050.3,N*5F
$HCHDG,11.4,0.0,E,,*1D
$IIVWR,036,L,06.7,N,,,,*7B
$IIDPT,018.5,-1.0,*4C
$GPRMC,230021.8,A,4844.04088,N,12231.10282,W,005.01,030.9,300813,016.9,E,D*23
$PGRME,2.4,M,2.4,M,3.4,M*29
$HCHDG,11.8,0.0,E,,*11
$IIGLL,4844.039,N,12231.104,W,230000,A,A*43
$YXXDR,A,5.7,D,PTCH,A,3.5,D,ROLL*59
$PTAK,FFD1,3.5*53
$IIMTW,+19.0,C*30
$HCHDG,11.9,0.0,E,,*10
$IIMWV,324,R,06.7,N,A*17
$GPRMC,230022.0,A,4844.04110,N,12231.10261,W,004.80,030.1,300813,016.9,E,D*25
$PGRME,2.4,M,2.4,M,3.4,M*29
$IIMWV,271,T,04.0,N,A*15
$HCHDG,12.2,0.0,E,,*18
$HCHDG,12.0,0.0,E,,*1A
$GPRMC,230022.2,A,4844.04134,N,12231.10236,W,005.05,030.2,300813,016.9,E,D*2C
$GPRMB,A,1.92,L,,Oh,4814.8080,N,12233.9900,W,29.3,184,-4.52,V*34
$PGRME,2.4,M,2.4,M,3.4,M*29
$HCHDG,12.0,0.0,E,,*1A
$HCHDG,12.0,0.0,E,,*1A
$GPRMC,230022.4,A,4844.04161,N,12231.10215,W,005.00,031.2,300813,016.9,E,D*2F
$PGRME,2.4,M,2.4,M,3.4,M*29
$YXXDR,A,5.9,D,PTCH,A,2.7,D,ROLL*54
$HCHDG,12.2,0.0,E,,*18
$IIRMB,A,1.92,L,,Oh  ,,,,,029.3,184,,V,A*6F
$HCHDG,12.2,0.0,E,,*18
$GPRMC,230022.6,A,4844.04178,N,12231.10196,W,005.02,031.4,300813,016.9,E,D*29
$PGRME,2.4,M,2.4,M,3.4,M*29
$HCHDG,12.2,0.0,E,,*18
$IIRMC,230000,A,4844.040,N,12231.103,W,05.0,031,300813,16,E,A*1F
$IIVHW,,,,,05.1,N,,*1D
$HCHDG,12.5,0.0,E,,*1F
$IIVLW,02190,N,050.3,N*5F
$GPRMC,230022.8,A,4844.04199,N,12231.10174,W,005.01,031.4,300813,016.9,E,D*27
$PGRME,2.4,M,2.4,M,3.4,M*29
$IIVWR,035,L,06.7,N,,,,*78
$HCHDG,12.8,0.0,E,,*12
$IIDPT,018.5,-1.0,*4C
$YXXDR,A,5.9,D,PTCH,A,3.6,D,ROLL*54
$HCHDG,12.9,0.0,E,,*13
$IIGLL,4844.040,N,12231.103,W,230000,A,A*4A
$GPRMC,230023.0,A,4844.04219,N,12231.10150,W,005.04,030.1,300813,016.9,E,D*22
$PGRME,2.4,M,2.4,M,3.4,M*29
$IIMTW,+19.0,C*30
$HCHDG,13.2,0.0,E,,*19
$HCHDG,13.4,0.0,E,,*1F
$GPRMC,230023.2,A,4844.04244,N,12231.10126,W,005.03,030.2,300813,016.9,E,D*2D
$PGRME,2.4,M,2.4,M,3.4,M*29
$HCHDG,13.6,0.0,E,,*1D
$HCHDG,14.0,0.0,E,,*1C
$GPRMC,230023.4,A,4844.04267,N,12231.10093,W,004.87,032.5,300813,016.9,E,D*2D
$GPRMB,A,1.93,L,,Oh,4814.8080,N,12233.9900,W,29.3,184,-4.27,V*37
$PGRME,2.4,M,2.4,M,3.4,M*29
$YXXDR,A,5.9,D,PTCH,A,5.0,D,ROLL*54
$PTAK,FFD1,5.0*50
$HCHDG,14.1,0.0,E,,*1D
$IIMWV,327,R,06.6,N,A*15
$HCHDG,14.2,0.0,E,,*1E
$IIMWV,273,T,03.8,N,A*18
$GPRMC,230023.6,A,4844.04292,N,12231.10062,W,005.04,030.8,300813,016.9,E,D*2E
$PGRME,2.4,M,2.4,M,3.4,M*29
$HCHDG,14.3,0.0,E,,*1F
$IIRMB,A,1.92,L,,Oh  ,,,,,029.3,184,,V,A*6F
$HCHDG,14.4,0.0,E,,*18
$IIRMC,230000,A,4844.041,N,12231.101,W,05.0,031,300813,16,E,A*1C
$GPRMC,230023.8,A,4844.04318,N,12231.10033,W,005.01,032.6,300813,016.9,E,D*2E
$PGRME,2.4,M,2.4,M,3.4,M*29
$IIVHW,,,,,05.0,N,,*1C
$HCHDG,14.2,0.0,E,,*1E
$IIVLW,02190,N,050.3,N*5F
$YXXDR,A,5.9,D,PTCH,A,5.4,D,ROLL*50
$IIVWR,033,L,06.6,N,,,,*7F
$HCHDG,14.0,0.0,E,,*1C
$IIDPT,018.5,-1.0,*4C
$GPRMC,230024.0,A,4844.04337,N,12231.10008,W,005.03,031.2,300813,016.9,E,D*21
$PGRME,2.4,M,2.4,M,3.4,M*29
$HCHDG,14.0,0.0,E,,*1C
$HCHDG,14.0,0.0,E,,*1C
$GPRMC,230024.2,A,4844.04358,N,12231.09983,W,005.07,031.0,300813,016.9,E,D*2E
$PGRME,2.4,M,2.4,M,3.4,M*29
$HCHDG,13.9,0.0,E,,*12
$HCHDG,13.9,0.0,E,,*12
$GPRMC,230024.4,A,4844.04384,N,12231.09958,W,005.26,030.1,300813,016.9,E,D*2C
$GPRMB,A,1.93,L,,Oh,4814.8080,N,12233.9900,W,29.3,184,-4.71,V*34
$PGRME,2.4,M,2.4,M,3.4,M*29
$YXXDR,A,6.1,D,PTCH,A,5.9,D,ROLL*56
$PTAK,FFP1,HEEL,@*07
$HCHDG,13.9,0.0,E,,*12
$IIGLL,4844.042,N,12231.100,W,230000,A,A*4B
$HCHDG,13.8,0.0,E,,*13
$IIMTW,+19.0,C*30
$GPRMC,230024.6,A,4844.04407,N,12231.09932,W,005.05,032.2,300813,016.9,E,D*2E
$PGRME,2.4,M,2.4,M,3.4,M*29
$IIMWV,329,R,06.4,N,A*19
$HCHDG,13.9,0.0,E,,*12
$IIMWV,277,T,03.5,N,A*11
$HCHDG,13.8,0.0,E,,*13
$IIRMB,A,1.93,L,,Oh  ,,,,,029.3,184,,V,A*6E
$GPRMC,230024.8,A,4844.04433,N,12231.09916,W,005.07,031.2,300813,016.9,E,D*20
$PGRME,2.4,M,2.4,M,3.4,M*29
$HCHDG,14.1,0.0,E,,*1D
$IIRMC,230000,A,4844.042,N,12231.100,W,05.0,030,300813,16,E,A*1F
$YXXDR,A,5.8,D,PTCH,A,6.3,D,ROLL*55
$PTAK,FFD1,6.3*50
$IIVHW,,,,,04.9,N,,*14
$HCHDG,14.0,0.0,E,,*1C
$GPRMC,230025.0,A,4844.04457,N,12231.09892,W,005.11,029.2,300813,016.9,E,D*28
$PGRME,2.4,M,2.4,M,3.4,M*29
$IIVLW,02190,N,050.3,N*5F
$HCHDG,13.9,0.0,E,,*12
$HCHDG,14.0,0.0,E,,*1C
$GPRMC,230025.2,A,4844.04480,N,12231.09867,W,005.09,031.1,300813,016.9,E,D*29
$PGRME,2.4,M,2.4,M,3.4,M*29
$HCHDG,13.8,0.0,E,,*13
$HCHDG,13.4,0.0,E,,*1F
$GPRMC,230025.4,A,4844.04505,N,12231.09845,W,005.11,030.8,300813,016.9,E,D*22
$PGRME,2.4,M,2.4,M,3.4,M*29
$YXXDR,A,5.6,D,PTCH,A,6.0,D,ROLL*58
$HCHDG,12.8,0.0,E,,*12
$IIVWR,030,L,06.3,N,,,,*79
$HCHDG,12.7,0.0,E,,*1D
$IIDPT,018.5,-1.0,*4C
$GPRMC,230025.6,A,4844.04533,N,12231.09823,W,005.13,030.5,300813,016.9,E,D*2A
$GPRMB,A,1.93,L,,Oh,4814.8080,N,12233.9900,W,29.3,184,-4.58,V*3F
$PGRME,2.4,M,2.4,M,3.4,M*29
$IIGLL,4844.044,N,12231.099,W,230000,A,A*4C
$HCHDG,12.4,0.0,E,,*1E
$IIMTW,+19.0,C*30
$IIMWV,330,R,06.3,N,A*16
$HCHDG,12.4,0.0,E,,*1E
$IIMWV,279,T,03.3,N,A*19
$GPRMC,230025.8,A,4844.04553,N,12231.09800,W,005.12,031.4,300813,016.9,E,D*22
$PGRME,2.4,M,2.4,M,3.4,M*29
$HCHDG,12.1,0.0,E,,*1B
$IIRMB,A,1.93,L,,Oh  ,,,,,029.3,184,,V,A*6E
$YXXDR,A,5.9,D,PTCH,A,5.6,D,ROLL*52
$HCHDG,12.3,0.0,E,,*19
$GPRMC,230026.0,A,4844.04578,N,12231.09783,W,005.12,030.6,300813,016.9,E,D*27
$PGRME,2.4,M,2.4,M,3.4,M*29
$IIRMC,230000,A,4844.044,N,12231.099,W,05.0,032,300813,16,E,A*1A
$HCHDG,12.4,0.0,E,,*1E
$HCHDG,12.6,0.0,E,,*1C
$GPRMC,230026.2,A,4844.04605,N,12231.09766,W,005.14,030.9,300813,016.9,E,D*2E
$PGRME,2.4,M,2.4,M,3.4,M*29
$HCHDG,12.6,0.0,E,,*1C
$HCHDG,12.9,0.0,E,,*13
$GPRMC,230026.4,A,4844.04632,N,12231.09743,W,005.13,030.9,300813,016.9,E,D*2C
$PGRME,2.4,M,2.4,M,3.4,M*29
$YXXDR,A,6.0,D,PTCH,A,7.8,D,ROLL*54
$PTAK,FFD1,7.8*5A
$HCHDG,12.9,0.0,E,,*13
$IIVHW,,,,,05.0,N,,*1C
$IIVLW,02190,N,050.3,N*5F
$HCHDG,12.7,0.0,E,,*1D
$GPRMC,230026.6,A,4844.04658,N,12231.09725,W,005.14,030.2,300813,016.9,E,D*2E
$GPRMB,A,1.93,L,,Oh,4814.8080,N,12233.9900,W,29.3,184,-4.60,V*34
$PGRME,2.4,M,2.4,M,3.4,M*29
$IIVWR,029,L,06.2,N,,,,*70
$HCHDG,12.5,0.0,E,,*1F
$IIDPT,018.5,-1.0,*4C
$IIGLL,4844.045,N,12231.098,W,230000,A,A*4C
$HCHDG,12.1,0.0,E,,*1B
$IIMTW,+19.0,C*30
$GPRMC,230026.8,A,4844.04688,N,12231.09713,W,005.16,028.4,300813,016.9,E,D*25
$PGRME,2.4,M,2.4,M,3.4,M*29
$IIMWV,331,R,06.2,N,A*16
$HCHDG,11.8,0.0,E,,*11
$IIMWV,277,T,03.1,N,A*15
$YXXDR,A,6.0,D,PTCH,A,6.4,D,ROLL*59
$HCHDG,11.3,0.0,E,,*1A
$IIRMB,A,1.93,L,,Oh  ,,,,,029.3,184,,V,A*6E
$GPRMC,230027.0,A,4844.04713,N,12231.09699,W,005.13,029.6,300813,016.9,E,D*2A
$PGRME,2.4,M,2.4,M,3.4,M*29
$HCHDG,11.2,0.0,E,,*1B
$HCHDG,11.0,0.0,E,,*19
$GPRMC,230027.2,A,4844.04734,N,12231.09685,W,005.12,029.3,300813,016.9,E,D*24
$PGRME,2.4,M,2.4,M,3.4,M*29
$HCHDG,11.0,0.0,E,,*19
$HCHDG,11.1,0.0,E,,*18
$GPRMC,230027.4,A,4844.04754,N,12231.09670,W,005.11,029.8,300813,016.9,E,D*26
$PGRME,2.4,M,2.4,M,3.4,M*29
$YXXDR,A,5.9,D,PTCH,A,6.6,D,ROLL*51
$HCHDG,11.6,0.0,E,,*1F
$HCHDG,11.6,0.0,E,,*1F
$IIRMC,230000,A,4844.046,N,12231.097,W,05.1,030,300813,16,E,A*15
$GPRMC,230027.6,A,4844.04777,N,12231.09658,W,005.08,029.0,300813,016.9,E,D*2F
$PGRME,2.4,M,2.4,M,3.4,M*29
$IIVHW,,,,,05.0,N,,*1C
$HCHDG,11.8,0.0,E,,*11
$IIVLW,02190,N,050.3,N*5F
$HCHDG,11.9,0.0,E,,*10
$IIVWR,030,L,06.1,N,,,,*7B
$IIDPT,018.5,-1.0,*4C
$GPRMC,230027.8,A,4844.04805,N,12231.09648,W,005.05,030.0,300813,016.9,E,D*2F
$GPRMB,A,1.93,L,,Oh,4814.8080,N,12233.9900,W,29.3,184,-4.53,V*34
$PGRME,2.4,M,2.4,M,3.4,M*29
$HCHDG,11.8,0.0,E,,*11
$IIGLL,4844.046,N,12231.097,W,230000,A,A*40
$YXXDR,A,6.0,D,PTCH,A,7.2,D,ROLL*5E
$PTAK,FFD1,7.2*50
$IIMTW,+19.0,C*30
$HCHDG,11.8,0.0,E,,*11
$IIMWV,330,R,06.1,N,A*14
$GPRMC,230028.0,A,4844.04835,N,12231.09623,W,005.04,029.3,300813,016.9,E,D*2C
$PGRME,2.4,M,2.4,M,3.4,M*29
$IIMWV,274,T,02.9,N,A*1F
$HCHDG,11.7,0.0,E,,*1E
$HCHDG,11.9,0.0,E,,*10
$GPRMC,230028.2,A,4844.04867,N,12231.09604,W,005.02,029.1,300813,016.9,E,D*28
$PGRME,2.4,M,2.4,M,3.4,M*29
$HCHDG,12.0,0.0,E,,*1A
$HCHDG,12.2,0.0,E,,*18
$GPRMC,230028.4,A,4844.04896,N,12231.09590,W,005.01,029.9,300813,016.9,E,D*25
$PGRME,2.4,M,2.4,M,3.4,M*29
$YXXDR,A,5.8,D,PTCH,A,7.5,D,ROLL*52
$HCHDG,12.4,0.0,E,,*1E
$IIRMB,A,1.93,L,,Oh  ,,,,,029.3,184,,V,A*6E
$HCHDG,12.4,0.0,E,,*1E
$GPRMC,230028.6,A,4844.04920,N,12231.09565,W,005.00,030.9,300813,016.9,E,D*28
$PGRME,2.4,M,2.4,M,3.4,M*29
$HCHDG,12.3,0.0,E,,*19
$IIRMC,230000,A,4844.047,N,12231.096,W,05.0,029,300813,16,E,A*1C
$IIVHW,,,,,05.1,N,,*1D
$PTAK,FFP1,HEEL,@*07
$HCHDG,11.7,0.0,E,,*1E
$IIVLW,02190,N,050.3,N*5F
$GPRMC,230028.8,A,4844.04952,N,12231.09545,W,004.98,029.6,300813,016.9,E,D*26
$PGRME,2.4,M,2.4,M,3.4,M*29
$IIVWR,032,L,06.2,N,,,,*7A
$HCHDG,11.3,0.0,E,,*1A
$IIDPT,018.5,-1.0,*4C
$YXXDR,A,5.9,D,PTCH,A,5.9,D,ROLL*5D
$HCHDG,10.8,0.0,E,,*10
$IIGLL,4844.047,N,12231.096,W,230000,A,A*40
$GPRMC,230029.0,A,4844.04975,N,12231.09525,W,004.96,030.1,300813,016.9,E,D*2D
$GPRMB,A,1.93,L,,Oh,4814.8080,N,12233.9900,W,29.3,184,-4.45,V*33
$PGRME,2.4,M,2.4,M,3.4,M*29
$IIMTW,+19.0,C*30
$HCHDG,10.5,0.0,E,,*1D
$HCHDG,10.3,0.0,E,,*1B
$GPRMC,230029.2,A,4844.04993,N,12231.09504,W,004.92,029.3,300813,016.9,E,D*2A
$PGRME,2.4,M,2.4,M,3.4,M*29
$HCHDG,10.3,0.0,E,,*1B
$HCHDG,10.0,0.0,E,,*18
$GPRMC,230029.4,A,4844.05019,N,12231.09489,W,004.92,028.7,300813,016.9,E,D*27
$PGRME,2.4,M,2.4,M,3.4,M*29
$YXXDR,A,6.0,D,PTCH,A,5.2,D,ROLL*5C
$PTAK,FFD1,5.2*52
$HCHDG,9.7,0.0,E,,*27
$IIMWV,328,R,06.3,N,A*1F
$HCHDG,9.7,0.0,E,,*27
$IIMWV,272,T,03.2,N,A*13
$GPRMC,230029.6,A,4844.05045,N,12231.09470,W,004.94,029.3,300813,016.9,E,D*29
$PGRME,2.4,M,2.4,M,3.4,M*29
$HCHDG,9.3,0.0,E,,*23
$IIRMB,A,1.93,L,,Oh  ,,,,,029.3,184,,V,A*6E
$HCHDG,9.2,0.0,E,,*22
$IIRMC,230000,A,4844.049,N,12231.095,W,05.0,030,300813,16,E,A*19
$GPRMC,230029.8,A,4844.05074,N,12231.09458,W,004.93,030.4,300813,016.9,E,D*27
$PGRME,2.4,M,2.4,M,3.4,M*29
$IIVHW,,,,,05.2,N,,*1E
$HCHDG,8.9,0.0,E,,*28
$IIVLW,02190,N,050.3,N*5F
$YXXDR,A,6.0,D,PTCH,A,4.4,D,ROLL*5B
$IIVWR,032,L,06.3,N,,,,*7B
$HCHDG,8.6,0.0,E,,*27
$IIDPT,018.5,-1.0,*4C
$GPRMC,230030.0,A,4844.05104,N,12231.09435,W,004.96,029.0,300813,016.9,E,D*23
$GPRMB,A,1.93,L,,Oh,4814.8080,N,12233.9900,W,29.3,184,-4.49,V*3F
$PGRME,2.4,M,2.4,M,3.4,M*29
$HCHDG,8.6,0.0,E,,*27
$HCHDG,8.6,0.0,E,,*27
$GPRMC,230030.2,A,4844.05128,N,12231.09416,W,004.97,030.0,300813,016.9,E,D*27
$PGRME,2.4,M,2.4,M,3.4,M*29
$HCHDG,8.6,0.0,E,,*27
$HCHDG,8.4,0.0,E,,*25
$GPRMC,230030.4,A,4844.05148,N,12231.09400,W,004.98,028.5,300813,016.9,E,D*23
$PGRME,2.4,M,2.4,M,3.4,M*29
$YXXDR,A,5.9,D,PTCH,A,4.9,D,ROLL*5C
$HCHDG,8.4,0.0,E,,*25
$IIGLL,4844.050,N,12231.094,W,230000,A,A*44
$HCHDG,8.4,0.0,E,,*25
$IIMTW,+19.0,C*30
$GPRMC,230030.6,A,4844.05169,N,12231.09381,W,004.98,030.3,300813,016.9,E,D*23
$PGRME,2.4,M,2.4,M,3.4,M*29
$IIMWV,327,R,06.4,N,A*17
$HCHDG,8.7,0.0,E,,*26
$IIMWV,272,T,03.3,N,A*12
$HCHDG,8.6,0.0,E,,*27
$IIRMB,A,1.93,L,,Oh  ,,,,,029.3,184,,V,A*6E
$GPRMC,230030.8,A,4844.05196,N,12231.09364,W,004.99,029.6,300813,016.9,E,D*2A
$PGRME,2.4,M,2.4,M,3.4,M*29
$HCHDG,8.9,0.0,E,,*28
$IIRMC,230000,A,4844.050,N,12231.094,W,04.9,029,300813,16,E,A*10
$YXXDR,A,6.1,D,PTCH,A,6.1,D,ROLL*5D
$PTAK,FFD1,6.1*52
$IIVHW,,,,,05.3,N,,*1F
$HCHDG,9.2,0.0,E,,*22
$GPRMC,230031.0,A,4844.05220,N,12231.09350,W,004.99,030.8,300813,016.9,E,D*2C
$PGRME,2.4,M,2.4,M,3.4,M*29
$IIVLW,02190,N,050.3,N*5F
$HCHDG,9.3,0.0,E,,*23
$HCHDG,9.2,0.0,E,,*22
$GPRMC,230031.2,A,4844.05245,N,12231.09320,W,005.01,030.6,300813,016.9,E,D*24
$GPRMB,A,1.93,L,,Oh,4814.8080,N,12233.9900,W,29.3,184,-4.47,V*31
$PGRME,2.4,M,2.4,M,3.4,M*29
$HCHDG,9.2,0.0,E,,*22
$HCHDG,8.9,0.0,E,,*28
$GPRMC,230031.4,A,4844.05271,N,12231.09300,W,005.03,028.8,300813,016.9,E,D*22
$PGRME,2.4,M,2.4,M,3.4,M*29
$YXXDR,A,6.0,D,PTCH,A,5.9,D,ROLL*57
$HCHDG,8.8,0.0,E,,*29
$IIVWR,034,L,06.4,N,,,,*7A
$HCHDG,8.7,0.0,E,,*26
$IIDPT,018.3,-1.0,*4A
$GPRMC,230031.6,A,4844.05293,N,12231.09279,W,005.04,029.9,300813,016.9,E,D*24
$PGRME,2.4,M,2.4,M,3.4,M*29
$IIGLL,4844.051,N,12231.093,W,230000,A,A*42
$HCHDG,8.7,0.0,E,,*26
$IIMTW,+19.0,C*30
$IIMWV,326,R,06.4,N,A*16
$HCHDG,8.7,0.0,E,,*26
$IIMWV,268,T,03.4,N,A*1E
$GPRMC,230031.8,A,4844.05319,N,12231.09260,W,005.03,029.7,300813,016.9,E,D*28
$PGRME,2.4,M,2.4,M,3.4,M*29
$HCHDG,8.8,0.0,E,,*29
$IIRMB,A,1.93,L,,Oh  ,,,,,029.3,184,,V,A*6E
$YXXDR,A,6.3,D,PTCH,A,6.0,D,ROLL*5E
$HCHDG,9.0,0.0,E,,*20
$GPRMC,230032.0,A,4844.05344,N,12231.09242,W,005.05,030.1,300813,016.9,E,D*23
$PGRME,2.4,M,2.4,M,3.4,M*29
$IIRMC,230000,A,4844.051,N,12231.093,W,04.9,030,300813,16,E,A*1E
$HCHDG,9.2,0.0,E,,*22
$HCHDG,9.4,0.0,E,,*24
$GPRMC,230032.2,A,4844.05369,N,12231.09225,W,005.06,028.9,300813,016.9,E,D*2D
$GPRMB,A,1.93,L,,Oh,4814.8080,N,12233.9900,W,29.3,184,-4.58,V*3F
$PGRME,2.4,M,2.4,M,3.4,M*29
$HCHDG,10.0,0.0,E,,*18
$HCHDG,10.2,0.0,E,,*1A
$GPRMC,230032.4,A,4844.05398,N,12231.09218,W,005.07,028.5,300813,016.9,E,D*26
$PGRME,2.4,M,2.4,M,3.4,M*29
$YXXDR,A,5.8,D,PTCH,A,8.5,D,ROLL*5D
$PTAK,FFD1,8.5*58
$HCHDG,10.4,0.0,E,,*1C
$HCHDG,10.6,0.0,E,,*1E
$GPRMC,230032.6,A,4844.05428,N,12231.09211,W,005.07,029.3,300813,016.9,E,D*26
$PGRME,2.4,M,2.4,M,3.4,M*29
$HCHDG,10.4,0.0,E,,*1C
$HCHDG,9.9,0.0,E,,*29
$GPRMC,230032.8,A,4844.05458,N,12231.09198,W,005.08,030.1,300813,016.9,E,D*28
$PTAK,FFP1,HEEL,@*07
$PGRME,2.4,M,2.4,M,3.4,M*29
$HCHDG,9.8,0.0,E,,*28
$YXXDR,A,6.0,D,PTCH,A,5.7,D,ROLL*59
$HCHDG,9.4,0.0,E,,*24
$GPRMC,230033.0,A,4844.05484,N,12231.09175,W,005.09,028.8,300813,016.9,E,D*22
$PGRME,2.4,M,2.4,M,3.4,M*29
$HCHDG,8.9,0.0,E,,*28
$HCHDG,8.8,0.0,E,,*29
$GPRMC,230033.2,A,4844.05506,N,12231.09145,W,005.09,029.2,300813,016.9,E,D*23
$PGRME,2.4,M,2.4,M,3.4,M*29
$HCHDG,8.7,0.0,E,,*26
$HCHDG,8.6,0.0,E,,*27
$GPRMC,230033.4,A,4844.05526,N,12231.09106,W,005.07,028.5,300813,016.9,E,D*28
$GPRMB,A,1.93,L,,Oh,4814.8080,N,12233.9900,W,29.3,184,-4.61,V*35
$PGRME,2.4,M,2.4,M,3.4,M*29
$YXXDR,A,5.9,D,PTCH,A,6.0,D,ROLL*57
$PTAK,FFD1,6.0*53
$HCHDG,8.6,0.0,E,,*27
$HCHDG,8.5,0.0,E,,*24
$GPRMC,230033.6,A,4844.05546,N,12231.09076,W,005.06,028.5,300813,016.9,E,D*2B
$PGRME,2.4,M,2.4,M,3.4,M*29
$HCHDG,8.6,0.0,E,,*27
$HCHDG,8.7,0.0,E,,*26
$GPRMC,230033.8,A,4844.05565,N,12231.09053,W,005.04,028.5,300813,016.9,E,D*21
$PGRME,2.4,M,2.4,M,3.4,M*29
$HCHDG,9.3,0.0,E,,*23
$YXXDR,A,6.0,D,PTCH,A,7.7,D,ROLL*5B
$HCHDG,9.3,0.0,E,,*23
$GPRMC,230034.0,A,4844.05585,N,12231.09033,W,005.03,028.3,300813,016.9,E,D*27
$PGRME,2.4,M,2.4,M,3.4,M*29
$HCHDG,9.3,0.0,E,,*23
$HCHDG,9.7,0.0,E,,*27
$GPRMC,230034.2,A,4844.05611,N,12231.09012,W,005.04,027.0,300813,016.9,E,D*23
$PGRME,2.4,M,2.4,M,3.4,M*29
$HCHDG,9.6,0.0,E,,*26
$HCHDG,9.9,0.0,E,,*29
$GPRMC,230034.4,A,4844.05641,N,12231.08991,W,005.03,026.2,300813,016.9,E,D*27
$GPRMB,A,1.93,L,,Oh,4814.8080,N,12233.9900,W,29.3,184,-4.65,V*31
$PGRME,2.4,M,2.4,M,3.4,M*29
$YXXDR,A,6.0,D,PTCH,A,8.1,D,ROLL*52
$PTAK,FFD1,8.1*5C
$HCHDG,9.9,0.0,E,,*29
$IIVHW,,,,,05.4,N,,*18
$IIVLW,02190,N,050.3,N*5F
$HCHDG,9.5,0.0,E,,*25
$GPRMC,230034.6,A,4844.05667,N,12231.08970,W,005.01,027.2,300813,016.9,E,D*2D
$IIVWR,034,L,06.5,N,,,,*7B
$PGRME,2.4,M,2.4,M,3.4,M*29
$HCHDG,9.2,0.0,E,,*22
$IIDPT,018.3,-1.0,*4A
$IIGLL,4844.052,N,12231.092,W,230000,A,A*40
$HCHDG,8.9,0.0,E,,*28
$IIMTW,+19.0,C*30
$GPRMC,230034.8,A,4844.05692,N,12231.08953,W,005.01,026.3,300813,016.9,E,D*28
$PGRME,2.4,M,2.4,M,3.4,M*29
$IIMWV,326,R,06.5,N,A*17
$HCHDG,8.5,0.0,E,,*24
$IIMWV,268,T,03.5,N,A*1F
$YXXDR,A,6.0,D,PTCH,A,5.7,D,ROLL*59
$HCHDG,8.5,0.0,E,,*24
$IIRMB,A,1.93,L,,Oh  ,,,,,029.3,184,,V,A*6E
$GPRMC,230035.0,A,4844.05711,N,12231.08946,W,005.00,026.2,300813,016.9,E,D*2F
$PGRME,2.4,M,2.4,M,3.4,M*29
$HCHDG,8.6,0.0,E,,*27
$HCHDG,8.6,0.0,E,,*27
$GPRMC,230035.2,A,4844.05737,N,12231.08941,W,004.99,026.5,300813,016.9,E,D*28
$PGRME,2.4,M,2.4,M,3.4,M*29
$HCHDG,9.0,0.0,E,,*20
$HCHDG,9.2,0.0,E,,*22
$GPRMC,230035.4,A,4844.05758,N,12231.08934,W,004.97,026.3,300813,016.9,E,D*2D
$GPRMB,A,1.93,L,,Oh,4814.8080,N,12233.9900,W,29.3,184,-4.59,V*3E
$PGRME,2.4,M,2.4,M,3.4,M*29
$YXXDR,A,6.1,D,PTCH,A,7.0,D,ROLL*5D
$HCHDG,9.3,0.0,E,,*23
$HCHDG,9.0,0.0,E,,*20
$IIRMC,230000,A,4844.056,N,12231.089,W,05.0,027,300813,16,E,A*1C
$GPRMC,230035.6,A,4844.05776,N,12231.08912,W,004.95,026.8,300813,016.9,E,D*2E
$PGRME,2.4,M,2.4,M,3.4,M*29
$IIVHW,,,,,05.3,N,,*1F
$HCHDG,9.1,0.0,E,,*21
$IIVLW,02190,N,050.3,N*5F
$HCHDG,9.0,0.0,E,,*20
$IIVWR,035,L,06.5,N,,,,*7A
$IIDPT,018.3,-1.0,*4A
$GPRMC,230035.8,A,4844.05793,N,12231.08883,W,004.92,026.0,300813,016.9,E,D*2D
$PGRME,2.4,M,2.4,M,3.4,M*29
$HCHDG,8.7,0.0,E,,*26
$IIGLL,4844.056,N,12231.089,W,230000,A,A*4E
$IIMTW,+19.0,C*30
$YXXDR,A,5.8,D,PTCH,A,6.1,D,ROLL*57
$HCHDG,8.4,0.0,E,,*25
$IIMWV,325,R,06.5,N,A*14
$GPRMC,230036.0,A,4844.05812,N,12231.08866,W,004.92,026.5,300813,016.9,E,D*2E
$PGRME,2.4,M,2.4,M,3.4,M*29
$IIMWV,269,T,03.7,N,A*1C
$HCHDG,7.9,0.0,E,,*27
$HCHDG,7.7,0.0,E,,*29
$GPRMC,230036.2,A,4844.05831,N,12231.08849,W,004.94,024.4,300813,016.9,E,D*25
$PGRME,2.4,M,2.4,M,3.4,M*29
$HCHDG,7.5,0.0,E,,*2B
$HCHDG,6.9,0.0,E,,*26
$GPRMC,230036.4,A,4844.05856,N,12231.08829,W,004.95,026.0,300813,016.9,E,D*23
$PGRME,2.4,M,2.4,M,3.4,M*29
$YXXDR,A,6.0,D,PTCH,A,4.8,D,ROLL*57
$PTAK,FFD1,4.8*59
$HCHDG,6.6,0.0,E,,*29
$IIRMB,A,1.93,L,,Oh  ,,,,,029.3,184,,V,A*6E
$HCHDG,6.6,0.0,E,,*29
$GPRMC,230036.6,A,4844.05884,N,12231.08807,W,004.97,025.4,300813,016.9,E,D*27
$GPRMB,A,1.93,L,,Oh,4814.8080,N,12233.9900,W,29.3,184,-4.62,V*36
$PGRME,2.4,M,2.4,M,3.4,M*29
$HCHDG,6.4,0.0,E,,*2B
$PTAK,FFP1,HEEL,@*07
$IIRMC,230000,A,4844.057,N,12231.089,W,04.9,026,300813,16,E,A*14
$IIVHW,,,,,05.3,N,,*1F
$HCHDG,6.1,0.0,E,,*2E
$IIVLW,02190,N,050.3,N*5F
$GPRMC,230036.8,A,4844.05907,N,12231.08780,W,004.99,026.1,300813,016.9,E,D*2B
$PGRME,2.4,M,2.4,M,3.4,M*29
$IIVWR,035,L,06.6,N,,,,*79
$HCHDG,6.1,0.0,E,,*2E
$IIDPT,018.3,-1.0,*4A
$YXXDR,A,5.8,D,PTCH,A,4.7,D,ROLL*53
$HCHDG,5.8,0.0,E,,*24
$IIGLL,4844.057,N,12231.089,W,230000,A,A*4F
$GPRMC,230037.0,A,4844.05923,N,12231.08761,W,005.00,026.3,300813,016.9,E,D*28
$PGRME,2.4,M,2.4,M,3.4,M*29
$IIMTW,+19.0,C*30
$HCHDG,5.6,0.0,E,,*2A
$HCHDG,5.3,0.0,E,,*2F
$GPRMC,230037.2,A,4844.05952,N,12231.08751,W,005.02,025.4,300813,016.9,E,D*29
$PGRME,2.4,M,2.4,M,3.4,M*29
$HCHDG,5.0,0.0,E,,*2C
$HCHDG,4.9,0.0,E,,*24
$GPRMC,230037.4,A,4844.05983,N,12231.08739,W,005.05,026.5,300813,016.9,E,D*28
$PGRME,2.4,M,2.4,M,3.4,M*29
$YXXDR,A,6.3,D,PTCH,A,4.2,D,ROLL*5E
$HCHDG,4.9,0.0,E,,*24
$IIMWV,326,R,06.6,N,A*14
$HCHDG,4.6,0.0,E,,*2B
$IIMWV,271,T,03.7,N,A*15
$GPRMC,230037.6,A,4844.06018,N,12231.08718,W,005.06,025.9,300813,016.9,E,D*2D
$GPRMB,A,1.93,L,,Oh,4814.8080,N,12233.9900,W,29.3,184,-4.69,V*3D
$PGRME,2.4,M,2.4,M,3.4,M*29
$HCHDG,4.6,0.0,E,,*2B
$IIRMB,A,1.93,L,,Oh  ,,,,,029.3,184,,V,A*6E
$HCHDG,4.4,0.0,E,,*29
$IIRMC,230000,A,4844.058,N,12231.088,W,04.9,025,300813,16,E,A*19
$GPRMC,230037.8,A,4844.06055,N,12231.08697,W,005.06,026.0,300813,016.9,E,D*26
$PGRME,2.4,M,2.4,M,3.4,M*29
$IIVHW,,,,,05.3,N,,*1F
$HCHDG,4.4,0.0,E,,*29
$IIVLW,02190,N,050.3,N*5F
$YXXDR,A,5.8,D,PTCH,A,4.5,D,ROLL*51
$PTAK,FFD1,4.5*54
$IIVWR,034,L,06.6,N,,,,*78
$HCHDG,4.3,0.0,E,,*2E
$IIDPT,018.3,-1.0,*4A
$GPRMC,230038.0,A,4844.06081,N,12231.08675,W,005.07,025.3,300813,016.9,E,D*25
$PGRME,2.4,M,2.4,M,3.4,M*29
$HCHDG,4.6,0.0,E,,*2B
$HCHDG,4.9,0.0,E,,*24
$GPRMC,230038.2,A,4844.06106,N,12231.08652,W,005.07,025.9,300813,016.9,E,D*26
$PGRME,2.4,M,2.4,M,3.4,M*29
$HCHDG,4.8,0.0,E,,*25
$HCHDG,4.8,0.0,E,,*25
$GPRMC,230038.4,A,4844.06132,N,12231.08632,W,005.08,025.7,300813,016.9,E,D*20
$PGRME,2.4,M,2.4,M,3.4,M*29
$YXXDR,A,6.0,D,PTCH,A,5.2,D,ROLL*5C
$HCHDG,4.7,0.0,E,,*2A
$IIGLL,4844.060,N,12231.087,W,230000,A,A*45
$HCHDG,4.7,0.0,E,,*2A
$IIMTW,+19.0,C*30
$GPRMC,230038.6,A,4844.06156,N,12231.08615,W,005.10,025.3,300813,016.9,E,D*28
$GPRMB,A,1.94,L,,Oh,4814.8080,N,12233.9900,W,29.3,184,-4.74,V*36
$PGRME,2.4,M,2.4,M,3.4,M*29
$IIMWV,325,R,06.9,N,A*18
$HCHDG,4.4,0.0,E,,*29
$IIMWV,272,T,03.6,N,A*17
$HCHDG,4.4,0.0,E,,*29
$IIRMB,A,1.93,L,,Oh  ,,,,,029.3,184,,V,A*6E
$GPRMC,230038.8,A,4844.06188,N,12231.08598,W,005.11,025.7,300813,016.9,E,D*26
$PGRME,2.4,M,2.4,M,3.4,M*29
$HCHDG,4.3,0.0,E,,*2E
$IIRMC,230000,A,4844.060,N,12231.087,W,05.0,025,300813,16,E,A*15
$YXXDR,A,5.8,D,PTCH,A,4.8,D,ROLL*5C
$PTAK,FFD1,4.8*59
$IIVHW,,,,,05.2,N,,*1E
$HCHDG,4.3,0.0,E,,*2E
$GPRMC,230039.0,A,4844.06220,N,12231.08588,W,005.12,025.0,300813,016.9,E,D*2B
$PGRME,2.4,M,2.4,M,3.4,M*29
$IIVLW,02190,N,050.3,N*5F
$HCHDG,4.2,0.0,E,,*2F
$HCHDG,4.1,0.0,E,,*2C
$GPRMC,230039.2,A,4844.06243,N,12231.08573,W,005.12,025.6,300813,016.9,E,D*2E
$PGRME,2.4,M,2.4,M,3.4,M*29
$HCHDG,4.1,0.0,E,,*2C
$HCHDG,4.6,0.0,E,,*2B
$GPRMC,230039.4,A,4844.06267,N,12231.08562,W,005.13,025.5,300813,016.9,E,D*2C
$PGRME,2.4,M,2.4,M,3.4,M*29
$YXXDR,A,5.9,D,PTCH,A,5.6,D,ROLL*52
$HCHDG,4.7,0.0,E,,*2A
$IIVWR,035,L,06.8,N,,,,*77
$HCHDG,5.1,0.0,E,,*2D
$IIDPT,018.3,-1.0,*4A
$GPRMC,230039.6,A,4844.06290,N,12231.08550,W,005.12,025.5,300813,016.9,E,D*26
$PGRME,2.4,M,2.4,M,3.4,M*29
$IIGLL,4844.061,N,12231.086,W,230000,A,A*45
$HCHDG,5.7,0.0,E,,*2B
$IIMTW,+19.0,C*30
$IIMWV,325,R,06.8,N,A*19
$HCHDG,6.2,0.0,E,,*2D
$IIMWV,276,T,03.9,N,A*1C
$GPRMC,230039.8,A,4844.06312,N,12231.08545,W,005.12,025.3,300813,016.9,E,D*21
$GPRMB,A,1.94,L,,Oh,4814.8080,N,12233.9900,W,29.3,184,-4.76,V*34
$PGRME,2.4,M,2.4,M,3.4,M*29
$HCHDG,6.7,0.0,E,,*28
$IIRMB,A,1.93,L,,Oh  ,,,,,029.3,184,,V,A*6E
$YXXDR,A,6.2,D,PTCH,A,8.5,D,ROLL*54
$PTAK,FFD1,8.5*58
$HCHDG,6.9,0.0,E,,*26
$GPRMC,230040.0,A,4844.06338,N,12231.08539,W,005.13,024.5,300813,016.9,E,D*22
$PGRME,2.4,M,2.4,M,3.4,M*29
$IIRMC,230000,A,4844.061,N,12231.086,W,05.1,025,300813,16,E,A*14
$HCHDG,7.2,0.0,E,,*2C
$HCHDG,7.5,0.0,E,,*2B
$GPRMC,230040.2,A,4844.06368,N,12231.08537,W,005.14,024.6,300813,016.9,E,D*2F
$PGRME,2.4,M,2.4,M,3.4,M*29
$HCHDG,7.8,0.0,E,,*26
$HCHDG,7.8,0.0,E,,*26
$GPRMC,230040.4,A,4844.06395,N,12231.08527,W,005.13,025.7,300813,016.9,E,D*2D
$PGRME,2.4,M,2.4,M,3.4,M*29
$YXXDR,A,5.9,D,PTCH,A,7.8,D,ROLL*5E
$HCHDG,7.8,0.0,E,,*26
$IIVHW,,,,,05.3,N,,*1F
$HCHDG,7.6,0.0,E,,*28
$IIVLW,02190,N,050.3,N*5F
$GPRMC,230040.6,A,4844.06420,N,12231.08504,W,005.13,026.3,300813,016.9,E,D*20
$IIVWR,035,L,06.8,N,,,,*77
$PGRME,2.4,M,2.4,M,3.4,M*29
$HCHDG,7.4,0.0,E,,*2A
$IIDPT,018.3,-1.0,*4A
$HCHDG,7.1,0.0,E,,*2F
$IIGLL,4844.062,N,12231.085,W,230000,A,A*45
$IIMTW,+19.0,C*30
$GPRMC,230040.8,A,4844.06443,N,12231.08473,W,005.12,025.3,300813,016.9,E,D*28
$PTAK,FFP1,HEEL,@*07
$PGRME,2.4,M,2.4,M,3.4,M*29
$IIMWV,325,R,06.8,N,A*19
$HCHDG,6.9,0.0,E,,*26
$IIMWV,275,T,03.8,N,A*1E
$YXXDR,A,6.1,D,PTCH,A,5.9,D,ROLL*56
$HCHDG,6.8,0.0,E,,*27
$IIRMB,A,1.94,L,,Oh  ,,,,,029.3,184,,V,A*69
$GPRMC,230041.0,A,4844.06464,N,12231.08436,W,005.09,025.5,300813,016.9,E,D*29
$GPRMB,A,1.94,L,,Oh,4814.8080,N,12233.9900,W,29.3,184,-4.73,V*31
$PGRME,2.4,M,2.4,M,3.4,M*29
$HCHDG,7.0,0.0,E,,*2E
$HCHDG,7.0,0.0,E,,*2E
$GPRMC,230041.2,A,4844.06483,N,12231.08409,W,005.07,025.7,300813,016.9,E,D*22
$PGRME,2.4,M,2.4,M,3.4,M*29
$HCHDG,7.3,0.0,E,,*2D
$HCHDG,7.6,0.0,E,,*28
$GPRMC,230041.4,A,4844.06495,N,12231.08378,W,005.06,025.6,300813,016.9,E,D*22
$PGRME,2.4,M,2.4,M,3.4,M*29
$YXXDR,A,6.0,D,PTCH,A,6.7,D,ROLL*5A
$PTAK,FFD1,6.7*54
$HCHDG,8.0,0.0,E,,*21
$HCHDG,8.4,0.0,E,,*25
$IIRMC,230000,A,4844.064,N,12231.085,W,05.1,026,300813,16,E,A*11
$GPRMC,230041.6,A,4844.06511,N,12231.08361,W,005.05,025.5,300813,016.9,E,D*25
$PGRME,2.4,M,2.4,M,3.4,M*29
$IIVHW,,,,,05.4,N,,*18
$HCHDG,8.4,0.0,E,,*25
$IIVLW,02190,N,050.3,N*5F
$HCHDG,8.8,0.0,E,,*29
$IIVWR,035,L,07.0,N,,,,*7E
$IIDPT,018.3,-1.0,*4A
$GPRMC,230041.8,A,4844.06530,N,12231.08348,W,005.05,026.1,300813,016.9,E,D*24
$PGRME,2.4,M,2.4,M,3.4,M*29
$HCHDG,8.8,0.0,E,,*29
$IIGLL,4844.064,N,12231.085,W,230000,A,A*43
$IIMTW,+19.0,C*30
$YXXDR,A,6.1,D,PTCH,A,7.0,D,ROLL*5D
$HCHDG,8.8,0.0,E,,*29
$IIMWV,325,R,07.0,N,A*10
$GPRMC,230042.0,A,4844.06554,N,12231.08332,W,005.06,025.9,300813,016.9,E,D*28
$PGRME,2.4,M,2.4,M,3.4,M*29
$IIMWV,273,T,03.8,N,A*18
$HCHDG,8.6,0.0,E,,*27
$HCHDG,8.7,0.0,E,,*26
$GPRMC,230042.2,A,4844.06580,N,12231.08310,W,005.05,026.2,300813,016.9,E,D*28
$GPRMB,A,1.94,L,,Oh,4814.8080,N,12233.9900,W,29.3,184,-4.67,V*34
$PGRME,2.4,M,2.4,M,3.4,M*29
$HCHDG,8.5,0.0,E,,*24
$HCHDG,8.3,0.0,E,,*22
$GPRMC,230042.4,A,4844.06608,N,12231.08294,W,005.04,025.3,300813,016.9,E,D*23
$PGRME,2.4,M,2.4,M,3.4,M*29
$YXXDR,A,6.0,D,PTCH,A,5.9,D,ROLL*57
$HCHDG,8.1,0.0,E,,*20
$IIRMB,A,1.94,L,,Oh  ,,,,,029.3,184,,V,A*69
$HCHDG,7.8,0.0,E,,*26
$GPRMC,230042.6,A,4844.06640,N,12231.08284,W,005.01,028.0,300813,016.9,E,D*27
$PGRME,2.4,M,2.4,M,3.4,M*29
$HCHDG,7.3,0.0,E,,*2D
$IIRMC,230000,A,4844.065,N,12231.083,W,05.0,025,300813,16,E,A*14
$IIVHW,,,,,05.3,N,,*1F
$HCHDG,7.0,0.0,E,,*2E
$IIVLW,02190,N,050.3,N*5F
$GPRMC,230042.8,A,4844.06662,N,12231.08281,W,005.01,026.4,300813,016.9,E,D*26
$PGRME,2.4,M,2.4,M,3.4,M*29
$IIVWR,036,L,06.9,N,,,,*75
$HCHDG,7.1,0.0,E,,*2F
$IIDPT,018.3,-1.0,*4A
$YXXDR,A,6.2,D,PTCH,A,5.0,D,ROLL*5C
$PTAK,FFD1,5.0*50
$HCHDG,7.1,0.0,E,,*2F
$IIGLL,4844.065,N,12231.083,W,230000,A,A*44
$GPRMC,230043.0,A,4844.06683,N,12231.08259,W,005.02,025.6,300813,016.9,E,D*27
$PGRME,2.4,M,2.4,M,3.4,M*29
$IIMTW,+19.0,C*30
$HCHDG,7.1,0.0,E,,*2F
$HCHDG,7.4,0.0,E,,*2A
$GPRMC,230043.2,A,4844.06703,N,12231.08229,W,005.00,026.5,300813,016.9,E,D*29
$PGRME,2.4,M,2.4,M,3.4,M*29
$HCHDG,7.6,0.0,E,,*28
$HCHDG,7.9,0.0,E,,*27
$GPRMC,230043.4,A,4844.06726,N,12231.08200,W,004.98,027.0,300813,016.9,E,D*27
$GPRMB,A,1.94,L,,Oh,4814.8080,N,12233.9900,W,29.3,184,-4.58,V*38
$PGRME,2.4,M,2.4,M,3.4,M*29
$YXXDR,A,5.8,D,PTCH,A,6.5,D,ROLL*53
$HCHDG,8.2,0.0,E,,*23
$IIMWV,326,R,06.9,N,A*1B
$HCHDG,8.4,0.0,E,,*25
$IIMWV,271,T,04.0,N,A*15
$GPRMC,230043.6,A,4844.06755,N,12231.08191,W,004.96,027.2,300813,016.9,E,D*26
$PGRME,2.4,M,2.4,M,3.4,M*29
$IIRMB,A,1.94,L,,Oh  ,,,,,029.3,184,,V,A*69
$HCHDG,8.6,0.0,E,,*27
$HCHDG,8.5,0.0,E,,*24
$IIRMC,230000,A,4844.066,N,12231.082,W,05.0,028,300813,16,E,A*1B
$GPRMC,230043.8,A,4844.06779,N,12231.08179,W,004.95,026.3,300813,016.9,E,D*23
$PGRME,2.4,M,2.4,M,3.4,M*29
$IIVHW,,,,,05.3,N,,*1F
$HCHDG,8.5,0.0,E,,*24
$IIVLW,02190,N,050.3,N*5F
$YXXDR,A,6.0,D,PTCH,A,7.1,D,ROLL*5D
$PTAK,FFD1,7.1*53
$IIVWR,034,L,06.9,N,,,,*77
$HCHDG,8.5,0.0,E,,*24
$IIDPT,018.3,-1.0,*4A
$GPRMC,230044.0,A,4844.06800,N,12231.08165,W,004.98,026.3,300813,016.9,E,D*2D
$PGRME,2.4,M,2.4,M,3.4,M*29
$PGRMT,GPS 18x-5Hz software ver. 3.20,,,,,,,,*30
$HCHDG,8.8,0.0,E,,*29
$HCHDG,8.7,0.0,E,,*26
$GPRMC,230044.2,A,4844.06820,N,12231.08152,W,005.02,025.8,300813,016.9,E,D*23
$PGRME,2.4,M,2.4,M,3.4,M*29
$HCHDG,8.9,0.0,E,,*28
$HCHDG,8.9,0.0,E,,*28
$GPRMC,230044.4,A,4844.06835,N,12231.08135,W,005.04,026.0,300813,016.9,E,D*2D
$PGRME,2.4,M,2.4,M,3.4,M*29
$YXXDR,A,6.0,D,PTCH,A,7.1,D,ROLL*5D
$HCHDG,8.6,0.0,E,,*27
$IIGLL,4844.067,N,12231.081,W,230000,A,A*44
$HCHDG,8.6,0.0,E,,*27
$IIMTW,+19.0,C*30
$GPRMC,230044.6,A,4844.06856,N,12231.08117,W,005.04,026.0,300813,016.9,E,D*2A
$GPRMB,A,1.94,L,,Oh,4814.8080,N,12233.9900,W,29.3,184,-4.67,V*34
$PGRME,2.4,M,2.4,M,3.4,M*29
$IIMWV,324,R,06.8,N,A*18
$HCHDG,8.6,0.0,E,,*27
$PTAK,FFP1,HEEL,@*07
$IIMWV,275,T,03.8,N,A*1E
$HCHDG,8.6,0.0,E,,*27
$IIRMB,A,1.94,L,,Oh  ,,,,,029.3,184,,V,A*69
$GPRMC,230044.8,A,4844.06881,N,12231.08097,W,005.04,026.5,300813,016.9,E,D*22
$PGRME,2.4,M,2.4,M,3.4,M*29
$HCHDG,8.5,0.0,E,,*24
$IIRMC,230000,A,4844.067,N,12231.081,W,04.9,027,300813,16,E,A*1E
$YXXDR,A,6.2,D,PTCH,A,7.5,D,ROLL*5B
$PTAK,FFD1,7.5*57
$IIVHW,,,,,05.3,N,,*1F
$HCHDG,8.8,0.0,E,,*29
$GPRMC,230045.0,A,4844.06910,N,12231.08077,W,005.04,027.2,300813,016.9,E,D*2A
$PGRME,2.4,M,2.4,M,3.4,M*29
$IIVLW,02190,N,050.3,N*5F
$HCHDG,8.8,0.0,E,,*29
$HCHDG,9.1,0.0,E,,*21
$GPRMC,230045.2,A,4844.06944,N,12231.08064,W,005.04,025.9,300813,016.9,E,D*22
$PGRME,2.4,M,2.4,M,3.4,M*29
$HCHDG,9.3,0.0,E,,*23
$HCHDG,9.6,0.0,E,,*26
$GPRMC,230045.4,A,4844.06978,N,12231.08044,W,005.03,026.1,300813,016.9,E,D*25
$PGRME,2.4,M,2.4,M,3.4,M*29
$YXXDR,A,5.8,D,PTCH,A,8.5,D,ROLL*5D
$HCHDG,9.9,0.0,E,,*29
$IIVWR,035,L,06.9,N,,,,*76
$HCHDG,10.1,0.0,E,,*19
$IIDPT,018.1,-1.0,*48
$GPRMC,230045.6,A,4844.07009,N,12231.08015,W,005.02,025.6,300813,016.9,E,D*28
$PGRME,2.4,M,2.4,M,3.4,M*29
$IIGLL,4844.068,N,12231.081,W,230000,A,A*4B
$HCHDG,10.4,0.0,E,,*1C
$IIMTW,+19.0,C*30
$IIMWV,325,R,06.9,N,A*18
$HCHDG,10.4,0.0,E,,*1C
$IIMWV,273,T,04.0,N,A*17
$GPRMC,230045.8,A,4844.07037,N,12231.07989,W,005.00,025.5,300813,016.9,E,D*29
$GPRMB,A,1.94,L,,Oh,4814.8080,N,12233.9900,W,29.3,184,-4.65,V*36
$PGRME,2.4,M,2.4,M,3.4,M*29
$HCHDG,10.7,0.0,E,,*1F
$IIRMB,A,1.94,L,,Oh  ,,,,,029.3,184,,V,A*69
$YXXDR,A,5.8,D,PTCH,A,8.3,D,ROLL*5B
$PTAK,FFD1,8.3*5E
$HCHDG,10.7,0.0,E,,*1F
$GPRMC,230046.0,A,4844.07062,N,12231.07962,W,005.01,025.8,300813,016.9,E,D*2B
$PGRME,2.4,M,2.4,M,3.4,M*29
$IIRMC,230000,A,4844.068,N,12231.081,W,05.0,026,300813,16,E,A*18
$HCHDG,10.7,0.0,E,,*1F
$HCHDG,10.9,0.0,E,,*11
$GPRMC,230046.2,A,4844.07085,N,12231.07933,W,005.02,025.6,300813,016.9,E,D*29
$PGRME,2.4,M,2.4,M,3.4,M*29
$HCHDG,10.5,0.0,E,,*1D
$HCHDG,10.6,0.0,E,,*1E
$GPRMC,230046.4,A,4844.07111,N,12231.07919,W,005.02,025.8,300813,016.9,E,D*25
$PGRME,2.4,M,2.4,M,3.4,M*29
$YXXDR,A,5.9,D,PTCH,A,7.3,D,ROLL*55
$HCHDG,10.6,0.0,E,,*1E
$IIVHW,,,,,05.3,N,,*1F
$HCHDG,10.4,0.0,E,,*1C
$IIVLW,02190,N,050.3,N*5F
$GPRMC,230046.6,A,4844.07133,N,12231.07911,W,005.04,025.6,300813,016.9,E,D*27
$IIVWR,037,L,06.8,N,,,,*75
$PGRME,2.4,M,2.4,M,3.4,M*29
$HCHDG,10.5,0.0,E,,*1D
$IIDPT,018.0,-1.0,*49
$HCHDG,10.3,0.0,E,,*1B
$IIGLL,4844.070,N,12231.080,W,230000,A,A*43
$IIMTW,+19.0,C*30
$GPRMC,230046.8,A,4844.07158,N,12231.07896,W,005.04,025.6,300813,016.9,E,D*2A
$PGRME,2.4,M,2.4,M,3.4,M*29
$IIMWV,323,R,06.8,N,A*1F
$HCHDG,10.0,0.0,E,,*18
$IIMWV,273,T,03.9,N,A*19
$YXXDR,A,6.1,D,PTCH,A,6.3,D,ROLL*5F
$HCHDG,9.8,0.0,E,,*28
$IIRMB,A,1.94,L,,Oh  ,,,,,029.3,184,,V,A*69
$GPRMC,230047.0,A,4844.07188,N,12231.07878,W,005.03,025.9,300813,016.9,E,D*26
$GPRMB,A,1.94,L,,Oh,4814.8080,N,12233.9900,W,29.3,184,-4.66,V*35
$PGRME,2.4,M,2.4,M,3.4,M*29
$HCHDG,9.6,0.0,E,,*26
$HCHDG,9.6,0.0,E,,*26
$GPRMC,230047.2,A,4844.07214,N,12231.07860,W,005.02,024.9,300813,016.9,E,D*2B
$PGRME,2.4,M,2.4,M,3.4,M*29
$HCHDG,9.6,0.0,E,,*26
$HCHDG,9.3,0.0,E,,*23
$GPRMC,230047.4,A,4844.07240,N,12231.07845,W,004.99,025.3,300813,016.9,E,D*23
$PGRME,2.4,M,2.4,M,3.4,M*29
$YXXDR,A,6.0,D,PTCH,A,6.2,D,ROLL*5F
$PTAK,FFD1,6.2*51
$HCHDG,9.3,0.0,E,,*23
$HCHDG,9.0,0.0,E,,*20
$IIRMC,230000,A,4844.071,N,12231.079,W,05.0,025,300813,16,E,A*14
$GPRMC,230047.6,A,4844.07266,N,12231.07831,W,004.98,024.9,300813,016.9,E,D*2C
$PGRME,2.4,M,2.4,M,3.4,M*29
$IIVHW,,,,,05.4,N,,*18
$HCHDG,8.8,0.0,E,,*29
$IIVLW,02190,N,050.3,N*5F
$HCHDG,8.4,0.0,E,,*25
$IIVWR,035,L,06.8,N,,,,*77
$IIDPT,018.0,-1.0,*49
$GPRMC,230047.8,A,4844.07293,N,12231.07813,W,004.95,025.2,300813,016.9,E,D*2F
$PGRME,2.4,M,2.4,M,3.4,M*29
$HCHDG,8.1,0.0,E,,*20
$IIGLL,4844.071,N,12231.079,W,230000,A,A*44
$IIMTW,+19.0,C*30
$YXXDR,A,6.0,D,PTCH,A,5.2,D,ROLL*5C
$IIMWV,325,R,06.8,N,A*19
$HCHDG,7.6,0.0,E,,*28
$GPRMC,230048.0,A,4844.07319,N,12231.07793,W,004.94,025.5,300813,016.9,E,D*2A
$PGRME,2.4,M,2.4,M,3.4,M*29
$IIMWV,270,T,04.0,N,A*14
$HCHDG,7.3,0.0,E,,*2D
$HCHDG,6.8,0.0,E,,*27
$GPRMC,230048.2,A,4844.07349,N,12231.07783,W,004.94,025.6,300813,016.9,E,D*2F
$GPRMB,A,1.94,L,,Oh,4814.8080,N,12233.9900,W,29.3,184,-4.59,V*39
$PGRME,2.4,M,2.4,M,3.4,M*29
$HCHDG,6.5,0.0,E,,*2A
$HCHDG,6.6,0.0,E,,*29
$GPRMC,230048.4,A,4844.07372,N,12231.07754,W,004.93,025.7,300813,016.9,E,D*2D
$PGRME,2.4,M,2.4,M,3.4,M*29
$YXXDR,A,6.1,D,PTCH,A,5.3,D,ROLL*5C
$HCHDG,6.6,0.0,E,,*29
$IIRMB,A,1.94,L,,Oh  ,,,,,029.3,184,,V,A*69
$HCHDG,6.9,0.0,E,,*26
$GPRMC,230048.6,A,4844.07396,N,12231.07721,W,004.93,025.3,300813,016.9,E,D*23
$PGRME,2.4,M,2.4,M,3.4,M*29
$HCHDG,7.2,0.0,E,,*2C
$IIRMC,230000,A,4844.072,N,12231.078,W,04.9,024,300813,16,E,A*1F
$IIVHW,,,,,05.5,N,,*19
$HCHDG,7.5,0.0,E,,*2B
$IIVLW,02190,N,050.3,N*5F
$GPRMC,230048.8,A,4844.07421,N,12231.07700,W,004.93,025.6,300813,016.9,E,D*20
$PGRME,2.4,M,2.4,M,3.4,M*29
$IIVWR,034,L,06.7,N,,,,*79
$HCHDG,7.7,0.0,E,,*29
$PTAK,FFP1,HEEL,@*07
$IIDPT,018.0,-1.0,*49
$YXXDR,A,6.1,D,PTCH,A,7.2,D,ROLL*5F
$PTAK,FFD1,7.2*50
$HCHDG,7.8,0.0,E,,*26
$IIGLL,4844.072,N,12231.078,W,230000,A,A*46
$GPRMC,230049.0,A,4844.07445,N,12231.07673,W,004.91,025.8,300813,016.9,E,D*22
$PGRME,2.4,M,2.4,M,3.4,M*29
$IIMTW,+19.0,C*30
$HCHDG,7.8,0.0,E,,*26
$HCHDG,7.8,0.0,E,,*26
$GPRMC,230049.2,A,4844.07466,N,12231.07648,W,004.93,025.2,300813,016.9,E,D*21
$GPRMB,A,1.94,L,,Oh,4814.8080,N,12233.9900,W,29.4,184,-4.59,V*3E
$PGRME,2.4,M,2.4,M,3.4,M*29
$HCHDG,7.8,0.0,E,,*26
$HCHDG,7.4,0.0,E,,*2A
$GPRMC,230049.4,A,4844.07486,N,12231.07632,W,004.93,025.4,300813,016.9,E,D*22
$PGRME,2.4,M,2.4,M,3.4,M*29
$YXXDR,A,6.2,D,PTCH,A,6.0,D,ROLL*5F
$HCHDG,7.2,0.0,E,,*2C
$IIMWV,328,R,06.7,N,A*1B
$HCHDG,7.0,0.0,E,,*2E
$IIMWV,270,T,03.7,N,A*14
$GPRMC,230049.6,A,4844.07514,N,12231.07623,W,004.95,025.3,300813,016.9,E,D*2B
$PGRME,2.4,M,2.4,M,3.4,M*29
$HCHDG,6.6,0.0,E,,*29
$IIRMB,A,1.94,L,,Oh  ,,,,,029.3,184,,V,A*69
$HCHDG,6.6,0.0,E,,*29
$IIRMC,230000,A,4844.073,N,12231.077,W,04.9,025,300813,16,E,A*10
$GPRMC,230049.8,A,4844.07539,N,12231.07600,W,004.97,025.8,300813,016.9,E,D*22
$PGRME,2.4,M,2.4,M,3.4,M*29
$IIVHW,,,,,05.4,N,,*18
$HCHDG,6.5,0.0,E,,*2A
$IIVLW,02190,N,050.3,N*5F
$YXXDR,A,6.0,D,PTCH,A,5.2,D,ROLL*5C
$PTAK,FFD1,5.2*52
$IIVWR,032,L,06.7,N,,,,*7F
$HCHDG,6.5,0.0,E,,*2A
$IIDPT,018.0,-1.0,*49
$GPRMC,230050.0,A,4844.07566,N,12231.07575,W,004.99,024.9,300813,016.9,E,D*27
$PGRME,2.4,M,2.4,M,3.4,M*29
$HCHDG,6.8,0.0,E,,*27
$HCHDG,7.1,0.0,E,,*2F
$GPRMC,230050.2,A,4844.07605,N,12231.07569,W,005.00,026.4,300813,016.9,E,D*20
$PGRME,2.4,M,2.4,M,3.4,M*29
$HCHDG,7.5,0.0,E,,*2B
$HCHDG,7.4,0.0,E,,*2A
$GPRMC,230050.4,A,4844.07636,N,12231.07563,W,005.01,025.8,300813,016.9,E,D*22
$GPRMB,A,1.94,L,,Oh,4814.8080,N,12233.9900,W,29.4,184,-4.64,V*30
$PGRME,2.4,M,2.4,M,3.4,M*29
$YXXDR,A,6.1,D,PTCH,A,6.9,D,ROLL*55
$HCHDG,7.8,0.0,E,,*26
$IIGLL,4844.075,N,12231.076,W,230000,A,A*4F
$HCHDG,7.6,0.0,E,,*28
$IIMTW,+19.0,C*30
$GPRMC,230050.6,A,4844.07662,N,12231.07549,W,005.01,025.2,300813,016.9,E,D*23
$PGRME,2.4,M,2.4,M,3.4,M*29
$IIMWV,328,R,06.5,N,A*19
$HCHDG,7.5,0.0,E,,*2B
$IIMWV,272,T,03.5,N,A*14
$HCHDG,7.2,0.0,E,,*2C
$IIRMB,A,1.94,L,,Oh  ,,,,,029.4,184,,V,A*6E
$GPRMC,230050.8,A,4844.07684,N,12231.07531,W,005.02,025.5,300813,016.9,E,D*2E
$PGRME,2.4,M,2.4,M,3.4,M*29
$HCHDG,7.3,0.0,E,,*2D
$IIRMC,230000,A,4844.075,N,12231.076,W,04.9,025,300813,16,E,A*17
$YXXDR,A,6.0,D,PTCH,A,5.2,D,ROLL*5C
$PTAK,FFD1,5.2*52
$IIVHW,,,,,05.3,N,,*1F
$HCHDG,7.3,0.0,E,,*2D
$GPRMC,230051.0,A,4844.07707,N,12231.07510,W,005.01,026.2,300813,016.9,E,D*29
