$GPRMB,A,0.21,L,,Shil,4741.0830,N,12224.5670,W,0.2,255,-0.01,V*15
$PGRME,3.0,M,17.1,M,17.4,M*28
$HCHDG,185.4,0.0,E,,*21
$PTAK,FFP1,HEEL,@*07
$GPRMC,000506.0,A,4741.13913,N,12224.26007,W,000.02,000.0,130813,016.6,E,A*24
$GPRMB,A,0.21,L,,Shil,4741.0830,N,12224.5670,W,0.2,255,-0.01,V*15
$HCHDG,185.3,0.0,E,,*26
$PGRME,3.0,M,16.3,M,16.6,M*28
$YXXDR,A,5.6,D,PTCH,A,3.8,D,ROLL*55
$PTAK,FFD1,3.8*5E
$HCHDG,185.3,0.0,E,,*26
$GPRMC,000506.2,A,4741.13920,N,12224.25990,W,000.04,000.0,130813,016.6,E,A*24
$GPRMB,A,0.21,L,,Shil,4741.0830,N,12224.5670,W,0.2,255,-0.01,V*15
$HCHDG,185.2,0.0,E,,*27
$PGRME,3.0,M,15.6,M,15.9,M*22
$HCHDG,185.2,0.0,E,,*27
$GPRMC,000506.4,A,4741.13907,N,12224.25982,W,000.03,000.0,130813,016.6,E,A*23
$HCHDG,185.1,0.0,E,,*24
$PGRME,3.0,M,15.0,M,15.3,M*2E
$HCHDG,185.1,0.0,E,,*24
$YXXDR,A,5.8,D,PTCH,A,4.1,D,ROLL*55
$GPRMC,000506.6,A,4741.13896,N,12224.25985,W,000.04,000.0,130813,016.6,E,A*28
$PGRME,3.0,M,14.4,M,14.7,M*2E
$HCHDG,185.1,0.0,E,,*24
$HCHDG,185.1,0.0,E,,*24
$GPRMC,000506.8,A,4741.13894,N,12224.25981,W,000.05,000.0,130813,016.6,E,A*21
$HCHDG,185.1,0.0,E,,*24
$PGRME,3.0,M,13.8,M,14.1,M*23
$HCHDG,185.1,0.0,E,,*24
$GPRMC,000507.0,A,4741.13894,N,12224.25968,W,000.06,000.0,130813,016.6,E,A*2C
$HCHDG,185.1,0.0,E,,*24
$PGRME,3.0,M,13.0,M,13.4,M*29
$YXXDR,A,6.0,D,PTCH,A,4.1,D,ROLL*5E
$HCHDG,185.1,0.0,E,,*24
$GPRMC,000507.2,A,4741.13902,N,12224.25959,W,000.05,000.0,130813,016.6,E,A*21
$HCHDG,185.1,0.0,E,,*24
$PGRME,3.0,M,12.5,M,12.9,M*21
$HCHDG,185.1,0.0,E,,*24
$GPRMC,000507.4,A,4741.13902,N,12224.25958,W,000.03,000.0,130813,016.6,E,A*20
$GPRMB,A,0.21,L,,Shil,4741.0830,N,12224.5670,W,0.2,255,-0.01,V*15
$HCHDG,185.1,0.0,E,,*24
$PGRME,3.0,M,12.0,M,12.4,M*29
$HCHDG,185.3,0.0,E,,*26
$YXXDR,A,5.9,D,PTCH,A,4.2,D,ROLL*57
$PTAK,FFD1,4.2*53
$GPRMC,000507.6,A,4741.13902,N,12224.25957,W,000.07,000.0,130813,016.6,E,A*29
$PGRME,3.0,M,11.6,M,12.0,M*28
$HCHDG,185.3,0.0,E,,*26
$HCHDG,185.3,0.0,E,,*26
$GPRMC,000507.8,A,4741.13902,N,12224.25946,W,000.04,000.0,130813,016.6,E,A*24
$HCHDG,185.1,0.0,E,,*24
$PGRME,3.0,M,11.0,M,11.4,M*29
$HCHDG,185.1,0.0,E,,*24
$HCHDG,185.1,0.0,E,,*24
$GPRMC,000508.0,A,4741.13897,N,12224.25945,W,000.05,000.0,130813,016.6,E,A*2C
$PGRME,3.0,M,10.5,M,11.0,M*29
$YXXDR,A,5.8,D,PTCH,A,4.3,D,ROLL*57
$HCHDG,185.1,0.0,E,,*24
$HCHDG,185.2,0.0,E,,*27
$GPRMC,000508.2,A,4741.13895,N,12224.25938,W,000.07,000.0,130813,016.6,E,A*24
$PGRME,3.0,M,10.1,M,10.5,M*29
$HCHDG,185.2,0.0,E,,*27
$HCHDG,185.1,0.0,E,,*24
$GPRMC,000508.4,A,4741.13892,N,12224.25939,W,000.06,000.0,130813,016.6,E,A*25
$GPRMB,A,0.21,L,,Shil,4741.0830,N,12224.5670,W,0.2,255,-0.02,V*16
$PGRME,3.0,M,9.8,M,10.2,M*1F
$HCHDG,185.1,0.0,E,,*24
$YXXDR,A,5.8,D,PTCH,A,4.1,D,ROLL*55
$GPRMC,000508.6,A,4741.13890,N,12224.25943,W,000.01,000.0,130813,016.6,E,A*2F
$PGRME,3.0,M,9.5,M,10.0,M*10
$HCHDG,185.4,0.0,E,,*21
$HCHDG,185.4,0.0,E,,*21
$HCHDG,185.4,0.0,E,,*21
$GPRMC,000508.8,A,4741.13891,N,12224.25952,W,000.02,000.0,130813,016.6,E,A*23
$PGRME,3.0,M,9.2,M,9.6,M*29
$HCHDG,185.4,0.0,E,,*21
$HCHDG,185.4,0.0,E,,*21
$GPRMC,000509.0,A,4741.13892,N,12224.25960,W,000.03,000.0,130813,016.6,E,A*29
$PGRME,3.0,M,8.9,M,9.4,M*21
$YXXDR,A,5.8,D,PTCH,A,3.9,D,ROLL*5A
$PTAK,FFD1,3.9*5F
$HCHDG,185.4,0.0,E,,*21
$HCHDG,185.4,0.0,E,,*21
$GPRMC,000509.2,A,4741.13895,N,12224.25956,W,000.01,000.0,130813,016.6,E,A*2B
$PGRME,3.0,M,8.7,M,9.2,M*29
$HCHDG,185.4,0.0,E,,*21
$PTAK,FFP1,HEEL,@*07
$HCHDG,185.4,0.0,E,,*21
$GPRMC,000509.4,A,4741.13901,N,12224.25953,W,000.00,000.0,130813,016.6,E,A*25
$GPRMB,A,0.21,L,,Shil,4741.0830,N,12224.5670,W,0.2,255,-0.00,V*14
$PGRME,3.0,M,8.4,M,8.9,M*20
$HCHDG,185.4,0.0,E,,*21
$YXXDR,A,6.0,D,PTCH,A,4.0,D,ROLL*5F
$GPRMC,000509.6,A,4741.13905,N,12224.25962,W,000.02,000.0,130813,016.6,E,A*23
$PGRME,3.0,M,8.1,M,8.7,M*2B
$HCHDG,185.4,0.0,E,,*21
$HCHDG,185.4,0.0,E,,*21
$HCHDG,185.4,0.0,E,,*21
$GPRMC,000509.8,A,4741.13896,N,12224.25974,W,000.02,000.0,130813,016.6,E,A*21
$PGRME,3.0,M,7.9,M,8.5,M*2E
$HCHDG,185.4,0.0,E,,*21
$HCHDG,185.4,0.0,E,,*21
$GPRMC,000510.0,A,4741.13894,N,12224.25982,W,000.02,000.0,130813,016.6,E,A*2A
$PGRME,3.0,M,7.8,M,8.4,M*2E
$YXXDR,A,6.0,D,PTCH,A,4.1,D,ROLL*5E
$PTAK,FFD1,4.1*50
$HCHDG,185.4,0.0,E,,*21
$HCHDG,185.5,0.0,E,,*20
$GPRMC,000510.2,A,4741.13892,N,12224.25986,W,000.02,000.0,130813,016.6,E,A*2A
$PGRME,3.0,M,7.5,M,8.1,M*26
$HCHDG,185.5,0.0,E,,*20
$HCHDG,185.5,0.0,E,,*20
$GPRMC,000510.4,A,4741.13892,N,12224.25981,W,000.03,000.0,130813,016.6,E,A*2A
$PGRME,3.0,M,7.4,M,8.0,M*26
$HCHDG,185.5,0.0,E,,*20
$YXXDR,A,5.9,D,PTCH,A,4.2,D,ROLL*57
$GPRMC,000510.6,A,4741.13896,N,12224.25983,W,000.02,000.0,130813,016.6,E,A*2F
$GPRMB,A,0.21,L,,Shil,4741.0830,N,12224.5670,W,0.2,255,-0.01,V*15
$PGRME,3.0,M,7.1,M,7.7,M*2B
$HCHDG,185.5,0.0,E,,*20
$HCHDG,185.5,0.0,E,,*20
$HCHDG,185.5,0.0,E,,*20
$GPRMC,000510.8,A,4741.13894,N,12224.25981,W,000.02,000.0,130813,016.6,E,A*21
$PGRME,3.0,M,7.0,M,7.6,M*2B
$HCHDG,185.6,0.0,E,,*23
$HCHDG,185.3,0.0,E,,*26
$GPRMC,000511.0,A,4741.13900,N,12224.25985,W,000.04,000.0,130813,016.6,E,A*26
$PGRME,3.0,M,6.8,M,7.5,M*21
$YXXDR,A,5.9,D,PTCH,A,4.2,D,ROLL*57
$HCHDG,185.3,0.0,E,,*26
$HCHDG,185.3,0.0,E,,*26
$GPRMC,000511.2,A,4741.13905,N,12224.25986,W,000.03,000.0,130813,016.6,E,A*25
$PGRME,3.0,M,6.7,M,7.3,M*28
$HCHDG,185.2,0.0,E,,*27
$HCHDG,185.2,0.0,E,,*27
$GPRMC,000511.4,A,4741.13899,N,12224.25978,W,000.09,000.0,130813,016.6,E,A*2C
$PGRME,3.0,M,6.5,M,7.2,M*2B
$HCHDG,185.2,0.0,E,,*27
$YXXDR,A,5.9,D,PTCH,A,4.2,D,ROLL*57
$PTAK,FFD1,4.2*53
$GPRMC,000511.6,A,4741.13901,N,12224.25974,W,000.04,000.0,130813,016.6,E,A*2F
$GPRMB,A,0.21,L,,Shil,4741.0830,N,12224.5670,W,0.2,255,-0.01,V*15
$PGRME,3.0,M,6.4,M,7.1,M*29
$HCHDG,185.5,0.0,E,,*20
$HCHDG,185.5,0.0,E,,*20
$HCHDG,185.3,0.0,E,,*26
$GPRMC,000511.8,A,4741.13905,N,12224.25966,W,000.05,000.0,130813,016.6,E,A*27
$PGRME,3.0,M,6.3,M,7.0,M*2F
$HCHDG,185.3,0.0,E,,*26
$HCHDG,185.3,0.0,E,,*26
$GPRMC,000512.0,A,4741.13901,N,12224.25958,W,000.05,000.0,130813,016.6,E,A*25
$PGRME,3.0,M,6.2,M,6.9,M*26
$YXXDR,A,5.8,D,PTCH,A,4.0,D,ROLL*54
$HCHDG,185.2,0.0,E,,*27
$HCHDG,185.2,0.0,E,,*27
$GPRMC,000512.2,A,4741.13901,N,12224.25960,W,000.01,000.0,130813,016.6,E,A*28
$PGRME,3.0,M,6.1,M,6.8,M*24
$HCHDG,185.4,0.0,E,,*21
$HCHDG,185.4,0.0,E,,*21
$GPRMC,000512.4,A,4741.13901,N,12224.25958,W,000.02,000.0,130813,016.6,E,A*26
$PGRME,3.0,M,6.0,M,6.7,M*2A
$HCHDG,185.4,0.0,E,,*21
$YXXDR,A,5.7,D,PTCH,A,3.8,D,ROLL*54
$GPRMC,000512.6,A,4741.13910,N,12224.25940,W,000.05,000.0,130813,016.6,E,A*2A
$PGRME,3.0,M,5.8,M,6.6,M*20
$HCHDG,185.4,0.0,E,,*21
$HCHDG,185.4,0.0,E,,*21
$HCHDG,185.4,0.0,E,,*21
$GPRMC,000512.8,A,4741.13917,N,12224.25928,W,000.02,000.0,130813,016.6,E,A*2A
$GPRMB,A,0.21,L,,Shil,4741.0830,N,12224.5670,W,0.2,255,-0.01,V*15
$PGRME,3.0,M,5.7,M,6.5,M*2C
$HCHDG,185.4,0.0,E,,*21
$GPRMC,000513.0,A,4741.13911,N,12224.25925,W,000.02,000.0,130813,016.6,E,A*28
$HCHDG,185.1,0.0,E,,*24
$PGRME,3.0,M,5.6,M,6.4,M*2C
$YXXDR,A,5.8,D,PTCH,A,4.1,D,ROLL*55
$PTAK,FFD1,4.1*50
$HCHDG,185.1,0.0,E,,*24
$HCHDG,185.1,0.0,E,,*24
$GPRMC,000513.2,A,4741.13909,N,12224.25923,W,000.06,000.0,130813,016.6,E,A*21
$PGRME,3.0,M,5.5,M,6.3,M*28
$HCHDG,185.2,0.0,E,,*27
$HCHDG,185.2,0.0,E,,*27
$PTAK,FFP1,HEEL,@*07
$GPRMC,000513.4,A,4741.13908,N,12224.25919,W,000.04,000.0,130813,016.6,E,A*2D
$PGRME,3.0,M,5.4,M,6.2,M*28
$HCHDG,185.2,0.0,E,,*27
$YXXDR,A,5.8,D,PTCH,A,4.3,D,ROLL*57
$GPRMC,000513.6,A,4741.13904,N,12224.25908,W,000.08,000.0,130813,016.6,E,A*2F
$PGRME,3.0,M,5.3,M,6.1,M*2C
$HCHDG,185.2,0.0,E,,*27
$HCHDG,185.2,0.0,E,,*27
$HCHDG,185.2,0.0,E,,*27
$GPRMC,000513.8,A,4741.13908,N,12224.25909,W,000.05,000.0,130813,016.6,E,A*21
$GPRMB,A,0.21,L,,Shil,4741.0830,N,12224.5670,W,0.2,255,-0.01,V*15
$PGRME,3.0,M,5.2,M,6.0,M*2C
$HCHDG,185.3,0.0,E,,*26
$HCHDG,185.3,0.0,E,,*26
$GPRMC,000514.0,A,4741.13910,N,12224.25906,W,000.02,000.0,130813,016.6,E,A*2F
$PGRME,3.0,M,5.1,M,5.9,M*25
$YXXDR,A,5.8,D,PTCH,A,4.1,D,ROLL*55
$PTAK,FFD1,4.1*50
$HCHDG,185.3,0.0,E,,*26
$HCHDG,185.3,0.0,E,,*26
$GPRMC,000514.2,A,4741.13912,N,12224.25898,W,000.03,000.0,130813,016.6,E,A*28
$PGRME,3.0,M,5.0,M,5.8,M*25
$HCHDG,185.2,0.0,E,,*27
$HCHDG,185.2,0.0,E,,*27
$GPRMC,000514.4,A,4741.13914,N,12224.25892,W,000.03,000.0,130813,016.6,E,A*22
$PGRME,3.0,M,4.9,M,5.8,M*2D
$HCHDG,185.4,0.0,E,,*21
$YXXDR,A,5.8,D,PTCH,A,3.9,D,ROLL*5A
$GPRMC,000514.6,A,4741.13913,N,12224.25886,W,000.01,000.0,130813,016.6,E,A*20
$PGRME,3.0,M,4.8,M,5.7,M*23
$HCHDG,185.4,0.0,E,,*21
$HCHDG,185.3,0.0,E,,*26
$HCHDG,185.3,0.0,E,,*26
$GPRMC,000514.8,A,4741.13919,N,12224.25875,W,000.02,000.0,130813,016.6,E,A*2B
$GPRMB,A,0.21,L,,Shil,4741.0830,N,12224.5670,W,0.2,255,-0.01,V*15
$PGRME,3.0,M,4.7,M,5.6,M*2D
$HCHDG,185.3,0.0,E,,*26
$HCHDG,185.3,0.0,E,,*26
$GPRMC,000515.0,A,4741.13922,N,12224.25872,W,000.03,000.0,130813,016.6,E,A*2C
$PGRME,3.0,M,4.6,M,5.5,M*2F
$YXXDR,A,6.0,D,PTCH,A,3.8,D,ROLL*50
$HCHDG,185.2,0.0,E,,*27
$HCHDG,185.5,0.0,E,,*20
$GPRMC,000515.2,A,4741.13918,N,12224.25871,W,000.02,000.0,130813,016.6,E,A*25
$PGRME,3.0,M,4.6,M,5.5,M*2F
$HCHDG,185.5,0.0,E,,*20
$HCHDG,185.4,0.0,E,,*21
$GPRMC,000515.4,A,4741.13916,N,12224.25874,W,000.02,000.0,130813,016.6,E,A*28
$PGRME,3.0,M,4.5,M,5.4,M*2D
$HCHDG,185.4,0.0,E,,*21
$YXXDR,A,5.7,D,PTCH,A,3.8,D,ROLL*54
$PTAK,FFD1,3.8*5E
$GPRMC,000515.6,A,4741.13918,N,12224.25870,W,000.02,000.0,130813,016.6,E,A*20
$PGRME,3.0,M,4.4,M,5.3,M*2B
$HCHDG,185.5,0.0,E,,*20
$HCHDG,185.5,0.0,E,,*20
$GPRMC,000515.8,A,4741.13921,N,12224.25861,W,000.01,000.0,130813,016.6,E,A*27
$HCHDG,185.5,0.0,E,,*20
$PGRME,3.0,M,4.3,M,5.3,M*2C
$HCHDG,185.5,0.0,E,,*20
$GPRMC,000516.0,A,4741.13932,N,12224.25850,W,000.01,000.0,130813,016.6,E,A*2C
$GPRMB,A,0.21,L,,Shil,4741.0830,N,12224.5670,W,0.2,255,-0.00,V*14
$HCHDG,185.5,0.0,E,,*20
$PGRME,3.0,M,4.3,M,5.2,M*2D
$YXXDR,A,6.1,D,PTCH,A,4.0,D,ROLL*5E
$HCHDG,185.4,0.0,E,,*21
$GPRMC,000516.2,A,4741.13934,N,12224.25843,W,000.02,000.0,130813,016.6,E,A*29
$HCHDG,185.4,0.0,E,,*21
$PGRME,3.0,M,4.2,M,5.2,M*2C
$HCHDG,185.4,0.0,E,,*21
$GPRMC,000516.4,A,4741.13934,N,12224.25835,W,000.03,000.0,130813,016.6,E,A*2F
$HCHDG,185.4,0.0,E,,*21
$PGRME,3.0,M,4.2,M,5.2,M*2C
$HCHDG,185.4,0.0,E,,*21
$YXXDR,A,5.9,D,PTCH,A,4.3,D,ROLL*56
$GPRMC,000516.6,A,4741.13936,N,12224.25826,W,000.03,000.0,130813,016.6,E,A*2D
$PGRME,3.0,M,4.1,M,5.1,M*2C
$HCHDG,185.4,0.0,E,,*21
$HCHDG,185.5,0.0,E,,*20
$GPRMC,000516.8,A,4741.13934,N,12224.25817,W,000.04,000.0,130813,016.6,E,A*24
$HCHDG,185.2,0.0,E,,*27
$PGRME,3.0,M,4.0,M,5.1,M*2D
$HCHDG,185.2,0.0,E,,*27
$GPRMC,000517.0,A,4741.13935,N,12224.25813,W,000.06,000.0,130813,016.6,E,A*2A
$GPRMB,A,0.21,L,,Shil,4741.0830,N,12224.5670,W,0.2,255,-0.02,V*16
$HCHDG,185.2,0.0,E,,*27
$PGRME,3.0,M,4.0,M,5.0,M*2C
$YXXDR,A,5.9,D,PTCH,A,4.2,D,ROLL*57
$PTAK,FFD1,4.2*53
$HCHDG,185.5,0.0,E,,*20
$GPRMC,000517.2,A,4741.13939,N,12224.25806,W,000.00,000.0,130813,016.6,E,A*26
$HCHDG,185.5,0.0,E,,*20
$PGRME,3.0,M,3.9,M,5.0,M*22
$HCHDG,185.6,0.0,E,,*23
$HCHDG,185.6,0.0,E,,*23
$PTAK,FFP1,HEEL,@*07
$GPRMC,000517.4,A,4741.13934,N,12224.25800,W,000.04,000.0,130813,016.6,E,A*2F
$PGRME,3.0,M,3.9,M,4.9,M*2A
$HCHDG,185.6,0.0,E,,*23
$YXXDR,A,5.8,D,PTCH,A,3.9,D,ROLL*5A
$GPRMC,000517.6,A,4741.13935,N,12224.25801,W,000.03,000.0,130813,016.6,E,A*2A
$PGRME,3.0,M,3.9,M,4.9,M*2A
$HCHDG,185.5,0.0,E,,*20
$HCHDG,185.5,0.0,E,,*20
$HCHDG,185.5,0.0,E,,*20
$GPRMC,000517.8,A,4741.13937,N,12224.25806,W,000.03,000.0,130813,016.6,E,A*21
$GPRMB,A,0.21,L,,Shil,4741.0830,N,12224.5670,W,0.2,255,-0.01,V*15
$PGRME,3.0,M,3.8,M,4.9,M*2B
$HCHDG,185.5,0.0,E,,*20
$HCHDG,185.4,0.0,E,,*21
$GPRMC,000518.0,A,4741.13936,N,12224.25806,W,000.02,000.0,130813,016.6,E,A*26
$PGRME,3.0,M,3.8,M,4.9,M*2B
$YXXDR,A,6.0,D,PTCH,A,3.8,D,ROLL*50
$PTAK,FFD1,3.8*5E
$HCHDG,185.3,0.0,E,,*26
$HCHDG,185.5,0.0,E,,*20
$GPRMC,000518.2,A,4741.13940,N,12224.25802,W,000.02,000.0,130813,016.6,E,A*21
$PGRME,3.0,M,3.7,M,4.8,M*25
$HCHDG,185.5,0.0,E,,*20
$HCHDG,185.5,0.0,E,,*20
$GPRMC,000518.4,A,4741.13943,N,12224.25804,W,000.03,000.0,130813,016.6,E,A*23
$PGRME,3.0,M,3.7,M,4.8,M*25
$HCHDG,185.5,0.0,E,,*20
$YXXDR,A,5.9,D,PTCH,A,3.7,D,ROLL*55
$GPRMC,000518.6,A,4741.13939,N,12224.25814,W,000.03,000.0,130813,016.6,E,A*2D
$PGRME,3.0,M,3.7,M,4.8,M*25
$HCHDG,185.5,0.0,E,,*20
$HCHDG,185.5,0.0,E,,*20
$HCHDG,185.5,0.0,E,,*20
$GPRMC,000518.8,A,4741.13936,N,12224.25826,W,000.01,000.0,130813,016.6,E,A*2F
$PGRME,3.0,M,3.6,M,4.8,M*24
$HCHDG,185.5,0.0,E,,*20
$HCHDG,185.5,0.0,E,,*20
$GPRMC,000519.0,A,4741.13935,N,12224.25821,W,000.03,000.0,130813,016.6,E,A*20
$PGRME,3.0,M,3.6,M,4.7,M*2B
$YXXDR,A,5.8,D,PTCH,A,3.9,D,ROLL*5A
$HCHDG,185.5,0.0,E,,*20
$HCHDG,185.5,0.0,E,,*20
$GPRMC,000519.2,A,4741.13938,N,12224.25822,W,000.02,000.0,130813,016.6,E,A*2D
$GPRMB,A,0.21,L,,Shil,4741.0830,N,12224.5670,W,0.2,255,-0.01,V*15
$PGRME,3.0,M,3.6,M,4.7,M*2B
$HCHDG,185.5,0.0,E,,*20
$HCHDG,185.6,0.0,E,,*23
$GPRMC,000519.4,A,4741.13945,N,12224.25824,W,000.03,000.0,130813,016.6,E,A*26
$PGRME,3.0,M,3.6,M,4.7,M*2B
$HCHDG,185.3,0.0,E,,*26
$YXXDR,A,5.8,D,PTCH,A,4.0,D,ROLL*54
$PTAK,FFD1,4.0*51
$GPRMC,000519.6,A,4741.13941,N,12224.25829,W,000.01,000.0,130813,016.6,E,A*2F
$PGRME,3.0,M,3.5,M,4.7,M*28
$HCHDG,185.3,0.0,E,,*26
$HCHDG,185.4,0.0,E,,*21
$HCHDG,185.4,0.0,E,,*21
$GPRMC,000519.8,A,4741.13940,N,12224.25834,W,000.04,000.0,130813,016.6,E,A*29
$PGRME,3.0,M,3.5,M,4.6,M*29
$HCHDG,185.4,0.0,E,,*21
$HCHDG,185.4,0.0,E,,*21
$GPRMC,000520.0,A,4741.13946,N,12224.25837,W,000.03,000.0,130813,016.6,E,A*29
$PGRME,3.0,M,3.5,M,4.6,M*29
$YXXDR,A,5.7,D,PTCH,A,4.1,D,ROLL*5A
$HCHDG,185.4,0.0,E,,*21
$HCHDG,185.4,0.0,E,,*21
$GPRMC,000520.2,A,4741.13945,N,12224.25837,W,000.03,000.0,130813,016.6,E,A*28
$PGRME,3.0,M,3.4,M,4.6,M*28
$HCHDG,185.4,0.0,E,,*21
$HCHDG,185.4,0.0,E,,*21
$GPRMC,000520.4,A,4741.13945,N,12224.25836,W,000.00,000.0,130813,016.6,E,A*2C
$GPRMB,A,0.21,L,,Shil,4741.0830,N,12224.5670,W,0.2,255,-0.00,V*14
$PGRME,3.0,M,3.4,M,4.6,M*28
$HCHDG,185.4,0.0,E,,*21
$YXXDR,A,5.8,D,PTCH,A,4.1,D,ROLL*55
$PTAK,FFD1,4.1*50
$GPRMC,000520.6,A,4741.13944,N,12224.25837,W,000.04,000.0,130813,016.6,E,A*2A
$PGRME,3.0,M,3.4,M,4.6,M*28
$HCHDG,185.4,0.0,E,,*21
$HCHDG,185.4,0.0,E,,*21
$HCHDG,185.4,0.0,E,,*21
$GPRMC,000520.8,A,4741.13944,N,12224.25841,W,000.02,000.0,130813,016.6,E,A*23
$PGRME,3.0,M,3.4,M,4.5,M*2B
$HCHDG,185.3,0.0,E,,*26
$HCHDG,185.3,0.0,E,,*26
$GPRMC,000521.0,A,4741.13946,N,12224.25842,W,000.01,000.0,130813,016.6,E,A*28
$PGRME,3.0,M,3.3,M,4.5,M*2C
$YXXDR,A,6.0,D,PTCH,A,3.8,D,ROLL*50
$HCHDG,185.3,0.0,E,,*26
$HCHDG,185.4,0.0,E,,*21
$GPRMC,000521.2,A,4741.13946,N,12224.25842,W,000.02,000.0,130813,016.6,E,A*29
$PGRME,3.0,M,3.3,M,4.5,M*2C
$HCHDG,185.4,0.0,E,,*21
$HCHDG,185.6,0.0,E,,*23
$GPRMC,000521.4,A,4741.13947,N,12224.25842,W,000.00,000.0,130813,016.6,E,A*2C
$PTAK,FFP1,HEEL,@*07
$PGRME,3.0,M,3.3,M,4.5,M*2C
$HCHDG,185.5,0.0,E,,*20
$YXXDR,A,6.0,D,PTCH,A,3.8,D,ROLL*50
$GPRMC,000521.6,A,4741.13951,N,12224.25849,W,000.04,000.0,130813,016.6,E,A*26
$GPRMB,A,0.21,L,,Shil,4741.0830,N,12224.5670,W,0.2,255,-0.01,V*15
$PGRME,3.0,M,3.3,M,4.5,M*2C
$HCHDG,185.5,0.0,E,,*20
$HCHDG,185.5,0.0,E,,*20
$HCHDG,185.5,0.0,E,,*20
$GPRMC,000521.8,A,4741.13951,N,12224.25856,W,000.04,000.0,130813,016.6,E,A*26
$PGRME,3.0,M,3.2,M,4.4,M*2C
$HCHDG,185.5,0.0,E,,*20
$HCHDG,185.5,0.0,E,,*20
$GPRMC,000522.0,A,4741.13950,N,12224.25862,W,000.03,000.0,130813,016.6,E,A*2C
$PGRME,3.0,M,3.2,M,4.4,M*2C
$YXXDR,A,6.0,D,PTCH,A,4.0,D,ROLL*5F
$PTAK,FFD1,4.0*51
$HCHDG,185.3,0.0,E,,*26
$HCHDG,185.4,0.0,E,,*21
$GPRMC,000522.2,A,4741.13950,N,12224.25864,W,000.02,000.0,130813,016.6,E,A*29
$PGRME,3.0,M,3.2,M,4.4,M*2C
$HCHDG,185.4,0.0,E,,*21
$HCHDG,185.4,0.0,E,,*21
$GPRMC,000522.4,A,4741.13948,N,12224.25871,W,000.03,000.0,130813,016.6,E,A*23
$PGRME,3.0,M,3.1,M,4.4,M*2F
$HCHDG,185.2,0.0,E,,*27
$YXXDR,A,5.5,D,PTCH,A,4.3,D,ROLL*5A
$GPRMC,000522.6,A,4741.13944,N,12224.25875,W,000.04,000.0,130813,016.6,E,A*2E
$GPRMB,A,0.21,L,,Shil,4741.0830,N,12224.5670,W,0.2,255,-0.01,V*15
$PGRME,3.0,M,3.1,M,4.4,M*2F
$HCHDG,185.3,0.0,E,,*26
$HCHDG,185.3,0.0,E,,*26
$GPRMC,000522.8,A,4741.13943,N,12224.25878,W,000.02,000.0,130813,016.6,E,A*2C
$HCHDG,185.4,0.0,E,,*21
$PGRME,3.0,M,3.1,M,4.3,M*28
$HCHDG,185.1,0.0,E,,*24
$HCHDG,185.2,0.0,E,,*27
$GPRMC,000523.0,A,4741.13943,N,12224.25875,W,000.03,000.0,130813,016.6,E,A*29
$PGRME,3.0,M,3.1,M,4.3,M*28
$YXXDR,A,5.8,D,PTCH,A,4.3,D,ROLL*57
$PTAK,FFD1,4.3*52
$HCHDG,185.2,0.0,E,,*27
$GPRMC,000523.2,A,4741.13947,N,12224.25872,W,000.08,000.0,130813,016.6,E,A*23
$HCHDG,185.3,0.0,E,,*26
$PGRME,3.0,M,3.1,M,4.3,M*28
$HCHDG,185.4,0.0,E,,*21
$HCHDG,185.5,0.0,E,,*20
$GPRMC,000523.4,A,4741.13947,N,12224.25870,W,000.06,000.0,130813,016.6,E,A*29
$PGRME,3.0,M,3.0,M,4.3,M*29
$HCHDG,185.5,0.0,E,,*20
$YXXDR,A,5.8,D,PTCH,A,4.3,D,ROLL*57
$GPRMC,000523.6,A,4741.13945,N,12224.25873,W,000.03,000.0,130813,016.6,E,A*2F
$GPRMB,A,0.21,L,,Shil,4741.0830,N,12224.5670,W,0.2,255,-0.01,V*15
$PGRME,3.0,M,3.0,M,4.3,M*29
$HCHDG,185.6,0.0,E,,*23
$HCHDG,185.6,0.0,E,,*23
$GPRMC,000523.8,A,4741.13943,N,12224.25873,W,000.02,000.0,130813,016.6,E,A*26
$HCHDG,185.6,0.0,E,,*23
$PGRME,3.0,M,3.0,M,4.3,M*29
$HCHDG,185.6,0.0,E,,*23
$HCHDG,185.5,0.0,E,,*20
$GPRMC,000524.0,A,4741.13939,N,12224.25870,W,000.02,000.0,130813,016.6,E,A*27
$PGRME,3.0,M,3.0,M,4.3,M*29
$YXXDR,A,5.6,D,PTCH,A,4.1,D,ROLL*5B
$PTAK,FFD1,4.1*50
$HCHDG,185.4,0.0,E,,*21
$HCHDG,185.4,0.0,E,,*21
$GPRMC,000524.2,A,4741.13933,N,12224.25871,W,000.03,000.0,130813,016.6,E,A*2F
$PGRME,3.0,M,3.0,M,4.3,M*29
$HCHDG,185.4,0.0,E,,*21
$GPRMC,000524.4,A,4741.13931,N,12224.25875,W,000.07,000.0,130813,016.6,E,A*2B
$HCHDG,185.5,0.0,E,,*20
$PGRME,3.0,M,3.0,M,4.3,M*29
$HCHDG,185.5,0.0,E,,*20
$YXXDR,A,5.7,D,PTCH,A,4.2,D,ROLL*59
$GPRMC,000524.6,A,4741.13931,N,12224.25878,W,000.03,000.0,130813,016.6,E,A*20
$PGRME,3.0,M,3.0,M,4.3,M*29
$HCHDG,185.6,0.0,E,,*23
$HCHDG,185.6,0.0,E,,*23
$HCHDG,185.6,0.0,E,,*23
$GPRMC,000524.8,A,4741.13931,N,12224.25877,W,000.03,000.0,130813,016.6,E,A*21
$GPRMB,A,0.21,L,,Shil,4741.0830,N,12224.5670,W,0.2,255,-0.01,V*15
$PGRME,3.0,M,3.0,M,4.3,M*29
$HCHDG,185.6,0.0,E,,*23
$HCHDG,185.6,0.0,E,,*23
$GPRMC,000525.0,A,4741.13932,N,12224.25881,W,000.03,000.0,130813,016.6,E,A*22
$PGRME,3.0,M,3.0,M,4.3,M*29
$YXXDR,A,5.7,D,PTCH,A,4.2,D,ROLL*59
$HCHDG,185.6,0.0,E,,*23
$HCHDG,185.6,0.0,E,,*23
$GPRMC,000525.2,A,4741.13931,N,12224.25885,W,000.04,000.0,130813,016.6,E,A*20
$PGRME,3.0,M,3.0,M,4.3,M*29
$HCHDG,185.6,0.0,E,,*23
$HCHDG,185.6,0.0,E,,*23
$GPRMC,000525.4,A,4741.13932,N,12224.25887,W,000.02,000.0,130813,016.6,E,A*21
$PTAK,FFP1,HEEL,@*07
$PGRME,3.0,M,3.0,M,4.3,M*29
$HCHDG,185.5,0.0,E,,*20
$YXXDR,A,5.7,D,PTCH,A,4.1,D,ROLL*5A
$PTAK,FFD1,4.1*50
$GPRMC,000525.6,A,4741.13935,N,12224.25888,W,000.05,000.0,130813,016.6,E,A*2C
$PGRME,3.0,M,3.0,M,4.3,M*29
$HCHDG,185.5,0.0,E,,*20
$HCHDG,185.4,0.0,E,,*21
$HCHDG,185.6,0.0,E,,*23
$GPRMC,000525.8,A,4741.13930,N,12224.25890,W,000.04,000.0,130813,016.6,E,A*2F
$GPRMB,A,0.21,L,,Shil,4741.0830,N,12224.5670,W,0.2,255,-0.01,V*15
$PGRME,3.0,M,3.0,M,4.3,M*29
$HCHDG,185.6,0.0,E,,*23
$HCHDG,185.5,0.0,E,,*20
$GPRMC,000526.0,A,4741.13930,N,12224.25896,W,000.05,000.0,130813,016.6,E,A*23
$PGRME,3.0,M,3.0,M,4.3,M*29
$YXXDR,A,5.8,D,PTCH,A,3.9,D,ROLL*5A
$HCHDG,185.5,0.0,E,,*20
$HCHDG,185.5,0.0,E,,*20
$GPRMC,000526.2,A,4741.13932,N,12224.25901,W,000.04,000.0,130813,016.6,E,A*2D
$PGRME,3.0,M,3.0,M,4.3,M*29
$HCHDG,185.4,0.0,E,,*21
$HCHDG,185.4,0.0,E,,*21
$GPRMC,000526.4,A,4741.13935,N,12224.25897,W,000.05,000.0,130813,016.6,E,A*23
$PGRME,3.0,M,3.0,M,4.3,M*29
$HCHDG,185.5,0.0,E,,*20
$YXXDR,A,5.8,D,PTCH,A,3.9,D,ROLL*5A
$PTAK,FFD1,3.9*5F
$GPRMC,000526.6,A,4741.13939,N,12224.25895,W,000.03,000.0,130813,016.6,E,A*29
$PGRME,3.0,M,3.0,M,4.3,M*29
$HCHDG,185.5,0.0,E,,*20
$HCHDG,185.4,0.0,E,,*21
$HCHDG,185.4,0.0,E,,*21
$GPRMC,000526.8,A,4741.13938,N,12224.25894,W,000.06,000.0,130813,016.6,E,A*22
$GPRMB,A,0.21,L,,Shil,4741.0830,N,12224.5670,W,0.2,255,-0.02,V*16
$PGRME,3.0,M,3.0,M,4.3,M*29
$HCHDG,185.4,0.0,E,,*21
$HCHDG,185.5,0.0,E,,*20
$GPRMC,000527.0,A,4741.13939,N,12224.25893,W,000.04,000.0,130813,016.6,E,A*2F
$PGRME,3.0,M,3.0,M,4.3,M*29
$YXXDR,A,5.8,D,PTCH,A,3.9,D,ROLL*5A
$HCHDG,185.5,0.0,E,,*20
$GPRMC,000527.2,A,4741.13943,N,12224.25887,W,000.07,000.0,130813,016.6,E,A*26
$HCHDG,185.5,0.0,E,,*20
$PGRME,3.0,M,3.0,M,4.3,M*29
$HCHDG,185.5,0.0,E,,*20
$HCHDG,185.4,0.0,E,,*21
$GPRMC,000527.4,A,4741.13939,N,12224.25884,W,000.02,000.0,130813,016.6,E,A*2B
$PGRME,3.0,M,3.0,M,4.3,M*29
$HCHDG,185.5,0.0,E,,*20
$YXXDR,A,5.8,D,PTCH,A,3.9,D,ROLL*5A
$PTAK,FFD1,3.9*5F
$GPRMC,000527.6,A,4741.13938,N,12224.25885,W,000.04,000.0,130813,016.6,E,A*2F
$PGRME,3.0,M,3.0,M,4.3,M*29
$HCHDG,185.5,0.0,E,,*20
$HCHDG,185.5,0.0,E,,*20
$HCHDG,185.4,0.0,E,,*21
$GPRMC,000527.8,A,4741.13940,N,12224.25887,W,000.03,000.0,130813,016.6,E,A*2B
$GPRMB,A,0.21,L,,Shil,4741.0830,N,12224.5670,W,0.2,255,-0.01,V*15
$PGRME,3.0,M,3.0,M,4.3,M*29
$HCHDG,185.6,0.0,E,,*23
$HCHDG,185.6,0.0,E,,*23
$GPRMC,000528.0,A,4741.13938,N,12224.25888,W,000.03,000.0,130813,016.6,E,A*2C
$PGRME,3.0,M,3.0,M,4.3,M*29
$YXXDR,A,5.8,D,PTCH,A,3.9,D,ROLL*5A
$HCHDG,185.6,0.0,E,,*23
$HCHDG,185.7,0.0,E,,*22
$GPRMC,000528.2,A,4741.13936,N,12224.25888,W,000.04,000.0,130813,016.6,E,A*27
$PGRME,3.0,M,3.0,M,4.3,M*29
$HCHDG,185.7,0.0,E,,*22
$HCHDG,185.7,0.0,E,,*22
$GPRMC,000528.4,A,4741.13934,N,12224.25882,W,000.03,000.0,130813,016.6,E,A*2E
$PGRME,3.0,M,3.0,M,4.3,M*29
$HCHDG,185.7,0.0,E,,*22
$YXXDR,A,5.9,D,PTCH,A,4.2,D,ROLL*57
$GPRMC,000528.6,A,4741.13936,N,12224.25876,W,000.01,000.0,130813,016.6,E,A*27
$PGRME,3.0,M,3.0,M,4.3,M*29
$HCHDG,185.8,0.0,E,,*2D
$HCHDG,185.8,0.0,E,,*2D
$HCHDG,185.8,0.0,E,,*2D
$GPRMC,000528.8,A,4741.13939,N,12224.25876,W,000.01,000.0,130813,016.6,E,A*26
$PGRME,3.0,M,3.0,M,4.3,M*29
$HCHDG,185.8,0.0,E,,*2D
$HCHDG,185.8,0.0,E,,*2D
$GPRMC,000529.0,A,4741.13935,N,12224.25880,W,000.01,000.0,130813,016.6,E,A*2A
$GPRMB,A,0.21,L,,Shil,4741.0830,N,12224.5670,W,0.2,255,-0.00,V*14
$PGRME,3.0,M,3.0,M,4.3,M*29
$YXXDR,A,5.7,D,PTCH,A,4.2,D,ROLL*59
$PTAK,FFD1,4.2*53
$HCHDG,185.8,0.0,E,,*2D
$HCHDG,185.8,0.0,E,,*2D
$GPRMC,000529.2,A,4741.13931,N,12224.25879,W,000.01,000.0,130813,016.6,E,A*2A
$PGRME,3.0,M,3.0,M,4.3,M*29
$HCHDG,185.8,0.0,E,,*2D
$HCHDG,185.8,0.0,E,,*2D
$GPRMC,000529.4,A,4741.13926,N,12224.25876,W,000.03,000.0,130813,016.6,E,A*27
$PTAK,FFP1,HEEL,@*07
$PGRME,3.0,M,3.0,M,4.3,M*29
$HCHDG,185.7,0.0,E,,*22
$YXXDR,A,5.8,D,PTCH,A,4.0,D,ROLL*54
$GPRMC,000529.6,A,4741.13923,N,12224.25868,W,000.01,000.0,130813,016.6,E,A*2D
$PGRME,3.0,M,3.0,M,4.3,M*29
$HCHDG,185.7,0.0,E,,*22
$HCHDG,185.7,0.0,E,,*22
$HCHDG,185.6,0.0,E,,*23
$GPRMC,000529.8,A,4741.13921,N,12224.25865,W,000.02,000.0,130813,016.6,E,A*2F
$PGRME,3.0,M,3.0,M,4.3,M*29
$HCHDG,185.5,0.0,E,,*20
$HCHDG,185.8,0.0,E,,*2D
$GPRMC,000530.0,A,4741.13921,N,12224.25866,W,000.05,000.0,130813,016.6,E,A*2B
$PGRME,3.0,M,3.0,M,4.3,M*29
$YXXDR,A,5.6,D,PTCH,A,4.0,D,ROLL*5A
$HCHDG,185.8,0.0,E,,*2D
$HCHDG,185.7,0.0,E,,*22
$GPRMC,000530.2,A,4741.13920,N,12224.25866,W,000.02,000.0,130813,016.6,E,A*2F
$GPRMB,A,0.21,L,,Shil,4741.0830,N,12224.5670,W,0.2,255,-0.01,V*15
$PGRME,3.0,M,3.0,M,4.3,M*29
$HCHDG,185.7,0.0,E,,*22
$HCHDG,185.7,0.0,E,,*22
$GPRMC,000530.4,A,4741.13919,N,12224.25863,W,000.03,000.0,130813,016.6,E,A*27
$PGRME,3.0,M,3.0,M,4.3,M*29
$HCHDG,185.7,0.0,E,,*22
$YXXDR,A,5.6,D,PTCH,A,4.0,D,ROLL*5A
$PTAK,FFD1,4.0*51
$GPRMC,000530.6,A,4741.13915,N,12224.25863,W,000.02,000.0,130813,016.6,E,A*28
$PGRME,3.0,M,3.0,M,4.3,M*29
$HCHDG,185.6,0.0,E,,*23
$HCHDG,185.6,0.0,E,,*23
$HCHDG,185.6,0.0,E,,*23
$GPRMC,000530.8,A,4741.13911,N,12224.25862,W,000.02,000.0,130813,016.6,E,A*23
$PGRME,3.0,M,3.0,M,4.3,M*29
$HCHDG,185.7,0.0,E,,*22
$HCHDG,185.7,0.0,E,,*22
$GPRMC,000531.0,A,4741.13910,N,12224.25867,W,000.02,000.0,130813,016.6,E,A*2E
$PGRME,3.0,M,3.0,M,4.3,M*29
$YXXDR,A,5.7,D,PTCH,A,4.1,D,ROLL*5A
$HCHDG,185.5,0.0,E,,*20
$HCHDG,185.4,0.0,E,,*21
$GPRMC,000531.2,A,4741.13905,N,12224.25867,W,000.01,000.0,130813,016.6,E,A*2B
$PGRME,3.0,M,3.0,M,4.3,M*29
$HCHDG,185.4,0.0,E,,*21
$HCHDG,185.4,0.0,E,,*21
$GPRMC,000531.4,A,4741.13900,N,12224.25869,W,000.04,000.0,130813,016.6,E,A*23
$GPRMB,A,0.21,L,,Shil,4741.0830,N,12224.5670,W,0.2,255,-0.01,V*15
$PGRME,3.0,M,3.0,M,4.3,M*29
$HCHDG,185.4,0.0,E,,*21
$YXXDR,A,5.9,D,PTCH,A,4.2,D,ROLL*57
$PTAK,FFD1,4.2*53
$GPRMC,000531.6,A,4741.13898,N,12224.25877,W,000.05,000.0,130813,016.6,E,A*2F
$PGRME,3.0,M,3.0,M,4.3,M*29
$HCHDG,185.4,0.0,E,,*21
$HCHDG,185.4,0.0,E,,*21
$HCHDG,185.4,0.0,E,,*21
$GPRMC,000531.8,A,4741.13896,N,12224.25879,W,000.02,000.0,130813,016.6,E,A*26
$PGRME,3.0,M,3.0,M,4.3,M*29
$HCHDG,185.4,0.0,E,,*21
$HCHDG,185.4,0.0,E,,*21
$GPRMC,000532.0,A,4741.13898,N,12224.25879,W,000.05,000.0,130813,016.6,E,A*24
$PGRME,3.0,M,3.0,M,4.3,M*29
$YXXDR,A,5.8,D,PTCH,A,4.1,D,ROLL*55
$HCHDG,185.4,0.0,E,,*21
$HCHDG,185.3,0.0,E,,*26
$GPRMC,000532.2,A,4741.13898,N,12224.25874,W,000.04,000.0,130813,016.6,E,A*2A
$PGRME,3.0,M,3.0,M,4.3,M*29
$HCHDG,185.3,0.0,E,,*26
$HCHDG,185.3,0.0,E,,*26
$GPRMC,000532.4,A,4741.13896,N,12224.25870,W,000.03,000.0,130813,016.6,E,A*21
$GPRMB,A,0.21,L,,Shil,4741.0830,N,12224.5670,W,0.2,255,-0.01,V*15
$PGRME,3.0,M,3.0,M,4.3,M*29
$HCHDG,185.3,0.0,E,,*26
$YXXDR,A,5.8,D,PTCH,A,3.9,D,ROLL*5A
$PTAK,FFD1,3.9*5F
$GPRMC,000532.6,A,4741.13892,N,12224.25876,W,000.03,000.0,130813,016.6,E,A*21
$PGRME,3.0,M,3.0,M,4.3,M*29
$HCHDG,185.3,0.0,E,,*26
$HCHDG,185.3,0.0,E,,*26
$HCHDG,185.2,0.0,E,,*27
$GPRMC,000532.8,A,4741.13888,N,12224.25875,W,000.04,000.0,130813,016.6,E,A*20
$PGRME,3.0,M,3.0,M,4.3,M*29
$HCHDG,185.2,0.0,E,,*27
$HCHDG,185.2,0.0,E,,*27
$GPRMC,000533.0,A,4741.13883,N,12224.25874,W,000.03,000.0,130813,016.6,E,A*24
$PGRME,3.0,M,3.0,M,4.3,M*29
$YXXDR,A,5.8,D,PTCH,A,4.0,D,ROLL*54
$HCHDG,185.2,0.0,E,,*27
$HCHDG,185.3,0.0,E,,*26
$GPRMC,000533.2,A,4741.13882,N,12224.25874,W,000.03,000.0,130813,016.6,E,A*27
$PGRME,3.0,M,3.0,M,4.3,M*29
$HCHDG,185.3,0.0,E,,*26
$HCHDG,185.5,0.0,E,,*20
$GPRMC,000533.4,A,4741.13882,N,12224.25871,W,000.04,000.0,130813,016.6,E,A*23
$GPRMB,A,0.21,L,,Shil,4741.0830,N,12224.5670,W,0.2,255,-0.01,V*15
$PTAK,FFP1,HEEL,@*07
$PGRME,3.0,M,3.0,M,4.3,M*29
$HCHDG,185.5,0.0,E,,*20
$YXXDR,A,5.8,D,PTCH,A,3.9,D,ROLL*5A
$PTAK,FFD1,3.9*5F
$GPRMC,000533.6,A,4741.13881,N,12224.25865,W,000.03,000.0,130813,016.6,E,A*20
$PGRME,3.0,M,3.0,M,4.3,M*29
$HCHDG,185.5,0.0,E,,*20
$HCHDG,185.5,0.0,E,,*20
$HCHDG,185.5,0.0,E,,*20
$GPRMC,000533.8,A,4741.13880,N,12224.25862,W,000.03,000.0,130813,016.6,E,A*28
$PGRME,3.0,M,3.0,M,4.3,M*29
$HCHDG,185.5,0.0,E,,*20
$HCHDG,185.5,0.0,E,,*20
$GPRMC,000534.0,A,4741.13878,N,12224.25856,W,000.04,000.0,130813,016.6,E,A*20
$PGRME,3.0,M,3.0,M,4.3,M*29
$YXXDR,A,5.8,D,PTCH,A,4.0,D,ROLL*54
$HCHDG,185.5,0.0,E,,*20
$HCHDG,185.3,0.0,E,,*26
$GPRMC,000534.2,A,4741.13879,N,12224.25854,W,000.03,000.0,130813,016.6,E,A*26
$PGRME,3.0,M,3.0,M,4.3,M*29
$HCHDG,185.4,0.0,E,,*21
$HCHDG,185.4,0.0,E,,*21
$GPRMC,000534.4,A,4741.13875,N,12224.25851,W,000.03,000.0,130813,016.6,E,A*29
$PGRME,3.0,M,3.0,M,4.3,M*29
$HCHDG,185.4,0.0,E,,*21
$YXXDR,A,5.6,D,PTCH,A,4.1,D,ROLL*5B
$GPRMC,000534.6,A,4741.13871,N,12224.25845,W,000.03,000.0,130813,016.6,E,A*2A
$GPRMB,A,0.21,L,,Shil,4741.0830,N,12224.5670,W,0.2,255,-0.01,V*15
$PGRME,3.0,M,3.0,M,4.3,M*29
$HCHDG,185.4,0.0,E,,*21
$HCHDG,185.4,0.0,E,,*21
$HCHDG,185.4,0.0,E,,*21
$GPRMC,000534.8,A,4741.13869,N,12224.25844,W,000.03,000.0,130813,016.6,E,A*2C
$PGRME,3.0,M,3.0,M,4.3,M*29
$HCHDG,185.4,0.0,E,,*21
$HCHDG,185.4,0.0,E,,*21
$GPRMC,000535.0,A,4741.13869,N,12224.25834,W,000.04,000.0,130813,016.6,E,A*25
$PGRME,3.0,M,3.0,M,4.3,M*29
$YXXDR,A,5.6,D,PTCH,A,4.0,D,ROLL*5A
$PTAK,FFD1,4.0*51
$HCHDG,185.5,0.0,E,,*20
$HCHDG,185.5,0.0,E,,*20
$GPRMC,000535.2,A,4741.13866,N,12224.25827,W,000.04,000.0,130813,016.6,E,A*2A
$PGRME,3.0,M,3.0,M,4.3,M*29
$HCHDG,185.5,0.0,E,,*20
$HCHDG,185.5,0.0,E,,*20
$GPRMC,000535.4,A,4741.13869,N,12224.25826,W,000.04,000.0,130813,016.6,E,A*22
$PGRME,3.0,M,3.0,M,4.3,M*29
$HCHDG,185.5,0.0,E,,*20
$YXXDR,A,5.8,D,PTCH,A,4.1,D,ROLL*55
$GPRMC,000535.6,A,4741.13867,N,12224.25823,W,000.03,000.0,130813,016.6,E,A*2C
$PGRME,3.0,M,3.0,M,4.3,M*29
$HCHDG,185.5,0.0,E,,*20
$HCHDG,185.5,0.0,E,,*20
$HCHDG,185.5,0.0,E,,*20
$GPRMC,000535.8,A,4741.13869,N,12224.25818,W,000.03,000.0,130813,016.6,E,A*24
$GPRMB,A,0.21,L,,Shil,4741.0830,N,12224.5670,W,0.2,255,-0.01,V*15
$PGRME,3.0,M,3.0,M,4.3,M*29
$HCHDG,185.5,0.0,E,,*20
$HCHDG,185.5,0.0,E,,*20
$GPRMC,000536.0,A,4741.13869,N,12224.25818,W,000.03,000.0,130813,016.6,E,A*2F
$PGRME,3.0,M,3.0,M,4.3,M*29
$YXXDR,A,5.7,D,PTCH,A,4.1,D,ROLL*5A
$PTAK,FFD1,4.1*50
$HCHDG,185.5,0.0,E,,*20
$HCHDG,185.6,0.0,E,,*23
$GPRMC,000536.2,A,4741.13869,N,12224.25818,W,000.04,000.0,130813,016.6,E,A*2A
$PGRME,3.0,M,3.0,M,4.3,M*29
$HCHDG,185.6,0.0,E,,*23
$HCHDG,185.6,0.0,E,,*23
$GPRMC,000536.4,A,4741.13869,N,12224.25818,W,000.05,000.0,130813,016.6,E,A*2D
$PGRME,3.0,M,3.0,M,4.3,M*29
$HCHDG,185.6,0.0,E,,*23
$YXXDR,A,5.8,D,PTCH,A,4.0,D,ROLL*54
$GPRMC,000536.6,A,4741.13869,N,12224.25817,W,000.01,000.0,130813,016.6,E,A*24
$PGRME,3.0,M,3.0,M,4.3,M*29
$HCHDG,185.6,0.0,E,,*23
$HCHDG,185.6,0.0,E,,*23
$HCHDG,185.6,0.0,E,,*23
$GPRMC,000536.8,A,4741.13869,N,12224.25817,W,000.02,000.0,130813,016.6,E,A*29
$GPRMB,A,0.21,L,,Shil,4741.0830,N,12224.5670,W,0.2,255,-0.01,V*15
$PGRME,3.0,M,3.0,M,4.3,M*29
$HCHDG,185.6,0.0,E,,*23
$HCHDG,185.6,0.0,E,,*23
$GPRMC,000537.0,A,4741.13869,N,12224.25817,W,000.03,000.0,130813,016.6,E,A*21
$PGRME,3.0,M,3.0,M,4.3,M*29
$YXXDR,A,5.5,D,PTCH,A,4.0,D,ROLL*59
$PTAK,FFD1,4.0*51
$HCHDG,185.5,0.0,E,,*20
$HCHDG,185.5,0.0,E,,*20
$GPRMC,000537.2,A,4741.13869,N,12224.25817,W,000.02,000.0,130813,016.6,E,A*22
$PGRME,3.0,M,3.0,M,4.3,M*29
$HCHDG,185.5,0.0,E,,*20
$HCHDG,185.5,0.0,E,,*20
$GPRMC,000537.4,A,4741.13869,N,12224.25817,W,000.02,000.0,130813,016.6,E,A*24
$PGRME,3.0,M,3.0,M,4.3,M*29
$HCHDG,185.5,0.0,E,,*20
$PTAK,FFP1,HEEL,@*07
$YXXDR,A,5.8,D,PTCH,A,3.9,D,ROLL*5A
$GPRMC,000537.6,A,4741.13869,N,12224.25817,W,000.03,000.0,130813,016.6,E,A*27
$PGRME,3.0,M,3.0,M,4.3,M*29
$HCHDG,185.4,0.0,E,,*21
$HCHDG,185.4,0.0,E,,*21
$HCHDG,185.4,0.0,E,,*21
$GPRMC,000537.8,A,4741.13869,N,12224.25817,W,000.02,000.0,130813,016.6,E,A*28
$GPRMB,A,0.21,L,,Shil,4741.0830,N,12224.5670,W,0.2,255,-0.01,V*15
$PGRME,3.0,M,3.0,M,4.3,M*29
$HCHDG,185.4,0.0,E,,*21
$HCHDG,185.4,0.0,E,,*21
$GPRMC,000538.0,A,4741.13869,N,12224.25817,W,000.01,000.0,130813,016.6,E,A*2C
$PGRME,3.0,M,3.0,M,4.3,M*29
$YXXDR,A,5.6,D,PTCH,A,4.1,D,ROLL*5B
$PTAK,FFD1,4.1*50
$HCHDG,185.4,0.0,E,,*21
$HCHDG,185.4,0.0,E,,*21
$GPRMC,000538.2,A,4741.13869,N,12224.25817,W,000.02,000.0,130813,016.6,E,A*2D
$PGRME,3.0,M,3.0,M,4.3,M*29
$HCHDG,185.4,0.0,E,,*21
$HCHDG,185.4,0.0,E,,*21
$GPRMC,000538.4,A,4741.13869,N,12224.25817,W,000.03,000.0,130813,016.6,E,A*2A
$PGRME,3.0,M,3.0,M,4.3,M*29
$HCHDG,185.4,0.0,E,,*21
$YXXDR,A,5.7,D,PTCH,A,4.1,D,ROLL*5A
$GPRMC,000538.6,A,4741.13869,N,12224.25817,W,000.03,000.0,130813,016.6,E,A*28
$PGRME,3.0,M,3.0,M,4.3,M*29
$HCHDG,185.4,0.0,E,,*21
$HCHDG,185.4,0.0,E,,*21
$HCHDG,185.4,0.0,E,,*21
$GPRMC,000538.8,A,4741.13869,N,12224.25817,W,000.01,000.0,130813,016.6,E,A*24
$PGRME,3.0,M,3.0,M,4.3,M*29
$HCHDG,185.4,0.0,E,,*21
$HCHDG,185.4,0.0,E,,*21
$GPRMC,000539.0,A,4741.13869,N,12224.25817,W,000.03,000.0,130813,016.6,E,A*2F
$GPRMB,A,0.21,L,,Shil,4741.0830,N,12224.5670,W,0.2,255,-0.01,V*15
$PGRME,3.0,M,3.0,M,4.3,M*29
$YXXDR,A,5.6,D,PTCH,A,4.0,D,ROLL*5A
$PTAK,FFD1,4.0*51
$HCHDG,185.4,0.0,E,,*21
$HCHDG,185.4,0.0,E,,*21
$GPRMC,000539.2,A,4741.13869,N,12224.25817,W,000.01,000.0,130813,016.6,E,A*2F
$PGRME,3.0,M,3.0,M,4.3,M*29
$HCHDG,185.4,0.0,E,,*21
$HCHDG,185.5,0.0,E,,*20
$GPRMC,000539.4,A,4741.13869,N,12224.25817,W,000.04,000.0,130813,016.6,E,A*2C
$PGRME,3.0,M,3.0,M,4.3,M*29
$HCHDG,185.5,0.0,E,,*20
$YXXDR,A,5.8,D,PTCH,A,4.3,D,ROLL*57
$GPRMC,000539.6,A,4741.13869,N,12224.25817,W,000.04,000.0,130813,016.6,E,A*2E
$PGRME,3.0,M,3.0,M,4.3,M*29
$HCHDG,185.2,0.0,E,,*27
$HCHDG,185.2,0.0,E,,*27
$HCHDG,185.2,0.0,E,,*27
$GPRMC,000539.8,A,4741.13869,N,12224.25817,W,000.04,000.0,130813,016.6,E,A*20
$PGRME,3.0,M,3.0,M,4.3,M*29
$HCHDG,185.2,0.0,E,,*27
$HCHDG,185.5,0.0,E,,*20
$GPRMC,000540.0,A,4741.13869,N,12224.25816,W,000.02,000.0,130813,016.6,E,A*21
$PGRME,3.0,M,3.0,M,4.3,M*29
$YXXDR,A,5.6,D,PTCH,A,4.1,D,ROLL*5B
$HCHDG,185.4,0.0,E,,*21
$HCHDG,185.4,0.0,E,,*21
$GPRMC,000540.2,A,4741.13869,N,12224.25816,W,000.02,000.0,130813,016.6,E,A*23
$GPRMB,A,0.21,L,,Shil,4741.0830,N,12224.5670,W,0.2,255,-0.01,V*15
$PGRME,3.0,M,3.0,M,4.3,M*29
$HCHDG,185.4,0.0,E,,*21
$HCHDG,185.4,0.0,E,,*21
$GPRMC,000540.4,A,4741.13869,N,12224.25816,W,000.02,000.0,130813,016.6,E,A*25
$PGRME,3.0,M,3.0,M,4.3,M*29
$HCHDG,185.3,0.0,E,,*26
$YXXDR,A,5.8,D,PTCH,A,3.9,D,ROLL*5A
$PTAK,FFD1,3.9*5F
$GPRMC,000540.6,A,4741.13869,N,12224.25816,W,000.02,000.0,130813,016.6,E,A*27
$PGRME,3.0,M,3.0,M,4.3,M*29
$HCHDG,185.3,0.0,E,,*26
$HCHDG,185.3,0.0,E,,*26
$HCHDG,185.3,0.0,E,,*26
$GPRMC,000540.8,A,4741.13869,N,12224.25816,W,000.00,000.0,130813,016.6,E,A*2B
$PGRME,3.0,M,3.0,M,4.3,M*29
$HCHDG,185.3,0.0,E,,*26
$HCHDG,185.3,0.0,E,,*26
$GPRMC,000541.0,A,4741.13869,N,12224.25816,W,000.03,000.0,130813,016.6,E,A*21
$PGRME,3.0,M,3.0,M,4.3,M*29
$YXXDR,A,5.7,D,PTCH,A,4.1,D,ROLL*5A
$HCHDG,185.3,0.0,E,,*26
$GPRMC,000541.2,A,4741.13869,N,12224.25816,W,000.04,000.0,130813,016.6,E,A*24
$HCHDG,185.4,0.0,E,,*21
$PGRME,3.0,M,3.0,M,4.3,M*29
$HCHDG,185.4,0.0,E,,*21
$HCHDG,185.4,0.0,E,,*21
$GPRMC,000541.4,A,4741.13869,N,12224.25815,W,000.04,000.0,130813,016.6,E,A*21
$GPRMB,A,0.21,L,,Shil,4741.0830,N,12224.5670,W,0.2,255,-0.01,V*15
$PGRME,3.0,M,3.0,M,4.3,M*29
$HCHDG,185.4,0.0,E,,*21
$PTAK,FFP1,HEEL,@*07
$YXXDR,A,5.5,D,PTCH,A,4.2,D,ROLL*5B
$PTAK,FFD1,4.2*53
$GPRMC,000541.6,A,4741.13868,N,12224.25815,W,000.02,000.0,130813,016.6,E,A*24
$PGRME,3.0,M,3.0,M,4.3,M*29
$HCHDG,185.2,0.0,E,,*27
$HCHDG,185.3,0.0,E,,*26
$HCHDG,185.3,0.0,E,,*26
$GPRMC,000541.8,A,4741.13868,N,12224.25815,W,000.06,000.0,130813,016.6,E,A*2E
$PGRME,3.0,M,3.0,M,4.3,M*29
$HCHDG,185.5,0.0,E,,*20
$HCHDG,185.4,0.0,E,,*21
$GPRMC,000542.0,A,4741.13868,N,12224.25815,W,000.05,000.0,130813,016.6,E,A*26
$PGRME,3.0,M,3.0,M,4.3,M*29
$YXXDR,A,5.7,D,PTCH,A,4.6,D,ROLL*5D
$HCHDG,185.4,0.0,E,,*21
$HCHDG,185.2,0.0,E,,*27
$GPRMC,000542.2,A,4741.13868,N,12224.25814,W,000.07,000.0,130813,016.6,E,A*27
$PGRME,3.0,M,3.0,M,4.3,M*29
$HCHDG,185.3,0.0,E,,*26
$HCHDG,185.5,0.0,E,,*20
$GPRMC,000542.4,A,4741.13868,N,12224.25814,W,000.10,000.0,130813,016.6,E,A*27
$PGRME,3.0,M,3.0,M,4.3,M*29
$HCHDG,185.4,0.0,E,,*21
$YXXDR,A,5.8,D,PTCH,A,4.8,D,ROLL*5C
$GPRMC,000542.6,A,4741.13868,N,12224.25813,W,000.06,000.0,130813,016.6,E,A*25
$GPRMB,A,0.21,L,,Shil,4741.0830,N,12224.5670,W,0.2,255,-0.02,V*16
$PGRME,3.0,M,3.0,M,4.3,M*29
$HCHDG,185.5,0.0,E,,*20
$HCHDG,185.6,0.0,E,,*23
$HCHDG,185.7,0.0,E,,*22
$GPRMC,000542.8,A,4741.13868,N,12224.25813,W,000.06,000.0,130813,016.6,E,A*2B
$PGRME,3.0,M,3.0,M,4.3,M*29
$HCHDG,185.8,0.0,E,,*2D
$HCHDG,185.8,0.0,E,,*2D
$GPRMC,000543.0,A,4741.13868,N,12224.25812,W,000.06,000.0,130813,016.6,E,A*23
$PGRME,3.0,M,3.0,M,4.3,M*29
$YXXDR,A,5.7,D,PTCH,A,4.6,D,ROLL*5D
$PTAK,FFD1,4.6*57
$HCHDG,185.6,0.0,E,,*23
$HCHDG,185.6,0.0,E,,*23
$GPRMC,000543.2,A,4741.13868,N,12224.25812,W,000.03,000.0,130813,016.6,E,A*24
$PGRME,3.0,M,3.0,M,4.3,M*29
$HCHDG,185.9,0.0,E,,*2C
$HCHDG,185.9,0.0,E,,*2C
$GPRMC,000543.4,A,4741.13868,N,12224.25812,W,000.01,000.0,130813,016.6,E,A*20
$PGRME,3.0,M,3.0,M,4.3,M*29
$HCHDG,186.0,0.0,E,,*26
$YXXDR,A,5.8,D,PTCH,A,4.4,D,ROLL*50
$GPRMC,000543.6,A,4741.13868,N,12224.25812,W,000.03,000.0,130813,016.6,E,A*20
$GPRMB,A,0.21,L,,Shil,4741.0830,N,12224.5670,W,0.2,255,-0.01,V*15
$PGRME,3.0,M,3.0,M,4.3,M*29
$HCHDG,186.0,0.0,E,,*26
$HCHDG,186.0,0.0,E,,*26
$HCHDG,185.9,0.0,E,,*2C
$GPRMC,000543.8,A,4741.13868,N,12224.25811,W,000.01,000.0,130813,016.6,E,A*2F
$PGRME,3.0,M,3.0,M,4.3,M*29
$HCHDG,185.9,0.0,E,,*2C
$HCHDG,185.9,0.0,E,,*2C
$GPRMC,000544.0,A,4741.13868,N,12224.25811,W,000.05,000.0,130813,016.6,E,A*24
$PGRME,3.0,M,3.0,M,4.3,M*29
$PGRMT,GPS 18x-5Hz software ver. 3.20,,,,,,,,*30
$YXXDR,A,5.7,D,PTCH,A,4.4,D,ROLL*5F
$HCHDG,185.9,0.0,E,,*2C
$HCHDG,185.8,0.0,E,,*2D
$GPRMC,000544.2,A,4741.13868,N,12224.25812,W,000.03,000.0,130813,016.6,E,A*23
$PGRME,3.0,M,3.0,M,4.3,M*29
$HCHDG,185.7,0.0,E,,*22
$HCHDG,185.7,0.0,E,,*22
$GPRMC,000544.4,A,4741.13868,N,12224.25812,W,000.02,000.0,130813,016.6,E,A*24
$PGRME,3.0,M,3.0,M,4.3,M*29
$HCHDG,185.7,0.0,E,,*22
$YXXDR,A,5.4,D,PTCH,A,4.4,D,ROLL*5C
$PTAK,FFD1,4.4*55
$GPRMC,000544.6,A,4741.13868,N,12224.25812,W,000.02,000.0,130813,016.6,E,A*26
$GPRMB,A,0.21,L,,Shil,4741.0830,N,12224.5670,W,0.2,255,-0.01,V*15
$PGRME,3.0,M,3.0,M,4.3,M*29
$HCHDG,185.8,0.0,E,,*2D
$HCHDG,185.8,0.0,E,,*2D
$GPRMC,000544.8,A,4741.13868,N,12224.25812,W,000.02,000.0,130813,016.6,E,A*28
$HCHDG,185.7,0.0,E,,*22
$PGRME,3.0,M,3.0,M,4.3,M*29
$HCHDG,185.6,0.0,E,,*23
$GPRMC,000545.0,A,4741.13868,N,12224.25812,W,000.01,000.0,130813,016.6,E,A*22
$HCHDG,185.6,0.0,E,,*23
$PGRME,3.0,M,3.0,M,4.3,M*29
$YXXDR,A,5.8,D,PTCH,A,4.6,D,ROLL*52
$HCHDG,185.6,0.0,E,,*23
$GPRMC,000545.2,A,4741.13868,N,12224.25812,W,000.00,000.0,130813,016.6,E,A*21
$HCHDG,185.6,0.0,E,,*23
$PGRME,3.0,M,3.0,M,4.3,M*29
$HCHDG,185.5,0.0,E,,*20
$GPRMC,000545.4,A,4741.13868,N,12224.25812,W,000.01,000.0,130813,016.6,E,A*26
$HCHDG,185.2,0.0,E,,*27
$PGRME,3.0,M,3.0,M,4.3,M*29
$HCHDG,185.2,0.0,E,,*27
$YXXDR,A,5.5,D,PTCH,A,4.7,D,ROLL*5E
$PTAK,FFD1,4.7*56
$GPRMC,000545.6,A,4741.13868,N,12224.25812,W,000.01,000.0,130813,016.6,E,A*24
$GPRMB,A,0.21,L,,Shil,4741.0830,N,12224.5670,W,0.2,255,-0.00,V*14
$PTAK,FFP1,HEEL,@*07
$PGRME,3.0,M,3.0,M,4.3,M*29
$HCHDG,185.3,0.0,E,,*26
$HCHDG,185.3,0.0,E,,*26
$GPRMC,000545.8,A,4741.13868,N,12224.25812,W,000.00,000.0,130813,016.6,E,A*2B
$HCHDG,185.2,0.0,E,,*27
$PGRME,3.0,M,3.0,M,4.3,M*29
$HCHDG,185.2,0.0,E,,*27
$GPRMC,000546.0,A,4741.13869,N,12224.25812,W,000.01,000.0,130813,016.6,E,A*20
$HCHDG,185.2,0.0,E,,*27
$PGRME,3.0,M,3.0,M,4.3,M*29
$YXXDR,A,5.7,D,PTCH,A,4.7,D,ROLL*5C
$HCHDG,185.2,0.0,E,,*27
$GPRMC,000546.2,A,4741.13869,N,12224.25812,W,000.00,000.0,130813,016.6,E,A*23
$HCHDG,185.1,0.0,E,,*24
$PGRME,3.0,M,3.0,M,4.3,M*29
$HCHDG,185.2,0.0,E,,*27
$GPRMC,000546.4,A,4741.13869,N,12224.25812,W,000.01,000.0,130813,016.6,E,A*24
$HCHDG,185.1,0.0,E,,*24
$PGRME,3.0,M,3.0,M,4.3,M*29
$HCHDG,185.1,0.0,E,,*24
$YXXDR,A,5.8,D,PTCH,A,4.6,D,ROLL*52
$GPRMC,000546.6,A,4741.13869,N,12224.25812,W,000.01,000.0,130813,016.6,E,A*26
$PGRME,3.0,M,3.0,M,4.3,M*29
$HCHDG,185.1,0.0,E,,*24
$HCHDG,185.1,0.0,E,,*24
$HCHDG,185.2,0.0,E,,*27
$GPRMC,000546.8,A,4741.13869,N,12224.25812,W,000.01,000.0,130813,016.6,E,A*28
$GPRMB,A,0.21,L,,Shil,4741.0830,N,12224.5670,W,0.2,255,-0.00,V*14
$PGRME,3.0,M,3.0,M,4.3,M*29
$HCHDG,185.1,0.0,E,,*24
$HCHDG,185.1,0.0,E,,*24
$GPRMC,000547.0,A,4741.13869,N,12224.25812,W,000.01,000.0,130813,016.6,E,A*21
$PGRME,3.0,M,3.0,M,4.3,M*29
$YXXDR,A,5.6,D,PTCH,A,4.4,D,ROLL*5E
$PTAK,FFD1,4.4*55
$HCHDG,185.1,0.0,E,,*24
$HCHDG,185.1,0.0,E,,*24
$GPRMC,000547.2,A,4741.13869,N,12224.25812,W,000.00,000.0,130813,016.6,E,A*22
$PGRME,3.0,M,3.0,M,4.3,M*29
$HCHDG,185.1,0.0,E,,*24
$HCHDG,185.1,0.0,E,,*24
$GPRMC,000547.4,A,4741.13869,N,12224.25812,W,000.00,000.0,130813,016.6,E,A*24
$PGRME,3.0,M,3.0,M,4.3,M*29
$HCHDG,185.1,0.0,E,,*24
$YXXDR,A,5.8,D,PTCH,A,4.5,D,ROLL*51
$GPRMC,000547.6,A,4741.13869,N,12224.25812,W,000.01,000.0,130813,016.6,E,A*27
$PGRME,3.0,M,3.0,M,4.3,M*29
$HCHDG,185.0,0.0,E,,*25
$HCHDG,185.0,0.0,E,,*25
$HCHDG,185.0,0.0,E,,*25
$GPRMC,000547.8,A,4741.13869,N,12224.25812,W,000.01,000.0,130813,016.6,E,A*29
$GPRMB,A,0.21,L,,Shil,4741.0830,N,12224.5670,W,0.2,255,-0.00,V*14
$PGRME,3.0,M,3.0,M,4.3,M*29
$HCHDG,185.1,0.0,E,,*24
$HCHDG,185.1,0.0,E,,*24
$GPRMC,000548.0,A,4741.13869,N,12224.25811,W,000.01,000.0,130813,016.6,E,A*2D
$PGRME,3.0,M,3.0,M,4.3,M*29
$YXXDR,A,5.8,D,PTCH,A,4.5,D,ROLL*51
$PTAK,FFD1,4.5*54
$HCHDG,185.1,0.0,E,,*24
$HCHDG,185.2,0.0,E,,*27
$GPRMC,000548.2,A,4741.13869,N,12224.25811,W,000.00,000.0,130813,016.6,E,A*2E
$PGRME,3.0,M,3.0,M,4.3,M*29
$HCHDG,185.2,0.0,E,,*27
$HCHDG,185.2,0.0,E,,*27
$GPRMC,000548.4,A,4741.13869,N,12224.25811,W,000.01,000.0,130813,016.6,E,A*29
$PGRME,3.0,M,3.0,M,4.3,M*29
$HCHDG,185.2,0.0,E,,*27
$YXXDR,A,5.8,D,PTCH,A,4.7,D,ROLL*53
$GPRMC,000548.6,A,4741.13869,N,12224.25811,W,000.01,000.0,130813,016.6,E,A*2B
$PGRME,3.0,M,3.0,M,4.3,M*29
$HCHDG,185.2,0.0,E,,*27
$HCHDG,185.2,0.0,E,,*27
$HCHDG,185.2,0.0,E,,*27
$GPRMC,000548.8,A,4741.13869,N,12224.25811,W,000.01,000.0,130813,016.6,E,A*25
$PGRME,3.0,M,3.0,M,4.3,M*29
$HCHDG,185.2,0.0,E,,*27
$HCHDG,185.2,0.0,E,,*27
$GPRMC,000549.0,A,4741.13869,N,12224.25811,W,000.01,000.0,130813,016.6,E,A*2C
$GPRMB,A,0.21,L,,Shil,4741.0830,N,12224.5670,W,0.2,255,-0.00,V*14
$PGRME,3.0,M,3.0,M,4.3,M*29
$YXXDR,A,5.4,D,PTCH,A,4.5,D,ROLL*5D
$PTAK,FFD1,4.5*54
$HCHDG,185.2,0.0,E,,*27
$HCHDG,185.2,0.0,E,,*27
$GPRMC,000549.2,A,4741.13869,N,12224.25811,W,000.01,000.0,130813,016.6,E,A*2E
$PGRME,3.0,M,3.0,M,4.3,M*29
$HCHDG,185.3,0.0,E,,*26
$HCHDG,185.5,0.0,E,,*20
$GPRMC,000549.4,A,4741.13869,N,12224.25811,W,000.00,000.0,130813,016.6,E,A*29
$PGRME,3.0,M,3.0,M,4.3,M*29
$HCHDG,185.5,0.0,E,,*20
$YXXDR,A,5.8,D,PTCH,A,4.3,D,ROLL*57
$GPRMC,000549.6,A,4741.13870,N,12224.25812,W,000.00,000.0,130813,016.6,E,A*20
$PGRME,3.0,M,3.0,M,4.3,M*29
$HCHDG,185.5,0.0,E,,*20
$PTAK,FFP1,HEEL,@*07
$HCHDG,185.5,0.0,E,,*20
$HCHDG,185.5,0.0,E,,*20
$GPRMC,000549.8,A,4741.13870,N,12224.25812,W,000.00,000.0,130813,016.6,E,A*2E
$PGRME,3.0,M,3.0,M,4.3,M*29
$HCHDG,185.5,0.0,E,,*20
$HCHDG,185.7,0.0,E,,*22
$GPRMC,000550.0,A,4741.13870,N,12224.25812,W,000.01,000.0,130813,016.6,E,A*2F
$GPRMB,A,0.21,L,,Shil,4741.0830,N,12224.5670,W,0.2,255,-0.00,V*14
$PGRME,3.0,M,3.0,M,4.3,M*29
$YXXDR,A,5.6,D,PTCH,A,4.2,D,ROLL*58
$HCHDG,185.7,0.0,E,,*22
$HCHDG,185.7,0.0,E,,*22
$GPRMC,000550.2,A,4741.13870,N,12224.25812,W,000.00,000.0,130813,016.6,E,A*2C
$PGRME,3.0,M,3.0,M,4.3,M*29
$HCHDG,185.7,0.0,E,,*22
$HCHDG,185.6,0.0,E,,*23
$GPRMC,000550.4,A,4741.13870,N,12224.25812,W,000.00,000.0,130813,016.6,E,A*2A
$PGRME,3.0,M,3.0,M,4.3,M*29
$HCHDG,185.6,0.0,E,,*23
$YXXDR,A,5.6,D,PTCH,A,4.2,D,ROLL*58
$PTAK,FFD1,4.2*53
$GPRMC,000550.6,A,4741.13870,N,12224.25812,W,000.01,000.0,130813,016.6,E,A*29
$PGRME,3.0,M,3.0,M,4.3,M*29
$HCHDG,185.6,0.0,E,,*23
$HCHDG,185.6,0.0,E,,*23
$HCHDG,185.6,0.0,E,,*23
$GPRMC,000550.8,A,4741.13870,N,12224.25812,W,000.00,000.0,130813,016.6,E,A*26
$PGRME,3.0,M,3.0,M,4.3,M*29
$HCHDG,185.6,0.0,E,,*23
$HCHDG,185.5,0.0,E,,*20
$GPRMC,000551.0,A,4741.13870,N,12224.25812,W,000.01,000.0,130813,016.6,E,A*2E
$PGRME,3.0,M,3.0,M,4.3,M*29
$YXXDR,A,5.8,D,PTCH,A,4.5,D,ROLL*51
$HCHDG,185.5,0.0,E,,*20
$HCHDG,185.5,0.0,E,,*20
$GPRMC,000551.2,A,4741.13870,N,12224.25812,W,000.00,000.0,130813,016.6,E,A*2D
$GPRMB,A,0.21,L,,Shil,4741.0830,N,12224.5670,W,0.2,255,-0.00,V*14
$PGRME,3.0,M,3.0,M,4.3,M*29
$HCHDG,185.5,0.0,E,,*20
$HCHDG,185.5,0.0,E,,*20
$GPRMC,000551.4,A,4741.13870,N,12224.25812,W,000.01,000.0,130813,016.6,E,A*2A
$PGRME,3.0,M,3.0,M,4.3,M*29
$HCHDG,185.5,0.0,E,,*20
$YXXDR,A,5.6,D,PTCH,A,4.5,D,ROLL*5F
$PTAK,FFD1,4.5*54
$GPRMC,000551.6,A,4741.13871,N,12224.25812,W,000.00,000.0,130813,016.6,E,A*28
$PGRME,3.0,M,3.0,M,4.3,M*29
$HCHDG,185.2,0.0,E,,*27
$HCHDG,185.2,0.0,E,,*27
$HCHDG,185.2,0.0,E,,*27
$GPRMC,000551.8,A,4741.13871,N,12224.25812,W,000.00,000.0,130813,016.6,E,A*26
$PGRME,3.0,M,3.0,M,4.3,M*29
$HCHDG,185.2,0.0,E,,*27
$HCHDG,185.1,0.0,E,,*24
$GPRMC,000552.0,A,4741.13871,N,12224.25812,W,000.00,000.0,130813,016.6,E,A*2D
$PGRME,3.0,M,3.0,M,4.3,M*29
$YXXDR,A,5.6,D,PTCH,A,4.4,D,ROLL*5E
$HCHDG,185.1,0.0,E,,*24
$HCHDG,185.5,0.0,E,,*20
$GPRMC,000552.2,A,4741.13871,N,12224.25812,W,000.01,000.0,130813,016.6,E,A*2E
$PGRME,3.0,M,3.0,M,4.3,M*29
$HCHDG,185.5,0.0,E,,*20
$HCHDG,185.5,0.0,E,,*20
$GPRMC,000552.4,A,4741.13871,N,12224.25812,W,000.00,000.0,130813,016.6,E,A*29
$GPRMB,A,0.21,L,,Shil,4741.0830,N,12224.5670,W,0.2,255,-0.00,V*14
$PGRME,3.0,M,3.0,M,4.3,M*29
$HCHDG,185.4,0.0,E,,*21
$YXXDR,A,5.8,D,PTCH,A,4.3,D,ROLL*57
$PTAK,FFD1,4.3*52
$GPRMC,000552.6,A,4741.13871,N,12224.25812,W,000.00,000.0,130813,016.6,E,A*2B
$PGRME,3.0,M,3.0,M,4.3,M*29
$HCHDG,185.4,0.0,E,,*21
$HCHDG,185.4,0.0,E,,*21
$HCHDG,185.4,0.0,E,,*21
$GPRMC,000552.8,A,4741.13871,N,12224.25812,W,000.01,000.0,130813,016.6,E,A*24
$PGRME,3.0,M,3.0,M,4.3,M*29
$HCHDG,185.3,0.0,E,,*26
$HCHDG,185.3,0.0,E,,*26
$GPRMC,000553.0,A,4741.13871,N,12224.25812,W,000.01,000.0,130813,016.6,E,A*2D
$PGRME,3.0,M,3.0,M,4.3,M*29
$YXXDR,A,5.8,D,PTCH,A,4.3,D,ROLL*57
$HCHDG,185.3,0.0,E,,*26
$HCHDG,185.2,0.0,E,,*27
$GPRMC,000553.2,A,4741.13871,N,12224.25812,W,000.01,000.0,130813,016.6,E,A*2F
$PGRME,3.0,M,3.0,M,4.3,M*29
$HCHDG,185.2,0.0,E,,*27
$HCHDG,185.2,0.0,E,,*27
$GPRMC,000553.4,A,4741.13871,N,12224.25812,W,000.00,000.0,130813,016.6,E,A*28
$GPRMB,A,0.21,L,,Shil,4741.0830,N,12224.5670,W,0.2,255,-0.00,V*14
$PGRME,3.0,M,3.0,M,4.3,M*29
$HCHDG,185.2,0.0,E,,*27
$YXXDR,A,5.8,D,PTCH,A,4.3,D,ROLL*57
$PTAK,FFD1,4.3*52
$GPRMC,000553.6,A,4741.13871,N,12224.25812,W,000.01,000.0,130813,016.6,E,A*2B
$PGRME,3.0,M,3.0,M,4.3,M*29
$HCHDG,185.2,0.0,E,,*27
$HCHDG,185.2,0.0,E,,*27
$PTAK,FFP1,HEEL,@*07
$HCHDG,185.2,0.0,E,,*27
$GPRMC,000553.8,A,4741.13871,N,12224.25812,W,000.01,000.0,130813,016.6,E,A*25
$PGRME,3.0,M,3.0,M,4.3,M*29
$HCHDG,185.2,0.0,E,,*27
$HCHDG,185.2,0.0,E,,*27
$GPRMC,000554.0,A,4741.13871,N,12224.25812,W,000.01,000.0,130813,016.6,E,A*2A
$PGRME,3.0,M,3.0,M,4.3,M*29
$YXXDR,A,5.6,D,PTCH,A,4.3,D,ROLL*59
$HCHDG,185.3,0.0,E,,*26
$HCHDG,185.3,0.0,E,,*26
$GPRMC,000554.2,A,4741.13871,N,12224.25812,W,000.00,000.0,130813,016.6,E,A*29
$PGRME,3.0,M,3.0,M,4.3,M*29
$HCHDG,185.4,0.0,E,,*21
$HCHDG,185.5,0.0,E,,*20
$GPRMC,000554.4,A,4741.13871,N,12224.25811,W,000.01,000.0,130813,016.6,E,A*2D
$PGRME,3.0,M,3.0,M,4.3,M*29
$HCHDG,185.3,0.0,E,,*26
$YXXDR,A,5.8,D,PTCH,A,4.5,D,ROLL*51
$GPRMC,000554.6,A,4741.13871,N,12224.25811,W,000.02,000.0,130813,016.6,E,A*2C
$GPRMB,A,0.21,L,,Shil,4741.0830,N,12224.5670,W,0.2,255,-0.01,V*15
$PGRME,3.0,M,3.0,M,4.3,M*29
$HCHDG,185.3,0.0,E,,*26
$HCHDG,185.4,0.0,E,,*21
$HCHDG,185.4,0.0,E,,*21
$GPRMC,000554.8,A,4741.13871,N,12224.25811,W,000.01,000.0,130813,016.6,E,A*21
$PGRME,3.0,M,3.0,M,4.3,M*29
$HCHDG,185.4,0.0,E,,*21
$HCHDG,185.5,0.0,E,,*20
$GPRMC,000555.0,A,4741.13871,N,12224.25811,W,000.00,000.0,130813,016.6,E,A*29
$PGRME,3.0,M,3.0,M,4.3,M*29
$YXXDR,A,5.8,D,PTCH,A,4.4,D,ROLL*50
$PTAK,FFD1,4.4*55
$HCHDG,185.5,0.0,E,,*20
$HCHDG,185.5,0.0,E,,*20
$GPRMC,000555.2,A,4741.13871,N,12224.25811,W,000.01,000.0,130813,016.6,E,A*2A
$PGRME,3.0,M,3.0,M,4.3,M*29
$HCHDG,185.5,0.0,E,,*20
$HCHDG,185.4,0.0,E,,*21
$GPRMC,000555.4,A,4741.13871,N,12224.25811,W,000.01,000.0,130813,016.6,E,A*2C
$PGRME,3.0,M,3.0,M,4.3,M*29
$HCHDG,185.5,0.0,E,,*20
$YXXDR,A,5.8,D,PTCH,A,4.3,D,ROLL*57
$GPRMC,000555.6,A,4741.13871,N,12224.25811,W,000.01,000.0,130813,016.6,E,A*2E
$GPRMB,A,0.21,L,,Shil,4741.0830,N,12224.5670,W,0.2,255,-0.00,V*14
$PGRME,3.0,M,3.0,M,4.3,M*29
$HCHDG,185.7,0.0,E,,*22
$HCHDG,185.6,0.0,E,,*23
$HCHDG,185.5,0.0,E,,*20
$GPRMC,000555.8,A,4741.13871,N,12224.25810,W,000.01,000.0,130813,016.6,E,A*21
$PGRME,3.0,M,3.0,M,4.3,M*29
$HCHDG,185.8,0.0,E,,*2D
$HCHDG,185.7,0.0,E,,*22
$GPRMC,000556.0,A,4741.13871,N,12224.25810,W,000.01,000.0,130813,016.6,E,A*2A
$PGRME,3.0,M,3.0,M,4.3,M*29
$YXXDR,A,5.9,D,PTCH,A,3.7,D,ROLL*55
$HCHDG,185.6,0.0,E,,*23
$GPRMC,000556.2,A,4741.13871,N,12224.25810,W,000.01,000.0,130813,016.6,E,A*28
$HCHDG,185.8,0.0,E,,*2D
$PGRME,3.0,M,3.0,M,4.3,M*29
$HCHDG,185.7,0.0,E,,*22
$HCHDG,185.6,0.0,E,,*23
$GPRMC,000556.4,A,4741.13872,N,12224.25810,W,000.00,000.0,130813,016.6,E,A*2C
$PGRME,3.0,M,3.0,M,4.3,M*29
$HCHDG,185.8,0.0,E,,*2D
$YXXDR,A,5.8,D,PTCH,A,3.5,D,ROLL*56
$PTAK,FFD1,3.5*53
$GPRMC,000556.6,A,4741.13872,N,12224.25810,W,000.00,000.0,130813,016.6,E,A*2E
$GPRMB,A,0.21,L,,Shil,4741.0830,N,12224.5670,W,0.2,255,-0.00,V*14
$PGRME,3.0,M,3.0,M,4.3,M*29
$HCHDG,185.7,0.0,E,,*22
$HCHDG,185.6,0.0,E,,*23
$HCHDG,185.8,0.0,E,,*2D
$GPRMC,000556.8,A,4741.13872,N,12224.25810,W,000.00,000.0,130813,016.6,E,A*20
$PGRME,3.0,M,3.0,M,4.3,M*29
$HCHDG,185.7,0.0,E,,*22
$HCHDG,185.8,0.0,E,,*2D
$GPRMC,000557.0,A,4741.13872,N,12224.25810,W,000.01,000.0,130813,016.6,E,A*28
$PGRME,3.0,M,3.0,M,4.3,M*29
$YXXDR,A,6.0,D,PTCH,A,3.4,D,ROLL*5C
$HCHDG,185.8,0.0,E,,*2D
$HCHDG,185.7,0.0,E,,*22
$GPRMC,000557.2,A,4741.13872,N,12224.25810,W,000.01,000.0,130813,016.6,E,A*2A
$PGRME,3.0,M,3.0,M,4.3,M*29
$HCHDG,185.7,0.0,E,,*22
$HCHDG,185.6,0.0,E,,*23
$GPRMC,000557.4,A,4741.13872,N,12224.25810,W,000.00,000.0,130813,016.6,E,A*2D
$PGRME,3.0,M,3.0,M,4.3,M*29
$HCHDG,185.6,0.0,E,,*23
$YXXDR,A,5.6,D,PTCH,A,3.8,D,ROLL*55
$GPRMC,000557.6,A,4741.13872,N,12224.25810,W,000.00,000.0,130813,016.6,E,A*2F
$PGRME,3.0,M,3.0,M,4.3,M*29
$HCHDG,185.4,0.0,E,,*21
$HCHDG,185.4,0.0,E,,*21
$HCHDG,185.4,0.0,E,,*21
$PTAK,FFP1,HEEL,@*07
$GPRMC,000557.8,A,4741.13872,N,12224.25809,W,000.00,000.0,130813,016.6,E,A*29
$GPRMB,A,0.21,L,,Shil,4741.0830,N,12224.5670,W,0.2,255,-0.00,V*14
$PGRME,3.0,M,3.0,M,4.3,M*29
$HCHDG,185.4,0.0,E,,*21
$HCHDG,185.4,0.0,E,,*21
$GPRMC,000558.0,A,4741.13872,N,12224.25809,W,000.00,000.0,130813,016.6,E,A*2E
$PGRME,3.0,M,3.0,M,4.3,M*29
$YXXDR,A,5.6,D,PTCH,A,4.0,D,ROLL*5A
$PTAK,FFD1,4.0*51
$HCHDG,185.4,0.0,E,,*21
$HCHDG,185.5,0.0,E,,*20
$GPRMC,000558.2,A,4741.13872,N,12224.25809,W,000.00,000.0,130813,016.6,E,A*2C
$PGRME,3.0,M,3.0,M,4.3,M*29
$HCHDG,185.5,0.0,E,,*20
$HCHDG,185.3,0.0,E,,*26
$GPRMC,000558.4,A,4741.13872,N,12224.25809,W,000.01,000.0,130813,016.6,E,A*2B
$PGRME,3.0,M,3.0,M,4.3,M*29
$HCHDG,185.4,0.0,E,,*21
$YXXDR,A,5.6,D,PTCH,A,4.3,D,ROLL*59
$GPRMC,000558.6,A,4741.13872,N,12224.25808,W,000.02,000.0,130813,016.6,E,A*2B
$PGRME,3.0,M,3.0,M,4.3,M*29
$HCHDG,185.2,0.0,E,,*27
$HCHDG,185.2,0.0,E,,*27
$HCHDG,185.3,0.0,E,,*26
$GPRMC,000558.8,A,4741.13872,N,12224.25808,W,000.01,000.0,130813,016.6,E,A*26
$PGRME,3.0,M,3.0,M,4.3,M*29
$HCHDG,185.1,0.0,E,,*24
$HCHDG,185.2,0.0,E,,*27
$GPRMC,000559.0,A,4741.13872,N,12224.25808,W,000.01,000.0,130813,016.6,E,A*2F
$GPRMB,A,0.21,L,,Shil,4741.0830,N,12224.5670,W,0.2,255,-0.00,V*14
$PGRME,3.0,M,3.0,M,4.3,M*29
$YXXDR,A,5.3,D,PTCH,A,4.5,D,ROLL*5A
$PTAK,FFD1,4.5*54
$HCHDG,185.3,0.0,E,,*26
$HCHDG,185.1,0.0,E,,*24
$GPRMC,000559.2,A,4741.13872,N,12224.25808,W,000.02,000.0,130813,016.6,E,A*2E
$PGRME,3.0,M,3.0,M,4.3,M*29
$HCHDG,185.2,0.0,E,,*27
$HCHDG,185.3,0.0,E,,*26
$GPRMC,000559.4,A,4741.13872,N,12224.25808,W,000.02,000.0,130813,016.6,E,A*28
$PGRME,3.0,M,3.0,M,4.3,M*29
$HCHDG,185.4,0.0,E,,*21
$YXXDR,A,5.6,D,PTCH,A,4.4,D,ROLL*5E
$GPRMC,000559.6,A,4741.13872,N,12224.25808,W,000.01,000.0,130813,016.6,E,A*29
$PGRME,3.0,M,3.0,M,4.3,M*29
$HCHDG,185.4,0.0,E,,*21
$HCHDG,185.6,0.0,E,,*23
$HCHDG,185.6,0.0,E,,*23
$GPRMC,000559.8,A,4741.13872,N,12224.25807,W,000.01,000.0,130813,016.6,E,A*28
$PGRME,3.0,M,3.0,M,4.3,M*29
$HCHDG,185.6,0.0,E,,*23
$HCHDG,185.6,0.0,E,,*23
$GPRMC,000600.0,A,4741.13873,N,12224.25807,W,000.01,000.0,130813,016.6,E,A*2E
$PGRME,3.0,M,3.0,M,4.3,M*29
$YXXDR,A,5.6,D,PTCH,A,4.2,D,ROLL*58
$HCHDG,185.5,0.0,E,,*20
$HCHDG,185.5,0.0,E,,*20
$GPRMC,000600.2,A,4741.13873,N,12224.25807,W,000.02,000.0,130813,016.6,E,A*2F
$GPRMB,A,0.21,L,,Shil,4741.0830,N,12224.5670,W,0.2,255,-0.01,V*15
$PGRME,3.0,M,3.0,M,4.3,M*29
$HCHDG,185.7,0.0,E,,*22
$HCHDG,185.7,0.0,E,,*22
$GPRMC,000600.4,A,4741.13873,N,12224.25807,W,000.01,000.0,130813,016.6,E,A*2A
$PGRME,3.0,M,3.0,M,4.3,M*29
$HCHDG,185.7,0.0,E,,*22
$YXXDR,A,6.0,D,PTCH,A,4.0,D,ROLL*5F
$PTAK,FFD1,4.0*51
$GPRMC,000600.6,A,4741.13873,N,12224.25807,W,000.01,000.0,130813,016.6,E,A*28
$PGRME,3.0,M,3.0,M,4.3,M*29
$HCHDG,185.6,0.0,E,,*23
$HCHDG,185.6,0.0,E,,*23
$HCHDG,185.5,0.0,E,,*20
$GPRMC,000600.8,A,4741.13873,N,12224.25807,W,000.01,000.0,130813,016.6,E,A*26
$PGRME,3.0,M,3.0,M,4.3,M*29
$HCHDG,185.8,0.0,E,,*2D
$HCHDG,185.8,0.0,E,,*2D
$GPRMC,000601.0,A,4741.13873,N,12224.25807,W,000.02,000.0,130813,016.6,E,A*2C
$PGRME,3.0,M,3.0,M,4.3,M*29
$YXXDR,A,5.8,D,PTCH,A,4.0,D,ROLL*54
$HCHDG,185.7,0.0,E,,*22
$HCHDG,185.7,0.0,E,,*22
$GPRMC,000601.2,A,4741.13873,N,12224.25807,W,000.01,000.0,130813,016.6,E,A*2D
$PGRME,3.0,M,3.0,M,4.3,M*29
$HCHDG,185.7,0.0,E,,*22
$HCHDG,185.7,0.0,E,,*22
$GPRMC,000601.4,A,4741.13873,N,12224.25807,W,000.01,000.0,130813,016.6,E,A*2B
$GPRMB,A,0.21,L,,Shil,4741.0830,N,12224.5670,W,0.2,255,-0.00,V*14
$PGRME,3.0,M,3.0,M,4.3,M*29
$HCHDG,185.7,0.0,E,,*22
$YXXDR,A,6.1,D,PTCH,A,4.0,D,ROLL*5E
$PTAK,FFD1,4.0*51
$GPRMC,000601.6,A,4741.13873,N,12224.25807,W,000.01,000.0,130813,016.6,E,A*29
$PGRME,3.0,M,3.0,M,4.3,M*29
$HCHDG,185.7,0.0,E,,*22
$HCHDG,185.7,0.0,E,,*22
$HCHDG,185.6,0.0,E,,*23
$PTAK,FFP1,HEEL,@*07
$GPRMC,000601.8,A,4741.13873,N,12224.25807,W,000.00,000.0,130813,016.6,E,A*26
$PGRME,3.0,M,3.0,M,4.3,M*29
$HCHDG,185.6,0.0,E,,*23
$HCHDG,185.5,0.0,E,,*20
$GPRMC,000602.0,A,4741.13873,N,12224.25807,W,000.00,000.0,130813,016.6,E,A*2D
$PGRME,3.0,M,3.0,M,4.3,M*29
$YXXDR,A,5.9,D,PTCH,A,4.3,D,ROLL*56
$HCHDG,185.5,0.0,E,,*20
$HCHDG,185.5,0.0,E,,*20
$GPRMC,000602.2,A,4741.13873,N,12224.25806,W,000.01,000.0,130813,016.6,E,A*2F
$PGRME,3.0,M,3.0,M,4.3,M*29
$HCHDG,185.5,0.0,E,,*20
$HCHDG,185.5,0.0,E,,*20
$GPRMC,000602.4,A,4741.13873,N,12224.25806,W,000.01,000.0,130813,016.6,E,A*29
$PGRME,3.0,M,3.0,M,4.3,M*29
$HCHDG,185.2,0.0,E,,*27
$YXXDR,A,6.0,D,PTCH,A,4.5,D,ROLL*5A
$GPRMC,000602.6,A,4741.13873,N,12224.25806,W,000.01,000.0,130813,016.6,E,A*2B
$GPRMB,A,0.21,L,,Shil,4741.0830,N,12224.5670,W,0.2,255,-0.00,V*14
$PGRME,3.0,M,3.0,M,4.3,M*29
$HCHDG,185.2,0.0,E,,*27
$HCHDG,185.2,0.0,E,,*27
$HCHDG,185.3,0.0,E,,*26
$GPRMC,000602.8,A,4741.13873,N,12224.25806,W,000.01,000.0,130813,016.6,E,A*25
$PGRME,3.0,M,3.0,M,4.3,M*29
$HCHDG,185.3,0.0,E,,*26
$HCHDG,185.1,0.0,E,,*24
$GPRMC,000603.0,A,4741.13873,N,12224.25806,W,000.01,000.0,130813,016.6,E,A*2C
$PGRME,3.0,M,3.0,M,4.3,M*29
$YXXDR,A,6.0,D,PTCH,A,4.5,D,ROLL*5A
$PTAK,FFD1,4.5*54
$HCHDG,185.1,0.0,E,,*24
$HCHDG,185.0,0.0,E,,*25
$GPRMC,000603.2,A,4741.13873,N,12224.25806,W,000.02,000.0,130813,016.6,E,A*2D
$PGRME,3.0,M,3.0,M,4.3,M*29
$HCHDG,185.0,0.0,E,,*25
$HCHDG,185.1,0.0,E,,*24
$GPRMC,000603.4,A,4741.13873,N,12224.25806,W,000.01,000.0,130813,016.6,E,A*28
$PGRME,3.0,M,3.0,M,4.3,M*29
$HCHDG,185.2,0.0,E,,*27
$YXXDR,A,5.9,D,PTCH,A,4.2,D,ROLL*57
$GPRMC,000603.6,A,4741.13873,N,12224.25806,W,000.01,000.0,130813,016.6,E,A*2A
$PGRME,3.0,M,3.0,M,4.3,M*29
$HCHDG,185.1,0.0,E,,*24
$HCHDG,185.1,0.0,E,,*24
$HCHDG,185.3,0.0,E,,*26
$GPRMC,000603.8,A,4741.13874,N,12224.25806,W,000.01,000.0,130813,016.6,E,A*23
$GPRMB,A,0.21,L,,Shil,4741.0830,N,12224.5670,W,0.2,255,-0.00,V*14
$PGRME,3.0,M,3.0,M,4.3,M*29
$HCHDG,185.4,0.0,E,,*21
$HCHDG,185.4,0.0,E,,*21
$GPRMC,000604.0,A,4741.13874,N,12224.25806,W,000.01,000.0,130813,016.6,E,A*2C
$PGRME,3.0,M,3.0,M,4.3,M*29
$YXXDR,A,5.4,D,PTCH,A,4.2,D,ROLL*5A
$PTAK,FFD1,4.2*53
$HCHDG,185.4,0.0,E,,*21
$HCHDG,185.5,0.0,E,,*20
$GPRMC,000604.2,A,4741.13874,N,12224.25806,W,000.01,000.0,130813,016.6,E,A*2E
$PGRME,3.0,M,3.0,M,4.3,M*29
$HCHDG,185.5,0.0,E,,*20
$HCHDG,185.7,0.0,E,,*22
$GPRMC,000604.4,A,4741.13874,N,12224.25806,W,000.01,000.0,130813,016.6,E,A*28
$PGRME,3.0,M,3.0,M,4.3,M*29
$HCHDG,185.5,0.0,E,,*20
$YXXDR,A,5.6,D,PTCH,A,4.4,D,ROLL*5E
$GPRMC,000604.6,A,4741.13874,N,12224.25806,W,000.00,000.0,130813,016.6,E,A*2B
$PGRME,3.0,M,3.0,M,4.3,M*29
$HCHDG,185.6,0.0,E,,*23
$HCHDG,185.4,0.0,E,,*21
$HCHDG,185.6,0.0,E,,*23
$GPRMC,000604.8,A,4741.13874,N,12224.25806,W,000.01,000.0,130813,016.6,E,A*24
$GPRMB,A,0.21,L,,Shil,4741.0830,N,12224.5670,W,0.2,255,-0.00,V*14
$PGRME,3.0,M,3.0,M,4.3,M*29
$HCHDG,185.5,0.0,E,,*20
$HCHDG,185.6,0.0,E,,*23
$GPRMC,000605.0,A,4741.13874,N,12224.25806,W,000.01,000.0,130813,016.6,E,A*2D
$PGRME,3.0,M,3.0,M,4.3,M*29
$YXXDR,A,5.8,D,PTCH,A,5.0,D,ROLL*55
$HCHDG,185.5,0.0,E,,*20
$HCHDG,185.5,0.0,E,,*20
$GPRMC,000605.2,A,4741.13874,N,12224.25806,W,000.00,000.0,130813,016.6,E,A*2E
$PGRME,3.0,M,3.0,M,4.3,M*29
$HCHDG,185.6,0.0,E,,*23
$HCHDG,185.7,0.0,E,,*22
$GPRMC,000605.4,A,4741.13874,N,12224.25805,W,000.01,000.0,130813,016.6,E,A*2A
$PGRME,3.0,M,3.0,M,4.3,M*29
$HCHDG,185.8,0.0,E,,*2D
$YXXDR,A,5.8,D,PTCH,A,4.9,D,ROLL*5D
$PTAK,FFD1,4.9*58
$GPRMC,000605.6,A,4741.13875,N,12224.25805,W,000.01,000.0,130813,016.6,E,A*29
$PGRME,3.0,M,3.0,M,4.3,M*29
$HCHDG,185.7,0.0,E,,*22
$HCHDG,185.7,0.0,E,,*22
$HCHDG,185.8,0.0,E,,*2D
$PTAK,FFP1,HEEL,@*07
$GPRMC,000605.8,A,4741.13875,N,12224.25805,W,000.00,000.0,130813,016.6,E,A*26
$GPRMB,A,0.21,L,,Shil,4741.0830,N,12224.5670,W,0.2,255,-0.00,V*14
$PGRME,3.0,M,3.0,M,4.3,M*29
$HCHDG,185.7,0.0,E,,*22
$HCHDG,185.7,0.0,E,,*22
$GPRMC,000606.0,A,4741.13875,N,12224.25805,W,000.00,000.0,130813,016.6,E,A*2D
$PGRME,3.0,M,3.0,M,4.3,M*29
$YXXDR,A,6.0,D,PTCH,A,4.8,D,ROLL*57
$HCHDG,185.8,0.0,E,,*2D
$HCHDG,185.8,0.0,E,,*2D
$GPRMC,000606.2,A,4741.13875,N,12224.25805,W,000.01,000.0,130813,016.6,E,A*2E
$PGRME,3.0,M,3.0,M,4.3,M*29
$HCHDG,185.6,0.0,E,,*23
$HCHDG,185.6,0.0,E,,*23
$GPRMC,000606.4,A,4741.13875,N,12224.25805,W,000.01,000.0,130813,016.6,E,A*28
$PGRME,3.0,M,3.0,M,4.3,M*29
$HCHDG,185.5,0.0,E,,*20
$YXXDR,A,6.0,D,PTCH,A,4.5,D,ROLL*5A
$PTAK,FFD1,4.5*54
$GPRMC,000606.6,A,4741.13875,N,12224.25805,W,000.01,000.0,130813,016.6,E,A*2A
$PGRME,3.0,M,3.0,M,4.3,M*29
$HCHDG,185.5,0.0,E,,*20
$HCHDG,185.3,0.0,E,,*26
$GPRMC,000606.8,A,4741.13875,N,12224.25805,W,000.01,000.0,130813,016.6,E,A*24
$HCHDG,185.3,0.0,E,,*26
$PGRME,3.0,M,3.0,M,4.3,M*29
$HCHDG,185.5,0.0,E,,*20
$HCHDG,185.4,0.0,E,,*21
$GPRMC,000607.0,A,4741.13875,N,12224.25805,W,000.00,000.0,130813,016.6,E,A*2C
$GPRMB,A,0.21,L,,Shil,4741.0830,N,12224.5670,W,0.2,255,-0.00,V*14
$PGRME,3.0,M,3.0,M,4.3,M*29
$YXXDR,A,6.0,D,PTCH,A,4.0,D,ROLL*5F
$HCHDG,185.4,0.0,E,,*21
$HCHDG,185.5,0.0,E,,*20
$GPRMC,000607.2,A,4741.13875,N,12224.25804,W,000.00,000.0,130813,016.6,E,A*2F
$PGRME,3.0,M,3.0,M,4.3,M*29
$HCHDG,185.3,0.0,E,,*26
$HCHDG,185.4,0.0,E,,*21
$GPRMC,000607.4,A,4741.13875,N,12224.25804,W,000.01,000.0,130813,016.6,E,A*28
$PGRME,3.0,M,3.0,M,4.3,M*29
$HCHDG,185.3,0.0,E,,*26
$YXXDR,A,5.9,D,PTCH,A,3.7,D,ROLL*55
$GPRMC,000607.6,A,4741.13875,N,12224.25804,W,000.01,000.0,130813,016.6,E,A*2A
$PGRME,3.0,M,3.0,M,4.3,M*29
$HCHDG,185.4,0.0,E,,*21
$HCHDG,185.3,0.0,E,,*26
$HCHDG,185.4,0.0,E,,*21
$GPRMC,000607.8,A,4741.13875,N,12224.25804,W,000.01,000.0,130813,016.6,E,A*24
$PGRME,3.0,M,3.0,M,4.3,M*29
$HCHDG,185.2,0.0,E,,*27
$HCHDG,185.3,0.0,E,,*26
$GPRMC,000608.0,A,4741.13875,N,12224.25804,W,000.01,000.0,130813,016.6,E,A*23
$PGRME,3.0,M,3.0,M,4.3,M*29
$YXXDR,A,5.9,D,PTCH,A,3.4,D,ROLL*56
$PTAK,FFD1,3.4*52
$HCHDG,185.1,0.0,E,,*24
$HCHDG,185.2,0.0,E,,*27
$GPRMC,000608.2,A,4741.13875,N,12224.25804,W,000.01,000.0,130813,016.6,E,A*21
$GPRMB,A,0.21,L,,Shil,4741.0830,N,12224.5670,W,0.2,255,-0.00,V*14
$PGRME,3.0,M,3.0,M,4.3,M*29
$HCHDG,185.2,0.0,E,,*27
$HCHDG,185.3,0.0,E,,*26
$GPRMC,000608.4,A,4741.13875,N,12224.25804,W,000.00,000.0,130813,016.6,E,A*26
$PGRME,3.0,M,3.0,M,4.3,M*29
$HCHDG,185.2,0.0,E,,*27
$YXXDR,A,5.7,D,PTCH,A,3.5,D,ROLL*59
$GPRMC,000608.6,A,4741.13875,N,12224.25804,W,000.00,000.0,130813,016.6,E,A*24
$PGRME,3.0,M,3.0,M,4.3,M*29
$HCHDG,185.5,0.0,E,,*20
$HCHDG,185.4,0.0,E,,*21
$HCHDG,185.4,0.0,E,,*21
$GPRMC,000608.8,A,4741.13875,N,12224.25804,W,000.01,000.0,130813,016.6,E,A*2B
$PGRME,3.0,M,3.0,M,4.3,M*29
$HCHDG,185.4,0.0,E,,*21
$HCHDG,185.4,0.0,E,,*21
$GPRMC,000609.0,A,4741.13875,N,12224.25803,W,000.01,000.0,130813,016.6,E,A*25
$PGRME,3.0,M,3.0,M,4.3,M*29
