$GPRMC,060000.8,A,4741.23948,N,12224.36371,W,004.56,032.1,120813,016.6,E,D*26
$PGRME,2.4,M,2.4,M,3.4,M*29
$IIGLL,4741.238,N,12224.364,W,055900,A,A*42
$HCHDG,16.9,0.0,E,,*17
$IIMTW,+14.0,C*3D
$IIMWV,339,R,12.3,N,A*1A
$YXXDR,A,6.3,D,PTCH,A,3.9,D,ROLL*52
$IIMWV,327,T,07.9,N,A*1D
$HCHDG,16.9,0.0,E,,*17
$GPRMC,060001.0,A,4741.23971,N,12224.36352,W,004.50,030.7,120813,016.6,E,D*26
$GPRMB,A,0.00,L,Shil,Shil,4741.0830,N,12224.5670,W,0.2,221,-4.43,V*29
$PGRME,2.4,M,2.4,M,3.4,M*29
$HCHDG,17.2,0.0,E,,*1D
$IIRMB,A,0.00,L,,Shil,,,,,000.2,221,,V,A*7A
$HCHDG,17.3,0.0,E,,*1C
$GPRMC,060001.2,A,4741.23985,N,12224.36332,W,004.52,031.3,120813,016.6,E,D*2E
$IIRMC,055900,A,4741.238,N,12224.364,W,04.3,033,110813,16,E,A*14
$PGRME,2.4,M,2.4,M,3.4,M*29
$HCHDG,17.4,0.0,E,,*1B
$IIVHW,,,,,04.5,N,,*18
$IIVLW,02115,N,007.0,N*53
$HCHDG,17.6,0.0,E,,*19
$GPRMC,060001.4,A,4741.24009,N,12224.36311,W,004.53,033.0,120813,016.6,E,D*23
$PGRME,2.4,M,2.4,M,3.4,M*29
$YXXDR,A,6.9,D,PTCH,A,4.5,D,ROLL*53
$PTAK,FFD1,4.5*54
$HCHDG,17.7,0.0,E,,*18
$HCHDG,17.7,0.0,E,,*18
$GPRMC,060001.6,A,4741.24023,N,12224.36295,W,004.54,033.0,120813,016.6,E,D*23
$PGRME,2.4,M,2.4,M,3.4,M*29
$HCHDG,17.4,0.0,E,,*1B
$HCHDG,17.5,0.0,E,,*1A
$IIVWR,023,L,12.3,N,,,,*7E
$GPRMC,060001.8,A,4741.24034,N,12224.36276,W,004.55,036.9,120813,016.6,E,D*2B
$PGRME,2.4,M,2.4,M,3.4,M*29
$IIDPT,013.2,-1.0,*40
$HCHDG,17.6,0.0,E,,*19
$YXXDR,A,6.0,D,PTCH,A,3.8,D,ROLL*50
$IIGLL,4741.239,N,12224.363,W,060000,A,A*4B
$HCHDG,17.7,0.0,E,,*18
$IIMTW,+14.0,C*3D
$GPRMC,060002.0,A,4741.24053,N,12224.36247,W,004.56,036.9,120813,016.6,E,D*20
$PGRME,2.4,M,2.4,M,3.4,M*29
$IIMWV,337,R,12.3,N,A*14
$HCHDG,17.5,0.0,E,,*1A
$IIMWV,327,T,08.0,N,A*1B
$HCHDG,17.8,0.0,E,,*17
$IIRMB,A,0.00,L,,Shil,,,,,000.2,221,,V,A*7A
$GPRMC,060002.2,A,4741.24074,N,12224.36225,W,004.54,034.0,120813,016.6,E,D*2A
$GPRMB,A,0.00,L,Shil,Shil,4741.0830,N,12224.5670,W,0.2,221,-4.50,V*2B
$PGRME,2.4,M,2.4,M,3.4,M*29
$HCHDG,17.7,0.0,E,,*18
$IIRMC,060000,A,4741.239,N,12224.363,W,04.5,032,110813,16,E,A*1A
$HCHDG,17.8,0.0,E,,*17
$GPRMC,060002.4,A,4741.24094,N,12224.36205,W,004.54,034.7,120813,016.6,E,D*27
$PGRME,2.4,M,2.4,M,3.4,M*29
$YXXDR,A,5.0,D,PTCH,A,3.2,D,ROLL*59
$PTAK,FFD1,3.2*54
$HCHDG,18.0,0.0,E,,*10
$HCHDG,18.2,0.0,E,,*12
$GPRMC,060002.6,A,4741.24114,N,12224.36180,W,004.53,034.6,120813,016.6,E,D*24
$PGRME,2.4,M,2.4,M,3.4,M*29
$HCHDG,18.1,0.0,E,,*11
$HCHDG,18.4,0.0,E,,*14
$IIVHW,,,,,04.5,N,,*18
$GPRMC,060002.8,A,4741.24133,N,12224.36160,W,004.51,034.3,120813,016.6,E,D*26
$PGRME,2.4,M,2.4,M,3.4,M*29
$IIVLW,02115,N,007.0,N*53
$HCHDG,18.2,0.0,E,,*12
$IIVWR,022,L,12.3,N,,,,*7F
$YXXDR,A,5.1,D,PTCH,A,3.3,D,ROLL*59
$IIDPT,013.2,-1.0,*40
$HCHDG,18.1,0.0,E,,*11
$GPRMC,060003.0,A,4741.24154,N,12224.36137,W,004.49,035.0,120813,016.6,E,D*27
$PGRME,2.4,M,2.4,M,3.4,M*29
$IIGLL,4741.240,N,12224.362,W,060000,A,A*44
$HCHDG,18.0,0.0,E,,*10
$IIMTW,+14.0,C*3D
$IIMWV,338,R,12.3,N,A*1B
$HCHDG,17.8,0.0,E,,*17
$IIMWV,325,T,08.1,N,A*18
$GPRMC,060003.2,A,4741.24176,N,12224.36117,W,004.48,036.7,120813,016.6,E,D*22
$GPRMB,A,0.00,L,Shil,Shil,4741.0830,N,12224.5670,W,0.2,221,-4.47,V*2D
$PGRME,2.4,M,2.4,M,3.4,M*29
$HCHDG,18.0,0.0,E,,*10
$IIRMB,A,0.00,L,,Shil,,,,,000.2,221,,V,A*7A
$HCHDG,17.6,0.0,E,,*19
$GPRMC,060003.4,A,4741.24194,N,12224.36092,W,004.49,037.9,120813,016.6,E,D*2A
$PGRME,2.4,M,2.4,M,3.4,M*29
$YXXDR,A,6.2,D,PTCH,A,3.2,D,ROLL*58
$HCHDG,17.7,0.0,E,,*18
$HCHDG,17.7,0.0,E,,*18
$GPRMC,060003.6,A,4741.24219,N,12224.36068,W,004.53,038.3,120813,016.6,E,D*25
$PGRME,2.4,M,2.4,M,3.4,M*29
$HCHDG,17.9,0.0,E,,*16
$HCHDG,18.0,0.0,E,,*10
$GPRMC,060003.8,A,4741.24242,N,12224.36049,W,004.58,038.1,120813,016.6,E,D*2F
$PGRME,2.4,M,2.4,M,3.4,M*29
$HCHDG,18.0,0.0,E,,*10
$IIRMC,060000,A,4741.241,N,12224.361,W,04.5,034,110813,16,E,A*11
$IIVHW,,,,,04.6,N,,*1B
$YXXDR,A,6.0,D,PTCH,A,3.8,D,ROLL*50
$PTAK,FFD1,3.8*5E
$IIVLW,02115,N,007.0,N*53
$HCHDG,17.9,0.0,E,,*16
$GPRMC,060004.0,A,4741.24267,N,12224.36033,W,004.58,038.3,120813,016.6,E,D*28
$PGRME,2.4,M,2.4,M,3.4,M*29
$IIVWR,022,L,12.3,N,,,,*7F
$HCHDG,18.1,0.0,E,,*11
$IIDPT,013.2,-1.0,*40
$HCHDG,18.3,0.0,E,,*13
$IIGLL,4741.241,N,12224.361,W,060000,A,A*46
$GPRMC,060004.2,A,4741.24288,N,12224.36010,W,004.57,038.1,120813,016.6,E,D*27
$PGRME,2.4,M,2.4,M,3.4,M*29
$IIMTW,+14.0,C*3D
$HCHDG,18.5,0.0,E,,*15
$IIMWV,338,R,12.3,N,A*1B
$IIMWV,327,T,08.1,N,A*1A
$HCHDG,18.6,0.0,E,,*16
$GPRMC,060004.4,A,4741.24311,N,12224.35992,W,004.55,035.2,120813,016.6,E,D*2C
$GPRMB,A,0.00,L,Shil,Shil,4741.0830,N,12224.5670,W,0.2,221,-4.53,V*28
$PGRME,2.4,M,2.4,M,3.4,M*29
$YXXDR,A,5.4,D,PTCH,A,4.6,D,ROLL*5E
$HCHDG,18.7,0.0,E,,*17
$HCHDG,18.9,0.0,E,,*19
$GPRMC,060004.6,A,4741.24323,N,12224.35978,W,004.51,034.7,120813,016.6,E,D*2B
$PGRME,2.4,M,2.4,M,3.4,M*29
$HCHDG,19.1,0.0,E,,*10
$PTAK,FFP1,HEEL,@*07
$HCHDG,19.2,0.0,E,,*13
$GPRMC,060004.8,A,4741.24345,N,12224.35953,W,004.51,034.2,120813,016.6,E,D*29
$PGRME,2.4,M,2.4,M,3.4,M*29
$IIRMB,A,0.00,L,,Shil,,,,,000.2,221,,V,A*7A
$HCHDG,19.4,0.0,E,,*15
$YXXDR,A,6.1,D,PTCH,A,5.2,D,ROLL*5D
$IIRMC,060000,A,4741.242,N,12224.360,W,04.5,038,110813,16,E,A*1F
$HCHDG,19.5,0.0,E,,*14
$GPRMC,060005.0,A,4741.24367,N,12224.35926,W,004.49,033.7,120813,016.6,E,D*29
$PGRME,2.4,M,2.4,M,3.4,M*29
$IIVHW,,,,,04.6,N,,*1B
$HCHDG,19.6,0.0,E,,*17
$IIVLW,02115,N,007.0,N*53
$IIVWR,023,L,12.4,N,,,,*79
$HCHDG,19.8,0.0,E,,*19
$IIDPT,013.2,-1.0,*40
$GPRMC,060005.2,A,4741.24389,N,12224.35918,W,004.45,035.6,120813,016.6,E,D*2D
$PGRME,2.4,M,2.4,M,3.4,M*29
$HCHDG,19.8,0.0,E,,*19
$IIGLL,4741.242,N,12224.360,W,060000,A,A*44
$IIMTW,+14.0,C*3D
$HCHDG,19.8,0.0,E,,*19
$GPRMC,060005.4,A,4741.24403,N,12224.35887,W,004.42,037.2,120813,016.6,E,D*28
$PGRME,2.4,M,2.4,M,3.4,M*29
$YXXDR,A,6.2,D,PTCH,A,4.8,D,ROLL*55
$PTAK,FFD1,4.8*59
$HCHDG,19.5,0.0,E,,*14
$HCHDG,19.7,0.0,E,,*16
$GPRMC,060005.6,A,4741.24422,N,12224.35861,W,004.40,037.9,120813,016.6,E,D*28
$GPRMB,A,0.00,L,Shil,Shil,4741.0830,N,12224.5670,W,0.2,221,-4.39,V*24
$PGRME,2.4,M,2.4,M,3.4,M*29
$HCHDG,19.6,0.0,E,,*17
$HCHDG,19.4,0.0,E,,*15
$IIMWV,335,R,12.6,N,A*13
$GPRMC,060005.8,A,4741.24449,N,12224.35834,W,004.38,036.1,120813,016.6,E,D*2D
$PGRME,2.4,M,2.4,M,3.4,M*29
$IIMWV,325,T,08.3,N,A*1A
$HCHDG,19.1,0.0,E,,*10
$YXXDR,A,5.7,D,PTCH,A,2.8,D,ROLL*55
$IIRMB,A,0.00,L,,Shil,,,,,000.2,221,,V,A*7A
$HCHDG,19.2,0.0,E,,*13
$GPRMC,060006.0,A,4741.24470,N,12224.35815,W,004.35,038.6,120813,016.6,E,D*2B
$PGRME,2.4,M,2.4,M,3.4,M*29
$HCHDG,19.1,0.0,E,,*10
$IIRMC,060000,A,4741.243,N,12224.359,W,04.5,034,110813,16,E,A*18
$IIVHW,,,,,04.5,N,,*18
$HCHDG,19.1,0.0,E,,*10
$IIVLW,02115,N,007.0,N*53
$GPRMC,060006.2,A,4741.24483,N,12224.35792,W,004.33,038.3,120813,016.6,E,D*26
$PGRME,2.4,M,2.4,M,3.4,M*29
$IIVWR,025,L,12.6,N,,,,*7D
$HCHDG,19.0,0.0,E,,*11
$IIDPT,013.2,-1.0,*40
$HCHDG,19.1,0.0,E,,*10
$GPRMC,060006.4,A,4741.24496,N,12224.35781,W,004.30,037.8,120813,016.6,E,D*21
$PGRME,2.4,M,2.4,M,3.4,M*29
$YXXDR,A,5.7,D,PTCH,A,3.5,D,ROLL*59
$HCHDG,19.2,0.0,E,,*13
$HCHDG,19.3,0.0,E,,*12
$GPRMC,060006.6,A,4741.24515,N,12224.35763,W,004.26,038.4,120813,016.6,E,D*21
$PGRME,2.4,M,2.4,M,3.4,M*29
$HCHDG,19.5,0.0,E,,*14
$HCHDG,19.6,0.0,E,,*17
$GPRMC,060006.8,A,4741.24531,N,12224.35736,W,004.26,036.7,120813,016.6,E,D*24
$GPRMB,A,0.00,L,Shil,Shil,4741.0830,N,12224.5670,W,0.2,221,-4.25,V*29
$PGRME,2.4,M,2.4,M,3.4,M*29
$IIGLL,4741.244,N,12224.358,W,060000,A,A*49
$HCHDG,19.5,0.0,E,,*14
$IIMTW,+14.0,C*3D
$YXXDR,A,5.8,D,PTCH,A,3.5,D,ROLL*56
$PTAK,FFD1,3.5*53
$IIMWV,335,R,12.7,N,A*12
$HCHDG,19.5,0.0,E,,*14
$IIMWV,323,T,08.5,N,A*1A
$GPRMC,060007.0,A,4741.24556,N,12224.35717,W,004.27,038.2,120813,016.6,E,D*25
$PGRME,2.4,M,2.4,M,3.4,M*29
$HCHDG,19.4,0.0,E,,*15
$IIRMB,A,0.00,L,,Shil,,,,,000.2,221,,V,A*7A
$HCHDG,19.5,0.0,E,,*14
$GPRMC,060007.2,A,4741.24577,N,12224.35716,W,004.26,037.5,120813,016.6,E,D*2C
$IIRMC,060000,A,4741.244,N,12224.358,W,04.3,036,110813,16,E,A*1A
$PGRME,2.4,M,2.4,M,3.4,M*29
$HCHDG,19.5,0.0,E,,*14
$IIVHW,,,,,04.4,N,,*19
$IIVLW,02115,N,007.0,N*53
$HCHDG,19.6,0.0,E,,*17
$GPRMC,060007.4,A,4741.24593,N,12224.35722,W,004.24,036.9,120813,016.6,E,D*28
$PGRME,2.4,M,2.4,M,3.4,M*29
$YXXDR,A,6.1,D,PTCH,A,3.7,D,ROLL*5E
$HCHDG,19.7,0.0,E,,*16
$HCHDG,19.7,0.0,E,,*16
$GPRMC,060007.6,A,4741.24613,N,12224.35723,W,004.22,037.4,120813,016.6,E,D*2A
$PGRME,2.4,M,2.4,M,3.4,M*29
$HCHDG,19.7,0.0,E,,*16
$HCHDG,19.7,0.0,E,,*16
$IIVWR,025,L,12.6,N,,,,*7D
$GPRMC,060007.8,A,4741.24632,N,12224.35693,W,004.17,037.9,120813,016.6,E,D*26
$GPRMB,A,0.00,L,Shil,Shil,4741.0830,N,12224.5670,W,0.2,221,-4.16,V*29
$PGRME,2.4,M,2.4,M,3.4,M*29
$IIDPT,013.0,-1.0,*42
$HCHDG,19.8,0.0,E,,*19
$YXXDR,A,5.7,D,PTCH,A,3.5,D,ROLL*59
$IIGLL,4741.245,N,12224.357,W,060000,A,A*47
$HCHDG,20.1,0.0,E,,*1A
$IIMTW,+14.0,C*3D
$GPRMC,060008.0,A,4741.24647,N,12224.35670,W,004.15,037.0,120813,016.6,E,D*25
$PGRME,2.4,M,2.4,M,3.4,M*29
$IIMWV,335,R,12.6,N,A*13
$HCHDG,20.2,0.0,E,,*19
$IIMWV,323,T,08.7,N,A*18
$HCHDG,20.2,0.0,E,,*19
$IIRMB,A,0.00,L,,Shil,,,,,000.2,221,,V,A*7A
$GPRMC,060008.2,A,4741.24664,N,12224.35643,W,004.14,038.5,120813,016.6,E,D*2D
$PGRME,2.4,M,2.4,M,3.4,M*29
$HCHDG,20.1,0.0,E,,*1A
$IIRMC,060000,A,4741.245,N,12224.357,W,04.2,036,110813,16,E,A*15
$HCHDG,20.0,0.0,E,,*1B
$GPRMC,060008.4,A,4741.24683,N,12224.35621,W,004.12,038.9,120813,016.6,E,D*2C
$PGRME,2.4,M,2.4,M,3.4,M*29
$YXXDR,A,6.2,D,PTCH,A,3.6,D,ROLL*5C
$PTAK,FFD1,3.6*50
$HCHDG,19.8,0.0,E,,*19
$HCHDG,20.0,0.0,E,,*1B
$GPRMC,060008.6,A,4741.24700,N,12224.35602,W,004.10,040.0,120813,016.6,E,D*21
$PGRME,2.4,M,2.4,M,3.4,M*29
$HCHDG,20.0,0.0,E,,*1B
$HCHDG,20.0,0.0,E,,*1B
$PTAK,FFP1,HEEL,@*07
$IIVHW,,,,,04.1,N,,*1C
$GPRMC,060008.8,A,4741.24719,N,12224.35579,W,004.09,039.8,120813,016.6,E,D*26
$PGRME,2.4,M,2.4,M,3.4,M*29
$IIVLW,02115,N,007.0,N*53
$HCHDG,19.9,0.0,E,,*18
$IIVWR,025,L,12.7,N,,,,*7C
$YXXDR,A,5.8,D,PTCH,A,3.9,D,ROLL*5A
$IIDPT,013.0,-1.0,*42
$HCHDG,20.1,0.0,E,,*1A
$GPRMC,060009.0,A,4741.24728,N,12224.35563,W,004.09,039.5,120813,016.6,E,D*2B
$GPRMB,A,0.00,L,Shil,Shil,4741.0830,N,12224.5670,W,0.2,221,-4.09,V*27
$PGRME,2.4,M,2.4,M,3.4,M*29
$IIGLL,4741.246,N,12224.356,W,060000,A,A*45
$HCHDG,20.1,0.0,E,,*1A
$IIMTW,+14.0,C*3D
$IIMWV,335,R,12.7,N,A*12
$HCHDG,20.2,0.0,E,,*19
$IIMWV,324,T,08.8,N,A*10
$GPRMC,060009.2,A,4741.24736,N,12224.35541,W,004.07,038.1,120813,016.6,E,D*2D
$PGRME,2.4,M,2.4,M,3.4,M*29
$HCHDG,20.3,0.0,E,,*18
$IIRMB,A,0.00,L,,Shil,,,,,000.2,221,,V,A*7A
$HCHDG,20.4,0.0,E,,*1F
$GPRMC,060009.4,A,4741.24750,N,12224.35512,W,004.09,036.2,120813,016.6,E,D*2E
$PGRME,2.4,M,2.4,M,3.4,M*29
$YXXDR,A,5.6,D,PTCH,A,4.2,D,ROLL*58
$PTAK,FFD1,4.2*53
$HCHDG,20.4,0.0,E,,*1F
$HCHDG,20.7,0.0,E,,*1C
$GPRMC,060009.6,A,4741.24771,N,12224.35473,W,004.08,036.4,120813,016.6,E,D*2E
$PGRME,2.4,M,2.4,M,3.4,M*29
$HCHDG,20.7,0.0,E,,*1C
$HCHDG,20.7,0.0,E,,*1C
$GPRMC,060009.8,A,4741.24787,N,12224.35452,W,003.89,037.8,120813,016.6,E,D*29
$PGRME,2.4,M,2.4,M,3.4,M*29
$HCHDG,20.9,0.0,E,,*12
$IIRMC,060000,A,4741.247,N,12224.355,W,04.0,039,110813,16,E,A*18
$YXXDR,A,6.1,D,PTCH,A,4.5,D,ROLL*5B
$IIVHW,,,,,03.9,N,,*13
$HCHDG,20.9,0.0,E,,*12
$IIVLW,02115,N,007.0,N*53
$GPRMC,060010.0,A,4741.24802,N,12224.35446,W,003.88,038.6,120813,016.6,E,D*2E
$GPRMB,A,0.00,L,Shil,Shil,4741.0830,N,12224.5670,W,0.2,221,-3.88,V*29
$PGRME,2.4,M,2.4,M,3.4,M*29
$IIVWR,027,L,12.4,N,,,,*7D
$HCHDG,21.0,0.0,E,,*1A
$IIDPT,012.8,-1.0,*4B
$HCHDG,21.0,0.0,E,,*1A
$IIGLL,4741.247,N,12224.355,W,060000,A,A*47
$GPRMC,060010.2,A,4741.24818,N,12224.35434,W,003.90,042.4,120813,016.6,E,D*24
$PGRME,2.4,M,2.4,M,3.4,M*29
$IIMTW,+14.0,C*3D
$HCHDG,20.5,0.0,E,,*1E
$IIMWV,333,R,12.4,N,A*17
$IIMWV,324,T,09.1,N,A*18
$HCHDG,20.6,0.0,E,,*1D
$GPRMC,060010.4,A,4741.24829,N,12224.35413,W,003.91,043.1,120813,016.6,E,D*20
$PGRME,2.4,M,2.4,M,3.4,M*29
$YXXDR,A,5.8,D,PTCH,A,3.6,D,ROLL*55
$HCHDG,20.5,0.0,E,,*1E
$HCHDG,20.1,0.0,E,,*1A
$GPRMC,060010.6,A,4741.24838,N,12224.35389,W,003.90,041.5,120813,016.6,E,D*21
$PGRME,2.4,M,2.4,M,3.4,M*29
$HCHDG,20.1,0.0,E,,*1A
$HCHDG,20.2,0.0,E,,*19
$GPRMC,060010.8,A,4741.24846,N,12224.35366,W,004.10,038.4,120813,016.6,E,D*27
$PGRME,2.4,M,2.4,M,3.4,M*29
$IIRMB,A,0.00,L,,Shil,,,,,000.2,221,,V,A*7A
$HCHDG,20.1,0.0,E,,*1A
$YXXDR,A,5.8,D,PTCH,A,3.6,D,ROLL*55
$PTAK,FFD1,3.6*50
$IIRMC,060000,A,4741.247,N,12224.354,W,03.8,037,110813,16,E,A*18
$HCHDG,20.4,0.0,E,,*1F
$GPRMC,060011.0,A,4741.24865,N,12224.35342,W,004.06,038.8,120813,016.6,E,D*22
$GPRMB,A,0.00,L,Shil,Shil,4741.0830,N,12224.5670,W,0.2,221,-4.06,V*28
$IIVHW,,,,,03.7,N,,*1D
$PGRME,2.4,M,2.4,M,3.4,M*29
$HCHDG,20.6,0.0,E,,*1D
$IIVLW,02115,N,007.0,N*53
$IIVWR,027,L,12.1,N,,,,*78
$HCHDG,20.3,0.0,E,,*18
$IIDPT,012.8,-1.0,*4B
$GPRMC,060011.2,A,4741.24873,N,12224.35311,W,003.90,038.2,120813,016.6,E,D*23
$PGRME,2.4,M,2.4,M,3.4,M*29
$HCHDG,20.6,0.0,E,,*1D
$IIGLL,4741.247,N,12224.354,W,060000,A,A*46
$IIMTW,+14.0,C*3D
$HCHDG,20.7,0.0,E,,*1C
$GPRMC,060011.4,A,4741.24889,N,12224.35286,W,003.92,038.2,120813,016.6,E,D*2D
$PGRME,2.4,M,2.4,M,3.4,M*29
$YXXDR,A,6.0,D,PTCH,A,4.6,D,ROLL*59
$HCHDG,20.6,0.0,E,,*1D
$HCHDG,20.8,0.0,E,,*13
$GPRMC,060011.6,A,4741.24908,N,12224.35268,W,003.90,036.7,120813,016.6,E,D*2E
$PGRME,2.4,M,2.4,M,3.4,M*29
$HCHDG,21.0,0.0,E,,*1A
$HCHDG,20.8,0.0,E,,*13
$IIMWV,332,R,12.0,N,A*12
$GPRMC,060011.8,A,4741.24928,N,12224.35251,W,003.86,036.1,120813,016.6,E,D*29
$PGRME,2.4,M,2.4,M,3.4,M*29
$IIMWV,322,T,08.8,N,A*16
$HCHDG,20.9,0.0,E,,*12
$YXXDR,A,6.1,D,PTCH,A,5.3,D,ROLL*5C
$IIRMB,A,0.00,L,,Shil,,,,,000.2,221,,V,A*7A
$HCHDG,21.2,0.0,E,,*18
$GPRMC,060012.0,A,4741.24946,N,12224.35236,W,003.81,037.7,120813,016.6,E,D*2B
$PGRME,2.4,M,2.4,M,3.4,M*29
$HCHDG,21.5,0.0,E,,*1F
$IIRMC,060000,A,4741.248,N,12224.353,W,04.1,038,110813,16,E,A*11
$IIVHW,,,,,03.6,N,,*1C
$HCHDG,21.5,0.0,E,,*1F
$IIVLW,02115,N,007.0,N*53
$GPRMC,060012.2,A,4741.24969,N,12224.35211,W,003.78,036.9,120813,016.6,E,D*28
$GPRMB,A,0.00,L,Shil,Shil,4741.0830,N,12224.5670,W,0.2,221,-3.77,V*29
$PGRME,2.4,M,2.4,M,3.4,M*29
$IIVWR,028,L,12.0,N,,,,*76
$HCHDG,21.7,0.0,E,,*1D
$IIDPT,012.8,-1.0,*4B
$HCHDG,21.7,0.0,E,,*1D
$GPRMC,060012.4,A,4741.24985,N,12224.35193,W,003.75,036.8,120813,016.6,E,D*29
$PGRME,2.4,M,2.4,M,3.4,M*29
$YXXDR,A,5.1,D,PTCH,A,4.6,D,ROLL*5B
$PTAK,FFD1,4.6*57
$HCHDG,21.6,0.0,E,,*1C
$HCHDG,21.8,0.0,E,,*12
$GPRMC,060012.6,A,4741.24997,N,12224.35169,W,003.70,037.7,120813,016.6,E,D*26
$PGRME,2.4,M,2.4,M,3.4,M*29
$HCHDG,21.6,0.0,E,,*1C
$HCHDG,21.8,0.0,E,,*12
$PTAK,FFP1,HEEL,@*07
$GPRMC,060012.8,A,4741.25008,N,12224.35160,W,003.68,039.4,120813,016.6,E,D*2B
$PGRME,2.4,M,2.4,M,3.4,M*29
$IIGLL,4741.249,N,12224.352,W,060000,A,A*4E
$HCHDG,21.7,0.0,E,,*1D
$IIMTW,+14.0,C*3D
$YXXDR,A,4.5,D,PTCH,A,3.8,D,ROLL*57
$IIMWV,333,R,12.0,N,A*13
$HCHDG,21.9,0.0,E,,*13
$IIMWV,320,T,08.8,N,A*14
$GPRMC,060013.0,A,4741.25018,N,12224.35141,W,003.67,039.3,120813,016.6,E,D*28
$PGRME,2.4,M,2.4,M,3.4,M*29
$HCHDG,21.7,0.0,E,,*1D
$IIRMB,A,0.00,L,,Shil,,,,,000.2,221,,V,A*7A
$HCHDG,21.8,0.0,E,,*12
$GPRMC,060013.2,A,4741.25037,N,12224.35131,W,003.66,040.8,120813,016.6,E,D*24
$IIRMC,060000,A,4741.249,N,12224.352,W,03.8,037,110813,16,E,A*10
$PGRME,2.4,M,2.4,M,3.4,M*29
$HCHDG,21.5,0.0,E,,*1F
$IIVHW,,,,,03.6,N,,*1C
$IIVLW,02115,N,007.0,N*53
$HCHDG,21.5,0.0,E,,*1F
$GPRMC,060013.4,A,4741.25044,N,12224.35119,W,003.67,039.8,120813,016.6,E,D*23
$GPRMB,A,0.00,L,Shil,Shil,4741.0830,N,12224.5670,W,0.2,221,-3.67,V*28
$PGRME,2.4,M,2.4,M,3.4,M*29
$YXXDR,A,5.2,D,PTCH,A,3.6,D,ROLL*5F
$PTAK,FFD1,3.6*50
$HCHDG,21.4,0.0,E,,*1E
$HCHDG,21.4,0.0,E,,*1E
$GPRMC,060013.6,A,4741.25058,N,12224.35105,W,003.71,039.6,120813,016.6,E,D*28
$PGRME,2.4,M,2.4,M,3.4,M*29
$HCHDG,21.3,0.0,E,,*19
$HCHDG,21.6,0.0,E,,*1C
$IIVWR,027,L,11.8,N,,,,*72
$GPRMC,060013.8,A,4741.25076,N,12224.35096,W,003.73,038.5,120813,016.6,E,D*21
$PGRME,2.4,M,2.4,M,3.4,M*29
$IIDPT,012.7,-1.0,*44
$HCHDG,21.6,0.0,E,,*1C
$YXXDR,A,6.2,D,PTCH,A,4.3,D,ROLL*5E
$IIGLL,4741.250,N,12224.351,W,060000,A,A*45
$HCHDG,21.8,0.0,E,,*12
$IIMTW,+14.0,C*3D
$GPRMC,060014.0,A,4741.25097,N,12224.35072,W,003.76,038.8,120813,016.6,E,D*23
$PGRME,2.4,M,2.4,M,3.4,M*29
$IIMWV,333,R,11.8,N,A*18
$HCHDG,22.1,0.0,E,,*18
$IIMWV,322,T,08.8,N,A*16
$HCHDG,22.1,0.0,E,,*18
$IIRMB,A,0.00,L,,Shil,,,,,000.2,221,,V,A*7A
$GPRMC,060014.2,A,4741.25115,N,12224.35052,W,003.78,036.1,120813,016.6,E,D*21
$PGRME,2.4,M,2.4,M,3.4,M*29
$HCHDG,22.4,0.0,E,,*1D
$IIRMC,060000,A,4741.250,N,12224.351,W,03.6,039,110813,16,E,A*1B
$HCHDG,22.5,0.0,E,,*1C
$GPRMC,060014.4,A,4741.25137,N,12224.35044,W,003.78,037.6,120813,016.6,E,D*26
$GPRMB,A,0.00,L,Shil,Shil,4741.0830,N,12224.5670,W,0.2,221,-3.77,V*29
$PGRME,2.4,M,2.4,M,3.4,M*29
$YXXDR,A,5.1,D,PTCH,A,5.0,D,ROLL*5C
$HCHDG,22.5,0.0,E,,*1C
$HCHDG,22.5,0.0,E,,*1C
$GPRMC,060014.6,A,4741.25150,N,12224.35038,W,003.77,037.3,120813,016.6,E,D*24
$PGRME,2.4,M,2.4,M,3.4,M*29
$HCHDG,22.7,0.0,E,,*1E
$HCHDG,22.6,0.0,E,,*1F
$IIVHW,,,,,03.7,N,,*1D
$GPRMC,060014.8,A,4741.25164,N,12224.35016,W,003.77,035.0,120813,016.6,E,D*20
$PGRME,2.4,M,2.4,M,3.4,M*29
$IIVLW,02115,N,007.0,N*53
$HCHDG,22.7,0.0,E,,*1E
$IIVWR,027,L,11.7,N,,,,*7D
$YXXDR,A,6.3,D,PTCH,A,4.8,D,ROLL*54
$PTAK,FFD1,4.8*59
$IIDPT,012.7,-1.0,*44
$HCHDG,22.8,0.0,E,,*11
$GPRMC,060015.0,A,4741.25182,N,12224.34986,W,003.76,036.8,120813,016.6,E,D*2A
$PGRME,2.4,M,2.4,M,3.4,M*29
$IIGLL,4741.250,N,12224.350,W,060000,A,A*44
$HCHDG,22.6,0.0,E,,*1F
$IIMTW,+14.0,C*3D
$IIMWV,333,R,11.7,N,A*17
$HCHDG,22.7,0.0,E,,*1E
$IIMWV,322,T,08.7,N,A*19
$GPRMC,060015.2,A,4741.25198,N,12224.34961,W,003.73,038.7,120813,016.6,E,D*2E
$PGRME,2.4,M,2.4,M,3.4,M*29
$HCHDG,22.6,0.0,E,,*1F
$IIRMB,A,0.00,L,,Shil,,,,,000.2,221,,V,A*7A
$HCHDG,22.6,0.0,E,,*1F
$GPRMC,060015.4,A,4741.25203,N,12224.34942,W,003.69,041.7,120813,016.6,E,D*2D
$PGRME,2.4,M,2.4,M,3.4,M*29
$YXXDR,A,6.5,D,PTCH,A,3.5,D,ROLL*58
$HCHDG,22.4,0.0,E,,*1D
$HCHDG,22.5,0.0,E,,*1C
$GPRMC,060015.6,A,4741.25215,N,12224.34915,W,003.63,042.2,120813,016.6,E,D*26
$GPRMB,A,0.00,L,Shil,Shil,4741.0830,N,12224.5670,W,0.2,221,-3.63,V*2C
$PGRME,2.4,M,2.4,M,3.4,M*29
$HCHDG,22.3,0.0,E,,*1A
$HCHDG,22.4,0.0,E,,*1D
$GPRMC,060015.8,A,4741.25224,N,12224.34881,W,003.59,045.0,120813,016.6,E,D*2A
$PGRME,2.4,M,2.4,M,3.4,M*29
$HCHDG,22.4,0.0,E,,*1D
$IIRMC,060000,A,4741.250,N,12224.350,W,03.7,038,110813,16,E,A*1A
$IIVHW,,,,,03.8,N,,*12
$YXXDR,A,5.7,D,PTCH,A,3.1,D,ROLL*5D
$PTAK,FFD1,3.1*57
$HCHDG,22.4,0.0,E,,*1D
$IIVLW,02115,N,007.0,N*53
$GPRMC,060016.0,A,4741.25241,N,12224.34854,W,003.57,044.7,120813,016.6,E,D*22
$PGRME,2.4,M,2.4,M,3.4,M*29
$IIVWR,028,L,11.7,N,,,,*72
$HCHDG,22.1,0.0,E,,*18
$IIDPT,012.7,-1.0,*44
$HCHDG,22.1,0.0,E,,*18
$IIGLL,4741.250,N,12224.350,W,060000,A,A*44
$GPRMC,060016.2,A,4741.25257,N,12224.34828,W,003.56,045.4,120813,016.6,E,D*2F
$PGRME,2.4,M,2.4,M,3.4,M*29
$IIMTW,+14.0,C*3D
$HCHDG,22.1,0.0,E,,*18
$IIMWV,332,R,11.7,N,A*16
$IIMWV,322,T,08.4,N,A*1A
$HCHDG,22.1,0.0,E,,*18
$GPRMC,060016.4,A,4741.25267,N,12224.34815,W,003.58,044.0,120813,016.6,E,D*2F
$PGRME,2.4,M,2.4,M,3.4,M*29
$YXXDR,A,5.5,D,PTCH,A,3.7,D,ROLL*59
$HCHDG,22.4,0.0,E,,*1D
$HCHDG,22.6,0.0,E,,*1F
$GPRMC,060016.6,A,4741.25280,N,12224.34808,W,003.60,039.9,120813,016.6,E,D*20
$GPRMB,A,0.00,L,Shil,Shil,4741.0830,N,12224.5670,W,0.2,221,-3.60,V*2F
$PGRME,2.4,M,2.4,M,3.4,M*29
$HCHDG,22.8,0.0,E,,*11
$PTAK,FFP1,HEEL,@*07
$HCHDG,23.2,0.0,E,,*1A
$GPRMC,060016.8,A,4741.25289,N,12224.34782,W,003.59,039.0,120813,016.6,E,D*29
$PGRME,2.4,M,2.4,M,3.4,M*29
$IIRMB,A,0.00,L,,Shil,,,,,000.2,221,,V,A*7A
$HCHDG,23.6,0.0,E,,*1E
$YXXDR,A,5.7,D,PTCH,A,5.0,D,ROLL*5A
$IIRMC,060000,A,4741.252,N,12224.348,W,03.5,044,110813,16,E,A*18
$HCHDG,23.8,0.0,E,,*10
$GPRMC,060017.0,A,4741.25305,N,12224.34766,W,003.58,037.7,120813,016.6,E,D*27
$PGRME,2.4,M,2.4,M,3.4,M*29
$IIVHW,,,,,03.8,N,,*12
$HCHDG,23.8,0.0,E,,*10
$IIVLW,02115,N,007.0,N*53
$IIVWR,028,L,11.5,N,,,,*70
$HCHDG,24.2,0.0,E,,*1D
$IIDPT,012.7,-1.0,*44
$GPRMC,060017.2,A,4741.25319,N,12224.34749,W,003.36,040.4,120813,016.6,E,D*2E
$PGRME,2.4,M,2.4,M,3.4,M*29
$HCHDG,24.3,0.0,E,,*1C
$IIGLL,4741.252,N,12224.348,W,060000,A,A*4F
$IIMTW,+14.0,C*3D
$HCHDG,24.5,0.0,E,,*1A
$GPRMC,060017.4,A,4741.25336,N,12224.34733,W,003.38,042.4,120813,016.6,E,D*24
$PGRME,2.4,M,2.4,M,3.4,M*29
$YXXDR,A,5.8,D,PTCH,A,5.1,D,ROLL*54
$PTAK,FFD1,5.1*51
$HCHDG,24.7,0.0,E,,*18
$HCHDG,24.8,0.0,E,,*17
$GPRMC,060017.6,A,4741.25352,N,12224.34730,W,003.39,042.1,120813,016.6,E,D*23
$PGRME,2.4,M,2.4,M,3.4,M*29
$HCHDG,24.7,0.0,E,,*18
$HCHDG,24.5,0.0,E,,*1A
$IIMWV,333,R,11.4,N,A*14
$GPRMC,060017.8,A,4741.25362,N,12224.34709,W,003.44,046.9,120813,016.6,E,D*22
$GPRMB,A,0.00,L,Shil,Shil,4741.0830,N,12224.5670,W,0.2,221,-3.42,V*2F
$PGRME,2.4,M,2.4,M,3.4,M*29
$IIMWV,319,T,08.2,N,A*14
$HCHDG,24.2,0.0,E,,*1D
$YXXDR,A,5.0,D,PTCH,A,3.7,D,ROLL*5C
$IIRMB,A,0.00,L,,Shil,,,,,000.2,221,,V,A*7A
$HCHDG,23.9,0.0,E,,*11
$GPRMC,060018.0,A,4741.25368,N,12224.34685,W,003.50,049.2,120813,016.6,E,D*2B
$PGRME,2.4,M,2.4,M,3.4,M*29
$HCHDG,23.9,0.0,E,,*11
$IIRMC,060000,A,4741.253,N,12224.347,W,03.5,037,110813,16,E,A*12
$IIVHW,,,,,03.7,N,,*1D
$HCHDG,23.6,0.0,E,,*1E
$IIVLW,02115,N,007.0,N*53
$GPRMC,060018.2,A,4741.25381,N,12224.34665,W,003.55,044.4,120813,016.6,E,D*2E
$GPRMB,A,0.00,L,Shil,Shil,4741.0830,N,12224.5670,W,0.2,221,-3.54,V*28
$PGRME,2.4,M,2.4,M,3.4,M*29
$IIVWR,027,L,11.4,N,,,,*7E
$HCHDG,23.8,0.0,E,,*10
$IIDPT,012.7,-1.0,*44
$HCHDG,23.5,0.0,E,,*1D
$GPRMC,060018.4,A,4741.25403,N,12224.34641,W,003.58,043.1,120813,016.6,E,D*2C
$PGRME,2.4,M,2.4,M,3.4,M*29
$YXXDR,A,5.7,D,PTCH,A,3.8,D,ROLL*54
$PTAK,FFD1,3.8*5E
$HCHDG,23.5,0.0,E,,*1D
$HCHDG,23.5,0.0,E,,*1D
$GPRMC,060018.6,A,4741.25416,N,12224.34631,W,003.61,039.7,120813,016.6,E,D*2C
$PGRME,2.4,M,2.4,M,3.4,M*29
$HCHDG,23.7,0.0,E,,*1F
$HCHDG,23.8,0.0,E,,*10
$GPRMC,060018.8,A,4741.25439,N,12224.34613,W,003.62,038.5,120813,016.6,E,D*2F
$PGRME,2.4,M,2.4,M,3.4,M*29
$IIGLL,4741.253,N,12224.346,W,060000,A,A*40
$HCHDG,24.1,0.0,E,,*1E
$IIMTW,+14.0,C*3D
$IIMWV,332,R,11.6,N,A*17
$YXXDR,A,6.2,D,PTCH,A,4.7,D,ROLL*5A
$IIMWV,322,T,08.1,N,A*1F
$HCHDG,24.2,0.0,E,,*1D
$GPRMC,060019.0,A,4741.25457,N,12224.34592,W,003.46,039.6,120813,016.6,E,D*20
$PGRME,2.4,M,2.4,M,3.4,M*29
$HCHDG,24.4,0.0,E,,*1B
$IIRMB,A,0.00,L,,Shil,,,,,000.2,221,,V,A*7A
$HCHDG,24.4,0.0,E,,*1B
$GPRMC,060019.2,A,4741.25471,N,12224.34581,W,003.43,042.9,120813,016.6,E,D*22
$IIRMC,060000,A,4741.253,N,12224.346,W,03.5,049,110813,16,E,A*1A
$PGRME,2.4,M,2.4,M,3.4,M*29
$HCHDG,24.3,0.0,E,,*1C
$IIVHW,,,,,03.6,N,,*1C
$IIVLW,02115,N,007.0,N*53
$HCHDG,24.5,0.0,E,,*1A
$GPRMC,060019.4,A,4741.25484,N,12224.34565,W,003.44,043.0,120813,016.6,E,D*2B
$GPRMB,A,0.00,L,Shil,Shil,4741.0830,N,12224.5670,W,0.2,221,-3.44,V*29
$PGRME,2.4,M,2.4,M,3.4,M*29
$YXXDR,A,5.4,D,PTCH,A,4.5,D,ROLL*5D
$PTAK,FFD1,4.5*54
$HCHDG,24.3,0.0,E,,*1C
$HCHDG,24.5,0.0,E,,*1A
$GPRMC,060019.6,A,4741.25497,N,12224.34549,W,003.39,046.8,120813,016.6,E,D*22
$PGRME,2.4,M,2.4,M,3.4,M*29
$HCHDG,24.3,0.0,E,,*1C
$HCHDG,24.5,0.0,E,,*1A
$IIVWR,027,L,11.4,N,,,,*7E
$GPRMC,060019.8,A,4741.25514,N,12224.34527,W,003.40,048.0,120813,016.6,E,D*26
$PGRME,2.4,M,2.4,M,3.4,M*29
$IIDPT,012.5,-1.0,*46
$HCHDG,24.3,0.0,E,,*1C
$YXXDR,A,5.2,D,PTCH,A,3.8,D,ROLL*51
$IIGLL,4741.254,N,12224.345,W,060000,A,A*44
$HCHDG,24.3,0.0,E,,*1C
$IIMTW,+14.0,C*3D
$GPRMC,060020.0,A,4741.25528,N,12224.34509,W,003.36,044.3,120813,016.6,E,D*29
$PGRME,2.4,M,2.4,M,3.4,M*29
$IIMWV,333,R,11.4,N,A*14
$HCHDG,24.3,0.0,E,,*1C
$PTAK,FFP1,HEEL,@*07
$IIMWV,320,T,08.4,N,A*18
$HCHDG,24.4,0.0,E,,*1B
$IIRMB,A,0.00,L,,Shil,,,,,000.2,221,,V,A*7A
$GPRMC,060020.2,A,4741.25537,N,12224.34487,W,003.35,039.8,120813,016.6,E,D*20
$PGRME,2.4,M,2.4,M,3.4,M*29
$HCHDG,24.9,0.0,E,,*16
$IIRMC,060000,A,4741.254,N,12224.345,W,03.4,039,110813,16,E,A*18
$HCHDG,25.1,0.0,E,,*1F
$GPRMC,060020.4,A,4741.25547,N,12224.34472,W,003.32,039.4,120813,016.6,E,D*20
$GPRMB,A,0.00,L,Shil,Shil,4741.0830,N,12224.5670,W,0.2,221,-3.32,V*28
$PGRME,2.4,M,2.4,M,3.4,M*29
$YXXDR,A,6.2,D,PTCH,A,4.6,D,ROLL*5B
$PTAK,FFD1,4.6*57
$HCHDG,25.2,0.0,E,,*1C
$HCHDG,25.4,0.0,E,,*1A
$GPRMC,060020.6,A,4741.25566,N,12224.34460,W,003.30,039.0,120813,016.6,E,D*24
$PGRME,2.4,M,2.4,M,3.4,M*29
$HCHDG,25.3,0.0,E,,*1D
$HCHDG,25.2,0.0,E,,*1C
$IIVHW,,,,,03.5,N,,*1F
$GPRMC,060020.8,A,4741.25575,N,12224.34449,W,003.26,043.6,120813,016.6,E,D*2F
$PGRME,2.4,M,2.4,M,3.4,M*29
$IIVLW,02115,N,007.0,N*53
$HCHDG,25.2,0.0,E,,*1C
$IIVWR,029,L,11.4,N,,,,*70
$YXXDR,A,6.6,D,PTCH,A,4.8,D,ROLL*51
$IIDPT,012.5,-1.0,*46
$HCHDG,25.1,0.0,E,,*1F
$GPRMC,060021.0,A,4741.25592,N,12224.34434,W,003.25,043.5,120813,016.6,E,D*25
$PGRME,2.4,M,2.4,M,3.4,M*29
$IIGLL,4741.255,N,12224.345,W,060000,A,A*45
$HCHDG,25.2,0.0,E,,*1C
$IIMTW,+14.0,C*3D
$IIMWV,331,R,11.4,N,A*16
$HCHDG,25.0,0.0,E,,*1E
$IIMWV,322,T,08.2,N,A*1C
$GPRMC,060021.2,A,4741.25609,N,12224.34416,W,003.24,044.7,120813,016.6,E,D*22
$PGRME,2.4,M,2.4,M,3.4,M*29
$HCHDG,25.0,0.0,E,,*1E
$IIRMB,A,0.00,L,,Shil,,,,,000.2,221,,V,A*7A
$HCHDG,24.9,0.0,E,,*16
$GPRMC,060021.4,A,4741.25618,N,12224.34394,W,003.26,043.7,120813,016.6,E,D*2C
$PGRME,2.4,M,2.4,M,3.4,M*29
$YXXDR,A,6.8,D,PTCH,A,4.2,D,ROLL*55
$HCHDG,24.8,0.0,E,,*17
$HCHDG,24.7,0.0,E,,*18
$GPRMC,060021.6,A,4741.25623,N,12224.34370,W,003.28,043.0,120813,016.6,E,D*25
$GPRMB,A,0.00,L,Shil,Shil,4741.0830,N,12224.5670,W,0.2,221,-3.28,V*23
$PGRME,2.4,M,2.4,M,3.4,M*29
$HCHDG,24.5,0.0,E,,*1A
$HCHDG,24.4,0.0,E,,*1B
$GPRMC,060021.8,A,4741.25633,N,12224.34352,W,003.29,041.5,120813,016.6,E,D*2C
$PGRME,2.4,M,2.4,M,3.4,M*29
$HCHDG,24.7,0.0,E,,*18
$IIRMC,060000,A,4741.255,N,12224.344,W,03.2,043,110813,16,E,A*13
$IIVHW,,,,,03.5,N,,*1F
$YXXDR,A,6.8,D,PTCH,A,4.2,D,ROLL*55
$PTAK,FFD1,4.2*53
$IIVLW,02115,N,007.0,N*53
$HCHDG,24.7,0.0,E,,*18
$GPRMC,060022.0,A,4741.25641,N,12224.34334,W,003.31,039.1,120813,016.6,E,D*20
$PGRME,2.4,M,2.4,M,3.4,M*29
$IIVWR,029,L,11.5,N,,,,*71
$HCHDG,24.8,0.0,E,,*17
$IIDPT,012.3,-1.0,*40
$HCHDG,24.8,0.0,E,,*17
$IIGLL,4741.255,N,12224.344,W,060000,A,A*44
$GPRMC,060022.2,A,4741.25657,N,12224.34305,W,003.34,039.4,120813,016.6,E,D*27
$PGRME,2.4,M,2.4,M,3.4,M*29
$IIMTW,+14.0,C*3D
$HCHDG,24.8,0.0,E,,*17
$IIMWV,331,R,11.5,N,A*17
$IIMWV,319,T,08.2,N,A*14
$HCHDG,25.1,0.0,E,,*1F
$GPRMC,060022.4,A,4741.25671,N,12224.34276,W,003.34,040.2,120813,016.6,E,D*28
$PGRME,2.4,M,2.4,M,3.4,M*29
$YXXDR,A,5.8,D,PTCH,A,5.0,D,ROLL*55
$HCHDG,25.1,0.0,E,,*1F
$HCHDG,25.1,0.0,E,,*1F
$GPRMC,060022.6,A,4741.25687,N,12224.34259,W,003.36,039.7,120813,016.6,E,D*27
$PGRME,2.4,M,2.4,M,3.4,M*29
$HCHDG,25.3,0.0,E,,*1D
$HCHDG,25.4,0.0,E,,*1A
$GPRMC,060022.8,A,4741.25699,N,12224.34254,W,003.36,043.3,120813,016.6,E,D*22
$GPRMB,A,0.00,L,Shil,Shil,4741.0830,N,12224.5670,W,0.2,221,-3.36,V*2C
$PGRME,2.4,M,2.4,M,3.4,M*29
$IIRMB,A,0.00,L,,Shil,,,,,000.2,221,,V,A*7A
$HCHDG,25.4,0.0,E,,*1A
$YXXDR,A,5.8,D,PTCH,A,4.3,D,ROLL*57
$PTAK,FFD1,4.3*52
$IIRMC,060000,A,4741.256,N,12224.343,W,03.3,039,110813,16,E,A*1B
$HCHDG,25.6,0.0,E,,*18
$GPRMC,060023.0,A,4741.25713,N,12224.34237,W,003.35,045.9,120813,016.6,E,D*22
$PGRME,2.4,M,2.4,M,3.4,M*29
$IIVHW,,,,,03.5,N,,*1F
$HCHDG,25.4,0.0,E,,*1A
$IIVLW,02115,N,007.0,N*53
$IIVWR,031,L,11.5,N,,,,*78
$HCHDG,25.1,0.0,E,,*1F
$IIDPT,012.3,-1.0,*40
$GPRMC,060023.2,A,4741.25729,N,12224.34215,W,003.36,042.7,120813,016.6,E,D*23
$PGRME,2.4,M,2.4,M,3.4,M*29
$HCHDG,25.1,0.0,E,,*1F
$IIGLL,4741.256,N,12224.343,W,060000,A,A*40
$IIMTW,+14.0,C*3D
$HCHDG,24.8,0.0,E,,*17
$GPRMC,060023.4,A,4741.25749,N,12224.34199,W,003.36,044.8,120813,016.6,E,D*2D
$PGRME,2.4,M,2.4,M,3.4,M*29
$YXXDR,A,6.6,D,PTCH,A,3.3,D,ROLL*5D
$HCHDG,24.9,0.0,E,,*16
$HCHDG,25.0,0.0,E,,*1E
$GPRMC,060023.6,A,4741.25760,N,12224.34189,W,003.35,046.3,120813,016.6,E,D*2F
$PGRME,2.4,M,2.4,M,3.4,M*29
$HCHDG,25.0,0.0,E,,*1E
$HCHDG,25.2,0.0,E,,*1C
$IIMWV,329,R,11.6,N,A*1D
$GPRMC,060023.8,A,4741.25775,N,12224.34176,W,003.35,046.0,120813,016.6,E,D*26
$GPRMB,A,0.00,L,Shil,Shil,4741.0830,N,12224.5670,W,0.2,221,-3.34,V*2E
$PGRME,2.4,M,2.4,M,3.4,M*29
$IIMWV,317,T,08.6,N,A*1E
$HCHDG,25.4,0.0,E,,*1A
$YXXDR,A,4.8,D,PTCH,A,4.6,D,ROLL*53
$IIRMB,A,0.00,L,,Shil,,,,,000.2,221,,V,A*7A
$HCHDG,25.5,0.0,E,,*1B
$GPRMC,060024.0,A,4741.25793,N,12224.34143,W,003.34,044.0,120813,016.6,E,D*24
$PGRME,2.4,M,2.4,M,3.4,M*29
$HCHDG,25.7,0.0,E,,*19
$PTAK,FFP1,HEEL,@*07
$IIRMC,060000,A,4741.257,N,12224.342,W,03.3,045,110813,16,E,A*10
$IIVHW,,,,,03.5,N,,*1F
$HCHDG,26.0,0.0,E,,*1D
$IIVLW,02115,N,007.0,N*53
$GPRMC,060024.2,A,4741.25807,N,12224.34117,W,003.32,043.5,120813,016.6,E,D*21
$PGRME,2.4,M,2.4,M,3.4,M*29
$IIVWR,031,L,11.6,N,,,,*7B
$HCHDG,26.2,0.0,E,,*1F
$IIDPT,012.1,-1.0,*42
$HCHDG,26.1,0.0,E,,*1C
$GPRMC,060024.4,A,4741.25827,N,12224.34084,W,003.33,040.4,120813,016.6,E,D*2D
$PGRME,2.4,M,2.4,M,3.4,M*29
$YXXDR,A,5.4,D,PTCH,A,5.2,D,ROLL*5B
$PTAK,FFD1,5.2*52
$HCHDG,26.2,0.0,E,,*1F
$HCHDG,26.2,0.0,E,,*1F
$GPRMC,060024.6,A,4741.25840,N,12224.34064,W,003.30,042.6,120813,016.6,E,D*23
$PGRME,2.4,M,2.4,M,3.4,M*29
$HCHDG,26.0,0.0,E,,*1D
$HCHDG,26.0,0.0,E,,*1D
$GPRMC,060024.8,A,4741.25857,N,12224.34039,W,003.26,044.3,120813,016.6,E,D*27
$PGRME,2.4,M,2.4,M,3.4,M*29
$IIGLL,4741.257,N,12224.341,W,060000,A,A*43
$HCHDG,26.1,0.0,E,,*1C
$IIMTW,+14.0,C*3D
$IIMWV,327,R,11.6,N,A*13
$YXXDR,A,6.3,D,PTCH,A,4.8,D,ROLL*54
$HCHDG,26.1,0.0,E,,*1C
$IIMWV,317,T,08.7,N,A*1F
$GPRMC,060025.0,A,4741.25876,N,12224.34022,W,003.11,046.2,120813,016.6,E,D*20
$GPRMB,A,0.00,L,Shil,Shil,4741.0830,N,12224.5670,W,0.2,221,-3.10,V*28
$PGRME,2.4,M,2.4,M,3.4,M*29
$HCHDG,25.8,0.0,E,,*16
$IIRMB,A,0.00,L,,Shil,,,,,000.2,221,,V,A*7A
$HCHDG,25.8,0.0,E,,*16
$GPRMC,060025.2,A,4741.25886,N,12224.34002,W,003.12,047.8,120813,016.6,E,D*27
$IIRMC,060000,A,4741.257,N,12224.341,W,03.3,044,110813,16,E,A*12
$PGRME,2.4,M,2.4,M,3.4,M*29
$HCHDG,25.8,0.0,E,,*16
$IIVHW,,,,,03.5,N,,*1F
$IIVLW,02115,N,007.0,N*53
$HCHDG,25.8,0.0,E,,*16
$GPRMC,060025.4,A,4741.25892,N,12224.33981,W,003.19,047.5,120813,016.6,E,D*27
$PGRME,2.4,M,2.4,M,3.4,M*29
$YXXDR,A,5.4,D,PTCH,A,4.4,D,ROLL*5C
$HCHDG,25.7,0.0,E,,*19
$HCHDG,25.6,0.0,E,,*18
$GPRMC,060025.6,A,4741.25912,N,12224.33961,W,003.20,045.8,120813,016.6,E,D*27
$PGRME,2.4,M,2.4,M,3.4,M*29
$HCHDG,25.6,0.0,E,,*18
$HCHDG,25.6,0.0,E,,*18
$IIVWR,033,L,11.5,N,,,,*7A
$GPRMC,060025.8,A,4741.25926,N,12224.33946,W,003.24,044.8,120813,016.6,E,D*2E
$PGRME,2.4,M,2.4,M,3.4,M*29
$IIDPT,012.1,-1.0,*42
$HCHDG,25.6,0.0,E,,*18
$YXXDR,A,5.2,D,PTCH,A,4.2,D,ROLL*5C
$PTAK,FFD1,4.2*53
$IIGLL,4741.258,N,12224.340,W,060000,A,A*4D
$IIMTW,+14.0,C*3D
$HCHDG,25.7,0.0,E,,*19
$GPRMC,060026.0,A,4741.25936,N,12224.33922,W,003.24,043.8,120813,016.6,E,D*21
$PGRME,2.4,M,2.4,M,3.4,M*29
$IIMWV,327,R,11.5,N,A*10
$HCHDG,25.6,0.0,E,,*18
$IIMWV,315,T,08.6,N,A*1C
$HCHDG,25.4,0.0,E,,*1A
$IIRMB,A,0.00,L,,Shil,,,,,000.2,221,,V,A*7A
$GPRMC,060026.2,A,4741.25952,N,12224.33906,W,003.27,042.0,120813,016.6,E,D*2D
$GPRMB,A,0.00,L,Shil,Shil,4741.0830,N,12224.5670,W,0.2,221,-3.27,V*2C
$PGRME,2.4,M,2.4,M,3.4,M*29
$HCHDG,25.7,0.0,E,,*19
$IIRMC,060000,A,4741.258,N,12224.340,W,03.1,046,110813,16,E,A*1C
$HCHDG,25.2,0.0,E,,*1C
$GPRMC,060026.4,A,4741.25970,N,12224.33888,W,003.28,043.7,120813,016.6,E,D*25
$PGRME,2.4,M,2.4,M,3.4,M*29
$YXXDR,A,6.1,D,PTCH,A,4.5,D,ROLL*5B
$HCHDG,25.4,0.0,E,,*1A
$HCHDG,25.0,0.0,E,,*1E
$GPRMC,060026.6,A,4741.25985,N,12224.33874,W,003.27,045.7,120813,016.6,E,D*27
$PGRME,2.4,M,2.4,M,3.4,M*29
$HCHDG,24.7,0.0,E,,*18
$HCHDG,24.5,0.0,E,,*1A
$IIVHW,,,,,03.3,N,,*19
$GPRMC,060026.8,A,4741.25993,N,12224.33853,W,003.26,050.2,120813,016.6,E,D*2B
$PGRME,2.4,M,2.4,M,3.4,M*29
$IIVLW,02115,N,007.1,N*52
$HCHDG,24.2,0.0,E,,*1D
$IIVWR,035,L,11.5,N,,,,*7C
$YXXDR,A,6.8,D,PTCH,A,3.8,D,ROLL*58
$PTAK,FFD1,3.8*5E
$IIDPT,012.1,-1.0,*42
$HCHDG,24.3,0.0,E,,*1C
$GPRMC,060027.0,A,4741.26004,N,12224.33836,W,003.25,046.5,120813,016.6,E,D*26
$PGRME,2.4,M,2.4,M,3.4,M*29
$IIGLL,4741.259,N,12224.339,W,060000,A,A*42
$HCHDG,24.0,0.0,E,,*1F
$IIMTW,+14.0,C*3D
$IIMWV,325,R,11.5,N,A*12
$HCHDG,24.1,0.0,E,,*1E
$IIMWV,315,T,08.6,N,A*1C
$GPRMC,060027.2,A,4741.26018,N,12224.33817,W,003.22,048.1,120813,016.6,E,D*27
$GPRMB,A,0.00,L,Shil,Shil,4741.0830,N,12224.5670,W,0.2,221,-3.20,V*2B
$PGRME,2.4,M,2.4,M,3.4,M*29
$HCHDG,24.0,0.0,E,,*1F
$IIRMB,A,0.00,L,,Shil,,,,,000.2,221,,V,A*7A
$HCHDG,24.0,0.0,E,,*1F
$GPRMC,060027.4,A,4741.26028,N,12224.33798,W,003.22,047.7,120813,016.6,E,D*23
$PGRME,2.4,M,2.4,M,3.4,M*29
$YXXDR,A,7.0,D,PTCH,A,4.0,D,ROLL*5E
$HCHDG,23.7,0.0,E,,*1F
$HCHDG,23.6,0.0,E,,*1E
$GPRMC,060027.6,A,4741.26029,N,12224.33784,W,003.24,049.5,120813,016.6,E,D*27
$PGRME,2.4,M,2.4,M,3.4,M*29
$HCHDG,23.9,0.0,E,,*11
$HCHDG,23.7,0.0,E,,*1F
$GPRMC,060027.8,A,4741.26043,N,12224.33770,W,003.25,049.5,120813,016.6,E,D*2F
$PGRME,2.4,M,2.4,M,3.4,M*29
$HCHDG,23.7,0.0,E,,*1F
$IIRMC,060000,A,4741.260,N,12224.338,W,03.2,048,110813,16,E,A*15
$IIVHW,,,,,03.2,N,,*18
$YXXDR,A,6.4,D,PTCH,A,4.7,D,ROLL*5C
$PTAK,FFD1,4.7*56
$HCHDG,23.6,0.0,E,,*1E
$IIVLW,02115,N,007.1,N*52
$GPRMC,060028.0,A,4741.26048,N,12224.33753,W,003.28,046.9,120813,016.6,E,D*2C
$PGRME,2.4,M,2.4,M,3.4,M*29
$IIVWR,032,L,11.4,N,,,,*7A
$HCHDG,23.9,0.0,E,,*11
$IIDPT,012.1,-1.0,*42
$HCHDG,23.9,0.0,E,,*11
$PTAK,FFP1,HEEL,@*07
$IIGLL,4741.260,N,12224.338,W,060000,A,A*49
$GPRMC,060028.2,A,4741.26067,N,12224.33733,W,003.31,044.5,120813,016.6,E,D*23
$PGRME,2.4,M,2.4,M,3.4,M*29
$IIMTW,+14.0,C*3D
$HCHDG,23.9,0.0,E,,*11
$IIMWV,328,R,11.4,N,A*1E
$IIMWV,313,T,08.8,N,A*14
$HCHDG,24.3,0.0,E,,*1C
$GPRMC,060028.4,A,4741.26087,N,12224.33713,W,003.33,043.4,120813,016.6,E,D*2D
$GPRMB,A,0.00,L,Shil,Shil,4741.0830,N,12224.5670,W,0.2,221,-3.33,V*29
$PGRME,2.4,M,2.4,M,3.4,M*29
$YXXDR,A,6.7,D,PTCH,A,5.7,D,ROLL*5E
$HCHDG,24.2,0.0,E,,*1D
$HCHDG,24.3,0.0,E,,*1C
$GPRMC,060028.6,A,4741.26104,N,12224.33695,W,003.35,042.6,120813,016.6,E,D*2F
$PGRME,2.4,M,2.4,M,3.4,M*29
$HCHDG,24.3,0.0,E,,*1C
$HCHDG,24.5,0.0,E,,*1A
$GPRMC,060028.8,A,4741.26119,N,12224.33677,W,003.33,043.7,120813,016.6,E,D*27
$PGRME,2.4,M,2.4,M,3.4,M*29
$IIRMB,A,0.00,L,,Shil,,,,,000.2,221,,V,A*7A
$HCHDG,24.2,0.0,E,,*1D
$YXXDR,A,6.0,D,PTCH,A,5.2,D,ROLL*5C
$IIRMC,060000,A,4741.260,N,12224.337,W,03.3,044,110813,16,E,A*17
$HCHDG,24.3,0.0,E,,*1C
$GPRMC,060029.0,A,4741.26135,N,12224.33659,W,003.09,042.5,120813,016.6,E,D*26
$PGRME,2.4,M,2.4,M,3.4,M*29
$IIVHW,,,,,03.3,N,,*19
$HCHDG,24.1,0.0,E,,*1E
$IIVLW,02115,N,007.1,N*52
$IIVWR,031,L,11.4,N,,,,*79
$HCHDG,24.2,0.0,E,,*1D
$IIDPT,012.0,-1.0,*43
$GPRMC,060029.2,A,4741.26146,N,12224.33637,W,003.11,041.5,120813,016.6,E,D*22
$PGRME,2.4,M,2.4,M,3.4,M*29
$HCHDG,24.2,0.0,E,,*1D
$IIGLL,4741.260,N,12224.337,W,060000,A,A*46
$IIMTW,+14.0,C*3D
$HCHDG,24.2,0.0,E,,*1D
$GPRMC,060029.4,A,4741.26159,N,12224.33621,W,003.08,046.8,120813,016.6,E,D*2F
$GPRMB,A,0.00,L,Shil,Shil,4741.0830,N,12224.5670,W,0.2,221,-3.06,V*2F
$PGRME,2.4,M,2.4,M,3.4,M*29
$YXXDR,A,4.5,D,PTCH,A,3.7,D,ROLL*58
$PTAK,FFD1,3.7*51
$HCHDG,24.0,0.0,E,,*1F
$HCHDG,23.9,0.0,E,,*11
$GPRMC,060029.6,A,4741.26174,N,12224.33598,W,003.05,046.9,120813,016.6,E,D*2F
$PGRME,2.4,M,2.4,M,3.4,M*29
$HCHDG,23.6,0.0,E,,*1E
$HCHDG,23.4,0.0,E,,*1C
$IIMWV,331,R,11.4,N,A*16
$GPRMC,060029.8,A,4741.26185,N,12224.33580,W,003.01,044.5,120813,016.6,E,D*2C
$PGRME,2.4,M,2.4,M,3.4,M*29
$IIMWV,318,T,08.7,N,A*10
$HCHDG,23.5,0.0,E,,*1D
$YXXDR,A,5.2,D,PTCH,A,3.5,D,ROLL*5C
$IIRMB,A,0.00,L,,Shil,,,,,000.2,221,,V,A*7A
$HCHDG,23.4,0.0,E,,*1C
$GPRMC,060030.0,A,4741.26202,N,12224.33569,W,003.02,047.0,120813,016.6,E,D*22
$PGRME,2.4,M,2.4,M,3.4,M*29
$HCHDG,23.4,0.0,E,,*1C
$IIRMC,060000,A,4741.261,N,12224.336,W,03.1,041,110813,16,E,A*10
$IIVHW,,,,,03.2,N,,*18
$HCHDG,23.4,0.0,E,,*1C
$IIVLW,02115,N,007.1,N*52
$GPRMC,060030.2,A,4741.26212,N,12224.33565,W,003.02,043.6,120813,016.6,E,D*2F
$PGRME,2.4,M,2.4,M,3.4,M*29
$IIVWR,029,L,11.4,N,,,,*70
$HCHDG,23.3,0.0,E,,*1B
$IIDPT,011.9,-1.0,*49
$HCHDG,23.1,0.0,E,,*19
$GPRMC,060030.4,A,4741.26222,N,12224.33550,W,003.06,038.9,120813,016.6,E,D*2B
$PGRME,2.4,M,2.4,M,3.4,M*29
$YXXDR,A,5.4,D,PTCH,A,4.0,D,ROLL*58
$HCHDG,23.2,0.0,E,,*1A
$HCHDG,23.2,0.0,E,,*1A
$GPRMC,060030.6,A,4741.26236,N,12224.33528,W,003.10,037.3,120813,016.6,E,D*21
$GPRMB,A,0.00,L,Shil,Shil,4741.0830,N,12224.5670,W,0.2,221,-3.09,V*20
$PGRME,2.4,M,2.4,M,3.4,M*29
$HCHDG,23.5,0.0,E,,*1D
$HCHDG,23.4,0.0,E,,*1C
$GPRMC,060030.8,A,4741.26255,N,12224.33509,W,003.12,039.8,120813,016.6,E,D*2E
$PGRME,2.4,M,2.4,M,3.4,M*29
$IIGLL,4741.262,N,12224.335,W,060000,A,A*46
$HCHDG,23.4,0.0,E,,*1C
$IIMTW,+14.0,C*3D
$IIMWV,331,R,11.6,N,A*14
$YXXDR,A,5.7,D,PTCH,A,4.6,D,ROLL*5D
$PTAK,FFD1,4.6*57
$IIMWV,321,T,08.5,N,A*18
$HCHDG,23.0,0.0,E,,*18
$GPRMC,060031.0,A,4741.26272,N,12224.33491,W,003.13,039.2,120813,016.6,E,D*29
$PGRME,2.4,M,2.4,M,3.4,M*29
$HCHDG,23.1,0.0,E,,*19
$IIRMB,A,0.00,L,,Shil,,,,,000.2,221,,V,A*7A
$HCHDG,22.7,0.0,E,,*1E
$GPRMC,060031.2,A,4741.26282,N,12224.33477,W,003.10,040.1,120813,016.6,E,D*22
$IIRMC,060000,A,4741.262,N,12224.335,W,03.0,043,110813,16,E,A*13
$PGRME,2.4,M,2.4,M,3.4,M*29
$HCHDG,22.9,0.0,E,,*10
$IIVHW,,,,,03.2,N,,*18
$IIVLW,02115,N,007.1,N*52
$HCHDG,22.8,0.0,E,,*11
$GPRMC,060031.4,A,4741.26291,N,12224.33458,W,003.08,041.8,120813,016.6,E,D*2A
$PGRME,2.4,M,2.4,M,3.4,M*29
$YXXDR,A,6.9,D,PTCH,A,3.9,D,ROLL*58
$HCHDG,22.8,0.0,E,,*11
$HCHDG,22.8,0.0,E,,*11
$GPRMC,060031.6,A,4741.26302,N,12224.33432,W,003.06,042.7,120813,016.6,E,D*2D
$PGRME,2.4,M,2.4,M,3.4,M*29
$HCHDG,22.9,0.0,E,,*10
$HCHDG,22.8,0.0,E,,*11
$IIVWR,027,L,11.3,N,,,,*79
$GPRMC,060031.8,A,4741.26313,N,12224.33411,W,003.05,042.5,120813,016.6,E,D*23
$GPRMB,A,0.00,L,Shil,Shil,4741.0830,N,12224.5670,W,0.2,221,-3.05,V*2C
$PGRME,2.4,M,2.4,M,3.4,M*29
$IIDPT,011.7,-1.0,*47
$HCHDG,22.4,0.0,E,,*1D
$YXXDR,A,5.7,D,PTCH,A,3.8,D,ROLL*54
$PTAK,FFD1,3.8*5E
$IIGLL,4741.262,N,12224.334,W,060000,A,A*47
$HCHDG,22.4,0.0,E,,*1D
$IIMTW,+14.0,C*3D
$GPRMC,060032.0,A,4741.26323,N,12224.33394,W,003.06,042.0,120813,016.6,E,D*27
$PGRME,2.4,M,2.4,M,3.4,M*29
$IIMWV,333,R,11.3,N,A*13
$HCHDG,22.0,0.0,E,,*19
$IIMWV,321,T,08.6,N,A*1B
$HCHDG,21.8,0.0,E,,*12
$PTAK,FFP1,HEEL,@*07
$IIRMB,A,0.00,L,,Shil,,,,,000.2,221,,V,A*7A
$GPRMC,060032.2,A,4741.26340,N,12224.33375,W,003.08,041.7,120813,016.6,E,D*25
$PGRME,2.4,M,2.4,M,3.4,M*29
$HCHDG,22.0,0.0,E,,*19
$IIRMC,060000,A,4741.262,N,12224.334,W,03.1,040,110813,16,E,A*10
$HCHDG,21.9,0.0,E,,*13
$GPRMC,060032.4,A,4741.26353,N,12224.33359,W,003.10,040.1,120813,016.6,E,D*21
$PGRME,2.4,M,2.4,M,3.4,M*29
$YXXDR,A,5.9,D,PTCH,A,4.3,D,ROLL*56
$HCHDG,22.2,0.0,E,,*1B
$HCHDG,22.1,0.0,E,,*18
$GPRMC,060032.6,A,4741.26361,N,12224.33358,W,003.13,038.8,120813,016.6,E,D*26
$PGRME,2.4,M,2.4,M,3.4,M*29
$HCHDG,22.1,0.0,E,,*18
$HCHDG,22.5,0.0,E,,*1C
$GPRMC,060032.8,A,4741.26370,N,12224.33350,W,003.16,037.1,120813,016.6,E,D*23
$PGRME,2.4,M,2.4,M,3.4,M*29
$HCHDG,22.4,0.0,E,,*1D
$YXXDR,A,6.0,D,PTCH,A,4.6,D,ROLL*59
$HCHDG,22.4,0.0,E,,*1D
$GPRMC,060033.0,A,4741.26382,N,12224.33326,W,003.17,037.2,120813,016.6,E,D*24
$GPRMB,A,0.00,L,Shil,Shil,4741.0830,N,12224.5670,W,0.2,221,-3.16,V*2E
$PGRME,2.4,M,2.4,M,3.4,M*29
$HCHDG,22.5,0.0,E,,*1C
$HCHDG,22.6,0.0,E,,*1F
$GPRMC,060033.2,A,4741.26398,N,12224.33309,W,003.19,038.8,120813,016.6,E,D*2B
$PGRME,2.4,M,2.4,M,3.4,M*29
$HCHDG,22.6,0.0,E,,*1F
$HCHDG,22.5,0.0,E,,*1C
$GPRMC,060033.4,A,4741.26410,N,12224.33297,W,003.20,040.7,120813,016.6,E,D*26
$PGRME,2.4,M,2.4,M,3.4,M*29
$YXXDR,A,5.7,D,PTCH,A,4.4,D,ROLL*5F
$PTAK,FFD1,4.4*55
$HCHDG,22.4,0.0,E,,*1D
$HCHDG,22.4,0.0,E,,*1D
$GPRMC,060033.6,A,4741.26411,N,12224.33276,W,003.20,043.7,120813,016.6,E,D*29
$PGRME,2.4,M,2.4,M,3.4,M*29
$HCHDG,22.1,0.0,E,,*18
$HCHDG,22.0,0.0,E,,*19
$GPRMC,060033.8,A,4741.26421,N,12224.33259,W,003.19,039.9,120813,016.6,E,D*20
$PGRME,2.4,M,2.4,M,3.4,M*29
$HCHDG,21.7,0.0,E,,*1D
$YXXDR,A,6.0,D,PTCH,A,3.8,D,ROLL*50
$HCHDG,21.7,0.0,E,,*1D
$GPRMC,060034.0,A,4741.26432,N,12224.33241,W,003.20,040.7,120813,016.6,E,D*2E
$GPRMB,A,0.00,L,Shil,Shil,4741.0830,N,12224.5670,W,0.2,221,-3.20,V*2B
$PGRME,2.4,M,2.4,M,3.4,M*29
$HCHDG,21.7,0.0,E,,*1D
$HCHDG,21.8,0.0,E,,*12
$GPRMC,060034.2,A,4741.26435,N,12224.33222,W,003.19,041.0,120813,016.6,E,D*22
$PGRME,2.4,M,2.4,M,3.4,M*29
$HCHDG,21.8,0.0,E,,*12
$HCHDG,21.9,0.0,E,,*13
$GPRMC,060034.4,A,4741.26450,N,12224.33197,W,003.16,039.9,120813,016.6,E,D*23
$PGRME,2.4,M,2.4,M,3.4,M*29
$YXXDR,A,5.9,D,PTCH,A,3.7,D,ROLL*55
$HCHDG,21.8,0.0,E,,*12
$HCHDG,21.9,0.0,E,,*13
$GPRMC,060034.6,A,4741.26467,N,12224.33180,W,003.14,039.2,120813,016.6,E,D*2A
$PGRME,2.4,M,2.4,M,3.4,M*29
$HCHDG,21.8,0.0,E,,*12
$HCHDG,21.8,0.0,E,,*12
$IIVHW,,,,,03.3,N,,*19
$GPRMC,060034.8,A,4741.26479,N,12224.33170,W,003.10,040.5,120813,016.6,E,D*29
$PGRME,2.4,M,2.4,M,3.4,M*29
$IIVLW,02115,N,007.1,N*52
$HCHDG,21.8,0.0,E,,*12
$IIVWR,027,L,11.5,N,,,,*7F
$YXXDR,A,6.0,D,PTCH,A,4.3,D,ROLL*5C
$PTAK,FFD1,4.3*52
$IIDPT,011.7,-1.0,*47
$HCHDG,21.8,0.0,E,,*12
$GPRMC,060035.0,A,4741.26499,N,12224.33159,W,003.06,040.1,120813,016.6,E,D*26
$PGRME,2.4,M,2.4,M,3.4,M*29
$IIGLL,4741.263,N,12224.333,W,060000,A,A*41
$HCHDG,21.9,0.0,E,,*13
$IIMTW,+14.0,C*3D
$IIMWV,333,R,11.5,N,A*15
$HCHDG,21.9,0.0,E,,*13
$IIMWV,323,T,08.3,N,A*1C
$GPRMC,060035.2,A,4741.26517,N,12224.33139,W,003.04,042.2,120813,016.6,E,D*26
$GPRMB,A,0.00,L,Shil,Shil,4741.0830,N,12224.5670,W,0.2,221,-3.04,V*2D
$PGRME,2.4,M,2.4,M,3.4,M*29
$HCHDG,21.8,0.0,E,,*12
$IIRMB,A,0.00,L,,Shil,,,,,000.2,221,,V,A*7A
$HCHDG,21.7,0.0,E,,*1D
$GPRMC,060035.4,A,4741.26530,N,12224.33125,W,003.02,040.3,120813,016.6,E,D*2D
$PGRME,2.4,M,2.4,M,3.4,M*29
$YXXDR,A,6.2,D,PTCH,A,4.1,D,ROLL*5C
$HCHDG,21.7,0.0,E,,*1D
$HCHDG,21.7,0.0,E,,*1D
$GPRMC,060035.6,A,4741.26545,N,12224.33105,W,003.04,041.9,120813,016.6,E,D*22
$PGRME,2.4,M,2.4,M,3.4,M*29
$HCHDG,21.5,0.0,E,,*1F
$HCHDG,21.3,0.0,E,,*19
$GPRMC,060035.8,A,4741.26555,N,12224.33079,W,003.05,039.8,120813,016.6,E,D*28
$PGRME,2.4,M,2.4,M,3.4,M*29
$HCHDG,21.3,0.0,E,,*19
$IIRMC,060000,A,4741.264,N,12224.331,W,03.1,039,110813,16,E,A*1D
$IIVHW,,,,,03.2,N,,*18
$YXXDR,A,6.3,D,PTCH,A,4.7,D,ROLL*5B
$PTAK,FFD1,4.7*56
$HCHDG,21.5,0.0,E,,*1F
$IIVLW,02115,N,007.1,N*52
$GPRMC,060036.0,A,4741.26575,N,12224.33053,W,003.07,036.8,120813,016.6,E,D*24
$PGRME,2.4,M,2.4,M,3.4,M*29
$IIVWR,027,L,11.6,N,,,,*7C
$HCHDG,21.6,0.0,E,,*1C
$IIDPT,011.6,-1.0,*46
$HCHDG,21.7,0.0,E,,*1D
$IIGLL,4741.264,N,12224.331,W,060000,A,A*44
$GPRMC,060036.2,A,4741.26590,N,12224.33048,W,003.11,035.1,120813,016.6,E,D*2A
$PTAK,FFP1,HEEL,@*07
$PGRME,2.4,M,2.4,M,3.4,M*29
$IIMTW,+14.0,C*3D
$HCHDG,22.0,0.0,E,,*19
$IIMWV,333,R,11.6,N,A*16
$IIMWV,324,T,08.8,N,A*10
$HCHDG,21.9,0.0,E,,*13
$GPRMC,060036.4,A,4741.26605,N,12224.33030,W,003.09,036.9,120813,016.6,E,D*2E
$GPRMB,A,0.00,L,Shil,Shil,4741.0830,N,12224.5670,W,0.2,221,-3.08,V*21
$PGRME,2.4,M,2.4,M,3.4,M*29
$YXXDR,A,6.4,D,PTCH,A,5.0,D,ROLL*5A
$HCHDG,22.0,0.0,E,,*19
$HCHDG,21.7,0.0,E,,*1D
$GPRMC,060036.6,A,4741.26624,N,12224.33024,W,003.08,036.6,120813,016.6,E,D*24
$PGRME,2.4,M,2.4,M,3.4,M*29
$HCHDG,21.8,0.0,E,,*12
$HCHDG,22.0,0.0,E,,*19
$GPRMC,060036.8,A,4741.26642,N,12224.33011,W,003.06,040.9,120813,016.6,E,D*2C
$PGRME,2.4,M,2.4,M,3.4,M*29
$IIRMB,A,0.00,L,,Shil,,,,,000.2,221,,V,A*7A
$HCHDG,21.7,0.0,E,,*1D
$YXXDR,A,6.1,D,PTCH,A,3.9,D,ROLL*50
$IIRMC,060000,A,4741.266,N,12224.330,W,03.0,036,110813,16,E,A*10
$HCHDG,21.6,0.0,E,,*1C
$GPRMC,060037.0,A,4741.26652,N,12224.33004,W,003.06,041.5,120813,016.6,E,D*2D
$PGRME,2.4,M,2.4,M,3.4,M*29
$IIVHW,,,,,03.2,N,,*18
$HCHDG,21.8,0.0,E,,*12
$IIVLW,02115,N,007.1,N*52
$IIVWR,029,L,11.7,N,,,,*73
$HCHDG,21.7,0.0,E,,*1D
$IIDPT,011.6,-1.0,*46
$GPRMC,060037.2,A,4741.26663,N,12224.32985,W,003.05,040.4,120813,016.6,E,D*2F
$PGRME,2.4,M,2.4,M,3.4,M*29
$HCHDG,21.7,0.0,E,,*1D
$IIGLL,4741.266,N,12224.330,W,060000,A,A*47
$IIMTW,+14.0,C*3D
$HCHDG,21.5,0.0,E,,*1F
$GPRMC,060037.4,A,4741.26674,N,12224.32975,W,003.06,038.4,120813,016.6,E,D*2C
$PGRME,2.4,M,2.4,M,3.4,M*29
$YXXDR,A,5.5,D,PTCH,A,3.7,D,ROLL*59
$PTAK,FFD1,3.7*51
$HCHDG,21.6,0.0,E,,*1C
$HCHDG,21.7,0.0,E,,*1D
$GPRMC,060037.6,A,4741.26686,N,12224.32969,W,003.08,038.1,120813,016.6,E,D*25
$GPRMB,A,0.00,L,Shil,Shil,4741.0830,N,12224.5670,W,0.2,221,-3.08,V*21
$PGRME,2.4,M,2.4,M,3.4,M*29
$HCHDG,21.9,0.0,E,,*13
$HCHDG,21.9,0.0,E,,*13
$IIMWV,331,R,11.6,N,A*14
$GPRMC,060037.8,A,4741.26700,N,12224.32942,W,003.09,036.5,120813,016.6,E,D*26
$PGRME,2.4,M,2.4,M,3.4,M*29
$IIMWV,320,T,08.8,N,A*14
$HCHDG,22.1,0.0,E,,*18
$YXXDR,A,6.5,D,PTCH,A,4.2,D,ROLL*58
$IIRMB,A,0.00,L,,Shil,,,,,000.2,221,,V,A*7A
$HCHDG,22.3,0.0,E,,*1A
$GPRMC,060038.0,A,4741.26717,N,12224.32925,W,003.07,035.4,120813,016.6,E,D*2A
$PGRME,2.4,M,2.4,M,3.4,M*29
$HCHDG,22.8,0.0,E,,*11
$IIRMC,060000,A,4741.266,N,12224.330,W,03.0,036,110813,16,E,A*10
$IIVHW,,,,,03.2,N,,*18
$HCHDG,22.9,0.0,E,,*10
$IIVLW,02115,N,007.1,N*52
$GPRMC,060038.2,A,4741.26731,N,12224.32904,W,003.03,035.0,120813,016.6,E,D*2F
$PGRME,2.4,M,2.4,M,3.4,M*29
$IIVWR,029,L,11.6,N,,,,*72
$HCHDG,22.8,0.0,E,,*11
$IIDPT,011.6,-1.0,*46
$HCHDG,23.1,0.0,E,,*19
$GPRMC,060038.4,A,4741.26742,N,12224.32892,W,003.01,035.9,120813,016.6,E,D*28
$PGRME,2.4,M,2.4,M,3.4,M*29
$YXXDR,A,5.7,D,PTCH,A,4.2,D,ROLL*59
$HCHDG,22.8,0.0,E,,*11
$HCHDG,22.9,0.0,E,,*10
$GPRMC,060038.6,A,4741.26750,N,12224.32872,W,002.97,038.8,120813,016.6,E,D*25
$PGRME,2.4,M,2.4,M,3.4,M*29
$HCHDG,22.8,0.0,E,,*11
$HCHDG,23.0,0.0,E,,*18
$GPRMC,060038.8,A,4741.26760,N,12224.32859,W,002.94,040.9,120813,016.6,E,D*2C
$GPRMB,A,0.00,L,Shil,Shil,4741.0830,N,12224.5670,W,0.2,221,-2.94,V*25
$PGRME,2.4,M,2.4,M,3.4,M*29
$IIGLL,4741.266,N,12224.329,W,060000,A,A*4F
$HCHDG,22.9,0.0,E,,*10
$IIMTW,+14.0,C*3D
$IIMWV,331,R,11.8,N,A*1A
$YXXDR,A,5.5,D,PTCH,A,3.4,D,ROLL*5A
$PTAK,FFD1,3.4*52
$HCHDG,22.6,0.0,E,,*1F
$IIMWV,321,T,08.6,N,A*1B
$GPRMC,060039.0,A,4741.26776,N,12224.32841,W,002.97,040.1,120813,016.6,E,D*20
$PGRME,2.4,M,2.4,M,3.4,M*29
$HCHDG,22.7,0.0,E,,*1E
$IIRMB,A,0.00,L,,Shil,,,,,000.2,221,,V,A*7A
$HCHDG,22.8,0.0,E,,*11
$GPRMC,060039.2,A,4741.26789,N,12224.32816,W,002.98,038.7,120813,016.6,E,D*26
$IIRMC,060000,A,4741.266,N,12224.329,W,03.0,038,110813,16,E,A*16
$PGRME,2.4,M,2.4,M,3.4,M*29
$HCHDG,22.7,0.0,E,,*1E
$IIVHW,,,,,03.2,N,,*18
$IIVLW,02115,N,007.1,N*52
$HCHDG,22.8,0.0,E,,*11
$GPRMC,060039.4,A,4741.26802,N,12224.32801,W,002.99,036.5,120813,016.6,E,D*27
$PGRME,2.4,M,2.4,M,3.4,M*29
$YXXDR,A,6.4,D,PTCH,A,3.5,D,ROLL*59
$HCHDG,23.1,0.0,E,,*19
$HCHDG,23.0,0.0,E,,*18
$GPRMC,060039.6,A,4741.26821,N,12224.32791,W,003.01,037.0,120813,016.6,E,D*26
$PGRME,2.4,M,2.4,M,3.4,M*29
$HCHDG,23.4,0.0,E,,*1C
$HCHDG,23.3,0.0,E,,*1B
$IIVWR,030,L,11.7,N,,,,*7B
$GPRMC,060039.8,A,4741.26838,N,12224.32774,W,003.00,038.3,120813,016.6,E,D*26
$GPRMB,A,0.00,L,Shil,Shil,4741.0830,N,12224.5670,W,0.2,221,-3.00,V*29
$PGRME,2.4,M,2.4,M,3.4,M*29
$IIDPT,011.4,-1.0,*44
$HCHDG,23.6,0.0,E,,*1E
$YXXDR,A,6.2,D,PTCH,A,4.1,D,ROLL*5C
$IIGLL,4741.267,N,12224.328,W,060000,A,A*4F
$HCHDG,23.7,0.0,E,,*1F
$IIMTW,+14.0,C*3D
$GPRMC,060040.0,A,4741.26851,N,12224.32771,W,002.98,038.8,120813,016.6,E,D*21
$PGRME,2.4,M,2.4,M,3.4,M*29
$IIMWV,330,R,11.7,N,A*14
$HCHDG,23.7,0.0,E,,*1F
$IIMWV,321,T,08.8,N,A*15
$HCHDG,23.9,0.0,E,,*11
$IIRMB,A,0.00,L,,Shil,,,,,000.2,221,,V,A*7A
$GPRMC,060040.2,A,4741.26865,N,12224.32754,W,002.98,042.6,120813,016.6,E,D*20
$PGRME,2.4,M,2.4,M,3.4,M*29
$HCHDG,23.9,0.0,E,,*11
$PTAK,FFP1,HEEL,@*07
$IIRMC,060000,A,4741.267,N,12224.328,W,02.9,038,110813,16,E,A*1E
$HCHDG,24.1,0.0,E,,*1E
$GPRMC,060040.4,A,4741.26880,N,12224.32726,W,002.99,040.6,120813,016.6,E,D*2B
$PGRME,2.4,M,2.4,M,3.4,M*29
$YXXDR,A,5.7,D,PTCH,A,3.8,D,ROLL*54
$PTAK,FFD1,3.8*5E
$HCHDG,24.2,0.0,E,,*1D
$HCHDG,24.1,0.0,E,,*1E
$GPRMC,060040.6,A,4741.26895,N,12224.32700,W,003.00,040.4,120813,016.6,E,D*2A
$PGRME,2.4,M,2.4,M,3.4,M*29
$HCHDG,24.0,0.0,E,,*1F
$HCHDG,24.1,0.0,E,,*1E
$IIVHW,,,,,03.3,N,,*19
$GPRMC,060040.8,A,4741.26906,N,12224.32687,W,003.02,038.1,120813,016.6,E,D*29
$PGRME,2.4,M,2.4,M,3.4,M*29
$IIVLW,02115,N,007.1,N*52
$HCHDG,24.3,0.0,E,,*1C
$IIVWR,030,L,11.8,N,,,,*74
$YXXDR,A,6.3,D,PTCH,A,3.7,D,ROLL*5C
$IIDPT,011.4,-1.0,*44
$HCHDG,24.6,0.0,E,,*19
$GPRMC,060041.0,A,4741.26906,N,12224.32660,W,003.02,036.9,120813,016.6,E,D*2F
$GPRMB,A,0.00,L,Shil,Shil,4741.0830,N,12224.5670,W,0.2,221,-3.01,V*28
$PGRME,2.4,M,2.4,M,3.4,M*29
$IIGLL,4741.268,N,12224.327,W,060000,A,A*4F
$HCHDG,25.0,0.0,E,,*1E
$IIMTW,+14.0,C*3D
$IIMWV,330,R,11.8,N,A*1B
$HCHDG,25.3,0.0,E,,*1D
$IIMWV,320,T,08.9,N,A*15
$GPRMC,060041.2,A,4741.26927,N,12224.32631,W,003.00,035.6,120813,016.6,E,D*24
$PGRME,2.4,M,2.4,M,3.4,M*29
$HCHDG,25.5,0.0,E,,*1B
$IIRMB,A,0.00,L,,Shil,,,,,000.2,221,,V,A*7A
$HCHDG,26.0,0.0,E,,*1D
$GPRMC,060041.4,A,4741.26947,N,12224.32615,W,002.96,035.8,120813,016.6,E,D*22
$PGRME,2.4,M,2.4,M,3.4,M*29
$YXXDR,A,5.9,D,PTCH,A,4.3,D,ROLL*56
$PTAK,FFD1,4.3*52
$HCHDG,26.1,0.0,E,,*1C
$HCHDG,26.0,0.0,E,,*1D
$GPRMC,060041.6,A,4741.26964,N,12224.32597,W,002.93,038.0,120813,016.6,E,D*28
$PGRME,2.4,M,2.4,M,3.4,M*29
$HCHDG,26.5,0.0,E,,*18
$HCHDG,26.6,0.0,E,,*1B
$GPRMC,060041.8,A,4741.26984,N,12224.32586,W,002.89,042.2,120813,016.6,E,D*2C
$PGRME,2.4,M,2.4,M,3.4,M*29
$HCHDG,26.5,0.0,E,,*18
$IIRMC,060000,A,4741.269,N,12224.326,W,03.0,038,110813,16,E,A*16
$IIVHW,,,,,03.3,N,,*19
$YXXDR,A,5.2,D,PTCH,A,3.1,D,ROLL*58
$HCHDG,26.7,0.0,E,,*1A
$IIVLW,02115,N,007.1,N*52
$GPRMC,060042.0,A,4741.27000,N,12224.32574,W,002.87,042.7,120813,016.6,E,D*25
$GPRMB,A,0.00,L,Shil,Shil,4741.0830,N,12224.5670,W,0.2,221,-2.87,V*27
$PGRME,2.4,M,2.4,M,3.4,M*29
$IIVWR,031,L,11.7,N,,,,*7A
$HCHDG,26.7,0.0,E,,*1A
$IIDPT,011.4,-1.0,*44
$HCHDG,27.0,0.0,E,,*1C
$IIGLL,4741.269,N,12224.326,W,060000,A,A*4F
$GPRMC,060042.2,A,4741.27007,N,12224.32554,W,002.88,042.4,120813,016.6,E,D*2E
$PGRME,2.4,M,2.4,M,3.4,M*29
$IIMTW,+13.5,C*3F
$HCHDG,27.1,0.0,E,,*1D
$IIMWV,329,R,11.7,N,A*1C
$IIMWV,319,T,09.0,N,A*17
$HCHDG,27.4,0.0,E,,*18
$GPRMC,060042.4,A,4741.27016,N,12224.32529,W,002.88,041.4,120813,016.6,E,D*21
$PGRME,2.4,M,2.4,M,3.4,M*29
$YXXDR,A,5.5,D,PTCH,A,3.1,D,ROLL*5F
$HCHDG,27.7,0.0,E,,*1B
$HCHDG,27.8,0.0,E,,*14
$GPRMC,060042.6,A,4741.27027,N,12224.32504,W,002.91,040.6,120813,016.6,E,D*25
$PGRME,2.4,M,2.4,M,3.4,M*29
$HCHDG,28.0,0.0,E,,*13
$HCHDG,28.2,0.0,E,,*11
$GPRMC,060042.8,A,4741.27041,N,12224.32485,W,002.92,038.6,120813,016.6,E,D*2F
$PGRME,2.4,M,2.4,M,3.4,M*29
$IIRMB,A,0.00,L,,Shil,,,,,000.2,221,,V,A*7A
$HCHDG,28.5,0.0,E,,*16
$YXXDR,A,5.5,D,PTCH,A,3.8,D,ROLL*56
$PTAK,FFD1,3.8*5E
$IIRMC,060000,A,4741.269,N,12224.325,W,02.8,042,110813,16,E,A*11
$HCHDG,29.0,0.0,E,,*12
$GPRMC,060043.0,A,4741.27052,N,12224.32458,W,002.93,038.7,120813,016.6,E,D*24
$GPRMB,A,0.00,L,Shil,Shil,4741.0830,N,12224.5670,W,0.2,221,-2.93,V*22
$PGRME,2.4,M,2.4,M,3.4,M*29
$IIVHW,,,,,03.3,N,,*19
$HCHDG,29.1,0.0,E,,*13
$IIVLW,02115,N,007.1,N*52
$IIVWR,032,L,11.8,N,,,,*76
$HCHDG,29.3,0.0,E,,*11
$IIDPT,011.4,-1.0,*44
$GPRMC,060043.2,A,4741.27062,N,12224.32432,W,002.94,040.0,120813,016.6,E,D*26
$PGRME,2.4,M,2.4,M,3.4,M*29
$HCHDG,29.5,0.0,E,,*17
$IIGLL,4741.269,N,12224.325,W,060000,A,A*4C
$IIMTW,+13.5,C*3F
$HCHDG,29.5,0.0,E,,*17
$GPRMC,060043.4,A,4741.27072,N,12224.32414,W,002.94,041.6,120813,016.6,E,D*22
$PGRME,2.4,M,2.4,M,3.4,M*29
$YXXDR,A,6.7,D,PTCH,A,3.6,D,ROLL*59
$HCHDG,29.7,0.0,E,,*15
$HCHDG,29.9,0.0,E,,*1B
$GPRMC,060043.6,A,4741.27080,N,12224.32399,W,002.93,047.5,120813,016.6,E,D*2D
$PGRME,2.4,M,2.4,M,3.4,M*29
$HCHDG,30.2,0.0,E,,*18
$HCHDG,30.2,0.0,E,,*18
$IIMWV,329,R,11.5,N,A*1E
$GPRMC,060043.8,A,4741.27096,N,12224.32377,W,002.93,042.4,120813,016.6,E,D*20
$PGRME,2.4,M,2.4,M,3.4,M*29
$IIMWV,317,T,09.1,N,A*18
$HCHDG,30.5,0.0,E,,*1F
$YXXDR,A,6.3,D,PTCH,A,3.3,D,ROLL*58
$IIRMB,A,0.00,L,,Shil,,,,,000.2,221,,V,A*7A
$HCHDG,30.7,0.0,E,,*1D
$GPRMC,060044.0,A,4741.27111,N,12224.32352,W,002.93,043.8,120813,016.6,E,D*2B
$PGRME,2.4,M,2.4,M,3.4,M*29
$PGRMT,GPS 18x-5Hz software ver. 3.20,,,,,,,,*30
$HCHDG,31.1,0.0,E,,*1A
$IIRMC,060000,A,4741.270,N,12224.324,W,02.9,038,110813,16,E,A*14
$IIVHW,,,,,03.3,N,,*19
$HCHDG,31.4,0.0,E,,*1F
$IIVLW,02115,N,007.1,N*52
$GPRMC,060044.2,A,4741.27127,N,12224.32334,W,002.93,045.4,120813,016.6,E,D*26
$GPRMB,A,0.00,L,Shil,Shil,4741.0830,N,12224.5670,W,0.2,221,-2.92,V*23
$PGRME,2.4,M,2.4,M,3.4,M*29
$IIVWR,031,L,11.5,N,,,,*78
$HCHDG,31.6,0.0,E,,*1D
$PTAK,FFP1,HEEL,@*07
$IIDPT,011.2,-1.0,*42
$HCHDG,31.7,0.0,E,,*1C
$GPRMC,060044.4,A,4741.27139,N,12224.32318,W,002.94,044.5,120813,016.6,E,D*26
$PGRME,2.4,M,2.4,M,3.4,M*29
$YXXDR,A,6.3,D,PTCH,A,3.2,D,ROLL*59
$PTAK,FFD1,3.2*54
$HCHDG,31.9,0.0,E,,*12
$HCHDG,31.9,0.0,E,,*12
$GPRMC,060044.6,A,4741.27145,N,12224.32308,W,002.94,044.9,120813,016.6,E,D*22
$PGRME,2.4,M,2.4,M,3.4,M*29
$HCHDG,32.4,0.0,E,,*1C
$HCHDG,32.6,0.0,E,,*1E
$GPRMC,060044.8,A,4741.27158,N,12224.32287,W,002.95,043.6,120813,016.6,E,D*2F
$PGRME,2.4,M,2.4,M,3.4,M*29
$IIGLL,4741.270,N,12224.323,W,060000,A,A*42
$HCHDG,33.1,0.0,E,,*18
$IIMTW,+13.5,C*3F
$IIMWV,328,R,11.2,N,A*18
$YXXDR,A,5.8,D,PTCH,A,3.9,D,ROLL*5A
$HCHDG,33.4,0.0,E,,*1D
$IIMWV,318,T,08.7,N,A*10
$GPRMC,060045.0,A,4741.27170,N,12224.32268,W,002.96,044.4,120813,016.6,E,D*2B
$PGRME,2.4,M,2.4,M,3.4,M*29
$HCHDG,33.5,0.0,E,,*1C
$IIRMB,A,0.00,L,,Shil,,,,,000.2,221,,V,A*7A
$HCHDG,33.7,0.0,E,,*1E
$GPRMC,060045.2,A,4741.27185,N,12224.32237,W,002.96,045.3,120813,016.6,E,D*2F
$IIRMC,060000,A,4741.270,N,12224.323,W,02.9,042,110813,16,E,A*1E
$PGRME,2.4,M,2.4,M,3.4,M*29
$HCHDG,33.7,0.0,E,,*1E
$IIVHW,,,,,03.2,N,,*18
$IIVLW,02115,N,007.1,N*52
$HCHDG,34.2,0.0,E,,*1C
$GPRMC,060045.4,A,4741.27195,N,12224.32210,W,002.94,045.6,120813,016.6,E,D*2A
$GPRMB,A,0.00,L,Shil,Shil,4741.0830,N,12224.5670,W,0.3,221,-2.93,V*23
$PGRME,2.4,M,2.4,M,3.4,M*29
$YXXDR,A,6.1,D,PTCH,A,3.3,D,ROLL*5A
$PTAK,FFD1,3.3*55
$HCHDG,34.2,0.0,E,,*1C
$HCHDG,34.6,0.0,E,,*18
$GPRMC,060045.6,A,4741.27203,N,12224.32184,W,002.91,046.8,120813,016.6,E,D*22
$PGRME,2.4,M,2.4,M,3.4,M*29
$HCHDG,34.9,0.0,E,,*17
$HCHDG,35.2,0.0,E,,*1D
$IIVWR,033,L,10.9,N,,,,*77
$GPRMC,060045.8,A,4741.27214,N,12224.32162,W,002.90,045.1,120813,016.6,E,D*29
$PGRME,2.4,M,2.4,M,3.4,M*29
$IIDPT,011.0,-1.0,*40
$HCHDG,35.4,0.0,E,,*1B
$YXXDR,A,6.4,D,PTCH,A,3.3,D,ROLL*5F
$IIGLL,4741.271,N,12224.322,W,060000,A,A*42
$IIMTW,+13.5,C*3F
$HCHDG,35.7,0.0,E,,*18
$GPRMC,060046.0,A,4741.27221,N,12224.32137,W,002.89,045.3,120813,016.6,E,D*2E
$PGRME,2.4,M,2.4,M,3.4,M*29
$IIMWV,327,R,10.9,N,A*1D
$HCHDG,36.1,0.0,E,,*1D
$IIMWV,316,T,08.5,N,A*1C
$HCHDG,36.2,0.0,E,,*1E
$IIRMB,A,0.00,L,,Shil,,,,,000.2,221,,V,A*7A
$GPRMC,060046.2,A,4741.27230,N,12224.32133,W,002.88,047.6,120813,016.6,E,D*2E
$PGRME,2.4,M,2.4,M,3.4,M*29
$HCHDG,36.2,0.0,E,,*1E
$IIRMC,060000,A,4741.271,N,12224.322,W,02.9,043,110813,16,E,A*1F
$HCHDG,36.7,0.0,E,,*1B
$GPRMC,060046.4,A,4741.27247,N,12224.32122,W,002.86,049.9,120813,016.6,E,D*27
$GPRMB,A,0.00,L,Shil,Shil,4741.0830,N,12224.5670,W,0.3,221,-2.83,V*22
$PGRME,2.4,M,2.4,M,3.4,M*29
$YXXDR,A,6.3,D,PTCH,A,3.2,D,ROLL*59
$HCHDG,36.9,0.0,E,,*15
$HCHDG,37.1,0.0,E,,*1C
$GPRMC,060046.6,A,4741.27260,N,12224.32106,W,002.88,051.6,120813,016.6,E,D*2E
$PGRME,2.4,M,2.4,M,3.4,M*29
$HCHDG,37.2,0.0,E,,*1F
$HCHDG,37.3,0.0,E,,*1E
$IIVHW,,,,,03.2,N,,*18
$GPRMC,060046.8,A,4741.27269,N,12224.32091,W,002.89,050.3,120813,016.6,E,D*23
$PGRME,2.4,M,2.4,M,3.4,M*29
$IIVLW,02115,N,007.1,N*52
$HCHDG,37.6,0.0,E,,*1B
$IIVWR,034,L,10.5,N,,,,*7C
$YXXDR,A,5.8,D,PTCH,A,3.0,D,ROLL*53
$PTAK,FFD1,3.0*56
$IIDPT,011.0,-1.0,*40
$HCHDG,38.0,0.0,E,,*12
$GPRMC,060047.0,A,4741.27275,N,12224.32081,W,002.90,049.5,120813,016.6,E,D*20
$PGRME,2.4,M,2.4,M,3.4,M*29
$IIGLL,4741.272,N,12224.321,W,060000,A,A*42
$HCHDG,37.9,0.0,E,,*14
$IIMTW,+13.5,C*3F
$IIMWV,326,R,10.5,N,A*10
$HCHDG,38.3,0.0,E,,*11
$IIMWV,315,T,08.2,N,A*18
$GPRMC,060047.2,A,4741.27290,N,12224.32068,W,002.94,047.1,120813,016.6,E,D*20
$PGRME,2.4,M,2.4,M,3.4,M*29
$HCHDG,38.7,0.0,E,,*15
$IIRMB,A,0.00,L,,Shil,,,,,000.3,221,,V,A*7B
$HCHDG,39.0,0.0,E,,*13
$GPRMC,060047.4,A,4741.27307,N,12224.32049,W,002.96,048.3,120813,016.6,E,D*25
$GPRMB,A,0.00,L,Shil,Shil,4741.0830,N,12224.5670,W,0.3,221,-2.94,V*24
$PGRME,2.4,M,2.4,M,3.4,M*29
$YXXDR,A,6.0,D,PTCH,A,4.3,D,ROLL*5C
$HCHDG,39.1,0.0,E,,*12
$HCHDG,39.7,0.0,E,,*14
$GPRMC,060047.6,A,4741.27321,N,12224.32031,W,003.00,045.5,120813,016.6,E,D*29
$PGRME,2.4,M,2.4,M,3.4,M*29
$HCHDG,39.7,0.0,E,,*14
$HCHDG,40.0,0.0,E,,*1D
$GPRMC,060047.8,A,4741.27337,N,12224.32018,W,003.00,049.3,120813,016.6,E,D*21
$PGRME,2.4,M,2.4,M,3.4,M*29
$HCHDG,40.2,0.0,E,,*1F
$IIRMC,060000,A,4741.272,N,12224.320,W,02.8,050,110813,16,E,A*1D
$IIVHW,,,,,03.2,N,,*18
$YXXDR,A,6.4,D,PTCH,A,3.9,D,ROLL*55
$PTAK,FFD1,3.9*5F
$HCHDG,40.4,0.0,E,,*19
$IIVLW,02115,N,007.1,N*52
$GPRMC,060048.0,A,4741.27352,N,12224.32008,W,002.99,052.0,120813,016.6,E,D*2C
$PGRME,2.4,M,2.4,M,3.4,M*29
$IIVWR,039,L,10.4,N,,,,*70
$HCHDG,40.7,0.0,E,,*1A
$IIDPT,010.8,-1.0,*49
$HCHDG,40.9,0.0,E,,*14
$IIGLL,4741.272,N,12224.320,W,060000,A,A*43
$GPRMC,060048.2,A,4741.27360,N,12224.31993,W,002.98,054.4,120813,016.6,E,D*24
$PGRME,2.4,M,2.4,M,3.4,M*29
$IIMTW,+13.5,C*3F
$HCHDG,41.0,0.0,E,,*1C
$IIMWV,321,R,10.4,N,A*16
$IIMWV,313,T,07.9,N,A*1A
$HCHDG,41.1,0.0,E,,*1D
$GPRMC,060048.4,A,4741.27376,N,12224.31984,W,002.97,059.2,120813,016.6,E,D*27
$PGRME,2.4,M,2.4,M,3.4,M*29
$YXXDR,A,6.1,D,PTCH,A,2.9,D,ROLL*51
$PTAK,FFP1,HEEL,@*07
$HCHDG,41.0,0.0,E,,*1C
$HCHDG,41.1,0.0,E,,*1D
$GPRMC,060048.6,A,4741.27392,N,12224.31952,W,002.96,059.5,120813,016.6,E,D*22
$GPRMB,A,0.00,L,Shil,Shil,4741.0830,N,12224.5670,W,0.3,221,-2.81,V*20
$PGRME,2.4,M,2.4,M,3.4,M*29
$HCHDG,41.5,0.0,E,,*19
$HCHDG,41.7,0.0,E,,*1B
$GPRMC,060048.8,A,4741.27397,N,12224.31929,W,002.95,059.6,120813,016.6,E,D*25
$PGRME,2.4,M,2.4,M,3.4,M*29
$IIRMB,A,0.00,L,,Shil,,,,,000.3,221,,V,A*7B
$HCHDG,41.9,0.0,E,,*15
$YXXDR,A,6.1,D,PTCH,A,3.2,D,ROLL*5B
$IIRMC,060000,A,4741.272,N,12224.320,W,02.8,050,110813,16,E,A*1D
$HCHDG,42.0,0.0,E,,*1F
$GPRMC,060049.0,A,4741.27410,N,12224.31920,W,002.96,056.7,120813,016.6,E,D*20
$PGRME,2.4,M,2.4,M,3.4,M*29
$IIVHW,,,,,03.2,N,,*18
$HCHDG,42.4,0.0,E,,*1B
$IIVLW,02115,N,007.1,N*52
$IIVWR,040,L,10.4,N,,,,*7E
$HCHDG,42.9,0.0,E,,*16
$IIDPT,010.8,-1.0,*49
$GPRMC,060049.2,A,4741.27421,N,12224.31907,W,002.99,051.3,120813,016.6,E,D*29
$PGRME,2.4,M,2.4,M,3.4,M*29
$HCHDG,43.7,0.0,E,,*19
$IIGLL,4741.272,N,12224.320,W,060000,A,A*43
$IIMTW,+13.5,C*3F
$HCHDG,44.3,0.0,E,,*1A
$GPRMC,060049.4,A,4741.27434,N,12224.31881,W,003.20,050.3,120813,016.6,E,D*26
$PGRME,2.4,M,2.4,M,3.4,M*29
$YXXDR,A,5.8,D,PTCH,A,4.9,D,ROLL*5D
$PTAK,FFD1,4.9*58
$HCHDG,44.8,0.0,E,,*11
$HCHDG,45.0,0.0,E,,*18
$GPRMC,060049.6,A,4741.27447,N,12224.31851,W,003.16,051.1,120813,016.6,E,D*2B
$GPRMB,A,0.00,L,Shil,Shil,4741.0830,N,12224.5670,W,0.3,221,-3.11,V*28
$PGRME,2.4,M,2.4,M,3.4,M*29
$HCHDG,45.4,0.0,E,,*1C
$HCHDG,45.9,0.0,E,,*11
$IIMWV,316,R,10.4,N,A*12
$GPRMC,060049.8,A,4741.27460,N,12224.31821,W,003.16,052.3,120813,016.6,E,D*26
$PGRME,2.4,M,2.4,M,3.4,M*29
$IIMWV,305,T,08.1,N,A*1A
$HCHDG,46.0,0.0,E,,*1B
$YXXDR,A,5.6,D,PTCH,A,4.5,D,ROLL*5F
$IIRMB,A,0.00,L,,Shil,,,,,000.3,221,,V,A*7B
$HCHDG,46.2,0.0,E,,*19
$GPRMC,060050.0,A,4741.27467,N,12224.31795,W,003.09,053.5,120813,016.6,E,D*28
$PGRME,2.4,M,2.4,M,3.4,M*29
$HCHDG,46.5,0.0,E,,*1E
$IIRMC,060000,A,4741.273,N,12224.319,W,02.9,059,110813,16,E,A*1E
$IIVHW,,,,,03.1,N,,*1B
$HCHDG,46.6,0.0,E,,*1D
$IIVLW,02115,N,007.1,N*52
$GPRMC,060050.2,A,4741.27476,N,12224.31770,W,003.04,055.4,120813,016.6,E,D*2B
$PGRME,2.4,M,2.4,M,3.4,M*29
$IIVWR,044,L,10.4,N,,,,*7A
$HCHDG,46.9,0.0,E,,*12
$IIDPT,010.8,-1.0,*49
$HCHDG,47.1,0.0,E,,*1B
$GPRMC,060050.4,A,4741.27481,N,12224.31734,W,003.01,060.3,120813,016.6,E,D*21
$PGRME,2.4,M,2.4,M,3.4,M*29
$YXXDR,A,6.1,D,PTCH,A,2.3,D,ROLL*5B
$HCHDG,47.1,0.0,E,,*1B
$HCHDG,47.4,0.0,E,,*1E
