$GPRMB,A,4.04,L,,Mid,4731.1400,N,12228.9200,W,9.6,205,-0.08,V*63
$PGRME,3.0,M,3.0,M,4.3,M*29
$IIVWR,040,R,05.8,N,,,,*68
$IIDPT,003.9,-1.0,*4A
$HCHDG,310.4,0.0,E,,*2F
$PTAK,FFP1,HEEL,@*07
$IIGLL,4739.808,N,12222.944,W,150900,A,A*4E
$HCHDG,310.1,0.0,E,,*2A
$IIMTW,+19.5,C*35
$GPRMC,150945.6,A,4739.80875,N,12222.94478,W,000.08,000.0,030813,016.6,E,A*21
$GPRMB,A,4.04,L,,Mid,4731.1400,N,12228.9200,W,9.6,205,-0.07,V*6C
$PGRME,3.0,M,3.0,M,4.3,M*29
$IIMWV,040,R,05.8,N,A*1A
$HCHDG,310.0,0.0,E,,*2B
$IIMWV,034,T,05.0,N,A*17
$YXXDR,A,5.9,D,PTCH,A,5.2,D,ROLL*56
$PTAK,FFD1,5.2*52
$GPRMC,150945.8,A,4739.80871,N,12222.94478,W,000.05,000.0,030813,016.6,E,A*26
$PGRME,3.0,M,3.0,M,4.3,M*29
$HCHDG,310.0,0.0,E,,*2B
$HCHDG,309.9,0.0,E,,*2A
$HCHDG,309.8,0.0,E,,*2B
$GPRMC,150946.0,A,4739.80867,N,12222.94476,W,000.03,000.0,030813,016.6,E,A*22
$PGRME,3.0,M,3.0,M,4.3,M*29
$HCHDG,309.8,0.0,E,,*2B
$HCHDG,309.8,0.0,E,,*2B
$GPRMC,150946.2,A,4739.80867,N,12222.94483,W,000.05,000.0,030813,016.6,E,A*2C
$PGRME,3.0,M,3.0,M,4.3,M*29
$IIRMC,150900,A,4739.808,N,12222.944,W,00.1,000,030813,16,E,A*1D
$YXXDR,A,6.0,D,PTCH,A,4.9,D,ROLL*56
$IIVHW,,,,,00.0,N,,*19
$HCHDG,309.8,0.0,E,,*2B
$IIVLW,02012,N,000.0,N*52
$HCHDG,309.7,0.0,E,,*24
$GPRMC,150946.4,A,4739.80863,N,12222.94480,W,000.03,000.0,030813,016.6,E,A*2B
$PGRME,3.0,M,3.0,M,4.3,M*29
$IIVWR,030,R,05.8,N,,,,*6F
$IIDPT,003.9,-1.0,*4A
$HCHDG,309.7,0.0,E,,*24
$IIGLL,4739.808,N,12222.944,W,150900,A,A*4E
$HCHDG,309.7,0.0,E,,*24
$IIMTW,+19.5,C*35
$GPRMC,150946.6,A,4739.80863,N,12222.94469,W,000.02,000.0,030813,016.6,E,A*2F
$PGRME,3.0,M,3.0,M,4.3,M*29
$IIMWV,030,R,05.8,N,A*1D
$HCHDG,309.6,0.0,E,,*25
$IIMWV,040,T,05.8,N,A*1C
$YXXDR,A,6.0,D,PTCH,A,4.5,D,ROLL*5A
$GPRMC,150946.8,A,4739.80870,N,12222.94468,W,000.01,000.0,030813,016.6,E,A*21
$PGRME,3.0,M,3.0,M,4.3,M*29
$HCHDG,309.5,0.0,E,,*26
$HCHDG,309.5,0.0,E,,*26
$HCHDG,309.5,0.0,E,,*26
$GPRMC,150947.0,A,4739.80878,N,12222.94465,W,000.04,000.0,030813,016.6,E,A*28
$GPRMB,A,4.04,L,,Mid,4731.1400,N,12228.9200,W,9.6,205,-0.04,V*6F
$PGRME,3.0,M,3.0,M,4.3,M*29
$HCHDG,309.5,0.0,E,,*26
$HCHDG,309.4,0.0,E,,*27
$GPRMC,150947.2,A,4739.80875,N,12222.94457,W,000.06,000.0,030813,016.6,E,A*24
$PGRME,3.0,M,3.0,M,4.3,M*29
$IIRMC,150900,A,4739.808,N,12222.944,W,00.1,000,030813,16,E,A*1D
$YXXDR,A,6.0,D,PTCH,A,4.2,D,ROLL*5D
$PTAK,FFD1,4.2*53
$IIVHW,,,,,00.0,N,,*19
$HCHDG,309.5,0.0,E,,*26
$IIVLW,02012,N,000.0,N*52
$HCHDG,309.4,0.0,E,,*27
$GPRMC,150947.4,A,4739.80865,N,12222.94453,W,000.05,000.0,030813,016.6,E,A*24
$PGRME,3.0,M,3.0,M,4.3,M*29
$IIVWR,024,R,05.7,N,,,,*65
$IIDPT,003.9,-1.0,*4A
$HCHDG,309.4,0.0,E,,*27
$IIGLL,4739.808,N,12222.944,W,150900,A,A*4E
$HCHDG,309.4,0.0,E,,*27
$IIMTW,+19.5,C*35
$GPRMC,150947.6,A,4739.80862,N,12222.94443,W,000.03,000.0,030813,016.6,E,A*26
$PGRME,3.0,M,3.0,M,4.3,M*29
$IIMWV,024,R,05.7,N,A*17
$HCHDG,309.4,0.0,E,,*27
$IIMWV,030,T,05.8,N,A*1B
$YXXDR,A,5.9,D,PTCH,A,3.6,D,ROLL*54
$GPRMC,150947.8,A,4739.80863,N,12222.94437,W,000.02,000.0,030813,016.6,E,A*2B
$PGRME,3.0,M,3.0,M,4.3,M*29
$HCHDG,309.3,0.0,E,,*20
$HCHDG,309.3,0.0,E,,*20
$HCHDG,309.3,0.0,E,,*20
$GPRMC,150948.0,A,4739.80863,N,12222.94432,W,000.05,000.0,030813,016.6,E,A*2E
$PGRME,3.0,M,3.0,M,4.3,M*29
$HCHDG,309.2,0.0,E,,*21
$HCHDG,309.2,0.0,E,,*21
$GPRMC,150948.2,A,4739.80862,N,12222.94429,W,000.03,000.0,030813,016.6,E,A*21
$IIRMB,A,3.00,L,,Mid ,,,,,009.6,205,,V,A*2C
$PGRME,3.0,M,3.0,M,4.3,M*29
$YXXDR,A,6.0,D,PTCH,A,3.5,D,ROLL*5D
$HCHDG,309.3,0.0,E,,*20
$IIRMC,150900,A,4739.808,N,12222.944,W,00.1,000,030813,16,E,A*1D
$HCHDG,309.2,0.0,E,,*21
$IIVHW,,,,,00.0,N,,*19
$GPRMC,150948.4,A,4739.80854,N,12222.94436,W,000.03,000.0,030813,016.6,E,A*2C
$PGRME,3.0,M,3.0,M,4.3,M*29
$IIVLW,02012,N,000.0,N*52
$HCHDG,309.1,0.0,E,,*22
$IIVWR,032,R,05.7,N,,,,*62
$IIDPT,003.9,-1.0,*4A
$HCHDG,309.1,0.0,E,,*22
$GPRMC,150948.6,A,4739.80846,N,12222.94443,W,000.06,000.0,030813,016.6,E,A*2A
$GPRMB,A,4.04,L,,Mid,4731.1400,N,12228.9200,W,9.6,205,-0.05,V*6E
$PGRME,3.0,M,3.0,M,4.3,M*29
$IIGLL,4739.808,N,12222.944,W,150900,A,A*4E
$IIMTW,+19.5,C*35
$HCHDG,309.1,0.0,E,,*22
$YXXDR,A,5.8,D,PTCH,A,3.9,D,ROLL*5A
$PTAK,FFD1,3.9*5F
$GPRMC,150948.8,A,4739.80845,N,12222.94443,W,000.03,000.0,030813,016.6,E,A*22
$PGRME,3.0,M,3.0,M,4.3,M*29
$HCHDG,309.0,0.0,E,,*23
$HCHDG,309.1,0.0,E,,*22
$HCHDG,309.1,0.0,E,,*22
$GPRMC,150949.0,A,4739.80842,N,12222.94438,W,000.03,000.0,030813,016.6,E,A*20
$PGRME,3.0,M,3.0,M,4.3,M*29
$HCHDG,309.0,0.0,E,,*23
$IIMWV,041,R,06.4,N,A*14
$HCHDG,309.1,0.0,E,,*22
$GPRMC,150949.2,A,4739.80845,N,12222.94429,W,000.02,000.0,030813,016.6,E,A*24
$PGRME,3.0,M,3.0,M,4.3,M*29
$IIMWV,032,T,05.7,N,A*16
$YXXDR,A,6.0,D,PTCH,A,4.6,D,ROLL*59
$IIRMB,A,3.00,L,,Mid ,,,,,009.6,205,,V,A*2C
$HCHDG,309.0,0.0,E,,*23
$HCHDG,309.1,0.0,E,,*22
$GPRMC,150949.4,A,4739.80846,N,12222.94419,W,000.06,000.0,030813,016.6,E,A*26
$PGRME,3.0,M,3.0,M,4.3,M*29
$IIRMC,150900,A,4739.808,N,12222.944,W,00.0,000,030813,16,E,A*1C
$HCHDG,309.0,0.0,E,,*23
$IIVHW,,,,,00.0,N,,*19
$IIVLW,02012,N,000.0,N*52
$HCHDG,308.9,0.0,E,,*2B
$GPRMC,150949.6,A,4739.80844,N,12222.94410,W,000.04,000.0,030813,016.6,E,A*2D
$GPRMB,A,4.04,L,,Mid,4731.1400,N,12228.9200,W,9.6,205,-0.04,V*6F
$PGRME,3.0,M,3.0,M,4.3,M*29
$IIVWR,041,R,06.4,N,,,,*66
$IIDPT,003.9,-1.0,*4A
$HCHDG,309.0,0.0,E,,*23
$PTAK,FFP1,HEEL,@*07
$YXXDR,A,6.0,D,PTCH,A,4.8,D,ROLL*57
$PTAK,FFD1,4.8*59
$GPRMC,150949.8,A,4739.80842,N,12222.94405,W,000.07,000.0,030813,016.6,E,A*22
$PGRME,3.0,M,3.0,M,4.3,M*29
$HCHDG,308.9,0.0,E,,*2B
$HCHDG,308.9,0.0,E,,*2B
$HCHDG,308.9,0.0,E,,*2B
$GPRMC,150950.0,A,4739.80845,N,12222.94407,W,000.03,000.0,030813,016.6,E,A*23
$PGRME,3.0,M,3.0,M,4.3,M*29
$HCHDG,308.9,0.0,E,,*2B
$HCHDG,308.9,0.0,E,,*2B
$GPRMC,150950.2,A,4739.80845,N,12222.94415,W,000.04,000.0,030813,016.6,E,A*25
$IIGLL,4739.808,N,12222.944,W,150900,A,A*4E
$PGRME,3.0,M,3.0,M,4.3,M*29
$IIMTW,+19.5,C*35
$YXXDR,A,5.9,D,PTCH,A,4.6,D,ROLL*53
$IIMWV,042,R,06.5,N,A*16
$HCHDG,308.9,0.0,E,,*2B
$IIMWV,041,T,06.4,N,A*12
$HCHDG,308.8,0.0,E,,*2A
$GPRMC,150950.4,A,4739.80849,N,12222.94416,W,000.06,000.0,030813,016.6,E,A*2E
$PGRME,3.0,M,3.0,M,4.3,M*29
$IIRMB,A,3.00,L,,Mid ,,,,,009.6,205,,V,A*2C
$HCHDG,308.8,0.0,E,,*2A
$IIRMC,150900,A,4739.808,N,12222.944,W,00.0,000,030813,16,E,A*1C
$HCHDG,308.8,0.0,E,,*2A
$GPRMC,150950.6,A,4739.80852,N,12222.94421,W,000.05,000.0,030813,016.6,E,A*21
$PGRME,3.0,M,3.0,M,4.3,M*29
$IIVHW,,,,,00.0,N,,*19
$HCHDG,308.7,0.0,E,,*25
$IIVLW,02012,N,000.0,N*52
$YXXDR,A,6.1,D,PTCH,A,4.0,D,ROLL*5E
$GPRMC,150950.8,A,4739.80854,N,12222.94426,W,000.07,000.0,030813,016.6,E,A*2C
$PGRME,3.0,M,3.0,M,4.3,M*29
$HCHDG,308.7,0.0,E,,*25
$HCHDG,308.7,0.0,E,,*25
$HCHDG,308.6,0.0,E,,*24
$GPRMC,150951.0,A,4739.80858,N,12222.94429,W,000.04,000.0,030813,016.6,E,A*25
$GPRMB,A,4.04,L,,Mid,4731.1400,N,12228.9200,W,9.6,205,-0.04,V*6F
$PGRME,3.0,M,3.0,M,4.3,M*29
$HCHDG,308.6,0.0,E,,*24
$IIVWR,040,R,06.6,N,,,,*65
$HCHDG,308.5,0.0,E,,*27
$GPRMC,150951.2,A,4739.80860,N,12222.94431,W,000.03,000.0,030813,016.6,E,A*22
$PGRME,3.0,M,3.0,M,4.3,M*29
$IIDPT,003.9,-1.0,*4A
$YXXDR,A,5.9,D,PTCH,A,3.6,D,ROLL*54
$PTAK,FFD1,3.6*50
$IIGLL,4739.808,N,12222.944,W,150900,A,A*4E
$HCHDG,308.6,0.0,E,,*24
$IIMTW,+19.5,C*35
$HCHDG,308.5,0.0,E,,*27
$GPRMC,150951.4,A,4739.80855,N,12222.94438,W,000.04,000.0,030813,016.6,E,A*2C
$IIMWV,040,R,06.6,N,A*17
$PGRME,3.0,M,3.0,M,4.3,M*29
$IIMWV,042,T,06.5,N,A*10
$HCHDG,308.5,0.0,E,,*27
$IIRMB,A,3.00,L,,Mid ,,,,,009.6,205,,V,A*2C
$HCHDG,308.4,0.0,E,,*26
$GPRMC,150951.6,A,4739.80851,N,12222.94443,W,000.05,000.0,030813,016.6,E,A*27
$PGRME,3.0,M,3.0,M,4.3,M*29
$HCHDG,308.4,0.0,E,,*26
$IIRMC,150900,A,4739.808,N,12222.944,W,00.0,000,030813,16,E,A*1C
$YXXDR,A,6.0,D,PTCH,A,3.4,D,ROLL*5C
$GPRMC,150951.8,A,4739.80848,N,12222.94444,W,000.04,000.0,030813,016.6,E,A*27
$PGRME,3.0,M,3.0,M,4.3,M*29
$HCHDG,308.5,0.0,E,,*27
$HCHDG,308.3,0.0,E,,*21
$HCHDG,308.3,0.0,E,,*21
$GPRMC,150952.0,A,4739.80846,N,12222.94441,W,000.00,000.0,030813,016.6,E,A*23
$GPRMB,A,4.04,L,,Mid,4731.1400,N,12228.9200,W,9.6,205,-0.00,V*6B
$PGRME,3.0,M,3.0,M,4.3,M*29
$HCHDG,308.3,0.0,E,,*21
$IIVHW,,,,,00.0,N,,*19
$HCHDG,308.3,0.0,E,,*21
$GPRMC,150952.2,A,4739.80846,N,12222.94441,W,000.01,000.0,030813,016.6,E,A*20
$PGRME,3.0,M,3.0,M,4.3,M*29
$IIVLW,02012,N,000.0,N*52
$YXXDR,A,5.9,D,PTCH,A,3.6,D,ROLL*54
$IIVWR,040,R,06.7,N,,,,*64
$HCHDG,308.3,0.0,E,,*21
$IIDPT,003.9,-1.0,*4A
$HCHDG,308.3,0.0,E,,*21
$GPRMC,150952.4,A,4739.80842,N,12222.94433,W,000.03,000.0,030813,016.6,E,A*25
$PGRME,3.0,M,3.0,M,4.3,M*29
$IIGLL,4739.808,N,12222.944,W,150900,A,A*4E
$IIMTW,+19.5,C*35
$HCHDG,308.2,0.0,E,,*20
$IIMWV,040,R,06.7,N,A*16
$IIMWV,040,T,06.6,N,A*11
$HCHDG,308.2,0.0,E,,*20
$GPRMC,150952.6,A,4739.80840,N,12222.94428,W,000.05,000.0,030813,016.6,E,A*29
$PGRME,3.0,M,3.0,M,4.3,M*29
$IIRMB,A,3.00,L,,Mid ,,,,,009.6,205,,V,A*2C
$HCHDG,308.3,0.0,E,,*21
$YXXDR,A,6.0,D,PTCH,A,4.0,D,ROLL*5F
$PTAK,FFD1,4.0*51
$GPRMC,150952.8,A,4739.80834,N,12222.94429,W,000.06,000.0,030813,016.6,E,A*26
$PGRME,3.0,M,3.0,M,4.3,M*29
$HCHDG,308.2,0.0,E,,*20
$HCHDG,308.2,0.0,E,,*20
$HCHDG,308.1,0.0,E,,*23
$GPRMC,150953.0,A,4739.80828,N,12222.94437,W,000.05,000.0,030813,016.6,E,A*2E
$PGRME,3.0,M,3.0,M,4.3,M*29
$HCHDG,308.2,0.0,E,,*20
$HCHDG,308.1,0.0,E,,*23
$GPRMC,150953.2,A,4739.80828,N,12222.94429,W,000.07,000.0,030813,016.6,E,A*21
$GPRMB,A,4.04,L,,Mid,4731.1400,N,12228.9200,W,9.6,205,-0.06,V*6D
$PGRME,3.0,M,3.0,M,4.3,M*29
$IIRMC,150900,A,4739.808,N,12222.944,W,00.0,000,030813,16,E,A*1C
$YXXDR,A,6.1,D,PTCH,A,4.5,D,ROLL*5B
$IIVHW,,,,,00.0,N,,*19
$HCHDG,308.1,0.0,E,,*23
$IIVLW,02012,N,000.0,N*52
$HCHDG,308.1,0.0,E,,*23
$GPRMC,150953.4,A,4739.80830,N,12222.94427,W,000.03,000.0,030813,016.6,E,A*24
$PGRME,3.0,M,3.0,M,4.3,M*29
$IIVWR,040,R,07.3,N,,,,*61
$IIDPT,003.9,-1.0,*4A
$HCHDG,308.0,0.0,E,,*22
$IIGLL,4739.808,N,12222.944,W,150900,A,A*4E
$HCHDG,308.0,0.0,E,,*22
$IIMTW,+19.5,C*35
$GPRMC,150953.6,A,4739.80825,N,12222.94426,W,000.00,000.0,030813,016.6,E,A*20
$PGRME,3.0,M,3.0,M,4.3,M*29
$IIMWV,040,R,07.3,N,A*13
$HCHDG,308.0,0.0,E,,*22
$IIMWV,040,T,06.7,N,A*10
$YXXDR,A,5.8,D,PTCH,A,4.5,D,ROLL*51
$PTAK,FFD1,4.5*54
$GPRMC,150953.8,A,4739.80823,N,12222.94426,W,000.04,000.0,030813,016.6,E,A*2C
$PGRME,3.0,M,3.0,M,4.3,M*29
$HCHDG,307.9,0.0,E,,*24
$HCHDG,308.0,0.0,E,,*22
$HCHDG,307.9,0.0,E,,*24
$GPRMC,150954.0,A,4739.80823,N,12222.94426,W,000.08,000.0,030813,016.6,E,A*2F
$PGRME,3.0,M,3.0,M,4.3,M*29
$HCHDG,307.9,0.0,E,,*24
$PTAK,FFP1,HEEL,@*07
$HCHDG,307.9,0.0,E,,*24
$GPRMC,150954.2,A,4739.80819,N,12222.94435,W,000.09,000.0,030813,016.6,E,A*27
$IIRMB,A,3.00,L,,Mid ,,,,,009.6,205,,V,A*2C
$PGRME,3.0,M,3.0,M,4.3,M*29
$YXXDR,A,5.9,D,PTCH,A,4.3,D,ROLL*56
$HCHDG,307.7,0.0,E,,*2A
$IIRMC,150900,A,4739.808,N,12222.944,W,00.0,000,030813,16,E,A*1C
$HCHDG,307.7,0.0,E,,*2A
$IIVHW,,,,,00.0,N,,*19
$GPRMC,150954.4,A,4739.80820,N,12222.94431,W,000.02,000.0,030813,016.6,E,A*24
$GPRMB,A,4.04,L,,Mid,4731.1400,N,12228.9200,W,9.6,205,-0.02,V*69
$PGRME,3.0,M,3.0,M,4.3,M*29
$IIVLW,02012,N,000.0,N*52
$HCHDG,307.7,0.0,E,,*2A
$IIVWR,035,R,07.4,N,,,,*64
$IIDPT,003.9,-1.0,*4A
$HCHDG,307.6,0.0,E,,*2B
$GPRMC,150954.6,A,4739.80819,N,12222.94428,W,000.04,000.0,030813,016.6,E,A*22
$PGRME,3.0,M,3.0,M,4.3,M*29
$IIGLL,4739.808,N,12222.944,W,150900,A,A*4E
$IIMTW,+19.5,C*35
$HCHDG,307.6,0.0,E,,*2B
$YXXDR,A,5.8,D,PTCH,A,3.6,D,ROLL*55
$GPRMC,150954.8,A,4739.80815,N,12222.94436,W,000.04,000.0,030813,016.6,E,A*2F
$PGRME,3.0,M,3.0,M,4.3,M*29
$HCHDG,307.5,0.0,E,,*28
$HCHDG,307.5,0.0,E,,*28
$HCHDG,307.4,0.0,E,,*29
$GPRMC,150955.0,A,4739.80812,N,12222.94441,W,000.06,000.0,030813,016.6,E,A*23
$PGRME,3.0,M,3.0,M,4.3,M*29
$HCHDG,307.4,0.0,E,,*29
$IIMWV,033,R,07.8,N,A*1C
$HCHDG,307.5,0.0,E,,*28
$GPRMC,150955.2,A,4739.80810,N,12222.94445,W,000.04,000.0,030813,016.6,E,A*25
$PGRME,3.0,M,3.0,M,4.3,M*29
$IIMWV,035,T,07.4,N,A*10
$YXXDR,A,5.8,D,PTCH,A,3.5,D,ROLL*56
$PTAK,FFD1,3.5*53
$IIRMB,A,3.00,L,,Mid ,,,,,009.6,205,,V,A*2C
$HCHDG,307.5,0.0,E,,*28
$HCHDG,307.7,0.0,E,,*2A
$GPRMC,150955.4,A,4739.80808,N,12222.94445,W,000.04,000.0,030813,016.6,E,A*2A
$PGRME,3.0,M,3.0,M,4.3,M*29
$IIRMC,150900,A,4739.808,N,12222.944,W,00.0,000,030813,16,E,A*1C
$HCHDG,307.7,0.0,E,,*2A
$IIVHW,,,,,00.0,N,,*19
$IIVLW,02012,N,000.0,N*52
$HCHDG,307.7,0.0,E,,*2A
$GPRMC,150955.6,A,4739.80810,N,12222.94448,W,000.03,000.0,030813,016.6,E,A*2B
$GPRMB,A,4.04,L,,Mid,4731.1400,N,12228.9200,W,9.6,205,-0.03,V*68
$PGRME,3.0,M,3.0,M,4.3,M*29
$IIVWR,033,R,07.8,N,,,,*6E
$IIDPT,003.9,-1.0,*4A
$HCHDG,307.8,0.0,E,,*25
$YXXDR,A,6.1,D,PTCH,A,4.0,D,ROLL*5E
$GPRMC,150955.8,A,4739.80808,N,12222.94456,W,000.02,000.0,030813,016.6,E,A*22
$PGRME,3.0,M,3.0,M,4.3,M*29
$HCHDG,307.9,0.0,E,,*24
$HCHDG,307.9,0.0,E,,*24
$HCHDG,307.9,0.0,E,,*24
$GPRMC,150956.0,A,4739.80804,N,12222.94473,W,000.02,000.0,030813,016.6,E,A*22
$PGRME,3.0,M,3.0,M,4.3,M*29
$HCHDG,307.9,0.0,E,,*24
$HCHDG,308.0,0.0,E,,*22
$GPRMC,150956.2,A,4739.80802,N,12222.94487,W,000.02,000.0,030813,016.6,E,A*2D
$IIGLL,4739.808,N,12222.944,W,150900,A,A*4E
$PGRME,3.0,M,3.0,M,4.3,M*29
$IIMTW,+19.5,C*35
$YXXDR,A,5.8,D,PTCH,A,4.0,D,ROLL*54
$PTAK,FFD1,4.0*51
$IIMWV,030,R,07.7,N,A*10
$HCHDG,307.8,0.0,E,,*25
$IIMWV,033,T,07.8,N,A*1A
$HCHDG,307.8,0.0,E,,*25
$GPRMC,150956.4,A,4739.80801,N,12222.94497,W,000.03,000.0,030813,016.6,E,A*28
$PGRME,3.0,M,3.0,M,4.3,M*29
$IIRMB,A,3.00,L,,Mid ,,,,,009.6,205,,V,A*2C
$HCHDG,307.7,0.0,E,,*2A
$IIRMC,150900,A,4739.808,N,12222.944,W,00.0,000,030813,16,E,A*1C
$HCHDG,307.7,0.0,E,,*2A
$GPRMC,150956.6,A,4739.80800,N,12222.94501,W,000.05,000.0,030813,016.6,E,A*23
$GPRMB,A,4.04,L,,Mid,4731.1400,N,12228.9200,W,9.6,205,-0.05,V*6E
$PGRME,3.0,M,3.0,M,4.3,M*29
$IIVHW,,,,,00.0,N,,*19
$HCHDG,307.7,0.0,E,,*2A
$IIVLW,02012,N,000.0,N*52
$YXXDR,A,5.8,D,PTCH,A,4.1,D,ROLL*55
$GPRMC,150956.8,A,4739.80805,N,12222.94502,W,000.08,000.0,030813,016.6,E,A*26
$PGRME,3.0,M,3.0,M,4.3,M*29
$HCHDG,307.7,0.0,E,,*2A
$HCHDG,307.7,0.0,E,,*2A
$HCHDG,307.7,0.0,E,,*2A
$GPRMC,150957.0,A,4739.80806,N,12222.94508,W,000.06,000.0,030813,016.6,E,A*28
$PGRME,3.0,M,3.0,M,4.3,M*29
$HCHDG,307.8,0.0,E,,*25
$IIVWR,027,R,08.0,N,,,,*6C
$HCHDG,307.8,0.0,E,,*25
$GPRMC,150957.2,A,4739.80807,N,12222.94530,W,000.05,000.0,030813,016.6,E,A*23
$PGRME,3.0,M,3.0,M,4.3,M*29
$IIDPT,003.8,-1.0,*4B
$YXXDR,A,5.8,D,PTCH,A,4.1,D,ROLL*55
$PTAK,FFD1,4.1*50
$IIGLL,4739.808,N,12222.945,W,150900,A,A*4F
$HCHDG,307.5,0.0,E,,*28
$IIMTW,+19.5,C*35
$HCHDG,307.5,0.0,E,,*28
$GPRMC,150957.4,A,4739.80806,N,12222.94535,W,000.08,000.0,030813,016.6,E,A*2C
$IIMWV,027,R,08.0,N,A*1E
$PGRME,3.0,M,3.0,M,4.3,M*29
$IIMWV,030,T,07.7,N,A*16
$HCHDG,307.5,0.0,E,,*28
$IIRMB,A,3.00,L,,Mid ,,,,,009.6,205,,V,A*2C
$HCHDG,307.6,0.0,E,,*2B
$GPRMC,150957.6,A,4739.80804,N,12222.94537,W,000.08,000.0,030813,016.6,E,A*2E
$GPRMB,A,4.04,L,,Mid,4731.1400,N,12228.9200,W,9.6,205,-0.07,V*6C
$PGRME,3.0,M,3.0,M,4.3,M*29
$HCHDG,307.6,0.0,E,,*2B
$IIRMC,150900,A,4739.808,N,12222.945,W,00.0,000,030813,16,E,A*1D
$YXXDR,A,5.7,D,PTCH,A,3.8,D,ROLL*54
$GPRMC,150957.8,A,4739.80802,N,12222.94537,W,000.09,000.0,030813,016.6,E,A*27
$PGRME,3.0,M,3.0,M,4.3,M*29
$HCHDG,307.6,0.0,E,,*2B
$HCHDG,307.6,0.0,E,,*2B
$HCHDG,307.5,0.0,E,,*28
$GPRMC,150958.0,A,4739.80805,N,12222.94538,W,000.11,000.0,030813,016.6,E,A*21
$PGRME,3.0,M,3.0,M,4.3,M*29
$HCHDG,307.3,0.0,E,,*2E
$IIVHW,,,,,00.0,N,,*19
$PTAK,FFP1,HEEL,@*07
$HCHDG,307.3,0.0,E,,*2E
$GPRMC,150958.2,A,4739.80803,N,12222.94536,W,000.08,000.0,030813,016.6,E,A*23
$PGRME,3.0,M,3.0,M,4.3,M*29
$IIVLW,02012,N,000.0,N*52
$YXXDR,A,5.7,D,PTCH,A,3.8,D,ROLL*54
$IIVWR,027,R,07.5,N,,,,*66
$HCHDG,307.3,0.0,E,,*2E
$IIDPT,003.8,-1.0,*4B
$HCHDG,307.3,0.0,E,,*2E
$GPRMC,150958.4,A,4739.80806,N,12222.94534,W,000.06,000.0,030813,016.6,E,A*2C
$PGRME,3.0,M,3.0,M,4.3,M*29
$IIGLL,4739.808,N,12222.945,W,150900,A,A*4F
$IIMTW,+19.5,C*35
$HCHDG,307.3,0.0,E,,*2E
$IIMWV,027,R,07.5,N,A*14
$IIMWV,027,T,08.0,N,A*18
$HCHDG,307.3,0.0,E,,*2E
$GPRMC,150958.6,A,4739.80804,N,12222.94534,W,000.07,000.0,030813,016.6,E,A*2D
$PGRME,3.0,M,3.0,M,4.3,M*29
$IIRMB,A,3.00,L,,Mid ,,,,,009.6,205,,V,A*2C
$HCHDG,307.3,0.0,E,,*2E
$YXXDR,A,5.8,D,PTCH,A,3.9,D,ROLL*5A
$PTAK,FFD1,3.9*5F
$GPRMC,150958.8,A,4739.80801,N,12222.94541,W,000.05,000.0,030813,016.6,E,A*26
$GPRMB,A,4.04,L,,Mid,4731.1400,N,12228.9200,W,9.6,205,-0.05,V*6E
$PGRME,3.0,M,3.0,M,4.3,M*29
$HCHDG,307.3,0.0,E,,*2E
$HCHDG,307.3,0.0,E,,*2E
$HCHDG,307.3,0.0,E,,*2E
$GPRMC,150959.0,A,4739.80801,N,12222.94543,W,000.05,000.0,030813,016.6,E,A*2D
$PGRME,3.0,M,3.0,M,4.3,M*29
$HCHDG,307.3,0.0,E,,*2E
$HCHDG,307.3,0.0,E,,*2E
$GPRMC,150959.2,A,4739.80803,N,12222.94549,W,000.06,000.0,030813,016.6,E,A*24
$PGRME,3.0,M,3.0,M,4.3,M*29
$IIRMC,150900,A,4739.808,N,12222.945,W,00.0,000,030813,16,E,A*1D
$YXXDR,A,5.8,D,PTCH,A,3.9,D,ROLL*5A
$IIVHW,,,,,00.0,N,,*19
$HCHDG,307.3,0.0,E,,*2E
$IIVLW,02012,N,000.0,N*52
$HCHDG,307.3,0.0,E,,*2E
$GPRMC,150959.4,A,4739.80802,N,12222.94543,W,000.04,000.0,030813,016.6,E,A*2B
$PGRME,3.0,M,3.0,M,4.3,M*29
$IIVWR,030,R,07.2,N,,,,*67
$IIDPT,003.8,-1.0,*4B
$HCHDG,307.3,0.0,E,,*2E
$IIGLL,4739.808,N,12222.945,W,150900,A,A*4F
$HCHDG,307.3,0.0,E,,*2E
$IIMTW,+19.5,C*35
$GPRMC,150959.6,A,4739.80806,N,12222.94538,W,000.04,000.0,030813,016.6,E,A*21
$PGRME,3.0,M,3.0,M,4.3,M*29
$IIMWV,030,R,07.2,N,A*15
$HCHDG,307.3,0.0,E,,*2E
$IIMWV,027,T,07.5,N,A*12
$YXXDR,A,5.8,D,PTCH,A,3.6,D,ROLL*55
$PTAK,FFD1,3.6*50
$GPRMC,150959.8,A,4739.80810,N,12222.94526,W,000.06,000.0,030813,016.6,E,A*25
$PGRME,3.0,M,3.0,M,4.3,M*29
$HCHDG,307.3,0.0,E,,*2E
$HCHDG,307.0,0.0,E,,*2D
$HCHDG,307.0,0.0,E,,*2D
$GPRMC,151000.0,A,4739.80814,N,12222.94520,W,000.07,000.0,030813,016.6,E,A*2A
$GPRMB,A,4.04,L,,Mid,4731.1400,N,12228.9200,W,9.6,205,-0.06,V*6D
$PGRME,3.0,M,3.0,M,4.3,M*29
$HCHDG,307.0,0.0,E,,*2D
$HCHDG,307.0,0.0,E,,*2D
$GPRMC,151000.2,A,4739.80815,N,12222.94514,W,000.06,000.0,030813,016.6,E,A*2F
$IIRMB,A,3.00,L,,Mid ,,,,,009.6,205,,V,A*2C
$PGRME,3.0,M,3.0,M,4.3,M*29
$YXXDR,A,5.8,D,PTCH,A,3.5,D,ROLL*56
$HCHDG,307.1,0.0,E,,*2C
$IIRMC,150900,A,4739.808,N,12222.945,W,00.0,000,030813,16,E,A*1D
$HCHDG,307.1,0.0,E,,*2C
$IIVHW,,,,,00.0,N,,*19
$GPRMC,151000.4,A,4739.80812,N,12222.94518,W,000.04,000.0,030813,016.6,E,A*20
$PGRME,3.0,M,3.0,M,4.3,M*29
$IIVLW,02012,N,000.0,N*52
$HCHDG,307.1,0.0,E,,*2C
$IIVWR,034,R,06.9,N,,,,*69
$IIDPT,003.8,-1.0,*4B
$HCHDG,307.1,0.0,E,,*2C
$GPRMC,151000.6,A,4739.80808,N,12222.94514,W,000.04,000.0,030813,016.6,E,A*25
$PGRME,3.0,M,3.0,M,4.3,M*29
$IIGLL,4739.808,N,12222.945,W,150900,A,A*4F
$IIMTW,+19.5,C*35
$HCHDG,307.0,0.0,E,,*2D
$YXXDR,A,5.7,D,PTCH,A,3.4,D,ROLL*58
$GPRMC,151000.8,A,4739.80807,N,12222.94510,W,000.02,000.0,030813,016.6,E,A*26
$PGRME,3.0,M,3.0,M,4.3,M*29
$HCHDG,307.0,0.0,E,,*2D
$HCHDG,306.9,0.0,E,,*25
$HCHDG,306.9,0.0,E,,*25
$GPRMC,151001.0,A,4739.80805,N,12222.94505,W,000.04,000.0,030813,016.6,E,A*2F
$GPRMB,A,4.04,L,,Mid,4731.1400,N,12228.9200,W,9.6,205,-0.04,V*6F
$PGRME,3.0,M,3.0,M,4.3,M*29
$HCHDG,306.9,0.0,E,,*25
$IIMWV,032,R,06.7,N,A*13
$HCHDG,306.8,0.0,E,,*24
$GPRMC,151001.2,A,4739.80806,N,12222.94511,W,000.02,000.0,030813,016.6,E,A*2D
$PGRME,3.0,M,3.0,M,4.3,M*29
$IIMWV,034,T,06.9,N,A*1D
$YXXDR,A,5.8,D,PTCH,A,3.0,D,ROLL*53
$PTAK,FFD1,3.0*56
$IIRMB,A,3.00,L,,Mid ,,,,,009.6,205,,V,A*2C
$HCHDG,306.9,0.0,E,,*25
$HCHDG,306.9,0.0,E,,*25
$GPRMC,151001.4,A,4739.80808,N,12222.94504,W,000.05,000.0,030813,016.6,E,A*26
$PGRME,3.0,M,3.0,M,4.3,M*29
$IIRMC,151000,A,4739.808,N,12222.945,W,00.0,000,030813,16,E,A*15
$HCHDG,306.9,0.0,E,,*25
$IIVHW,,,,,00.0,N,,*19
$IIVLW,02012,N,000.0,N*52
$HCHDG,306.9,0.0,E,,*25
$GPRMC,151001.6,A,4739.80806,N,12222.94502,W,000.03,000.0,030813,016.6,E,A*2A
$PGRME,3.0,M,3.0,M,4.3,M*29
$IIVWR,032,R,06.7,N,,,,*61
$IIDPT,003.8,-1.0,*4B
$HCHDG,306.9,0.0,E,,*25
$YXXDR,A,5.8,D,PTCH,A,3.0,D,ROLL*53
$GPRMC,151001.8,A,4739.80802,N,12222.94491,W,000.04,000.0,030813,016.6,E,A*2C
$PGRME,3.0,M,3.0,M,4.3,M*29
$HCHDG,306.7,0.0,E,,*2B
$HCHDG,306.7,0.0,E,,*2B
$HCHDG,306.7,0.0,E,,*2B
$GPRMC,151002.0,A,4739.80801,N,12222.94486,W,000.03,000.0,030813,016.6,E,A*25
$GPRMB,A,4.04,L,,Mid,4731.1400,N,12228.9200,W,9.6,205,-0.03,V*68
$PGRME,3.0,M,3.0,M,4.3,M*29
$HCHDG,306.7,0.0,E,,*2B
$PTAK,FFP1,HEEL,@*07
$HCHDG,306.7,0.0,E,,*2B
$GPRMC,151002.2,A,4739.80797,N,12222.94486,W,000.02,000.0,030813,016.6,E,A*26
$IIGLL,4739.808,N,12222.945,W,151000,A,A*47
$PGRME,3.0,M,3.0,M,4.3,M*29
$IIMTW,+19.5,C*35
$YXXDR,A,5.8,D,PTCH,A,3.2,D,ROLL*51
$PTAK,FFD1,3.2*54
$IIMWV,026,R,06.7,N,A*16
$HCHDG,306.8,0.0,E,,*24
$IIMWV,032,T,06.7,N,A*15
$HCHDG,306.7,0.0,E,,*2B
$GPRMC,151002.4,A,4739.80800,N,12222.94484,W,000.06,000.0,030813,016.6,E,A*27
$PGRME,3.0,M,3.0,M,4.3,M*29
$IIRMB,A,3.00,L,,Mid ,,,,,009.6,205,,V,A*2C
$HCHDG,306.9,0.0,E,,*25
$IIRMC,151000,A,4739.808,N,12222.945,W,00.0,000,030813,16,E,A*15
$HCHDG,306.9,0.0,E,,*25
$GPRMC,151002.6,A,4739.80798,N,12222.94485,W,000.05,000.0,030813,016.6,E,A*29
$PGRME,3.0,M,3.0,M,4.3,M*29
$IIVHW,,,,,00.0,N,,*19
$HCHDG,306.8,0.0,E,,*24
$IIVLW,02012,N,000.0,N*52
$YXXDR,A,5.8,D,PTCH,A,3.6,D,ROLL*55
$GPRMC,151002.8,A,4739.80795,N,12222.94482,W,000.04,000.0,030813,016.6,E,A*2C
$PGRME,3.0,M,3.0,M,4.3,M*29
$HCHDG,306.9,0.0,E,,*25
$HCHDG,306.9,0.0,E,,*25
$HCHDG,306.8,0.0,E,,*24
$GPRMC,151003.0,A,4739.80794,N,12222.94477,W,000.03,000.0,030813,016.6,E,A*29
$PGRME,3.0,M,3.0,M,4.3,M*29
$HCHDG,306.8,0.0,E,,*24
$IIVWR,021,R,06.3,N,,,,*67
$HCHDG,306.8,0.0,E,,*24
$GPRMC,151003.2,A,4739.80791,N,12222.94474,W,000.05,000.0,030813,016.6,E,A*2B
$GPRMB,A,4.04,L,,Mid,4731.1400,N,12228.9200,W,9.6,205,-0.05,V*6E
$PGRME,3.0,M,3.0,M,4.3,M*29
$IIDPT,003.8,-1.0,*4B
$YXXDR,A,5.7,D,PTCH,A,4.1,D,ROLL*5A
$PTAK,FFD1,4.1*50
$IIGLL,4739.807,N,12222.944,W,151000,A,A*49
$HCHDG,306.9,0.0,E,,*25
$IIMTW,+19.5,C*35
$HCHDG,306.8,0.0,E,,*24
$GPRMC,151003.4,A,4739.80787,N,12222.94465,W,000.03,000.0,030813,016.6,E,A*2C
$IIMWV,021,R,06.3,N,A*15
$PGRME,3.0,M,3.0,M,4.3,M*29
$IIMWV,026,T,06.7,N,A*10
$HCHDG,307.0,0.0,E,,*2D
$IIRMB,A,3.00,L,,Mid ,,,,,009.6,205,,V,A*2C
$HCHDG,306.9,0.0,E,,*25
$GPRMC,151003.6,A,4739.80787,N,12222.94454,W,000.05,000.0,030813,016.6,E,A*2A
$PGRME,3.0,M,3.0,M,4.3,M*29
$HCHDG,307.0,0.0,E,,*2D
$IIRMC,151000,A,4739.807,N,12222.944,W,00.0,000,030813,16,E,A*1B
$YXXDR,A,5.8,D,PTCH,A,4.4,D,ROLL*50
$GPRMC,151003.8,A,4739.80786,N,12222.94447,W,000.06,000.0,030813,016.6,E,A*24
$PGRME,3.0,M,3.0,M,4.3,M*29
$HCHDG,307.0,0.0,E,,*2D
$HCHDG,307.0,0.0,E,,*2D
$HCHDG,306.9,0.0,E,,*25
$GPRMC,151004.0,A,4739.80779,N,12222.94445,W,000.05,000.0,030813,016.6,E,A*2A
$PGRME,3.0,M,3.0,M,4.3,M*29
$HCHDG,307.1,0.0,E,,*2C
$IIVHW,,,,,00.0,N,,*19
$HCHDG,306.9,0.0,E,,*25
$GPRMC,151004.2,A,4739.80777,N,12222.94435,W,000.06,000.0,030813,016.6,E,A*22
$GPRMB,A,4.04,L,,Mid,4731.1400,N,12228.9200,W,9.6,205,-0.05,V*6E
$PGRME,3.0,M,3.0,M,4.3,M*29
$IIVLW,02012,N,000.0,N*52
$YXXDR,A,5.7,D,PTCH,A,4.6,D,ROLL*5D
$IIVWR,021,R,06.3,N,,,,*67
$HCHDG,307.0,0.0,E,,*2D
$IIDPT,003.8,-1.0,*4B
$HCHDG,307.0,0.0,E,,*2D
$GPRMC,151004.4,A,4739.80775,N,12222.94431,W,000.05,000.0,030813,016.6,E,A*21
$PGRME,3.0,M,3.0,M,4.3,M*29
$IIGLL,4739.807,N,12222.944,W,151000,A,A*49
$IIMTW,+19.5,C*35
$HCHDG,306.9,0.0,E,,*25
$IIMWV,021,R,06.3,N,A*15
$IIMWV,021,T,06.3,N,A*13
$HCHDG,307.1,0.0,E,,*2C
$GPRMC,151004.6,A,4739.80767,N,12222.94426,W,000.04,000.0,030813,016.6,E,A*27
$PGRME,3.0,M,3.0,M,4.3,M*29
$IIRMB,A,3.00,L,,Mid ,,,,,009.6,205,,V,A*2C
$HCHDG,307.0,0.0,E,,*2D
$YXXDR,A,5.8,D,PTCH,A,4.8,D,ROLL*5C
$PTAK,FFD1,4.8*59
$GPRMC,151004.8,A,4739.80763,N,12222.94413,W,000.04,000.0,030813,016.6,E,A*2B
$PGRME,3.0,M,3.0,M,4.3,M*29
$HCHDG,307.0,0.0,E,,*2D
$HCHDG,307.0,0.0,E,,*2D
$HCHDG,307.0,0.0,E,,*2D
$GPRMC,151005.0,A,4739.80760,N,12222.94405,W,000.05,000.0,030813,016.6,E,A*27
$PGRME,3.0,M,3.0,M,4.3,M*29
$HCHDG,307.1,0.0,E,,*2C
$HCHDG,307.3,0.0,E,,*2E
$GPRMC,151005.2,A,4739.80754,N,12222.94401,W,000.04,000.0,030813,016.6,E,A*27
$PGRME,3.0,M,3.0,M,4.3,M*29
$IIRMC,151000,A,4739.807,N,12222.944,W,00.0,000,030813,16,E,A*1B
$YXXDR,A,5.9,D,PTCH,A,5.4,D,ROLL*50
$IIVHW,,,,,00.0,N,,*19
$HCHDG,307.3,0.0,E,,*2E
$IIVLW,02012,N,000.0,N*52
$HCHDG,307.2,0.0,E,,*2F
$GPRMC,151005.4,A,4739.80751,N,12222.94401,W,000.05,000.0,030813,016.6,E,A*25
$GPRMB,A,4.04,L,,Mid,4731.1400,N,12228.9200,W,9.6,205,-0.05,V*6E
$PGRME,3.0,M,3.0,M,4.3,M*29
$IIVWR,020,R,06.1,N,,,,*64
$IIDPT,003.8,-1.0,*4B
$HCHDG,307.2,0.0,E,,*2F
$IIGLL,4739.807,N,12222.944,W,151000,A,A*49
$HCHDG,307.2,0.0,E,,*2F
$IIMTW,+19.5,C*35
$GPRMC,151005.6,A,4739.80743,N,12222.94398,W,000.06,000.0,030813,016.6,E,A*20
$PGRME,3.0,M,3.0,M,4.3,M*29
$IIMWV,020,R,06.1,N,A*16
$HCHDG,307.3,0.0,E,,*2E
$IIMWV,021,T,06.3,N,A*13
$YXXDR,A,5.9,D,PTCH,A,5.3,D,ROLL*57
$PTAK,FFD1,5.3*53
$GPRMC,151005.8,A,4739.80744,N,12222.94394,W,000.03,000.0,030813,016.6,E,A*20
$PGRME,3.0,M,3.0,M,4.3,M*29
$HCHDG,307.3,0.0,E,,*2E
$HCHDG,307.5,0.0,E,,*28
$HCHDG,307.1,0.0,E,,*2C
$GPRMC,151006.0,A,4739.80744,N,12222.94393,W,000.04,000.0,030813,016.6,E,A*2B
$PGRME,3.0,M,3.0,M,4.3,M*29
$HCHDG,307.1,0.0,E,,*2C
$HCHDG,307.0,0.0,E,,*2D
$GPRMC,151006.2,A,4739.80744,N,12222.94393,W,000.02,000.0,030813,016.6,E,A*2F
$PTAK,FFP1,HEEL,@*07
$PGRME,3.0,M,3.0,M,4.3,M*29
$IIRMB,A,3.00,L,,Mid ,,,,,009.6,205,,V,A*2C
$YXXDR,A,5.8,D,PTCH,A,5.3,D,ROLL*56
$HCHDG,307.2,0.0,E,,*2F
$IIRMC,151000,A,4739.807,N,12222.943,W,00.0,000,030813,16,E,A*1C
$HCHDG,307.0,0.0,E,,*2D
$IIVHW,,,,,00.0,N,,*19
$GPRMC,151006.4,A,4739.80744,N,12222.94393,W,000.03,000.0,030813,016.6,E,A*28
$GPRMB,A,4.04,L,,Mid,4731.1400,N,12228.9200,W,9.6,205,-0.03,V*68
$PGRME,3.0,M,3.0,M,4.3,M*29
$IIVLW,02012,N,000.0,N*52
$HCHDG,307.0,0.0,E,,*2D
$IIVWR,015,R,05.6,N,,,,*66
$IIDPT,003.8,-1.0,*4B
$HCHDG,307.0,0.0,E,,*2D
$GPRMC,151006.6,A,4739.80743,N,12222.94393,W,000.08,000.0,030813,016.6,E,A*26
$PGRME,3.0,M,3.0,M,4.3,M*29
$IIGLL,4739.807,N,12222.943,W,151000,A,A*4E
$HCHDG,307.0,0.0,E,,*2D
$IIMTW,+19.5,C*35
$YXXDR,A,5.8,D,PTCH,A,5.3,D,ROLL*56
$GPRMC,151006.8,A,4739.80743,N,12222.94393,W,000.06,000.0,030813,016.6,E,A*26
$PGRME,3.0,M,3.0,M,4.3,M*29
$HCHDG,307.0,0.0,E,,*2D
$HCHDG,307.2,0.0,E,,*2F
$HCHDG,307.2,0.0,E,,*2F
$GPRMC,151007.0,A,4739.80742,N,12222.94393,W,000.10,000.0,030813,016.6,E,A*29
$PGRME,3.0,M,3.0,M,4.3,M*29
$HCHDG,307.2,0.0,E,,*2F
$IIMWV,012,R,05.6,N,A*13
$HCHDG,307.3,0.0,E,,*2E
$GPRMC,151007.2,A,4739.80741,N,12222.94393,W,000.22,000.0,030813,016.6,E,A*29
$PGRME,3.0,M,3.0,M,4.3,M*29
$IIMWV,015,T,05.6,N,A*12
$YXXDR,A,5.6,D,PTCH,A,5.1,D,ROLL*5A
$PTAK,FFD1,5.1*51
$IIRMB,A,3.00,L,,Mid ,,,,,009.6,205,,V,A*2C
$HCHDG,307.4,0.0,E,,*29
$HCHDG,307.3,0.0,E,,*2E
$GPRMC,151007.4,A,4739.80740,N,12222.94393,W,000.17,000.0,030813,016.6,E,A*28
$PGRME,3.0,M,3.0,M,4.3,M*29
$IIRMC,151000,A,4739.807,N,12222.943,W,00.0,000,030813,16,E,A*1C
$HCHDG,307.4,0.0,E,,*29
$IIVHW,,,,,00.0,N,,*19
$IIVLW,02012,N,000.0,N*52
$HCHDG,307.5,0.0,E,,*28
$GPRMC,151007.6,A,4739.80740,N,12222.94393,W,000.17,000.0,030813,016.6,E,A*2A
$GPRMB,A,4.04,L,,Mid,4731.1400,N,12228.9200,W,9.6,205,-0.15,V*6F
$PGRME,3.0,M,3.0,M,4.3,M*29
$IIVWR,012,R,05.6,N,,,,*61
$IIDPT,003.8,-1.0,*4B
$HCHDG,307.6,0.0,E,,*2B
$YXXDR,A,5.7,D,PTCH,A,4.4,D,ROLL*5F
$GPRMC,151007.8,A,4739.80739,N,12222.94394,W,000.20,000.0,030813,016.6,E,A*29
$PGRME,3.0,M,3.0,M,4.3,M*29
$HCHDG,307.6,0.0,E,,*2B
$HCHDG,307.7,0.0,E,,*2A
$HCHDG,307.7,0.0,E,,*2A
$GPRMC,151008.0,A,4739.80737,N,12222.94395,W,000.18,000.0,030813,016.6,E,A*2A
$PGRME,3.0,M,3.0,M,4.3,M*29
$HCHDG,307.7,0.0,E,,*2A
$HCHDG,307.9,0.0,E,,*24
$GPRMC,151008.2,A,4739.80736,N,12222.94395,W,000.20,000.0,030813,016.6,E,A*22
$IIGLL,4739.807,N,12222.943,W,151000,A,A*4E
$PGRME,3.0,M,3.0,M,4.3,M*29
$IIMTW,+19.5,C*35
$YXXDR,A,5.8,D,PTCH,A,3.5,D,ROLL*56
$PTAK,FFD1,3.5*53
$IIMWV,006,R,05.6,N,A*16
$HCHDG,308.0,0.0,E,,*22
$IIMWV,012,T,05.6,N,A*15
$HCHDG,307.9,0.0,E,,*24
$GPRMC,151008.4,A,4739.80735,N,12222.94396,W,000.13,000.0,030813,016.6,E,A*24
$PGRME,3.0,M,3.0,M,4.3,M*29
$IIRMB,A,3.00,L,,Mid ,,,,,009.6,205,,V,A*2C
$HCHDG,307.9,0.0,E,,*24
$IIRMC,151000,A,4739.807,N,12222.943,W,00.0,000,030813,16,E,A*1C
$HCHDG,307.8,0.0,E,,*25
$GPRMC,151008.6,A,4739.80734,N,12222.94396,W,000.13,000.0,030813,016.6,E,A*27
$GPRMB,A,4.04,L,,Mid,4731.1400,N,12228.9200,W,9.6,205,-0.12,V*68
$PGRME,3.1,M,3.0,M,4.3,M*28
$IIVHW,,,,,00.0,N,,*19
$HCHDG,307.9,0.0,E,,*24
$IIVLW,02012,N,000.0,N*52
$YXXDR,A,5.7,D,PTCH,A,2.4,D,ROLL*59
$GPRMC,151008.8,A,4739.80733,N,12222.94396,W,000.09,000.0,030813,016.6,E,A*25
$PGRME,3.1,M,3.0,M,4.3,M*28
$HCHDG,308.0,0.0,E,,*22
$HCHDG,308.0,0.0,E,,*22
$HCHDG,307.9,0.0,E,,*24
$GPRMC,151009.0,A,4739.80732,N,12222.94396,W,000.04,000.0,030813,016.6,E,A*20
$PGRME,3.1,M,3.0,M,4.3,M*28
$HCHDG,308.0,0.0,E,,*22
$IIVWR,009,R,05.3,N,,,,*6E
$HCHDG,308.1,0.0,E,,*23
$GPRMC,151009.2,A,4739.80731,N,12222.94396,W,000.03,000.0,030813,016.6,E,A*26
$PGRME,3.1,M,3.0,M,4.3,M*28
$IIDPT,003.8,-1.0,*4B
$YXXDR,A,5.6,D,PTCH,A,2.4,D,ROLL*58
$IIGLL,4739.807,N,12222.943,W,151000,A,A*4E
$HCHDG,308.0,0.0,E,,*22
$IIMTW,+19.5,C*35
$HCHDG,308.1,0.0,E,,*23
$GPRMC,151009.4,A,4739.80731,N,12222.94396,W,000.08,000.0,030813,016.6,E,A*2B
$IIMWV,009,R,05.3,N,A*1C
$PGRME,3.1,M,3.0,M,4.3,M*28
$IIMWV,006,T,05.6,N,A*10
$HCHDG,308.2,0.0,E,,*20
$IIRMB,A,3.00,L,,Mid ,,,,,009.6,205,,V,A*2C
$HCHDG,308.3,0.0,E,,*21
$GPRMC,151009.6,A,4739.80730,N,12222.94395,W,000.02,000.0,030813,016.6,E,A*21
$PGRME,3.1,M,3.0,M,4.3,M*28
$HCHDG,308.3,0.0,E,,*21
$IIRMC,151000,A,4739.807,N,12222.943,W,00.2,000,030813,16,E,A*1E
$YXXDR,A,5.6,D,PTCH,A,3.0,D,ROLL*5D
$PTAK,FFD1,3.0*56
$GPRMC,151009.8,A,4739.80729,N,12222.94395,W,000.09,000.0,030813,016.6,E,A*2C
$GPRMB,A,4.04,L,,Mid,4731.1400,N,12228.9200,W,9.6,205,-0.08,V*63
$PGRME,3.1,M,3.0,M,4.3,M*28
$HCHDG,308.2,0.0,E,,*20
$HCHDG,308.3,0.0,E,,*21
$HCHDG,308.3,0.0,E,,*21
$GPRMC,151010.0,A,4739.80728,N,12222.94395,W,000.04,000.0,030813,016.6,E,A*20
$PGRME,3.0,M,3.0,M,4.3,M*29
$HCHDG,308.5,0.0,E,,*27
$IIVHW,,,,,00.0,N,,*19
$HCHDG,308.5,0.0,E,,*27
$GPRMC,151010.2,A,4739.80728,N,12222.94395,W,000.05,000.0,030813,016.6,E,A*23
$PTAK,FFP1,HEEL,@*07
$PGRME,3.0,M,3.0,M,4.3,M*29
$IIVLW,02012,N,000.0,N*52
$YXXDR,A,5.7,D,PTCH,A,3.5,D,ROLL*59
$IIVWR,015,R,05.4,N,,,,*64
$HCHDG,308.5,0.0,E,,*27
$IIDPT,003.8,-1.0,*4B
$HCHDG,308.6,0.0,E,,*24
$GPRMC,151010.4,A,4739.80727,N,12222.94395,W,000.09,000.0,030813,016.6,E,A*26
$PGRME,3.0,M,3.0,M,4.3,M*29
$IIGLL,4739.807,N,12222.943,W,151000,A,A*4E
$IIMTW,+19.5,C*35
$HCHDG,308.6,0.0,E,,*24
$IIMWV,015,R,05.4,N,A*16
$IIMWV,009,T,05.3,N,A*1A
$HCHDG,308.6,0.0,E,,*24
$GPRMC,151010.6,A,4739.80727,N,12222.94395,W,000.09,000.0,030813,016.6,E,A*24
$PGRME,3.0,M,3.0,M,4.3,M*29
$IIRMB,A,3.00,L,,Mid ,,,,,009.6,205,,V,A*2C
$HCHDG,308.6,0.0,E,,*24
$YXXDR,A,5.7,D,PTCH,A,4.2,D,ROLL*59
$GPRMC,151010.8,A,4739.80726,N,12222.94395,W,000.10,000.0,030813,016.6,E,A*23
$PGRME,3.0,M,3.0,M,4.3,M*29
$HCHDG,308.7,0.0,E,,*25
$HCHDG,308.6,0.0,E,,*24
$HCHDG,308.8,0.0,E,,*2A
$GPRMC,151011.0,A,4739.80725,N,12222.94395,W,000.10,000.0,030813,016.6,E,A*29
$GPRMB,A,4.04,L,,Mid,4731.1400,N,12228.9200,W,9.6,205,-0.09,V*62
$PGRME,3.0,M,3.0,M,4.3,M*29
$HCHDG,308.6,0.0,E,,*24
$HCHDG,308.8,0.0,E,,*2A
$GPRMC,151011.2,A,4739.80725,N,12222.94395,W,000.08,000.0,030813,016.6,E,A*22
$PGRME,3.0,M,3.0,M,4.3,M*29
$IIRMC,151000,A,4739.807,N,12222.943,W,00.1,000,030813,16,E,A*1D
$YXXDR,A,5.9,D,PTCH,A,4.3,D,ROLL*56
$PTAK,FFD1,4.3*52
$IIVHW,,,,,00.0,N,,*19
$HCHDG,308.8,0.0,E,,*2A
$IIVLW,02012,N,000.0,N*52
$HCHDG,308.6,0.0,E,,*24
$GPRMC,151011.4,A,4739.80724,N,12222.94396,W,000.03,000.0,030813,016.6,E,A*2D
$PGRME,3.0,M,3.0,M,4.3,M*29
$IIVWR,014,R,05.5,N,,,,*64
$IIDPT,003.8,-1.0,*4B
$HCHDG,308.8,0.0,E,,*2A
$IIGLL,4739.807,N,12222.943,W,151000,A,A*4E
$HCHDG,308.8,0.0,E,,*2A
$IIMTW,+19.5,C*35
$GPRMC,151011.6,A,4739.80724,N,12222.94396,W,000.13,000.0,030813,016.6,E,A*2E
$PGRME,3.0,M,3.0,M,4.3,M*29
$IIMWV,014,R,05.5,N,A*16
$HCHDG,308.8,0.0,E,,*2A
$IIMWV,015,T,05.4,N,A*10
$YXXDR,A,5.9,D,PTCH,A,3.7,D,ROLL*55
$GPRMC,151011.8,A,4739.80725,N,12222.94397,W,000.08,000.0,030813,016.6,E,A*2A
$PGRME,3.0,M,3.0,M,4.3,M*29
$HCHDG,308.7,0.0,E,,*25
$HCHDG,308.9,0.0,E,,*2B
$HCHDG,309.0,0.0,E,,*23
$GPRMC,151012.0,A,4739.80725,N,12222.94397,W,000.04,000.0,030813,016.6,E,A*2D
$GPRMB,A,4.04,L,,Mid,4731.1400,N,12228.9200,W,9.6,205,-0.04,V*6F
$PGRME,3.0,M,3.0,M,4.3,M*29
$HCHDG,308.9,0.0,E,,*2B
$HCHDG,309.0,0.0,E,,*23
$GPRMC,151012.2,A,4739.80725,N,12222.94397,W,000.02,000.0,030813,016.6,E,A*29
$IIRMB,A,3.00,L,,Mid ,,,,,009.6,205,,V,A*2C
$PGRME,3.0,M,3.0,M,4.3,M*29
$YXXDR,A,5.8,D,PTCH,A,3.0,D,ROLL*53
$PTAK,FFD1,3.0*56
$HCHDG,308.9,0.0,E,,*2B
$IIRMC,151000,A,4739.807,N,12222.943,W,00.0,000,030813,16,E,A*1C
$HCHDG,309.0,0.0,E,,*23
$IIVHW,,,,,00.0,N,,*19
$GPRMC,151012.4,A,4739.80725,N,12222.94398,W,000.04,000.0,030813,016.6,E,A*26
$PGRME,3.0,M,3.0,M,4.3,M*29
$IIVLW,02012,N,000.0,N*52
$HCHDG,308.9,0.0,E,,*2B
$IIVWR,012,R,05.6,N,,,,*61
$IIDPT,003.8,-1.0,*4B
$HCHDG,308.8,0.0,E,,*2A
$GPRMC,151012.6,A,4739.80725,N,12222.94398,W,000.02,000.0,030813,016.6,E,A*22
$PGRME,3.0,M,3.0,M,4.3,M*29
$IIGLL,4739.807,N,12222.943,W,151000,A,A*4E
$IIMTW,+19.5,C*35
$HCHDG,308.8,0.0,E,,*2A
$YXXDR,A,5.7,D,PTCH,A,2.8,D,ROLL*55
$GPRMC,151012.8,A,4739.80725,N,12222.94398,W,000.02,000.0,030813,016.6,E,A*2C
$PGRME,3.0,M,3.0,M,4.3,M*29
$HCHDG,308.7,0.0,E,,*25
$HCHDG,308.9,0.0,E,,*2B
$HCHDG,308.8,0.0,E,,*2A
$GPRMC,151013.0,A,4739.80724,N,12222.94398,W,000.07,000.0,030813,016.6,E,A*21
$PGRME,3.0,M,3.0,M,4.3,M*29
$HCHDG,308.9,0.0,E,,*2B
$IIMWV,015,R,05.6,N,A*14
$HCHDG,308.8,0.0,E,,*2A
$GPRMC,151013.2,A,4739.80724,N,12222.94398,W,000.04,000.0,030813,016.6,E,A*20
$PGRME,3.0,M,3.0,M,4.3,M*29
$IIMWV,012,T,05.6,N,A*15
$YXXDR,A,5.7,D,PTCH,A,2.8,D,ROLL*55
$IIRMB,A,3.00,L,,Mid ,,,,,009.6,205,,V,A*2C
$HCHDG,308.8,0.0,E,,*2A
$HCHDG,308.9,0.0,E,,*2B
$GPRMC,151013.4,A,4739.80724,N,12222.94398,W,000.07,000.0,030813,016.6,E,A*25
$PGRME,3.0,M,3.0,M,4.3,M*29
$IIRMC,151000,A,4739.807,N,12222.943,W,00.0,000,030813,16,E,A*1C
$HCHDG,308.9,0.0,E,,*2B
$IIVHW,,,,,00.0,N,,*19
$IIVLW,02012,N,000.0,N*52
$HCHDG,308.9,0.0,E,,*2B
$GPRMC,151013.6,A,4739.80724,N,12222.94398,W,000.01,000.0,030813,016.6,E,A*21
$GPRMB,A,4.04,L,,Mid,4731.1400,N,12228.9200,W,9.6,205,-0.01,V*6A
$PGRME,3.0,M,3.0,M,4.3,M*29
$IIVWR,015,R,05.6,N,,,,*66
$IIDPT,003.8,-1.0,*4B
$HCHDG,308.9,0.0,E,,*2B
$YXXDR,A,5.8,D,PTCH,A,3.2,D,ROLL*51
$PTAK,FFD1,3.2*54
$GPRMC,151013.8,A,4739.80724,N,12222.94398,W,000.02,000.0,030813,016.6,E,A*2C
$PGRME,3.0,M,3.0,M,4.3,M*29
$HCHDG,308.9,0.0,E,,*2B
$HCHDG,308.8,0.0,E,,*2A
$HCHDG,309.0,0.0,E,,*23
$GPRMC,151014.0,A,4739.80724,N,12222.94397,W,000.08,000.0,030813,016.6,E,A*26
$PGRME,3.0,M,3.0,M,4.3,M*29
$HCHDG,309.0,0.0,E,,*23
$HCHDG,309.0,0.0,E,,*23
$IIGLL,4739.807,N,12222.943,W,151000,A,A*4E
$GPRMC,151014.2,A,4739.80723,N,12222.94397,W,000.06,000.0,030813,016.6,E,A*2D
$PTAK,FFP1,HEEL,@*07
$PGRME,3.0,M,3.0,M,4.3,M*29
$IIMTW,+19.5,C*35
$YXXDR,A,5.8,D,PTCH,A,3.6,D,ROLL*55
$IIMWV,024,R,05.6,N,A*16
$HCHDG,309.0,0.0,E,,*23
$IIMWV,015,T,05.6,N,A*12
$HCHDG,309.1,0.0,E,,*22
$GPRMC,151014.4,A,4739.80722,N,12222.94397,W,000.04,000.0,030813,016.6,E,A*28
$PGRME,3.0,M,3.0,M,4.3,M*29
$IIRMB,A,3.00,L,,Mid ,,,,,009.6,205,,V,A*2C
$HCHDG,309.2,0.0,E,,*21
$IIRMC,151000,A,4739.807,N,12222.943,W,00.0,000,030813,16,E,A*1C
$HCHDG,309.1,0.0,E,,*22
$GPRMC,151014.6,A,4739.80722,N,12222.94397,W,000.03,000.0,030813,016.6,E,A*2D
$GPRMB,A,4.04,L,,Mid,4731.1400,N,12228.9200,W,9.6,205,-0.03,V*68
$PGRME,3.0,M,3.0,M,4.3,M*29
$IIVHW,,,,,00.0,N,,*19
$HCHDG,309.0,0.0,E,,*23
$IIVLW,02012,N,000.0,N*52
$YXXDR,A,5.7,D,PTCH,A,4.2,D,ROLL*59
$PTAK,FFD1,4.2*53
$GPRMC,151014.8,A,4739.80721,N,12222.94397,W,000.02,000.0,030813,016.6,E,A*21
$PGRME,3.0,M,3.0,M,4.3,M*29
$HCHDG,309.0,0.0,E,,*23
$HCHDG,309.0,0.0,E,,*23
$HCHDG,308.9,0.0,E,,*2B
$GPRMC,151015.0,A,4739.80721,N,12222.94397,W,000.01,000.0,030813,016.6,E,A*2B
$PGRME,3.0,M,3.0,M,4.3,M*29
$HCHDG,309.1,0.0,E,,*22
$IIVWR,026,R,05.9,N,,,,*69
$HCHDG,309.0,0.0,E,,*23
$GPRMC,151015.2,A,4739.80720,N,12222.94397,W,000.01,000.0,030813,016.6,E,A*28
$PGRME,3.0,M,3.0,M,4.3,M*29
$IIDPT,003.8,-1.0,*4B
$YXXDR,A,5.7,D,PTCH,A,3.8,D,ROLL*54
$IIGLL,4739.807,N,12222.943,W,151000,A,A*4E
$HCHDG,309.0,0.0,E,,*23
$IIMTW,+19.5,C*35
$HCHDG,309.0,0.0,E,,*23
$GPRMC,151015.4,A,4739.80720,N,12222.94398,W,000.02,000.0,030813,016.6,E,A*22
$IIMWV,026,R,05.9,N,A*1B
$PGRME,3.0,M,3.0,M,4.3,M*29
$IIMWV,024,T,05.6,N,A*10
$HCHDG,309.0,0.0,E,,*23
$IIRMB,A,3.00,L,,Mid ,,,,,009.6,205,,V,A*2C
$HCHDG,308.8,0.0,E,,*2A
$GPRMC,151015.6,A,4739.80720,N,12222.94398,W,000.01,000.0,030813,016.6,E,A*23
$PGRME,3.0,M,3.0,M,4.3,M*29
$HCHDG,308.8,0.0,E,,*2A
$IIRMC,151000,A,4739.807,N,12222.943,W,00.0,000,030813,16,E,A*1C
$YXXDR,A,5.7,D,PTCH,A,3.5,D,ROLL*59
$GPRMC,151015.8,A,4739.80720,N,12222.94398,W,000.01,000.0,030813,016.6,E,A*2D
$GPRMB,A,4.04,L,,Mid,4731.1400,N,12228.9200,W,9.6,205,-0.01,V*6A
$PGRME,3.0,M,3.0,M,4.3,M*29
$HCHDG,308.9,0.0,E,,*2B
$HCHDG,308.8,0.0,E,,*2A
$HCHDG,308.8,0.0,E,,*2A
$GPRMC,151016.0,A,4739.80719,N,12222.94398,W,000.01,000.0,030813,016.6,E,A*2C
$PGRME,3.0,M,3.0,M,4.3,M*29
$HCHDG,308.8,0.0,E,,*2A
$IIVHW,,,,,00.0,N,,*19
$HCHDG,308.9,0.0,E,,*2B
$GPRMC,151016.2,A,4739.80719,N,12222.94398,W,000.00,000.0,030813,016.6,E,A*2F
$PGRME,3.0,M,3.0,M,4.3,M*29
$IIVLW,02012,N,000.0,N*52
$YXXDR,A,5.8,D,PTCH,A,3.0,D,ROLL*53
$PTAK,FFD1,3.0*56
$IIVWR,031,R,05.8,N,,,,*6E
$HCHDG,308.8,0.0,E,,*2A
$IIDPT,003.8,-1.0,*4B
$HCHDG,308.8,0.0,E,,*2A
$GPRMC,151016.4,A,4739.80719,N,12222.94398,W,000.00,000.0,030813,016.6,E,A*29
$PGRME,3.0,M,3.0,M,4.3,M*29
$IIGLL,4739.807,N,12222.943,W,151000,A,A*4E
$IIMTW,+19.5,C*35
$HCHDG,308.7,0.0,E,,*25
$IIMWV,031,R,05.8,N,A*1C
$IIMWV,026,T,05.9,N,A*1D
$HCHDG,308.8,0.0,E,,*2A
$GPRMC,151016.6,A,4739.80719,N,12222.94398,W,000.00,000.0,030813,016.6,E,A*2B
$PGRME,3.0,M,3.0,M,4.3,M*29
$IIRMB,A,3.00,L,,Mid ,,,,,009.6,205,,V,A*2C
$HCHDG,308.8,0.0,E,,*2A
$YXXDR,A,5.8,D,PTCH,A,2.9,D,ROLL*5B
$GPRMC,151016.8,A,4739.80719,N,12222.94398,W,000.01,000.0,030813,016.6,E,A*24
$GPRMB,A,4.04,L,,Mid,4731.1400,N,12228.9200,W,9.6,205,-0.01,V*6A
$PGRME,3.0,M,3.0,M,4.3,M*29
$HCHDG,308.7,0.0,E,,*25
$HCHDG,308.8,0.0,E,,*2A
$HCHDG,308.8,0.0,E,,*2A
$GPRMC,151017.0,A,4739.80719,N,12222.94399,W,000.01,000.0,030813,016.6,E,A*2C
$PGRME,3.0,M,3.0,M,4.3,M*29
$HCHDG,308.9,0.0,E,,*2B
$HCHDG,309.0,0.0,E,,*23
$GPRMC,151017.2,A,4739.80719,N,12222.94399,W,000.00,000.0,030813,016.6,E,A*2F
$PGRME,3.0,M,3.0,M,4.3,M*29
$IIRMC,151000,A,4739.807,N,12222.943,W,00.0,000,030813,16,E,A*1C
$YXXDR,A,5.8,D,PTCH,A,3.0,D,ROLL*53
$PTAK,FFD1,3.0*56
$IIVHW,,,,,00.0,N,,*19
$HCHDG,309.0,0.0,E,,*23
$IIVLW,02012,N,000.0,N*52
$HCHDG,309.0,0.0,E,,*23
$GPRMC,151017.4,A,4739.80719,N,12222.94399,W,000.01,000.0,030813,016.6,E,A*28
$PGRME,3.0,M,3.0,M,4.3,M*29
$IIVWR,027,R,05.5,N,,,,*64
$IIDPT,003.8,-1.0,*4B
$HCHDG,308.9,0.0,E,,*2B
$IIGLL,4739.807,N,12222.943,W,151000,A,A*4E
$HCHDG,308.9,0.0,E,,*2B
$IIMTW,+19.5,C*35
$GPRMC,151017.6,A,4739.80719,N,12222.94399,W,000.00,000.0,030813,016.6,E,A*2B
$PGRME,3.0,M,3.0,M,4.3,M*29
$IIMWV,027,R,05.5,N,A*16
$HCHDG,308.9,0.0,E,,*2B
$IIMWV,031,T,05.8,N,A*1A
$YXXDR,A,5.8,D,PTCH,A,3.9,D,ROLL*5A
$GPRMC,151017.8,A,4739.80718,N,12222.94399,W,000.00,000.0,030813,016.6,E,A*24
$PGRME,3.0,M,3.0,M,4.3,M*29
$HCHDG,309.0,0.0,E,,*23
$HCHDG,308.9,0.0,E,,*2B
$HCHDG,309.0,0.0,E,,*23
$GPRMC,151018.0,A,4739.80718,N,12222.94399,W,000.01,000.0,030813,016.6,E,A*22
$GPRMB,A,4.04,L,,Mid,4731.1400,N,12228.9200,W,9.6,205,-0.01,V*6A
$PGRME,3.0,M,3.0,M,4.3,M*29
$HCHDG,309.1,0.0,E,,*22
$HCHDG,309.2,0.0,E,,*21
$GPRMC,151018.2,A,4739.80718,N,12222.94399,W,000.01,000.0,030813,016.6,E,A*20
$IIRMB,A,3.00,L,,Mid ,,,,,009.6,205,,V,A*2C
$PGRME,3.0,M,3.0,M,4.3,M*29
$YXXDR,A,5.7,D,PTCH,A,4.1,D,ROLL*5A
$PTAK,FFP1,HEEL,@*07
$HCHDG,309.1,0.0,E,,*22
$IIRMC,151000,A,4739.807,N,12222.943,W,00.0,000,030813,16,E,A*1C
$HCHDG,309.3,0.0,E,,*20
$IIVHW,,,,,00.0,N,,*19
$GPRMC,151018.4,A,4739.80718,N,12222.94399,W,000.02,000.0,030813,016.6,E,A*25
$PGRME,3.0,M,3.0,M,4.3,M*29
$IIVLW,02012,N,000.0,N*52
$HCHDG,309.2,0.0,E,,*21
$IIVWR,021,R,04.8,N,,,,*6E
$IIDPT,003.8,-1.0,*4B
$HCHDG,309.2,0.0,E,,*21
$GPRMC,151018.6,A,4739.80718,N,12222.94399,W,000.01,000.0,030813,016.6,E,A*24
$PGRME,3.0,M,3.0,M,4.3,M*29
$IIGLL,4739.807,N,12222.943,W,151000,A,A*4E
$IIMTW,+19.5,C*35
$HCHDG,309.2,0.0,E,,*21
$YXXDR,A,5.8,D,PTCH,A,3.9,D,ROLL*5A
$PTAK,FFD1,3.9*5F
$GPRMC,151018.8,A,4739.80718,N,12222.94399,W,000.02,000.0,030813,016.6,E,A*29
$PGRME,3.0,M,3.0,M,4.3,M*29
$HCHDG,309.3,0.0,E,,*20
$HCHDG,309.3,0.0,E,,*20
$HCHDG,309.3,0.0,E,,*20
$GPRMC,151019.0,A,4739.80718,N,12222.94400,W,000.02,000.0,030813,016.6,E,A*27
$GPRMB,A,4.04,L,,Mid,4731.1400,N,12228.9200,W,9.6,205,-0.02,V*69
$PGRME,3.0,M,3.0,M,4.3,M*29
$HCHDG,309.3,0.0,E,,*20
$IIMWV,023,R,04.7,N,A*11
$HCHDG,309.1,0.0,E,,*22
$GPRMC,151019.2,A,4739.80718,N,12222.94400,W,000.02,000.0,030813,016.6,E,A*25
$PGRME,3.0,M,3.0,M,4.3,M*29
$IIMWV,021,T,04.8,N,A*1A
$YXXDR,A,5.8,D,PTCH,A,3.5,D,ROLL*56
$IIRMB,A,3.00,L,,Mid ,,,,,009.6,205,,V,A*2C
$HCHDG,309.0,0.0,E,,*23
$HCHDG,309.1,0.0,E,,*22
$GPRMC,151019.4,A,4739.80718,N,12222.94400,W,000.01,000.0,030813,016.6,E,A*20
$PGRME,3.0,M,3.0,M,4.3,M*29
$IIRMC,151000,A,4739.807,N,12222.943,W,00.0,000,030813,16,E,A*1C
$HCHDG,309.1,0.0,E,,*22
$IIVHW,,,,,00.0,N,,*19
$IIVLW,02012,N,000.0,N*52
$HCHDG,309.0,0.0,E,,*23
$GPRMC,151019.6,A,4739.80718,N,12222.94400,W,000.02,000.0,030813,016.6,E,A*21
$PGRME,3.0,M,3.0,M,4.3,M*29
$IIVWR,023,R,04.7,N,,,,*63
$IIDPT,003.8,-1.0,*4B
$HCHDG,309.0,0.0,E,,*23
$YXXDR,A,5.8,D,PTCH,A,3.2,D,ROLL*51
$PTAK,FFD1,3.2*54
$GPRMC,151019.8,A,4739.80718,N,12222.94400,W,000.01,000.0,030813,016.6,E,A*2C
$PGRME,3.0,M,3.0,M,4.3,M*29
$HCHDG,309.0,0.0,E,,*23
$HCHDG,308.8,0.0,E,,*2A
$HCHDG,308.8,0.0,E,,*2A
$GPRMC,151020.0,A,4739.80718,N,12222.94400,W,000.01,000.0,030813,016.6,E,A*2E
$PGRME,3.0,M,3.0,M,4.3,M*29
$HCHDG,308.9,0.0,E,,*2B
$HCHDG,308.9,0.0,E,,*2B
$IIGLL,4739.807,N,12222.944,W,151000,A,A*49
$GPRMC,151020.2,A,4739.80718,N,12222.94400,W,000.01,000.0,030813,016.6,E,A*2C
$PGRME,3.0,M,3.0,M,4.3,M*29
$IIMTW,+19.5,C*35
$YXXDR,A,5.8,D,PTCH,A,3.0,D,ROLL*53
$IIMWV,026,R,04.3,N,A*10
$HCHDG,308.7,0.0,E,,*25
$IIMWV,023,T,04.7,N,A*17
$HCHDG,308.8,0.0,E,,*2A
$GPRMC,151020.4,A,4739.80718,N,12222.94400,W,000.01,000.0,030813,016.6,E,A*2A
$GPRMB,A,4.04,L,,Mid,4731.1400,N,12228.9200,W,9.6,205,-0.01,V*6A
$PGRME,3.0,M,3.0,M,4.3,M*29
$IIRMB,A,3.00,L,,Mid ,,,,,009.6,205,,V,A*2C
$HCHDG,308.9,0.0,E,,*2B
$IIRMC,151000,A,4739.807,N,12222.944,W,00.0,000,030813,16,E,A*1B
$HCHDG,308.9,0.0,E,,*2B
$GPRMC,151020.6,A,4739.80718,N,12222.94401,W,000.00,000.0,030813,016.6,E,A*28
$PGRME,3.0,M,3.0,M,4.3,M*29
$IIVHW,,,,,00.0,N,,*19
$IIVLW,02012,N,000.0,N*52
$HCHDG,308.9,0.0,E,,*2B
$YXXDR,A,5.7,D,PTCH,A,3.4,D,ROLL*58
$GPRMC,151020.8,A,4739.80718,N,12222.94401,W,000.00,000.0,030813,016.6,E,A*26
$PGRME,3.0,M,3.0,M,4.3,M*29
$HCHDG,308.8,0.0,E,,*2A
$HCHDG,308.7,0.0,E,,*25
$HCHDG,308.8,0.0,E,,*2A
$GPRMC,151021.0,A,4739.80718,N,12222.94401,W,000.01,000.0,030813,016.6,E,A*2E
$PGRME,3.0,M,3.0,M,4.3,M*29
$HCHDG,308.8,0.0,E,,*2A
$IIVWR,030,R,04.7,N,,,,*61
$HCHDG,308.7,0.0,E,,*25
$GPRMC,151021.2,A,4739.80718,N,12222.94401,W,000.00,000.0,030813,016.6,E,A*2D
$PGRME,3.0,M,3.0,M,4.3,M*29
$IIDPT,003.8,-1.0,*4B
$YXXDR,A,5.7,D,PTCH,A,3.8,D,ROLL*54
$PTAK,FFD1,3.8*5E
$IIGLL,4739.807,N,12222.944,W,151000,A,A*49
$HCHDG,308.7,0.0,E,,*25
$IIMTW,+19.5,C*35
$HCHDG,308.6,0.0,E,,*24
$IIMWV,030,R,04.7,N,A*13
$GPRMC,151021.4,A,4739.80718,N,12222.94401,W,000.01,000.0,030813,016.6,E,A*2A
$GPRMB,A,4.04,L,,Mid,4731.1400,N,12228.9200,W,9.6,205,-0.01,V*6A
$PGRME,3.0,M,3.0,M,4.3,M*29
$IIMWV,026,T,04.3,N,A*16
$HCHDG,308.7,0.0,E,,*25
$IIRMB,A,3.00,L,,Mid ,,,,,009.6,205,,V,A*2C
$HCHDG,308.6,0.0,E,,*24
$GPRMC,151021.6,A,4739.80718,N,12222.94401,W,000.01,000.0,030813,016.6,E,A*28
$PGRME,3.0,M,3.0,M,4.3,M*29
$IIRMC,151000,A,4739.807,N,12222.944,W,00.0,000,030813,16,E,A*1B
$HCHDG,308.6,0.0,E,,*24
$YXXDR,A,5.8,D,PTCH,A,3.9,D,ROLL*5A
$GPRMC,151021.8,A,4739.80718,N,12222.94401,W,000.01,000.0,030813,016.6,E,A*26
$PGRME,3.0,M,3.0,M,4.3,M*29
$HCHDG,308.5,0.0,E,,*27
$HCHDG,308.6,0.0,E,,*24
$HCHDG,308.6,0.0,E,,*24
$GPRMC,151022.0,A,4739.80718,N,12222.94401,W,000.01,000.0,030813,016.6,E,A*2D
$PGRME,3.0,M,3.0,M,4.3,M*29
$HCHDG,308.4,0.0,E,,*26
$IIVHW,,,,,00.0,N,,*19
$HCHDG,308.4,0.0,E,,*26
$GPRMC,151022.2,A,4739.80718,N,12222.94402,W,000.01,000.0,030813,016.6,E,A*2C
$PGRME,3.0,M,3.0,M,4.3,M*29
$IIVLW,02012,N,000.0,N*52
$YXXDR,A,5.7,D,PTCH,A,3.8,D,ROLL*54
$IIVWR,033,R,04.7,N,,,,*62
$HCHDG,308.2,0.0,E,,*20
$PTAK,FFP1,HEEL,@*07
$IIDPT,003.8,-1.0,*4B
$HCHDG,308.0,0.0,E,,*22
$GPRMC,151022.4,A,4739.80718,N,12222.94402,W,000.01,000.0,030813,016.6,E,A*2A
$IIGLL,4739.807,N,12222.944,W,151000,A,A*49
$PGRME,3.0,M,3.0,M,4.3,M*29
$IIMTW,+19.5,C*35
$HCHDG,308.1,0.0,E,,*23
$IIMWV,033,R,04.7,N,A*10
$IIMWV,030,T,04.7,N,A*15
$HCHDG,308.0,0.0,E,,*22
$GPRMC,151022.6,A,4739.80718,N,12222.94402,W,000.01,000.0,030813,016.6,E,A*28
$GPRMB,A,4.04,L,,Mid,4731.1400,N,12228.9200,W,9.6,205,-0.01,V*6A
$PGRME,3.0,M,3.0,M,4.3,M*29
$IIRMB,A,3.00,L,,Mid ,,,,,009.6,205,,V,A*2C
$HCHDG,307.8,0.0,E,,*25
$YXXDR,A,5.6,D,PTCH,A,3.3,D,ROLL*5E
$PTAK,FFD1,3.3*55
$GPRMC,151022.8,A,4739.80718,N,12222.94402,W,000.01,000.0,030813,016.6,E,A*26
$PGRME,3.0,M,3.0,M,4.3,M*29
$HCHDG,307.8,0.0,E,,*25
$HCHDG,307.7,0.0,E,,*2A
$HCHDG,307.7,0.0,E,,*2A
$GPRMC,151023.0,A,4739.80718,N,12222.94402,W,000.01,000.0,030813,016.6,E,A*2F
$PGRME,3.0,M,3.0,M,4.3,M*29
$HCHDG,307.6,0.0,E,,*2B
$HCHDG,307.6,0.0,E,,*2B
$GPRMC,151023.2,A,4739.80718,N,12222.94402,W,000.02,000.0,030813,016.6,E,A*2E
$PGRME,3.0,M,3.0,M,4.3,M*29
$IIRMC,151000,A,4739.807,N,12222.944,W,00.0,000,030813,16,E,A*1B
$YXXDR,A,5.8,D,PTCH,A,3.0,D,ROLL*53
$IIVHW,,,,,00.0,N,,*19
$HCHDG,307.6,0.0,E,,*2B
$IIVLW,02012,N,000.0,N*52
$HCHDG,307.3,0.0,E,,*2E
$GPRMC,151023.4,A,4739.80718,N,12222.94402,W,000.01,000.0,030813,016.6,E,A*2B
$PGRME,3.0,M,3.0,M,4.3,M*29
$IIVWR,034,R,05.0,N,,,,*63
$IIDPT,003.8,-1.0,*4B
$HCHDG,307.3,0.0,E,,*2E
$IIGLL,4739.807,N,12222.944,W,151000,A,A*49
$HCHDG,307.4,0.0,E,,*29
$IIMTW,+19.5,C*35
$GPRMC,151023.6,A,4739.80718,N,12222.94402,W,000.02,000.0,030813,016.6,E,A*2A
$GPRMB,A,4.04,L,,Mid,4731.1400,N,12228.9200,W,9.6,205,-0.02,V*69
$PGRME,3.0,M,3.0,M,4.3,M*29
$IIMWV,034,R,05.0,N,A*11
$HCHDG,307.3,0.0,E,,*2E
$IIMWV,033,T,04.7,N,A*16
$YXXDR,A,5.8,D,PTCH,A,3.0,D,ROLL*53
$PTAK,FFD1,3.0*56
$GPRMC,151023.8,A,4739.80718,N,12222.94402,W,000.01,000.0,030813,016.6,E,A*27
$PGRME,3.0,M,3.0,M,4.3,M*29
$HCHDG,307.3,0.0,E,,*2E
$HCHDG,307.2,0.0,E,,*2F
$HCHDG,307.2,0.0,E,,*2F
$GPRMC,151024.0,A,4739.80718,N,12222.94402,W,000.02,000.0,030813,016.6,E,A*2B
$PGRME,3.0,M,3.0,M,4.3,M*29
$HCHDG,307.4,0.0,E,,*29
$HCHDG,307.4,0.0,E,,*29
$GPRMC,151024.2,A,4739.80718,N,12222.94402,W,000.01,000.0,030813,016.6,E,A*2A
$IIRMB,A,3.00,L,,Mid ,,,,,009.6,205,,V,A*2C
$PGRME,3.0,M,3.0,M,4.3,M*29
$YXXDR,A,5.7,D,PTCH,A,3.4,D,ROLL*58
$HCHDG,307.4,0.0,E,,*29
$IIRMC,151000,A,4739.807,N,12222.944,W,00.0,000,030813,16,E,A*1B
$HCHDG,307.3,0.0,E,,*2E
$IIVHW,,,,,00.0,N,,*19
$GPRMC,151024.4,A,4739.80718,N,12222.94402,W,000.01,000.0,030813,016.6,E,A*2C
$PGRME,3.0,M,3.0,M,4.3,M*29
$IIVLW,02012,N,000.0,N*52
$HCHDG,307.3,0.0,E,,*2E
$IIVWR,036,R,05.1,N,,,,*60
$IIDPT,003.8,-1.0,*4B
$HCHDG,307.4,0.0,E,,*29
$GPRMC,151024.6,A,4739.80718,N,12222.94402,W,000.01,000.0,030813,016.6,E,A*2E
$PGRME,3.0,M,3.0,M,4.3,M*29
$IIGLL,4739.807,N,12222.944,W,151000,A,A*49
$IIMTW,+19.5,C*35
$HCHDG,307.4,0.0,E,,*29
$YXXDR,A,6.0,D,PTCH,A,3.8,D,ROLL*50
$GPRMC,151024.8,A,4739.80717,N,12222.94402,W,000.01,000.0,030813,016.6,E,A*2F
$GPRMB,A,4.04,L,,Mid,4731.1400,N,12228.9200,W,9.6,205,-0.01,V*6A
$PGRME,3.0,M,3.0,M,4.3,M*29
$HCHDG,307.3,0.0,E,,*2E
$HCHDG,307.5,0.0,E,,*28
$HCHDG,307.4,0.0,E,,*29
$GPRMC,151025.0,A,4739.80717,N,12222.94402,W,000.00,000.0,030813,016.6,E,A*27
$PGRME,3.0,M,3.0,M,4.3,M*29
$HCHDG,307.4,0.0,E,,*29
$IIMWV,040,R,05.3,N,A*11
$HCHDG,307.5,0.0,E,,*28
$GPRMC,151025.2,A,4739.80716,N,12222.94402,W,000.01,000.0,030813,016.6,E,A*25
$PGRME,3.0,M,3.0,M,4.3,M*29
$IIMWV,036,T,05.1,N,A*14
$YXXDR,A,5.8,D,PTCH,A,4.1,D,ROLL*55
$PTAK,FFD1,4.1*50
$IIRMB,A,3.00,L,,Mid ,,,,,009.6,205,,V,A*2C
$HCHDG,307.5,0.0,E,,*28
$HCHDG,307.5,0.0,E,,*28
$GPRMC,151025.4,A,4739.80716,N,12222.94402,W,000.01,000.0,030813,016.6,E,A*23
$PGRME,3.0,M,3.0,M,4.3,M*29
$IIRMC,151000,A,4739.807,N,12222.944,W,00.0,000,030813,16,E,A*1B
$HCHDG,307.4,0.0,E,,*29
$IIVHW,,,,,00.0,N,,*19
$IIVLW,02012,N,000.0,N*52
$HCHDG,307.5,0.0,E,,*28
$GPRMC,151025.6,A,4739.80716,N,12222.94402,W,000.01,000.0,030813,016.6,E,A*21
$PGRME,3.0,M,3.0,M,4.3,M*29
$IIVWR,040,R,05.3,N,,,,*63
$IIDPT,003.8,-1.0,*4B
$HCHDG,307.6,0.0,E,,*2B
$YXXDR,A,5.8,D,PTCH,A,4.0,D,ROLL*54
$GPRMC,151025.8,A,4739.80716,N,12222.94402,W,000.01,000.0,030813,016.6,E,A*2F
$GPRMB,A,4.04,L,,Mid,4731.1400,N,12228.9200,W,9.6,205,-0.01,V*6A
$PGRME,3.0,M,3.0,M,4.3,M*29
$HCHDG,307.6,0.0,E,,*2B
$HCHDG,307.7,0.0,E,,*2A
$HCHDG,307.8,0.0,E,,*25
$GPRMC,151026.0,A,4739.80716,N,12222.94402,W,000.01,000.0,030813,016.6,E,A*24
$PGRME,3.0,M,3.0,M,4.3,M*29
$HCHDG,307.7,0.0,E,,*2A
$HCHDG,307.8,0.0,E,,*25
$IIGLL,4739.807,N,12222.944,W,151000,A,A*49
$GPRMC,151026.2,A,4739.80715,N,12222.94402,W,000.01,000.0,030813,016.6,E,A*25
$PGRME,3.0,M,3.0,M,4.3,M*29
$IIMTW,+19.5,C*35
$YXXDR,A,5.8,D,PTCH,A,3.6,D,ROLL*55
$PTAK,FFD1,3.6*50
$IIMWV,038,R,05.1,N,A*1C
$HCHDG,307.8,0.0,E,,*25
$PTAK,FFP1,HEEL,@*07
$IIMWV,040,T,05.3,N,A*17
$HCHDG,307.9,0.0,E,,*24
$GPRMC,151026.4,A,4739.80715,N,12222.94402,W,000.01,000.0,030813,016.6,E,A*23
$PGRME,3.0,M,3.0,M,4.3,M*29
$IIRMB,A,3.00,L,,Mid ,,,,,009.6,205,,V,A*2C
$HCHDG,308.0,0.0,E,,*22
$IIRMC,151000,A,4739.807,N,12222.944,W,00.0,000,030813,16,E,A*1B
$HCHDG,307.9,0.0,E,,*24
$GPRMC,151026.6,A,4739.80715,N,12222.94402,W,000.02,000.0,030813,016.6,E,A*22
$PGRME,3.0,M,3.0,M,4.3,M*29
$IIVHW,,,,,00.0,N,,*19
$IIVLW,02012,N,000.0,N*52
$HCHDG,307.9,0.0,E,,*24
$YXXDR,A,5.7,D,PTCH,A,3.4,D,ROLL*58
$GPRMC,151026.8,A,4739.80715,N,12222.94402,W,000.01,000.0,030813,016.6,E,A*2F
$PGRME,3.0,M,3.0,M,4.3,M*29
$HCHDG,308.0,0.0,E,,*22
$HCHDG,307.8,0.0,E,,*25
$HCHDG,308.0,0.0,E,,*22
$GPRMC,151027.0,A,4739.80715,N,12222.94403,W,000.01,000.0,030813,016.6,E,A*27
$GPRMB,A,4.04,L,,Mid,4731.1400,N,12228.9200,W,9.6,205,-0.01,V*6A
$PGRME,3.0,M,3.0,M,4.3,M*29
$HCHDG,308.0,0.0,E,,*22
$IIVWR,034,R,04.9,N,,,,*6B
$HCHDG,308.2,0.0,E,,*20
$GPRMC,151027.2,A,4739.80715,N,12222.94403,W,000.01,000.0,030813,016.6,E,A*25
$PGRME,3.0,M,3.0,M,4.3,M*29
$IIDPT,003.8,-1.0,*4B
$YXXDR,A,5.8,D,PTCH,A,3.3,D,ROLL*50
$IIGLL,4739.807,N,12222.944,W,151000,A,A*49
$HCHDG,308.2,0.0,E,,*20
$IIMTW,+19.5,C*35
$HCHDG,308.2,0.0,E,,*20
$GPRMC,151027.4,A,4739.80715,N,12222.94403,W,000.01,000.0,030813,016.6,E,A*23
$IIMWV,034,R,04.9,N,A*19
$PGRME,3.0,M,3.0,M,4.3,M*29
$IIMWV,038,T,05.1,N,A*1A
$HCHDG,308.3,0.0,E,,*21
$IIRMB,A,3.00,L,,Mid ,,,,,009.6,205,,V,A*2C
$HCHDG,308.4,0.0,E,,*26
$GPRMC,151027.6,A,4739.80714,N,12222.94403,W,000.00,000.0,030813,016.6,E,A*21
$PGRME,3.0,M,3.0,M,4.3,M*29
$IIRMC,151000,A,4739.807,N,12222.944,W,00.0,000,030813,16,E,A*1B
$HCHDG,308.5,0.0,E,,*27
$YXXDR,A,5.8,D,PTCH,A,3.2,D,ROLL*51
$PTAK,FFD1,3.2*54
$GPRMC,151027.8,A,4739.80714,N,12222.94403,W,000.01,000.0,030813,016.6,E,A*2E
$PGRME,3.0,M,3.0,M,4.3,M*29
$HCHDG,308.5,0.0,E,,*27
$HCHDG,308.6,0.0,E,,*24
$HCHDG,308.7,0.0,E,,*25
$GPRMC,151028.0,A,4739.80714,N,12222.94403,W,000.01,000.0,030813,016.6,E,A*29
$PGRME,3.0,M,3.0,M,4.3,M*29
$HCHDG,308.7,0.0,E,,*25
$IIVHW,,,,,00.0,N,,*19
$HCHDG,308.8,0.0,E,,*2A
$GPRMC,151028.2,A,4739.80714,N,12222.94403,W,000.01,000.0,030813,016.6,E,A*2B
$GPRMB,A,4.04,L,,Mid,4731.1400,N,12228.9200,W,9.6,205,-0.01,V*6A
$PGRME,3.0,M,3.0,M,4.3,M*29
$IIVLW,02012,N,000.0,N*52
$YXXDR,A,5.7,D,PTCH,A,3.5,D,ROLL*59
$IIVWR,031,R,04.8,N,,,,*6F
$HCHDG,308.9,0.0,E,,*2B
$IIDPT,003.8,-1.0,*4B
$HCHDG,308.9,0.0,E,,*2B
$GPRMC,151028.4,A,4739.80714,N,12222.94403,W,000.02,000.0,030813,016.6,E,A*2E
$PGRME,3.0,M,3.0,M,4.3,M*29
$IIGLL,4739.807,N,12222.944,W,151000,A,A*49
$IIMTW,+19.5,C*35
$HCHDG,309.0,0.0,E,,*23
$IIMWV,031,R,04.8,N,A*1D
$IIMWV,034,T,04.9,N,A*1F
$HCHDG,309.0,0.0,E,,*23
$GPRMC,151028.6,A,4739.80714,N,12222.94403,W,000.01,000.0,030813,016.6,E,A*2F
$PGRME,3.0,M,3.0,M,4.3,M*29
$IIRMB,A,3.00,L,,Mid ,,,,,009.6,205,,V,A*2C
$HCHDG,309.0,0.0,E,,*23
$YXXDR,A,5.7,D,PTCH,A,3.8,D,ROLL*54
$GPRMC,151028.8,A,4739.80714,N,12222.94403,W,000.01,000.0,030813,016.6,E,A*21
$PGRME,3.0,M,3.0,M,4.3,M*29
$HCHDG,309.3,0.0,E,,*20
$HCHDG,309.2,0.0,E,,*21
$HCHDG,309.4,0.0,E,,*27
$GPRMC,151029.0,A,4739.80714,N,12222.94403,W,000.01,000.0,030813,016.6,E,A*28
$PGRME,3.0,M,3.0,M,4.3,M*29
$HCHDG,309.3,0.0,E,,*20
$HCHDG,309.6,0.0,E,,*25
$GPRMC,151029.2,A,4739.80714,N,12222.94403,W,000.02,000.0,030813,016.6,E,A*29
$PGRME,3.0,M,3.0,M,4.3,M*29
$IIRMC,151000,A,4739.807,N,12222.944,W,00.0,000,030813,16,E,A*1B
$YXXDR,A,5.7,D,PTCH,A,3.8,D,ROLL*54
$PTAK,FFD1,3.8*5E
$IIVHW,,,,,00.0,N,,*19
$HCHDG,309.5,0.0,E,,*26
$IIVLW,02012,N,000.0,N*52
$HCHDG,309.6,0.0,E,,*25
$GPRMC,151029.4,A,4739.80714,N,12222.94403,W,000.01,000.0,030813,016.6,E,A*2C
$GPRMB,A,4.04,L,,Mid,4731.1400,N,12228.9200,W,9.6,205,-0.01,V*6A
$IIVWR,022,R,04.8,N,,,,*6D
$PGRME,3.0,M,3.0,M,4.3,M*29
$IIDPT,003.8,-1.0,*4B
$HCHDG,309.6,0.0,E,,*25
$IIGLL,4739.807,N,12222.944,W,151000,A,A*49
$HCHDG,309.6,0.0,E,,*25
$IIMTW,+19.5,C*35
$GPRMC,151029.6,A,4739.80714,N,12222.94403,W,000.01,000.0,030813,016.6,E,A*2E
$PGRME,3.0,M,3.0,M,4.3,M*29
$IIMWV,022,R,04.8,N,A*1F
$HCHDG,309.8,0.0,E,,*2B
$IIMWV,031,T,04.8,N,A*1B
$YXXDR,A,5.8,D,PTCH,A,3.5,D,ROLL*56
$GPRMC,151029.8,A,4739.80714,N,12222.94403,W,000.01,000.0,030813,016.6,E,A*20
$PGRME,3.0,M,3.0,M,4.3,M*29
$HCHDG,309.8,0.0,E,,*2B
$HCHDG,309.9,0.0,E,,*2A
$HCHDG,309.9,0.0,E,,*2A
$GPRMC,151030.0,A,4739.80714,N,12222.94403,W,000.02,000.0,030813,016.6,E,A*23
$PGRME,3.0,M,3.0,M,4.3,M*29
$HCHDG,309.9,0.0,E,,*2A
$HCHDG,309.9,0.0,E,,*2A
$GPRMC,151030.2,A,4739.80714,N,12222.94403,W,000.02,000.0,030813,016.6,E,A*21
$IIRMB,A,3.00,L,,Mid ,,,,,009.6,205,,V,A*2C
$PGRME,3.0,M,3.0,M,4.3,M*29
$YXXDR,A,5.7,D,PTCH,A,3.4,D,ROLL*58
$HCHDG,310.0,0.0,E,,*2B
$IIRMC,151000,A,4739.807,N,12222.944,W,00.0,000,030813,16,E,A*1B
$HCHDG,310.2,0.0,E,,*29
$PTAK,FFP1,HEEL,@*07
$IIVHW,,,,,00.0,N,,*19
$GPRMC,151030.4,A,4739.80714,N,12222.94404,W,000.02,000.0,030813,016.6,E,A*20
$GPRMB,A,4.04,L,,Mid,4731.1400,N,12228.9200,W,9.6,205,-0.02,V*69
$PGRME,3.0,M,3.0,M,4.3,M*29
$IIVLW,02012,N,000.0,N*52
$HCHDG,310.4,0.0,E,,*2F
$IIVWR,017,R,04.7,N,,,,*64
$IIDPT,003.8,-1.0,*4B
$HCHDG,310.3,0.0,E,,*28
$GPRMC,151030.6,A,4739.80714,N,12222.94404,W,000.01,000.0,030813,016.6,E,A*21
$PGRME,3.0,M,3.0,M,4.3,M*29
$IIGLL,4739.807,N,12222.944,W,151000,A,A*49
$IIMTW,+19.5,C*35
$HCHDG,310.3,0.0,E,,*28
$YXXDR,A,5.8,D,PTCH,A,3.0,D,ROLL*53
$PTAK,FFD1,3.0*56
$GPRMC,151030.8,A,4739.80714,N,12222.94404,W,000.01,000.0,030813,016.6,E,A*2F
$PGRME,3.0,M,3.0,M,4.3,M*29
$HCHDG,310.4,0.0,E,,*2F
$HCHDG,310.3,0.0,E,,*28
$HCHDG,310.4,0.0,E,,*2F
$GPRMC,151031.0,A,4739.80714,N,12222.94404,W,000.02,000.0,030813,016.6,E,A*25
$PGRME,3.0,M,3.0,M,4.3,M*29
$HCHDG,310.4,0.0,E,,*2F
$IIMWV,017,R,04.3,N,A*12
$HCHDG,310.3,0.0,E,,*28
$GPRMC,151031.2,A,4739.80714,N,12222.94405,W,000.01,000.0,030813,016.6,E,A*25
$PGRME,3.0,M,3.0,M,4.3,M*29
$IIMWV,017,T,04.7,N,A*10
$YXXDR,A,5.6,D,PTCH,A,3.0,D,ROLL*5D
$IIRMB,A,3.00,L,,Mid ,,,,,009.6,205,,V,A*2C
$HCHDG,310.3,0.0,E,,*28
$HCHDG,310.1,0.0,E,,*2A
$GPRMC,151031.4,A,4739.80715,N,12222.94405,W,000.02,000.0,030813,016.6,E,A*21
$PGRME,3.0,M,3.0,M,4.3,M*29
$IIRMC,151000,A,4739.807,N,12222.944,W,00.0,000,030813,16,E,A*1B
$HCHDG,310.2,0.0,E,,*29
$IIVHW,,,,,00.0,N,,*19
$IIVLW,02012,N,000.0,N*52
$HCHDG,310.2,0.0,E,,*29
$GPRMC,151031.6,A,4739.80715,N,12222.94405,W,000.03,000.0,030813,016.6,E,A*22
$GPRMB,A,4.04,L,,Mid,4731.1400,N,12228.9200,W,9.6,205,-0.03,V*68
$PGRME,3.0,M,3.0,M,4.3,M*29
$IIVWR,017,R,04.3,N,,,,*60
$IIDPT,003.8,-1.0,*4B
$HCHDG,310.2,0.0,E,,*29
$YXXDR,A,5.7,D,PTCH,A,3.1,D,ROLL*5D
$PTAK,FFD1,3.1*57
$GPRMC,151031.8,A,4739.80715,N,12222.94405,W,000.02,000.0,030813,016.6,E,A*2D
$PGRME,3.0,M,3.0,M,4.3,M*29
$HCHDG,310.1,0.0,E,,*2A
$HCHDG,310.3,0.0,E,,*28
$HCHDG,310.3,0.0,E,,*28
$GPRMC,151032.0,A,4739.80715,N,12222.94405,W,000.01,000.0,030813,016.6,E,A*25
$PGRME,3.0,M,3.0,M,4.3,M*29
$HCHDG,310.2,0.0,E,,*29
$HCHDG,309.9,0.0,E,,*2A
$IIGLL,4739.807,N,12222.944,W,151000,A,A*49
$GPRMC,151032.2,A,4739.80715,N,12222.94405,W,000.02,000.0,030813,016.6,E,A*24
$PGRME,3.0,M,3.0,M,4.3,M*29
$IIMTW,+19.5,C*35
$YXXDR,A,5.7,D,PTCH,A,3.5,D,ROLL*59
$IIMWV,015,R,04.4,N,A*17
$HCHDG,309.8,0.0,E,,*2B
$IIMWV,017,T,04.3,N,A*14
$HCHDG,309.9,0.0,E,,*2A
$GPRMC,151032.4,A,4739.80715,N,12222.94405,W,000.02,000.0,030813,016.6,E,A*22
$PGRME,3.0,M,3.0,M,4.3,M*29
$IIRMB,A,3.00,L,,Mid ,,,,,009.6,205,,V,A*2C
$HCHDG,309.8,0.0,E,,*2B
$IIRMC,151000,A,4739.807,N,12222.944,W,00.0,000,030813,16,E,A*1B
$HCHDG,310.0,0.0,E,,*2B
$GPRMC,151032.6,A,4739.80715,N,12222.94405,W,000.01,000.0,030813,016.6,E,A*23
$GPRMB,A,4.04,L,,Mid,4731.1400,N,12228.9200,W,9.6,205,-0.01,V*6A
$PGRME,3.0,M,3.0,M,4.3,M*29
$IIVHW,,,,,00.0,N,,*19
$IIVLW,02012,N,000.0,N*52
$HCHDG,310.0,0.0,E,,*2B
$YXXDR,A,5.8,D,PTCH,A,3.6,D,ROLL*55
$PTAK,FFD1,3.6*50
$GPRMC,151032.8,A,4739.80715,N,12222.94405,W,000.02,000.0,030813,016.6,E,A*2E
$PGRME,3.0,M,3.0,M,4.3,M*29
$HCHDG,309.9,0.0,E,,*2A
$HCHDG,310.0,0.0,E,,*2B
$HCHDG,310.0,0.0,E,,*2B
$GPRMC,151033.0,A,4739.80714,N,12222.94405,W,000.01,000.0,030813,016.6,E,A*25
$PGRME,3.0,M,3.0,M,4.3,M*29
$HCHDG,309.9,0.0,E,,*2A
$IIVWR,010,R,04.4,N,,,,*60
$HCHDG,309.8,0.0,E,,*2B
$GPRMC,151033.2,A,4739.80714,N,12222.94405,W,000.01,000.0,030813,016.6,E,A*27
$PGRME,3.0,M,3.0,M,4.3,M*29
$IIDPT,003.8,-1.0,*4B
$YXXDR,A,5.8,D,PTCH,A,3.6,D,ROLL*55
$IIGLL,4739.807,N,12222.944,W,151000,A,A*49
$HCHDG,309.8,0.0,E,,*2B
$IIMTW,+19.5,C*35
$HCHDG,309.8,0.0,E,,*2B
$IIMWV,010,R,04.4,N,A*12
$GPRMC,151033.4,A,4739.80714,N,12222.94405,W,000.01,000.0,030813,016.6,E,A*21
$PGRME,3.0,M,3.0,M,4.3,M*29
$IIMWV,015,T,04.4,N,A*11
$HCHDG,309.8,0.0,E,,*2B
$IIRMB,A,3.00,L,,Mid ,,,,,009.6,205,,V,A*2C
$HCHDG,309.7,0.0,E,,*24
$GPRMC,151033.6,A,4739.80714,N,12222.94405,W,000.00,000.0,030813,016.6,E,A*22
$PGRME,3.0,M,3.0,M,4.3,M*29
$IIRMC,151000,A,4739.807,N,12222.944,W,00.0,000,030813,16,E,A*1B
$HCHDG,309.7,0.0,E,,*24
$YXXDR,A,5.7,D,PTCH,A,3.5,D,ROLL*59
$GPRMC,151033.8,A,4739.80714,N,12222.94405,W,000.01,000.0,030813,016.6,E,A*2D
$GPRMB,A,4.04,L,,Mid,4731.1400,N,12228.9200,W,9.6,205,-0.01,V*6A
$PGRME,3.0,M,3.0,M,4.3,M*29
$HCHDG,309.7,0.0,E,,*24
$HCHDG,309.6,0.0,E,,*25
$HCHDG,309.5,0.0,E,,*26
$GPRMC,151034.0,A,4739.80714,N,12222.94405,W,000.01,000.0,030813,016.6,E,A*22
$PGRME,3.0,M,3.0,M,4.3,M*29
$HCHDG,309.6,0.0,E,,*25
$IIVHW,,,,,00.0,N,,*19
$HCHDG,309.4,0.0,E,,*27
$GPRMC,151034.2,A,4739.80714,N,12222.94405,W,000.01,000.0,030813,016.6,E,A*20
$PGRME,3.0,M,3.0,M,4.3,M*29
$IIVLW,02012,N,000.0,N*52
$YXXDR,A,5.7,D,PTCH,A,3.4,D,ROLL*58
$PTAK,FFD1,3.4*52
$IIVWR,012,R,04.8,N,,,,*6E
$HCHDG,309.2,0.0,E,,*21
$IIDPT,003.8,-1.0,*4B
$HCHDG,309.2,0.0,E,,*21
$GPRMC,151034.4,A,4739.80714,N,12222.94405,W,000.01,000.0,030813,016.6,E,A*26
$PTAK,FFP1,HEEL,@*07
$PGRME,3.0,M,3.0,M,4.3,M*29
$IIGLL,4739.807,N,12222.944,W,151000,A,A*49
$IIMTW,+19.5,C*35
$HCHDG,309.3,0.0,E,,*20
$IIMWV,012,R,04.8,N,A*1C
$IIMWV,010,T,04.4,N,A*14
$HCHDG,309.2,0.0,E,,*21
$GPRMC,151034.6,A,4739.80714,N,12222.94405,W,000.01,000.0,030813,016.6,E,A*24
