$GPRMC,000000.4,A,4921.09464,N,12316.83851,W,004.82,037.8,220913,017.3,E,D*2B
$GPRMB,A,-35.21,L,,Shil,4741.0830,N,12224.5670,W,105.9,161,-2.61,V*01
$PGRME,2.4,M,3.1,M,3.9,M*20
$YXXDR,A,5.5,D,PTCH,A,5.7,D,ROLL*5F
$PTAK,FFD1,5.7*57
$HCHDG,10.5,0.0,E,,*1D
$HCHDG,10.6,0.0,E,,*1E
$GPRMC,000000.6,A,4921.09485,N,12316.83827,W,004.80,038.4,220913,017.3,E,D*26
$PGRME,2.4,M,3.1,M,3.9,M*20
$IIMWV,151,T,04.9,N,A*1D
$HCHDG,10.8,0.0,E,,*10
$IIRMB,A,,,,Shil,,,,,105.9,161,,V,A*20
$HCHDG,10.7,0.0,E,,*1F
$GPRMC,000000.8,A,4921.09509,N,12316.83805,W,004.75,036.9,220913,017.3,E,D*24
$PGRME,2.4,M,3.1,M,3.9,M*20
$IIRMC,000000,A,4921.094,N,12316.839,W,04.8,038,210913,17,E,A*11
$IIVHW,,,,,05.4,N,,*18
$HCHDG,10.8,0.0,E,,*10
$IIVLW,06372,N,033.2,N*51
$YXXDR,A,5.8,D,PTCH,A,6.3,D,ROLL*55
$IIVWR,063,R,02.8,N,,,,*6E
$GPRMC,000001.0,A,4921.09529,N,12316.83784,W,004.74,036.4,220913,017.3,E,D*25
$HCHDG,10.8,0.0,E,,*10
$PGRME,2.4,M,3.1,M,3.9,M*20
$HCHDG,10.7,0.0,E,,*1F
$IIGLL,4921.094,N,12316.839,W,000000,A,A*44
$IIMTW,+14.0,C*3D
$HCHDG,10.7,0.0,E,,*1F
$GPRMC,000001.2,A,4921.09547,N,12316.83764,W,004.75,035.7,220913,017.3,E,D*20
$PGRME,2.4,M,3.1,M,3.9,M*20
$HCHDG,10.6,0.0,E,,*1E
$HCHDG,10.4,0.0,E,,*1C
$GPRMC,000001.4,A,4921.09571,N,12316.83743,W,004.75,033.5,220913,017.3,E,D*22
$PGRME,2.4,M,3.1,M,4.0,M*2E
$YXXDR,A,6.3,D,PTCH,A,6.3,D,ROLL*5D
$HCHDG,10.6,0.0,E,,*1E
$PTAK,FFP1,HEEL,@*07
$HCHDG,10.6,0.0,E,,*1E
$GPRMC,000001.6,A,4921.09596,N,12316.83720,W,004.75,032.9,220913,017.3,E,D*21
$GPRMB,A,-35.21,L,,Shil,4741.0830,N,12224.5670,W,105.9,161,-2.90,V*0F
$PGRME,2.4,M,3.1,M,4.0,M*2E
$IIMWV,070,R,02.9,N,A*1F
$IIMWV,151,T,04.9,N,A*1D
$HCHDG,10.7,0.0,E,,*1F
$IIRMB,A,,,,Shil,,,,,105.9,161,,V,A*20
$HCHDG,10.6,0.0,E,,*1E
$GPRMC,000001.8,A,4921.09621,N,12316.83695,W,004.75,033.0,220913,017.3,E,D*27
$PGRME,2.4,M,3.1,M,4.0,M*2E
$HCHDG,10.7,0.0,E,,*1F
$IIRMC,000000,A,4921.095,N,12316.837,W,04.7,036,210913,17,E,A*1F
$IIVHW,,,,,05.5,N,,*19
$YXXDR,A,6.0,D,PTCH,A,6.2,D,ROLL*5F
$PTAK,FFD1,6.2*51
$IIVLW,06372,N,033.3,N*50
$GPRMC,000002.0,A,4921.09645,N,12316.83675,W,004.74,032.8,220913,017.3,E,D*28
$HCHDG,10.9,0.0,E,,*11
$PGRME,2.4,M,3.1,M,4.0,M*2E
$IIVWR,070,R,02.9,N,,,,*6D
$HCHDG,10.9,0.0,E,,*11
$IIGLL,4921.095,N,12316.837,W,000000,A,A*4B
$HCHDG,10.9,0.0,E,,*11
$GPRMC,000002.2,A,4921.09661,N,12316.83639,W,004.71,032.8,220913,017.3,E,D*21
$PGRME,2.4,M,3.1,M,4.0,M*2E
$HCHDG,10.7,0.0,E,,*1F
$HCHDG,10.7,0.0,E,,*1F
$GPRMC,000002.4,A,4921.09679,N,12316.83625,W,004.69,031.1,220913,017.3,E,D*20
$PGRME,2.4,M,3.1,M,4.0,M*2E
$YXXDR,A,6.1,D,PTCH,A,5.0,D,ROLL*5F
$HCHDG,10.5,0.0,E,,*1D
$HCHDG,10.6,0.0,E,,*1E
$IIMTW,+14.0,C*3D
$GPRMC,000002.6,A,4921.09706,N,12316.83624,W,004.67,031.9,220913,017.3,E,D*2C
$GPRMB,A,-35.21,L,,Shil,4741.0830,N,12224.5670,W,105.9,161,-2.92,V*0D
$PGRME,2.4,M,3.1,M,4.0,M*2E
$IIMWV,068,R,02.9,N,A*16
$HCHDG,10.5,0.0,E,,*1D
$IIMWV,150,T,05.4,N,A*10
$HCHDG,10.3,0.0,E,,*1B
$IIRMB,A,,,,Shil,,,,,105.9,161,,V,A*20
$GPRMC,000002.8,A,4921.09730,N,12316.83609,W,004.66,031.5,220913,017.3,E,D*25
$PGRME,2.4,M,3.1,M,4.0,M*2E
$HCHDG,10.3,0.0,E,,*1B
$IIRMC,000000,A,4921.095,N,12316.837,W,04.7,036,210913,17,E,A*1F
$YXXDR,A,6.3,D,PTCH,A,4.0,D,ROLL*5C
$PTAK,FFD1,4.0*51
$IIVHW,,,,,05.5,N,,*19
$GPRMC,000003.0,A,4921.09754,N,12316.83587,W,004.65,030.8,220913,017.3,E,D*24
$PGRME,2.4,M,3.1,M,4.0,M*2E
$HCHDG,10.3,0.0,E,,*1B
$IIVLW,06372,N,033.3,N*50
$HCHDG,10.3,0.0,E,,*1B
$IIVWR,068,R,02.9,N,,,,*64
$HCHDG,10.3,0.0,E,,*1B
$GPRMC,000003.2,A,4921.09780,N,12316.83561,W,004.66,031.3,220913,017.3,E,D*2E
$PGRME,2.4,M,3.1,M,4.0,M*2E
$HCHDG,10.6,0.0,E,,*1E
$HCHDG,10.4,0.0,E,,*1C
$GPRMC,000003.4,A,4921.09802,N,12316.83538,W,004.67,031.9,220913,017.3,E,D*2A
$PGRME,2.4,M,3.1,M,4.0,M*2E
$YXXDR,A,6.3,D,PTCH,A,3.3,D,ROLL*58
$HCHDG,10.3,0.0,E,,*1B
$HCHDG,10.2,0.0,E,,*1A
$GPRMC,000003.6,A,4921.09824,N,12316.83520,W,004.67,034.1,220913,017.3,E,D*28
$PGRME,2.4,M,3.1,M,4.0,M*2E
$IIGLL,4921.097,N,12316.835,W,000000,A,A*4B
$HCHDG,9.9,0.0,E,,*29
$IIMTW,+14.0,C*3D
$IIMWV,065,R,02.7,N,A*15
$HCHDG,9.7,0.0,E,,*27
$IIMWV,150,T,05.2,N,A*16
$GPRMC,000003.8,A,4921.09844,N,12316.83510,W,004.69,036.1,220913,017.3,E,D*2F
$GPRMB,A,-35.21,L,,Shil,4741.0830,N,12224.5670,W,105.9,161,-2.66,V*06
$PGRME,2.4,M,3.1,M,4.0,M*2E
$IIRMB,A,,,,Shil,,,,,105.9,161,,V,A*20
$HCHDG,9.7,0.0,E,,*27
$YXXDR,A,6.2,D,PTCH,A,2.1,D,ROLL*5A
$PTAK,FFD1,2.1*56
$GPRMC,000004.0,A,4921.09865,N,12316.83495,W,004.70,035.9,220913,017.3,E,D*2C
$HCHDG,9.4,0.0,E,,*24
$PGRME,2.4,M,3.1,M,4.0,M*2E
$IIRMC,000000,A,4921.097,N,12316.835,W,04.6,030,210913,17,E,A*18
$IIVHW,,,,,05.6,N,,*1A
$HCHDG,9.2,0.0,E,,*22
$IIVLW,06372,N,033.3,N*50
$HCHDG,9.1,0.0,E,,*21
$GPRMC,000004.2,A,4921.09889,N,12316.83469,W,004.69,037.2,220913,017.3,E,D*2E
$PGRME,2.4,M,3.1,M,4.0,M*2E
$HCHDG,8.9,0.0,E,,*28
$HCHDG,9.0,0.0,E,,*20
$GPRMC,000004.4,A,4921.09901,N,12316.83434,W,004.70,035.9,220913,017.3,E,D*20
$PGRME,2.4,M,3.1,M,4.0,M*2E
$YXXDR,A,6.2,D,PTCH,A,2.3,D,ROLL*58
$HCHDG,9.0,0.0,E,,*20
$HCHDG,9.0,0.0,E,,*20
$GPRMC,000004.6,A,4921.09926,N,12316.83409,W,004.68,036.2,220913,017.3,E,D*28
$PGRME,2.4,M,3.1,M,4.0,M*2E
$IIVWR,064,R,02.6,N,,,,*67
$HCHDG,9.1,0.0,E,,*21
$IIGLL,4921.098,N,12316.834,W,000000,A,A*45
$IIMTW,+14.0,C*3D
$HCHDG,9.2,0.0,E,,*22
$GPRMC,000004.8,A,4921.09949,N,12316.83373,W,004.66,036.2,220913,017.3,E,D*2B
$IIMWV,064,R,02.6,N,A*15
$PGRME,2.4,M,3.1,M,4.0,M*2E
$IIMWV,152,T,05.1,N,A*17
$HCHDG,9.2,0.0,E,,*22
$IIRMB,A,,,,Shil,,,,,105.9,161,,V,A*20
$YXXDR,A,6.0,D,PTCH,A,3.5,D,ROLL*5D
$GPRMC,000005.0,A,4921.09976,N,12316.83351,W,004.63,036.8,220913,017.3,E,D*21
$GPRMB,A,-35.21,L,,Shil,4741.0830,N,12224.5670,W,105.9,161,-2.57,V*04
$HCHDG,9.1,0.0,E,,*21
$PGRME,2.4,M,3.1,M,4.0,M*2E
$IIRMC,000000,A,4921.098,N,12316.834,W,04.7,035,210913,17,E,A*12
$HCHDG,9.0,0.0,E,,*20
$IIVHW,,,,,05.6,N,,*1A
$HCHDG,8.8,0.0,E,,*29
$GPRMC,000005.2,A,4921.09995,N,12316.83325,W,004.63,036.2,220913,017.3,E,D*27
$PGRME,2.4,M,3.1,M,4.0,M*2E
$HCHDG,8.7,0.0,E,,*26
$HCHDG,8.6,0.0,E,,*27
$GPRMC,000005.4,A,4921.10004,N,12316.83304,W,004.62,036.9,220913,017.3,E,D*21
$PGRME,2.4,M,3.1,M,4.0,M*2E
$YXXDR,A,5.8,D,PTCH,A,4.5,D,ROLL*51
$PTAK,FFD1,4.5*54
$HCHDG,8.9,0.0,E,,*28
$PTAK,FFP1,HEEL,@*07
$HCHDG,8.8,0.0,E,,*29
$GPRMC,000005.6,A,4921.10029,N,12316.83284,W,004.61,035.9,220913,017.3,E,D*25
$PGRME,2.4,M,3.1,M,4.0,M*2E
$IIVLW,06372,N,033.3,N*50
$IIVWR,069,R,02.5,N,,,,*69
$HCHDG,9.0,0.0,E,,*20
$IIGLL,4921.099,N,12316.833,W,000000,A,A*43
$HCHDG,8.9,0.0,E,,*28
$GPRMC,000005.8,A,4921.10053,N,12316.83256,W,004.62,034.4,220913,017.3,E,D*26
$IIMTW,+14.0,C*3D
$PGRME,2.4,M,3.1,M,4.0,M*2E
$IIMWV,069,R,02.5,N,A*1B
$HCHDG,9.2,0.0,E,,*22
$IIMWV,153,T,05.0,N,A*17
$YXXDR,A,6.3,D,PTCH,A,5.8,D,ROLL*55
$IIRMB,A,,,,Shil,,,,,105.9,161,,V,A*20
$GPRMC,000006.0,A,4921.10082,N,12316.83244,W,004.62,033.4,220913,017.3,E,D*25
$GPRMB,A,-35.21,L,,Shil,4741.0830,N,12224.5670,W,105.9,161,-2.79,V*08
$HCHDG,9.2,0.0,E,,*22
$PGRME,2.4,M,3.1,M,4.0,M*2E
$HCHDG,9.1,0.0,E,,*21
$IIRMC,000000,A,4921.099,N,12316.833,W,04.6,036,210913,17,E,A*16
$HCHDG,9.3,0.0,E,,*23
$GPRMC,000006.2,A,4921.10101,N,12316.83227,W,004.62,032.3,220913,017.3,E,D*2E
$PGRME,2.4,M,3.1,M,4.0,M*2E
$HCHDG,9.3,0.0,E,,*23
$HCHDG,9.6,0.0,E,,*26
$GPRMC,000006.4,A,4921.10115,N,12316.83204,W,004.60,030.8,220913,017.3,E,D*27
$PGRME,2.4,M,3.1,M,3.9,M*20
$YXXDR,A,6.2,D,PTCH,A,6.0,D,ROLL*5F
$PTAK,FFD1,6.0*53
$HCHDG,9.5,0.0,E,,*25
$HCHDG,9.7,0.0,E,,*27
$GPRMC,000006.6,A,4921.10129,N,12316.83174,W,004.61,031.8,220913,017.3,E,D*2E
$IIVHW,,,,,05.7,N,,*1B
$PGRME,2.4,M,3.0,M,3.9,M*21
$IIVLW,06372,N,033.3,N*50
$HCHDG,9.7,0.0,E,,*27
$IIVWR,068,R,02.6,N,,,,*6B
$HCHDG,9.5,0.0,E,,*25
$GPRMC,000006.8,A,4921.10155,N,12316.83147,W,004.64,032.3,220913,017.3,E,D*26
$PGRME,2.4,M,3.0,M,3.9,M*21
$IIGLL,4921.100,N,12316.832,W,000000,A,A*43
$IIMTW,+14.0,C*3D
$HCHDG,9.3,0.0,E,,*23
$IIMWV,068,R,02.6,N,A*19
$YXXDR,A,6.3,D,PTCH,A,5.1,D,ROLL*5C
$IIMWV,154,T,05.3,N,A*13
$GPRMC,000007.0,A,4921.10180,N,12316.83120,W,004.67,031.5,220913,017.3,E,D*20
$HCHDG,9.3,0.0,E,,*23
$PGRME,2.4,M,3.0,M,3.9,M*21
$IIRMB,A,,,,Shil,,,,,105.9,161,,V,A*20
$HCHDG,9.1,0.0,E,,*21
$HCHDG,8.8,0.0,E,,*29
$GPRMC,000007.2,A,4921.10196,N,12316.83104,W,004.70,032.7,220913,017.3,E,D*24
$GPRMB,A,-35.21,L,,Shil,4741.0830,N,12224.5670,W,105.9,161,-2.89,V*07
$PGRME,2.4,M,3.0,M,3.9,M*21
$HCHDG,8.8,0.0,E,,*29
$HCHDG,8.6,0.0,E,,*27
$GPRMC,000007.4,A,4921.10214,N,12316.83069,W,004.70,032.6,220913,017.3,E,D*20
$PGRME,2.4,M,3.0,M,3.9,M*21
$YXXDR,A,6.3,D,PTCH,A,3.5,D,ROLL*5E
$PTAK,FFD1,3.5*53
$HCHDG,8.6,0.0,E,,*27
$HCHDG,8.3,0.0,E,,*22
$GPRMC,000007.6,A,4921.10234,N,12316.83037,W,004.72,033.7,220913,017.3,E,D*29
$PGRME,2.4,M,3.0,M,3.9,M*21
$HCHDG,8.3,0.0,E,,*22
$IIRMC,000000,A,4921.101,N,12316.831,W,04.6,031,210913,17,E,A*13
$IIVHW,,,,,05.7,N,,*1B
$HCHDG,8.4,0.0,E,,*25
$IIVLW,06372,N,033.3,N*50
$GPRMC,000007.8,A,4921.10249,N,12316.83010,W,004.72,034.6,220913,017.3,E,D*2E
$PGRME,2.4,M,3.0,M,3.9,M*21
$IIVWR,067,R,02.5,N,,,,*67
$HCHDG,8.1,0.0,E,,*20
$IIGLL,4921.101,N,12316.831,W,000000,A,A*41
$YXXDR,A,6.3,D,PTCH,A,2.2,D,ROLL*58
$IIMTW,+14.0,C*3D
$GPRMC,000008.0,A,4921.10276,N,12316.82987,W,004.75,034.1,220913,017.3,E,D*23
$HCHDG,8.0,0.0,E,,*21
$PGRME,2.4,M,3.0,M,3.9,M*21
$IIMWV,067,R,02.5,N,A*15
$HCHDG,8.0,0.0,E,,*21
$IIMWV,153,T,05.3,N,A*14
$HCHDG,7.9,0.0,E,,*27
$GPRMC,000008.2,A,4921.10303,N,12316.82975,W,004.80,034.3,220913,017.3,E,D*27
$PGRME,2.4,M,3.0,M,3.9,M*21
$HCHDG,7.7,0.0,E,,*29
$HCHDG,7.7,0.0,E,,*29
$GPRMC,000008.4,A,4921.10330,N,12316.82958,W,004.82,034.3,220913,017.3,E,D*2C
$GPRMB,A,-35.21,L,,Shil,4741.0830,N,12224.5670,W,105.9,161,-2.85,V*0B
$PGRME,2.4,M,3.0,M,3.9,M*21
$YXXDR,A,6.3,D,PTCH,A,2.5,D,ROLL*5F
$PTAK,FFD1,2.5*52
$HCHDG,7.9,0.0,E,,*27
$HCHDG,7.8,0.0,E,,*26
$GPRMC,000008.6,A,4921.10351,N,12316.82944,W,004.81,033.8,220913,017.3,E,D*2B
$PGRME,2.4,M,3.0,M,3.9,M*21
$IIRMB,A,,,,Shil,,,,,105.9,161,,V,A*20
$HCHDG,7.9,0.0,E,,*27
$IIRMC,000000,A,4921.102,N,12316.829,W,04.7,034,210913,17,E,A*1D
$HCHDG,8.1,0.0,E,,*20
$GPRMC,000008.8,A,4921.10373,N,12316.82921,W,004.81,034.4,220913,017.3,E,D*2D
$PGRME,2.4,M,3.0,M,3.9,M*21
$IIVHW,,,,,05.7,N,,*1B
$HCHDG,7.9,0.0,E,,*27
$IIVLW,06372,N,033.3,N*50
$IIVWR,067,R,02.4,N,,,,*66
$YXXDR,A,5.8,D,PTCH,A,3.4,D,ROLL*57
$GPRMC,000009.0,A,4921.10406,N,12316.82892,W,004.78,035.3,220913,017.3,E,D*28
$HCHDG,7.9,0.0,E,,*27
$PGRME,2.4,M,3.0,M,3.9,M*21
$IIGLL,4921.102,N,12316.829,W,000000,A,A*4B
$IIMTW,+14.0,C*3D
$HCHDG,7.6,0.0,E,,*28
$IIMWV,067,R,02.4,N,A*14
$HCHDG,7.4,0.0,E,,*2A
$GPRMC,000009.2,A,4921.10433,N,12316.82881,W,004.75,034.7,220913,017.3,E,D*26
$PGRME,2.4,M,3.0,M,3.9,M*21
$HCHDG,7.6,0.0,E,,*28
$HCHDG,7.4,0.0,E,,*2A
$GPRMC,000009.4,A,4921.10458,N,12316.82867,W,004.73,034.3,220913,017.3,E,D*27
$PGRME,2.4,M,3.1,M,3.9,M*20
$YXXDR,A,5.6,D,PTCH,A,4.0,D,ROLL*5A
$HCHDG,7.5,0.0,E,,*2B
$HCHDG,7.6,0.0,E,,*28
$PTAK,FFP1,HEEL,@*07
$GPRMC,000009.6,A,4921.10482,N,12316.82858,W,004.73,032.1,220913,017.3,E,D*2A
$GPRMB,A,-35.21,L,,Shil,4741.0830,N,12224.5670,W,105.9,161,-2.94,V*0B
$PGRME,2.4,M,3.1,M,3.9,M*20
$IIMWV,156,T,05.3,N,A*11
$HCHDG,7.6,0.0,E,,*28
$IIRMB,A,,,,Shil,,,,,105.9,161,,V,A*20
$HCHDG,7.8,0.0,E,,*26
$GPRMC,000009.8,A,4921.10502,N,12316.82842,W,004.71,032.8,220913,017.3,E,D*2D
$PGRME,2.4,M,3.1,M,3.9,M*20
$IIRMC,000000,A,4921.104,N,12316.828,W,04.7,035,210913,17,E,A*1B
$IIVHW,,,,,05.8,N,,*14
$HCHDG,7.8,0.0,E,,*26
$IIVLW,06372,N,033.3,N*50
$YXXDR,A,5.7,D,PTCH,A,5.7,D,ROLL*5D
$PTAK,FFD1,5.7*57
$IIVWR,072,R,02.4,N,,,,*62
$GPRMC,000010.0,A,4921.10524,N,12316.82817,W,004.55,032.1,220913,017.3,E,D*26
$HCHDG,7.8,0.0,E,,*26
$PGRME,2.4,M,3.0,M,3.9,M*21
$IIGLL,4921.104,N,12316.828,W,000000,A,A*4C
$HCHDG,7.9,0.0,E,,*27
$IIMTW,+14.0,C*3D
$HCHDG,7.7,0.0,E,,*29
$GPRMC,000010.2,A,4921.10548,N,12316.82795,W,004.58,032.7,220913,017.3,E,D*20
$PGRME,2.4,M,3.0,M,3.8,M*20
$HCHDG,7.6,0.0,E,,*28
$HCHDG,7.7,0.0,E,,*29
$GPRMC,000010.4,A,4921.10569,N,12316.82779,W,004.57,032.4,220913,017.3,E,D*2B
$PGRME,2.4,M,2.9,M,3.8,M*28
$YXXDR,A,6.0,D,PTCH,A,5.4,D,ROLL*5A
$HCHDG,7.3,0.0,E,,*2D
$HCHDG,7.2,0.0,E,,*2C
$GPRMC,000010.6,A,4921.10588,N,12316.82755,W,004.51,030.6,220913,017.3,E,D*2E
$PGRME,2.4,M,2.9,M,3.8,M*28
$IIMWV,071,R,02.3,N,A*14
$IIMWV,157,T,05.5,N,A*16
$HCHDG,7.5,0.0,E,,*2B
$IIRMB,A,,,,Shil,,,,,105.9,161,,V,A*20
$HCHDG,7.6,0.0,E,,*28
$GPRMC,000010.8,A,4921.10605,N,12316.82733,W,004.55,030.6,220913,017.3,E,D*22
$GPRMB,A,-35.21,L,,Shil,4741.0830,N,12224.5670,W,105.9,161,-2.92,V*0D
$PGRME,2.4,M,2.9,M,3.8,M*28
$HCHDG,7.8,0.0,E,,*26
$IIRMC,000000,A,4921.105,N,12316.828,W,04.5,032,210913,17,E,A*1F
$IIVHW,,,,,05.8,N,,*14
$YXXDR,A,6.4,D,PTCH,A,6.0,D,ROLL*59
$PTAK,FFD1,6.0*53
$IIVLW,06372,N,033.3,N*50
$GPRMC,000011.0,A,4921.10622,N,12316.82713,W,004.51,028.0,220913,017.3,E,D*27
$HCHDG,7.9,0.0,E,,*27
$PGRME,2.4,M,2.9,M,3.8,M*28
$IIVWR,071,R,02.3,N,,,,*66
$HCHDG,8.1,0.0,E,,*20
$IIGLL,4921.105,N,12316.828,W,000000,A,A*4D
$HCHDG,8.3,0.0,E,,*22
$GPRMC,000011.2,A,4921.10652,N,12316.82704,W,004.49,028.5,220913,017.3,E,D*28
$PGRME,2.4,M,2.9,M,3.8,M*28
$HCHDG,8.3,0.0,E,,*22
$HCHDG,8.4,0.0,E,,*25
$GPRMC,000011.4,A,4921.10680,N,12316.82688,W,004.50,030.1,220913,017.3,E,D*21
$PGRME,2.4,M,2.9,M,3.8,M*28
$YXXDR,A,6.3,D,PTCH,A,4.8,D,ROLL*54
$HCHDG,8.5,0.0,E,,*24
$HCHDG,8.3,0.0,E,,*22
$IIMTW,+14.0,C*3D
$GPRMC,000011.6,A,4921.10706,N,12316.82662,W,004.54,030.9,220913,017.3,E,D*24
$PGRME,2.4,M,2.9,M,3.8,M*28
$IIMWV,083,R,02.3,N,A*19
$HCHDG,8.4,0.0,E,,*25
$IIMWV,158,T,05.5,N,A*19
$HCHDG,8.1,0.0,E,,*20
$IIRMB,A,,,,Shil,,,,,105.9,161,,V,A*20
$GPRMC,000011.8,A,4921.10734,N,12316.82637,W,004.55,031.0,220913,017.3,E,D*22
$GPRMB,A,-35.20,L,,Shil,4741.0830,N,12224.5670,W,105.9,161,-2.90,V*0E
$PGRME,2.4,M,2.9,M,3.8,M*28
$HCHDG,8.0,0.0,E,,*21
$IIRMC,000000,A,4921.106,N,12316.827,W,04.5,028,210913,17,E,A*18
$YXXDR,A,6.3,D,PTCH,A,3.3,D,ROLL*58
$PTAK,FFD1,3.3*55
$IIVHW,,,,,05.7,N,,*1B
$GPRMC,000012.0,A,4921.10755,N,12316.82613,W,004.58,031.3,220913,017.3,E,D*26
$HCHDG,7.7,0.0,E,,*29
$PGRME,2.4,M,2.9,M,3.8,M*28
$IIVLW,06372,N,033.3,N*50
$HCHDG,7.5,0.0,E,,*2B
$IIVWR,083,R,02.3,N,,,,*6B
$HCHDG,7.5,0.0,E,,*2B
$GPRMC,000012.2,A,4921.10773,N,12316.82583,W,004.62,032.2,220913,017.3,E,D*21
$PGRME,2.4,M,2.9,M,3.8,M*28
$HCHDG,7.3,0.0,E,,*2D
$HCHDG,7.1,0.0,E,,*2F
$GPRMC,000012.4,A,4921.10789,N,12316.82573,W,004.66,034.2,220913,017.3,E,D*2F
$PGRME,2.4,M,2.9,M,3.8,M*28
$YXXDR,A,6.7,D,PTCH,A,1.4,D,ROLL*59
$HCHDG,6.9,0.0,E,,*26
$HCHDG,6.9,0.0,E,,*26
$GPRMC,000012.6,A,4921.10807,N,12316.82555,W,004.70,033.3,220913,017.3,E,D*21
$PGRME,2.4,M,2.9,M,3.8,M*28
$IIGLL,4921.107,N,12316.826,W,000000,A,A*41
$HCHDG,6.6,0.0,E,,*29
$IIMTW,+14.0,C*3D
$IIMWV,095,R,02.3,N,A*1E
$HCHDG,6.6,0.0,E,,*29
$IIMWV,159,T,06.0,N,A*1E
$GPRMC,000012.8,A,4921.10831,N,12316.82526,W,004.75,034.1,220913,017.3,E,D*2E
$GPRMB,A,-35.20,L,,Shil,4741.0830,N,12224.5670,W,105.9,161,-2.82,V*0D
$PGRME,2.4,M,2.9,M,3.8,M*28
$IIRMB,A,,,,Shil,,,,,105.9,161,,V,A*20
$HCHDG,6.3,0.0,E,,*2C
$YXXDR,A,6.9,D,PTCH,A,1.8,D,ROLL*5B
$GPRMC,000013.0,A,4921.10853,N,12316.82493,W,004.92,034.9,220913,017.3,E,D*2D
$HCHDG,6.2,0.0,E,,*2D
$PGRME,2.4,M,2.9,M,3.8,M*28
$IIRMC,000000,A,4921.107,N,12316.826,W,04.5,031,210913,17,E,A*10
$IIVHW,,,,,05.8,N,,*14
$HCHDG,6.1,0.0,E,,*2E
$IIVLW,06372,N,033.3,N*50
$HCHDG,5.8,0.0,E,,*24
$GPRMC,000013.2,A,4921.10876,N,12316.82465,W,004.90,034.7,220913,017.3,E,D*2D
$PGRME,2.4,M,2.9,M,3.8,M*28
$HCHDG,5.8,0.0,E,,*24
$HCHDG,5.7,0.0,E,,*2B
$GPRMC,000013.4,A,4921.10904,N,12316.82433,W,004.69,034.0,220913,017.3,E,D*2D
$PGRME,2.4,M,2.9,M,3.8,M*28
$YXXDR,A,6.4,D,PTCH,A,2.6,D,ROLL*5B
$PTAK,FFD1,2.6*51
$HCHDG,5.7,0.0,E,,*2B
$HCHDG,5.8,0.0,E,,*24
$PTAK,FFP1,HEEL,@*07
$GPRMC,000013.6,A,4921.10919,N,12316.82413,W,004.75,034.9,220913,017.3,E,D*25
$PGRME,2.4,M,2.9,M,3.8,M*28
$IIVWR,096,R,02.3,N,,,,*6F
$HCHDG,5.8,0.0,E,,*24
$IIGLL,4921.108,N,12316.824,W,000000,A,A*4C
$IIMTW,+14.0,C*3D
$HCHDG,6.0,0.0,E,,*2F
$GPRMC,000013.8,A,4921.10937,N,12316.82406,W,004.74,033.2,220913,017.3,E,D*2E
$IIMWV,096,R,02.3,N,A*1D
$PGRME,2.4,M,2.9,M,3.8,M*28
$IIMWV,159,T,06.4,N,A*1A
$HCHDG,6.0,0.0,E,,*2F
$IIRMB,A,,,,Shil,,,,,105.9,161,,V,A*20
$YXXDR,A,6.0,D,PTCH,A,4.3,D,ROLL*5C
$GPRMC,000014.0,A,4921.10957,N,12316.82396,W,004.72,033.1,220913,017.3,E,D*2C
$GPRMB,A,-35.20,L,,Shil,4741.0830,N,12224.5670,W,105.9,161,-2.87,V*08
$HCHDG,6.2,0.0,E,,*2D
$PGRME,2.4,M,2.9,M,3.8,M*28
$IIRMC,000000,A,4921.108,N,12316.824,W,04.9,034,210913,17,E,A*14
$HCHDG,6.1,0.0,E,,*2E
$IIVHW,,,,,05.8,N,,*14
$HCHDG,6.4,0.0,E,,*2B
$GPRMC,000014.2,A,4921.10984,N,12316.82378,W,004.67,032.2,220913,017.3,E,D*26
$PGRME,2.4,M,2.9,M,3.8,M*28
$HCHDG,6.3,0.0,E,,*2C
$HCHDG,6.3,0.0,E,,*2C
$GPRMC,000014.4,A,4921.11006,N,12316.82359,W,004.67,031.4,220913,017.3,E,D*24
$PGRME,2.4,M,2.9,M,3.8,M*28
$YXXDR,A,5.8,D,PTCH,A,5.3,D,ROLL*56
$PTAK,FFD1,5.3*53
$HCHDG,6.5,0.0,E,,*2A
$HCHDG,6.4,0.0,E,,*2B
$GPRMC,000014.6,A,4921.11030,N,12316.82334,W,004.66,032.9,220913,017.3,E,D*27
$PGRME,2.4,M,2.9,M,3.8,M*28
$IIVLW,06372,N,033.3,N*50
$IIVWR,091,R,02.3,N,,,,*68
$HCHDG,6.3,0.0,E,,*2C
$IIGLL,4921.109,N,12316.823,W,000000,A,A*4A
$HCHDG,5.9,0.0,E,,*25
$GPRMC,000014.8,A,4921.11044,N,12316.82316,W,004.64,033.6,220913,017.3,E,D*26
$IIMTW,+14.0,C*3D
$PGRME,2.4,M,2.9,M,3.8,M*28
$IIMWV,091,R,02.3,N,A*1A
$HCHDG,5.5,0.0,E,,*29
$IIMWV,160,T,06.4,N,A*10
$YXXDR,A,5.8,D,PTCH,A,5.0,D,ROLL*55
$IIRMB,A,,,,Shil,,,,,105.9,161,,V,A*20
$GPRMC,000015.0,A,4921.11066,N,12316.82292,W,004.64,034.0,220913,017.3,E,D*23
$GPRMB,A,-35.20,L,,Shil,4741.0830,N,12224.5670,W,105.9,161,-2.77,V*07
$HCHDG,5.6,0.0,E,,*2A
$PGRME,2.4,M,2.9,M,3.8,M*28
$HCHDG,5.2,0.0,E,,*2E
$IIRMC,000000,A,4921.109,N,12316.823,W,04.7,033,210913,17,E,A*1B
$HCHDG,5.0,0.0,E,,*2C
$GPRMC,000015.2,A,4921.11088,N,12316.82263,W,004.68,032.3,220913,017.3,E,D*26
$PGRME,2.4,M,2.9,M,3.8,M*28
$HCHDG,5.1,0.0,E,,*2D
$HCHDG,4.8,0.0,E,,*25
$GPRMC,000015.4,A,4921.11105,N,12316.82245,W,004.42,029.0,220913,017.3,E,D*21
$PGRME,2.4,M,2.9,M,3.8,M*28
$YXXDR,A,6.2,D,PTCH,A,5.0,D,ROLL*5C
$HCHDG,4.9,0.0,E,,*24
$HCHDG,5.0,0.0,E,,*2C
$GPRMC,000015.6,A,4921.11127,N,12316.82221,W,004.49,029.5,220913,017.3,E,D*2F
$IIVHW,,,,,05.8,N,,*14
$PGRME,2.4,M,2.9,M,3.8,M*28
$IIVLW,06372,N,033.3,N*50
$HCHDG,5.1,0.0,E,,*2D
$IIVWR,092,R,02.4,N,,,,*6C
$HCHDG,4.9,0.0,E,,*24
$GPRMC,000015.8,A,4921.11141,N,12316.82208,W,004.49,027.5,220913,017.3,E,D*24
$PGRME,2.4,M,2.9,M,3.8,M*28
$IIGLL,4921.110,N,12316.822,W,000000,A,A*43
$IIMTW,+14.0,C*3D
$HCHDG,5.0,0.0,E,,*2C
$IIMWV,092,R,02.4,N,A*1E
$YXXDR,A,6.3,D,PTCH,A,5.1,D,ROLL*5C
$PTAK,FFD1,5.1*51
$IIMWV,159,T,06.3,N,A*1D
$GPRMC,000016.0,A,4921.11160,N,12316.82184,W,004.49,028.9,220913,017.3,E,D*28
$HCHDG,4.9,0.0,E,,*24
$PGRME,2.4,M,2.9,M,3.8,M*28
$IIRMB,A,,,,Shil,,,,,105.9,161,,V,A*20
$HCHDG,5.0,0.0,E,,*2C
$HCHDG,5.0,0.0,E,,*2C
$GPRMC,000016.2,A,4921.11180,N,12316.82163,W,004.44,027.6,220913,017.3,E,D*20
$GPRMB,A,-35.20,L,,Shil,4741.0830,N,12224.5670,W,105.9,161,-3.03,V*05
$PGRME,2.4,M,2.9,M,3.8,M*28
$HCHDG,5.0,0.0,E,,*2C
$HCHDG,4.9,0.0,E,,*24
$GPRMC,000016.4,A,4921.11201,N,12316.82150,W,004.42,027.9,220913,017.3,E,D*25
$PGRME,2.4,M,2.9,M,3.8,M*28
$YXXDR,A,6.4,D,PTCH,A,5.1,D,ROLL*5B
$HCHDG,5.0,0.0,E,,*2C
$HCHDG,5.1,0.0,E,,*2D
$GPRMC,000016.6,A,4921.11221,N,12316.82125,W,004.42,027.5,220913,017.3,E,D*2B
$PGRME,2.4,M,2.9,M,3.8,M*28
$HCHDG,4.9,0.0,E,,*24
$IIRMC,000000,A,4921.111,N,12316.821,W,04.4,028,210913,17,E,A*19
$IIVHW,,,,,05.8,N,,*14
$HCHDG,5.1,0.0,E,,*2D
$IIVLW,06372,N,033.3,N*50
$GPRMC,000016.8,A,4921.11242,N,12316.82114,W,004.41,027.5,220913,017.3,E,D*21
$PGRME,2.4,M,2.9,M,3.8,M*28
$IIVWR,099,R,02.3,N,,,,*60
$HCHDG,5.1,0.0,E,,*2D
$IIGLL,4921.111,N,12316.821,W,000000,A,A*41
$YXXDR,A,6.1,D,PTCH,A,3.6,D,ROLL*5F
$PTAK,FFD1,3.6*50
$IIMTW,+14.0,C*3D
$GPRMC,000017.0,A,4921.11260,N,12316.82099,W,004.42,027.6,220913,017.3,E,D*2C
$HCHDG,4.5,0.0,E,,*28
$PGRME,2.4,M,2.9,M,3.8,M*28
$IIMWV,099,R,02.3,N,A*12
$HCHDG,4.5,0.0,E,,*28
$IIMWV,158,T,06.3,N,A*1C
$HCHDG,4.4,0.0,E,,*29
$GPRMC,000017.2,A,4921.11284,N,12316.82085,W,004.58,027.0,220913,017.3,E,D*24
$GPRMB,A,-35.20,L,,Shil,4741.0830,N,12224.5670,W,105.9,161,-3.16,V*01
$PGRME,2.4,M,2.9,M,3.8,M*28
$HCHDG,4.6,0.0,E,,*2B
$HCHDG,4.4,0.0,E,,*29
$GPRMC,000017.4,A,4921.11309,N,12316.82072,W,004.61,027.7,220913,017.3,E,D*23
$PGRME,2.4,M,3.0,M,3.8,M*20
$YXXDR,A,6.3,D,PTCH,A,3.5,D,ROLL*5E
$HCHDG,4.7,0.0,E,,*2A
$HCHDG,4.9,0.0,E,,*24
$PTAK,FFP1,HEEL,@*07
$GPRMC,000017.6,A,4921.11334,N,12316.82054,W,004.64,027.3,220913,017.3,E,D*2A
$PGRME,2.4,M,2.9,M,3.8,M*28
$HCHDG,4.8,0.0,E,,*25
$HCHDG,4.9,0.0,E,,*24
$GPRMC,000017.8,A,4921.11355,N,12316.82035,W,004.65,028.3,220913,017.3,E,D*2A
$PGRME,2.4,M,2.9,M,3.8,M*28
$HCHDG,5.2,0.0,E,,*2E
$YXXDR,A,6.4,D,PTCH,A,3.7,D,ROLL*5B
$GPRMC,000018.0,A,4921.11377,N,12316.82016,W,004.65,026.5,220913,017.3,E,D*24
$HCHDG,5.6,0.0,E,,*2A
$PGRME,2.4,M,2.9,M,3.8,M*28
$HCHDG,5.8,0.0,E,,*24
$HCHDG,6.0,0.0,E,,*2F
$GPRMC,000018.2,A,4921.11396,N,12316.81999,W,004.64,026.7,220913,017.3,E,D*27
$GPRMB,A,-35.20,L,,Shil,4741.0830,N,12224.5670,W,105.9,161,-3.22,V*06
$PGRME,2.4,M,2.9,M,3.8,M*28
$HCHDG,6.0,0.0,E,,*2F
$HCHDG,6.1,0.0,E,,*2E
$GPRMC,000018.4,A,4921.11418,N,12316.81979,W,004.63,027.0,220913,017.3,E,D*2F
$PGRME,2.4,M,2.9,M,3.8,M*28
$YXXDR,A,6.3,D,PTCH,A,3.5,D,ROLL*5E
$PTAK,FFD1,3.5*53
$HCHDG,5.9,0.0,E,,*25
$HCHDG,5.8,0.0,E,,*24
$GPRMC,000018.6,A,4921.11441,N,12316.81955,W,004.59,028.6,220913,017.3,E,D*2F
$PGRME,2.4,M,2.9,M,3.8,M*28
$IIRMB,A,,,,Shil,,,,,105.9,161,,V,A*20
$HCHDG,5.4,0.0,E,,*28
$IIRMC,000000,A,4921.112,N,12316.820,W,04.4,027,210913,17,E,A*14
$HCHDG,5.1,0.0,E,,*2D
$GPRMC,000018.8,A,4921.11465,N,12316.81924,W,004.60,032.4,220913,017.3,E,D*22
$PGRME,2.4,M,2.9,M,3.8,M*28
$IIVHW,,,,,05.6,N,,*1A
$IIVLW,06372,N,033.3,N*50
$HCHDG,4.9,0.0,E,,*24
$IIVWR,097,R,02.1,N,,,,*6C
$YXXDR,A,6.0,D,PTCH,A,2.0,D,ROLL*59
$GPRMC,000019.0,A,4921.11489,N,12316.81898,W,004.60,031.8,220913,017.3,E,D*20
$PGRME,2.4,M,2.9,M,3.8,M*28
$HCHDG,4.5,0.0,E,,*28
$IIGLL,4921.112,N,12316.820,W,000000,A,A*43
$IIMTW,+14.0,C*3D
$HCHDG,4.6,0.0,E,,*2B
$IIMWV,097,R,02.1,N,A*1E
$HCHDG,4.5,0.0,E,,*28
$GPRMC,000019.2,A,4921.11505,N,12316.81872,W,004.61,032.7,220913,017.3,E,D*2E
$GPRMB,A,-35.20,L,,Shil,4741.0830,N,12224.5670,W,105.9,161,-2.83,V*0C
$PGRME,2.4,M,2.9,M,3.8,M*28
$HCHDG,4.4,0.0,E,,*29
$HCHDG,4.6,0.0,E,,*2B
$GPRMC,000019.4,A,4921.11534,N,12316.81855,W,004.64,031.7,220913,017.3,E,D*29
$PGRME,2.4,M,3.0,M,3.8,M*20
$YXXDR,A,6.3,D,PTCH,A,2.9,D,ROLL*53
$HCHDG,4.6,0.0,E,,*2B
$HCHDG,4.7,0.0,E,,*2A
$GPRMC,000019.6,A,4921.11555,N,12316.81840,W,004.67,031.2,220913,017.3,E,D*2E
$PGRME,2.4,M,3.0,M,3.8,M*20
$IIMWV,159,T,06.0,N,A*1E
$HCHDG,4.6,0.0,E,,*2B
$IIRMB,A,,,,Shil,,,,,105.9,161,,V,A*20
$HCHDG,4.8,0.0,E,,*25
$GPRMC,000019.8,A,4921.11579,N,12316.81829,W,004.68,031.0,220913,017.3,E,D*2C
$PGRME,2.4,M,3.0,M,3.8,M*20
$IIRMC,000000,A,4921.114,N,12316.818,W,04.6,031,210913,17,E,A*1C
$IIVHW,,,,,05.5,N,,*19
$HCHDG,4.7,0.0,E,,*2A
$IIVLW,06372,N,033.3,N*50
$YXXDR,A,6.3,D,PTCH,A,4.1,D,ROLL*5D
$PTAK,FFD1,4.1*50
$IIVWR,092,R,02.1,N,,,,*69
$GPRMC,000020.0,A,4921.11606,N,12316.81806,W,004.70,030.7,220913,017.3,E,D*27
$HCHDG,4.9,0.0,E,,*24
$PGRME,2.4,M,3.0,M,3.8,M*20
$HCHDG,5.1,0.0,E,,*2D
$IIGLL,4921.114,N,12316.818,W,000000,A,A*4E
$IIMTW,+14.0,C*3D
$HCHDG,5.2,0.0,E,,*2E
$GPRMC,000020.2,A,4921.11627,N,12316.81787,W,004.71,029.4,220913,017.3,E,D*2A
$PGRME,2.4,M,3.0,M,3.8,M*20
$HCHDG,5.5,0.0,E,,*29
$HCHDG,5.6,0.0,E,,*2A
$GPRMC,000020.4,A,4921.11658,N,12316.81767,W,004.70,028.0,220913,017.3,E,D*2E
$GPRMB,A,-35.20,L,,Shil,4741.0830,N,12224.5670,W,105.9,161,-3.18,V*0F
$PGRME,2.4,M,3.0,M,3.8,M*20
$YXXDR,A,6.5,D,PTCH,A,6.1,D,ROLL*59
$HCHDG,6.1,0.0,E,,*2E
$HCHDG,6.2,0.0,E,,*2D
$GPRMC,000020.6,A,4921.11685,N,12316.81752,W,004.70,026.7,220913,017.3,E,D*23
$PGRME,2.4,M,2.9,M,3.8,M*28
$IIMWV,092,R,02.4,N,A*1E
$IIMWV,159,T,05.8,N,A*15
$HCHDG,6.4,0.0,E,,*2B
$IIRMB,A,,,,Shil,,,,,105.9,161,,V,A*20
$HCHDG,6.7,0.0,E,,*28
$GPRMC,000020.8,A,4921.11713,N,12316.81731,W,004.70,026.8,220913,017.3,E,D*29
$PGRME,2.4,M,3.0,M,3.8,M*20
$HCHDG,6.9,0.0,E,,*26
$IIRMC,000000,A,4921.116,N,12316.818,W,04.7,030,210913,17,E,A*1E
$IIVHW,,,,,05.4,N,,*18
$YXXDR,A,6.2,D,PTCH,A,5.6,D,ROLL*5A
$IIVLW,06372,N,033.3,N*50
$GPRMC,000021.0,A,4921.11741,N,12316.81712,W,004.70,027.4,220913,017.3,E,D*2B
$HCHDG,6.7,0.0,E,,*28
$PGRME,2.4,M,2.9,M,3.8,M*28
$IIVWR,092,R,02.4,N,,,,*6C
$HCHDG,7.0,0.0,E,,*2E
$IIGLL,4921.116,N,12316.818,W,000000,A,A*4C
$HCHDG,7.0,0.0,E,,*2E
$GPRMC,000021.2,A,4921.11767,N,12316.81683,W,004.69,028.2,220913,017.3,E,D*25
$PTAK,FFP1,HEEL,@*07
$PGRME,2.4,M,2.9,M,3.8,M*28
$HCHDG,6.9,0.0,E,,*26
$HCHDG,7.4,0.0,E,,*2A
$GPRMC,000021.4,A,4921.11790,N,12316.81648,W,004.86,029.5,220913,017.3,E,D*2B
$GPRMB,A,-35.20,L,,Shil,4741.0830,N,12224.5670,W,105.9,161,-3.19,V*0E
$PGRME,2.4,M,2.9,M,3.8,M*28
$YXXDR,A,6.0,D,PTCH,A,4.6,D,ROLL*59
$PTAK,FFD1,4.6*57
$HCHDG,7.0,0.0,E,,*2E
$HCHDG,7.1,0.0,E,,*2F
$IIMTW,+14.0,C*3D
$GPRMC,000021.6,A,4921.11811,N,12316.81622,W,004.88,031.5,220913,017.3,E,D*24
$PGRME,2.4,M,2.9,M,3.8,M*28
$IIMWV,086,R,02.6,N,A*19
$HCHDG,7.0,0.0,E,,*2E
$IIMWV,157,T,06.0,N,A*10
$HCHDG,7.0,0.0,E,,*2E
$IIRMB,A,,,,Shil,,,,,105.9,161,,V,A*20
$GPRMC,000021.8,A,4921.11834,N,12316.81600,W,004.69,030.6,220913,017.3,E,D*20
$PGRME,2.4,M,2.9,M,3.8,M*28
$HCHDG,6.9,0.0,E,,*26
$IIRMC,000000,A,4921.117,N,12316.817,W,04.7,027,210913,17,E,A*16
$YXXDR,A,6.1,D,PTCH,A,2.9,D,ROLL*51
$IIVHW,,,,,05.5,N,,*19
$GPRMC,000022.0,A,4921.11854,N,12316.81578,W,004.70,031.7,220913,017.3,E,D*29
$HCHDG,6.6,0.0,E,,*29
$PGRME,2.4,M,2.9,M,3.8,M*28
$IIVLW,06372,N,033.3,N*50
$HCHDG,6.7,0.0,E,,*28
$IIVWR,086,R,02.6,N,,,,*6B
$HCHDG,6.8,0.0,E,,*27
$GPRMC,000022.2,A,4921.11869,N,12316.81548,W,004.67,030.5,220913,017.3,E,D*23
$PGRME,2.4,M,2.9,M,3.8,M*28
$HCHDG,6.8,0.0,E,,*27
$HCHDG,6.9,0.0,E,,*26
$GPRMC,000022.4,A,4921.11895,N,12316.81525,W,004.62,030.5,220913,017.3,E,D*28
$GPRMB,A,-35.20,L,,Shil,4741.0830,N,12224.5670,W,105.9,161,-2.98,V*06
$PGRME,2.4,M,2.9,M,3.8,M*28
$YXXDR,A,6.1,D,PTCH,A,2.4,D,ROLL*5C
$PTAK,FFD1,2.4*53
$HCHDG,7.0,0.0,E,,*2E
$HCHDG,7.0,0.0,E,,*2E
$GPRMC,000022.6,A,4921.11922,N,12316.81512,W,004.62,030.9,220913,017.3,E,D*2F
$PGRME,2.4,M,2.9,M,3.8,M*28
$IIGLL,4921.118,N,12316.815,W,000000,A,A*4F
$HCHDG,7.1,0.0,E,,*2F
$IIMTW,+14.0,C*3D
$IIMWV,085,R,02.5,N,A*19
$HCHDG,7.3,0.0,E,,*2D
$IIMWV,154,T,05.9,N,A*19
$GPRMC,000022.8,A,4921.11948,N,12316.81493,W,004.64,032.1,220913,017.3,E,D*29
$PGRME,2.4,M,2.9,M,3.8,M*28
$IIRMB,A,,,,Shil,,,,,105.9,161,,V,A*20
$HCHDG,7.3,0.0,E,,*2D
$YXXDR,A,6.2,D,PTCH,A,2.3,D,ROLL*58
$GPRMC,000023.0,A,4921.11970,N,12316.81476,W,004.64,032.8,220913,017.3,E,D*29
$HCHDG,7.3,0.0,E,,*2D
$PGRME,2.4,M,3.0,M,3.8,M*20
$IIRMC,000000,A,4921.118,N,12316.815,W,04.7,031,210913,17,E,A*1C
$IIVHW,,,,,05.5,N,,*19
$HCHDG,7.3,0.0,E,,*2D
$IIVLW,06372,N,033.3,N*50
$HCHDG,7.0,0.0,E,,*2E
$GPRMC,000023.2,A,4921.11992,N,12316.81453,W,004.64,033.8,220913,017.3,E,D*21
$PGRME,2.4,M,3.0,M,3.8,M*20
$HCHDG,7.2,0.0,E,,*2C
$HCHDG,7.1,0.0,E,,*2F
$GPRMC,000023.4,A,4921.12012,N,12316.81430,W,004.68,033.4,220913,017.3,E,D*20
$GPRMB,A,-35.20,L,,Shil,4741.0830,N,12224.5670,W,105.9,161,-2.83,V*0C
$PGRME,2.4,M,3.0,M,3.8,M*20
$YXXDR,A,6.1,D,PTCH,A,2.2,D,ROLL*5A
$HCHDG,7.2,0.0,E,,*2C
$HCHDG,7.2,0.0,E,,*2C
$GPRMC,000023.6,A,4921.12036,N,12316.81401,W,004.71,034.1,220913,017.3,E,D*2C
$PGRME,2.4,M,3.0,M,3.8,M*20
$IIVWR,085,R,02.6,N,,,,*68
$HCHDG,7.2,0.0,E,,*2C
$IIGLL,4921.119,N,12316.814,W,000000,A,A*4F
$IIMTW,+14.0,C*3D
$HCHDG,7.1,0.0,E,,*2F
$GPRMC,000023.8,A,4921.12061,N,12316.81381,W,004.73,033.9,220913,017.3,E,D*22
$IIMWV,085,R,02.6,N,A*1A
$PGRME,2.4,M,3.0,M,3.8,M*20
$IIMWV,155,T,05.9,N,A*18
$HCHDG,7.2,0.0,E,,*2C
$IIRMB,A,,,,Shil,,,,,105.9,161,,V,A*20
$YXXDR,A,6.2,D,PTCH,A,2.9,D,ROLL*52
$PTAK,FFD1,2.9*5E
$GPRMC,000024.0,A,4921.12083,N,12316.81359,W,004.75,032.4,220913,017.3,E,D*2E
$HCHDG,7.5,0.0,E,,*2B
$PGRME,2.4,M,3.0,M,3.8,M*20
$IIRMC,000000,A,4921.119,N,12316.814,W,04.6,032,210913,17,E,A*1E
$HCHDG,7.3,0.0,E,,*2D
$IIVHW,,,,,05.6,N,,*1A
$HCHDG,7.2,0.0,E,,*2C
$GPRMC,000024.2,A,4921.12107,N,12316.81321,W,004.77,033.6,220913,017.3,E,D*2F
$PGRME,2.4,M,3.0,M,3.8,M*20
$HCHDG,7.1,0.0,E,,*2F
$HCHDG,6.9,0.0,E,,*26
$GPRMC,000024.4,A,4921.12117,N,12316.81299,W,004.78,034.5,220913,017.3,E,D*21
$GPRMB,A,-35.20,L,,Shil,4741.0830,N,12224.5670,W,105.9,161,-2.82,V*0D
$PGRME,2.4,M,3.0,M,3.8,M*20
$YXXDR,A,6.2,D,PTCH,A,3.6,D,ROLL*5C
$HCHDG,7.1,0.0,E,,*2F
$HCHDG,6.9,0.0,E,,*26
$GPRMC,000024.6,A,4921.12140,N,12316.81279,W,004.78,034.1,220913,017.3,E,D*2B
$PGRME,2.4,M,3.0,M,3.8,M*20
$IIVLW,06372,N,033.3,N*50
$IIVWR,086,R,02.7,N,,,,*6A
$HCHDG,6.7,0.0,E,,*28
$IIGLL,4921.120,N,12316.813,W,000000,A,A*42
$HCHDG,6.7,0.0,E,,*28
$GPRMC,000024.8,A,4921.12166,N,12316.81248,W,004.75,034.2,220913,017.3,E,D*2D
$IIMTW,+14.0,C*3D
$PGRME,2.4,M,3.0,M,3.9,M*21
$IIMWV,086,R,02.7,N,A*18
$HCHDG,6.8,0.0,E,,*27
$IIMWV,154,T,05.9,N,A*19
$YXXDR,A,6.1,D,PTCH,A,4.5,D,ROLL*5B
$IIRMB,A,,,,Shil,,,,,105.9,161,,V,A*20
$GPRMC,000025.0,A,4921.12191,N,12316.81230,W,004.72,033.4,220913,017.3,E,D*25
$HCHDG,6.9,0.0,E,,*26
$PGRME,2.4,M,3.0,M,3.9,M*21
$HCHDG,7.2,0.0,E,,*2C
$IIRMC,000000,A,4921.120,N,12316.813,W,04.7,032,210913,17,E,A*12
$HCHDG,7.2,0.0,E,,*2C
$GPRMC,000025.2,A,4921.12216,N,12316.81219,W,004.68,032.5,220913,017.3,E,D*2B
$PTAK,FFP1,HEEL,@*07
$PGRME,2.4,M,3.0,M,3.9,M*21
$HCHDG,7.4,0.0,E,,*2A
$HCHDG,7.3,0.0,E,,*2D
$GPRMC,000025.4,A,4921.12233,N,12316.81208,W,004.47,032.3,220913,017.3,E,D*21
$PGRME,2.4,M,3.0,M,3.9,M*21
$YXXDR,A,6.1,D,PTCH,A,5.5,D,ROLL*5A
$PTAK,FFD1,5.5*55
$HCHDG,7.6,0.0,E,,*28
$HCHDG,7.9,0.0,E,,*27
$GPRMC,000025.6,A,4921.12255,N,12316.81196,W,004.52,030.6,220913,017.3,E,D*24
$GPRMB,A,-35.19,L,,Shil,4741.0830,N,12224.5670,W,105.9,161,-2.90,V*04
$IIVHW,,,,,05.6,N,,*1A
$PGRME,2.4,M,3.0,M,3.9,M*21
$IIVLW,06372,N,033.3,N*50
$HCHDG,8.0,0.0,E,,*21
$IIVWR,087,R,02.7,N,,,,*6B
$HCHDG,8.3,0.0,E,,*22
$GPRMC,000025.8,A,4921.12279,N,12316.81178,W,004.59,030.1,220913,017.3,E,D*28
$PGRME,2.4,M,3.0,M,3.9,M*21
$IIGLL,4921.121,N,12316.812,W,000000,A,A*42
$IIMTW,+14.0,C*3D
$HCHDG,8.4,0.0,E,,*25
$IIMWV,087,R,02.7,N,A*19
$YXXDR,A,6.3,D,PTCH,A,6.0,D,ROLL*5E
$IIMWV,154,T,06.2,N,A*11
$GPRMC,000026.0,A,4921.12307,N,12316.81155,W,004.61,028.9,220913,017.3,E,D*2E
$HCHDG,8.6,0.0,E,,*27
$PGRME,2.4,M,3.0,M,3.9,M*21
$IIRMB,A,,,,Shil,,,,,105.9,161,,V,A*20
$HCHDG,8.6,0.0,E,,*27
$HCHDG,8.8,0.0,E,,*29
$GPRMC,000026.2,A,4921.12332,N,12316.81135,W,004.63,028.4,220913,017.3,E,D*23
$PGRME,2.4,M,3.0,M,3.9,M*21
$HCHDG,8.7,0.0,E,,*26
$HCHDG,9.0,0.0,E,,*20
$GPRMC,000026.4,A,4921.12350,N,12316.81111,W,004.63,028.4,220913,017.3,E,D*27
$PGRME,2.4,M,3.0,M,3.9,M*21
$YXXDR,A,6.3,D,PTCH,A,4.8,D,ROLL*54
$HCHDG,8.7,0.0,E,,*26
$HCHDG,8.8,0.0,E,,*29
$GPRMC,000026.6,A,4921.12370,N,12316.81102,W,004.65,029.7,220913,017.3,E,D*21
$PGRME,2.4,M,3.0,M,3.9,M*21
$HCHDG,8.7,0.0,E,,*26
$IIRMC,000000,A,4921.123,N,12316.811,W,04.6,028,210913,17,E,A*19
$IIVHW,,,,,05.7,N,,*1B
$HCHDG,8.3,0.0,E,,*22
$IIVLW,06372,N,033.3,N*50
$GPRMC,000026.8,A,4921.12391,N,12316.81084,W,004.64,031.5,220913,017.3,E,D*25
$GPRMB,A,-35.19,L,,Shil,4741.0830,N,12224.5670,W,105.9,161,-2.93,V*07
$PGRME,2.4,M,3.0,M,3.9,M*21
$IIVWR,081,R,02.8,N,,,,*62
$HCHDG,8.0,0.0,E,,*21
$IIGLL,4921.123,N,12316.811,W,000000,A,A*43
$YXXDR,A,6.3,D,PTCH,A,2.9,D,ROLL*53
$PTAK,FFD1,2.9*5E
$IIMTW,+14.0,C*3D
$GPRMC,000027.0,A,4921.12411,N,12316.81060,W,004.67,033.5,220913,017.3,E,D*28
$PGRME,2.4,M,3.0,M,3.9,M*21
$HCHDG,7.5,0.0,E,,*2B
$IIMWV,081,R,02.8,N,A*10
$HCHDG,7.4,0.0,E,,*2A
$IIMWV,154,T,06.1,N,A*12
$HCHDG,7.2,0.0,E,,*2C
$GPRMC,000027.2,A,4921.12433,N,12316.81040,W,004.69,033.8,220913,017.3,E,D*2B
$PGRME,2.4,M,3.0,M,3.9,M*21
$HCHDG,7.0,0.0,E,,*2E
$HCHDG,6.9,0.0,E,,*26
$GPRMC,000027.4,A,4921.12449,N,12316.81008,W,004.70,033.6,220913,017.3,E,D*2A
$PGRME,2.4,M,3.0,M,3.9,M*21
$YXXDR,A,6.3,D,PTCH,A,2.0,D,ROLL*5A
$HCHDG,6.9,0.0,E,,*26
$HCHDG,6.9,0.0,E,,*26
$GPRMC,000027.6,A,4921.12477,N,12316.80982,W,004.73,033.8,220913,017.3,E,D*22
$PGRME,2.4,M,3.0,M,3.9,M*21
$IIRMB,A,,,,Shil,,,,,105.9,161,,V,A*20
$HCHDG,7.3,0.0,E,,*2D
$IIRMC,000000,A,4921.124,N,12316.810,W,04.6,033,210913,17,E,A*15
$HCHDG,7.3,0.0,E,,*2D
$GPRMC,000027.8,A,4921.12497,N,12316.80952,W,004.76,032.3,220913,017.3,E,D*20
$PGRME,2.4,M,3.0,M,3.9,M*21
$IIVHW,,,,,05.7,N,,*1B
$IIVLW,06372,N,033.3,N*50
$HCHDG,7.4,0.0,E,,*2A
$IIVWR,075,R,02.7,N,,,,*66
$YXXDR,A,6.5,D,PTCH,A,3.0,D,ROLL*5D
$GPRMC,000028.0,A,4921.12527,N,12316.80918,W,004.80,032.4,220913,017.3,E,D*2D
$GPRMB,A,-35.19,L,,Shil,4741.0830,N,12224.5670,W,105.9,161,-2.97,V*03
$HCHDG,7.7,0.0,E,,*29
$PGRME,2.4,M,3.0,M,3.9,M*21
$IIGLL,4921.124,N,12316.810,W,000000,A,A*45
$IIMTW,+14.0,C*3D
$HCHDG,7.9,0.0,E,,*27
$IIMWV,075,R,02.7,N,A*14
$HCHDG,8.0,0.0,E,,*21
$GPRMC,000028.2,A,4921.12552,N,12316.80894,W,004.83,032.3,220913,017.3,E,D*2C
$PGRME,2.4,M,3.0,M,3.9,M*21
$HCHDG,8.3,0.0,E,,*22
$HCHDG,8.3,0.0,E,,*22
$GPRMC,000028.4,A,4921.12570,N,12316.80884,W,004.86,032.0,220913,017.3,E,D*2D
$PGRME,2.4,M,3.0,M,3.9,M*21
$YXXDR,A,6.2,D,PTCH,A,3.5,D,ROLL*5F
$PTAK,FFD1,3.5*53
$HCHDG,8.1,0.0,E,,*20
$HCHDG,8.1,0.0,E,,*20
$GPRMC,000028.6,A,4921.12593,N,12316.80869,W,004.88,033.0,220913,017.3,E,D*2E
$PGRME,2.4,M,3.0,M,3.9,M*21
$IIMWV,153,T,05.6,N,A*11
$HCHDG,8.1,0.0,E,,*20
$IIRMB,A,,,,Shil,,,,,105.9,161,,V,A*20
$HCHDG,8.1,0.0,E,,*20
$GPRMC,000028.8,A,4921.12620,N,12316.80834,W,004.87,032.9,220913,017.3,E,D*24
$PGRME,2.4,M,3.0,M,3.9,M*21
$IIRMC,000000,A,4921.125,N,12316.809,W,04.8,032,210913,17,E,A*13
$IIVHW,,,,,05.7,N,,*1B
$HCHDG,8.1,0.0,E,,*20
$IIVLW,06372,N,033.3,N*50
$YXXDR,A,6.3,D,PTCH,A,3.3,D,ROLL*58
$IIVWR,080,R,02.8,N,,,,*63
$GPRMC,000029.0,A,4921.12647,N,12316.80811,W,004.87,033.4,220913,017.3,E,D*27
$GPRMB,A,-35.19,L,,Shil,4741.0830,N,12224.5670,W,105.9,161,-2.94,V*00
$HCHDG,8.1,0.0,E,,*20
$PGRME,2.4,M,3.0,M,3.9,M*21
$HCHDG,8.1,0.0,E,,*20
$PTAK,FFP1,HEEL,@*07
$IIGLL,4921.125,N,12316.809,W,000000,A,A*4C
$IIMTW,+14.0,C*3D
$HCHDG,7.9,0.0,E,,*27
$GPRMC,000029.2,A,4921.12668,N,12316.80786,W,004.70,034.2,220913,017.3,E,D*20
$PGRME,2.4,M,3.0,M,3.9,M*21
$HCHDG,7.9,0.0,E,,*27
$HCHDG,7.8,0.0,E,,*26
$GPRMC,000029.4,A,4921.12689,N,12316.80759,W,004.73,034.9,220913,017.3,E,D*23
$PGRME,2.4,M,3.0,M,3.9,M*21
$YXXDR,A,5.8,D,PTCH,A,3.3,D,ROLL*50
$HCHDG,7.8,0.0,E,,*26
$HCHDG,7.6,0.0,E,,*28
$GPRMC,000029.6,A,4921.12712,N,12316.80732,W,004.68,034.2,220913,017.3,E,D*2E
$PGRME,2.4,M,3.0,M,3.9,M*21
$IIMWV,078,R,02.9,N,A*17
$IIMWV,153,T,06.0,N,A*14
$HCHDG,7.4,0.0,E,,*2A
$IIRMB,A,,,,Shil,,,,,105.9,161,,V,A*20
$HCHDG,7.7,0.0,E,,*29
$GPRMC,000029.8,A,4921.12733,N,12316.80711,W,004.67,033.4,220913,017.3,E,D*2C
$PGRME,2.4,M,3.0,M,3.9,M*21
$IIRMC,000000,A,4921.126,N,12316.808,W,04.8,033,210913,17,E,A*10
$HCHDG,7.8,0.0,E,,*26
$IIVHW,,,,,05.8,N,,*14
$YXXDR,A,6.0,D,PTCH,A,4.0,D,ROLL*5F
$PTAK,FFD1,4.0*51
$IIVLW,06372,N,033.3,N*50
$GPRMC,000030.0,A,4921.12747,N,12316.80686,W,004.69,033.6,220913,017.3,E,D*2C
$PGRME,2.4,M,3.0,M,3.9,M*21
$HCHDG,8.0,0.0,E,,*21
$IIVWR,078,R,02.9,N,,,,*65
$HCHDG,7.9,0.0,E,,*27
$IIDPT,011.4,-1.0,*44
$HCHDG,8.0,0.0,E,,*21
$GPRMC,000030.2,A,4921.12762,N,12316.80678,W,004.52,033.0,220913,017.3,E,D*26
$GPRMB,A,-35.19,L,,Shil,4741.0830,N,12224.5670,W,105.9,161,-2.76,V*0C
$PGRME,2.4,M,3.0,M,3.9,M*21
$HCHDG,8.1,0.0,E,,*20
$HCHDG,8.4,0.0,E,,*25
$GPRMC,000030.4,A,4921.12778,N,12316.80656,W,004.53,032.7,220913,017.3,E,D*20
$PGRME,2.4,M,3.0,M,3.9,M*21
$YXXDR,A,6.0,D,PTCH,A,4.9,D,ROLL*56
$HCHDG,8.5,0.0,E,,*24
$HCHDG,8.3,0.0,E,,*22
$GPRMC,000030.6,A,4921.12800,N,12316.80635,W,004.54,032.7,220913,017.3,E,D*20
$PGRME,2.4,M,3.0,M,3.9,M*21
$IIGLL,4921.127,N,12316.806,W,000000,A,A*41
$IIMTW,+14.0,C*3D
$HCHDG,8.3,0.0,E,,*22
$IIMWV,080,R,02.8,N,A*11
$HCHDG,8.5,0.0,E,,*24
$IIMWV,152,T,05.9,N,A*1F
$GPRMC,000030.8,A,4921.12831,N,12316.80605,W,004.55,033.7,220913,017.3,E,D*2F
$PGRME,2.4,M,3.0,M,3.9,M*21
$IIRMB,A,,,,Shil,,,,,105.9,161,,V,A*20
$HCHDG,8.3,0.0,E,,*22
$YXXDR,A,6.0,D,PTCH,A,4.6,D,ROLL*59
$GPRMC,000031.0,A,4921.12853,N,12316.80596,W,004.57,033.6,220913,017.3,E,D*28
$PGRME,2.4,M,3.0,M,3.9,M*21
$HCHDG,8.1,0.0,E,,*20
$IIRMC,000000,A,4921.127,N,12316.806,W,04.6,033,210913,17,E,A*11
$IIVHW,,,,,05.8,N,,*14
$HCHDG,7.9,0.0,E,,*27
$IIVLW,06372,N,033.3,N*50
$HCHDG,7.6,0.0,E,,*28
$GPRMC,000031.2,A,4921.12877,N,12316.80582,W,004.60,033.9,220913,017.3,E,D*22
$PGRME,2.4,M,3.0,M,3.9,M*21
$HCHDG,7.4,0.0,E,,*2A
$HCHDG,7.3,0.0,E,,*2D
$GPRMC,000031.4,A,4921.12895,N,12316.80572,W,004.59,034.3,220913,017.3,E,D*20
$GPRMB,A,-35.19,L,,Shil,4741.0830,N,12224.5670,W,105.9,161,-2.72,V*08
$PGRME,2.4,M,3.0,M,3.9,M*21
$YXXDR,A,6.3,D,PTCH,A,4.0,D,ROLL*5C
$PTAK,FFD1,4.0*51
$HCHDG,7.1,0.0,E,,*2F
$HCHDG,7.0,0.0,E,,*2E
$GPRMC,000031.6,A,4921.12909,N,12316.80557,W,004.59,032.9,220913,017.3,E,D*2D
$PGRME,2.4,M,3.0,M,3.9,M*21
$IIVWR,079,R,02.8,N,,,,*65
$IIDPT,011.4,-1.0,*44
$HCHDG,6.9,0.0,E,,*26
$IIGLL,4921.128,N,12316.805,W,000000,A,A*4D
$HCHDG,6.9,0.0,E,,*26
$IIMTW,+14.0,C*3D
$GPRMC,000031.8,A,4921.12921,N,12316.80540,W,004.60,032.9,220913,017.3,E,D*25
$PGRME,2.4,M,3.0,M,3.9,M*21
$IIMWV,079,R,02.8,N,A*17
$HCHDG,6.9,0.0,E,,*26
$IIMWV,154,T,06.1,N,A*12
$YXXDR,A,6.3,D,PTCH,A,4.1,D,ROLL*5D
$IIRMB,A,,,,Shil,,,,,105.9,161,,V,A*20
$GPRMC,000032.0,A,4921.12935,N,12316.80523,W,004.61,034.2,220913,017.3,E,D*22
$PGRME,2.4,M,3.0,M,3.9,M*21
$HCHDG,6.9,0.0,E,,*26
$HCHDG,6.8,0.0,E,,*27
$IIRMC,000000,A,4921.128,N,12316.805,W,04.5,033,210913,17,E,A*1E
$HCHDG,6.8,0.0,E,,*27
$GPRMC,000032.2,A,4921.12957,N,12316.80497,W,004.61,031.9,220913,017.3,E,D*24
$PGRME,2.4,M,3.0,M,3.9,M*21
$HCHDG,6.7,0.0,E,,*28
$HCHDG,6.9,0.0,E,,*26
$GPRMC,000032.4,A,4921.12982,N,12316.80476,W,004.62,031.7,220913,017.3,E,D*28
$GPRMB,A,-35.19,L,,Shil,4741.0830,N,12224.5670,W,105.9,161,-2.90,V*04
$PGRME,2.4,M,3.0,M,3.9,M*21
$YXXDR,A,6.2,D,PTCH,A,4.3,D,ROLL*5E
$HCHDG,6.9,0.0,E,,*26
$HCHDG,6.9,0.0,E,,*26
$GPRMC,000032.6,A,4921.12997,N,12316.80451,W,004.61,030.1,220913,017.3,E,D*2F
$IIVHW,,,,,05.8,N,,*14
$PGRME,2.4,M,3.0,M,3.9,M*21
$IIVLW,06372,N,033.3,N*50
$HCHDG,6.9,0.0,E,,*26
$IIVWR,081,R,02.7,N,,,,*6D
$IIDPT,011.4,-1.0,*44
$HCHDG,7.2,0.0,E,,*2C
$GPRMC,000032.8,A,4921.13018,N,12316.80433,W,004.62,030.5,220913,017.3,E,D*2D
$PGRME,2.4,M,3.0,M,3.9,M*21
$IIGLL,4921.129,N,12316.805,W,000000,A,A*4C
$HCHDG,7.1,0.0,E,,*2F
$IIMTW,+14.0,C*3D
$IIMWV,081,R,02.7,N,A*1F
$YXXDR,A,6.6,D,PTCH,A,4.5,D,ROLL*5C
$PTAK,FFD1,4.5*54
$GPRMC,000033.0,A,4921.13033,N,12316.80414,W,004.63,030.0,220913,017.3,E,D*2C
$HCHDG,7.2,0.0,E,,*2C
$IIMWV,153,T,06.0,N,A*14
$PGRME,2.4,M,3.0,M,3.8,M*20
$HCHDG,7.2,0.0,E,,*2C
$IIRMB,A,,,,Shil,,,,,105.9,161,,V,A*20
$HCHDG,7.1,0.0,E,,*2F
$GPRMC,000033.2,A,4921.13059,N,12316.80379,W,004.63,030.0,220913,017.3,E,D*2E
$PGRME,2.4,M,3.0,M,3.8,M*20
$HCHDG,7.3,0.0,E,,*2D
$PTAK,FFP1,HEEL,@*07
$HCHDG,7.2,0.0,E,,*2C
$GPRMC,000033.4,A,4921.13082,N,12316.80357,W,004.60,027.8,220913,017.3,E,D*2F
$PGRME,2.4,M,2.9,M,3.8,M*28
$YXXDR,A,6.6,D,PTCH,A,4.4,D,ROLL*5D
$HCHDG,7.1,0.0,E,,*2F
$HCHDG,7.4,0.0,E,,*2A
$GPRMC,000033.6,A,4921.13100,N,12316.80337,W,004.62,029.1,220913,017.3,E,D*25
$GPRMB,A,-35.19,L,,Shil,4741.0830,N,12224.5670,W,105.9,161,-3.06,V*0A
$PGRME,2.4,M,2.9,M,3.8,M*28
$HCHDG,7.4,0.0,E,,*2A
$IIRMC,000000,A,4921.130,N,12316.804,W,04.6,030,210913,17,E,A*16
$IIVHW,,,,,05.8,N,,*14
$HCHDG,7.7,0.0,E,,*29
$IIVLW,06372,N,033.3,N*50
$GPRMC,000033.8,A,4921.13131,N,12316.80323,W,004.64,029.4,220913,017.3,E,D*2F
$PGRME,2.4,M,2.9,M,3.8,M*28
$IIVWR,085,R,02.8,N,,,,*66
$HCHDG,7.7,0.0,E,,*29
$IIDPT,011.4,-1.0,*44
$YXXDR,A,6.4,D,PTCH,A,4.3,D,ROLL*58
$IIGLL,4921.130,N,12316.804,W,000000,A,A*45
$GPRMC,000034.0,A,4921.13156,N,12316.80310,W,004.64,029.3,220913,017.3,E,D*26
$PGRME,2.4,M,2.9,M,3.8,M*28
$HCHDG,7.7,0.0,E,,*29
$IIMTW,+14.0,C*3D
$HCHDG,8.2,0.0,E,,*23
$IIMWV,085,R,02.8,N,A*14
$IIMWV,155,T,06.0,N,A*12
$HCHDG,7.9,0.0,E,,*27
$GPRMC,000034.2,A,4921.13183,N,12316.80296,W,004.64,029.0,220913,017.3,E,D*20
$PGRME,2.4,M,2.9,M,3.8,M*28
$HCHDG,8.0,0.0,E,,*21
$HCHDG,8.2,0.0,E,,*23
$GPRMC,000034.4,A,4921.13209,N,12316.80274,W,004.68,028.5,220913,017.3,E,D*23
$PGRME,2.4,M,2.9,M,3.8,M*28
$YXXDR,A,6.3,D,PTCH,A,3.4,D,ROLL*5F
$PTAK,FFD1,3.4*52
$HCHDG,8.1,0.0,E,,*20
$HCHDG,7.7,0.0,E,,*29
$GPRMC,000034.6,A,4921.13234,N,12316.80237,W,004.65,030.3,220913,017.3,E,D*2A
$PGRME,2.4,M,2.9,M,3.8,M*28
$IIRMB,A,,,,Shil,,,,,105.9,161,,V,A*20
$HCHDG,7.5,0.0,E,,*2B
$IIRMC,000000,A,4921.131,N,12316.803,W,04.6,029,210913,17,E,A*18
$HCHDG,7.6,0.0,E,,*28
$GPRMC,000034.8,A,4921.13251,N,12316.80210,W,004.67,031.5,220913,017.3,E,D*27
$GPRMB,A,-35.19,L,,Shil,4741.0830,N,12224.5670,W,105.9,161,-2.95,V*01
$PGRME,2.4,M,2.9,M,3.8,M*28
$IIVHW,,,,,05.8,N,,*14
$IIVLW,06372,N,033.3,N*50
$HCHDG,7.3,0.0,E,,*2D
$IIVWR,086,R,02.7,N,,,,*6A
$YXXDR,A,6.2,D,PTCH,A,2.3,D,ROLL*58
$IIDPT,011.2,-1.0,*42
$GPRMC,000035.0,A,4921.13279,N,12316.80192,W,004.72,032.3,220913,017.3,E,D*2C
$HCHDG,7.0,0.0,E,,*2E
$PGRME,2.4,M,2.9,M,3.8,M*28
$IIGLL,4921.131,N,12316.803,W,000000,A,A*43
$HCHDG,6.6,0.0,E,,*29
$IIMTW,+14.0,C*3D
$IIMWV,086,R,02.7,N,A*18
$HCHDG,6.5,0.0,E,,*2A
$GPRMC,000035.2,A,4921.13305,N,12316.80172,W,004.74,034.3,220913,017.3,E,D*2A
$PGRME,2.4,M,2.9,M,3.8,M*28
$HCHDG,6.5,0.0,E,,*2A
$HCHDG,6.3,0.0,E,,*2C
$GPRMC,000035.4,A,4921.13333,N,12316.80153,W,004.74,033.6,220913,017.3,E,D*28
$PGRME,2.4,M,2.9,M,3.8,M*28
$YXXDR,A,6.1,D,PTCH,A,2.2,D,ROLL*5A
$HCHDG,6.5,0.0,E,,*2A
$HCHDG,6.4,0.0,E,,*2B
$GPRMC,000035.6,A,4921.13352,N,12316.80122,W,004.75,032.1,220913,017.3,E,D*2C
$PGRME,2.4,M,2.9,M,3.8,M*28
$IIMWV,155,T,06.3,N,A*11
$HCHDG,6.5,0.0,E,,*2A
$IIRMB,A,,,,Shil,,,,,105.9,161,,V,A*20
$HCHDG,6.8,0.0,E,,*27
$GPRMC,000035.8,A,4921.13367,N,12316.80097,W,004.74,032.2,220913,017.3,E,D*29
$PGRME,2.4,M,2.9,M,3.8,M*28
$IIRMC,000000,A,4921.132,N,12316.801,W,04.7,032,210913,17,E,A*12
$IIVHW,,,,,05.8,N,,*14
$HCHDG,6.7,0.0,E,,*28
$IIVLW,06372,N,033.3,N*50
$YXXDR,A,6.1,D,PTCH,A,3.7,D,ROLL*5E
$PTAK,FFD1,3.7*51
$IIVWR,085,R,02.6,N,,,,*68
$GPRMC,000036.0,A,4921.13384,N,12316.80079,W,004.73,032.6,220913,017.3,E,D*2C
$GPRMB,A,-35.19,L,,Shil,4741.0830,N,12224.5670,W,105.9,161,-2.91,V*05
$PGRME,2.4,M,2.9,M,3.8,M*28
$HCHDG,6.6,0.0,E,,*29
$IIDPT,011.2,-1.0,*42
$HCHDG,6.8,0.0,E,,*27
$IIGLL,4921.132,N,12316.801,W,000000,A,A*42
$IIMTW,+14.0,C*3D
$HCHDG,6.9,0.0,E,,*26
$GPRMC,000036.2,A,4921.13409,N,12316.80058,W,004.69,031.0,220913,017.3,E,D*21
$PGRME,2.4,M,2.9,M,3.8,M*28
$HCHDG,7.0,0.0,E,,*2E
$HCHDG,7.4,0.0,E,,*2A
$GPRMC,000036.4,A,4921.13437,N,12316.80048,W,004.66,029.0,220913,017.3,E,D*2D
$PGRME,2.4,M,2.9,M,3.8,M*28
$YXXDR,A,6.1,D,PTCH,A,5.0,D,ROLL*5F
$HCHDG,7.8,0.0,E,,*26
$HCHDG,7.6,0.0,E,,*28
$GPRMC,000036.6,A,4921.13462,N,12316.80028,W,004.65,029.3,220913,017.3,E,D*29
$PGRME,2.4,M,2.9,M,3.8,M*28
$IIMWV,084,R,02.8,N,A*15
$IIMWV,155,T,06.2,N,A*10
$HCHDG,7.8,0.0,E,,*26
$IIRMB,A,,,,Shil,,,,,105.9,161,,V,A*20
$HCHDG,8.1,0.0,E,,*20
$GPRMC,000036.8,A,4921.13485,N,12316.80018,W,004.62,028.4,220913,017.3,E,D*2C
$PGRME,2.4,M,2.8,M,3.7,M*26
$IIRMC,000000,A,4921.133,N,12316.800,W,04.7,032,210913,17,E,A*12
$HCHDG,8.2,0.0,E,,*23
$IIVHW,,,,,05.8,N,,*14
$YXXDR,A,6.0,D,PTCH,A,5.7,D,ROLL*59
$IIVLW,06372,N,033.3,N*50
$GPRMC,000037.0,A,4921.13501,N,12316.80003,W,004.60,030.1,220913,017.3,E,D*2C
$PGRME,2.4,M,2.8,M,3.7,M*26
$HCHDG,8.2,0.0,E,,*23
$IIVWR,084,R,02.8,N,,,,*67
$HCHDG,8.2,0.0,E,,*23
$IIDPT,011.2,-1.0,*42
$HCHDG,7.9,0.0,E,,*27
$GPRMC,000037.2,A,4921.13529,N,12316.79985,W,004.61,029.4,220913,017.3,E,D*29
$GPRMB,A,-35.19,L,,Shil,4741.0830,N,12224.5670,W,105.9,161,-3.04,V*08
$PGRME,2.4,M,2.8,M,3.7,M*26
$HCHDG,8.1,0.0,E,,*20
$PTAK,FFP1,HEEL,@*07
$HCHDG,7.9,0.0,E,,*27
$GPRMC,000037.4,A,4921.13554,N,12316.79972,W,004.59,029.2,220913,017.3,E,D*20
$PGRME,2.4,M,2.8,M,3.7,M*26
$YXXDR,A,6.0,D,PTCH,A,5.0,D,ROLL*5E
$PTAK,FFD1,5.0*50
$HCHDG,7.8,0.0,E,,*26
$HCHDG,8.0,0.0,E,,*21
$GPRMC,000037.6,A,4921.13577,N,12316.79951,W,004.57,030.6,220913,017.3,E,D*20
$PGRME,2.4,M,2.8,M,3.7,M*26
$IIGLL,4921.133,N,12316.800,W,000000,A,A*42
$HCHDG,7.6,0.0,E,,*28
$IIMTW,+14.0,C*3D
$IIMWV,091,R,02.9,N,A*10
$HCHDG,7.6,0.0,E,,*28
$IIMWV,155,T,06.3,N,A*11
$GPRMC,000037.8,A,4921.13598,N,12316.79915,W,004.56,030.6,220913,017.3,E,D*2E
$PGRME,2.4,M,2.8,M,3.7,M*26
$IIRMB,A,,,,Shil,,,,,105.9,161,,V,A*20
$HCHDG,7.7,0.0,E,,*29
$YXXDR,A,6.2,D,PTCH,A,4.1,D,ROLL*5C
$GPRMC,000038.0,A,4921.13621,N,12316.79893,W,004.53,029.5,220913,017.3,E,D*29
$HCHDG,7.5,0.0,E,,*2B
$PGRME,2.4,M,2.8,M,3.7,M*26
$IIRMC,000000,A,4921.133,N,12316.800,W,04.7,032,210913,17,E,A*12
$IIVHW,,,,,05.8,N,,*14
$HCHDG,7.6,0.0,E,,*28
$IIVLW,06372,N,033.3,N*50
$HCHDG,7.4,0.0,E,,*2A
$GPRMC,000038.2,A,4921.13644,N,12316.79878,W,004.54,030.6,220913,017.3,E,D*21
$GPRMB,A,-35.19,L,,Shil,4741.0830,N,12224.5670,W,105.9,161,-2.92,V*06
$PGRME,2.4,M,2.8,M,3.7,M*26
$HCHDG,7.6,0.0,E,,*28
$HCHDG,7.6,0.0,E,,*28
$GPRMC,000038.4,A,4921.13673,N,12316.79855,W,004.55,030.6,220913,017.3,E,D*2D
$PGRME,2.4,M,2.8,M,3.7,M*26
$YXXDR,A,6.3,D,PTCH,A,4.0,D,ROLL*5C
$HCHDG,7.5,0.0,E,,*2B
$HCHDG,7.7,0.0,E,,*29
$GPRMC,000038.6,A,4921.13698,N,12316.79832,W,004.55,030.0,220913,017.3,E,D*2D
$PGRME,2.4,M,2.8,M,3.7,M*26
$IIVWR,090,R,02.9,N,,,,*63
$IIDPT,011.2,-1.0,*42
$HCHDG,7.5,0.0,E,,*2B
$IIGLL,4921.136,N,12316.798,W,000000,A,A*49
$HCHDG,7.6,0.0,E,,*28
$IIMTW,+14.0,C*3D
$GPRMC,000038.8,A,4921.13723,N,12316.79805,W,004.77,031.4,220913,017.3,E,D*23
$PGRME,2.4,M,2.8,M,3.7,M*26
$IIMWV,090,R,02.9,N,A*11
$HCHDG,7.5,0.0,E,,*2B
$IIMWV,154,T,06.5,N,A*16
$YXXDR,A,6.4,D,PTCH,A,3.3,D,ROLL*5F
$PTAK,FFD1,3.3*55
$IIRMB,A,,,,Shil,,,,,105.9,161,,V,A*20
$GPRMC,000039.0,A,4921.13743,N,12316.79785,W,004.72,031.5,220913,017.3,E,D*2F
$PGRME,2.4,M,2.8,M,3.7,M*26
$HCHDG,7.5,0.0,E,,*2B
$HCHDG,7.3,0.0,E,,*2D
$IIRMC,000000,A,4921.136,N,12316.798,W,04.5,029,210913,17,E,A*11
$HCHDG,7.2,0.0,E,,*2C
$GPRMC,000039.2,A,4921.13762,N,12316.79755,W,004.79,030.7,220913,017.3,E,D*2B
$GPRMB,A,-35.19,L,,Shil,4741.0830,N,12224.5670,W,105.9,161,-3.07,V*0B
$PGRME,2.4,M,2.8,M,3.7,M*26
$HCHDG,7.4,0.0,E,,*2A
$HCHDG,7.1,0.0,E,,*2F
$GPRMC,000039.4,A,4921.13789,N,12316.79738,W,004.74,030.4,220913,017.3,E,D*2D
$PGRME,2.4,M,2.8,M,3.7,M*26
$YXXDR,A,6.7,D,PTCH,A,3.6,D,ROLL*59
$HCHDG,7.2,0.0,E,,*2C
$HCHDG,7.2,0.0,E,,*2C
$GPRMC,000039.6,A,4921.13812,N,12316.79717,W,004.78,030.6,220913,017.3,E,D*21
$IIVHW,,,,,05.8,N,,*14
$PGRME,2.4,M,2.8,M,3.7,M*26
$IIVLW,06372,N,033.3,N*50
$HCHDG,7.4,0.0,E,,*2A
$IIVWR,088,R,02.8,N,,,,*6B
$IIDPT,011.2,-1.0,*42
$HCHDG,7.4,0.0,E,,*2A
$GPRMC,000039.8,A,4921.13831,N,12316.79706,W,004.82,029.8,220913,017.3,E,D*2D
$PGRME,2.4,M,2.8,M,3.7,M*26
$IIGLL,4921.137,N,12316.797,W,000000,A,A*47
$HCHDG,7.4,0.0,E,,*2A
$IIMTW,+14.0,C*3D
$IIMWV,088,R,02.8,N,A*19
$YXXDR,A,6.3,D,PTCH,A,4.1,D,ROLL*5D
$PTAK,FFD1,4.1*50
$GPRMC,000040.0,A,4921.13858,N,12316.79687,W,004.83,030.3,220913,017.3,E,D*2E
$IIMWV,153,T,06.4,N,A*10
$PGRME,2.4,M,2.8,M,3.7,M*26
$HCHDG,7.7,0.0,E,,*29
$HCHDG,7.8,0.0,E,,*26
$IIRMB,A,,,,Shil,,,,,105.9,161,,V,A*20
$HCHDG,7.6,0.0,E,,*28
$GPRMC,000040.2,A,4921.13885,N,12316.79665,W,004.83,030.9,220913,017.3,E,D*2A
$PGRME,2.4,M,2.8,M,3.7,M*26
$HCHDG,7.7,0.0,E,,*29
$HCHDG,7.7,0.0,E,,*29
$GPRMC,000040.4,A,4921.13908,N,12316.79640,W,004.82,030.8,220913,017.3,E,D*2F
$GPRMB,A,-35.18,L,,Shil,4741.0830,N,12224.5670,W,105.9,161,-3.09,V*04
$PGRME,2.4,M,2.8,M,3.7,M*26
$YXXDR,A,6.2,D,PTCH,A,4.3,D,ROLL*5E
$HCHDG,7.9,0.0,E,,*27
$HCHDG,7.8,0.0,E,,*26
$GPRMC,000040.6,A,4921.13928,N,12316.79616,W,004.79,030.7,220913,017.3,E,D*27
$PGRME,2.4,M,2.8,M,3.7,M*26
$HCHDG,7.8,0.0,E,,*26
$IIRMC,000000,A,4921.138,N,12316.796,W,04.8,030,210913,17,E,A*14
$IIVHW,,,,,05.8,N,,*14
$HCHDG,8.0,0.0,E,,*21
$IIVLW,06372,N,033.3,N*50
$GPRMC,000040.8,A,4921.13943,N,12316.79594,W,004.74,031.8,220913,017.3,E,D*2E
$PGRME,2.4,M,2.8,M,3.7,M*26
$IIVWR,087,R,02.8,N,,,,*64
$HCHDG,8.0,0.0,E,,*21
$IIDPT,011.4,-1.0,*44
$YXXDR,A,6.1,D,PTCH,A,4.5,D,ROLL*5B
$IIGLL,4921.138,N,12316.796,W,000000,A,A*49
$GPRMC,000041.0,A,4921.13962,N,12316.79565,W,004.70,031.2,220913,017.3,E,D*24
$PGRME,2.4,M,2.8,M,3.7,M*26
$HCHDG,7.9,0.0,E,,*27
$IIMTW,+14.0,C*3D
$HCHDG,7.9,0.0,E,,*27
$IIMWV,087,R,02.8,N,A*16
$IIMWV,154,T,06.4,N,A*17
$HCHDG,7.7,0.0,E,,*29
$GPRMC,000041.2,A,4921.13978,N,12316.79545,W,004.66,032.1,220913,017.3,E,D*28
$PGRME,2.4,M,2.8,M,3.7,M*26
$HCHDG,7.9,0.0,E,,*27
$HCHDG,7.8,0.0,E,,*26
$GPRMC,000041.4,A,4921.13996,N,12316.79522,W,004.61,031.8,220913,017.3,E,D*22
$GPRMB,A,-35.18,L,,Shil,4741.0830,N,12224.5670,W,105.9,161,-2.89,V*0D
$PTAK,FFP1,HEEL,@*07
$PGRME,2.4,M,2.8,M,3.7,M*26
$YXXDR,A,6.0,D,PTCH,A,4.3,D,ROLL*5C
$PTAK,FFD1,4.3*52
$HCHDG,7.7,0.0,E,,*29
$HCHDG,7.7,0.0,E,,*29
$GPRMC,000041.6,A,4921.14017,N,12316.79503,W,004.60,033.0,220913,017.3,E,D*2F
$PGRME,2.4,M,2.8,M,3.7,M*26
$IIRMB,A,,,,Shil,,,,,105.9,161,,V,A*20
$HCHDG,7.4,0.0,E,,*2A
$IIRMC,000000,A,4921.139,N,12316.795,W,04.7,031,210913,17,E,A*18
$HCHDG,7.3,0.0,E,,*2D
$GPRMC,000041.8,A,4921.14032,N,12316.79481,W,004.57,033.2,220913,017.3,E,D*2B
$PGRME,2.4,M,2.8,M,3.7,M*26
$IIVHW,,,,,05.8,N,,*14
$IIVLW,06372,N,033.3,N*50
$HCHDG,7.4,0.0,E,,*2A
$IIVWR,083,R,02.7,N,,,,*6F
$YXXDR,A,6.3,D,PTCH,A,4.0,D,ROLL*5C
$IIDPT,011.4,-1.0,*44
$GPRMC,000042.0,A,4921.14058,N,12316.79454,W,004.57,033.5,220913,017.3,E,D*23
$PGRME,2.4,M,2.8,M,3.7,M*26
$HCHDG,7.2,0.0,E,,*2C
$IIGLL,4921.139,N,12316.795,W,000000,A,A*4B
$HCHDG,7.2,0.0,E,,*2C
$IIMTW,+14.0,C*3D
$IIMWV,083,R,02.7,N,A*1D
$HCHDG,7.2,0.0,E,,*2C
$GPRMC,000042.2,A,4921.14078,N,12316.79438,W,004.56,033.3,220913,017.3,E,D*2E
$PGRME,2.4,M,2.8,M,3.7,M*26
$HCHDG,7.1,0.0,E,,*2F
$HCHDG,6.8,0.0,E,,*27
$GPRMC,000042.4,A,4921.14107,N,12316.79421,W,004.58,032.7,220913,017.3,E,D*22
$PGRME,2.4,M,2.8,M,3.7,M*26
$YXXDR,A,6.3,D,PTCH,A,4.1,D,ROLL*5D
$HCHDG,7.0,0.0,E,,*2E
$HCHDG,7.1,0.0,E,,*2F
$GPRMC,000042.6,A,4921.14131,N,12316.79399,W,004.60,032.5,220913,017.3,E,D*28
$GPRMB,A,-35.18,L,,Shil,4741.0830,N,12224.5670,W,105.9,161,-2.84,V*00
$PGRME,2.4,M,2.8,M,3.7,M*26
$IIMWV,155,T,06.1,N,A*13
$HCHDG,6.9,0.0,E,,*26
$IIRMB,A,,,,Shil,,,,,105.9,161,,V,A*20
$HCHDG,7.2,0.0,E,,*2C
$GPRMC,000042.8,A,4921.14151,N,12316.79378,W,004.77,032.3,220913,017.3,E,D*2F
$PGRME,2.4,M,2.8,M,3.7,M*26
$IIRMC,000000,A,4921.139,N,12316.795,W,04.7,031,210913,17,E,A*18
$IIVHW,,,,,05.9,N,,*15
$HCHDG,7.3,0.0,E,,*2D
$IIVLW,06372,N,033.3,N*50
$YXXDR,A,6.4,D,PTCH,A,4.8,D,ROLL*53
$PTAK,FFD1,4.8*59
$IIVWR,081,R,02.7,N,,,,*6D
$GPRMC,000043.0,A,4921.14170,N,12316.79360,W,004.74,031.5,220913,017.3,E,D*2A
$HCHDG,7.6,0.0,E,,*28
$PGRME,2.4,M,2.8,M,3.7,M*26
$IIDPT,011.6,-1.0,*46
$HCHDG,7.4,0.0,E,,*2A
$IIGLL,4921.139,N,12316.795,W,000000,A,A*4B
$IIMTW,+14.0,C*3D
$HCHDG,7.5,0.0,E,,*2B
$GPRMC,000043.2,A,4921.14191,N,12316.79338,W,004.67,029.7,220913,017.3,E,D*23
$PGRME,2.4,M,2.8,M,3.7,M*26
$HCHDG,7.6,0.0,E,,*28
$HCHDG,7.6,0.0,E,,*28
$GPRMC,000043.4,A,4921.14211,N,12316.79315,W,004.67,031.0,220913,017.3,E,D*2F
$PGRME,2.4,M,2.8,M,3.7,M*26
$YXXDR,A,6.4,D,PTCH,A,5.3,D,ROLL*59
$HCHDG,7.4,0.0,E,,*2A
$HCHDG,7.6,0.0,E,,*28
$GPRMC,000043.6,A,4921.14231,N,12316.79296,W,004.70,030.7,220913,017.3,E,D*25
$GPRMB,A,-35.18,L,,Shil,4741.0830,N,12224.5670,W,105.9,161,-3.01,V*0C
$PGRME,2.4,M,2.8,M,3.7,M*26
$IIMWV,082,R,02.8,N,A*13
$IIMWV,155,T,06.0,N,A*12
$HCHDG,7.4,0.0,E,,*2A
$IIRMB,A,,,,Shil,,,,,105.9,161,,V,A*20
$HCHDG,7.6,0.0,E,,*28
$GPRMC,000043.8,A,4921.14249,N,12316.79263,W,004.75,030.2,220913,017.3,E,D*2E
$PGRME,2.4,M,2.8,M,3.7,M*26
$IIRMC,000000,A,4921.141,N,12316.793,W,04.7,031,210913,17,E,A*11
$HCHDG,7.8,0.0,E,,*26
$IIVHW,,,,,05.8,N,,*14
$YXXDR,A,6.4,D,PTCH,A,5.3,D,ROLL*59
$IIVLW,06372,N,033.3,N*50
$GPRMC,000044.0,A,4921.14269,N,12316.79230,W,004.76,030.1,220913,017.3,E,D*25
$PGRME,2.4,M,2.8,M,3.7,M*26
$HCHDG,8.0,0.0,E,,*21
$PGRMT,GPS 18x-5Hz software ver. 3.20,,,,,,,,*30
$IIVWR,082,R,02.8,N,,,,*61
$HCHDG,8.2,0.0,E,,*23
$IIDPT,011.9,-1.0,*49
$HCHDG,8.1,0.0,E,,*20
$GPRMC,000044.2,A,4921.14293,N,12316.79214,W,004.79,030.3,220913,017.3,E,D*29
$PGRME,2.4,M,2.8,M,3.7,M*26
$HCHDG,8.1,0.0,E,,*20
$HCHDG,8.0,0.0,E,,*21
$GPRMC,000044.4,A,4921.14312,N,12316.79195,W,004.56,029.3,220913,017.3,E,D*28
$PGRME,2.4,M,2.8,M,3.7,M*26
$YXXDR,A,6.2,D,PTCH,A,4.8,D,ROLL*55
$PTAK,FFD1,4.8*59
$HCHDG,7.9,0.0,E,,*27
$HCHDG,7.7,0.0,E,,*29
$GPRMC,000044.6,A,4921.14337,N,12316.79183,W,004.62,029.6,220913,017.3,E,D*28
$PGRME,2.4,M,2.8,M,3.7,M*26
$IIGLL,4921.142,N,12316.792,W,000000,A,A*40
$HCHDG,7.8,0.0,E,,*26
$IIMTW,+14.0,C*3D
$IIMWV,080,R,02.7,N,A*1E
$HCHDG,7.7,0.0,E,,*29
$IIMWV,154,T,06.2,N,A*11
$GPRMC,000044.8,A,4921.14360,N,12316.79148,W,004.69,029.8,220913,017.3,E,D*26
$GPRMB,A,-35.18,L,,Shil,4741.0830,N,12224.5670,W,105.9,161,-3.06,V*0B
$PGRME,2.4,M,2.8,M,3.7,M*26
$IIRMB,A,,,,Shil,,,,,105.9,161,,V,A*20
$HCHDG,7.5,0.0,E,,*2B
$YXXDR,A,6.1,D,PTCH,A,3.7,D,ROLL*5E
$GPRMC,000045.0,A,4921.14380,N,12316.79130,W,004.66,030.7,220913,017.3,E,D*26
$PGRME,2.4,M,2.8,M,3.7,M*26
$HCHDG,7.3,0.0,E,,*2D
$IIRMC,000000,A,4921.142,N,12316.792,W,04.7,030,210913,17,E,A*12
$IIVHW,,,,,05.8,N,,*14
$HCHDG,7.2,0.0,E,,*2C
$IIVLW,06372,N,033.3,N*50
$HCHDG,7.2,0.0,E,,*2C
$GPRMC,000045.2,A,4921.14397,N,12316.79113,W,004.66,030.7,220913,017.3,E,D*23
$PGRME,2.4,M,2.8,M,3.7,M*26
$HCHDG,7.2,0.0,E,,*2C
$HCHDG,7.2,0.0,E,,*2C
$GPRMC,000045.4,A,4921.14422,N,12316.79094,W,004.69,031.2,220913,017.3,E,D*29
$PTAK,FFP1,HEEL,@*07
$PGRME,2.4,M,2.8,M,3.7,M*26
$YXXDR,A,6.1,D,PTCH,A,2.9,D,ROLL*51
$HCHDG,7.2,0.0,E,,*2C
$HCHDG,6.9,0.0,E,,*26
$GPRMC,000045.6,A,4921.14444,N,12316.79088,W,004.69,031.9,220913,017.3,E,D*2D
$PGRME,2.4,M,2.8,M,3.7,M*26
$IIVWR,079,R,02.6,N,,,,*6B
$IIDPT,011.9,-1.0,*49
$HCHDG,7.0,0.0,E,,*2E
$IIGLL,4921.143,N,12316.791,W,000000,A,A*42
$HCHDG,6.9,0.0,E,,*26
$IIMTW,+14.0,C*3D
$GPRMC,000045.8,A,4921.14463,N,12316.79070,W,004.67,032.4,220913,017.3,E,D*21
$PGRME,2.4,M,2.8,M,3.7,M*26
$IIMWV,079,R,02.6,N,A*19
$HCHDG,6.9,0.0,E,,*26
$IIMWV,155,T,06.0,N,A*12
$YXXDR,A,6.2,D,PTCH,A,2.9,D,ROLL*52
$PTAK,FFD1,2.9*5E
$IIRMB,A,,,,Shil,,,,,105.9,161,,V,A*20
$GPRMC,000046.0,A,4921.14481,N,12316.79052,W,004.68,032.7,220913,017.3,E,D*2A
$GPRMB,A,-35.18,L,,Shil,4741.0830,N,12224.5670,W,105.9,161,-2.88,V*0C
$PGRME,2.4,M,2.8,M,3.7,M*26
$HCHDG,6.8,0.0,E,,*27
$HCHDG,6.7,0.0,E,,*28
$IIRMC,000000,A,4921.143,N,12316.791,W,04.6,030,210913,17,E,A*11
$HCHDG,6.9,0.0,E,,*26
$GPRMC,000046.2,A,4921.14493,N,12316.79035,W,004.67,032.4,220913,017.3,E,D*26
$PGRME,2.4,M,2.8,M,3.7,M*26
$HCHDG,6.8,0.0,E,,*27
$HCHDG,6.8,0.0,E,,*27
$GPRMC,000046.4,A,4921.14515,N,12316.79016,W,004.68,031.4,220913,017.3,E,D*22
$PGRME,2.4,M,2.8,M,3.7,M*26
$YXXDR,A,6.4,D,PTCH,A,3.3,D,ROLL*5F
$HCHDG,6.9,0.0,E,,*26
$HCHDG,7.2,0.0,E,,*2C
$GPRMC,000046.6,A,4921.14538,N,12316.79001,W,004.67,031.6,220913,017.3,E,D*24
$IIVHW,,,,,05.8,N,,*14
$PGRME,2.4,M,2.8,M,3.7,M*26
$IIVLW,06372,N,033.3,N*50
$HCHDG,7.1,0.0,E,,*2F
$IIVWR,080,R,02.6,N,,,,*6D
$IIDPT,011.9,-1.0,*49
$HCHDG,7.1,0.0,E,,*2F
$GPRMC,000046.8,A,4921.14564,N,12316.78986,W,004.69,031.7,220913,017.3,E,D*2B
$PGRME,2.4,M,2.8,M,3.7,M*26
$IIGLL,4921.144,N,12316.790,W,000000,A,A*44
$HCHDG,7.3,0.0,E,,*2D
$IIMTW,+14.0,C*3D
$IIMWV,080,R,02.6,N,A*1F
$YXXDR,A,6.5,D,PTCH,A,4.1,D,ROLL*5B
$PTAK,FFD1,4.1*50
$GPRMC,000047.0,A,4921.14583,N,12316.78962,W,004.68,030.5,220913,017.3,E,D*23
$HCHDG,7.5,0.0,E,,*2B
$IIMWV,155,T,06.0,N,A*12
$PGRME,2.4,M,2.8,M,3.7,M*26
$HCHDG,7.4,0.0,E,,*2A
$IIRMB,A,,,,Shil,,,,,105.9,161,,V,A*20
$HCHDG,7.6,0.0,E,,*28
$GPRMC,000047.2,A,4921.14605,N,12316.78941,W,004.70,030.3,220913,017.3,E,D*22
$GPRMB,A,-35.18,L,,Shil,4741.0830,N,12224.5670,W,105.9,161,-3.04,V*09
$PGRME,2.4,M,2.8,M,3.7,M*26
$HCHDG,7.6,0.0,E,,*28
$HCHDG,7.7,0.0,E,,*29
$GPRMC,000047.4,A,4921.14618,N,12316.78916,W,004.70,030.3,220913,017.3,E,D*2A
$PGRME,2.4,M,2.8,M,3.7,M*26
$YXXDR,A,6.3,D,PTCH,A,5.0,D,ROLL*5D
$HCHDG,7.6,0.0,E,,*28
$HCHDG,7.8,0.0,E,,*26
$GPRMC,000047.6,A,4921.14644,N,12316.78902,W,004.70,030.3,220913,017.3,E,D*24
$PGRME,2.4,M,2.8,M,3.7,M*26
$HCHDG,7.7,0.0,E,,*29
$IIRMC,000000,A,4921.145,N,12316.789,W,04.6,030,210913,17,E,A*1E
$IIVHW,,,,,05.6,N,,*1A
$HCHDG,7.7,0.0,E,,*29
$GPRMC,000047.8,A,4921.14665,N,12316.78884,W,004.66,030.5,220913,017.3,E,D*27
$IIVLW,06372,N,033.3,N*50
$PGRME,2.4,M,2.8,M,3.7,M*26
$IIVWR,083,R,02.7,N,,,,*6F
$HCHDG,7.6,0.0,E,,*28
$IIDPT,011.9,-1.0,*49
$YXXDR,A,6.3,D,PTCH,A,4.7,D,ROLL*5B
$GPRMC,000048.0,A,4921.14682,N,12316.78873,W,004.64,031.3,220913,017.3,E,D*24
$IIGLL,4921.145,N,12316.789,W,000000,A,A*4D
$PGRME,2.4,M,2.8,M,3.7,M*26
$HCHDG,7.8,0.0,E,,*26
$IIMTW,+14.0,C*3D
$IIMWV,083,R,02.7,N,A*1D
$HCHDG,7.7,0.0,E,,*29
$IIMWV,155,T,05.9,N,A*18
$HCHDG,7.7,0.0,E,,*29
$GPRMC,000048.2,A,4921.14708,N,12316.78856,W,004.64,030.7,220913,017.3,E,D*27
$GPRMB,A,-35.18,L,,Shil,4741.0830,N,12224.5670,W,105.9,161,-2.98,V*0D
$PGRME,2.4,M,2.8,M,3.7,M*26
$HCHDG,7.6,0.0,E,,*28
$HCHDG,7.6,0.0,E,,*28
$GPRMC,000048.4,A,4921.14728,N,12316.78835,W,004.59,030.1,220913,017.3,E,D*2E
$PGRME,2.4,M,2.8,M,3.7,M*26
$YXXDR,A,6.3,D,PTCH,A,4.7,D,ROLL*5B
$PTAK,FFD1,4.7*56
$HCHDG,7.8,0.0,E,,*26
$HCHDG,7.7,0.0,E,,*29
$GPRMC,000048.6,A,4921.14761,N,12316.78822,W,004.57,030.2,220913,017.3,E,D*2A
$PGRME,2.4,M,2.8,M,3.7,M*26
$IIRMB,A,,,,Shil,,,,,105.9,161,,V,A*20
$HCHDG,8.0,0.0,E,,*21
$IIRMC,000000,A,4921.147,N,12316.788,W,04.6,030,210913,17,E,A*1D
$HCHDG,8.1,0.0,E,,*20
$GPRMC,000048.8,A,4921.14786,N,12316.78808,W,004.57,028.7,220913,017.3,E,D*29
$PGRME,2.4,M,2.8,M,3.7,M*26
$IIVHW,,,,,05.5,N,,*19
$HCHDG,8.3,0.0,E,,*22
$IIVLW,06372,N,033.3,N*50
$IIVWR,079,R,02.6,N,,,,*6B
$YXXDR,A,6.3,D,PTCH,A,4.8,D,ROLL*54
$IIDPT,014.3,-1.0,*46
$GPRMC,000049.0,A,4921.14801,N,12316.78788,W,004.55,029.5,220913,017.3,E,D*26
$PGRME,2.4,M,2.8,M,3.7,M*26
$HCHDG,8.4,0.0,E,,*25
$IIGLL,4921.147,N,12316.788,W,000000,A,A*4E
$HCHDG,8.3,0.0,E,,*22
$IIMTW,+14.0,C*3D
$IIMWV,079,R,02.6,N,A*19
$HCHDG,8.4,0.0,E,,*25
$GPRMC,000049.2,A,4921.14820,N,12316.78762,W,004.58,029.2,220913,017.3,E,D*29
$PGRME,2.4,M,2.8,M,3.7,M*26
$HCHDG,8.5,0.0,E,,*24
$HCHDG,8.1,0.0,E,,*20
$GPRMC,000049.4,A,4921.14833,N,12316.78741,W,004.63,030.1,220913,017.3,E,D*2F
$GPRMB,A,-35.18,L,,Shil,4741.0830,N,12224.5670,W,105.9,161,-3.01,V*0C
$PGRME,2.4,M,2.8,M,3.7,M*26
$YXXDR,A,6.5,D,PTCH,A,4.1,D,ROLL*5B
$PTAK,FFD1,4.1*50
$PTAK,FFP1,HEEL,@*07
$HCHDG,8.2,0.0,E,,*23
$HCHDG,8.3,0.0,E,,*22
$GPRMC,000049.6,A,4921.14852,N,12316.78708,W,004.66,030.1,220913,017.3,E,D*22
$PGRME,2.4,M,2.8,M,3.7,M*26
$IIMWV,154,T,05.6,N,A*16
$HCHDG,8.1,0.0,E,,*20
$IIRMB,A,,,,Shil,,,,,105.9,161,,V,A*20
$HCHDG,8.2,0.0,E,,*23
$GPRMC,000049.8,A,4921.14877,N,12316.78674,W,004.69,030.1,220913,017.3,E,D*2E
$PGRME,2.4,M,2.8,M,3.7,M*26
$IIRMC,000000,A,4921.148,N,12316.787,W,04.5,029,210913,17,E,A*16
$IIVHW,,,,,05.4,N,,*18
$HCHDG,8.2,0.0,E,,*23
$IIVLW,06372,N,033.3,N*50
$YXXDR,A,6.3,D,PTCH,A,3.5,D,ROLL*5E
$IIVWR,079,R,02.6,N,,,,*6B
$GPRMC,000050.0,A,4921.14896,N,12316.78642,W,004.74,031.2,220913,017.3,E,D*2A
$HCHDG,8.0,0.0,E,,*21
$PGRME,2.4,M,2.8,M,3.7,M*26
$IIDPT,014.4,-1.0,*41
$HCHDG,7.8,0.0,E,,*26
$IIGLL,4921.148,N,12316.787,W,000000,A,A*4E
$IIMTW,+14.0,C*3D
$HCHDG,8.0,0.0,E,,*21
$GPRMC,000050.2,A,4921.14920,N,12316.78610,W,004.75,031.5,220913,017.3,E,D*25
$PGRME,2.4,M,2.8,M,3.8,M*29
$HCHDG,7.9,0.0,E,,*27
$HCHDG,7.8,0.0,E,,*26
$GPRMC,000050.4,A,4921.14944,N,12316.78590,W,004.77,031.2,220913,017.3,E,D*2F
$GPRMB,A,-35.18,L,,Shil,4741.0830,N,12224.5670,W,105.9,161,-3.03,V*0E
$PGRME,2.4,M,2.9,M,3.8,M*28
