$GPRMC,040000.8,A,4825.86301,N,12229.95612,W,006.14,181.4,020913,016.9,E,D*22
$PGRME,2.4,M,2.5,M,3.5,M*29
$IIRMB,A,,,,Lac ,,,,,002.5,177,,V,A*7D
$HCHDG,167.1,0.0,E,,*28
$YXXDR,A,6.3,D,PTCH,A,2.9,D,ROLL*53
$PTAK,FFD1,2.9*5E
$HCHDG,167.2,0.0,E,,*2B
$IIRMC,035900,A,4825.865,N,12229.956,W,06.2,179,010913,16,E,A*17
$GPRMC,040001.0,A,4825.86269,N,12229.95618,W,006.12,180.5,020913,016.9,E,D*28
$PGRME,2.4,M,2.5,M,3.5,M*29
$IIVHW,,,,,05.0,N,,*1C
$HCHDG,167.2,0.0,E,,*2B
$IIVLW,02253,N,033.6,N*53
$HCHDG,167.4,0.0,E,,*2D
$GPRMC,040001.2,A,4825.86231,N,12229.95624,W,006.12,181.1,020913,016.9,E,D*2D
$PGRME,2.4,M,2.5,M,3.5,M*29
$HCHDG,167.2,0.0,E,,*2B
$HCHDG,167.3,0.0,E,,*2A
$GPRMC,040001.4,A,4825.86197,N,12229.95629,W,006.11,181.1,020913,016.9,E,D*2A
$PGRME,2.4,M,2.5,M,3.5,M*29
$YXXDR,A,6.4,D,PTCH,A,2.8,D,ROLL*55
$PTAK,FFP1,HEEL,@*07
$HCHDG,167.4,0.0,E,,*2D
$HCHDG,167.3,0.0,E,,*2A
$IIVWR,005,L,10.6,N,,,,*7D
$GPRMC,040001.6,A,4825.86159,N,12229.95628,W,006.13,181.1,020913,016.9,E,D*29
$GPRMB,A,-0.12,L,,Lac,4823.3220,N,12229.7720,W,2.5,177,6.12,V*6F
$PGRME,2.4,M,2.5,M,3.5,M*29
$IIDPT,004.2,-1.0,*46
$HCHDG,167.4,0.0,E,,*2D
$IIGLL,4825.865,N,12229.956,W,035900,A,A*4D
$HCHDG,167.3,0.0,E,,*2A
$IIMTW,+16.0,C*3F
$GPRMC,040001.8,A,4825.86121,N,12229.95626,W,006.13,180.8,020913,016.9,E,D*2E
$PGRME,2.4,M,2.5,M,3.5,M*29
$IIMWV,355,R,10.6,N,A*17
$HCHDG,167.2,0.0,E,,*2B
$IIMWV,351,T,05.7,N,A*10
$YXXDR,A,6.2,D,PTCH,A,2.7,D,ROLL*5C
$IIRMB,A,,,,Lac ,,,,,002.5,177,,V,A*7D
$HCHDG,167.3,0.0,E,,*2A
$GPRMC,040002.0,A,4825.86082,N,12229.95624,W,006.13,181.7,020913,016.9,E,D*21
$PGRME,2.4,M,2.5,M,3.5,M*29
$HCHDG,167.4,0.0,E,,*2D
$IIRMC,035900,A,4825.865,N,12229.956,W,06.2,179,010913,16,E,A*17
$HCHDG,167.3,0.0,E,,*2A
$GPRMC,040002.2,A,4825.86049,N,12229.95627,W,006.13,180.8,020913,016.9,E,D*29
$PGRME,2.4,M,2.5,M,3.5,M*29
$HCHDG,167.4,0.0,E,,*2D
$HCHDG,167.3,0.0,E,,*2A
$GPRMC,040002.4,A,4825.86013,N,12229.95630,W,006.14,181.0,020913,016.9,E,D*28
$PGRME,2.4,M,2.5,M,3.5,M*29
$YXXDR,A,5.9,D,PTCH,A,2.6,D,ROLL*55
$PTAK,FFD1,2.6*51
$HCHDG,167.3,0.0,E,,*2A
$HCHDG,167.4,0.0,E,,*2D
$IIVHW,,,,,05.0,N,,*1C
$GPRMC,040002.6,A,4825.85978,N,12229.95634,W,006.13,181.7,020913,016.9,E,D*29
$PGRME,2.4,M,2.5,M,3.5,M*29
$IIVLW,02253,N,033.6,N*53
$HCHDG,167.3,0.0,E,,*2A
$IIVWR,005,L,10.1,N,,,,*7A
$IIDPT,004.2,-1.0,*46
$HCHDG,167.3,0.0,E,,*2A
$GPRMC,040002.8,A,4825.85943,N,12229.95635,W,006.12,181.0,020913,016.9,E,D*28
$GPRMB,A,-0.12,L,,Lac,4823.3220,N,12229.7720,W,2.5,177,6.11,V*6C
$PGRME,2.4,M,2.5,M,3.5,M*29
$IIGLL,4825.861,N,12229.956,W,040000,A,A*42
$HCHDG,167.3,0.0,E,,*2A
$IIMTW,+16.0,C*3F
$IIMWV,355,R,10.1,N,A*10
$YXXDR,A,6.3,D,PTCH,A,2.5,D,ROLL*5F
$IIMWV,351,T,05.4,N,A*13
$GPRMC,040003.0,A,4825.85908,N,12229.95640,W,006.11,181.5,020913,016.9,E,D*2A
$HCHDG,167.3,0.0,E,,*2A
$PGRME,2.4,M,2.5,M,3.5,M*29
$IIRMB,A,,,,Lac ,,,,,002.5,177,,V,A*7D
$HCHDG,167.3,0.0,E,,*2A
$HCHDG,167.3,0.0,E,,*2A
$GPRMC,040003.2,A,4825.85876,N,12229.95633,W,006.13,182.1,020913,016.9,E,D*21
$PGRME,2.4,M,2.5,M,3.5,M*29
$HCHDG,167.3,0.0,E,,*2A
$HCHDG,167.6,0.0,E,,*2F
$GPRMC,040003.4,A,4825.85841,N,12229.95641,W,006.11,181.6,020913,016.9,E,D*20
$PGRME,2.4,M,2.5,M,3.5,M*29
$YXXDR,A,6.1,D,PTCH,A,2.6,D,ROLL*5E
$PTAK,FFD1,2.6*51
$HCHDG,167.5,0.0,E,,*2C
$HCHDG,167.6,0.0,E,,*2F
$GPRMC,040003.6,A,4825.85805,N,12229.95645,W,006.13,182.3,020913,016.9,E,D*22
$PGRME,2.4,M,2.5,M,3.5,M*29
$IIRMC,040000,A,4825.859,N,12229.956,W,06.1,181,010913,16,E,A*17
$HCHDG,167.6,0.0,E,,*2F
$IIVHW,,,,,04.8,N,,*15
$HCHDG,167.6,0.0,E,,*2F
$IIVLW,02253,N,033.6,N*53
$GPRMC,040003.8,A,4825.85779,N,12229.95651,W,006.12,181.9,020913,016.9,E,D*25
$GPRMB,A,-0.12,L,,Lac,4823.3220,N,12229.7720,W,2.5,177,6.10,V*6D
$PGRME,2.4,M,2.5,M,3.5,M*29
$IIVWR,005,L,10.2,N,,,,*79
$HCHDG,167.7,0.0,E,,*2E
$IIDPT,004.2,-1.0,*46
$YXXDR,A,6.1,D,PTCH,A,2.6,D,ROLL*5E
$IIGLL,4825.859,N,12229.956,W,040000,A,A*49
$GPRMC,040004.0,A,4825.85750,N,12229.95653,W,006.12,182.4,020913,016.9,E,D*2D
$HCHDG,167.7,0.0,E,,*2E
$PGRME,2.4,M,2.5,M,3.5,M*29
$IIMTW,+16.0,C*3F
$IIMWV,355,R,10.2,N,A*13
$HCHDG,167.6,0.0,E,,*2F
$IIMWV,350,T,05.0,N,A*16
$HCHDG,167.6,0.0,E,,*2F
$GPRMC,040004.2,A,4825.85717,N,12229.95659,W,006.11,181.8,020913,016.9,E,D*2A
$PGRME,2.4,M,2.5,M,3.5,M*29
$HCHDG,167.6,0.0,E,,*2F
$HCHDG,167.6,0.0,E,,*2F
$GPRMC,040004.4,A,4825.85681,N,12229.95650,W,006.13,181.5,020913,016.9,E,D*24
$PGRME,2.4,M,2.5,M,3.5,M*29
$YXXDR,A,6.3,D,PTCH,A,2.6,D,ROLL*5C
$HCHDG,167.7,0.0,E,,*2E
$HCHDG,167.8,0.0,E,,*21
$GPRMC,040004.6,A,4825.85653,N,12229.95651,W,006.12,182.2,020913,016.9,E,D*2D
$PGRME,2.4,M,2.5,M,3.5,M*29
$IIRMB,A,,,,Lac ,,,,,002.5,177,,V,A*7D
$HCHDG,167.7,0.0,E,,*2E
$IIRMC,040000,A,4825.858,N,12229.956,W,06.1,182,010913,16,E,A*15
$HCHDG,167.8,0.0,E,,*21
$GPRMC,040004.8,A,4825.85627,N,12229.95650,W,006.12,181.3,020913,016.9,E,D*23
$IIVHW,,,,,04.8,N,,*15
$PGRME,2.4,M,2.5,M,3.5,M*29
$IIVLW,02253,N,033.6,N*53
$HCHDG,167.7,0.0,E,,*2E
$IIVWR,005,L,09.8,N,,,,*7B
$YXXDR,A,5.9,D,PTCH,A,2.6,D,ROLL*55
$PTAK,FFD1,2.6*51
$IIDPT,004.2,-1.0,*46
$GPRMC,040005.0,A,4825.85601,N,12229.95652,W,006.12,182.8,020913,016.9,E,D*24
$GPRMB,A,-0.12,L,,Lac,4823.3220,N,12229.7720,W,2.5,177,6.09,V*65
$HCHDG,167.7,0.0,E,,*2E
$PGRME,2.4,M,2.4,M,3.5,M*28
$IIGLL,4825.858,N,12229.956,W,040000,A,A*48
$HCHDG,167.9,0.0,E,,*20
$IIMTW,+16.0,C*3F
$IIMWV,355,R,09.8,N,A*11
$HCHDG,167.5,0.0,E,,*2C
$GPRMC,040005.2,A,4825.85580,N,12229.95645,W,006.11,181.4,020913,016.9,E,D*26
$PGRME,2.4,M,2.4,M,3.5,M*28
$HCHDG,167.6,0.0,E,,*2F
$HCHDG,167.6,0.0,E,,*2F
$GPRMC,040005.4,A,4825.85554,N,12229.95647,W,006.11,181.8,020913,016.9,E,D*27
$PGRME,2.4,M,2.4,M,3.4,M*29
$YXXDR,A,6.3,D,PTCH,A,2.9,D,ROLL*53
$PTAK,FFP1,HEEL,@*07
$HCHDG,167.6,0.0,E,,*2F
$HCHDG,167.7,0.0,E,,*2E
$IIMWV,351,T,04.9,N,A*1F
$GPRMC,040005.6,A,4825.85522,N,12229.95652,W,006.12,182.1,020913,016.9,E,D*29
$PGRME,2.4,M,2.4,M,3.4,M*29
$HCHDG,167.8,0.0,E,,*21
$IIRMB,A,,,,Lac ,,,,,002.5,177,,V,A*7D
$HCHDG,167.9,0.0,E,,*20
$GPRMC,040005.8,A,4825.85483,N,12229.95660,W,006.10,181.4,020913,016.9,E,D*28
$PGRME,2.4,M,2.4,M,3.4,M*29
$IIRMC,040000,A,4825.856,N,12229.956,W,06.1,182,010913,16,E,A*1B
$IIVHW,,,,,05.1,N,,*1D
$HCHDG,167.9,0.0,E,,*20
$IIVLW,02253,N,033.6,N*53
$YXXDR,A,6.0,D,PTCH,A,2.7,D,ROLL*5E
$IIVWR,005,L,10.1,N,,,,*7A
$GPRMC,040006.0,A,4825.85444,N,12229.95663,W,006.11,181.7,020913,016.9,E,D*29
$GPRMB,A,-0.12,L,,Lac,4823.3220,N,12229.7720,W,2.5,177,6.09,V*65
$HCHDG,168.0,0.0,E,,*26
$PGRME,2.4,M,2.4,M,3.4,M*29
$IIDPT,004.2,-1.0,*46
$HCHDG,168.1,0.0,E,,*27
$IIGLL,4825.856,N,12229.956,W,040000,A,A*46
$IIMTW,+16.0,C*3F
$HCHDG,168.2,0.0,E,,*24
$GPRMC,040006.2,A,4825.85404,N,12229.95668,W,006.11,181.6,020913,016.9,E,D*25
$PGRME,2.4,M,2.4,M,3.4,M*29
$HCHDG,168.1,0.0,E,,*27
$HCHDG,168.1,0.0,E,,*27
$GPRMC,040006.4,A,4825.85366,N,12229.95673,W,006.12,182.1,020913,016.9,E,D*2D
$PGRME,2.4,M,2.4,M,3.4,M*29
$YXXDR,A,6.0,D,PTCH,A,2.7,D,ROLL*5E
$PTAK,FFD1,2.7*50
$HCHDG,168.2,0.0,E,,*24
$HCHDG,168.2,0.0,E,,*24
$IIMWV,355,R,10.2,N,A*13
$GPRMC,040006.6,A,4825.85324,N,12229.95672,W,006.15,182.2,020913,016.9,E,D*2C
$PGRME,2.4,M,2.4,M,3.4,M*29
$IIMWV,350,T,05.0,N,A*16
$HCHDG,168.5,0.0,E,,*23
$IIRMB,A,,,,Lac ,,,,,002.5,177,,V,A*7D
$HCHDG,168.6,0.0,E,,*20
$GPRMC,040006.8,A,4825.85288,N,12229.95665,W,006.17,181.5,020913,016.9,E,D*25
$PGRME,2.4,M,2.4,M,3.4,M*29
$IIRMC,040000,A,4825.854,N,12229.956,W,06.1,181,010913,16,E,A*1A
$HCHDG,168.7,0.0,E,,*21
$IIVHW,,,,,05.1,N,,*1D
$YXXDR,A,6.1,D,PTCH,A,2.4,D,ROLL*5C
$IIVLW,02253,N,033.6,N*53
$HCHDG,168.7,0.0,E,,*21
$GPRMC,040007.0,A,4825.85251,N,12229.95669,W,006.18,181.8,020913,016.9,E,D*26
$GPRMB,A,-0.12,L,,Lac,4823.3220,N,12229.7720,W,2.5,177,6.16,V*6B
$PGRME,2.4,M,2.4,M,3.4,M*29
$IIVWR,005,L,10.2,N,,,,*79
$HCHDG,168.8,0.0,E,,*2E
$IIDPT,004.2,-1.0,*46
$HCHDG,168.9,0.0,E,,*2F
$GPRMC,040007.2,A,4825.85217,N,12229.95661,W,006.20,182.6,020913,016.9,E,D*28
$PGRME,2.4,M,2.4,M,3.5,M*28
$HCHDG,169.1,0.0,E,,*26
$HCHDG,169.2,0.0,E,,*25
$GPRMC,040007.4,A,4825.85185,N,12229.95648,W,006.20,182.3,020913,016.9,E,D*28
$PGRME,2.4,M,2.4,M,3.5,M*28
$YXXDR,A,5.8,D,PTCH,A,2.4,D,ROLL*56
$HCHDG,169.2,0.0,E,,*25
$HCHDG,169.2,0.0,E,,*25
$GPRMC,040007.6,A,4825.85154,N,12229.95645,W,006.19,182.6,020913,016.9,E,D*24
$PGRME,2.4,M,2.5,M,3.5,M*29
$IIGLL,4825.852,N,12229.956,W,040000,A,A*42
$IIMTW,+16.0,C*3F
$HCHDG,169.2,0.0,E,,*25
$IIMWV,355,R,10.1,N,A*10
$HCHDG,169.1,0.0,E,,*26
$IIMWV,350,T,05.0,N,A*16
$GPRMC,040007.8,A,4825.85120,N,12229.95655,W,006.21,181.8,020913,016.9,E,D*2E
$PGRME,2.4,M,2.5,M,3.5,M*29
$IIRMB,A,,,,Lac ,,,,,002.5,177,,V,A*7D
$HCHDG,169.4,0.0,E,,*23
$YXXDR,A,6.4,D,PTCH,A,2.3,D,ROLL*5E
$PTAK,FFD1,2.3*54
$IIRMC,040000,A,4825.852,N,12229.956,W,06.1,181,010913,16,E,A*1C
$GPRMC,040008.0,A,4825.85086,N,12229.95654,W,006.20,182.3,020913,016.9,E,D*2C
$GPRMB,A,-0.12,L,,Lac,4823.3220,N,12229.7720,W,2.5,177,6.18,V*65
$PGRME,2.4,M,2.5,M,3.5,M*29
$HCHDG,169.4,0.0,E,,*23
$IIVHW,,,,,05.2,N,,*1E
$HCHDG,169.4,0.0,E,,*23
$IIVLW,02253,N,033.6,N*53
$HCHDG,169.4,0.0,E,,*23
$GPRMC,040008.2,A,4825.85050,N,12229.95650,W,006.22,183.2,020913,016.9,E,D*23
$PGRME,2.4,M,2.5,M,3.5,M*29
$HCHDG,169.4,0.0,E,,*23
$HCHDG,169.6,0.0,E,,*21
$GPRMC,040008.4,A,4825.85017,N,12229.95644,W,006.20,182.6,020913,016.9,E,D*24
$PGRME,2.4,M,2.5,M,3.5,M*29
$YXXDR,A,6.2,D,PTCH,A,2.2,D,ROLL*59
$HCHDG,169.6,0.0,E,,*21
$HCHDG,169.7,0.0,E,,*20
$IIVWR,005,L,10.2,N,,,,*79
$GPRMC,040008.6,A,4825.84982,N,12229.95647,W,006.21,183.1,020913,016.9,E,D*26
$PGRME,2.4,M,2.5,M,3.5,M*29
$IIDPT,004.4,-1.0,*40
$HCHDG,169.7,0.0,E,,*20
$IIGLL,4825.851,N,12229.956,W,040000,A,A*41
$IIMTW,+16.0,C*3F
$HCHDG,169.7,0.0,E,,*20
$GPRMC,040008.8,A,4825.84943,N,12229.95642,W,006.21,182.9,020913,016.9,E,D*29
$PGRME,2.4,M,2.5,M,3.5,M*29
$IIMWV,355,R,10.2,N,A*13
$HCHDG,169.8,0.0,E,,*2F
$IIMWV,350,T,04.9,N,A*1E
$YXXDR,A,5.9,D,PTCH,A,2.3,D,ROLL*50
$PTAK,FFD1,2.3*54
$IIRMB,A,,,,Lac ,,,,,002.5,177,,V,A*7D
$GPRMC,040009.0,A,4825.84907,N,12229.95639,W,006.21,183.3,020913,016.9,E,D*27
$HCHDG,169.8,0.0,E,,*2F
$PGRME,2.4,M,2.5,M,3.5,M*29
$HCHDG,169.9,0.0,E,,*2E
$IIRMC,040000,A,4825.851,N,12229.956,W,06.2,181,010913,16,E,A*1C
$HCHDG,169.8,0.0,E,,*2F
$GPRMC,040009.2,A,4825.84870,N,12229.95643,W,006.21,183.2,020913,016.9,E,D*28
$GPRMB,A,-0.12,L,,Lac,4823.3220,N,12229.7720,W,2.5,177,6.18,V*65
$PGRME,2.4,M,2.5,M,3.5,M*29
$HCHDG,169.9,0.0,E,,*2E
$HCHDG,169.9,0.0,E,,*2E
$GPRMC,040009.4,A,4825.84835,N,12229.95641,W,006.20,183.2,020913,016.9,E,D*2C
$PGRME,2.4,M,2.5,M,3.5,M*29
$YXXDR,A,5.9,D,PTCH,A,2.3,D,ROLL*50
$HCHDG,170.1,0.0,E,,*2E
$PTAK,FFP1,HEEL,@*07
$HCHDG,170.1,0.0,E,,*2E
$IIVHW,,,,,05.6,N,,*1A
$GPRMC,040009.6,A,4825.84800,N,12229.95641,W,006.20,183.9,020913,016.9,E,D*23
$PGRME,2.4,M,2.5,M,3.5,M*29
$IIVLW,02253,N,033.7,N*52
$HCHDG,169.8,0.0,E,,*2F
$IIVWR,005,L,09.3,N,,,,*70
$IIDPT,004.4,-1.0,*40
$HCHDG,169.9,0.0,E,,*2E
$GPRMC,040009.8,A,4825.84769,N,12229.95642,W,006.19,182.8,020913,016.9,E,D*24
$PGRME,2.4,M,2.5,M,3.5,M*29
$IIGLL,4825.849,N,12229.956,W,040000,A,A*48
$HCHDG,169.7,0.0,E,,*20
$IIMTW,+16.0,C*3F
$IIMWV,355,R,09.3,N,A*1A
$YXXDR,A,6.2,D,PTCH,A,2.7,D,ROLL*5C
$PTAK,FFD1,2.7*50
$IIMWV,350,T,04.9,N,A*1E
$HCHDG,169.8,0.0,E,,*2F
$GPRMC,040010.0,A,4825.84733,N,12229.95652,W,006.20,184.2,020913,016.9,E,D*2C
$PGRME,2.4,M,2.5,M,3.5,M*29
$HCHDG,169.8,0.0,E,,*2F
$IIRMB,A,,,,Lac ,,,,,002.5,177,,V,A*7D
$HCHDG,169.8,0.0,E,,*2F
$GPRMC,040010.2,A,4825.84696,N,12229.95652,W,006.21,183.8,020913,016.9,E,D*2C
$PGRME,2.4,M,2.5,M,3.5,M*29
$HCHDG,169.9,0.0,E,,*2E
$HCHDG,170.0,0.0,E,,*2F
$GPRMC,040010.4,A,4825.84659,N,12229.95657,W,006.20,183.1,020913,016.9,E,D*24
$GPRMB,A,-0.12,L,,Lac,4823.3220,N,12229.7720,W,2.5,177,6.17,V*6A
$PGRME,2.4,M,2.5,M,3.5,M*29
$YXXDR,A,6.2,D,PTCH,A,2.7,D,ROLL*5C
$HCHDG,170.1,0.0,E,,*2E
$HCHDG,170.2,0.0,E,,*2D
$GPRMC,040010.6,A,4825.84628,N,12229.95660,W,006.20,184.6,020913,016.9,E,D*24
$PGRME,2.4,M,2.5,M,3.5,M*29
$HCHDG,170.2,0.0,E,,*2D
$IIRMC,040000,A,4825.847,N,12229.956,W,06.1,182,010913,16,E,A*1B
$IIVHW,,,,,05.6,N,,*1A
$HCHDG,170.3,0.0,E,,*2C
$IIVLW,02253,N,033.7,N*52
$GPRMC,040010.8,A,4825.84591,N,12229.95662,W,006.19,184.1,020913,016.9,E,D*24
$PGRME,2.4,M,2.5,M,3.5,M*29
$IIVWR,005,L,09.3,N,,,,*70
$HCHDG,170.3,0.0,E,,*2C
$IIDPT,004.4,-1.0,*40
$YXXDR,A,5.9,D,PTCH,A,2.6,D,ROLL*55
$IIGLL,4825.847,N,12229.956,W,040000,A,A*46
$HCHDG,170.1,0.0,E,,*2E
$GPRMC,040011.0,A,4825.84548,N,12229.95668,W,006.21,184.6,020913,016.9,E,D*2F
$PGRME,2.4,M,2.5,M,3.5,M*29
$IIMTW,+16.0,C*3F
$HCHDG,170.1,0.0,E,,*2E
$IIMWV,355,R,09.3,N,A*1A
$IIMWV,348,T,03.7,N,A*1E
$HCHDG,170.3,0.0,E,,*2C
$GPRMC,040011.2,A,4825.84514,N,12229.95680,W,006.20,184.4,020913,016.9,E,D*21
$PGRME,2.4,M,2.5,M,3.5,M*29
$HCHDG,170.4,0.0,E,,*2B
$HCHDG,170.3,0.0,E,,*2C
$GPRMC,040011.4,A,4825.84482,N,12229.95690,W,006.20,184.1,020913,016.9,E,D*2D
$PGRME,2.4,M,2.5,M,3.5,M*29
$YXXDR,A,6.3,D,PTCH,A,2.7,D,ROLL*5D
$PTAK,FFD1,2.7*50
$HCHDG,170.3,0.0,E,,*2C
$HCHDG,170.4,0.0,E,,*2B
$GPRMC,040011.6,A,4825.84444,N,12229.95692,W,006.19,183.9,020913,016.9,E,D*22
$GPRMB,A,-0.12,L,,Lac,4823.3220,N,12229.7720,W,2.5,177,6.15,V*68
$PGRME,2.4,M,2.5,M,3.5,M*29
$IIRMB,A,,,,Lac ,,,,,002.5,177,,V,A*7D
$HCHDG,170.2,0.0,E,,*2D
$IIRMC,040000,A,4825.845,N,12229.956,W,06.1,184,010913,16,E,A*1F
$HCHDG,170.2,0.0,E,,*2D
$GPRMC,040011.8,A,4825.84406,N,12229.95696,W,006.19,184.3,020913,016.9,E,D*23
$IIVHW,,,,,05.4,N,,*18
$PGRME,2.4,M,2.5,M,3.5,M*29
$IIVLW,02253,N,033.7,N*52
$HCHDG,170.1,0.0,E,,*2E
$IIVWR,005,L,09.4,N,,,,*77
$YXXDR,A,6.3,D,PTCH,A,2.9,D,ROLL*53
$IIDPT,004.4,-1.0,*40
$HCHDG,170.1,0.0,E,,*2E
$GPRMC,040012.0,A,4825.84366,N,12229.95697,W,006.19,184.0,020913,016.9,E,D*2B
$PGRME,2.4,M,2.5,M,3.5,M*29
$IIGLL,4825.845,N,12229.956,W,040000,A,A*44
$HCHDG,170.4,0.0,E,,*2B
$IIMTW,+16.0,C*3F
$IIMWV,355,R,09.4,N,A*1D
$HCHDG,170.4,0.0,E,,*2B
$GPRMC,040012.2,A,4825.84333,N,12229.95693,W,006.21,184.1,020913,016.9,E,D*27
$PGRME,2.4,M,2.5,M,3.5,M*29
$HCHDG,170.1,0.0,E,,*2E
$HCHDG,170.1,0.0,E,,*2E
$GPRMC,040012.4,A,4825.84300,N,12229.95696,W,006.19,184.5,020913,016.9,E,D*2B
$PGRME,2.4,M,2.5,M,3.5,M*29
$YXXDR,A,6.1,D,PTCH,A,2.6,D,ROLL*5E
$HCHDG,170.1,0.0,E,,*2E
$HCHDG,170.2,0.0,E,,*2D
$IIMWV,348,T,03.9,N,A*10
$GPRMC,040012.6,A,4825.84266,N,12229.95697,W,006.17,184.7,020913,016.9,E,D*25
$GPRMB,A,-0.12,L,,Lac,4823.3220,N,12229.7720,W,2.5,177,6.12,V*6F
$PGRME,2.4,M,2.5,M,3.5,M*29
$HCHDG,170.1,0.0,E,,*2E
$IIRMB,A,,,,Lac ,,,,,002.5,177,,V,A*7D
$HCHDG,170.4,0.0,E,,*2B
$GPRMC,040012.8,A,4825.84232,N,12229.95711,W,006.16,184.6,020913,016.9,E,D*25
$PGRME,2.4,M,2.5,M,3.5,M*29
$IIRMC,040000,A,4825.844,N,12229.956,W,06.1,184,010913,16,E,A*1E
$IIVHW,,,,,05.5,N,,*19
$HCHDG,170.5,0.0,E,,*2A
$IIVLW,02253,N,033.7,N*52
$YXXDR,A,6.3,D,PTCH,A,2.5,D,ROLL*5F
$PTAK,FFD1,2.5*52
$IIVWR,005,L,09.5,N,,,,*76
$HCHDG,170.4,0.0,E,,*2B
$GPRMC,040013.0,A,4825.84197,N,12229.95711,W,006.14,184.5,020913,016.9,E,D*21
$PGRME,2.4,M,2.5,M,3.5,M*29
$IIDPT,004.4,-1.0,*40
$HCHDG,170.4,0.0,E,,*2B
$IIGLL,4825.844,N,12229.956,W,040000,A,A*45
$IIMTW,+16.0,C*3F
$HCHDG,170.4,0.0,E,,*2B
$GPRMC,040013.2,A,4825.84166,N,12229.95711,W,006.14,185.0,020913,016.9,E,D*29
$PGRME,2.4,M,2.5,M,3.5,M*29
$HCHDG,170.4,0.0,E,,*2B
$HCHDG,170.5,0.0,E,,*2A
$GPRMC,040013.4,A,4825.84139,N,12229.95712,W,006.13,184.7,020913,016.9,E,D*27
$PGRME,2.4,M,2.5,M,3.5,M*29
$YXXDR,A,6.3,D,PTCH,A,2.6,D,ROLL*5C
$HCHDG,170.4,0.0,E,,*2B
$PTAK,FFP1,HEEL,@*07
$HCHDG,170.4,0.0,E,,*2B
$IIMWV,355,R,09.9,N,A*10
$GPRMC,040013.6,A,4825.84106,N,12229.95718,W,006.12,184.5,020913,016.9,E,D*20
$PGRME,2.4,M,2.5,M,3.5,M*29
$IIMWV,349,T,04.0,N,A*1F
$HCHDG,170.4,0.0,E,,*2B
$IIRMB,A,,,,Lac ,,,,,002.5,177,,V,A*7D
$HCHDG,170.6,0.0,E,,*29
$GPRMC,040013.8,A,4825.84070,N,12229.95713,W,006.14,184.6,020913,016.9,E,D*20
$GPRMB,A,-0.12,L,,Lac,4823.3220,N,12229.7720,W,2.5,177,6.09,V*65
$PGRME,2.4,M,2.5,M,3.5,M*29
$IIRMC,040000,A,4825.842,N,12229.957,W,06.1,184,010913,16,E,A*19
$HCHDG,170.6,0.0,E,,*29
$IIVHW,,,,,05.3,N,,*1F
$YXXDR,A,6.1,D,PTCH,A,2.6,D,ROLL*5E
$PTAK,FFD1,2.6*51
$IIVLW,02253,N,033.7,N*52
$HCHDG,170.4,0.0,E,,*2B
$GPRMC,040014.0,A,4825.84033,N,12229.95725,W,006.13,185.0,020913,016.9,E,D*2D
$PGRME,2.4,M,2.5,M,3.5,M*29
$IIVWR,005,L,09.9,N,,,,*7A
$HCHDG,170.5,0.0,E,,*2A
$IIDPT,004.4,-1.0,*40
$HCHDG,170.5,0.0,E,,*2A
$GPRMC,040014.2,A,4825.83997,N,12229.95732,W,006.14,184.8,020913,016.9,E,D*27
$PGRME,2.4,M,2.5,M,3.5,M*29
$HCHDG,170.5,0.0,E,,*2A
$HCHDG,170.9,0.0,E,,*26
$GPRMC,040014.4,A,4825.83964,N,12229.95731,W,006.14,185.3,020913,016.9,E,D*24
$PGRME,2.4,M,2.5,M,3.5,M*29
$YXXDR,A,6.2,D,PTCH,A,2.3,D,ROLL*58
$HCHDG,170.9,0.0,E,,*26
$HCHDG,170.9,0.0,E,,*26
$GPRMC,040014.6,A,4825.83923,N,12229.95740,W,006.16,185.1,020913,016.9,E,D*23
$PGRME,2.4,M,2.5,M,3.5,M*29
$IIGLL,4825.840,N,12229.957,W,040000,A,A*40
$IIMTW,+16.0,C*3F
$HCHDG,171.0,0.0,E,,*2E
$IIMWV,355,R,10.1,N,A*10
$HCHDG,171.0,0.0,E,,*2E
$IIMWV,350,T,04.6,N,A*11
$GPRMC,040014.8,A,4825.83887,N,12229.95755,W,006.15,184.6,020913,016.9,E,D*23
$GPRMB,A,-0.12,L,,Lac,4823.3220,N,12229.7720,W,2.5,177,6.10,V*6D
$PGRME,2.4,M,2.5,M,3.5,M*29
$IIRMB,A,,,,Lac ,,,,,002.5,177,,V,A*7D
$HCHDG,171.0,0.0,E,,*2E
$YXXDR,A,6.1,D,PTCH,A,2.6,D,ROLL*5E
$IIRMC,040000,A,4825.840,N,12229.957,W,06.1,184,010913,16,E,A*1B
$GPRMC,040015.0,A,4825.83849,N,12229.95768,W,006.15,184.9,020913,016.9,E,D*29
$PGRME,2.4,M,2.5,M,3.5,M*29
$HCHDG,170.8,0.0,E,,*27
$IIVHW,,,,,05.3,N,,*1F
$HCHDG,170.7,0.0,E,,*28
$IIVLW,02253,N,033.7,N*52
$HCHDG,170.7,0.0,E,,*28
$GPRMC,040015.2,A,4825.83815,N,12229.95775,W,006.13,184.7,020913,016.9,E,D*26
$PGRME,2.4,M,2.6,M,3.5,M*2A
$HCHDG,170.8,0.0,E,,*27
$HCHDG,170.9,0.0,E,,*26
$GPRMC,040015.4,A,4825.83786,N,12229.95782,W,006.13,184.9,020913,016.9,E,D*23
$PGRME,2.4,M,2.6,M,3.5,M*2A
$YXXDR,A,6.2,D,PTCH,A,2.7,D,ROLL*5C
$PTAK,FFD1,2.7*50
$HCHDG,170.8,0.0,E,,*27
$HCHDG,170.9,0.0,E,,*26
$IIVWR,005,L,10.3,N,,,,*78
$GPRMC,040015.6,A,4825.83754,N,12229.95790,W,006.13,185.9,020913,016.9,E,D*2C
$PGRME,2.4,M,2.6,M,3.5,M*2A
$IIDPT,004.5,-1.0,*41
$HCHDG,170.7,0.0,E,,*28
$IIGLL,4825.838,N,12229.957,W,040000,A,A*4F
$HCHDG,170.7,0.0,E,,*28
$IIMTW,+16.0,C*3F
$GPRMC,040015.8,A,4825.83722,N,12229.95794,W,006.13,185.1,020913,016.9,E,D*2F
$GPRMB,A,-0.12,L,,Lac,4823.3220,N,12229.7720,W,2.5,177,6.07,V*6B
$PGRME,2.4,M,2.6,M,3.6,M*29
$IIMWV,355,R,10.3,N,A*12
$HCHDG,170.7,0.0,E,,*28
$IIMWV,349,T,04.8,N,A*17
$YXXDR,A,6.1,D,PTCH,A,3.1,D,ROLL*58
$IIRMB,A,,,,Lac ,,,,,002.5,177,,V,A*7D
$GPRMC,040016.0,A,4825.83687,N,12229.95795,W,006.12,185.0,020913,016.9,E,D*2B
$HCHDG,170.8,0.0,E,,*27
$PGRME,2.4,M,2.6,M,3.6,M*29
$HCHDG,170.6,0.0,E,,*29
$IIRMC,040000,A,4825.838,N,12229.957,W,06.1,184,010913,16,E,A*14
$HCHDG,170.6,0.0,E,,*29
$GPRMC,040016.2,A,4825.83651,N,12229.95799,W,006.14,186.3,020913,016.9,E,D*28
$PGRME,2.4,M,2.6,M,3.6,M*29
$HCHDG,170.7,0.0,E,,*28
$HCHDG,170.7,0.0,E,,*28
$GPRMC,040016.4,A,4825.83619,N,12229.95804,W,006.12,185.4,020913,016.9,E,D*2B
$PGRME,2.4,M,2.6,M,3.6,M*29
$YXXDR,A,6.2,D,PTCH,A,3.2,D,ROLL*58
$HCHDG,170.8,0.0,E,,*27
$HCHDG,170.9,0.0,E,,*26
$IIVHW,,,,,05.1,N,,*1D
$GPRMC,040016.6,A,4825.83587,N,12229.95803,W,006.12,185.1,020913,016.9,E,D*2F
$PGRME,2.4,M,2.6,M,3.6,M*29
$IIVLW,02253,N,033.7,N*52
$HCHDG,170.7,0.0,E,,*28
$IIVWR,005,L,10.4,N,,,,*7F
$IIDPT,004.5,-1.0,*41
$HCHDG,170.9,0.0,E,,*26
$GPRMC,040016.8,A,4825.83557,N,12229.95808,W,006.11,184.9,020913,016.9,E,D*2D
$PGRME,2.4,M,2.6,M,3.6,M*29
$IIGLL,4825.837,N,12229.957,W,040000,A,A*40
$HCHDG,170.8,0.0,E,,*27
$IIMTW,+16.0,C*3F
$IIMWV,355,R,10.4,N,A*15
$YXXDR,A,6.3,D,PTCH,A,3.5,D,ROLL*5E
$PTAK,FFD1,3.5*53
$IIMWV,350,T,05.2,N,A*14
$HCHDG,170.9,0.0,E,,*26
$GPRMC,040017.0,A,4825.83520,N,12229.95811,W,006.10,185.5,020913,016.9,E,D*20
$GPRMB,A,-0.12,L,,Lac,4823.3220,N,12229.7720,W,2.5,177,6.04,V*68
$PGRME,2.4,M,2.6,M,3.6,M*29
$HCHDG,170.6,0.0,E,,*29
$IIRMB,A,,,,Lac ,,,,,002.5,177,,V,A*7D
$HCHDG,170.9,0.0,E,,*26
$GPRMC,040017.2,A,4825.83487,N,12229.95816,W,006.09,185.5,020913,016.9,E,D*21
$PGRME,2.4,M,2.7,M,3.6,M*28
$HCHDG,170.7,0.0,E,,*28
$HCHDG,170.8,0.0,E,,*27
$GPRMC,040017.4,A,4825.83451,N,12229.95819,W,006.11,185.5,020913,016.9,E,D*2A
$PGRME,2.4,M,2.7,M,3.6,M*28
$YXXDR,A,6.6,D,PTCH,A,3.8,D,ROLL*56
$HCHDG,170.8,0.0,E,,*27
$HCHDG,170.6,0.0,E,,*29
$PTAK,FFP1,HEEL,@*07
$GPRMC,040017.6,A,4825.83414,N,12229.95825,W,006.10,184.9,020913,016.9,E,D*2A
$PGRME,2.4,M,2.7,M,3.6,M*28
$HCHDG,170.7,0.0,E,,*28
$IIRMC,040000,A,4825.837,N,12229.957,W,06.1,185,010913,16,E,A*1A
$IIVHW,,,,,05.1,N,,*1D
$HCHDG,170.7,0.0,E,,*28
$IIVLW,02253,N,033.7,N*52
$GPRMC,040017.8,A,4825.83382,N,12229.95834,W,006.11,185.4,020913,016.9,E,D*21
$PGRME,2.4,M,2.7,M,3.6,M*28
$IIVWR,005,L,10.7,N,,,,*7C
$HCHDG,170.7,0.0,E,,*28
$IIDPT,004.5,-1.0,*41
$YXXDR,A,6.2,D,PTCH,A,3.6,D,ROLL*5C
$IIGLL,4825.837,N,12229.957,W,040000,A,A*40
$GPRMC,040018.0,A,4825.83353,N,12229.95840,W,006.12,185.3,020913,016.9,E,D*2D
$HCHDG,170.8,0.0,E,,*27
$PGRME,2.4,M,2.7,M,3.6,M*28
$IIMTW,+16.0,C*3F
$HCHDG,170.8,0.0,E,,*27
$IIMWV,355,R,10.7,N,A*16
$IIMWV,350,T,05.3,N,A*15
$HCHDG,170.8,0.0,E,,*27
$GPRMC,040018.2,A,4825.83315,N,12229.95849,W,006.12,185.1,020913,016.9,E,D*26
$GPRMB,A,-0.12,L,,Lac,4823.3220,N,12229.7720,W,2.5,177,6.06,V*6A
$PGRME,2.4,M,2.7,M,3.6,M*28
$HCHDG,170.8,0.0,E,,*27
$HCHDG,170.7,0.0,E,,*28
$GPRMC,040018.4,A,4825.83279,N,12229.95855,W,006.12,185.0,020913,016.9,E,D*27
$PGRME,2.4,M,2.7,M,3.6,M*28
$YXXDR,A,6.3,D,PTCH,A,3.5,D,ROLL*5E
$PTAK,FFD1,3.5*53
$HCHDG,170.7,0.0,E,,*28
$HCHDG,170.7,0.0,E,,*28
$GPRMC,040018.6,A,4825.83240,N,12229.95864,W,006.29,184.7,020913,016.9,E,D*23
$PGRME,2.4,M,2.7,M,3.6,M*28
$IIRMB,A,,,,Lac ,,,,,002.5,177,,V,A*7D
$HCHDG,170.6,0.0,E,,*29
$IIRMC,040000,A,4825.833,N,12229.958,W,06.1,185,010913,16,E,A*11
$HCHDG,171.0,0.0,E,,*2E
$GPRMC,040018.8,A,4825.83203,N,12229.95860,W,006.13,184.8,020913,016.9,E,D*28
$IIVHW,,,,,05.0,N,,*1C
$PGRME,2.4,M,2.7,M,3.6,M*28
$IIVLW,02253,N,033.7,N*52
$HCHDG,171.0,0.0,E,,*2E
$IIVWR,005,L,11.3,N,,,,*79
$YXXDR,A,5.8,D,PTCH,A,2.9,D,ROLL*5B
$IIDPT,004.5,-1.0,*41
$HCHDG,170.9,0.0,E,,*26
$GPRMC,040019.0,A,4825.83167,N,12229.95866,W,006.15,184.8,020913,016.9,E,D*20
$PGRME,2.4,M,2.7,M,3.6,M*28
$IIGLL,4825.833,N,12229.958,W,040000,A,A*4B
$HCHDG,171.0,0.0,E,,*2E
$IIMTW,+16.0,C*3F
$IIMWV,355,R,11.3,N,A*13
$HCHDG,171.2,0.0,E,,*2C
$GPRMC,040019.2,A,4825.83133,N,12229.95871,W,006.16,184.9,020913,016.9,E,D*27
$PGRME,2.4,M,2.7,M,3.6,M*28
$HCHDG,171.2,0.0,E,,*2C
$HCHDG,171.1,0.0,E,,*2F
$GPRMC,040019.4,A,4825.83103,N,12229.95877,W,006.19,185.0,020913,016.9,E,D*23
$GPRMB,A,-0.12,L,,Lac,4823.3220,N,12229.7720,W,2.5,177,6.13,V*6E
$PGRME,2.4,M,2.7,M,3.7,M*29
$YXXDR,A,6.2,D,PTCH,A,2.8,D,ROLL*53
$PTAK,FFD1,2.8*5F
$HCHDG,171.0,0.0,E,,*2E
$HCHDG,171.0,0.0,E,,*2E
$IIMWV,351,T,06.2,N,A*16
$GPRMC,040019.6,A,4825.83070,N,12229.95879,W,006.19,185.1,020913,016.9,E,D*2B
$PGRME,2.4,M,2.7,M,3.7,M*29
$HCHDG,171.2,0.0,E,,*2C
$IIRMB,A,,,,Lac ,,,,,002.5,177,,V,A*7D
$HCHDG,171.2,0.0,E,,*2C
$GPRMC,040019.8,A,4825.83037,N,12229.95886,W,006.18,184.8,020913,016.9,E,D*2F
$PGRME,2.4,M,2.7,M,3.7,M*29
$IIRMC,040000,A,4825.831,N,12229.958,W,06.1,184,010913,16,E,A*12
$IIVHW,,,,,05.2,N,,*1E
$HCHDG,171.2,0.0,E,,*2C
$IIVLW,02253,N,033.7,N*52
$YXXDR,A,6.4,D,PTCH,A,2.9,D,ROLL*54
$IIVWR,005,L,11.4,N,,,,*7E
$GPRMC,040020.0,A,4825.83000,N,12229.95888,W,006.17,185.2,020913,016.9,E,D*23
$HCHDG,171.2,0.0,E,,*2C
$PGRME,2.4,M,2.7,M,3.7,M*29
$IIDPT,004.5,-1.0,*41
$HCHDG,171.4,0.0,E,,*2A
$IIGLL,4825.831,N,12229.958,W,040000,A,A*49
$IIMTW,+16.0,C*3F
$HCHDG,171.4,0.0,E,,*2A
$GPRMC,040020.2,A,4825.82966,N,12229.95889,W,006.18,185.5,020913,016.9,E,D*20
$PGRME,2.4,M,2.7,M,3.7,M*29
$HCHDG,171.3,0.0,E,,*2D
$HCHDG,171.3,0.0,E,,*2D
$GPRMC,040020.4,A,4825.82931,N,12229.95891,W,006.18,185.2,020913,016.9,E,D*2A
$GPRMB,A,-0.12,L,,Lac,4823.3220,N,12229.7720,W,2.5,177,6.12,V*6F
$PGRME,2.4,M,2.7,M,3.7,M*29
$YXXDR,A,6.1,D,PTCH,A,2.6,D,ROLL*5E
$PTAK,FFD1,2.6*51
$HCHDG,171.3,0.0,E,,*2D
$HCHDG,171.2,0.0,E,,*2C
$IIMWV,355,R,11.7,N,A*17
$GPRMC,040020.6,A,4825.82896,N,12229.95895,W,006.19,184.9,020913,016.9,E,D*2B
$PGRME,2.4,M,2.8,M,3.7,M*26
$IIMWV,351,T,06.2,N,A*16
$HCHDG,171.5,0.0,E,,*2B
$IIRMB,A,,,,Lac ,,,,,002.5,177,,V,A*7D
$HCHDG,171.5,0.0,E,,*2B
$GPRMC,040020.8,A,4825.82861,N,12229.95899,W,006.18,185.4,020913,016.9,E,D*2C
$PGRME,2.4,M,2.8,M,3.7,M*26
$IIRMC,040000,A,4825.829,N,12229.958,W,06.1,185,010913,16,E,A*1A
$HCHDG,171.6,0.0,E,,*28
$IIVHW,,,,,05.1,N,,*1D
$YXXDR,A,6.3,D,PTCH,A,2.7,D,ROLL*5D
$IIVLW,02253,N,033.7,N*52
$GPRMC,040021.0,A,4825.82823,N,12229.95904,W,006.18,185.5,020913,016.9,E,D*27
$HCHDG,171.6,0.0,E,,*28
$PGRME,2.4,M,2.8,M,3.7,M*26
$IIVWR,005,L,11.7,N,,,,*7D
$HCHDG,171.5,0.0,E,,*2B
$IIDPT,004.5,-1.0,*41
$HCHDG,171.5,0.0,E,,*2B
$GPRMC,040021.2,A,4825.82789,N,12229.95902,W,006.17,185.5,020913,016.9,E,D*23
$PGRME,2.4,M,2.8,M,3.7,M*26
$HCHDG,171.5,0.0,E,,*2B
$HCHDG,171.5,0.0,E,,*2B
$GPRMC,040021.4,A,4825.82756,N,12229.95904,W,006.17,185.0,020913,016.9,E,D*24
$PGRME,2.4,M,2.8,M,3.7,M*26
$YXXDR,A,6.2,D,PTCH,A,2.7,D,ROLL*5C
$HCHDG,171.5,0.0,E,,*2B
$HCHDG,171.6,0.0,E,,*28
$PTAK,FFP1,HEEL,@*07
$GPRMC,040021.6,A,4825.82720,N,12229.95905,W,006.17,185.1,020913,016.9,E,D*27
$GPRMB,A,-0.12,L,,Lac,4823.3220,N,12229.7720,W,2.5,177,6.11,V*6C
$PGRME,2.4,M,2.8,M,3.7,M*26
$IIGLL,4825.829,N,12229.958,W,040000,A,A*40
$IIMTW,+16.0,C*3F
$HCHDG,171.9,0.0,E,,*27
$IIMWV,355,R,11.9,N,A*19
$HCHDG,171.9,0.0,E,,*27
$IIMWV,351,T,06.5,N,A*11
$GPRMC,040021.8,A,4825.82691,N,12229.95902,W,006.16,185.4,020913,016.9,E,D*21
$PGRME,2.4,M,2.8,M,3.7,M*26
$IIRMB,A,,,,Lac ,,,,,002.5,177,,V,A*7D
$HCHDG,171.9,0.0,E,,*27
$YXXDR,A,6.1,D,PTCH,A,2.6,D,ROLL*5E
$PTAK,FFD1,2.6*51
$IIRMC,040000,A,4825.829,N,12229.958,W,06.1,185,010913,16,E,A*1A
$GPRMC,040022.0,A,4825.82652,N,12229.95903,W,006.17,185.3,020913,016.9,E,D*22
$PGRME,2.4,M,2.8,M,3.7,M*26
$HCHDG,171.9,0.0,E,,*27
$IIVHW,,,,,05.1,N,,*1D
$HCHDG,171.9,0.0,E,,*27
$IIVLW,02253,N,033.7,N*52
$HCHDG,171.9,0.0,E,,*27
$GPRMC,040022.2,A,4825.82615,N,12229.95917,W,006.16,185.9,020913,016.9,E,D*2D
$PGRME,2.4,M,2.8,M,3.7,M*26
$HCHDG,172.0,0.0,E,,*2D
$HCHDG,172.0,0.0,E,,*2D
$GPRMC,040022.4,A,4825.82577,N,12229.95931,W,006.16,185.2,020913,016.9,E,D*23
$PGRME,2.4,M,2.8,M,3.7,M*26
$YXXDR,A,6.1,D,PTCH,A,2.6,D,ROLL*5E
$HCHDG,172.1,0.0,E,,*2C
$HCHDG,172.1,0.0,E,,*2C
$IIVWR,005,L,12.0,N,,,,*79
$GPRMC,040022.6,A,4825.82546,N,12229.95939,W,006.15,185.9,020913,016.9,E,D*23
$GPRMB,A,-0.12,L,,Lac,4823.3220,N,12229.7720,W,2.5,177,6.08,V*64
$PGRME,2.4,M,2.8,M,3.7,M*26
$IIDPT,004.5,-1.0,*41
$HCHDG,172.4,0.0,E,,*29
$IIGLL,4825.827,N,12229.959,W,040000,A,A*4F
$HCHDG,172.5,0.0,E,,*28
$IIMTW,+16.0,C*3F
$GPRMC,040022.8,A,4825.82511,N,12229.95944,W,006.14,185.4,020913,016.9,E,D*29
$PGRME,2.4,M,2.8,M,3.7,M*26
$IIMWV,355,R,12.0,N,A*13
$HCHDG,172.5,0.0,E,,*28
$IIMWV,351,T,06.8,N,A*1C
$YXXDR,A,6.3,D,PTCH,A,2.5,D,ROLL*5F
$PTAK,FFD1,2.5*52
$IIRMB,A,,,,Lac ,,,,,002.5,177,,V,A*7D
$HCHDG,172.5,0.0,E,,*28
$GPRMC,040023.0,A,4825.82472,N,12229.95950,W,006.13,186.1,020913,016.9,E,D*20
$PGRME,2.4,M,2.8,M,3.7,M*26
$HCHDG,172.5,0.0,E,,*28
$IIRMC,040000,A,4825.827,N,12229.959,W,06.1,185,010913,16,E,A*15
$HCHDG,172.6,0.0,E,,*2B
$GPRMC,040023.2,A,4825.82433,N,12229.95957,W,006.13,185.9,020913,016.9,E,D*2B
$PGRME,2.4,M,2.8,M,3.7,M*26
$HCHDG,172.9,0.0,E,,*24
$HCHDG,172.8,0.0,E,,*25
$GPRMC,040023.4,A,4825.82401,N,12229.95965,W,006.12,186.0,020913,016.9,E,D*26
$PGRME,2.4,M,2.9,M,3.8,M*28
$YXXDR,A,6.2,D,PTCH,A,2.3,D,ROLL*58
$HCHDG,172.9,0.0,E,,*24
$HCHDG,172.9,0.0,E,,*24
$IIVHW,,,,,04.8,N,,*15
$GPRMC,040023.6,A,4825.82368,N,12229.95965,W,006.14,185.5,020913,016.9,E,D*2C
$PGRME,2.4,M,2.9,M,3.8,M*28
$IIVLW,02253,N,033.7,N*52
$HCHDG,173.3,0.0,E,,*2F
$IIVWR,005,L,11.7,N,,,,*7D
$IIDPT,004.5,-1.0,*41
$HCHDG,173.3,0.0,E,,*2F
$GPRMC,040023.8,A,4825.82336,N,12229.95966,W,006.15,186.5,020913,016.9,E,D*28
$GPRMB,A,-0.12,L,,Lac,4823.3220,N,12229.7720,W,2.5,177,6.07,V*6B
$PGRME,2.4,M,2.9,M,3.8,M*28
$IIGLL,4825.825,N,12229.959,W,040000,A,A*4D
$HCHDG,173.3,0.0,E,,*2F
$IIMTW,+16.0,C*3F
$IIMWV,355,R,11.7,N,A*17
$YXXDR,A,6.3,D,PTCH,A,2.1,D,ROLL*5B
$PTAK,FFD1,2.1*56
$IIMWV,352,T,06.9,N,A*1E
$GPRMC,040024.0,A,4825.82300,N,12229.95969,W,006.15,186.8,020913,016.9,E,D*20
$HCHDG,173.3,0.0,E,,*2F
$PGRME,2.4,M,2.9,M,3.8,M*28
$IIRMB,A,,,,Lac ,,,,,002.5,177,,V,A*7D
$HCHDG,173.6,0.0,E,,*2A
$HCHDG,173.6,0.0,E,,*2A
$GPRMC,040024.2,A,4825.82265,N,12229.95983,W,006.15,186.7,020913,016.9,E,D*2B
$PGRME,2.4,M,2.9,M,3.8,M*28
$HCHDG,173.6,0.0,E,,*2A
$HCHDG,173.6,0.0,E,,*2A
$GPRMC,040024.4,A,4825.82234,N,12229.95991,W,005.89,186.8,020913,016.9,E,D*23
$PGRME,2.4,M,2.9,M,3.8,M*28
$YXXDR,A,6.3,D,PTCH,A,2.0,D,ROLL*5A
$HCHDG,173.8,0.0,E,,*24
$HCHDG,173.8,0.0,E,,*24
$GPRMC,040024.6,A,4825.82206,N,12229.95992,W,005.95,187.6,020913,016.9,E,D*21
$PGRME,2.4,M,2.9,M,3.8,M*28
$IIRMC,040000,A,4825.824,N,12229.959,W,06.1,186,010913,16,E,A*15
$HCHDG,173.8,0.0,E,,*24
$IIVHW,,,,,04.8,N,,*15
$HCHDG,174.0,0.0,E,,*2B
$IIVLW,02253,N,033.7,N*52
$GPRMC,040024.8,A,4825.82174,N,12229.95992,W,006.00,187.4,020913,016.9,E,D*24
$GPRMB,A,-0.12,L,,Lac,4823.3220,N,12229.7720,W,2.5,177,5.90,V*66
$PGRME,2.4,M,2.9,M,3.8,M*28
$IIVWR,005,L,11.6,N,,,,*7C
$HCHDG,174.0,0.0,E,,*2B
$IIDPT,004.5,-1.0,*41
$YXXDR,A,6.3,D,PTCH,A,1.9,D,ROLL*50
$IIGLL,4825.824,N,12229.959,W,040000,A,A*4C
$GPRMC,040025.0,A,4825.82148,N,12229.95990,W,006.00,187.8,020913,016.9,E,D*2C
$HCHDG,174.0,0.0,E,,*2B
$PGRME,2.4,M,2.9,M,3.8,M*28
$IIMTW,+16.0,C*3F
$IIMWV,355,R,11.6,N,A*16
$HCHDG,174.0,0.0,E,,*2B
$IIMWV,351,T,06.8,N,A*1C
$HCHDG,174.1,0.0,E,,*2A
$GPRMC,040025.2,A,4825.82119,N,12229.95994,W,005.98,188.1,020913,016.9,E,D*2A
$PGRME,2.4,M,2.9,M,3.8,M*28
$HCHDG,174.0,0.0,E,,*2B
$HCHDG,174.0,0.0,E,,*2B
$GPRMC,040025.4,A,4825.82093,N,12229.95989,W,005.97,187.8,020913,016.9,E,D*2A
$PGRME,2.4,M,2.9,M,3.8,M*28
$YXXDR,A,6.1,D,PTCH,A,2.0,D,ROLL*58
$PTAK,FFD1,2.0*57
$HCHDG,174.0,0.0,E,,*2B
$HCHDG,174.0,0.0,E,,*2B
$PTAK,FFP1,HEEL,@*07
$GPRMC,040025.6,A,4825.82065,N,12229.95988,W,005.99,188.4,020913,016.9,E,D*2D
$PGRME,2.4,M,2.9,M,3.8,M*28
$IIRMB,A,,,,Lac ,,,,,002.5,177,,V,A*7D
$HCHDG,174.1,0.0,E,,*2A
$IIRMC,040000,A,4825.822,N,12229.959,W,05.8,186,010913,16,E,A*19
$HCHDG,174.1,0.0,E,,*2A
$GPRMC,040025.8,A,4825.82035,N,12229.95996,W,005.99,187.9,020913,016.9,E,D*2B
$IIVHW,,,,,04.7,N,,*1A
$PGRME,2.4,M,2.9,M,3.8,M*28
$IIVLW,02253,N,033.7,N*52
$HCHDG,174.1,0.0,E,,*2A
$IIVWR,005,L,11.5,N,,,,*7F
$YXXDR,A,6.1,D,PTCH,A,2.0,D,ROLL*58
$IIDPT,004.5,-1.0,*41
$GPRMC,040026.0,A,4825.82003,N,12229.96004,W,005.99,188.5,020913,016.9,E,D*27
$GPRMB,A,-0.12,L,,Lac,4823.3220,N,12229.7720,W,2.5,177,5.87,V*60
$PGRME,2.4,M,2.9,M,3.8,M*28
$HCHDG,174.1,0.0,E,,*2A
$IIGLL,4825.822,N,12229.959,W,040000,A,A*4A
$HCHDG,174.1,0.0,E,,*2A
$IIMTW,+16.0,C*3F
$IIMWV,355,R,11.5,N,A*15
$HCHDG,174.1,0.0,E,,*2A
$GPRMC,040026.2,A,4825.81974,N,12229.96011,W,006.00,187.9,020913,016.9,E,D*2B
$PGRME,2.4,M,2.9,M,3.8,M*28
$HCHDG,174.2,0.0,E,,*29
$HCHDG,174.2,0.0,E,,*29
$GPRMC,040026.4,A,4825.81940,N,12229.96017,W,006.01,189.0,020913,016.9,E,D*2A
$PGRME,2.4,M,2.9,M,3.8,M*28
$YXXDR,A,6.1,D,PTCH,A,2.2,D,ROLL*5A
$HCHDG,174.3,0.0,E,,*28
$HCHDG,174.3,0.0,E,,*28
$IIMWV,351,T,06.8,N,A*1C
$GPRMC,040026.6,A,4825.81908,N,12229.96032,W,006.01,188.4,020913,016.9,E,D*26
$PGRME,2.4,M,3.0,M,3.8,M*20
$HCHDG,174.3,0.0,E,,*28
$IIRMB,A,,,,Lac ,,,,,002.5,177,,V,A*7D
$HCHDG,174.1,0.0,E,,*2A
$GPRMC,040026.8,A,4825.81876,N,12229.96026,W,006.01,188.4,020913,016.9,E,D*25
$PGRME,2.4,M,3.0,M,3.8,M*20
$IIRMC,040000,A,4825.820,N,12229.959,W,05.9,188,010913,16,E,A*14
$IIVHW,,,,,04.6,N,,*1B
$HCHDG,174.2,0.0,E,,*29
$IIVLW,02253,N,033.7,N*52
$YXXDR,A,6.2,D,PTCH,A,2.3,D,ROLL*58
$PTAK,FFD1,2.3*54
$IIVWR,005,L,12.3,N,,,,*7A
$GPRMC,040027.0,A,4825.81846,N,12229.96022,W,006.00,188.0,020913,016.9,E,D*2E
$GPRMB,A,-0.13,L,,Lac,4823.3220,N,12229.7720,W,2.5,177,5.89,V*6F
$HCHDG,174.2,0.0,E,,*29
$PGRME,2.4,M,3.0,M,3.9,M*21
$IIDPT,004.5,-1.0,*41
$HCHDG,174.2,0.0,E,,*29
$IIGLL,4825.820,N,12229.959,W,040000,A,A*48
$IIMTW,+16.0,C*3F
$HCHDG,174.3,0.0,E,,*28
$GPRMC,040027.2,A,4825.81816,N,12229.96026,W,006.01,188.7,020913,016.9,E,D*2B
$PGRME,2.4,M,3.0,M,3.9,M*21
$HCHDG,174.3,0.0,E,,*28
$HCHDG,174.3,0.0,E,,*28
$GPRMC,040027.4,A,4825.81791,N,12229.96026,W,006.00,187.6,020913,016.9,E,D*22
$PGRME,2.4,M,3.0,M,3.9,M*21
$YXXDR,A,6.0,D,PTCH,A,2.5,D,ROLL*5C
$HCHDG,174.1,0.0,E,,*2A
$HCHDG,174.2,0.0,E,,*29
$IIMWV,355,R,12.3,N,A*10
$GPRMC,040027.6,A,4825.81759,N,12229.96027,W,005.99,187.8,020913,016.9,E,D*28
$PGRME,2.4,M,3.0,M,3.9,M*21
$IIMWV,352,T,07.7,N,A*11
$HCHDG,174.0,0.0,E,,*2B
$IIRMB,A,,,,Lac ,,,,,002.5,177,,V,A*7D
$HCHDG,173.9,0.0,E,,*25
$GPRMC,040027.8,A,4825.81730,N,12229.96036,W,006.01,188.7,020913,016.9,E,D*2B
$PGRME,2.4,M,3.0,M,3.9,M*21
$IIRMC,040000,A,4825.818,N,12229.960,W,06.0,188,010913,16,E,A*1F
$HCHDG,173.9,0.0,E,,*25
$IIVHW,,,,,04.6,N,,*1B
$YXXDR,A,6.3,D,PTCH,A,2.7,D,ROLL*5D
$IIVLW,02253,N,033.7,N*52
$GPRMC,040028.0,A,4825.81700,N,12229.96049,W,006.01,188.1,020913,016.9,E,D*21
$HCHDG,174.0,0.0,E,,*2B
$PGRME,2.4,M,3.1,M,3.9,M*20
$IIVWR,005,L,12.3,N,,,,*7A
$HCHDG,174.1,0.0,E,,*2A
$IIDPT,004.6,-1.0,*42
$HCHDG,174.0,0.0,E,,*2B
$GPRMC,040028.2,A,4825.81670,N,12229.96057,W,006.01,188.0,020913,016.9,E,D*2B
$GPRMB,A,-0.13,L,,Lac,4823.3220,N,12229.7720,W,2.5,177,5.90,V*67
$PGRME,2.4,M,3.1,M,3.9,M*20
$HCHDG,174.0,0.0,E,,*2B
$HCHDG,174.0,0.0,E,,*2B
$GPRMC,040028.4,A,4825.81638,N,12229.96061,W,006.02,188.3,020913,016.9,E,D*24
$PGRME,2.4,M,3.1,M,3.9,M*20
$YXXDR,A,6.3,D,PTCH,A,2.6,D,ROLL*5C
$PTAK,FFD1,2.6*51
$HCHDG,174.0,0.0,E,,*2B
$HCHDG,174.0,0.0,E,,*2B
$GPRMC,040028.6,A,4825.81609,N,12229.96063,W,006.02,187.6,020913,016.9,E,D*2C
$PGRME,2.4,M,3.1,M,3.9,M*20
$IIGLL,4825.818,N,12229.960,W,040000,A,A*49
$IIMTW,+16.0,C*3F
$HCHDG,174.1,0.0,E,,*2A
$IIMWV,355,R,11.8,N,A*18
$HCHDG,174.1,0.0,E,,*2A
$IIMWV,352,T,07.7,N,A*11
$GPRMC,040028.8,A,4825.81579,N,12229.96068,W,006.00,188.1,020913,016.9,E,D*27
$PGRME,2.4,M,3.1,M,4.0,M*2E
$IIRMB,A,,,,Lac ,,,,,002.5,177,,V,A*7D
$HCHDG,174.0,0.0,E,,*2B
$YXXDR,A,6.4,D,PTCH,A,2.4,D,ROLL*59
$IIRMC,040000,A,4825.818,N,12229.960,W,06.0,188,010913,16,E,A*1F
$GPRMC,040029.0,A,4825.81547,N,12229.96067,W,005.97,188.2,020913,016.9,E,D*22
$HCHDG,174.0,0.0,E,,*2B
$PGRME,2.4,M,3.1,M,4.0,M*2E
$IIVHW,,,,,04.4,N,,*19
$HCHDG,174.0,0.0,E,,*2B
$IIVLW,02253,N,033.7,N*52
$HCHDG,173.9,0.0,E,,*25
$GPRMC,040029.2,A,4825.81520,N,12229.96065,W,005.97,188.4,020913,016.9,E,D*25
$GPRMB,A,-0.13,L,,Lac,4823.3220,N,12229.7720,W,2.5,177,5.85,V*63
$PGRME,2.4,M,3.1,M,4.0,M*2E
$HCHDG,173.7,0.0,E,,*2B
$HCHDG,173.7,0.0,E,,*2B
$GPRMC,040029.4,A,4825.81493,N,12229.96067,W,005.96,187.9,020913,016.9,E,D*2B
$PGRME,2.4,M,3.2,M,4.0,M*2D
$YXXDR,A,6.2,D,PTCH,A,2.7,D,ROLL*5C
$PTAK,FFD1,2.7*50
$HCHDG,173.9,0.0,E,,*25
$HCHDG,173.9,0.0,E,,*25
$PTAK,FFP1,HEEL,@*07
$IIVWR,005,L,11.9,N,,,,*73
$GPRMC,040029.6,A,4825.81458,N,12229.96082,W,005.96,188.4,020913,016.9,E,D*27
$PGRME,2.4,M,3.2,M,4.0,M*2D
$IIDPT,004.6,-1.0,*42
$HCHDG,174.0,0.0,E,,*2B
$IIGLL,4825.815,N,12229.960,W,040000,A,A*44
$HCHDG,174.0,0.0,E,,*2B
$IIMTW,+16.0,C*3F
$GPRMC,040029.8,A,4825.81425,N,12229.96093,W,006.00,188.0,020913,016.9,E,D*2B
$PGRME,2.4,M,3.2,M,4.0,M*2D
$IIMWV,355,R,11.9,N,A*19
$HCHDG,174.0,0.0,E,,*2B
$IIMWV,352,T,07.4,N,A*12
$YXXDR,A,6.2,D,PTCH,A,2.7,D,ROLL*5C
$IIRMB,A,,,,Lac ,,,,,002.5,177,,V,A*7D
$GPRMC,040030.0,A,4825.81390,N,12229.96099,W,006.01,188.2,020913,016.9,E,D*2B
$HCHDG,173.8,0.0,E,,*24
$PGRME,2.4,M,3.2,M,4.0,M*2D
$HCHDG,173.9,0.0,E,,*25
$IIRMC,040000,A,4825.815,N,12229.960,W,06.0,188,010913,16,E,A*12
$HCHDG,173.9,0.0,E,,*25
$GPRMC,040030.2,A,4825.81356,N,12229.96099,W,006.03,188.1,020913,016.9,E,D*22
$PGRME,2.4,M,3.2,M,4.0,M*2D
$HCHDG,173.8,0.0,E,,*24
$HCHDG,173.8,0.0,E,,*24
$GPRMC,040030.4,A,4825.81319,N,12229.96104,W,006.08,188.0,020913,016.9,E,D*20
$GPRMB,A,-0.13,L,,Lac,4823.3220,N,12229.7720,W,2.5,177,5.97,V*60
$PGRME,2.4,M,3.2,M,4.1,M*2C
$YXXDR,A,6.3,D,PTCH,A,2.4,D,ROLL*5E
$PTAK,FFD1,2.4*53
$HCHDG,173.8,0.0,E,,*24
$HCHDG,174.0,0.0,E,,*2B
$IIVHW,,,,,04.7,N,,*1A
$GPRMC,040030.6,A,4825.81280,N,12229.96105,W,006.25,187.9,020913,016.9,E,D*2B
$PGRME,2.4,M,3.3,M,4.1,M*2D
$IIVLW,02253,N,033.7,N*52
$HCHDG,173.8,0.0,E,,*24
$IIVWR,005,L,12.1,N,,,,*78
$IIDPT,004.7,-1.0,*43
$HCHDG,173.8,0.0,E,,*24
$GPRMC,040030.8,A,4825.81248,N,12229.96110,W,006.19,187.1,020913,016.9,E,D*22
$PGRME,2.4,M,3.3,M,4.1,M*2D
$IIGLL,4825.813,N,12229.960,W,040000,A,A*42
$HCHDG,173.9,0.0,E,,*25
$IIMTW,+16.0,C*3F
$IIMWV,355,R,12.1,N,A*12
$YXXDR,A,6.2,D,PTCH,A,2.3,D,ROLL*58
$IIMWV,352,T,07.2,N,A*14
$GPRMC,040031.0,A,4825.81220,N,12229.96115,W,006.20,187.7,020913,016.9,E,D*2C
$HCHDG,174.1,0.0,E,,*2A
$PGRME,2.4,M,3.3,M,4.1,M*2D
$HCHDG,174.0,0.0,E,,*2B
$IIRMB,A,,,,Lac ,,,,,002.5,177,,V,A*7D
$HCHDG,174.0,0.0,E,,*2B
$GPRMC,040031.2,A,4825.81191,N,12229.96126,W,006.21,188.2,020913,016.9,E,D*2C
$PGRME,2.4,M,3.3,M,4.1,M*2D
$HCHDG,173.9,0.0,E,,*25
$HCHDG,173.8,0.0,E,,*24
$GPRMC,040031.4,A,4825.81156,N,12229.96132,W,006.24,188.0,020913,016.9,E,D*23
$GPRMB,A,-0.13,L,,Lac,4823.3220,N,12229.7720,W,2.5,177,6.13,V*6F
$PGRME,2.4,M,3.3,M,4.1,M*2D
$YXXDR,A,6.1,D,PTCH,A,2.2,D,ROLL*5A
$HCHDG,173.8,0.0,E,,*24
$HCHDG,173.8,0.0,E,,*24
$GPRMC,040031.6,A,4825.81123,N,12229.96140,W,006.18,187.4,020913,016.9,E,D*22
$PGRME,2.4,M,3.4,M,4.1,M*2A
$IIRMC,040000,A,4825.812,N,12229.961,W,06.2,187,010913,16,E,A*19
$HCHDG,173.8,0.0,E,,*24
$IIVHW,,,,,04.6,N,,*1B
$HCHDG,173.7,0.0,E,,*2B
$IIVLW,02253,N,033.7,N*52
$GPRMC,040031.8,A,4825.81088,N,12229.96138,W,006.20,187.9,020913,016.9,E,D*25
$PGRME,2.4,M,3.4,M,4.2,M*29
$IIVWR,005,L,12.6,N,,,,*7F
$HCHDG,173.7,0.0,E,,*2B
$IIDPT,004.8,-1.0,*4C
$YXXDR,A,6.4,D,PTCH,A,2.3,D,ROLL*5E
$PTAK,FFD1,2.3*54
$IIGLL,4825.812,N,12229.961,W,040000,A,A*42
$GPRMC,040032.0,A,4825.81058,N,12229.96135,W,006.16,187.6,020913,016.9,E,D*24
$HCHDG,173.6,0.0,E,,*2A
$PGRME,2.4,M,3.4,M,4.2,M*29
$IIMTW,+16.0,C*3F
$HCHDG,173.6,0.0,E,,*2A
$IIMWV,355,R,12.6,N,A*15
$IIMWV,352,T,07.4,N,A*12
$HCHDG,173.6,0.0,E,,*2A
$GPRMC,040032.2,A,4825.81023,N,12229.96137,W,006.18,188.2,020913,016.9,E,D*2D
$PGRME,2.4,M,3.4,M,4.2,M*29
$HCHDG,173.6,0.0,E,,*2A
$HCHDG,173.7,0.0,E,,*2B
$GPRMC,040032.4,A,4825.80984,N,12229.96149,W,006.17,188.0,020913,016.9,E,D*2A
$GPRMB,A,-0.13,L,,Lac,4823.3220,N,12229.7720,W,2.5,177,6.06,V*6B
$PGRME,2.4,M,3.4,M,4.2,M*29
$YXXDR,A,6.3,D,PTCH,A,2.4,D,ROLL*5E
$HCHDG,173.7,0.0,E,,*2B
$HCHDG,173.8,0.0,E,,*24
$GPRMC,040032.6,A,4825.80952,N,12229.96151,W,006.21,188.1,020913,016.9,E,D*2E
$PGRME,2.4,M,3.4,M,4.2,M*29
$IIRMB,A,,,,Lac ,,,,,002.5,177,,V,A*7D
$HCHDG,173.7,0.0,E,,*2B
$IIRMC,040000,A,4825.810,N,12229.961,W,06.1,187,010913,16,E,A*18
$HCHDG,173.7,0.0,E,,*2B
$GPRMC,040032.8,A,4825.80923,N,12229.96150,W,006.20,187.6,020913,016.9,E,D*2E
$PGRME,2.4,M,3.4,M,4.2,M*29
$IIVHW,,,,,04.5,N,,*18
$IIVLW,02253,N,033.7,N*52
$HCHDG,173.8,0.0,E,,*24
$IIVWR,005,L,12.5,N,,,,*7C
$YXXDR,A,6.3,D,PTCH,A,2.5,D,ROLL*5F
$IIDPT,004.9,-1.0,*4D
$GPRMC,040033.0,A,4825.80887,N,12229.96158,W,006.21,187.9,020913,016.9,E,D*2E
$HCHDG,173.8,0.0,E,,*24
$PGRME,2.4,M,3.4,M,4.2,M*29
$IIGLL,4825.810,N,12229.961,W,040000,A,A*40
$HCHDG,173.8,0.0,E,,*24
$IIMTW,+16.0,C*3F
$IIMWV,355,R,12.5,N,A*16
$HCHDG,173.8,0.0,E,,*24
$GPRMC,040033.2,A,4825.80854,N,12229.96167,W,006.19,187.8,020913,016.9,E,D*24
$PGRME,2.4,M,3.5,M,4.2,M*28
$HCHDG,173.7,0.0,E,,*2B
$HCHDG,174.1,0.0,E,,*2A
$GPRMC,040033.4,A,4825.80816,N,12229.96173,W,006.20,187.9,020913,016.9,E,D*2A
$PGRME,2.4,M,3.5,M,4.3,M*29
$YXXDR,A,6.1,D,PTCH,A,2.3,D,ROLL*5B
$PTAK,FFD1,2.3*54
$HCHDG,174.1,0.0,E,,*2A
$HCHDG,174.1,0.0,E,,*2A
$PTAK,FFP1,HEEL,@*07
$GPRMC,040033.6,A,4825.80784,N,12229.96180,W,006.22,188.5,020913,016.9,E,D*21
$GPRMB,A,-0.13,L,,Lac,4823.3220,N,12229.7720,W,2.5,177,6.10,V*6C
$PGRME,2.4,M,3.5,M,4.3,M*29
$HCHDG,173.8,0.0,E,,*24
$HCHDG,173.8,0.0,E,,*24
$GPRMC,040033.8,A,4825.80752,N,12229.96185,W,006.22,188.0,020913,016.9,E,D*24
$PGRME,2.4,M,3.5,M,4.3,M*29
$HCHDG,173.9,0.0,E,,*25
$YXXDR,A,6.3,D,PTCH,A,2.3,D,ROLL*59
$GPRMC,040034.0,A,4825.80719,N,12229.96198,W,006.23,188.8,020913,016.9,E,D*21
$HCHDG,174.0,0.0,E,,*2B
$PGRME,2.4,M,3.5,M,4.3,M*29
$HCHDG,174.2,0.0,E,,*29
$HCHDG,174.2,0.0,E,,*29
$GPRMC,040034.2,A,4825.80679,N,12229.96202,W,006.22,188.1,020913,016.9,E,D*2C
$PGRME,2.4,M,3.5,M,4.3,M*29
$HCHDG,174.2,0.0,E,,*29
$HCHDG,174.2,0.0,E,,*29
$GPRMC,040034.4,A,4825.80646,N,12229.96209,W,006.22,188.8,020913,016.9,E,D*24
$PGRME,2.4,M,3.6,M,4.3,M*2A
$YXXDR,A,5.9,D,PTCH,A,2.4,D,ROLL*57
$PTAK,FFD1,2.4*53
$HCHDG,174.2,0.0,E,,*29
$HCHDG,174.3,0.0,E,,*28
$IIMWV,352,T,08.0,N,A*19
$GPRMC,040034.6,A,4825.80611,N,12229.96223,W,006.22,188.2,020913,016.9,E,D*26
$GPRMB,A,-0.13,L,,Lac,4823.3220,N,12229.7720,W,2.5,177,6.10,V*6C
$PGRME,2.4,M,3.6,M,4.3,M*2A
$IIRMB,A,,,,Lac ,,,,,002.5,177,,V,A*7D
$HCHDG,174.1,0.0,E,,*2A
$HCHDG,174.1,0.0,E,,*2A
$GPRMC,040034.8,A,4825.80578,N,12229.96241,W,006.26,189.0,020913,016.9,E,D*27
$PGRME,2.4,M,3.6,M,4.3,M*2A
$IIRMC,040000,A,4825.808,N,12229.961,W,06.2,187,010913,16,E,A*12
$IIVHW,,,,,04.4,N,,*19
$HCHDG,174.1,0.0,E,,*2A
$IIVLW,02253,N,033.7,N*52
$YXXDR,A,6.0,D,PTCH,A,2.7,D,ROLL*5E
$IIVWR,005,L,12.3,N,,,,*7A
$GPRMC,040035.0,A,4825.80543,N,12229.96245,W,006.23,188.4,020913,016.9,E,D*22
$HCHDG,174.2,0.0,E,,*29
$PGRME,2.4,M,3.6,M,4.4,M*2D
$IIDPT,005.0,-1.0,*45
$HCHDG,174.2,0.0,E,,*29
$IIGLL,4825.808,N,12229.961,W,040000,A,A*49
$IIMTW,+16.0,C*3F
$HCHDG,174.2,0.0,E,,*29
$GPRMC,040035.2,A,4825.80504,N,12229.96255,W,006.24,189.4,020913,016.9,E,D*24
$PGRME,2.4,M,3.6,M,4.4,M*2D
$HCHDG,174.3,0.0,E,,*28
$HCHDG,174.5,0.0,E,,*2E
$GPRMC,040035.4,A,4825.80467,N,12229.96274,W,006.23,189.2,020913,016.9,E,D*24
$PGRME,2.4,M,3.6,M,4.4,M*2D
$YXXDR,A,6.1,D,PTCH,A,2.3,D,ROLL*5B
$PTAK,FFD1,2.3*54
$HCHDG,174.6,0.0,E,,*2D
$HCHDG,174.6,0.0,E,,*2D
$IIMWV,355,R,11.5,N,A*15
$GPRMC,040035.6,A,4825.80430,N,12229.96289,W,006.24,188.9,020913,016.9,E,D*2B
$GPRMB,A,-0.13,L,,Lac,4823.3220,N,12229.7720,W,2.5,177,6.11,V*6D
$PGRME,2.4,M,3.7,M,4.4,M*2C
$IIMWV,352,T,07.1,N,A*17
$HCHDG,174.3,0.0,E,,*28
$IIRMB,A,,,,Lac ,,,,,002.5,177,,V,A*7D
$HCHDG,174.2,0.0,E,,*29
$GPRMC,040035.8,A,4825.80394,N,12229.96288,W,006.25,189.0,020913,016.9,E,D*24
$PGRME,2.4,M,3.7,M,4.4,M*2C
$IIRMC,040000,A,4825.805,N,12229.962,W,06.2,188,010913,16,E,A*13
$HCHDG,174.2,0.0,E,,*29
$IIVHW,,,,,04.6,N,,*1B
$YXXDR,A,6.3,D,PTCH,A,3.1,D,ROLL*5A
$IIVLW,02253,N,033.7,N*52
$GPRMC,040036.0,A,4825.80361,N,12229.96290,W,006.03,187.9,020913,016.9,E,D*2F
$HCHDG,173.9,0.0,E,,*25
$PGRME,2.4,M,3.7,M,4.4,M*2C
$IIVWR,005,L,11.5,N,,,,*7F
$HCHDG,173.9,0.0,E,,*25
$IIDPT,005.0,-1.0,*45
$HCHDG,173.7,0.0,E,,*2B
$GPRMC,040036.2,A,4825.80323,N,12229.96300,W,006.23,188.6,020913,016.9,E,D*21
$PGRME,2.4,M,3.7,M,4.5,M*2D
$HCHDG,173.6,0.0,E,,*2A
$HCHDG,173.6,0.0,E,,*2A
$GPRMC,040036.4,A,4825.80296,N,12229.96303,W,006.06,187.9,020913,016.9,E,D*2C
$PGRME,2.4,M,3.7,M,4.5,M*2D
$YXXDR,A,6.3,D,PTCH,A,2.9,D,ROLL*53
$HCHDG,173.6,0.0,E,,*2A
$HCHDG,173.5,0.0,E,,*29
$GPRMC,040036.6,A,4825.80266,N,12229.96305,W,005.99,187.8,020913,016.9,E,D*23
$PGRME,2.4,M,3.8,M,4.5,M*22
$IIGLL,4825.803,N,12229.962,W,040000,A,A*41
$IIMTW,+16.0,C*3F
$HCHDG,173.6,0.0,E,,*2A
$IIMWV,355,R,11.4,N,A*14
$HCHDG,173.6,0.0,E,,*2A
$IIMWV,351,T,06.8,N,A*1C
$GPRMC,040036.8,A,4825.80243,N,12229.96312,W,006.02,188.3,020913,016.9,E,D*29
$GPRMB,A,-0.13,L,,Lac,4823.3220,N,12229.7720,W,2.5,177,5.90,V*67
$PGRME,2.4,M,3.8,M,4.5,M*22
$IIRMB,A,,,,Lac ,,,,,002.5,177,,V,A*7D
$HCHDG,173.6,0.0,E,,*2A
$YXXDR,A,6.3,D,PTCH,A,2.9,D,ROLL*53
$PTAK,FFD1,2.9*5E
$IIRMC,040000,A,4825.803,N,12229.962,W,06.0,187,010913,16,E,A*18
$GPRMC,040037.0,A,4825.80213,N,12229.96322,W,005.99,187.8,020913,016.9,E,D*23
$PGRME,2.4,M,3.8,M,4.5,M*22
$HCHDG,173.6,0.0,E,,*2A
$IIVHW,,,,,04.6,N,,*1B
$HCHDG,173.4,0.0,E,,*28
$IIVLW,02253,N,033.7,N*52
$HCHDG,173.4,0.0,E,,*28
$GPRMC,040037.2,A,4825.80185,N,12229.96320,W,005.97,187.9,020913,016.9,E,D*20
$PGRME,2.4,M,3.8,M,4.5,M*22
$HCHDG,173.6,0.0,E,,*2A
$HCHDG,173.7,0.0,E,,*2B
$GPRMC,040037.4,A,4825.80157,N,12229.96321,W,006.00,188.3,020913,016.9,E,D*20
$PGRME,2.4,M,3.8,M,4.5,M*22
$YXXDR,A,6.2,D,PTCH,A,2.7,D,ROLL*5C
$HCHDG,173.7,0.0,E,,*2B
$HCHDG,173.7,0.0,E,,*2B
$PTAK,FFP1,HEEL,@*07
$IIVWR,005,L,11.3,N,,,,*79
$GPRMC,040037.6,A,4825.80123,N,12229.96323,W,005.96,187.8,020913,016.9,E,D*2B
$PGRME,2.4,M,3.9,M,4.6,M*20
$IIDPT,005.0,-1.0,*45
$HCHDG,173.7,0.0,E,,*2B
$IIGLL,4825.802,N,12229.963,W,040000,A,A*41
$HCHDG,173.7,0.0,E,,*2B
$IIMTW,+16.0,C*3F
$GPRMC,040037.8,A,4825.80088,N,12229.96333,W,005.96,188.1,020913,016.9,E,D*22
$PGRME,2.4,M,3.9,M,4.6,M*20
$IIMWV,355,R,11.3,N,A*13
$HCHDG,173.7,0.0,E,,*2B
$IIMWV,351,T,06.7,N,A*13
$YXXDR,A,6.1,D,PTCH,A,2.4,D,ROLL*5C
$IIRMB,A,,,,Lac ,,,,,002.5,177,,V,A*7D
$GPRMC,040038.0,A,4825.80062,N,12229.96344,W,005.95,188.2,020913,016.9,E,D*21
$GPRMB,A,-0.13,L,,Lac,4823.3220,N,12229.7720,W,2.5,177,5.84,V*62
$HCHDG,174.0,0.0,E,,*2B
$PGRME,2.4,M,3.9,M,4.6,M*20
$HCHDG,173.9,0.0,E,,*25
$IIRMC,040000,A,4825.802,N,12229.963,W,05.9,187,010913,16,E,A*12
$HCHDG,174.0,0.0,E,,*2B
$GPRMC,040038.2,A,4825.80033,N,12229.96352,W,005.96,187.8,020913,016.9,E,D*26
$PGRME,2.4,M,3.9,M,4.6,M*20
$HCHDG,174.0,0.0,E,,*2B
$HCHDG,174.0,0.0,E,,*2B
$GPRMC,040038.4,A,4825.80001,N,12229.96363,W,005.93,188.2,020913,016.9,E,D*23
$PGRME,2.4,M,3.9,M,4.6,M*20
$YXXDR,A,6.2,D,PTCH,A,2.3,D,ROLL*58
$PTAK,FFD1,2.3*54
$HCHDG,173.9,0.0,E,,*25
$HCHDG,174.2,0.0,E,,*29
$IIVHW,,,,,05.0,N,,*1C
$GPRMC,040038.6,A,4825.79968,N,12229.96373,W,005.96,188.3,020913,016.9,E,D*24
$PGRME,2.4,M,3.9,M,4.6,M*20
$IIVLW,02253,N,033.7,N*52
$HCHDG,174.1,0.0,E,,*2A
$IIVWR,005,L,10.9,N,,,,*72
$IIDPT,005.0,-1.0,*45
$HCHDG,174.1,0.0,E,,*2A
$GPRMC,040038.8,A,4825.79940,N,12229.96384,W,005.97,188.8,020913,016.9,E,D*22
$PGRME,2.4,M,4.0,M,4.7,M*2F
$IIGLL,4825.802,N,12229.963,W,040000,A,A*41
$HCHDG,174.0,0.0,E,,*2B
$IIMTW,+16.0,C*3F
$IIMWV,355,R,10.9,N,A*18
$YXXDR,A,6.3,D,PTCH,A,2.6,D,ROLL*5C
$IIMWV,351,T,06.5,N,A*11
$GPRMC,040039.0,A,4825.79912,N,12229.96392,W,005.99,188.5,020913,016.9,E,D*28
$GPRMB,A,-0.13,L,,Lac,4823.3220,N,12229.7720,W,2.5,177,5.87,V*61
$HCHDG,173.9,0.0,E,,*25
$PGRME,2.4,M,4.0,M,4.7,M*2F
$HCHDG,174.0,0.0,E,,*2B
$IIRMB,A,,,,Lac ,,,,,002.5,177,,V,A*7D
$HCHDG,173.9,0.0,E,,*25
$GPRMC,040039.2,A,4825.79882,N,12229.96397,W,005.98,189.3,020913,016.9,E,D*21
$PGRME,2.4,M,4.0,M,4.7,M*2F
$HCHDG,173.9,0.0,E,,*25
$HCHDG,173.9,0.0,E,,*25
$GPRMC,040039.4,A,4825.79848,N,12229.96408,W,006.02,188.7,020913,016.9,E,D*25
$PGRME,2.4,M,4.0,M,4.7,M*2F
$YXXDR,A,6.1,D,PTCH,A,2.4,D,ROLL*5C
$HCHDG,173.8,0.0,E,,*24
$HCHDG,173.8,0.0,E,,*24
$GPRMC,040039.6,A,4825.79818,N,12229.96411,W,006.00,188.4,020913,016.9,E,D*2B
$PGRME,2.4,M,4.0,M,4.7,M*2F
$HCHDG,173.8,0.0,E,,*24
$IIRMC,040000,A,4825.800,N,12229.963,W,05.9,187,010913,16,E,A*10
$IIVHW,,,,,05.0,N,,*1C
$HCHDG,173.6,0.0,E,,*2A
$IIVLW,02253,N,033.7,N*52
$GPRMC,040039.8,A,4825.79786,N,12229.96421,W,005.98,188.1,020913,016.9,E,D*29
$PGRME,2.4,M,4.1,M,4.7,M*2E
$IIVWR,005,L,11.1,N,,,,*7B
$HCHDG,173.6,0.0,E,,*2A
$IIDPT,005.0,-1.0,*45
$YXXDR,A,6.3,D,PTCH,A,2.9,D,ROLL*53
$PTAK,FFD1,2.9*5E
$IIGLL,4825.800,N,12229.963,W,040000,A,A*43
$GPRMC,040040.0,A,4825.79756,N,12229.96423,W,005.99,187.9,020913,016.9,E,D*26
$HCHDG,173.6,0.0,E,,*2A
$PGRME,2.4,M,4.1,M,4.7,M*2E
$IIMTW,+16.0,C*3F
$IIMWV,355,R,11.1,N,A*11
$HCHDG,173.4,0.0,E,,*28
$IIMWV,351,T,05.9,N,A*1E
$HCHDG,173.4,0.0,E,,*28
$GPRMC,040040.2,A,4825.79721,N,12229.96431,W,005.98,187.8,020913,016.9,E,D*27
$GPRMB,A,-0.13,L,,Lac,4823.3220,N,12229.7720,W,2.5,177,5.87,V*61
$PGRME,2.4,M,4.1,M,4.8,M*21
$HCHDG,173.3,0.0,E,,*2F
$HCHDG,173.3,0.0,E,,*2F
$GPRMC,040040.4,A,4825.79688,N,12229.96437,W,005.98,187.8,020913,016.9,E,D*25
$PGRME,2.4,M,4.1,M,4.8,M*21
$YXXDR,A,6.3,D,PTCH,A,2.9,D,ROLL*53
$HCHDG,173.1,0.0,E,,*2D
$HCHDG,173.2,0.0,E,,*2E
$GPRMC,040040.6,A,4825.79655,N,12229.96448,W,005.98,187.2,020913,016.9,E,D*25
$PGRME,2.4,M,4.1,M,4.8,M*21
$IIRMB,A,,,,Lac ,,,,,002.5,177,,V,A*7D
$HCHDG,173.2,0.0,E,,*2E
$IIRMC,040000,A,4825.797,N,12229.964,W,05.9,187,010913,16,E,A*16
$HCHDG,173.2,0.0,E,,*2E
$GPRMC,040040.8,A,4825.79621,N,12229.96451,W,005.96,187.5,020913,016.9,E,D*29
$IIVHW,,,,,05.1,N,,*1D
$PGRME,2.4,M,4.1,M,4.8,M*21
$IIVLW,02253,N,033.7,N*52
$HCHDG,173.4,0.0,E,,*28
$IIVWR,005,L,10.8,N,,,,*73
$YXXDR,A,6.3,D,PTCH,A,3.2,D,ROLL*59
$PTAK,FFD1,3.2*54
$IIDPT,005.0,-1.0,*45
$GPRMC,040041.0,A,4825.79587,N,12229.96449,W,005.93,187.2,020913,016.9,E,D*24
$HCHDG,173.2,0.0,E,,*2E
$PGRME,2.4,M,4.1,M,4.8,M*21
$IIGLL,4825.797,N,12229.964,W,040000,A,A*45
$HCHDG,173.2,0.0,E,,*2E
$IIMTW,+16.0,C*3F
$IIMWV,355,R,10.8,N,A*19
$HCHDG,173.2,0.0,E,,*2E
$GPRMC,040041.2,A,4825.79552,N,12229.96460,W,005.95,187.4,020913,016.9,E,D*25
$GPRMB,A,-0.13,L,,Lac,4823.3220,N,12229.7720,W,2.5,177,5.85,V*63
$PGRME,2.4,M,4.1,M,4.8,M*21
$HCHDG,173.4,0.0,E,,*28
$HCHDG,173.4,0.0,E,,*28
$GPRMC,040041.4,A,4825.79517,N,12229.96473,W,005.96,187.2,020913,016.9,E,D*25
$PGRME,2.4,M,4.2,M,4.8,M*22
$YXXDR,A,6.2,D,PTCH,A,3.1,D,ROLL*5B
$HCHDG,173.4,0.0,E,,*28
$HCHDG,173.2,0.0,E,,*2E
$IIMWV,351,T,05.7,N,A*10
$GPRMC,040041.6,A,4825.79479,N,12229.96478,W,005.97,187.1,020913,016.9,E,D*27
$PTAK,FFP1,HEEL,@*07
$PGRME,2.4,M,4.2,M,4.8,M*22
$HCHDG,173.2,0.0,E,,*2E
$IIRMB,A,,,,Lac ,,,,,002.5,177,,V,A*7D
$HCHDG,173.4,0.0,E,,*28
$GPRMC,040041.8,A,4825.79441,N,12229.96488,W,006.00,187.8,020913,016.9,E,D*29
$PGRME,2.4,M,4.2,M,4.9,M*23
$IIRMC,040000,A,4825.795,N,12229.964,W,05.9,187,010913,16,E,A*14
$IIVHW,,,,,05.0,N,,*1C
$HCHDG,173.4,0.0,E,,*28
$IIVLW,02253,N,033.7,N*52
$YXXDR,A,6.1,D,PTCH,A,2.6,D,ROLL*5E
$IIVWR,005,L,10.1,N,,,,*7A
$GPRMC,040042.0,A,4825.79405,N,12229.96494,W,006.00,187.6,020913,016.9,E,D*21
$HCHDG,173.4,0.0,E,,*28
$PGRME,2.4,M,4.2,M,4.9,M*23
$IIDPT,005.0,-1.0,*45
$HCHDG,173.4,0.0,E,,*28
$IIGLL,4825.795,N,12229.964,W,040000,A,A*47
$IIMTW,+16.0,C*3F
$HCHDG,173.6,0.0,E,,*2A
$GPRMC,040042.2,A,4825.79374,N,12229.96504,W,006.00,188.1,020913,016.9,E,D*22
$PGRME,2.4,M,4.2,M,4.9,M*23
$HCHDG,173.5,0.0,E,,*29
$HCHDG,173.5,0.0,E,,*29
$GPRMC,040042.4,A,4825.79343,N,12229.96512,W,006.19,187.4,020913,016.9,E,D*25
$GPRMB,A,-0.13,L,,Lac,4823.3220,N,12229.7720,W,2.5,177,6.09,V*64
$PGRME,2.4,M,4.3,M,4.9,M*22
$YXXDR,A,6.0,D,PTCH,A,2.7,D,ROLL*5E
$PTAK,FFD1,2.7*50
$HCHDG,173.5,0.0,E,,*29
$HCHDG,173.6,0.0,E,,*2A
$IIMWV,355,R,10.3,N,A*12
$GPRMC,040042.6,A,4825.79310,N,12229.96519,W,006.18,187.2,020913,016.9,E,D*2D
$PGRME,2.4,M,4.3,M,4.9,M*22
$IIMWV,350,T,05.0,N,A*16
$HCHDG,173.5,0.0,E,,*29
$IIRMB,A,,,,Lac ,,,,,002.5,177,,V,A*7D
$HCHDG,173.5,0.0,E,,*29
$GPRMC,040042.8,A,4825.79283,N,12229.96527,W,006.19,187.9,020913,016.9,E,D*2F
$PGRME,2.4,M,4.3,M,4.9,M*22
$IIRMC,040000,A,4825.795,N,12229.964,W,05.9,187,010913,16,E,A*14
$HCHDG,173.5,0.0,E,,*29
$IIVHW,,,,,05.1,N,,*1D
$YXXDR,A,6.0,D,PTCH,A,2.6,D,ROLL*5F
$IIVLW,02253,N,033.7,N*52
$GPRMC,040043.0,A,4825.79248,N,12229.96537,W,006.20,187.2,020913,016.9,E,D*21
$HCHDG,173.7,0.0,E,,*2B
$PGRME,2.4,M,4.3,M,5.0,M*2A
$IIVWR,005,L,10.3,N,,,,*78
$HCHDG,173.7,0.0,E,,*2B
$IIDPT,005.0,-1.0,*45
$HCHDG,173.6,0.0,E,,*2A
$GPRMC,040043.2,A,4825.79216,N,12229.96529,W,006.20,188.1,020913,016.9,E,D*2B
$PGRME,2.4,M,4.3,M,5.0,M*2A
$HCHDG,173.6,0.0,E,,*2A
$HCHDG,173.9,0.0,E,,*25
$GPRMC,040043.4,A,4825.79180,N,12229.96534,W,006.20,187.5,020913,016.9,E,D*26
$GPRMB,A,-0.13,L,,Lac,4823.3220,N,12229.7720,W,2.5,177,6.10,V*6C
$PGRME,2.4,M,4.3,M,5.0,M*2A
$YXXDR,A,6.2,D,PTCH,A,2.3,D,ROLL*58
$PTAK,FFD1,2.3*54
$HCHDG,173.9,0.0,E,,*25
$HCHDG,173.9,0.0,E,,*25
$GPRMC,040043.6,A,4825.79138,N,12229.96541,W,006.21,188.5,020913,016.9,E,D*2B
$PGRME,2.4,M,4.4,M,5.0,M*2D
$IIGLL,4825.793,N,12229.965,W,040000,A,A*40
$IIMTW,+16.0,C*3F
$HCHDG,173.9,0.0,E,,*25
$IIMWV,355,R,10.4,N,A*15
$HCHDG,173.9,0.0,E,,*25
$IIMWV,350,T,05.1,N,A*17
$GPRMC,040043.8,A,4825.79111,N,12229.96549,W,006.22,187.5,020913,016.9,E,D*2A
$PGRME,2.4,M,4.4,M,5.0,M*2D
$IIRMB,A,,,,Lac ,,,,,002.5,177,,V,A*7D
$HCHDG,173.9,0.0,E,,*25
$YXXDR,A,6.1,D,PTCH,A,2.6,D,ROLL*5E
$IIRMC,040000,A,4825.793,N,12229.965,W,06.1,187,010913,16,E,A*18
$GPRMC,040044.0,A,4825.79074,N,12229.96560,W,006.22,188.8,020913,016.9,E,D*2E
$PGRME,2.4,M,4.4,M,5.0,M*2D
$HCHDG,173.9,0.0,E,,*25
$PGRMT,GPS 18x-5Hz software ver. 3.20,,,,,,,,*30
$IIVHW,,,,,05.2,N,,*1E
$HCHDG,173.9,0.0,E,,*25
$IIVLW,02253,N,033.7,N*52
$HCHDG,173.9,0.0,E,,*25
$GPRMC,040044.2,A,4825.79044,N,12229.96568,W,006.21,187.9,020913,016.9,E,D*2A
$PGRME,2.4,M,4.4,M,5.0,M*2D
$HCHDG,173.9,0.0,E,,*25
$HCHDG,173.9,0.0,E,,*25
$GPRMC,040044.4,A,4825.79010,N,12229.96578,W,006.20,187.7,020913,016.9,E,D*23
$PGRME,2.4,M,4.4,M,5.0,M*2D
$YXXDR,A,6.2,D,PTCH,A,2.7,D,ROLL*5C
$HCHDG,173.7,0.0,E,,*2B
$HCHDG,173.8,0.0,E,,*24
$IIVWR,005,L,10.5,N,,,,*7E
$GPRMC,040044.6,A,4825.78975,N,12229.96591,W,006.19,188.0,020913,016.9,E,D*2F
$GPRMB,A,-0.13,L,,Lac,4823.3220,N,12229.7720,W,2.5,177,6.08,V*65
$PGRME,2.4,M,4.4,M,5.0,M*2D
$IIDPT,005.0,-1.0,*45
$HCHDG,173.8,0.0,E,,*24
$IIGLL,4825.791,N,12229.965,W,040000,A,A*42
$HCHDG,173.9,0.0,E,,*25
$IIMTW,+16.0,C*3F
$GPRMC,040044.8,A,4825.78935,N,12229.96600,W,006.19,187.6,020913,016.9,E,D*27
$PGRME,2.4,M,4.4,M,5.1,M*2C
$IIMWV,355,R,10.5,N,A*14
$HCHDG,173.9,0.0,E,,*25
$IIMWV,350,T,05.2,N,A*14
$YXXDR,A,6.0,D,PTCH,A,2.7,D,ROLL*5E
$PTAK,FFD1,2.7*50
$IIRMB,A,,,,Lac ,,,,,002.5,177,,V,A*7D
$GPRMC,040045.0,A,4825.78897,N,12229.96615,W,006.19,188.1,020913,016.9,E,D*2B
$HCHDG,173.9,0.0,E,,*25
$PGRME,2.4,M,4.4,M,5.1,M*2C
$HCHDG,174.0,0.0,E,,*2B
$IIRMC,040000,A,4825.791,N,12229.965,W,06.2,187,010913,16,E,A*19
$HCHDG,174.0,0.0,E,,*2B
$GPRMC,040045.2,A,4825.78859,N,12229.96626,W,006.19,188.1,020913,016.9,E,D*2B
$PGRME,2.4,M,4.5,M,5.1,M*2D
$HCHDG,174.0,0.0,E,,*2B
$HCHDG,174.1,0.0,E,,*2A
$GPRMC,040045.4,A,4825.78827,N,12229.96635,W,006.18,187.7,020913,016.9,E,D*2E
$PGRME,2.4,M,4.5,M,5.1,M*2D
$YXXDR,A,6.1,D,PTCH,A,2.6,D,ROLL*5E
$HCHDG,174.1,0.0,E,,*2A
$HCHDG,174.1,0.0,E,,*2A
$IIVHW,,,,,05.1,N,,*1D
$GPRMC,040045.6,A,4825.78792,N,12229.96642,W,006.18,188.5,020913,016.9,E,D*20
$PGRME,2.4,M,4.5,M,5.1,M*2D
$IIVLW,02253,N,033.7,N*52
$HCHDG,173.9,0.0,E,,*25
$PTAK,FFP1,HEEL,@*07
$IIVWR,005,L,10.5,N,,,,*7E
$IIDPT,005.0,-1.0,*45
$HCHDG,173.9,0.0,E,,*25
$GPRMC,040045.8,A,4825.78755,N,12229.96655,W,006.17,187.9,020913,016.9,E,D*2F
$GPRMB,A,-0.13,L,,Lac,4823.3220,N,12229.7720,W,2.5,177,6.06,V*6B
$PGRME,2.4,M,4.5,M,5.1,M*2D
$IIGLL,4825.790,N,12229.965,W,040000,A,A*43
$HCHDG,174.0,0.0,E,,*2B
$IIMTW,+16.0,C*3F
$IIMWV,355,R,10.5,N,A*14
$YXXDR,A,6.3,D,PTCH,A,2.7,D,ROLL*5D
$PTAK,FFD1,2.7*50
$IIMWV,351,T,05.5,N,A*12
$GPRMC,040046.0,A,4825.78717,N,12229.96658,W,006.18,188.1,020913,016.9,E,D*27
$HCHDG,174.0,0.0,E,,*2B
$PGRME,2.4,M,4.5,M,5.1,M*2D
$IIRMB,A,,,,Lac ,,,,,002.5,177,,V,A*7D
$HCHDG,174.0,0.0,E,,*2B
$HCHDG,174.0,0.0,E,,*2B
$GPRMC,040046.2,A,4825.78681,N,12229.96663,W,006.18,188.2,020913,016.9,E,D*20
$PGRME,2.4,M,4.5,M,5.2,M*2E
$HCHDG,174.3,0.0,E,,*28
$HCHDG,174.3,0.0,E,,*28
$GPRMC,040046.4,A,4825.78644,N,12229.96672,W,006.19,188.4,020913,016.9,E,D*28
$PGRME,2.4,M,4.6,M,5.2,M*2D
$YXXDR,A,6.1,D,PTCH,A,2.6,D,ROLL*5E
$HCHDG,174.2,0.0,E,,*29
$HCHDG,174.2,0.0,E,,*29
$GPRMC,040046.6,A,4825.78606,N,12229.96684,W,006.19,188.2,020913,016.9,E,D*23
$PGRME,2.4,M,4.6,M,5.2,M*2D
$HCHDG,174.3,0.0,E,,*28
$IIRMC,040000,A,4825.787,N,12229.966,W,06.1,188,010913,16,E,A*11
$IIVHW,,,,,05.1,N,,*1D
$HCHDG,174.3,0.0,E,,*28
$IIVLW,02253,N,033.7,N*52
$GPRMC,040046.8,A,4825.78567,N,12229.96689,W,006.21,188.6,020913,016.9,E,D*2B
$GPRMB,A,-0.13,L,,Lac,4823.3220,N,12229.7720,W,2.5,177,6.08,V*65
$PGRME,2.4,M,4.6,M,5.2,M*2D
$IIVWR,005,L,10.8,N,,,,*73
$HCHDG,174.3,0.0,E,,*28
$IIDPT,004.9,-1.0,*4D
$YXXDR,A,6.0,D,PTCH,A,2.7,D,ROLL*5E
$IIGLL,4825.787,N,12229.966,W,040000,A,A*46
$GPRMC,040047.0,A,4825.78534,N,12229.96700,W,006.20,188.6,020913,016.9,E,D*25
$HCHDG,174.2,0.0,E,,*29
$PGRME,2.4,M,4.6,M,5.2,M*2D
$IIMTW,+16.0,C*3F
$HCHDG,174.0,0.0,E,,*2B
$IIMWV,355,R,10.8,N,A*19
$IIMWV,350,T,05.3,N,A*15
$HCHDG,174.0,0.0,E,,*2B
$GPRMC,040047.2,A,4825.78498,N,12229.96717,W,006.22,188.4,020913,016.9,E,D*26
$PGRME,2.4,M,4.6,M,5.2,M*2D
$HCHDG,174.0,0.0,E,,*2B
$HCHDG,174.0,0.0,E,,*2B
$GPRMC,040047.4,A,4825.78458,N,12229.96738,W,006.19,187.9,020913,016.9,E,D*2B
$PGRME,2.4,M,4.6,M,5.2,M*2D
$YXXDR,A,6.1,D,PTCH,A,2.9,D,ROLL*51
$PTAK,FFD1,2.9*5E
$HCHDG,174.1,0.0,E,,*2A
$HCHDG,174.1,0.0,E,,*2A
$GPRMC,040047.6,A,4825.78413,N,12229.96747,W,006.20,187.8,020913,016.9,E,D*25
$PGRME,2.4,M,4.7,M,5.3,M*2D
$IIRMB,A,,,,Lac ,,,,,002.5,177,,V,A*7D
$HCHDG,174.1,0.0,E,,*2A
$IIRMC,040000,A,4825.786,N,12229.966,W,06.1,188,010913,16,E,A*10
$HCHDG,174.1,0.0,E,,*2A
$GPRMC,040047.8,A,4825.78381,N,12229.96744,W,006.18,187.9,020913,016.9,E,D*2E
$PGRME,2.4,M,4.7,M,5.3,M*2D
$IIVHW,,,,,05.1,N,,*1D
$IIVLW,02253,N,033.7,N*52
$HCHDG,174.1,0.0,E,,*2A
$IIVWR,005,L,10.6,N,,,,*7D
$YXXDR,A,6.2,D,PTCH,A,2.7,D,ROLL*5C
$IIDPT,004.9,-1.0,*4D
$GPRMC,040048.0,A,4825.78352,N,12229.96749,W,006.16,188.0,020913,016.9,E,D*22
$GPRMB,A,-0.13,L,,Lac,4823.3220,N,12229.7720,W,2.5,177,6.05,V*68
$HCHDG,174.1,0.0,E,,*2A
$PGRME,2.4,M,4.7,M,5.3,M*2D
$IIGLL,4825.786,N,12229.966,W,040000,A,A*47
$HCHDG,174.1,0.0,E,,*2A
$IIMTW,+16.0,C*3F
$IIMWV,355,R,10.6,N,A*17
$HCHDG,174.1,0.0,E,,*2A
$GPRMC,040048.2,A,4825.78322,N,12229.96763,W,006.17,188.1,020913,016.9,E,D*2F
$PGRME,2.4,M,4.7,M,5.3,M*2D
$HCHDG,174.1,0.0,E,,*2A
$HCHDG,174.3,0.0,E,,*28
$GPRMC,040048.4,A,4825.78289,N,12229.96767,W,005.99,188.2,020913,016.9,E,D*2B
$PGRME,2.4,M,4.7,M,5.3,M*2D
$YXXDR,A,6.1,D,PTCH,A,2.4,D,ROLL*5C
$HCHDG,174.3,0.0,E,,*28
$HCHDG,174.2,0.0,E,,*29
$IIMWV,351,T,05.5,N,A*12
$GPRMC,040048.6,A,4825.78261,N,12229.96768,W,005.98,188.6,020913,016.9,E,D*25
$PGRME,2.4,M,4.7,M,5.3,M*2D
$HCHDG,174.1,0.0,E,,*2A
$IIRMB,A,,,,Lac ,,,,,002.5,177,,V,A*7D
$HCHDG,174.1,0.0,E,,*2A
$GPRMC,040048.8,A,4825.78226,N,12229.96777,W,006.01,188.5,020913,016.9,E,D*26
$PGRME,2.4,M,4.7,M,5.3,M*2D
$IIRMC,040000,A,4825.783,N,12229.967,W,06.1,187,010913,16,E,A*1B
$IIVHW,,,,,05.0,N,,*1C
$HCHDG,174.3,0.0,E,,*28
$IIVLW,02253,N,033.7,N*52
$YXXDR,A,5.7,D,PTCH,A,2.2,D,ROLL*5F
$PTAK,FFD1,2.2*55
$IIVWR,005,L,10.1,N,,,,*7A
$GPRMC,040049.0,A,4825.78192,N,12229.96791,W,005.97,189.4,020913,016.9,E,D*27
$GPRMB,A,-0.13,L,,Lac,4823.3220,N,12229.7720,W,2.5,177,5.83,V*65
$HCHDG,174.3,0.0,E,,*28
$PGRME,2.4,M,4.8,M,5.3,M*22
$IIDPT,004.9,-1.0,*4D
$HCHDG,174.3,0.0,E,,*28
$IIGLL,4825.783,N,12229.967,W,040000,A,A*43
$IIMTW,+16.0,C*3F
$HCHDG,174.3,0.0,E,,*28
$GPRMC,040049.2,A,4825.78158,N,12229.96799,W,005.98,189.0,020913,016.9,E,D*20
$PGRME,2.4,M,4.8,M,5.4,M*25
$HCHDG,174.5,0.0,E,,*2E
$HCHDG,174.5,0.0,E,,*2E
$GPRMC,040049.4,A,4825.78127,N,12229.96807,W,005.96,188.9,020913,016.9,E,D*20
$PGRME,2.4,M,4.8,M,5.4,M*25
$YXXDR,A,6.3,D,PTCH,A,2.1,D,ROLL*5B
$HCHDG,174.8,0.0,E,,*23
$HCHDG,174.9,0.0,E,,*22
$IIMWV,355,R,10.2,N,A*13
$GPRMC,040049.6,A,4825.78093,N,12229.96819,W,005.95,189.2,020913,016.9,E,D*2A
$PGRME,2.4,M,4.8,M,5.4,M*25
$IIMWV,350,T,05.1,N,A*17
$HCHDG,174.9,0.0,E,,*22
$PTAK,FFP1,HEEL,@*07
$IIRMB,A,,,,Lac ,,,,,002.5,177,,V,A*7D
$HCHDG,174.9,0.0,E,,*22
$GPRMC,040049.8,A,4825.78063,N,12229.96838,W,005.95,189.3,020913,016.9,E,D*29
$PGRME,2.4,M,4.8,M,5.4,M*25
$IIRMC,040000,A,4825.783,N,12229.967,W,06.1,187,010913,16,E,A*1B
$HCHDG,175.0,0.0,E,,*2A
$IIVHW,,,,,05.1,N,,*1D
$YXXDR,A,6.5,D,PTCH,A,2.6,D,ROLL*5A
$IIVLW,02253,N,033.7,N*52
$GPRMC,040050.0,A,4825.78032,N,12229.96846,W,005.96,189.1,020913,016.9,E,D*25
