$GPRMB,A,-34.86,L,,Shil,4741.0830,N,12224.5670,W,106.1,161,-0.08,V*0B
$PGRME,4.1,M,18.8,M,19.3,M*21
$YXXDR,A,5.3,D,PTCH,A,3.3,D,ROLL*5B
$PTAK,FFD1,3.3*55
$PTAK,FFP1,HEEL,@*07
$HCHDG,94.0,0.0,E,,*14
$HCHDG,93.9,0.0,E,,*1A
$GPRMC,160352.8,A,4921.41890,N,12316.30869,W,000.13,000.0,210913,017.3,E,A*2A
$GPRMB,A,-34.86,L,,Shil,4741.0830,N,12224.5670,W,106.1,161,-0.12,V*00
$PGRME,3.9,M,17.3,M,17.7,M*20
$HCHDG,93.8,0.0,E,,*1B
$HCHDG,93.8,0.0,E,,*1B
$GPRMC,160353.0,A,4921.41876,N,12316.30850,W,000.10,000.0,210913,017.3,E,A*22
$PGRME,3.8,M,16.0,M,16.5,M*20
$HCHDG,93.7,0.0,E,,*14
$YXXDR,A,5.4,D,PTCH,A,3.5,D,ROLL*5A
$GPRMC,160353.2,A,4921.41877,N,12316.30855,W,000.10,000.0,210913,017.3,E,A*24
$PGRME,3.6,M,15.0,M,15.4,M*2F
$HCHDG,93.6,0.0,E,,*15
$HCHDG,93.5,0.0,E,,*16
$HCHDG,93.5,0.0,E,,*16
$GPRMC,160353.4,A,4921.41910,N,12316.30885,W,000.13,000.0,210913,017.3,E,A*2C
$PGRME,3.5,M,14.0,M,14.4,M*2C
$HCHDG,93.4,0.0,E,,*17
$HCHDG,93.4,0.0,E,,*17
$GPRMC,160353.6,A,4921.41916,N,12316.30905,W,000.10,000.0,210913,017.3,E,A*22
$PGRME,3.4,M,13.2,M,13.6,M*2D
$YXXDR,A,5.4,D,PTCH,A,3.7,D,ROLL*58
$HCHDG,93.3,0.0,E,,*10
$HCHDG,93.3,0.0,E,,*10
$GPRMC,160353.8,A,4921.41925,N,12316.30910,W,000.11,000.0,210913,017.3,E,A*29
$PGRME,3.3,M,12.4,M,12.8,M*22
$HCHDG,93.2,0.0,E,,*11
$HCHDG,93.1,0.0,E,,*12
$GPRMC,160354.0,A,4921.41931,N,12316.30900,W,000.10,000.0,210913,017.3,E,A*23
$PGRME,3.2,M,11.7,M,12.1,M*2A
$HCHDG,93.1,0.0,E,,*12
$YXXDR,A,5.4,D,PTCH,A,4.0,D,ROLL*58
$PTAK,FFD1,4.0*51
$GPRMC,160354.2,A,4921.41943,N,12316.30908,W,000.09,000.0,210913,017.3,E,A*24
$GPRMB,A,-34.86,L,,Shil,4741.0830,N,12224.5670,W,106.1,161,-0.09,V*0A
$PGRME,3.1,M,10.9,M,11.4,M*20
$HCHDG,93.2,0.0,E,,*11
$HCHDG,93.2,0.0,E,,*11
$HCHDG,93.1,0.0,E,,*12
$GPRMC,160354.4,A,4921.41963,N,12316.30926,W,000.08,000.0,210913,017.3,E,A*2D
$PGRME,3.0,M,10.3,M,10.7,M*29
$HCHDG,93.0,0.0,E,,*13
$HCHDG,93.0,0.0,E,,*13
$GPRMC,160354.6,A,4921.41979,N,12316.30941,W,000.07,000.0,210913,017.3,E,A*2A
$PGRME,3.0,M,9.8,M,10.2,M*1F
$YXXDR,A,5.3,D,PTCH,A,3.8,D,ROLL*50
$HCHDG,92.9,0.0,E,,*1B
$HCHDG,92.8,0.0,E,,*1A
$GPRMC,160354.8,A,4921.41996,N,12316.30969,W,000.05,000.0,210913,017.3,E,A*2D
$PGRME,3.0,M,9.3,M,9.8,M*26
$HCHDG,92.7,0.0,E,,*15
$HCHDG,92.7,0.0,E,,*15
$GPRMC,160355.0,A,4921.42028,N,12316.31000,W,000.02,000.0,210913,017.3,E,A*2B
$PGRME,3.0,M,8.9,M,9.4,M*21
$HCHDG,92.6,0.0,E,,*14
$YXXDR,A,5.4,D,PTCH,A,3.5,D,ROLL*5A
$GPRMC,160355.2,A,4921.42051,N,12316.31038,W,000.09,000.0,210913,017.3,E,A*27
$PGRME,3.0,M,8.4,M,9.0,M*28
$HCHDG,92.5,0.0,E,,*17
$HCHDG,92.4,0.0,E,,*16
$HCHDG,92.3,0.0,E,,*11
$GPRMC,160355.4,A,4921.42060,N,12316.31063,W,000.10,000.0,210913,017.3,E,A*25
$GPRMB,A,-34.86,L,,Shil,4741.0830,N,12224.5670,W,106.1,161,-0.09,V*0A
$PGRME,3.0,M,8.1,M,8.7,M*2B
$HCHDG,92.3,0.0,E,,*11
$HCHDG,92.2,0.0,E,,*10
$GPRMC,160355.6,A,4921.42066,N,12316.31086,W,000.12,000.0,210913,017.3,E,A*28
$PGRME,3.0,M,7.8,M,8.4,M*2E
$YXXDR,A,5.4,D,PTCH,A,3.4,D,ROLL*5B
$PTAK,FFD1,3.4*52
$HCHDG,92.1,0.0,E,,*13
$HCHDG,92.1,0.0,E,,*13
$GPRMC,160355.8,A,4921.42059,N,12316.31095,W,000.07,000.0,210913,017.3,E,A*2C
$PGRME,3.0,M,7.5,M,8.1,M*26
$HCHDG,92.0,0.0,E,,*12
$HCHDG,91.9,0.0,E,,*18
$GPRMC,160356.0,A,4921.42048,N,12316.31092,W,000.14,000.0,210913,017.3,E,A*22
$PGRME,3.0,M,7.3,M,7.9,M*27
$HCHDG,91.8,0.0,E,,*19
$YXXDR,A,5.5,D,PTCH,A,3.8,D,ROLL*56
$GPRMC,160356.2,A,4921.42034,N,12316.31078,W,000.12,000.0,210913,017.3,E,A*29
$PGRME,3.0,M,7.0,M,7.6,M*2B
$HCHDG,91.8,0.0,E,,*19
$HCHDG,91.8,0.0,E,,*19
$HCHDG,91.7,0.0,E,,*16
$GPRMC,160356.4,A,4921.42018,N,12316.31058,W,000.13,000.0,210913,017.3,E,A*22
$PGRME,3.0,M,6.8,M,7.4,M*20
$HCHDG,91.6,0.0,E,,*17
$HCHDG,91.3,0.0,E,,*12
$GPRMC,160356.6,A,4921.42013,N,12316.31046,W,000.08,000.0,210913,017.3,E,A*2E
$GPRMB,A,-34.86,L,,Shil,4741.0830,N,12224.5670,W,106.1,161,-0.08,V*0B
$PGRME,3.0,M,6.6,M,7.3,M*29
$YXXDR,A,5.4,D,PTCH,A,4.5,D,ROLL*5D
$PTAK,FFD1,4.5*54
$HCHDG,91.2,0.0,E,,*13
$HCHDG,91.2,0.0,E,,*13
$GPRMC,160356.8,A,4921.42013,N,12316.31042,W,000.04,000.0,210913,017.3,E,A*28
$PGRME,3.0,M,6.4,M,7.1,M*29
$HCHDG,91.2,0.0,E,,*13
$HCHDG,91.2,0.0,E,,*13
$GPRMC,160357.0,A,4921.42006,N,12316.31043,W,000.04,000.0,210913,017.3,E,A*24
$PGRME,3.0,M,6.2,M,6.9,M*26
$HCHDG,91.4,0.0,E,,*15
$YXXDR,A,5.4,D,PTCH,A,5.2,D,ROLL*5B
$PTAK,FFP1,HEEL,@*07
$GPRMC,160357.2,A,4921.42005,N,12316.31045,W,000.07,000.0,210913,017.3,E,A*20
$PGRME,3.0,M,6.0,M,6.7,M*2A
$HCHDG,91.4,0.0,E,,*15
$HCHDG,91.3,0.0,E,,*12
$HCHDG,91.4,0.0,E,,*15
$GPRMC,160357.4,A,4921.42002,N,12316.31047,W,000.08,000.0,210913,017.3,E,A*2C
$PGRME,3.0,M,5.8,M,6.6,M*20
$HCHDG,91.4,0.0,E,,*15
$HCHDG,91.5,0.0,E,,*14
$GPRMC,160357.6,A,4921.42002,N,12316.31046,W,000.08,000.0,210913,017.3,E,A*2F
$GPRMB,A,-34.86,L,,Shil,4741.0830,N,12224.5670,W,106.1,161,-0.08,V*0B
$PGRME,3.0,M,5.7,M,6.4,M*2D
$YXXDR,A,5.5,D,PTCH,A,5.7,D,ROLL*5F
$PTAK,FFD1,5.7*57
$HCHDG,91.6,0.0,E,,*17
$HCHDG,91.6,0.0,E,,*17
$GPRMC,160357.8,A,4921.42006,N,12316.31052,W,000.09,000.0,210913,017.3,E,A*21
$PGRME,3.0,M,5.5,M,6.3,M*28
$HCHDG,91.7,0.0,E,,*16
$HCHDG,91.6,0.0,E,,*17
$GPRMC,160358.0,A,4921.42008,N,12316.31052,W,000.12,000.0,210913,017.3,E,A*22
$PGRME,3.0,M,5.3,M,6.1,M*2C
$HCHDG,91.7,0.0,E,,*16
$YXXDR,A,5.5,D,PTCH,A,6.0,D,ROLL*5B
$GPRMC,160358.2,A,4921.42016,N,12316.31052,W,000.12,000.0,210913,017.3,E,A*2F
$PGRME,3.0,M,5.2,M,6.0,M*2C
$HCHDG,91.8,0.0,E,,*19
$HCHDG,91.8,0.0,E,,*19
$HCHDG,91.9,0.0,E,,*18
$GPRMC,160358.4,A,4921.42028,N,12316.31040,W,000.19,000.0,210913,017.3,E,A*2C
$PGRME,3.0,M,5.1,M,5.9,M*25
$HCHDG,91.9,0.0,E,,*18
$HCHDG,92.1,0.0,E,,*13
$GPRMC,160358.6,A,4921.42033,N,12316.31032,W,000.16,000.0,210913,017.3,E,A*2E
$GPRMB,A,-34.86,L,,Shil,4741.0830,N,12224.5670,W,106.1,161,-0.15,V*07
$PGRME,3.0,M,5.0,M,5.9,M*24
$YXXDR,A,5.5,D,PTCH,A,6.1,D,ROLL*5A
$HCHDG,92.1,0.0,E,,*13
$HCHDG,92.0,0.0,E,,*12
$GPRMC,160358.8,A,4921.42037,N,12316.31022,W,000.16,000.0,210913,017.3,E,A*25
$PGRME,3.0,M,4.9,M,5.8,M*2D
$HCHDG,92.1,0.0,E,,*13
$HCHDG,92.2,0.0,E,,*10
$GPRMC,160359.0,A,4921.42037,N,12316.31012,W,000.12,000.0,210913,017.3,E,A*2B
$PGRME,3.0,M,4.8,M,5.7,M*23
$HCHDG,92.1,0.0,E,,*13
$YXXDR,A,5.5,D,PTCH,A,6.4,D,ROLL*5F
$PTAK,FFD1,6.4*57
$GPRMC,160359.2,A,4921.42034,N,12316.31006,W,000.09,000.0,210913,017.3,E,A*25
$PGRME,3.0,M,4.7,M,5.6,M*2D
$HCHDG,92.1,0.0,E,,*13
$HCHDG,92.1,0.0,E,,*13
$HCHDG,92.2,0.0,E,,*10
$GPRMC,160359.4,A,4921.42036,N,12316.31001,W,000.10,000.0,210913,017.3,E,A*2E
$PGRME,3.0,M,4.6,M,5.5,M*2F
$HCHDG,92.5,0.0,E,,*17
$HCHDG,92.7,0.0,E,,*15
$GPRMC,160359.6,A,4921.42030,N,12316.30996,W,000.13,000.0,210913,017.3,E,A*2F
$PGRME,3.0,M,4.5,M,5.4,M*2D
$YXXDR,A,5.5,D,PTCH,A,6.6,D,ROLL*5D
$HCHDG,92.6,0.0,E,,*14
$HCHDG,92.7,0.0,E,,*15
$GPRMC,160359.8,A,4921.42027,N,12316.30993,W,000.12,000.0,210913,017.3,E,A*23
$GPRMB,A,-34.86,L,,Shil,4741.0830,N,12224.5670,W,106.1,161,-0.11,V*03
$PGRME,3.0,M,4.4,M,5.4,M*2C
$HCHDG,92.8,0.0,E,,*1A
$HCHDG,92.7,0.0,E,,*15
$GPRMC,160400.0,A,4921.42036,N,12316.30997,W,000.09,000.0,210913,017.3,E,A*2E
$PGRME,3.0,M,4.3,M,5.3,M*2C
$HCHDG,92.9,0.0,E,,*1B
$YXXDR,A,5.5,D,PTCH,A,6.9,D,ROLL*52
$GPRMC,160400.2,A,4921.42037,N,12316.30991,W,000.07,000.0,210913,017.3,E,A*25
$PGRME,3.0,M,4.2,M,5.2,M*2C
$HCHDG,92.9,0.0,E,,*1B
$HCHDG,93.0,0.0,E,,*13
$HCHDG,93.0,0.0,E,,*13
$GPRMC,160400.4,A,4921.42044,N,12316.30987,W,000.11,000.0,210913,017.3,E,A*27
$PGRME,3.0,M,4.1,M,5.1,M*2C
$HCHDG,93.2,0.0,E,,*11
$HCHDG,93.2,0.0,E,,*11
$GPRMC,160400.6,A,4921.42048,N,12316.30978,W,000.14,000.0,210913,017.3,E,A*2C
$PGRME,3.0,M,4.1,M,5.1,M*2C
$YXXDR,A,5.3,D,PTCH,A,6.9,D,ROLL*54
$PTAK,FFD1,6.9*5A
$HCHDG,93.3,0.0,E,,*10
$HCHDG,93.4,0.0,E,,*17
$GPRMC,160400.8,A,4921.42058,N,12316.30968,W,000.21,000.0,210913,017.3,E,A*24
$GPRMB,A,-34.86,L,,Shil,4741.0830,N,12224.5670,W,106.1,161,-0.20,V*01
$PGRME,3.0,M,4.0,M,5.0,M*2C
$HCHDG,93.5,0.0,E,,*16
$HCHDG,93.2,0.0,E,,*11
$GPRMC,160401.0,A,4921.42068,N,12316.30959,W,000.18,000.0,210913,017.3,E,A*26
$PGRME,3.0,M,3.9,M,5.0,M*22
$HCHDG,93.4,0.0,E,,*17
$YXXDR,A,5.5,D,PTCH,A,6.6,D,ROLL*5D
$GPRMC,160401.2,A,4921.42071,N,12316.30946,W,000.13,000.0,210913,017.3,E,A*29
$PTAK,FFP1,HEEL,@*07
$PGRME,3.0,M,3.8,M,4.9,M*2B
$HCHDG,93.4,0.0,E,,*17
$HCHDG,93.5,0.0,E,,*16
$HCHDG,93.5,0.0,E,,*16
$GPRMC,160401.4,A,4921.42065,N,12316.30940,W,000.07,000.0,210913,017.3,E,A*29
$PGRME,3.0,M,3.8,M,4.9,M*2B
$HCHDG,93.6,0.0,E,,*15
$HCHDG,93.6,0.0,E,,*15
$GPRMC,160401.6,A,4921.42064,N,12316.30937,W,000.05,000.0,210913,017.3,E,A*28
$PGRME,3.0,M,3.7,M,4.8,M*25
$YXXDR,A,5.7,D,PTCH,A,6.3,D,ROLL*5A
$PTAK,FFD1,6.3*50
$HCHDG,93.6,0.0,E,,*15
$HCHDG,93.8,0.0,E,,*1B
$GPRMC,160401.8,A,4921.42062,N,12316.30933,W,000.06,000.0,210913,017.3,E,A*27
$PGRME,3.0,M,3.7,M,4.8,M*25
$HCHDG,93.8,0.0,E,,*1B
$HCHDG,93.8,0.0,E,,*1B
$GPRMC,160402.0,A,4921.42064,N,12316.30925,W,000.09,000.0,210913,017.3,E,A*22
$GPRMB,A,-34.86,L,,Shil,4741.0830,N,12224.5670,W,106.1,161,-0.09,V*0A
$PGRME,3.0,M,3.6,M,4.7,M*2B
$HCHDG,93.9,0.0,E,,*1A
$YXXDR,A,5.6,D,PTCH,A,6.2,D,ROLL*5A
$GPRMC,160402.2,A,4921.42060,N,12316.30919,W,000.09,000.0,210913,017.3,E,A*2B
$HCHDG,94.0,0.0,E,,*14
$PGRME,3.0,M,3.5,M,4.7,M*28
$HCHDG,94.0,0.0,E,,*14
$HCHDG,94.1,0.0,E,,*15
$GPRMC,160402.4,A,4921.42052,N,12316.30916,W,000.09,000.0,210913,017.3,E,A*23
$PGRME,3.0,M,3.5,M,4.6,M*29
$HCHDG,94.2,0.0,E,,*16
$HCHDG,94.3,0.0,E,,*17
$GPRMC,160402.6,A,4921.42053,N,12316.30917,W,000.08,000.0,210913,017.3,E,A*20
$PGRME,3.0,M,3.4,M,4.6,M*28
$YXXDR,A,5.5,D,PTCH,A,6.5,D,ROLL*5E
$HCHDG,94.3,0.0,E,,*17
$HCHDG,94.5,0.0,E,,*11
$GPRMC,160402.8,A,4921.42054,N,12316.30905,W,000.11,000.0,210913,017.3,E,A*22
$PGRME,3.0,M,3.3,M,4.5,M*2C
$HCHDG,94.5,0.0,E,,*11
$HCHDG,94.5,0.0,E,,*11
$GPRMC,160403.0,A,4921.42047,N,12316.30887,W,000.14,000.0,210913,017.3,E,A*27
$GPRMB,A,-34.86,L,,Shil,4741.0830,N,12224.5670,W,106.1,161,-0.13,V*01
$PGRME,3.0,M,3.3,M,4.5,M*2C
$HCHDG,94.5,0.0,E,,*11
$YXXDR,A,5.5,D,PTCH,A,6.7,D,ROLL*5C
$PTAK,FFD1,6.7*54
$GPRMC,160403.2,A,4921.42045,N,12316.30866,W,000.13,000.0,210913,017.3,E,A*2F
$GPRMB,A,-34.86,L,,Shil,4741.0830,N,12224.5670,W,106.1,161,-0.12,V*00
$PGRME,3.0,M,3.2,M,4.4,M*2C
$HCHDG,94.6,0.0,E,,*12
$HCHDG,94.8,0.0,E,,*1C
$HCHDG,94.7,0.0,E,,*13
$GPRMC,160403.4,A,4921.42052,N,12316.30854,W,000.11,000.0,210913,017.3,E,A*2C
$PGRME,3.0,M,3.2,M,4.4,M*2C
$HCHDG,94.8,0.0,E,,*1C
$HCHDG,94.8,0.0,E,,*1C
$GPRMC,160403.6,A,4921.42058,N,12316.30854,W,000.12,000.0,210913,017.3,E,A*27
$PGRME,3.0,M,3.1,M,4.3,M*28
$YXXDR,A,5.5,D,PTCH,A,6.9,D,ROLL*52
$HCHDG,94.9,0.0,E,,*1D
$HCHDG,94.9,0.0,E,,*1D
$GPRMC,160403.8,A,4921.42071,N,12316.30857,W,000.11,000.0,210913,017.3,E,A*22
$PGRME,3.0,M,3.1,M,4.3,M*28
$HCHDG,95.1,0.0,E,,*14
$HCHDG,95.1,0.0,E,,*14
$GPRMC,160404.0,A,4921.42081,N,12316.30866,W,000.14,000.0,210913,017.3,E,A*25
$PGRME,3.0,M,3.0,M,4.3,M*29
$HCHDG,95.1,0.0,E,,*14
$YXXDR,A,5.7,D,PTCH,A,6.6,D,ROLL*5F
$GPRMC,160404.2,A,4921.42096,N,12316.30882,W,000.13,000.0,210913,017.3,E,A*2C
$PGRME,3.0,M,3.0,M,4.3,M*29
$HCHDG,95.2,0.0,E,,*17
$HCHDG,95.2,0.0,E,,*17
$HCHDG,95.3,0.0,E,,*16
$GPRMC,160404.4,A,4921.42105,N,12316.30890,W,000.11,000.0,210913,017.3,E,A*20
$PGRME,3.0,M,3.0,M,4.3,M*29
$HCHDG,95.3,0.0,E,,*16
$HCHDG,95.4,0.0,E,,*11
$GPRMC,160404.6,A,4921.42105,N,12316.30885,W,000.13,000.0,210913,017.3,E,A*24
$PGRME,3.0,M,3.0,M,4.3,M*29
$YXXDR,A,5.6,D,PTCH,A,6.1,D,ROLL*59
$HCHDG,95.5,0.0,E,,*10
$HCHDG,95.4,0.0,E,,*11
$GPRMC,160404.8,A,4921.42105,N,12316.30882,W,000.20,000.0,210913,017.3,E,A*2D
$PGRME,3.0,M,3.0,M,4.3,M*29
$HCHDG,95.5,0.0,E,,*10
$HCHDG,95.5,0.0,E,,*10
$GPRMC,160405.0,A,4921.42108,N,12316.30891,W,000.19,000.0,210913,017.3,E,A*21
$PGRME,3.0,M,3.0,M,4.3,M*29
$HCHDG,95.7,0.0,E,,*12
$YXXDR,A,5.5,D,PTCH,A,5.6,D,ROLL*5E
$GPRMC,160405.2,A,4921.42107,N,12316.30899,W,000.17,000.0,210913,017.3,E,A*2A
$PTAK,FFP1,HEEL,@*07
$PGRME,3.0,M,3.0,M,4.3,M*29
$HCHDG,95.6,0.0,E,,*13
$HCHDG,95.8,0.0,E,,*1D
$HCHDG,95.8,0.0,E,,*1D
$GPRMC,160405.4,A,4921.42104,N,12316.30891,W,000.26,000.0,210913,017.3,E,A*25
$GPRMB,A,-34.86,L,,Shil,4741.0830,N,12224.5670,W,106.1,161,-0.25,V*04
$PGRME,3.0,M,3.0,M,4.3,M*29
$HCHDG,95.8,0.0,E,,*1D
$HCHDG,95.9,0.0,E,,*1C
$GPRMC,160405.6,A,4921.42095,N,12316.30880,W,000.16,000.0,210913,017.3,E,A*2D
$PGRME,3.0,M,3.0,M,4.3,M*29
$YXXDR,A,5.4,D,PTCH,A,4.9,D,ROLL*51
$PTAK,FFD1,4.9*58
$HCHDG,95.9,0.0,E,,*1C
$HCHDG,96.1,0.0,E,,*17
$GPRMC,160405.8,A,4921.42081,N,12316.30876,W,000.14,000.0,210913,017.3,E,A*2D
$PGRME,3.0,M,3.0,M,4.3,M*29
$HCHDG,96.0,0.0,E,,*16
$HCHDG,96.2,0.0,E,,*14
$GPRMC,160406.0,A,4921.42077,N,12316.30876,W,000.12,000.0,210913,017.3,E,A*29
$PGRME,3.0,M,3.0,M,4.3,M*29
$HCHDG,96.3,0.0,E,,*15
$YXXDR,A,5.5,D,PTCH,A,4.0,D,ROLL*59
$GPRMC,160406.2,A,4921.42073,N,12316.30872,W,000.01,000.0,210913,017.3,E,A*29
$PGRME,3.0,M,3.0,M,4.3,M*29
$HCHDG,96.2,0.0,E,,*14
$HCHDG,96.4,0.0,E,,*12
$HCHDG,96.3,0.0,E,,*15
$GPRMC,160406.4,A,4921.42067,N,12316.30868,W,000.11,000.0,210913,017.3,E,A*20
$GPRMB,A,-34.86,L,,Shil,4741.0830,N,12224.5670,W,106.1,161,-0.10,V*02
$PGRME,3.0,M,3.0,M,4.3,M*29
$HCHDG,96.5,0.0,E,,*13
$HCHDG,96.6,0.0,E,,*10
$GPRMC,160406.6,A,4921.42067,N,12316.30865,W,000.09,000.0,210913,017.3,E,A*26
$PGRME,3.0,M,3.0,M,4.3,M*29
$YXXDR,A,5.4,D,PTCH,A,3.8,D,ROLL*57
$PTAK,FFD1,3.8*5E
$HCHDG,96.7,0.0,E,,*11
$HCHDG,96.8,0.0,E,,*1E
$GPRMC,160406.8,A,4921.42069,N,12316.30859,W,000.09,000.0,210913,017.3,E,A*29
$PGRME,3.0,M,3.0,M,4.3,M*29
$HCHDG,96.8,0.0,E,,*1E
$HCHDG,96.9,0.0,E,,*1F
$GPRMC,160407.0,A,4921.42069,N,12316.30841,W,000.13,000.0,210913,017.3,E,A*22
$PGRME,3.0,M,3.0,M,4.3,M*29
$HCHDG,97.0,0.0,E,,*17
$YXXDR,A,5.4,D,PTCH,A,4.1,D,ROLL*59
$GPRMC,160407.2,A,4921.42064,N,12316.30820,W,000.13,000.0,210913,017.3,E,A*2A
$PGRME,3.0,M,3.0,M,4.3,M*29
$HCHDG,97.1,0.0,E,,*16
$HCHDG,96.8,0.0,E,,*1E
$HCHDG,96.9,0.0,E,,*1F
$GPRMC,160407.4,A,4921.42054,N,12316.30798,W,000.09,000.0,210913,017.3,E,A*28
$PGRME,3.0,M,3.0,M,4.3,M*29
$HCHDG,96.9,0.0,E,,*1F
$HCHDG,97.1,0.0,E,,*16
$GPRMC,160407.6,A,4921.42052,N,12316.30783,W,000.08,000.0,210913,017.3,E,A*27
$GPRMB,A,-34.86,L,,Shil,4741.0830,N,12224.5670,W,106.1,161,-0.08,V*0B
$PGRME,3.0,M,3.0,M,4.3,M*29
$YXXDR,A,5.7,D,PTCH,A,4.4,D,ROLL*5F
$PTAK,FFD1,4.4*55
$HCHDG,97.1,0.0,E,,*16
$HCHDG,97.1,0.0,E,,*16
$GPRMC,160407.8,A,4921.42053,N,12316.30766,W,000.04,000.0,210913,017.3,E,A*2F
$PGRME,3.0,M,3.0,M,4.3,M*29
$HCHDG,97.1,0.0,E,,*16
$HCHDG,97.2,0.0,E,,*15
$GPRMC,160408.0,A,4921.42053,N,12316.30761,W,000.02,000.0,210913,017.3,E,A*29
$PGRME,3.0,M,3.0,M,4.3,M*29
$HCHDG,97.2,0.0,E,,*15
$YXXDR,A,5.7,D,PTCH,A,4.8,D,ROLL*53
$GPRMC,160408.2,A,4921.42056,N,12316.30765,W,000.09,000.0,210913,017.3,E,A*21
$PGRME,3.0,M,3.0,M,4.3,M*29
$HCHDG,97.2,0.0,E,,*15
$HCHDG,97.3,0.0,E,,*14
$HCHDG,97.3,0.0,E,,*14
$GPRMC,160408.4,A,4921.42057,N,12316.30774,W,000.05,000.0,210913,017.3,E,A*2A
$PGRME,3.0,M,3.0,M,4.3,M*29
$HCHDG,97.3,0.0,E,,*14
$HCHDG,97.3,0.0,E,,*14
$GPRMC,160408.6,A,4921.42061,N,12316.30778,W,000.05,000.0,210913,017.3,E,A*21
$PGRME,3.0,M,3.0,M,4.3,M*29
$YXXDR,A,5.6,D,PTCH,A,5.6,D,ROLL*5D
$HCHDG,97.4,0.0,E,,*13
$HCHDG,97.4,0.0,E,,*13
$GPRMC,160408.8,A,4921.42062,N,12316.30778,W,000.10,000.0,210913,017.3,E,A*28
$GPRMB,A,-34.86,L,,Shil,4741.0830,N,12224.5670,W,106.1,161,-0.09,V*0A
$PGRME,3.0,M,3.0,M,4.3,M*29
$HCHDG,97.4,0.0,E,,*13
$HCHDG,97.3,0.0,E,,*14
$GPRMC,160409.0,A,4921.42058,N,12316.30779,W,000.04,000.0,210913,017.3,E,A*2C
$PGRME,3.0,M,3.0,M,4.3,M*29
$HCHDG,97.3,0.0,E,,*14
$YXXDR,A,5.7,D,PTCH,A,5.7,D,ROLL*5D
$PTAK,FFD1,5.7*57
$GPRMC,160409.2,A,4921.42056,N,12316.30778,W,000.10,000.0,210913,017.3,E,A*24
$PTAK,FFP1,HEEL,@*07
$PGRME,3.0,M,3.0,M,4.3,M*29
$HCHDG,97.3,0.0,E,,*14
$HCHDG,97.3,0.0,E,,*14
$HCHDG,97.4,0.0,E,,*13
$GPRMC,160409.4,A,4921.42061,N,12316.30776,W,000.09,000.0,210913,017.3,E,A*20
$PGRME,3.0,M,3.0,M,4.3,M*29
$HCHDG,97.5,0.0,E,,*12
$HCHDG,97.5,0.0,E,,*12
$GPRMC,160409.6,A,4921.42057,N,12316.30775,W,000.04,000.0,210913,017.3,E,A*29
$PGRME,3.0,M,3.0,M,4.3,M*29
$YXXDR,A,5.8,D,PTCH,A,5.4,D,ROLL*51
$HCHDG,97.5,0.0,E,,*12
$HCHDG,97.5,0.0,E,,*12
$GPRMC,160409.8,A,4921.42054,N,12316.30777,W,000.12,000.0,210913,017.3,E,A*21
$GPRMB,A,-34.86,L,,Shil,4741.0830,N,12224.5670,W,106.1,161,-0.11,V*03
$PGRME,3.0,M,3.0,M,4.3,M*29
$HCHDG,97.5,0.0,E,,*12
$HCHDG,97.6,0.0,E,,*11
$GPRMC,160410.0,A,4921.42049,N,12316.30786,W,000.04,000.0,210913,017.3,E,A*24
$PGRME,3.0,M,3.0,M,4.3,M*29
$HCHDG,97.7,0.0,E,,*10
$YXXDR,A,5.5,D,PTCH,A,5.0,D,ROLL*58
$GPRMC,160410.2,A,4921.42045,N,12316.30787,W,000.10,000.0,210913,017.3,E,A*2E
$PGRME,3.0,M,3.0,M,4.3,M*29
$HCHDG,97.7,0.0,E,,*10
$HCHDG,97.7,0.0,E,,*10
$HCHDG,97.8,0.0,E,,*1F
$GPRMC,160410.4,A,4921.42045,N,12316.30786,W,000.05,000.0,210913,017.3,E,A*2D
$PGRME,3.0,M,3.0,M,4.3,M*29
$HCHDG,97.8,0.0,E,,*1F
$HCHDG,97.9,0.0,E,,*1E
$GPRMC,160410.6,A,4921.42038,N,12316.30782,W,000.07,000.0,210913,017.3,E,A*23
$PGRME,3.0,M,3.0,M,4.3,M*29
$YXXDR,A,5.6,D,PTCH,A,4.4,D,ROLL*5E
$PTAK,FFD1,4.4*55
$HCHDG,98.0,0.0,E,,*18
$HCHDG,98.0,0.0,E,,*18
$GPRMC,160410.8,A,4921.42034,N,12316.30768,W,000.07,000.0,210913,017.3,E,A*25
$GPRMB,A,-34.86,L,,Shil,4741.0830,N,12224.5670,W,106.1,161,-0.07,V*04
$PGRME,3.0,M,3.0,M,4.3,M*29
$HCHDG,98.0,0.0,E,,*18
$HCHDG,98.0,0.0,E,,*18
$GPRMC,160411.0,A,4921.42039,N,12316.30773,W,000.05,000.0,210913,017.3,E,A*29
$PGRME,3.0,M,3.0,M,4.3,M*29
$HCHDG,98.1,0.0,E,,*19
$YXXDR,A,5.4,D,PTCH,A,4.7,D,ROLL*5F
$GPRMC,160411.2,A,4921.42044,N,12316.30782,W,000.02,000.0,210913,017.3,E,A*28
$PGRME,3.0,M,3.0,M,4.3,M*29
$HCHDG,98.2,0.0,E,,*1A
$HCHDG,98.3,0.0,E,,*1B
$HCHDG,98.2,0.0,E,,*1A
$GPRMC,160411.4,A,4921.42047,N,12316.30786,W,000.04,000.0,210913,017.3,E,A*2F
$PGRME,3.0,M,3.0,M,4.3,M*29
$HCHDG,98.2,0.0,E,,*1A
$HCHDG,98.3,0.0,E,,*1B
$GPRMC,160411.6,A,4921.42047,N,12316.30784,W,000.10,000.0,210913,017.3,E,A*2A
$PGRME,3.0,M,3.0,M,4.3,M*29
$YXXDR,A,5.4,D,PTCH,A,4.7,D,ROLL*5F
$PTAK,FFD1,4.7*56
$HCHDG,98.4,0.0,E,,*1C
$HCHDG,98.4,0.0,E,,*1C
$GPRMC,160411.8,A,4921.42049,N,12316.30779,W,000.08,000.0,210913,017.3,E,A*21
$GPRMB,A,-34.86,L,,Shil,4741.0830,N,12224.5670,W,106.1,161,-0.08,V*0B
$PGRME,3.0,M,3.0,M,4.3,M*29
$HCHDG,98.3,0.0,E,,*1B
$HCHDG,98.3,0.0,E,,*1B
$GPRMC,160412.0,A,4921.42049,N,12316.30779,W,000.04,000.0,210913,017.3,E,A*26
$PGRME,3.0,M,3.0,M,4.3,M*29
$HCHDG,98.3,0.0,E,,*1B
$YXXDR,A,5.6,D,PTCH,A,5.6,D,ROLL*5D
$GPRMC,160412.2,A,4921.42047,N,12316.30775,W,000.02,000.0,210913,017.3,E,A*20
$PGRME,3.0,M,3.0,M,4.3,M*29
$HCHDG,98.3,0.0,E,,*1B
$HCHDG,98.3,0.0,E,,*1B
$HCHDG,98.3,0.0,E,,*1B
$GPRMC,160412.4,A,4921.42043,N,12316.30768,W,000.08,000.0,210913,017.3,E,A*24
$PGRME,3.0,M,3.0,M,4.3,M*29
$HCHDG,98.3,0.0,E,,*1B
$HCHDG,98.4,0.0,E,,*1C
$GPRMC,160412.6,A,4921.42042,N,12316.30768,W,000.10,000.0,210913,017.3,E,A*2E
$PGRME,3.0,M,3.0,M,4.3,M*29
$YXXDR,A,5.8,D,PTCH,A,4.8,D,ROLL*5C
$HCHDG,98.4,0.0,E,,*1C
$HCHDG,98.4,0.0,E,,*1C
$GPRMC,160412.8,A,4921.42045,N,12316.30772,W,000.00,000.0,210913,017.3,E,A*2D
$PGRME,3.0,M,3.0,M,4.3,M*29
$HCHDG,98.4,0.0,E,,*1C
$HCHDG,98.4,0.0,E,,*1C
$GPRMC,160413.0,A,4921.42046,N,12316.30771,W,000.04,000.0,210913,017.3,E,A*20
$GPRMB,A,-34.86,L,,Shil,4741.0830,N,12224.5670,W,106.1,161,-0.04,V*07
$PGRME,3.0,M,3.0,M,4.3,M*29
$HCHDG,98.4,0.0,E,,*1C
$PTAK,FFP1,HEEL,@*07
$YXXDR,A,5.6,D,PTCH,A,4.3,D,ROLL*59
$PTAK,FFD1,4.3*52
$GPRMC,160413.2,A,4921.42050,N,12316.30766,W,000.12,000.0,210913,017.3,E,A*24
$PGRME,3.0,M,3.0,M,4.3,M*29
$HCHDG,98.5,0.0,E,,*1D
$HCHDG,98.4,0.0,E,,*1C
$HCHDG,98.4,0.0,E,,*1C
$GPRMC,160413.4,A,4921.42049,N,12316.30775,W,000.11,000.0,210913,017.3,E,A*2B
$PGRME,3.0,M,3.0,M,4.3,M*29
$HCHDG,98.4,0.0,E,,*1C
$HCHDG,98.4,0.0,E,,*1C
$GPRMC,160413.6,A,4921.42046,N,12316.30781,W,000.09,000.0,210913,017.3,E,A*24
$PGRME,3.0,M,3.0,M,4.3,M*29
$YXXDR,A,5.5,D,PTCH,A,3.8,D,ROLL*56
$HCHDG,98.4,0.0,E,,*1C
$HCHDG,98.5,0.0,E,,*1D
$GPRMC,160413.8,A,4921.42037,N,12316.30785,W,000.05,000.0,210913,017.3,E,A*24
$PGRME,3.0,M,3.0,M,4.3,M*29
$HCHDG,98.6,0.0,E,,*1E
$HCHDG,98.6,0.0,E,,*1E
$GPRMC,160414.0,A,4921.42027,N,12316.30795,W,000.05,000.0,210913,017.3,E,A*2B
$PGRME,3.0,M,3.0,M,4.3,M*29
$HCHDG,98.6,0.0,E,,*1E
$YXXDR,A,5.4,D,PTCH,A,3.3,D,ROLL*5C
$GPRMC,160414.2,A,4921.42016,N,12316.30803,W,000.04,000.0,210913,017.3,E,A*2A
$GPRMB,A,-34.86,L,,Shil,4741.0830,N,12224.5670,W,106.1,161,-0.04,V*07
$PGRME,3.0,M,3.0,M,4.3,M*29
$HCHDG,98.7,0.0,E,,*1F
$HCHDG,98.7,0.0,E,,*1F
$HCHDG,98.8,0.0,E,,*10
$GPRMC,160414.4,A,4921.42004,N,12316.30814,W,000.07,000.0,210913,017.3,E,A*2A
$PGRME,3.0,M,3.0,M,4.3,M*29
$HCHDG,98.9,0.0,E,,*11
$HCHDG,98.9,0.0,E,,*11
$GPRMC,160414.6,A,4921.41995,N,12316.30812,W,000.08,000.0,210913,017.3,E,A*23
$PGRME,3.0,M,3.0,M,4.3,M*29
$YXXDR,A,5.5,D,PTCH,A,3.4,D,ROLL*5A
$PTAK,FFD1,3.4*52
$HCHDG,98.9,0.0,E,,*11
$HCHDG,98.9,0.0,E,,*11
$GPRMC,160414.8,A,4921.41982,N,12316.30807,W,000.06,000.0,210913,017.3,E,A*21
$PGRME,3.0,M,3.0,M,4.3,M*29
$HCHDG,98.9,0.0,E,,*11
$HCHDG,99.0,0.0,E,,*19
$GPRMC,160415.0,A,4921.41975,N,12316.30806,W,000.06,000.0,210913,017.3,E,A*21
$PGRME,3.0,M,3.0,M,4.3,M*29
$HCHDG,99.1,0.0,E,,*18
$YXXDR,A,5.4,D,PTCH,A,3.8,D,ROLL*57
$GPRMC,160415.2,A,4921.41972,N,12316.30808,W,000.10,000.0,210913,017.3,E,A*2D
$GPRMB,A,-34.86,L,,Shil,4741.0830,N,12224.5670,W,106.1,161,-0.09,V*0A
$PGRME,3.0,M,3.0,M,4.3,M*29
$HCHDG,99.1,0.0,E,,*18
$HCHDG,99.1,0.0,E,,*18
$HCHDG,99.2,0.0,E,,*1B
$GPRMC,160415.4,A,4921.41969,N,12316.30804,W,000.05,000.0,210913,017.3,E,A*29
$PGRME,3.0,M,3.0,M,4.3,M*29
$HCHDG,99.3,0.0,E,,*1A
$HCHDG,99.3,0.0,E,,*1A
$GPRMC,160415.6,A,4921.41970,N,12316.30799,W,000.11,000.0,210913,017.3,E,A*2D
$PGRME,3.0,M,3.0,M,4.3,M*29
$YXXDR,A,5.4,D,PTCH,A,4.3,D,ROLL*5B
$HCHDG,99.3,0.0,E,,*1A
$HCHDG,99.3,0.0,E,,*1A
$GPRMC,160415.8,A,4921.41971,N,12316.30797,W,000.13,000.0,210913,017.3,E,A*2E
$PGRME,3.0,M,3.0,M,4.3,M*29
$HCHDG,99.4,0.0,E,,*1D
$HCHDG,99.4,0.0,E,,*1D
$GPRMC,160416.0,A,4921.41974,N,12316.30797,W,000.25,000.0,210913,017.3,E,A*25
$PGRME,3.0,M,3.0,M,4.3,M*29
$HCHDG,99.6,0.0,E,,*1F
$YXXDR,A,5.5,D,PTCH,A,4.7,D,ROLL*5E
$PTAK,FFD1,4.7*56
$GPRMC,160416.2,A,4921.41978,N,12316.30804,W,000.16,000.0,210913,017.3,E,A*2E
$PGRME,3.0,M,3.0,M,4.3,M*29
$HCHDG,99.7,0.0,E,,*1E
$HCHDG,99.7,0.0,E,,*1E
$HCHDG,99.8,0.0,E,,*11
$GPRMC,160416.4,A,4921.41977,N,12316.30802,W,000.06,000.0,210913,017.3,E,A*20
$GPRMB,A,-34.86,L,,Shil,4741.0830,N,12224.5670,W,106.1,161,-0.06,V*05
$PGRME,3.0,M,3.0,M,4.3,M*29
$HCHDG,99.7,0.0,E,,*1E
$HCHDG,99.8,0.0,E,,*11
$GPRMC,160416.6,A,4921.41976,N,12316.30800,W,000.08,000.0,210913,017.3,E,A*2F
$PGRME,3.0,M,3.0,M,4.3,M*29
$YXXDR,A,5.4,D,PTCH,A,4.3,D,ROLL*5B
$HCHDG,99.9,0.0,E,,*10
$HCHDG,99.9,0.0,E,,*10
$GPRMC,160416.8,A,4921.41977,N,12316.30799,W,000.05,000.0,210913,017.3,E,A*22
$PGRME,3.0,M,3.0,M,4.3,M*29
$HCHDG,100.0,0.0,E,,*28
$HCHDG,100.0,0.0,E,,*28
$GPRMC,160417.0,A,4921.41977,N,12316.30806,W,000.06,000.0,210913,017.3,E,A*21
$PGRME,3.0,M,3.0,M,4.3,M*29
$HCHDG,100.0,0.0,E,,*28
$YXXDR,A,5.7,D,PTCH,A,4.4,D,ROLL*5F
$PTAK,FFD1,4.4*55
$GPRMC,160417.2,A,4921.41973,N,12316.30805,W,000.10,000.0,210913,017.3,E,A*23
$PGRME,3.0,M,3.0,M,4.3,M*29
$HCHDG,100.1,0.0,E,,*29
$PTAK,FFP1,HEEL,@*07
$HCHDG,100.1,0.0,E,,*29
$HCHDG,100.2,0.0,E,,*2A
$GPRMC,160417.4,A,4921.41967,N,12316.30811,W,000.10,000.0,210913,017.3,E,A*25
$GPRMB,A,-34.86,L,,Shil,4741.0830,N,12224.5670,W,106.1,161,-0.09,V*0A
$PGRME,3.0,M,3.0,M,4.3,M*29
$HCHDG,100.2,0.0,E,,*2A
$HCHDG,100.3,0.0,E,,*2B
$GPRMC,160417.6,A,4921.41959,N,12316.30822,W,000.12,000.0,210913,017.3,E,A*28
$PGRME,3.0,M,3.0,M,4.3,M*29
$YXXDR,A,5.6,D,PTCH,A,4.0,D,ROLL*5A
$HCHDG,100.3,0.0,E,,*2B
$HCHDG,100.4,0.0,E,,*2C
$GPRMC,160417.8,A,4921.41949,N,12316.30831,W,000.06,000.0,210913,017.3,E,A*20
$PGRME,3.0,M,3.0,M,4.3,M*29
$HCHDG,100.4,0.0,E,,*2C
$HCHDG,100.5,0.0,E,,*2D
$GPRMC,160418.0,A,4921.41941,N,12316.30822,W,000.07,000.0,210913,017.3,E,A*2C
$PGRME,3.0,M,3.0,M,4.3,M*29
$HCHDG,100.6,0.0,E,,*2E
$YXXDR,A,5.5,D,PTCH,A,4.0,D,ROLL*59
$GPRMC,160418.2,A,4921.41939,N,12316.30812,W,000.05,000.0,210913,017.3,E,A*20
$PGRME,3.0,M,3.0,M,4.3,M*29
$HCHDG,100.8,0.0,E,,*20
$HCHDG,100.9,0.0,E,,*21
$HCHDG,100.8,0.0,E,,*20
$GPRMC,160418.4,A,4921.41930,N,12316.30803,W,000.16,000.0,210913,017.3,E,A*2D
$GPRMB,A,-34.86,L,,Shil,4741.0830,N,12224.5670,W,106.1,161,-0.15,V*07
$PGRME,3.0,M,3.0,M,4.3,M*29
$HCHDG,101.0,0.0,E,,*29
$HCHDG,101.1,0.0,E,,*28
$GPRMC,160418.6,A,4921.41929,N,12316.30799,W,000.12,000.0,210913,017.3,E,A*2F
$PGRME,3.0,M,3.0,M,4.3,M*29
$YXXDR,A,5.6,D,PTCH,A,4.3,D,ROLL*59
$PTAK,FFD1,4.3*52
$HCHDG,101.2,0.0,E,,*2B
$HCHDG,101.2,0.0,E,,*2B
$GPRMC,160418.8,A,4921.41929,N,12316.30792,W,000.13,000.0,210913,017.3,E,A*2B
$PGRME,3.0,M,3.0,M,4.3,M*29
$HCHDG,101.3,0.0,E,,*2A
$HCHDG,101.3,0.0,E,,*2A
$GPRMC,160419.0,A,4921.41925,N,12316.30791,W,000.02,000.0,210913,017.3,E,A*2D
$PGRME,3.0,M,3.0,M,4.3,M*29
$HCHDG,101.4,0.0,E,,*2D
$YXXDR,A,5.6,D,PTCH,A,5.0,D,ROLL*5B
$GPRMC,160419.2,A,4921.41928,N,12316.30793,W,000.03,000.0,210913,017.3,E,A*21
$PGRME,3.0,M,3.0,M,4.3,M*29
$HCHDG,101.4,0.0,E,,*2D
$HCHDG,101.4,0.0,E,,*2D
$HCHDG,101.5,0.0,E,,*2C
$GPRMC,160419.4,A,4921.41934,N,12316.30801,W,000.06,000.0,210913,017.3,E,A*2B
$PGRME,3.0,M,3.0,M,4.3,M*29
$HCHDG,101.4,0.0,E,,*2D
$HCHDG,101.5,0.0,E,,*2C
$GPRMC,160419.6,A,4921.41937,N,12316.30800,W,000.11,000.0,210913,017.3,E,A*2D
$PGRME,3.0,M,3.0,M,4.3,M*29
$YXXDR,A,5.6,D,PTCH,A,5.7,D,ROLL*5C
$HCHDG,101.6,0.0,E,,*2F
$HCHDG,101.6,0.0,E,,*2F
$GPRMC,160419.8,A,4921.41941,N,12316.30801,W,000.07,000.0,210913,017.3,E,A*24
$GPRMB,A,-34.86,L,,Shil,4741.0830,N,12224.5670,W,106.1,161,-0.07,V*04
$PGRME,3.0,M,3.0,M,4.3,M*29
$HCHDG,102.0,0.0,E,,*2A
$HCHDG,102.0,0.0,E,,*2A
$GPRMC,160420.0,A,4921.41950,N,12316.30797,W,000.09,000.0,210913,017.3,E,A*28
$PGRME,3.0,M,3.0,M,4.3,M*29
$HCHDG,102.0,0.0,E,,*2A
$YXXDR,A,5.5,D,PTCH,A,6.6,D,ROLL*5D
$PTAK,FFD1,6.6*55
$GPRMC,160420.2,A,4921.41954,N,12316.30787,W,000.05,000.0,210913,017.3,E,A*23
$PGRME,3.0,M,3.0,M,4.3,M*29
$HCHDG,102.0,0.0,E,,*2A
$HCHDG,102.1,0.0,E,,*2B
$HCHDG,102.1,0.0,E,,*2B
$GPRMC,160420.4,A,4921.41962,N,12316.30782,W,000.05,000.0,210913,017.3,E,A*25
$PGRME,3.0,M,3.0,M,4.3,M*29
$HCHDG,101.9,0.0,E,,*20
$HCHDG,101.9,0.0,E,,*20
$GPRMC,160420.6,A,4921.41964,N,12316.30779,W,000.04,000.0,210913,017.3,E,A*24
$PGRME,3.0,M,3.0,M,4.3,M*29
$YXXDR,A,5.6,D,PTCH,A,6.1,D,ROLL*59
$HCHDG,102.0,0.0,E,,*2A
$HCHDG,102.2,0.0,E,,*28
$GPRMC,160420.8,A,4921.41972,N,12316.30784,W,000.06,000.0,210913,017.3,E,A*2D
$GPRMB,A,-34.86,L,,Shil,4741.0830,N,12224.5670,W,106.1,161,-0.06,V*05
$PGRME,3.0,M,3.0,M,4.3,M*29
$HCHDG,102.2,0.0,E,,*28
$HCHDG,102.3,0.0,E,,*29
$GPRMC,160421.0,A,4921.41981,N,12316.30794,W,000.07,000.0,210913,017.3,E,A*28
$PGRME,3.0,M,3.0,M,4.3,M*29
$HCHDG,102.3,0.0,E,,*29
$YXXDR,A,5.5,D,PTCH,A,5.6,D,ROLL*5E
$PTAK,FFD1,5.6*56
$GPRMC,160421.2,A,4921.41983,N,12316.30797,W,000.09,000.0,210913,017.3,E,A*25
$PGRME,3.0,M,3.0,M,4.3,M*29
$HCHDG,102.3,0.0,E,,*29
$HCHDG,102.3,0.0,E,,*29
$HCHDG,102.4,0.0,E,,*2E
$PTAK,FFP1,HEEL,@*07
$GPRMC,160421.4,A,4921.41985,N,12316.30794,W,000.13,000.0,210913,017.3,E,A*2D
$PGRME,3.0,M,3.0,M,4.3,M*29
$HCHDG,102.4,0.0,E,,*2E
$HCHDG,102.1,0.0,E,,*2B
$GPRMC,160421.6,A,4921.41986,N,12316.30785,W,000.11,000.0,210913,017.3,E,A*2E
$PGRME,3.0,M,3.0,M,4.3,M*29
$YXXDR,A,5.7,D,PTCH,A,4.8,D,ROLL*53
$HCHDG,102.1,0.0,E,,*2B
$HCHDG,102.1,0.0,E,,*2B
$GPRMC,160421.8,A,4921.41990,N,12316.30780,W,000.11,000.0,210913,017.3,E,A*22
$PGRME,3.0,M,3.0,M,4.3,M*29
$HCHDG,102.2,0.0,E,,*28
$HCHDG,102.2,0.0,E,,*28
$GPRMC,160422.0,A,4921.41991,N,12316.30774,W,000.09,000.0,210913,017.3,E,A*2A
$GPRMB,A,-34.86,L,,Shil,4741.0830,N,12224.5670,W,106.1,161,-0.09,V*0A
$PGRME,3.0,M,3.0,M,4.3,M*29
$HCHDG,102.2,0.0,E,,*28
$YXXDR,A,5.6,D,PTCH,A,4.3,D,ROLL*59
$PTAK,FFD1,4.3*52
$GPRMC,160422.2,A,4921.41989,N,12316.30763,W,000.09,000.0,210913,017.3,E,A*27
$PGRME,3.0,M,3.0,M,4.3,M*29
$HCHDG,102.2,0.0,E,,*28
$HCHDG,102.3,0.0,E,,*29
$HCHDG,102.3,0.0,E,,*29
$GPRMC,160422.4,A,4921.41999,N,12316.30760,W,000.07,000.0,210913,017.3,E,A*2D
$PGRME,3.0,M,3.0,M,4.3,M*29
$HCHDG,102.4,0.0,E,,*2E
$HCHDG,102.4,0.0,E,,*2E
$GPRMC,160422.6,A,4921.42004,N,12316.30764,W,000.05,000.0,210913,017.3,E,A*27
$PGRME,3.0,M,3.0,M,4.3,M*29
$YXXDR,A,5.6,D,PTCH,A,4.5,D,ROLL*5F
$HCHDG,102.4,0.0,E,,*2E
$HCHDG,102.4,0.0,E,,*2E
$GPRMC,160422.8,A,4921.42013,N,12316.30774,W,000.05,000.0,210913,017.3,E,A*2E
$PGRME,3.0,M,3.0,M,4.3,M*29
$HCHDG,102.5,0.0,E,,*2F
$HCHDG,102.8,0.0,E,,*22
$GPRMC,160423.0,A,4921.42016,N,12316.30776,W,000.04,000.0,210913,017.3,E,A*21
$PGRME,3.0,M,3.0,M,4.3,M*29
$HCHDG,102.8,0.0,E,,*22
$YXXDR,A,5.2,D,PTCH,A,4.9,D,ROLL*57
$GPRMC,160423.2,A,4921.42027,N,12316.30772,W,000.04,000.0,210913,017.3,E,A*25
$GPRMB,A,-34.86,L,,Shil,4741.0830,N,12224.5670,W,106.1,161,-0.04,V*07
$PGRME,3.0,M,3.0,M,4.3,M*29
$HCHDG,102.9,0.0,E,,*23
$HCHDG,102.9,0.0,E,,*23
$HCHDG,102.8,0.0,E,,*22
$GPRMC,160423.4,A,4921.42033,N,12316.30773,W,000.05,000.0,210913,017.3,E,A*26
$PGRME,3.0,M,3.0,M,4.3,M*29
$HCHDG,102.9,0.0,E,,*23
$HCHDG,102.9,0.0,E,,*23
$GPRMC,160423.6,A,4921.42038,N,12316.30784,W,000.06,000.0,210913,017.3,E,A*24
$PGRME,3.0,M,3.0,M,4.3,M*29
$YXXDR,A,5.6,D,PTCH,A,5.5,D,ROLL*5E
$PTAK,FFD1,5.5*55
$HCHDG,102.9,0.0,E,,*23
$HCHDG,102.7,0.0,E,,*2D
$GPRMC,160423.8,A,4921.42036,N,12316.30791,W,000.10,000.0,210913,017.3,E,A*27
$PGRME,3.0,M,3.0,M,4.3,M*29
$HCHDG,102.7,0.0,E,,*2D
$HCHDG,102.7,0.0,E,,*2D
$GPRMC,160424.0,A,4921.42037,N,12316.30791,W,000.07,000.0,210913,017.3,E,A*2F
$PGRME,3.0,M,3.0,M,4.3,M*29
$HCHDG,102.7,0.0,E,,*2D
$YXXDR,A,5.4,D,PTCH,A,5.4,D,ROLL*5D
$GPRMC,160424.2,A,4921.42037,N,12316.30790,W,000.11,000.0,210913,017.3,E,A*2B
$GPRMB,A,-34.86,L,,Shil,4741.0830,N,12224.5670,W,106.1,161,-0.10,V*02
$PGRME,3.0,M,3.0,M,4.3,M*29
$HCHDG,102.8,0.0,E,,*22
$HCHDG,102.9,0.0,E,,*23
$HCHDG,103.0,0.0,E,,*2B
$GPRMC,160424.4,A,4921.42038,N,12316.30790,W,000.15,000.0,210913,017.3,E,A*26
$PGRME,3.0,M,3.0,M,4.3,M*29
$HCHDG,103.0,0.0,E,,*2B
$HCHDG,103.1,0.0,E,,*2A
$GPRMC,160424.6,A,4921.42038,N,12316.30789,W,000.04,000.0,210913,017.3,E,A*2C
$PGRME,3.0,M,3.0,M,4.3,M*29
$YXXDR,A,5.6,D,PTCH,A,5.1,D,ROLL*5A
$HCHDG,103.2,0.0,E,,*29
$HCHDG,103.2,0.0,E,,*29
$GPRMC,160424.8,A,4921.42039,N,12316.30789,W,000.11,000.0,210913,017.3,E,A*27
$PGRME,3.0,M,3.0,M,4.3,M*29
$HCHDG,103.2,0.0,E,,*29
$HCHDG,103.2,0.0,E,,*29
$GPRMC,160425.0,A,4921.42039,N,12316.30789,W,000.04,000.0,210913,017.3,E,A*2A
$PGRME,3.0,M,3.0,M,4.3,M*29
$HCHDG,103.6,0.0,E,,*2D
$YXXDR,A,5.4,D,PTCH,A,4.9,D,ROLL*51
$PTAK,FFD1,4.9*58
$GPRMC,160425.2,A,4921.42040,N,12316.30788,W,000.02,000.0,210913,017.3,E,A*21
$GPRMB,A,-34.86,L,,Shil,4741.0830,N,12224.5670,W,106.1,161,-0.02,V*01
$PGRME,3.0,M,3.0,M,4.3,M*29
$HCHDG,103.6,0.0,E,,*2D
$PTAK,FFP1,HEEL,@*07
$HCHDG,103.7,0.0,E,,*2C
$HCHDG,103.7,0.0,E,,*2C
$GPRMC,160425.4,A,4921.42040,N,12316.30788,W,000.04,000.0,210913,017.3,E,A*21
$PGRME,3.0,M,3.0,M,4.3,M*29
$HCHDG,103.5,0.0,E,,*2E
$HCHDG,103.6,0.0,E,,*2D
$GPRMC,160425.6,A,4921.42040,N,12316.30788,W,000.02,000.0,210913,017.3,E,A*25
$PGRME,3.0,M,3.0,M,4.3,M*29
$YXXDR,A,5.4,D,PTCH,A,4.9,D,ROLL*51
$HCHDG,103.6,0.0,E,,*2D
$HCHDG,103.6,0.0,E,,*2D
$GPRMC,160425.8,A,4921.42040,N,12316.30788,W,000.05,000.0,210913,017.3,E,A*2C
$PGRME,3.0,M,3.0,M,4.3,M*29
$HCHDG,103.6,0.0,E,,*2D
$HCHDG,103.7,0.0,E,,*2C
$GPRMC,160426.0,A,4921.42040,N,12316.30787,W,000.07,000.0,210913,017.3,E,A*2A
$GPRMB,A,-34.86,L,,Shil,4741.0830,N,12224.5670,W,106.1,161,-0.07,V*04
$PGRME,3.0,M,3.0,M,4.3,M*29
$HCHDG,103.8,0.0,E,,*23
$YXXDR,A,5.8,D,PTCH,A,4.5,D,ROLL*51
$PTAK,FFD1,4.5*54
$GPRMC,160426.2,A,4921.42040,N,12316.30787,W,000.05,000.0,210913,017.3,E,A*2A
$PGRME,3.0,M,3.0,M,4.3,M*29
$HCHDG,103.8,0.0,E,,*23
$HCHDG,104.0,0.0,E,,*2C
$HCHDG,104.1,0.0,E,,*2D
$GPRMC,160426.4,A,4921.42041,N,12316.30786,W,000.05,000.0,210913,017.3,E,A*2C
$PGRME,3.0,M,3.0,M,4.3,M*29
$HCHDG,104.2,0.0,E,,*2E
$HCHDG,104.1,0.0,E,,*2D
$GPRMC,160426.6,A,4921.42041,N,12316.30785,W,000.05,000.0,210913,017.3,E,A*2D
$PGRME,3.0,M,3.0,M,4.3,M*29
$YXXDR,A,5.6,D,PTCH,A,4.1,D,ROLL*5B
$HCHDG,104.1,0.0,E,,*2D
$HCHDG,104.2,0.0,E,,*2E
$GPRMC,160426.8,A,4921.42041,N,12316.30785,W,000.02,000.0,210913,017.3,E,A*24
$PGRME,3.0,M,3.0,M,4.3,M*29
$HCHDG,104.2,0.0,E,,*2E
$HCHDG,103.9,0.0,E,,*22
$GPRMC,160427.0,A,4921.42041,N,12316.30785,W,000.08,000.0,210913,017.3,E,A*27
$PGRME,3.0,M,3.0,M,4.3,M*29
$HCHDG,103.9,0.0,E,,*22
$YXXDR,A,5.6,D,PTCH,A,3.8,D,ROLL*55
$GPRMC,160427.2,A,4921.42042,N,12316.30785,W,000.04,000.0,210913,017.3,E,A*2A
$PGRME,3.0,M,3.0,M,4.3,M*29
$HCHDG,104.3,0.0,E,,*2F
$HCHDG,104.3,0.0,E,,*2F
$HCHDG,104.3,0.0,E,,*2F
$GPRMC,160427.4,A,4921.42042,N,12316.30785,W,000.09,000.0,210913,017.3,E,A*21
$GPRMB,A,-34.86,L,,Shil,4741.0830,N,12224.5670,W,106.1,161,-0.09,V*0A
$PGRME,3.0,M,3.0,M,4.3,M*29
$HCHDG,104.4,0.0,E,,*28
$HCHDG,104.5,0.0,E,,*29
$GPRMC,160427.6,A,4921.42042,N,12316.30785,W,000.06,000.0,210913,017.3,E,A*2C
$PGRME,3.0,M,3.0,M,4.3,M*29
$YXXDR,A,5.5,D,PTCH,A,3.4,D,ROLL*5A
$PTAK,FFD1,3.4*52
$HCHDG,104.4,0.0,E,,*28
$HCHDG,104.5,0.0,E,,*29
$GPRMC,160427.8,A,4921.42042,N,12316.30785,W,000.09,000.0,210913,017.3,E,A*2D
$PGRME,3.0,M,3.0,M,4.3,M*29
$HCHDG,104.3,0.0,E,,*2F
$HCHDG,104.3,0.0,E,,*2F
$GPRMC,160428.0,A,4921.42043,N,12316.30785,W,000.07,000.0,210913,017.3,E,A*25
$PGRME,3.0,M,3.0,M,4.3,M*29
$HCHDG,104.4,0.0,E,,*28
$YXXDR,A,5.6,D,PTCH,A,3.0,D,ROLL*5D
$GPRMC,160428.2,A,4921.42043,N,12316.30785,W,000.03,000.0,210913,017.3,E,A*23
$PGRME,3.0,M,3.0,M,4.3,M*29
$HCHDG,104.4,0.0,E,,*28
$HCHDG,104.4,0.0,E,,*28
$HCHDG,104.4,0.0,E,,*28
$GPRMC,160428.4,A,4921.42043,N,12316.30785,W,000.06,000.0,210913,017.3,E,A*20
$GPRMB,A,-34.86,L,,Shil,4741.0830,N,12224.5670,W,106.1,161,-0.06,V*05
$PGRME,3.0,M,3.0,M,4.3,M*29
$HCHDG,104.5,0.0,E,,*29
$HCHDG,104.5,0.0,E,,*29
$GPRMC,160428.6,A,4921.42043,N,12316.30785,W,000.05,000.0,210913,017.3,E,A*21
$PGRME,3.0,M,3.0,M,4.3,M*29
$YXXDR,A,5.5,D,PTCH,A,3.1,D,ROLL*5F
$PTAK,FFD1,3.1*57
$HCHDG,104.8,0.0,E,,*24
$HCHDG,104.8,0.0,E,,*24
$GPRMC,160428.8,A,4921.42044,N,12316.30786,W,000.07,000.0,210913,017.3,E,A*29
$PGRME,3.0,M,3.0,M,4.3,M*29
$HCHDG,104.9,0.0,E,,*25
$HCHDG,104.9,0.0,E,,*25
$GPRMC,160429.0,A,4921.42044,N,12316.30786,W,000.02,000.0,210913,017.3,E,A*25
$PGRME,3.0,M,3.0,M,4.3,M*29
$HCHDG,105.0,0.0,E,,*2D
$YXXDR,A,5.5,D,PTCH,A,3.4,D,ROLL*5A
$GPRMC,160429.2,A,4921.42044,N,12316.30787,W,000.03,000.0,210913,017.3,E,A*27
$PGRME,3.0,M,3.0,M,4.3,M*29
$HCHDG,104.8,0.0,E,,*24
$HCHDG,104.8,0.0,E,,*24
$HCHDG,104.8,0.0,E,,*24
$GPRMC,160429.4,A,4921.42044,N,12316.30787,W,000.09,000.0,210913,017.3,E,A*2B
$PTAK,FFP1,HEEL,@*07
$PGRME,3.0,M,3.0,M,4.3,M*29
$HCHDG,104.9,0.0,E,,*25
$HCHDG,105.0,0.0,E,,*2D
$GPRMC,160429.6,A,4921.42045,N,12316.30787,W,000.04,000.0,210913,017.3,E,A*25
$GPRMB,A,-34.86,L,,Shil,4741.0830,N,12224.5670,W,106.1,161,-0.04,V*07
$PGRME,3.0,M,3.0,M,4.3,M*29
$YXXDR,A,5.4,D,PTCH,A,3.9,D,ROLL*56
$PTAK,FFD1,3.9*5F
$HCHDG,105.1,0.0,E,,*2C
$HCHDG,105.0,0.0,E,,*2D
$GPRMC,160429.8,A,4921.42044,N,12316.30787,W,000.04,000.0,210913,017.3,E,A*2A
$PGRME,3.0,M,3.0,M,4.3,M*29
$HCHDG,105.0,0.0,E,,*2D
$HCHDG,105.1,0.0,E,,*2C
$GPRMC,160430.0,A,4921.42045,N,12316.30787,W,000.01,000.0,210913,017.3,E,A*2E
$PGRME,3.0,M,3.0,M,4.3,M*29
$HCHDG,105.1,0.0,E,,*2C
$YXXDR,A,5.5,D,PTCH,A,4.0,D,ROLL*59
$GPRMC,160430.2,A,4921.42045,N,12316.30787,W,000.06,000.0,210913,017.3,E,A*2B
$PGRME,3.0,M,3.0,M,4.3,M*29
$HCHDG,105.1,0.0,E,,*2C
$HCHDG,105.2,0.0,E,,*2F
$HCHDG,105.2,0.0,E,,*2F
$GPRMC,160430.4,A,4921.42045,N,12316.30786,W,000.04,000.0,210913,017.3,E,A*2E
$PGRME,3.0,M,3.0,M,4.3,M*29
$HCHDG,105.2,0.0,E,,*2F
$HCHDG,105.2,0.0,E,,*2F
$GPRMC,160430.6,A,4921.42045,N,12316.30786,W,000.10,000.0,210913,017.3,E,A*29
$PGRME,3.0,M,3.0,M,4.3,M*29
$YXXDR,A,5.8,D,PTCH,A,4.3,D,ROLL*57
$HCHDG,105.1,0.0,E,,*2C
$HCHDG,105.1,0.0,E,,*2C
$GPRMC,160430.8,A,4921.42046,N,12316.30786,W,000.04,000.0,210913,017.3,E,A*21
$GPRMB,A,-34.86,L,,Shil,4741.0830,N,12224.5670,W,106.1,161,-0.04,V*07
$PGRME,3.0,M,3.0,M,4.3,M*29
$HCHDG,105.2,0.0,E,,*2F
$HCHDG,105.2,0.0,E,,*2F
$GPRMC,160431.0,A,4921.42046,N,12316.30785,W,000.02,000.0,210913,017.3,E,A*2D
$PGRME,3.0,M,3.0,M,4.3,M*29
$HCHDG,105.2,0.0,E,,*2F
$YXXDR,A,5.6,D,PTCH,A,3.8,D,ROLL*55
$PTAK,FFD1,3.8*5E
$GPRMC,160431.2,A,4921.42046,N,12316.30785,W,000.02,000.0,210913,017.3,E,A*2F
$PGRME,3.0,M,3.0,M,4.3,M*29
$HCHDG,105.3,0.0,E,,*2E
$HCHDG,105.3,0.0,E,,*2E
$HCHDG,105.3,0.0,E,,*2E
$GPRMC,160431.4,A,4921.42046,N,12316.30785,W,000.08,000.0,210913,017.3,E,A*23
$PGRME,3.0,M,3.0,M,4.3,M*29
$HCHDG,105.3,0.0,E,,*2E
$GPRMC,160431.6,A,4921.42046,N,12316.30786,W,000.13,000.0,210913,017.3,E,A*28
$HCHDG,105.3,0.0,E,,*2E
$PGRME,3.0,M,3.0,M,4.3,M*29
$YXXDR,A,5.5,D,PTCH,A,3.8,D,ROLL*56
$HCHDG,105.3,0.0,E,,*2E
$GPRMC,160431.8,A,4921.42045,N,12316.30786,W,000.15,000.0,210913,017.3,E,A*23
$HCHDG,105.5,0.0,E,,*28
$PGRME,3.0,M,3.0,M,4.3,M*29
$HCHDG,105.4,0.0,E,,*29
$HCHDG,105.4,0.0,E,,*29
$GPRMC,160432.0,A,4921.42045,N,12316.30787,W,000.19,000.0,210913,017.3,E,A*25
$GPRMB,A,-34.86,L,,Shil,4741.0830,N,12224.5670,W,106.1,161,-0.18,V*0A
$PGRME,3.0,M,3.0,M,4.3,M*29
$HCHDG,105.3,0.0,E,,*2E
$YXXDR,A,5.6,D,PTCH,A,3.9,D,ROLL*54
$PTAK,FFD1,3.9*5F
$GPRMC,160432.2,A,4921.42044,N,12316.30788,W,000.16,000.0,210913,017.3,E,A*26
$PGRME,3.0,M,3.0,M,4.3,M*29
$HCHDG,105.3,0.0,E,,*2E
$HCHDG,105.2,0.0,E,,*2F
$HCHDG,105.2,0.0,E,,*2F
$GPRMC,160432.4,A,4921.42043,N,12316.30788,W,000.11,000.0,210913,017.3,E,A*20
$PGRME,3.0,M,3.0,M,4.3,M*29
$HCHDG,105.1,0.0,E,,*2C
$HCHDG,105.1,0.0,E,,*2C
$GPRMC,160432.6,A,4921.42043,N,12316.30789,W,000.14,000.0,210913,017.3,E,A*26
$PGRME,3.0,M,3.0,M,4.3,M*29
$YXXDR,A,5.8,D,PTCH,A,4.6,D,ROLL*52
$HCHDG,105.0,0.0,E,,*2D
$HCHDG,104.7,0.0,E,,*2B
$GPRMC,160432.8,A,4921.42042,N,12316.30789,W,000.12,000.0,210913,017.3,E,A*2F
$PGRME,3.0,M,3.0,M,4.3,M*29
$HCHDG,104.6,0.0,E,,*2A
$HCHDG,104.6,0.0,E,,*2A
$GPRMC,160433.0,A,4921.42041,N,12316.30790,W,000.16,000.0,210913,017.3,E,A*29
$PGRME,3.0,M,3.0,M,4.3,M*29
$HCHDG,104.5,0.0,E,,*29
$YXXDR,A,5.8,D,PTCH,A,4.3,D,ROLL*57
$GPRMC,160433.2,A,4921.42041,N,12316.30790,W,000.19,000.0,210913,017.3,E,A*24
$GPRMB,A,-34.86,L,,Shil,4741.0830,N,12224.5670,W,106.1,161,-0.18,V*0A
$PGRME,3.0,M,3.0,M,4.3,M*29
$HCHDG,104.4,0.0,E,,*28
$HCHDG,104.3,0.0,E,,*2F
$HCHDG,104.2,0.0,E,,*2E
$PTAK,FFP1,HEEL,@*07
$GPRMC,160433.4,A,4921.42041,N,12316.30790,W,000.12,000.0,210913,017.3,E,A*29
$PGRME,3.0,M,3.0,M,4.3,M*29
$HCHDG,104.3,0.0,E,,*2F
$HCHDG,104.1,0.0,E,,*2D
$GPRMC,160433.6,A,4921.42041,N,12316.30790,W,000.07,000.0,210913,017.3,E,A*2F
$PGRME,3.0,M,3.0,M,4.3,M*29
$YXXDR,A,5.7,D,PTCH,A,3.8,D,ROLL*54
$PTAK,FFD1,3.8*5E
$HCHDG,104.1,0.0,E,,*2D
$HCHDG,103.9,0.0,E,,*22
$GPRMC,160433.8,A,4921.42041,N,12316.30790,W,000.05,000.0,210913,017.3,E,A*23
$PGRME,3.0,M,3.0,M,4.3,M*29
$HCHDG,103.8,0.0,E,,*23
$HCHDG,103.7,0.0,E,,*2C
$GPRMC,160434.0,A,4921.42041,N,12316.30790,W,000.05,000.0,210913,017.3,E,A*2C
$PGRME,3.0,M,3.0,M,4.3,M*29
$HCHDG,103.6,0.0,E,,*2D
$YXXDR,A,5.6,D,PTCH,A,3.3,D,ROLL*5E
$GPRMC,160434.2,A,4921.42040,N,12316.30790,W,000.02,000.0,210913,017.3,E,A*28
$GPRMB,A,-34.86,L,,Shil,4741.0830,N,12224.5670,W,106.1,161,-0.02,V*01
$PGRME,3.0,M,3.0,M,4.3,M*29
$HCHDG,103.7,0.0,E,,*2C
$HCHDG,103.5,0.0,E,,*2E
$HCHDG,103.5,0.0,E,,*2E
$GPRMC,160434.4,A,4921.42040,N,12316.30790,W,000.03,000.0,210913,017.3,E,A*2F
$PGRME,3.0,M,3.0,M,4.3,M*29
$HCHDG,103.6,0.0,E,,*2D
$HCHDG,103.5,0.0,E,,*2E
$GPRMC,160434.6,A,4921.42040,N,12316.30790,W,000.05,000.0,210913,017.3,E,A*2B
$PGRME,3.0,M,3.0,M,4.3,M*29
$YXXDR,A,5.6,D,PTCH,A,3.0,D,ROLL*5D
$PTAK,FFD1,3.0*56
$HCHDG,103.3,0.0,E,,*28
$HCHDG,103.3,0.0,E,,*28
$GPRMC,160434.8,A,4921.42040,N,12316.30790,W,000.03,000.0,210913,017.3,E,A*23
$PGRME,3.0,M,3.0,M,4.3,M*29
$HCHDG,103.2,0.0,E,,*29
$HCHDG,103.1,0.0,E,,*2A
$GPRMC,160435.0,A,4921.42040,N,12316.30790,W,000.02,000.0,210913,017.3,E,A*2B
$PGRME,3.0,M,3.0,M,4.3,M*29
$HCHDG,103.0,0.0,E,,*2B
$YXXDR,A,5.4,D,PTCH,A,3.1,D,ROLL*5E
$GPRMC,160435.2,A,4921.42040,N,12316.30790,W,000.02,000.0,210913,017.3,E,A*29
$PGRME,3.0,M,3.0,M,4.3,M*29
$HCHDG,102.9,0.0,E,,*23
$HCHDG,102.9,0.0,E,,*23
$HCHDG,102.8,0.0,E,,*22
$GPRMC,160435.4,A,4921.42040,N,12316.30790,W,000.02,000.0,210913,017.3,E,A*2F
$GPRMB,A,-34.86,L,,Shil,4741.0830,N,12224.5670,W,106.1,161,-0.02,V*01
$PGRME,3.0,M,3.0,M,4.3,M*29
$HCHDG,102.8,0.0,E,,*22
$HCHDG,102.8,0.0,E,,*22
$GPRMC,160435.6,A,4921.42040,N,12316.30790,W,000.03,000.0,210913,017.3,E,A*2C
$PGRME,3.0,M,3.0,M,4.3,M*29
$YXXDR,A,5.4,D,PTCH,A,3.3,D,ROLL*5C
$PTAK,FFD1,3.3*55
$HCHDG,102.7,0.0,E,,*2D
$HCHDG,102.6,0.0,E,,*2C
$GPRMC,160435.8,A,4921.42040,N,12316.30790,W,000.04,000.0,210913,017.3,E,A*25
$PGRME,3.0,M,3.0,M,4.3,M*29
$HCHDG,102.6,0.0,E,,*2C
$HCHDG,102.6,0.0,E,,*2C
$GPRMC,160436.0,A,4921.42040,N,12316.30790,W,000.03,000.0,210913,017.3,E,A*29
$PGRME,3.0,M,3.0,M,4.3,M*29
$HCHDG,102.5,0.0,E,,*2F
$YXXDR,A,5.4,D,PTCH,A,3.6,D,ROLL*59
$GPRMC,160436.2,A,4921.42040,N,12316.30790,W,000.04,000.0,210913,017.3,E,A*2C
$PGRME,3.0,M,3.0,M,4.3,M*29
$HCHDG,102.5,0.0,E,,*2F
$HCHDG,102.4,0.0,E,,*2E
$HCHDG,102.5,0.0,E,,*2F
$GPRMC,160436.4,A,4921.42040,N,12316.30790,W,000.02,000.0,210913,017.3,E,A*2C
$PGRME,3.0,M,3.0,M,4.3,M*29
$HCHDG,102.2,0.0,E,,*28
$HCHDG,102.3,0.0,E,,*29
$GPRMC,160436.6,A,4921.42040,N,12316.30790,W,000.04,000.0,210913,017.3,E,A*28
$GPRMB,A,-34.86,L,,Shil,4741.0830,N,12224.5670,W,106.1,161,-0.04,V*07
$PGRME,3.0,M,3.0,M,4.3,M*29
$YXXDR,A,5.6,D,PTCH,A,4.0,D,ROLL*5A
$PTAK,FFD1,4.0*51
$HCHDG,102.2,0.0,E,,*28
$HCHDG,102.1,0.0,E,,*2B
$GPRMC,160436.8,A,4921.42040,N,12316.30790,W,000.02,000.0,210913,017.3,E,A*20
$PGRME,3.0,M,3.0,M,4.3,M*29
$HCHDG,102.1,0.0,E,,*2B
$HCHDG,102.0,0.0,E,,*2A
$GPRMC,160437.0,A,4921.42040,N,12316.30790,W,000.02,000.0,210913,017.3,E,A*29
$PGRME,3.0,M,3.0,M,4.3,M*29
$HCHDG,101.9,0.0,E,,*20
$YXXDR,A,5.6,D,PTCH,A,4.4,D,ROLL*5E
$GPRMC,160437.2,A,4921.42040,N,12316.30790,W,000.02,000.0,210913,017.3,E,A*2B
$PGRME,3.0,M,3.0,M,4.3,M*29
$HCHDG,101.9,0.0,E,,*20
$HCHDG,101.8,0.0,E,,*21
$HCHDG,101.7,0.0,E,,*2E
$GPRMC,160437.4,A,4921.42040,N,12316.30790,W,000.03,000.0,210913,017.3,E,A*2C
$PGRME,3.0,M,3.0,M,4.3,M*29
$HCHDG,101.7,0.0,E,,*2E
$PTAK,FFP1,HEEL,@*07
$HCHDG,101.6,0.0,E,,*2F
$GPRMC,160437.6,A,4921.42040,N,12316.30790,W,000.02,000.0,210913,017.3,E,A*2F
$PGRME,3.0,M,3.0,M,4.3,M*29
$YXXDR,A,5.8,D,PTCH,A,4.4,D,ROLL*50
$HCHDG,101.5,0.0,E,,*2C
$HCHDG,101.4,0.0,E,,*2D
$GPRMC,160437.8,A,4921.42040,N,12316.30790,W,000.01,000.0,210913,017.3,E,A*22
$GPRMB,A,-34.86,L,,Shil,4741.0830,N,12224.5670,W,106.1,161,-0.01,V*02
$PGRME,3.0,M,3.0,M,4.3,M*29
$HCHDG,101.3,0.0,E,,*2A
$HCHDG,101.2,0.0,E,,*2B
$GPRMC,160438.0,A,4921.42040,N,12316.30790,W,000.01,000.0,210913,017.3,E,A*25
$PGRME,3.0,M,3.0,M,4.3,M*29
$HCHDG,101.1,0.0,E,,*28
$YXXDR,A,5.6,D,PTCH,A,4.1,D,ROLL*5B
$PTAK,FFD1,4.1*50
$GPRMC,160438.2,A,4921.42040,N,12316.30790,W,000.02,000.0,210913,017.3,E,A*24
$PGRME,3.0,M,3.0,M,4.3,M*29
$HCHDG,101.0,0.0,E,,*29
$HCHDG,101.0,0.0,E,,*29
$HCHDG,101.0,0.0,E,,*29
$GPRMC,160438.4,A,4921.42040,N,12316.30790,W,000.01,000.0,210913,017.3,E,A*21
$PGRME,3.0,M,3.0,M,4.3,M*29
$HCHDG,100.9,0.0,E,,*21
$HCHDG,100.5,0.0,E,,*2D
$GPRMC,160438.6,A,4921.42040,N,12316.30790,W,000.02,000.0,210913,017.3,E,A*20
$PGRME,3.0,M,3.0,M,4.3,M*29
$YXXDR,A,5.6,D,PTCH,A,4.1,D,ROLL*5B
$HCHDG,100.5,0.0,E,,*2D
$HCHDG,100.4,0.0,E,,*2C
$GPRMC,160438.8,A,4921.42040,N,12316.30789,W,000.02,000.0,210913,017.3,E,A*26
$PGRME,3.0,M,3.0,M,4.3,M*29
$HCHDG,100.3,0.0,E,,*2B
$HCHDG,100.3,0.0,E,,*2B
$GPRMC,160439.0,A,4921.42040,N,12316.30789,W,000.02,000.0,210913,017.3,E,A*2F
$GPRMB,A,-34.86,L,,Shil,4741.0830,N,12224.5670,W,106.1,161,-0.02,V*01
$PGRME,3.0,M,3.0,M,4.3,M*29
$HCHDG,100.3,0.0,E,,*2B
$YXXDR,A,5.6,D,PTCH,A,4.4,D,ROLL*5E
$PTAK,FFD1,4.4*55
$GPRMC,160439.2,A,4921.42039,N,12316.30789,W,000.02,000.0,210913,017.3,E,A*23
$PGRME,3.0,M,3.0,M,4.3,M*29
$HCHDG,100.1,0.0,E,,*29
$HCHDG,100.1,0.0,E,,*29
$HCHDG,100.3,0.0,E,,*2B
$GPRMC,160439.4,A,4921.42039,N,12316.30789,W,000.01,000.0,210913,017.3,E,A*26
$PGRME,3.0,M,3.0,M,4.3,M*29
$HCHDG,100.3,0.0,E,,*2B
$HCHDG,100.2,0.0,E,,*2A
$GPRMC,160439.6,A,4921.42039,N,12316.30789,W,000.02,000.0,210913,017.3,E,A*27
$PGRME,3.0,M,3.0,M,4.3,M*29
$YXXDR,A,5.4,D,PTCH,A,5.4,D,ROLL*5D
$HCHDG,100.1,0.0,E,,*29
$HCHDG,99.8,0.0,E,,*11
$GPRMC,160439.8,A,4921.42039,N,12316.30789,W,000.00,000.0,210913,017.3,E,A*2B
$PGRME,3.0,M,3.0,M,4.3,M*29
$HCHDG,99.9,0.0,E,,*10
$HCHDG,99.8,0.0,E,,*11
$GPRMC,160440.0,A,4921.42039,N,12316.30789,W,000.02,000.0,210913,017.3,E,A*2F
$PGRME,3.0,M,3.0,M,4.3,M*29
$HCHDG,99.8,0.0,E,,*11
$YXXDR,A,5.4,D,PTCH,A,6.1,D,ROLL*5B
$GPRMC,160440.2,A,4921.42039,N,12316.30789,W,000.03,000.0,210913,017.3,E,A*2C
$GPRMB,A,-34.86,L,,Shil,4741.0830,N,12224.5670,W,106.1,161,-0.03,V*00
$PGRME,3.0,M,3.0,M,4.3,M*29
$HCHDG,99.7,0.0,E,,*1E
$HCHDG,99.6,0.0,E,,*1F
$HCHDG,99.7,0.0,E,,*1E
$GPRMC,160440.4,A,4921.42039,N,12316.30789,W,000.01,000.0,210913,017.3,E,A*28
$PGRME,3.0,M,3.0,M,4.3,M*29
$HCHDG,99.9,0.0,E,,*10
$HCHDG,99.9,0.0,E,,*10
$GPRMC,160440.6,A,4921.42039,N,12316.30789,W,000.01,000.0,210913,017.3,E,A*2A
$PGRME,3.1,M,3.0,M,4.3,M*28
$YXXDR,A,5.8,D,PTCH,A,7.0,D,ROLL*57
$PTAK,FFD1,7.0*52
$HCHDG,99.7,0.0,E,,*1E
$HCHDG,99.8,0.0,E,,*11
$GPRMC,160440.8,A,4921.42039,N,12316.30788,W,000.02,000.0,210913,017.3,E,A*26
$PGRME,3.1,M,3.0,M,4.3,M*28
$HCHDG,99.7,0.0,E,,*1E
$HCHDG,99.6,0.0,E,,*1F
$GPRMC,160441.0,A,4921.42039,N,12316.30788,W,000.01,000.0,210913,017.3,E,A*2C
$PGRME,3.1,M,3.0,M,4.3,M*28
$HCHDG,99.5,0.0,E,,*1C
$YXXDR,A,5.7,D,PTCH,A,6.9,D,ROLL*50
$GPRMC,160441.2,A,4921.42039,N,12316.30788,W,000.01,000.0,210913,017.3,E,A*2E
$PGRME,3.1,M,3.0,M,4.3,M*28
$HCHDG,99.5,0.0,E,,*1C
$HCHDG,99.4,0.0,E,,*1D
$HCHDG,99.4,0.0,E,,*1D
$GPRMC,160441.4,A,4921.42039,N,12316.30787,W,000.02,000.0,210913,017.3,E,A*24
$GPRMB,A,-34.86,L,,Shil,4741.0830,N,12224.5670,W,106.1,161,-0.02,V*01
$PGRME,3.0,M,3.0,M,4.3,M*29
$HCHDG,99.2,0.0,E,,*1B
$PTAK,FFP1,HEEL,@*07
$HCHDG,99.1,0.0,E,,*18
$GPRMC,160441.6,A,4921.42039,N,12316.30788,W,000.01,000.0,210913,017.3,E,A*2A
$PGRME,3.0,M,3.0,M,4.3,M*29
$YXXDR,A,5.5,D,PTCH,A,6.4,D,ROLL*5F
$HCHDG,99.0,0.0,E,,*19
$HCHDG,99.1,0.0,E,,*18
$GPRMC,160441.8,A,4921.42039,N,12316.30787,W,000.01,000.0,210913,017.3,E,A*2B
$PGRME,3.0,M,3.0,M,4.3,M*29
$HCHDG,99.0,0.0,E,,*19
$HCHDG,99.1,0.0,E,,*18
$GPRMC,160442.0,A,4921.42039,N,12316.30787,W,000.02,000.0,210913,017.3,E,A*23
$PGRME,3.0,M,3.0,M,4.3,M*29
$HCHDG,98.9,0.0,E,,*11
$YXXDR,A,5.6,D,PTCH,A,5.5,D,ROLL*5E
$PTAK,FFD1,5.5*55
$GPRMC,160442.2,A,4921.42039,N,12316.30788,W,000.00,000.0,210913,017.3,E,A*2C
$PGRME,3.0,M,3.0,M,4.3,M*29
$HCHDG,98.8,0.0,E,,*10
$HCHDG,98.8,0.0,E,,*10
$HCHDG,98.7,0.0,E,,*1F
$GPRMC,160442.4,A,4921.42039,N,12316.30788,W,000.01,000.0,210913,017.3,E,A*2B
$GPRMB,A,-34.86,L,,Shil,4741.0830,N,12224.5670,W,106.1,161,-0.01,V*02
$PGRME,3.0,M,3.0,M,4.3,M*29
$HCHDG,98.4,0.0,E,,*1C
$HCHDG,98.4,0.0,E,,*1C
$GPRMC,160442.6,A,4921.42038,N,12316.30787,W,000.01,000.0,210913,017.3,E,A*27
$PGRME,3.0,M,3.0,M,4.3,M*29
$YXXDR,A,6.0,D,PTCH,A,4.8,D,ROLL*57
$HCHDG,98.2,0.0,E,,*1A
$HCHDG,98.1,0.0,E,,*19
$GPRMC,160442.8,A,4921.42038,N,12316.30788,W,000.00,000.0,210913,017.3,E,A*27
$PGRME,3.0,M,3.0,M,4.3,M*29
$HCHDG,98.1,0.0,E,,*19
$HCHDG,98.0,0.0,E,,*18
$GPRMC,160443.0,A,4921.42038,N,12316.30788,W,000.01,000.0,210913,017.3,E,A*2F
$PGRME,3.0,M,3.0,M,4.3,M*29
$HCHDG,98.0,0.0,E,,*18
$YXXDR,A,5.8,D,PTCH,A,4.4,D,ROLL*50
$PTAK,FFD1,4.4*55
$GPRMC,160443.2,A,4921.42038,N,12316.30789,W,000.02,000.0,210913,017.3,E,A*2F
$PGRME,3.0,M,3.0,M,4.3,M*29
$HCHDG,97.9,0.0,E,,*1E
$HCHDG,97.9,0.0,E,,*1E
$HCHDG,97.9,0.0,E,,*1E
$GPRMC,160443.4,A,4921.42038,N,12316.30789,W,000.02,000.0,210913,017.3,E,A*29
$PGRME,3.1,M,3.0,M,4.3,M*28
$HCHDG,97.8,0.0,E,,*1F
$HCHDG,97.8,0.0,E,,*1F
$GPRMC,160443.6,A,4921.42037,N,12316.30790,W,000.01,000.0,210913,017.3,E,A*2F
$GPRMB,A,-34.86,L,,Shil,4741.0830,N,12224.5670,W,106.1,161,-0.01,V*02
$PGRME,3.1,M,3.0,M,4.3,M*28
$YXXDR,A,5.5,D,PTCH,A,4.7,D,ROLL*5E
$HCHDG,97.7,0.0,E,,*10
$HCHDG,97.7,0.0,E,,*10
$GPRMC,160443.8,A,4921.42037,N,12316.30791,W,000.01,000.0,210913,017.3,E,A*20
$PGRME,3.1,M,3.0,M,4.3,M*28
$HCHDG,97.6,0.0,E,,*11
$HCHDG,97.6,0.0,E,,*11
$GPRMC,160444.0,A,4921.42037,N,12316.30792,W,000.01,000.0,210913,017.3,E,A*2C
$PGRME,3.1,M,3.0,M,4.3,M*28
$PGRMT,GPS 18x-5Hz software ver. 3.20,,,,,,,,*30
$HCHDG,97.5,0.0,E,,*12
$YXXDR,A,5.4,D,PTCH,A,4.9,D,ROLL*51
$GPRMC,160444.2,A,4921.42036,N,12316.30792,W,000.01,000.0,210913,017.3,E,A*2F
$HCHDG,97.5,0.0,E,,*12
$PGRME,3.1,M,3.0,M,4.3,M*28
$HCHDG,97.5,0.0,E,,*12
$HCHDG,97.4,0.0,E,,*13
$GPRMC,160444.4,A,4921.42036,N,12316.30793,W,000.01,000.0,210913,017.3,E,A*28
$PGRME,3.1,M,3.0,M,4.3,M*28
$HCHDG,97.5,0.0,E,,*12
$HCHDG,97.4,0.0,E,,*13
$GPRMC,160444.6,A,4921.42036,N,12316.30793,W,000.02,000.0,210913,017.3,E,A*29
$GPRMB,A,-34.86,L,,Shil,4741.0830,N,12224.5670,W,106.1,161,-0.02,V*01
$PGRME,3.1,M,3.0,M,4.3,M*28
$YXXDR,A,5.6,D,PTCH,A,5.3,D,ROLL*58
$PTAK,FFD1,5.3*53
$HCHDG,97.4,0.0,E,,*13
$HCHDG,97.3,0.0,E,,*14
$GPRMC,160444.8,A,4921.42035,N,12316.30793,W,000.01,000.0,210913,017.3,E,A*27
$PGRME,3.1,M,3.0,M,4.3,M*28
$HCHDG,97.3,0.0,E,,*14
$HCHDG,97.2,0.0,E,,*15
$GPRMC,160445.0,A,4921.42035,N,12316.30793,W,000.01,000.0,210913,017.3,E,A*2E
$PGRME,3.1,M,3.0,M,4.3,M*28
$HCHDG,97.2,0.0,E,,*15
$YXXDR,A,5.6,D,PTCH,A,5.6,D,ROLL*5D
$GPRMC,160445.2,A,4921.42035,N,12316.30793,W,000.01,000.0,210913,017.3,E,A*2C
$PGRME,3.1,M,3.0,M,4.3,M*28
$HCHDG,97.4,0.0,E,,*13
$HCHDG,97.4,0.0,E,,*13
$HCHDG,97.4,0.0,E,,*13
$GPRMC,160445.4,A,4921.42035,N,12316.30793,W,000.00,000.0,210913,017.3,E,A*2B
$PGRME,3.1,M,3.0,M,4.3,M*28
$HCHDG,97.3,0.0,E,,*14
$HCHDG,97.3,0.0,E,,*14
$GPRMC,160445.6,A,4921.42035,N,12316.30794,W,000.02,000.0,210913,017.3,E,A*2C
$PTAK,FFP1,HEEL,@*07
$PGRME,3.1,M,3.0,M,4.3,M*28
$YXXDR,A,5.6,D,PTCH,A,5.3,D,ROLL*58
$HCHDG,97.3,0.0,E,,*14
$HCHDG,97.3,0.0,E,,*14
$GPRMC,160445.8,A,4921.42035,N,12316.30794,W,000.02,000.0,210913,017.3,E,A*22
$GPRMB,A,-34.86,L,,Shil,4741.0830,N,12224.5670,W,106.1,161,-0.02,V*01
$PGRME,3.0,M,3.0,M,4.3,M*29
$HCHDG,97.2,0.0,E,,*15
$HCHDG,97.2,0.0,E,,*15
$GPRMC,160446.0,A,4921.42035,N,12316.30794,W,000.00,000.0,210913,017.3,E,A*2B
$PGRME,3.0,M,3.0,M,4.3,M*29
$HCHDG,97.2,0.0,E,,*15
$YXXDR,A,5.5,D,PTCH,A,5.0,D,ROLL*58
$PTAK,FFD1,5.0*50
$GPRMC,160446.2,A,4921.42035,N,12316.30794,W,000.01,000.0,210913,017.3,E,A*28
$PGRME,3.0,M,3.0,M,4.3,M*29
$HCHDG,96.8,0.0,E,,*1E
$HCHDG,96.8,0.0,E,,*1E
$HCHDG,96.8,0.0,E,,*1E
$GPRMC,160446.4,A,4921.42035,N,12316.30794,W,000.02,000.0,210913,017.3,E,A*2D
$PGRME,3.0,M,3.0,M,4.3,M*29
$HCHDG,96.7,0.0,E,,*11
$HCHDG,96.7,0.0,E,,*11
$GPRMC,160446.6,A,4921.42035,N,12316.30794,W,000.03,000.0,210913,017.3,E,A*2E
$PGRME,3.0,M,3.0,M,4.3,M*29
$YXXDR,A,5.8,D,PTCH,A,4.6,D,ROLL*52
$HCHDG,96.6,0.0,E,,*10
$HCHDG,96.6,0.0,E,,*10
$GPRMC,160446.8,A,4921.42035,N,12316.30794,W,000.02,000.0,210913,017.3,E,A*21
$PGRME,3.0,M,3.0,M,4.3,M*29
$HCHDG,96.8,0.0,E,,*1E
$HCHDG,96.7,0.0,E,,*11
$GPRMC,160447.0,A,4921.42035,N,12316.30794,W,000.01,000.0,210913,017.3,E,A*2B
$GPRMB,A,-34.86,L,,Shil,4741.0830,N,12224.5670,W,106.1,161,-0.01,V*02
$PGRME,3.0,M,3.0,M,4.3,M*29
$HCHDG,96.5,0.0,E,,*13
$YXXDR,A,5.6,D,PTCH,A,4.4,D,ROLL*5E
$PTAK,FFD1,4.4*55
$GPRMC,160447.2,A,4921.42034,N,12316.30794,W,000.02,000.0,210913,017.3,E,A*2B
$PGRME,3.0,M,3.0,M,4.3,M*29
$HCHDG,96.4,0.0,E,,*12
$HCHDG,96.4,0.0,E,,*12
$HCHDG,96.4,0.0,E,,*12
$GPRMC,160447.4,A,4921.42034,N,12316.30794,W,000.02,000.0,210913,017.3,E,A*2D
$PGRME,3.0,M,3.0,M,4.3,M*29
$HCHDG,96.4,0.0,E,,*12
$HCHDG,96.3,0.0,E,,*15
$GPRMC,160447.6,A,4921.42034,N,12316.30794,W,000.01,000.0,210913,017.3,E,A*2C
$PGRME,3.0,M,3.0,M,4.3,M*29
$YXXDR,A,5.6,D,PTCH,A,4.5,D,ROLL*5F
$HCHDG,96.3,0.0,E,,*15
$HCHDG,96.3,0.0,E,,*15
$GPRMC,160447.8,A,4921.42034,N,12316.30793,W,000.05,000.0,210913,017.3,E,A*21
$PGRME,3.0,M,3.0,M,4.3,M*29
$HCHDG,96.2,0.0,E,,*14
$HCHDG,96.2,0.0,E,,*14
$GPRMC,160448.0,A,4921.42034,N,12316.30793,W,000.02,000.0,210913,017.3,E,A*21
$PGRME,3.0,M,3.0,M,4.3,M*29
$HCHDG,96.4,0.0,E,,*12
$YXXDR,A,5.7,D,PTCH,A,5.0,D,ROLL*5A
$GPRMC,160448.2,A,4921.42034,N,12316.30793,W,000.01,000.0,210913,017.3,E,A*20
$GPRMB,A,-34.86,L,,Shil,4741.0830,N,12224.5670,W,106.1,161,-0.01,V*02
$PGRME,3.0,M,3.0,M,4.3,M*29
$HCHDG,96.3,0.0,E,,*15
$HCHDG,96.3,0.0,E,,*15
$HCHDG,96.4,0.0,E,,*12
$GPRMC,160448.4,A,4921.42034,N,12316.30793,W,000.01,000.0,210913,017.3,E,A*26
$PGRME,3.0,M,3.0,M,4.3,M*29
$HCHDG,96.3,0.0,E,,*15
$HCHDG,96.3,0.0,E,,*15
$GPRMC,160448.6,A,4921.42034,N,12316.30793,W,000.01,000.0,210913,017.3,E,A*24
$PGRME,3.0,M,3.0,M,4.3,M*29
$YXXDR,A,5.5,D,PTCH,A,5.0,D,ROLL*58
$PTAK,FFD1,5.0*50
$HCHDG,96.3,0.0,E,,*15
$HCHDG,96.2,0.0,E,,*14
$GPRMC,160448.8,A,4921.42034,N,12316.30793,W,000.02,000.0,210913,017.3,E,A*29
$PGRME,3.0,M,3.0,M,4.3,M*29
$HCHDG,96.1,0.0,E,,*17
$HCHDG,96.1,0.0,E,,*17
$GPRMC,160449.0,A,4921.42034,N,12316.30793,W,000.03,000.0,210913,017.3,E,A*21
$PGRME,3.0,M,3.0,M,4.3,M*29
$HCHDG,96.0,0.0,E,,*16
$YXXDR,A,5.8,D,PTCH,A,5.4,D,ROLL*51
$GPRMC,160449.2,A,4921.42034,N,12316.30793,W,000.03,000.0,210913,017.3,E,A*23
$GPRMB,A,-34.86,L,,Shil,4741.0830,N,12224.5670,W,106.1,161,-0.03,V*00
$PGRME,3.0,M,3.0,M,4.3,M*29
$HCHDG,95.8,0.0,E,,*1D
$HCHDG,95.7,0.0,E,,*12
$HCHDG,95.7,0.0,E,,*12
$GPRMC,160449.4,A,4921.42034,N,12316.30793,W,000.04,000.0,210913,017.3,E,A*22
$PGRME,3.0,M,3.0,M,4.3,M*29
$HCHDG,95.5,0.0,E,,*10
$HCHDG,95.5,0.0,E,,*10
$GPRMC,160449.6,A,4921.42035,N,12316.30794,W,000.03,000.0,210913,017.3,E,A*21
$PTAK,FFP1,HEEL,@*07
$PGRME,3.0,M,3.0,M,4.3,M*29
$YXXDR,A,5.6,D,PTCH,A,5.3,D,ROLL*58
$PTAK,FFD1,5.3*53
$HCHDG,95.4,0.0,E,,*11
$HCHDG,95.3,0.0,E,,*16
$GPRMC,160449.8,A,4921.42035,N,12316.30794,W,000.02,000.0,210913,017.3,E,A*2E
$PGRME,3.0,M,3.0,M,4.3,M*29
$HCHDG,95.2,0.0,E,,*17
$HCHDG,95.1,0.0,E,,*14
$GPRMC,160450.0,A,4921.42034,N,12316.30794,W,000.04,000.0,210913,017.3,E,A*29
$PGRME,3.0,M,3.0,M,4.3,M*29
$HCHDG,94.9,0.0,E,,*1D
$YXXDR,A,5.8,D,PTCH,A,5.0,D,ROLL*55
$GPRMC,160450.2,A,4921.42035,N,12316.30795,W,000.02,000.0,210913,017.3,E,A*2D
$GPRMB,A,-34.86,L,,Shil,4741.0830,N,12224.5670,W,106.1,161,-0.02,V*01
$PGRME,3.1,M,3.0,M,4.3,M*28
$HCHDG,94.9,0.0,E,,*1D
$HCHDG,94.8,0.0,E,,*1C
$HCHDG,94.7,0.0,E,,*13
$GPRMC,160450.4,A,4921.42034,N,12316.30796,W,000.03,000.0,210913,017.3,E,A*28
$PGRME,3.1,M,3.0,M,4.3,M*28
$HCHDG,94.6,0.0,E,,*12
$HCHDG,94.5,0.0,E,,*11
$GPRMC,160450.6,A,4921.42034,N,12316.30796,W,000.03,000.0,210913,017.3,E,A*2A
$PGRME,3.1,M,3.0,M,4.3,M*28
$YXXDR,A,5.7,D,PTCH,A,4.7,D,ROLL*5C
$PTAK,FFD1,4.7*56
$HCHDG,94.4,0.0,E,,*10
$HCHDG,94.2,0.0,E,,*16
$GPRMC,160450.8,A,4921.42034,N,12316.30796,W,000.01,000.0,210913,017.3,E,A*26
$PGRME,3.1,M,3.0,M,4.4,M*2F
$HCHDG,94.1,0.0,E,,*15
$HCHDG,93.9,0.0,E,,*1A
$GPRMC,160451.0,A,4921.42034,N,12316.30796,W,000.06,000.0,210913,017.3,E,A*28
$PGRME,3.1,M,3.0,M,4.4,M*2F
$HCHDG,93.9,0.0,E,,*1A
$YXXDR,A,5.7,D,PTCH,A,4.6,D,ROLL*5D
$GPRMC,160451.2,A,4921.42034,N,12316.30796,W,000.03,000.0,210913,017.3,E,A*2F
$PGRME,3.1,M,3.0,M,4.4,M*2F
$HCHDG,93.8,0.0,E,,*1B
$HCHDG,93.5,0.0,E,,*16
$HCHDG,93.5,0.0,E,,*16
$GPRMC,160451.4,A,4921.42034,N,12316.30796,W,000.02,000.0,210913,017.3,E,A*28
$GPRMB,A,-34.86,L,,Shil,4741.0830,N,12224.5670,W,106.1,161,-0.02,V*01
$PGRME,3.1,M,3.0,M,4.4,M*2F
$HCHDG,93.4,0.0,E,,*17
$HCHDG,93.2,0.0,E,,*11
$GPRMC,160451.6,A,4921.42033,N,12316.30796,W,000.01,000.0,210913,017.3,E,A*2E
$PGRME,3.1,M,3.0,M,4.4,M*2F
$YXXDR,A,5.6,D,PTCH,A,5.0,D,ROLL*5B
$PTAK,FFD1,5.0*50
$HCHDG,93.0,0.0,E,,*13
$HCHDG,93.0,0.0,E,,*13
$GPRMC,160451.8,A,4921.42033,N,12316.30796,W,000.01,000.0,210913,017.3,E,A*20
$PGRME,3.2,M,3.0,M,4.4,M*2C
$HCHDG,92.7,0.0,E,,*15
$HCHDG,92.7,0.0,E,,*15
$GPRMC,160452.0,A,4921.42033,N,12316.30796,W,000.03,000.0,210913,017.3,E,A*29
$PGRME,3.2,M,3.0,M,4.4,M*2C
$HCHDG,92.6,0.0,E,,*14
$YXXDR,A,5.6,D,PTCH,A,5.1,D,ROLL*5A
$GPRMC,160452.2,A,4921.42033,N,12316.30796,W,000.03,000.0,210913,017.3,E,A*2B
$PGRME,3.2,M,3.0,M,4.4,M*2C
$HCHDG,92.5,0.0,E,,*17
$HCHDG,92.2,0.0,E,,*10
$HCHDG,92.1,0.0,E,,*13
$GPRMC,160452.4,A,4921.42034,N,12316.30796,W,000.02,000.0,210913,017.3,E,A*2B
$GPRMB,A,-34.86,L,,Shil,4741.0830,N,12224.5670,W,106.1,161,-0.02,V*01
$PGRME,3.2,M,3.0,M,4.4,M*2C
$HCHDG,92.0,0.0,E,,*12
$HCHDG,91.9,0.0,E,,*18
$GPRMC,160452.6,A,4921.42034,N,12316.30796,W,000.01,000.0,210913,017.3,E,A*2A
$PGRME,3.2,M,3.0,M,4.4,M*2C
$YXXDR,A,5.7,D,PTCH,A,5.6,D,ROLL*5C
$PTAK,FFD1,5.6*56
$HCHDG,91.7,0.0,E,,*16
$HCHDG,91.6,0.0,E,,*17
$GPRMC,160452.8,A,4921.42034,N,12316.30796,W,000.02,000.0,210913,017.3,E,A*27
$PGRME,3.2,M,3.0,M,4.4,M*2C
$HCHDG,91.5,0.0,E,,*14
$HCHDG,91.4,0.0,E,,*15
$GPRMC,160453.0,A,4921.42034,N,12316.30797,W,000.02,000.0,210913,017.3,E,A*2F
$PGRME,3.2,M,3.0,M,4.4,M*2C
$HCHDG,91.3,0.0,E,,*12
$YXXDR,A,5.5,D,PTCH,A,5.8,D,ROLL*50
$GPRMC,160453.2,A,4921.42034,N,12316.30797,W,000.00,000.0,210913,017.3,E,A*2F
$PGRME,3.2,M,3.0,M,4.4,M*2C
$HCHDG,91.3,0.0,E,,*12
$HCHDG,91.0,0.0,E,,*11
$HCHDG,91.0,0.0,E,,*11
$GPRMC,160453.4,A,4921.42033,N,12316.30797,W,000.01,000.0,210913,017.3,E,A*2F
$GPRMB,A,-34.86,L,,Shil,4741.0830,N,12224.5670,W,106.1,161,-0.01,V*02
$PGRME,3.2,M,3.0,M,4.4,M*2C
$HCHDG,90.8,0.0,E,,*18
$PTAK,FFP1,HEEL,@*07
$HCHDG,90.8,0.0,E,,*18
$GPRMC,160453.6,A,4921.42033,N,12316.30797,W,000.01,000.0,210913,017.3,E,A*2D
$PGRME,3.2,M,3.0,M,4.4,M*2C
$YXXDR,A,5.6,D,PTCH,A,5.3,D,ROLL*58
$PTAK,FFD1,5.3*53
$HCHDG,90.7,0.0,E,,*17
$HCHDG,90.7,0.0,E,,*17
$GPRMC,160453.8,A,4921.42033,N,12316.30798,W,000.00,000.0,210913,017.3,E,A*2D
$PGRME,3.2,M,3.0,M,4.4,M*2C
$HCHDG,90.6,0.0,E,,*16
$HCHDG,90.5,0.0,E,,*15
$GPRMC,160454.0,A,4921.42033,N,12316.30798,W,000.00,000.0,210913,017.3,E,A*22
$PGRME,3.2,M,3.0,M,4.4,M*2C
$HCHDG,90.5,0.0,E,,*15
$YXXDR,A,5.6,D,PTCH,A,4.9,D,ROLL*53
$GPRMC,160454.2,A,4921.42033,N,12316.30798,W,000.01,000.0,210913,017.3,E,A*21
$PGRME,3.2,M,3.0,M,4.4,M*2C
$HCHDG,90.5,0.0,E,,*15
$HCHDG,90.4,0.0,E,,*14
$HCHDG,90.3,0.0,E,,*13
$GPRMC,160454.4,A,4921.42032,N,12316.30798,W,000.01,000.0,210913,017.3,E,A*26
$GPRMB,A,-34.86,L,,Shil,4741.0830,N,12224.5670,W,106.1,161,-0.01,V*02
$PGRME,3.2,M,3.0,M,4.4,M*2C
$HCHDG,90.4,0.0,E,,*14
$HCHDG,90.6,0.0,E,,*16
$GPRMC,160454.6,A,4921.42032,N,12316.30797,W,000.02,000.0,210913,017.3,E,A*28
$PGRME,3.2,M,3.0,M,4.4,M*2C
$YXXDR,A,5.6,D,PTCH,A,4.4,D,ROLL*5E
$HCHDG,90.5,0.0,E,,*15
$HCHDG,90.5,0.0,E,,*15
$GPRMC,160454.8,A,4921.42032,N,12316.30797,W,000.03,000.0,210913,017.3,E,A*27
$PGRME,3.2,M,3.0,M,4.4,M*2C
$HCHDG,90.4,0.0,E,,*14
$HCHDG,90.3,0.0,E,,*13
$GPRMC,160455.0,A,4921.42032,N,12316.30797,W,000.02,000.0,210913,017.3,E,A*2F
$PGRME,3.2,M,3.0,M,4.4,M*2C
$HCHDG,90.2,0.0,E,,*12
$YXXDR,A,5.6,D,PTCH,A,4.4,D,ROLL*5E
$PTAK,FFD1,4.4*55
$GPRMC,160455.2,A,4921.42032,N,12316.30798,W,000.02,000.0,210913,017.3,E,A*22
$PGRME,3.2,M,3.0,M,4.4,M*2C
$HCHDG,90.1,0.0,E,,*11
$HCHDG,90.2,0.0,E,,*12
$HCHDG,90.4,0.0,E,,*14
$GPRMC,160455.4,A,4921.42032,N,12316.30797,W,000.01,000.0,210913,017.3,E,A*28
$PGRME,3.2,M,3.0,M,4.4,M*2C
$HCHDG,90.4,0.0,E,,*14
$HCHDG,90.4,0.0,E,,*14
$GPRMC,160455.6,A,4921.42032,N,12316.30797,W,000.02,000.0,210913,017.3,E,A*29
$GPRMB,A,-34.86,L,,Shil,4741.0830,N,12224.5670,W,106.1,161,-0.02,V*01
$PGRME,3.2,M,3.0,M,4.4,M*2C
$YXXDR,A,5.4,D,PTCH,A,4.5,D,ROLL*5D
$HCHDG,90.5,0.0,E,,*15
$HCHDG,90.3,0.0,E,,*13
$GPRMC,160455.8,A,4921.42032,N,12316.30797,W,000.01,000.0,210913,017.3,E,A*24
$PGRME,3.1,M,3.0,M,4.4,M*2F
$HCHDG,90.4,0.0,E,,*14
$HCHDG,90.4,0.0,E,,*14
$GPRMC,160456.0,A,4921.42032,N,12316.30797,W,000.02,000.0,210913,017.3,E,A*2C
$PGRME,3.1,M,3.0,M,4.4,M*2F
$HCHDG,90.4,0.0,E,,*14
$YXXDR,A,5.4,D,PTCH,A,4.6,D,ROLL*5E
