$GPRMB,A,-35.22,L,,Shil,4741.0830,N,12224.5670,W,106.0,161,-0.42,V*0B
$PGRME,3.0,M,3.0,M,4.3,M*29
$IIMWV,107,R,02.2,N,A*15
$PTAK,FFP1,HEEL,@*07
$HCHDG,241.0,0.0,E,,*2E
$IIMWV,143,T,03.3,N,A*13
$YXXDR,A,5.7,D,PTCH,A,3.5,D,ROLL*59
$PTAK,FFD1,3.5*53
$HCHDG,241.1,0.0,E,,*2F
$GPRMC,154005.4,A,4921.22565,N,12316.84422,W,002.17,261.6,200913,017.3,E,A*2A
$GPRMB,A,-35.22,L,,Shil,4741.0830,N,12224.5670,W,106.0,161,-0.41,V*08
$IIRMC,154000,A,4921.225,N,12316.843,W,02.0,260,200913,17,E,A*14
$PGRME,3.0,M,3.0,M,4.3,M*29
$IIVHW,,,,,02.2,N,,*19
$HCHDG,240.9,0.0,E,,*26
$IIVLW,06312,N,000.0,N*55
$HCHDG,241.2,0.0,E,,*2C
$IIVWR,107,R,02.2,N,,,,*67
$GPRMC,154005.6,A,4921.22567,N,12316.84433,W,002.08,263.3,200913,017.3,E,A*23
$PGRME,3.0,M,3.0,M,4.3,M*29
$HCHDG,241.2,0.0,E,,*2C
$HCHDG,241.3,0.0,E,,*2D
$GPRMC,154005.8,A,4921.22575,N,12316.84431,W,002.31,255.7,200913,017.3,E,A*27
$PGRME,3.0,M,3.0,M,4.3,M*29
$YXXDR,A,6.1,D,PTCH,A,3.6,D,ROLL*5F
$HCHDG,241.5,0.0,E,,*2B
$HCHDG,241.4,0.0,E,,*2A
$GPRMC,154006.0,A,4921.22580,N,12316.84437,W,002.08,258.0,200913,017.3,E,A*20
$PGRME,3.0,M,3.0,M,4.3,M*29
$HCHDG,241.2,0.0,E,,*2C
$IIGLL,4921.225,N,12316.843,W,154000,A,A*41
$HCHDG,241.4,0.0,E,,*2A
$IIMTW,+12.0,C*3B
$GPRMC,154006.2,A,4921.22567,N,12316.84452,W,002.09,255.4,200913,017.3,E,A*20
$PGRME,3.0,M,3.0,M,4.3,M*29
$IIMWV,109,R,02.3,N,A*1A
$HCHDG,241.3,0.0,E,,*2D
$IIMWV,144,T,03.5,N,A*12
$YXXDR,A,5.8,D,PTCH,A,4.3,D,ROLL*57
$HCHDG,241.2,0.0,E,,*2C
$GPRMC,154006.4,A,4921.22561,N,12316.84473,W,002.10,256.0,200913,017.3,E,A*2C
$PGRME,3.0,M,3.0,M,4.3,M*29
$IIRMC,154000,A,4921.225,N,12316.843,W,02.0,260,200913,17,E,A*14
$IIVHW,,,,,02.3,N,,*18
$HCHDG,241.0,0.0,E,,*2E
$IIVLW,06312,N,000.0,N*55
$HCHDG,241.3,0.0,E,,*2D
$IIVWR,109,R,02.3,N,,,,*68
$GPRMC,154006.6,A,4921.22564,N,12316.84487,W,002.18,258.3,200913,017.3,E,A*25
$PGRME,3.0,M,3.0,M,4.3,M*29
$HCHDG,241.0,0.0,E,,*2E
$HCHDG,241.2,0.0,E,,*2C
$GPRMC,154006.8,A,4921.22570,N,12316.84501,W,002.11,266.2,200913,017.3,E,A*24
$GPRMB,A,-35.22,L,,Shil,4741.0830,N,12224.5670,W,106.0,161,-0.57,V*0F
$PGRME,3.0,M,3.0,M,4.3,M*29
$YXXDR,A,5.8,D,PTCH,A,3.6,D,ROLL*55
$PTAK,FFD1,3.6*50
$HCHDG,241.4,0.0,E,,*2A
$HCHDG,241.6,0.0,E,,*28
$GPRMC,154007.0,A,4921.22566,N,12316.84521,W,002.21,264.0,200913,017.3,E,A*2B
$PGRME,3.0,M,3.0,M,4.3,M*29
$HCHDG,241.9,0.0,E,,*27
$IIGLL,4921.225,N,12316.844,W,154000,A,A*46
$HCHDG,241.7,0.0,E,,*29
$IIMTW,+12.0,C*3B
$GPRMC,154007.2,A,4921.22549,N,12316.84547,W,002.15,267.3,200913,017.3,E,A*23
$PGRME,3.0,M,3.0,M,4.3,M*29
$IIMWV,111,R,02.3,N,A*13
$HCHDG,242.0,0.0,E,,*2D
$IIMWV,145,T,03.6,N,A*10
$YXXDR,A,6.1,D,PTCH,A,2.6,D,ROLL*5E
$IIRMB,A,,,,Shil,,,,,106.0,161,,V,A*2A
$HCHDG,242.0,0.0,E,,*2D
$GPRMC,154007.4,A,4921.22549,N,12316.84566,W,002.04,269.0,200913,017.3,E,A*2B
$PGRME,3.0,M,3.0,M,4.3,M*29
$HCHDG,241.9,0.0,E,,*27
$IIRMC,154000,A,4921.225,N,12316.844,W,02.0,258,200913,17,E,A*18
$IIVHW,,,,,02.3,N,,*18
$HCHDG,242.0,0.0,E,,*2D
$GPRMC,154007.6,A,4921.22554,N,12316.84586,W,002.20,262.2,200913,017.3,E,A*24
$IIVLW,06312,N,000.0,N*55
$PGRME,3.0,M,3.0,M,4.3,M*29
$HCHDG,241.8,0.0,E,,*26
$HCHDG,241.8,0.0,E,,*26
$GPRMC,154007.8,A,4921.22549,N,12316.84609,W,002.17,261.2,200913,017.3,E,A*25
$PGRME,3.0,M,3.0,M,4.3,M*29
$YXXDR,A,5.8,D,PTCH,A,4.0,D,ROLL*54
$HCHDG,241.6,0.0,E,,*28
$HCHDG,241.6,0.0,E,,*28
$GPRMC,154008.0,A,4921.22547,N,12316.84623,W,002.21,259.9,200913,017.3,E,A*21
$GPRMB,A,-35.22,L,,Shil,4741.0830,N,12224.5670,W,106.0,161,-0.36,V*08
$PGRME,3.0,M,3.0,M,4.3,M*29
$HCHDG,241.6,0.0,E,,*28
$IIVWR,110,R,02.3,N,,,,*60
$HCHDG,241.5,0.0,E,,*2B
$IIGLL,4921.225,N,12316.845,W,154000,A,A*47
$GPRMC,154008.2,A,4921.22545,N,12316.84638,W,002.05,265.4,200913,017.3,E,A*2F
$PGRME,3.0,M,3.0,M,4.3,M*29
$IIMTW,+12.0,C*3B
$HCHDG,241.5,0.0,E,,*2B
$IIMWV,110,R,02.3,N,A*12
$IIMWV,146,T,03.7,N,A*12
$YXXDR,A,6.0,D,PTCH,A,4.1,D,ROLL*5E
$GPRMC,154008.4,A,4921.22545,N,12316.84655,W,002.25,259.5,200913,017.3,E,A*2E
$HCHDG,241.6,0.0,E,,*28
$PGRME,3.0,M,3.0,M,4.3,M*29
$IIRMB,A,,,,Shil,,,,,106.0,161,,V,A*2A
$HCHDG,241.6,0.0,E,,*28
$IIRMC,154000,A,4921.225,N,12316.845,W,02.2,264,200913,17,E,A*14
$HCHDG,241.7,0.0,E,,*29
$GPRMC,154008.6,A,4921.22543,N,12316.84668,W,002.15,262.6,200913,017.3,E,A*2C
$IIVHW,,,,,02.3,N,,*18
$PGRME,3.0,M,3.0,M,4.3,M*29
$HCHDG,241.4,0.0,E,,*2A
$HCHDG,241.5,0.0,E,,*2B
$GPRMC,154008.8,A,4921.22540,N,12316.84690,W,002.13,263.5,200913,017.3,E,A*22
$PGRME,3.0,M,3.0,M,4.3,M*29
$YXXDR,A,6.0,D,PTCH,A,3.8,D,ROLL*50
$PTAK,FFD1,3.8*5E
$HCHDG,241.6,0.0,E,,*28
$HCHDG,241.6,0.0,E,,*28
$GPRMC,154009.0,A,4921.22536,N,12316.84705,W,002.19,259.6,200913,017.3,E,A*27
$PGRME,3.0,M,3.0,M,4.3,M*29
$HCHDG,241.6,0.0,E,,*28
$IIVLW,06312,N,000.0,N*55
$IIVWR,105,R,02.3,N,,,,*64
$HCHDG,241.7,0.0,E,,*29
$GPRMC,154009.2,A,4921.22527,N,12316.84733,W,002.10,261.9,200913,017.3,E,A*2D
$GPRMB,A,-35.22,L,,Shil,4741.0830,N,12224.5670,W,106.0,161,-0.41,V*08
$PGRME,3.0,M,3.0,M,4.3,M*29
$IIGLL,4921.225,N,12316.846,W,154000,A,A*44
$HCHDG,241.6,0.0,E,,*28
$IIMTW,+12.0,C*3B
$IIMWV,105,R,02.3,N,A*16
$YXXDR,A,5.8,D,PTCH,A,4.0,D,ROLL*54
$IIMWV,146,T,03.7,N,A*12
$HCHDG,241.5,0.0,E,,*2B
$GPRMC,154009.4,A,4921.22522,N,12316.84748,W,002.20,259.5,200913,017.3,E,A*26
$PGRME,3.0,M,3.0,M,4.3,M*29
$HCHDG,241.4,0.0,E,,*2A
$IIRMB,A,,,,Shil,,,,,106.0,161,,V,A*2A
$HCHDG,241.6,0.0,E,,*28
$GPRMC,154009.6,A,4921.22526,N,12316.84749,W,002.02,266.4,200913,017.3,E,A*2C
$PGRME,3.0,M,3.0,M,4.3,M*29
$IIRMC,154000,A,4921.225,N,12316.846,W,02.2,259,200913,17,E,A*19
$HCHDG,241.5,0.0,E,,*2B
$HCHDG,241.5,0.0,E,,*2B
$GPRMC,154009.8,A,4921.22528,N,12316.84764,W,002.16,264.8,200913,017.3,E,A*28
$PGRME,3.0,M,3.0,M,4.3,M*29
$YXXDR,A,5.6,D,PTCH,A,4.0,D,ROLL*5A
$HCHDG,241.5,0.0,E,,*2B
$HCHDG,241.6,0.0,E,,*28
$PTAK,FFP1,HEEL,@*07
$GPRMC,154010.0,A,4921.22530,N,12316.84783,W,002.14,267.9,200913,017.3,E,A*28
$PGRME,3.0,M,3.0,M,4.3,M*29
$HCHDG,241.6,0.0,E,,*28
$IIVHW,,,,,02.3,N,,*18
$IIVLW,06312,N,000.0,N*55
$HCHDG,241.6,0.0,E,,*28
$IIVWR,105,R,02.6,N,,,,*61
$GPRMC,154010.2,A,4921.22530,N,12316.84801,W,002.10,266.5,200913,017.3,E,A*26
$GPRMB,A,-35.22,L,,Shil,4741.0830,N,12224.5670,W,106.0,161,-0.58,V*00
$PGRME,3.0,M,3.0,M,4.3,M*29
$HCHDG,241.8,0.0,E,,*26
$IIGLL,4921.225,N,12316.847,W,154000,A,A*45
$IIMTW,+12.0,C*3B
$YXXDR,A,6.2,D,PTCH,A,3.5,D,ROLL*5F
$PTAK,FFD1,3.5*53
$IIMWV,105,R,02.6,N,A*13
$HCHDG,241.8,0.0,E,,*26
$GPRMC,154010.4,A,4921.22528,N,12316.84829,W,002.02,264.9,200913,017.3,E,A*2E
$PGRME,3.0,M,3.0,M,4.3,M*29
$IIMWV,143,T,03.6,N,A*16
$HCHDG,241.6,0.0,E,,*28
$IIRMB,A,,,,Shil,,,,,106.0,161,,V,A*2A
$HCHDG,241.9,0.0,E,,*27
$GPRMC,154010.6,A,4921.22526,N,12316.84844,W,002.19,261.1,200913,017.3,E,A*2E
$PGRME,3.0,M,3.0,M,4.3,M*29
$HCHDG,241.8,0.0,E,,*26
$HCHDG,241.8,0.0,E,,*26
$GPRMC,154010.8,A,4921.22524,N,12316.84854,W,002.17,256.7,200913,017.3,E,A*2F
$PGRME,3.0,M,3.0,M,4.3,M*29
$YXXDR,A,6.0,D,PTCH,A,4.7,D,ROLL*58
$HCHDG,241.6,0.0,E,,*28
$HCHDG,241.4,0.0,E,,*2A
$GPRMC,154011.0,A,4921.22524,N,12316.84868,W,002.15,260.1,200913,017.3,E,A*28
$PGRME,3.0,M,3.0,M,4.3,M*29
$HCHDG,241.6,0.0,E,,*28
$HCHDG,241.5,0.0,E,,*2B
$IIRMC,154000,A,4921.225,N,12316.847,W,02.1,267,200913,17,E,A*16
$GPRMC,154011.2,A,4921.22518,N,12316.84884,W,002.15,261.8,200913,017.3,E,A*2F
$PGRME,3.0,M,3.0,M,4.3,M*29
$IIVHW,,,,,02.3,N,,*18
$HCHDG,241.5,0.0,E,,*2B
$IIVLW,06312,N,000.0,N*55
$IIVWR,111,R,02.5,N,,,,*67
$YXXDR,A,5.8,D,PTCH,A,4.3,D,ROLL*57
$GPRMC,154011.4,A,4921.22516,N,12316.84900,W,002.28,262.3,200913,017.3,E,A*2C
$GPRMB,A,-35.22,L,,Shil,4741.0830,N,12224.5670,W,106.0,161,-0.46,V*0F
$HCHDG,241.5,0.0,E,,*2B
$PGRME,3.0,M,3.0,M,4.3,M*29
$IIGLL,4921.225,N,12316.847,W,154000,A,A*45
$HCHDG,241.6,0.0,E,,*28
$IIMTW,+12.0,C*3B
$IIMWV,111,R,02.5,N,A*15
$HCHDG,241.8,0.0,E,,*26
$IIMWV,140,T,03.9,N,A*1A
$GPRMC,154011.6,A,4921.22511,N,12316.84913,W,002.09,267.0,200913,017.3,E,A*2E
$PGRME,3.0,M,3.0,M,4.3,M*29
$HCHDG,241.6,0.0,E,,*28
$HCHDG,241.7,0.0,E,,*29
$GPRMC,154011.8,A,4921.22512,N,12316.84931,W,002.15,264.8,200913,017.3,E,A*25
$PGRME,3.0,M,3.0,M,4.3,M*29
$YXXDR,A,6.0,D,PTCH,A,3.2,D,ROLL*5A
$PTAK,FFD1,3.2*54
$HCHDG,241.6,0.0,E,,*28
$HCHDG,241.6,0.0,E,,*28
$GPRMC,154012.0,A,4921.22513,N,12316.84944,W,002.07,263.9,200913,017.3,E,A*28
$PGRME,3.0,M,3.0,M,4.3,M*29
$HCHDG,241.6,0.0,E,,*28
$IIRMB,A,,,,Shil,,,,,106.0,161,,V,A*2A
$HCHDG,241.4,0.0,E,,*2A
$GPRMC,154012.2,A,4921.22511,N,12316.84956,W,002.16,264.9,200913,017.3,E,A*2C
$PGRME,3.0,M,3.0,M,4.3,M*29
$IIRMC,154000,A,4921.225,N,12316.848,W,02.1,260,200913,17,E,A*1E
$HCHDG,241.4,0.0,E,,*2A
$IIVHW,,,,,02.3,N,,*18
$YXXDR,A,6.0,D,PTCH,A,3.8,D,ROLL*50
$IIVLW,06312,N,000.0,N*55
$HCHDG,241.4,0.0,E,,*2A
$GPRMC,154012.4,A,4921.22505,N,12316.84985,W,002.17,264.5,200913,017.3,E,A*2C
$GPRMB,A,-35.22,L,,Shil,4741.0830,N,12224.5670,W,106.0,161,-0.52,V*0A
$PGRME,3.0,M,3.0,M,4.3,M*29
$IIVWR,111,R,02.5,N,,,,*67
$HCHDG,241.4,0.0,E,,*2A
$IIGLL,4921.225,N,12316.848,W,154000,A,A*4A
$IIMTW,+12.0,C*3B
$HCHDG,241.3,0.0,E,,*2D
$GPRMC,154012.6,A,4921.22501,N,12316.85006,W,002.23,264.4,200913,017.3,E,A*2F
$IIMWV,111,R,02.5,N,A*15
$PGRME,3.0,M,3.0,M,4.3,M*29
$HCHDG,241.4,0.0,E,,*2A
$HCHDG,241.2,0.0,E,,*2C
$GPRMC,154012.8,A,4921.22495,N,12316.85028,W,002.22,265.6,200913,017.3,E,A*23
$PGRME,3.0,M,3.0,M,4.3,M*29
$YXXDR,A,6.2,D,PTCH,A,3.8,D,ROLL*52
$PTAK,FFD1,3.8*5E
$HCHDG,241.2,0.0,E,,*2C
$HCHDG,241.3,0.0,E,,*2D
$GPRMC,154013.0,A,4921.22489,N,12316.85055,W,002.11,267.3,200913,017.3,E,A*2A
$PGRME,3.0,M,3.0,M,4.3,M*29
$HCHDG,241.2,0.0,E,,*2C
$IIMWV,145,T,04.0,N,A*11
$HCHDG,241.1,0.0,E,,*2F
$IIRMB,A,,,,Shil,,,,,106.0,161,,V,A*2A
$GPRMC,154013.2,A,4921.22485,N,12316.85067,W,002.03,266.0,200913,017.3,E,A*24
$PGRME,3.0,M,3.0,M,4.3,M*29
$HCHDG,240.9,0.0,E,,*26
$IIRMC,154000,A,4921.225,N,12316.849,W,02.0,263,200913,17,E,A*1D
$YXXDR,A,6.0,D,PTCH,A,4.3,D,ROLL*5C
$IIVHW,,,,,02.3,N,,*18
$HCHDG,240.8,0.0,E,,*27
$GPRMC,154013.4,A,4921.22488,N,12316.85074,W,002.24,259.7,200913,017.3,E,A*23
$PGRME,3.0,M,3.0,M,4.3,M*29
$IIVLW,06312,N,000.0,N*55
$HCHDG,240.5,0.0,E,,*2A
$IIVWR,105,R,02.4,N,,,,*63
$HCHDG,240.4,0.0,E,,*2B
$IIGLL,4921.225,N,12316.849,W,154000,A,A*4B
$GPRMC,154013.6,A,4921.22491,N,12316.85089,W,002.14,263.1,200913,017.3,E,A*27
$IIMTW,+12.0,C*3B
$PGRME,3.0,M,3.0,M,4.3,M*29
$HCHDG,240.7,0.0,E,,*28
$HCHDG,240.6,0.0,E,,*29
$GPRMC,154013.8,A,4921.22489,N,12316.85100,W,002.14,262.9,200913,017.3,E,A*29
$GPRMB,A,-35.22,L,,Shil,4741.0830,N,12224.5670,W,106.0,161,-0.46,V*0F
$PGRME,3.0,M,3.0,M,4.3,M*29
$YXXDR,A,6.0,D,PTCH,A,4.8,D,ROLL*57
$PTAK,FFP1,HEEL,@*07
$HCHDG,240.5,0.0,E,,*2A
$HCHDG,240.3,0.0,E,,*2C
$GPRMC,154014.0,A,4921.22494,N,12316.85119,W,002.21,262.5,200913,017.3,E,A*28
$PGRME,3.0,M,3.0,M,4.3,M*29
$HCHDG,240.5,0.0,E,,*2A
$IIMWV,106,R,02.4,N,A*12
$IIMWV,142,T,03.7,N,A*16
$HCHDG,240.5,0.0,E,,*2A
$GPRMC,154014.2,A,4921.22497,N,12316.85136,W,002.12,266.8,200913,017.3,E,A*2D
$PGRME,3.0,M,3.0,M,4.3,M*29
$IIRMB,A,,,,Shil,,,,,106.0,161,,V,A*2A
$HCHDG,240.7,0.0,E,,*28
$YXXDR,A,6.0,D,PTCH,A,3.8,D,ROLL*50
$PTAK,FFD1,3.8*5E
$IIRMC,154000,A,4921.224,N,12316.850,W,02.1,267,200913,17,E,A*11
$HCHDG,240.6,0.0,E,,*29
$GPRMC,154014.4,A,4921.22486,N,12316.85173,W,002.07,266.2,200913,017.3,E,A*24
$PGRME,3.0,M,3.0,M,4.3,M*29
$IIVHW,,,,,02.3,N,,*18
$HCHDG,240.7,0.0,E,,*28
$IIVLW,06312,N,000.0,N*55
$IIVWR,106,R,02.4,N,,,,*60
$HCHDG,240.4,0.0,E,,*2B
$GPRMC,154014.6,A,4921.22481,N,12316.85190,W,002.14,263.8,200913,017.3,E,A*21
$PGRME,3.0,M,3.0,M,4.3,M*29
$IIGLL,4921.224,N,12316.850,W,154000,A,A*42
$HCHDG,240.3,0.0,E,,*2C
$HCHDG,240.0,0.0,E,,*2F
$GPRMC,154014.8,A,4921.22479,N,12316.85204,W,002.06,262.7,200913,017.3,E,A*2B
$PGRME,3.0,M,3.0,M,4.3,M*29
$YXXDR,A,5.9,D,PTCH,A,4.6,D,ROLL*53
$HCHDG,240.0,0.0,E,,*2F
$HCHDG,240.0,0.0,E,,*2F
$GPRMC,154015.0,A,4921.22480,N,12316.85231,W,002.18,261.8,200913,017.3,E,A*21
$GPRMB,A,-35.22,L,,Shil,4741.0830,N,12224.5670,W,106.0,161,-0.42,V*0B
$PGRME,3.0,M,3.0,M,4.3,M*29
$HCHDG,239.8,0.0,E,,*29
$IIMTW,+12.0,C*3B
$IIMWV,109,R,02.4,N,A*1D
$HCHDG,239.6,0.0,E,,*27
$IIMWV,142,T,03.7,N,A*16
$GPRMC,154015.2,A,4921.22476,N,12316.85262,W,002.08,267.1,200913,017.3,E,A*22
$PGRME,3.0,M,3.0,M,4.3,M*29
$IIRMB,A,,,,Shil,,,,,106.0,161,,V,A*2A
$HCHDG,239.5,0.0,E,,*24
$YXXDR,A,6.0,D,PTCH,A,4.9,D,ROLL*56
$PTAK,FFD1,4.9*58
$HCHDG,239.7,0.0,E,,*26
$GPRMC,154015.4,A,4921.22472,N,12316.85289,W,002.20,265.3,200913,017.3,E,A*2F
$IIRMC,154000,A,4921.224,N,12316.851,W,02.2,262,200913,17,E,A*16
$PGRME,3.0,M,3.0,M,4.3,M*29
$IIVHW,,,,,02.3,N,,*18
$HCHDG,239.7,0.0,E,,*26
$IIVLW,06312,N,000.0,N*55
$IIVWR,109,R,02.4,N,,,,*6F
$HCHDG,239.4,0.0,E,,*25
$GPRMC,154015.6,A,4921.22473,N,12316.85309,W,002.19,264.5,200913,017.3,E,A*28
$PGRME,3.0,M,3.0,M,4.3,M*29
$HCHDG,239.6,0.0,E,,*27
$HCHDG,239.6,0.0,E,,*27
$GPRMC,154015.8,A,4921.22481,N,12316.85316,W,002.08,267.2,200913,017.3,E,A*21
$PGRME,3.0,M,3.0,M,4.3,M*29
$YXXDR,A,6.1,D,PTCH,A,4.1,D,ROLL*5F
$HCHDG,239.7,0.0,E,,*26
$HCHDG,239.6,0.0,E,,*27
$GPRMC,154016.0,A,4921.22482,N,12316.85338,W,002.16,261.0,200913,017.3,E,A*2E
$PGRME,3.0,M,3.0,M,4.3,M*29
$HCHDG,239.4,0.0,E,,*25
$HCHDG,239.2,0.0,E,,*23
$GPRMC,154016.2,A,4921.22475,N,12316.85368,W,001.92,262.6,200913,017.3,E,A*2B
$GPRMB,A,-35.22,L,,Shil,4741.0830,N,12224.5670,W,106.0,161,-0.40,V*09
$PGRME,3.0,M,3.0,M,4.3,M*29
$HCHDG,238.9,0.0,E,,*29
$YXXDR,A,6.2,D,PTCH,A,6.0,D,ROLL*5F
$PTAK,FFD1,6.0*53
$HCHDG,238.9,0.0,E,,*29
$GPRMC,154016.4,A,4921.22472,N,12316.85395,W,002.13,256.4,200913,017.3,E,A*27
$PGRME,3.0,M,3.0,M,4.3,M*29
$HCHDG,238.9,0.0,E,,*29
$HCHDG,238.8,0.0,E,,*28
$GPRMC,154016.6,A,4921.22481,N,12316.85413,W,002.16,254.4,200913,017.3,E,A*27
$PGRME,3.0,M,3.0,M,4.3,M*29
$HCHDG,238.7,0.0,E,,*27
$HCHDG,238.9,0.0,E,,*29
$GPRMC,154016.8,A,4921.22474,N,12316.85424,W,002.14,258.7,200913,017.3,E,A*2A
$PGRME,3.0,M,3.0,M,4.3,M*29
$YXXDR,A,6.1,D,PTCH,A,5.5,D,ROLL*5A
$HCHDG,238.8,0.0,E,,*28
$HCHDG,238.9,0.0,E,,*29
$GPRMC,154017.0,A,4921.22471,N,12316.85453,W,002.08,259.3,200913,017.3,E,A*2E
$PGRME,3.0,M,3.0,M,4.3,M*29
$HCHDG,238.9,0.0,E,,*29
$IIGLL,4921.224,N,12316.852,W,154000,A,A*40
$IIMTW,+12.0,C*3B
$HCHDG,238.9,0.0,E,,*29
$GPRMC,154017.2,A,4921.22467,N,12316.85475,W,002.10,257.4,200913,017.3,E,A*2F
$GPRMB,A,-35.22,L,,Shil,4741.0830,N,12224.5670,W,106.0,161,-0.25,V*0A
$PGRME,3.0,M,3.0,M,4.3,M*29
$IIMWV,108,R,02.1,N,A*19
$HCHDG,239.2,0.0,E,,*23
$IIMWV,145,T,03.8,N,A*1E
$YXXDR,A,6.2,D,PTCH,A,3.6,D,ROLL*5C
$PTAK,FFD1,3.6*50
$IIRMB,A,,,,Shil,,,,,106.0,161,,V,A*2A
$HCHDG,239.2,0.0,E,,*23
$GPRMC,154017.4,A,4921.22466,N,12316.85488,W,002.01,264.2,200913,017.3,E,A*2C
$PGRME,3.0,M,3.0,M,4.3,M*29
$HCHDG,239.2,0.0,E,,*23
$IIRMC,154000,A,4921.224,N,12316.852,W,02.1,261,200913,17,E,A*15
$IIVHW,,,,,02.4,N,,*1F
$HCHDG,239.3,0.0,E,,*22
$IIVLW,06312,N,000.0,N*55
$GPRMC,154017.6,A,4921.22466,N,12316.85501,W,002.09,262.7,200913,017.3,E,A*25
$PGRME,3.0,M,3.0,M,4.3,M*29
$HCHDG,239.2,0.0,E,,*23
$PTAK,FFP1,HEEL,@*07
$HCHDG,239.5,0.0,E,,*24
$GPRMC,154017.8,A,4921.22464,N,12316.85513,W,002.15,258.7,200913,017.3,E,A*2E
$PGRME,3.0,M,3.0,M,4.3,M*29
$YXXDR,A,6.1,D,PTCH,A,4.1,D,ROLL*5F
$HCHDG,239.4,0.0,E,,*25
$HCHDG,239.3,0.0,E,,*22
$GPRMC,154018.0,A,4921.22462,N,12316.85534,W,002.06,262.4,200913,017.3,E,A*22
$PGRME,3.0,M,3.0,M,4.3,M*29
$HCHDG,239.3,0.0,E,,*22
$IIVWR,110,R,02.2,N,,,,*61
$IIDPT,039.1,-1.0,*4B
$HCHDG,239.3,0.0,E,,*22
$GPRMC,154018.2,A,4921.22460,N,12316.85555,W,002.11,259.7,200913,017.3,E,A*28
$PGRME,3.0,M,3.0,M,4.3,M*29
$IIGLL,4921.224,N,12316.854,W,154000,A,A*46
$HCHDG,239.3,0.0,E,,*22
$IIMTW,+12.0,C*3B
$IIMWV,110,R,02.2,N,A*13
$YXXDR,A,6.2,D,PTCH,A,4.4,D,ROLL*59
$IIMWV,148,T,03.7,N,A*1C
$HCHDG,239.4,0.0,E,,*25
$GPRMC,154018.4,A,4921.22461,N,12316.85573,W,002.05,260.6,200913,017.3,E,A*25
$GPRMB,A,-35.22,L,,Shil,4741.0830,N,12224.5670,W,106.0,161,-0.36,V*08
$PGRME,3.0,M,3.0,M,4.3,M*29
$HCHDG,239.3,0.0,E,,*22
$IIRMB,A,,,,Shil,,,,,106.0,161,,V,A*2A
$HCHDG,239.2,0.0,E,,*23
$GPRMC,154018.6,A,4921.22457,N,12316.85593,W,002.01,260.9,200913,017.3,E,A*27
$IIRMC,154000,A,4921.224,N,12316.854,W,02.0,259,200913,17,E,A*19
$PGRME,3.0,M,3.0,M,4.3,M*29
$HCHDG,239.2,0.0,E,,*23
$HCHDG,239.2,0.0,E,,*23
$GPRMC,154018.8,A,4921.22463,N,12316.85611,W,001.91,265.9,200913,017.3,E,A*28
$PGRME,3.0,M,3.0,M,4.3,M*29
$YXXDR,A,5.9,D,PTCH,A,4.3,D,ROLL*56
$PTAK,FFD1,4.3*52
$HCHDG,239.2,0.0,E,,*23
$HCHDG,239.2,0.0,E,,*23
$GPRMC,154019.0,A,4921.22464,N,12316.85640,W,002.15,259.2,200913,017.3,E,A*29
$PGRME,3.0,M,3.0,M,4.3,M*29
$HCHDG,239.2,0.0,E,,*23
$IIVHW,,,,,02.3,N,,*18
$IIVLW,06312,N,000.0,N*55
$HCHDG,239.3,0.0,E,,*22
$IIVWR,108,R,02.1,N,,,,*6B
$GPRMC,154019.2,A,4921.22464,N,12316.85679,W,002.01,265.6,200913,017.3,E,A*2F
$PGRME,3.0,M,3.0,M,4.3,M*29
$IIDPT,040.1,-1.0,*45
$HCHDG,239.5,0.0,E,,*24
$IIGLL,4921.224,N,12316.855,W,154000,A,A*47
$YXXDR,A,6.0,D,PTCH,A,4.2,D,ROLL*5D
$IIMTW,+12.5,C*3E
$HCHDG,239.5,0.0,E,,*24
$GPRMC,154019.4,A,4921.22462,N,12316.85701,W,002.17,259.0,200913,017.3,E,A*2F
$GPRMB,A,-35.23,L,,Shil,4741.0830,N,12224.5670,W,106.0,161,-0.32,V*0D
$PGRME,3.0,M,3.0,M,4.3,M*29
$IIMWV,108,R,02.1,N,A*19
$HCHDG,239.6,0.0,E,,*27
$IIMWV,147,T,03.6,N,A*12
$HCHDG,239.4,0.0,E,,*25
$IIRMB,A,,,,Shil,,,,,106.0,161,,V,A*2A
$GPRMC,154019.6,A,4921.22465,N,12316.85730,W,002.09,263.7,200913,017.3,E,A*29
$PGRME,3.0,M,3.0,M,4.3,M*29
$HCHDG,239.3,0.0,E,,*22
$HCHDG,239.3,0.0,E,,*22
$GPRMC,154019.8,A,4921.22465,N,12316.85750,W,002.04,263.1,200913,017.3,E,A*2A
$PGRME,3.0,M,3.0,M,4.3,M*29
$YXXDR,A,6.1,D,PTCH,A,4.5,D,ROLL*5B
$PTAK,FFD1,4.5*54
$HCHDG,239.2,0.0,E,,*23
$HCHDG,239.2,0.0,E,,*23
$GPRMC,154020.0,A,4921.22468,N,12316.85773,W,001.99,263.7,200913,017.3,E,A*25
$PGRME,3.0,M,3.0,M,4.3,M*29
$HCHDG,239.2,0.0,E,,*23
$HCHDG,239.0,0.0,E,,*21
$IIRMC,154000,A,4921.224,N,12316.856,W,02.1,259,200913,17,E,A*1A
$GPRMC,154020.2,A,4921.22467,N,12316.85791,W,002.03,260.7,200913,017.3,E,A*27
$PGRME,3.0,M,3.0,M,4.3,M*29
$IIVHW,,,,,02.3,N,,*18
$HCHDG,239.2,0.0,E,,*23
$IIVLW,06312,N,000.0,N*55
$IIVWR,107,R,02.2,N,,,,*67
$YXXDR,A,6.0,D,PTCH,A,4.9,D,ROLL*56
$IIDPT,040.1,-1.0,*45
$HCHDG,239.2,0.0,E,,*23
$GPRMC,154020.4,A,4921.22468,N,12316.85809,W,002.09,259.9,200913,017.3,E,A*2E
$PGRME,3.0,M,3.0,M,4.3,M*29
$HCHDG,239.0,0.0,E,,*21
$IIGLL,4921.224,N,12316.856,W,154000,A,A*44
$IIMTW,+12.5,C*3E
$HCHDG,239.0,0.0,E,,*21
$IIMWV,107,R,02.2,N,A*15
$GPRMC,154020.6,A,4921.22468,N,12316.85828,W,001.93,264.1,200913,017.3,E,A*29
$GPRMB,A,-35.23,L,,Shil,4741.0830,N,12224.5670,W,106.0,161,-0.45,V*0D
$PGRME,3.0,M,3.0,M,4.3,M*29
$IIMWV,148,T,03.5,N,A*1E
$HCHDG,238.9,0.0,E,,*29
$HCHDG,239.0,0.0,E,,*21
$GPRMC,154020.8,A,4921.22468,N,12316.85842,W,002.12,257.6,200913,017.3,E,A*26
$PGRME,3.0,M,3.0,M,4.3,M*29
$YXXDR,A,6.0,D,PTCH,A,4.7,D,ROLL*58
$PTAK,FFD1,4.7*56
$HCHDG,238.8,0.0,E,,*28
$HCHDG,238.8,0.0,E,,*28
$GPRMC,154021.0,A,4921.22468,N,12316.85856,W,002.06,260.4,200913,017.3,E,A*29
$PGRME,3.0,M,3.0,M,4.3,M*29
$HCHDG,238.8,0.0,E,,*28
$IIRMB,A,,,,Shil,,,,,106.0,161,,V,A*2A
$HCHDG,239.0,0.0,E,,*21
$GPRMC,154021.2,A,4921.22462,N,12316.85875,W,002.01,260.8,200913,017.3,E,A*2B
$PGRME,3.0,M,3.0,M,4.3,M*29
$IIRMC,154000,A,4921.224,N,12316.857,W,01.9,263,200913,17,E,A*19
$HCHDG,239.0,0.0,E,,*21
$IIVHW,,,,,02.3,N,,*18
$YXXDR,A,6.1,D,PTCH,A,4.1,D,ROLL*5F
$IIVLW,06312,N,000.0,N*55
$HCHDG,239.1,0.0,E,,*20
$GPRMC,154021.4,A,4921.22470,N,12316.85880,W,001.96,265.1,200913,017.3,E,A*25
$PGRME,3.0,M,3.0,M,4.3,M*29
$IIVWR,109,R,02.0,N,,,,*6B
$HCHDG,239.1,0.0,E,,*20
$IIDPT,039.7,-1.0,*4D
$IIGLL,4921.224,N,12316.857,W,154000,A,A*45
$HCHDG,239.0,0.0,E,,*21
$GPRMC,154021.6,A,4921.22469,N,12316.85895,W,002.02,258.7,200913,017.3,E,A*2D
$GPRMB,A,-35.23,L,,Shil,4741.0830,N,12224.5670,W,106.0,161,-0.28,V*06
$IIMTW,+12.5,C*3E
$PGRME,3.0,M,3.0,M,4.3,M*29
$IIMWV,109,R,02.0,N,A*19
$HCHDG,238.8,0.0,E,,*28
$HCHDG,239.0,0.0,E,,*21
$GPRMC,154021.8,A,4921.22469,N,12316.85914,W,002.15,257.3,200913,017.3,E,A*26
$PGRME,3.0,M,3.0,M,4.3,M*29
$YXXDR,A,6.1,D,PTCH,A,4.5,D,ROLL*5B
$PTAK,FFD1,4.5*54
$HCHDG,239.0,0.0,E,,*21
$HCHDG,239.0,0.0,E,,*21
$GPRMC,154022.0,A,4921.22473,N,12316.85921,W,002.04,260.0,200913,017.3,E,A*27
$PGRME,3.0,M,3.0,M,4.3,M*29
$HCHDG,239.0,0.0,E,,*21
$PTAK,FFP1,HEEL,@*07
$IIMWV,148,T,03.5,N,A*1E
$HCHDG,239.0,0.0,E,,*21
$IIRMB,A,,,,Shil,,,,,106.0,161,,V,A*2A
$GPRMC,154022.2,A,4921.22481,N,12316.85931,W,001.97,262.4,200913,017.3,E,A*26
$PGRME,3.0,M,3.0,M,4.3,M*29
$HCHDG,239.0,0.0,E,,*21
$IIRMC,154000,A,4921.224,N,12316.858,W,02.0,260,200913,17,E,A*1F
$YXXDR,A,5.9,D,PTCH,A,4.3,D,ROLL*56
$IIVHW,,,,,02.3,N,,*18
$HCHDG,239.1,0.0,E,,*20
$GPRMC,154022.4,A,4921.22481,N,12316.85944,W,002.10,260.3,200913,017.3,E,A*2B
$GPRMB,A,-35.23,L,,Shil,4741.0830,N,12224.5670,W,106.0,161,-0.35,V*0A
$PGRME,3.0,M,3.0,M,4.3,M*29
$IIVLW,06312,N,000.0,N*55
$HCHDG,239.1,0.0,E,,*20
$IIVWR,109,R,02.1,N,,,,*6A
$IIDPT,040.1,-1.0,*45
$HCHDG,239.0,0.0,E,,*21
$GPRMC,154022.6,A,4921.22489,N,12316.85957,W,001.96,264.8,200913,017.3,E,A*21
$PGRME,3.0,M,3.0,M,4.3,M*29
$IIGLL,4921.224,N,12316.858,W,154000,A,A*4A
$IIMTW,+12.5,C*3E
$HCHDG,239.0,0.0,E,,*21
$HCHDG,239.0,0.0,E,,*21
$GPRMC,154022.8,A,4921.22486,N,12316.85978,W,002.01,263.1,200913,017.3,E,A*2E
$PGRME,3.0,M,3.0,M,4.3,M*29
$YXXDR,A,6.0,D,PTCH,A,3.7,D,ROLL*5F
$PTAK,FFD1,3.7*51
$HCHDG,239.1,0.0,E,,*20
$HCHDG,239.1,0.0,E,,*20
$GPRMC,154023.0,A,4921.22487,N,12316.86001,W,001.92,263.6,200913,017.3,E,A*2C
$PGRME,3.0,M,3.0,M,4.3,M*29
$HCHDG,239.1,0.0,E,,*20
$IIMWV,107,R,02.0,N,A*17
$IIMWV,148,T,03.5,N,A*1E
$HCHDG,239.0,0.0,E,,*21
$GPRMC,154023.2,A,4921.22486,N,12316.86023,W,002.05,256.7,200913,017.3,E,A*25
$PGRME,3.0,M,3.0,M,4.3,M*29
$IIRMB,A,,,,Shil,,,,,106.0,161,,V,A*2A
$HCHDG,239.0,0.0,E,,*21
$YXXDR,A,5.9,D,PTCH,A,4.3,D,ROLL*56
$IIRMC,154000,A,4921.224,N,12316.859,W,02.0,260,200913,17,E,A*1E
$HCHDG,238.8,0.0,E,,*28
$GPRMC,154023.4,A,4921.22485,N,12316.86036,W,002.01,257.5,200913,017.3,E,A*23
$PGRME,3.0,M,3.0,M,4.3,M*29
$IIVHW,,,,,02.3,N,,*18
$HCHDG,238.7,0.0,E,,*27
$IIVLW,06312,N,000.0,N*55
$IIVWR,107,R,02.0,N,,,,*65
$HCHDG,238.5,0.0,E,,*25
$IIDPT,039.9,-1.0,*43
$GPRMC,154023.6,A,4921.22488,N,12316.86050,W,001.90,260.6,200913,017.3,E,A*20
$PGRME,3.0,M,3.0,M,4.3,M*29
$HCHDG,238.6,0.0,E,,*26
$HCHDG,238.6,0.0,E,,*26
$GPRMC,154023.8,A,4921.22483,N,12316.86067,W,002.10,253.7,200913,017.3,E,A*2B
$GPRMB,A,-35.23,L,,Shil,4741.0830,N,12224.5670,W,106.0,161,-0.11,V*0C
$PGRME,3.0,M,3.0,M,4.3,M*29
$YXXDR,A,5.7,D,PTCH,A,4.1,D,ROLL*5A
$HCHDG,238.7,0.0,E,,*27
$HCHDG,238.7,0.0,E,,*27
$GPRMC,154024.0,A,4921.22480,N,12316.86094,W,002.07,258.1,200913,017.3,E,A*20
$PGRME,3.0,M,3.0,M,4.3,M*29
$HCHDG,238.9,0.0,E,,*29
$IIGLL,4921.224,N,12316.860,W,154000,A,A*41
$HCHDG,239.1,0.0,E,,*20
$IIMTW,+12.5,C*3E
$GPRMC,154024.2,A,4921.22474,N,12316.86120,W,002.02,262.5,200913,017.3,E,A*2F
$PGRME,3.0,M,3.0,M,4.3,M*29
$IIMWV,109,R,02.1,N,A*18
$HCHDG,239.3,0.0,E,,*22
$IIMWV,147,T,03.4,N,A*10
$YXXDR,A,6.1,D,PTCH,A,3.1,D,ROLL*58
$PTAK,FFD1,3.1*57
$IIRMB,A,,,,Shil,,,,,106.0,161,,V,A*2A
$HCHDG,239.4,0.0,E,,*25
$GPRMC,154024.4,A,4921.22465,N,12316.86140,W,002.06,261.6,200913,017.3,E,A*2B
$PGRME,3.0,M,3.0,M,4.3,M*29
$HCHDG,239.6,0.0,E,,*27
$IIRMC,154000,A,4921.224,N,12316.860,W,01.9,263,200913,17,E,A*1D
$IIVHW,,,,,02.3,N,,*18
$HCHDG,239.6,0.0,E,,*27
$GPRMC,154024.6,A,4921.22469,N,12316.86156,W,001.93,264.3,200913,017.3,E,A*2D
$IIVLW,06312,N,000.0,N*55
$PGRME,3.0,M,3.0,M,4.3,M*29
$HCHDG,239.6,0.0,E,,*27
$HCHDG,239.6,0.0,E,,*27
$GPRMC,154024.8,A,4921.22469,N,12316.86171,W,002.06,259.3,200913,017.3,E,A*27
$GPRMB,A,-35.23,L,,Shil,4741.0830,N,12224.5670,W,106.0,161,-0.31,V*0E
$PGRME,3.0,M,3.0,M,4.3,M*29
$YXXDR,A,6.3,D,PTCH,A,3.3,D,ROLL*58
$HCHDG,239.5,0.0,E,,*24
$HCHDG,239.4,0.0,E,,*25
$GPRMC,154025.0,A,4921.22460,N,12316.86188,W,002.06,261.5,200913,017.3,E,A*2C
$PGRME,3.0,M,3.0,M,4.3,M*29
$HCHDG,239.3,0.0,E,,*22
$IIVWR,108,R,02.0,N,,,,*6A
$IIDPT,040.6,-1.0,*42
$HCHDG,239.3,0.0,E,,*22
$GPRMC,154025.2,A,4921.22456,N,12316.86203,W,001.95,266.2,200913,017.3,E,A*22
$PGRME,3.0,M,3.0,M,4.3,M*29
$IIGLL,4921.224,N,12316.861,W,154000,A,A*40
$HCHDG,239.2,0.0,E,,*23
$IIMTW,+12.5,C*3E
$IIMWV,108,R,02.0,N,A*18
$YXXDR,A,5.9,D,PTCH,A,3.7,D,ROLL*55
$PTAK,FFD1,3.7*51
$IIMWV,147,T,03.4,N,A*10
$HCHDG,239.0,0.0,E,,*21
$GPRMC,154025.4,A,4921.22455,N,12316.86216,W,002.09,262.1,200913,017.3,E,A*22
$PGRME,3.0,M,3.0,M,4.3,M*29
$IIRMB,A,,,,Shil,,,,,106.0,161,,V,A*2A
$HCHDG,239.0,0.0,E,,*21
$HCHDG,239.0,0.0,E,,*21
$IIRMC,154000,A,4921.224,N,12316.861,W,02.0,262,200913,17,E,A*17
$GPRMC,154025.6,A,4921.22456,N,12316.86233,W,002.00,262.0,200913,017.3,E,A*2C
$PGRME,3.0,M,3.0,M,4.3,M*29
$HCHDG,239.0,0.0,E,,*21
$HCHDG,239.0,0.0,E,,*21
$GPRMC,154025.8,A,4921.22451,N,12316.86257,W,001.86,268.9,200913,017.3,E,A*29
$PGRME,3.0,M,3.0,M,4.3,M*29
$YXXDR,A,6.0,D,PTCH,A,3.6,D,ROLL*5E
$HCHDG,238.9,0.0,E,,*29
$HCHDG,238.9,0.0,E,,*29
$GPRMC,154026.0,A,4921.22450,N,12316.86275,W,001.97,262.3,200913,017.3,E,A*23
$GPRMB,A,-35.23,L,,Shil,4741.0830,N,12224.5670,W,106.0,161,-0.40,V*08
$PGRME,3.0,M,3.0,M,4.3,M*29
$HCHDG,239.0,0.0,E,,*21
$PTAK,FFP1,HEEL,@*07
$IIVHW,,,,,02.2,N,,*19
$IIVLW,06312,N,000.0,N*55
$HCHDG,238.8,0.0,E,,*28
$IIVWR,108,R,01.9,N,,,,*60
$GPRMC,154026.2,A,4921.22444,N,12316.86292,W,001.97,264.3,200913,017.3,E,A*2B
$PGRME,3.0,M,3.0,M,4.3,M*29
$IIDPT,039.9,-1.0,*43
$HCHDG,238.8,0.0,E,,*28
$IIGLL,4921.224,N,12316.862,W,154000,A,A*43
$YXXDR,A,6.0,D,PTCH,A,3.8,D,ROLL*50
$PTAK,FFD1,3.8*5E
$IIMTW,+12.5,C*3E
$HCHDG,238.7,0.0,E,,*27
$GPRMC,154026.4,A,4921.22443,N,12316.86301,W,002.05,258.7,200913,017.3,E,A*22
$PGRME,3.0,M,3.0,M,4.3,M*29
$IIMWV,108,R,01.9,N,A*12
$HCHDG,238.6,0.0,E,,*26
$IIMWV,147,T,03.4,N,A*10
$HCHDG,238.6,0.0,E,,*26
$IIRMB,A,,,,Shil,,,,,106.0,161,,V,A*2A
$GPRMC,154026.6,A,4921.22450,N,12316.86305,W,002.02,261.9,200913,017.3,E,A*25
$PGRME,3.0,M,3.0,M,4.3,M*29
$HCHDG,238.7,0.0,E,,*27
$HCHDG,238.7,0.0,E,,*27
$GPRMC,154026.8,A,4921.22448,N,12316.86334,W,002.09,259.8,200913,017.3,E,A*21
$PGRME,3.0,M,3.0,M,4.3,M*29
$YXXDR,A,6.1,D,PTCH,A,4.0,D,ROLL*5E
$HCHDG,238.7,0.0,E,,*27
$HCHDG,238.7,0.0,E,,*27
$GPRMC,154027.0,A,4921.22439,N,12316.86362,W,002.06,265.3,200913,017.3,E,A*26
$GPRMB,A,-35.23,L,,Shil,4741.0830,N,12224.5670,W,106.0,161,-0.52,V*0B
$PGRME,3.0,M,3.0,M,4.3,M*29
$HCHDG,238.9,0.0,E,,*29
$HCHDG,238.8,0.0,E,,*28
$GPRMC,154027.2,A,4921.22441,N,12316.86378,W,002.08,264.0,200913,017.3,E,A*2C
$PGRME,3.0,M,3.0,M,4.3,M*29
$HCHDG,238.8,0.0,E,,*28
$YXXDR,A,6.3,D,PTCH,A,3.5,D,ROLL*5E
$HCHDG,238.8,0.0,E,,*28
$GPRMC,154027.4,A,4921.22437,N,12316.86391,W,002.02,265.3,200913,017.3,E,A*24
$PGRME,3.0,M,3.0,M,4.3,M*29
$HCHDG,238.7,0.0,E,,*27
$HCHDG,238.6,0.0,E,,*26
$GPRMC,154027.6,A,4921.22440,N,12316.86403,W,001.96,264.5,200913,017.3,E,A*23
$PGRME,3.0,M,3.0,M,4.3,M*29
$HCHDG,238.3,0.0,E,,*23
$HCHDG,238.2,0.0,E,,*22
$GPRMC,154027.8,A,4921.22440,N,12316.86411,W,001.97,260.5,200913,017.3,E,A*2B
$PGRME,3.0,M,3.0,M,4.3,M*29
$YXXDR,A,6.0,D,PTCH,A,4.2,D,ROLL*5D
$PTAK,FFD1,4.2*53
$HCHDG,237.8,0.0,E,,*27
$HCHDG,237.7,0.0,E,,*28
$GPRMC,154028.0,A,4921.22435,N,12316.86430,W,001.96,259.2,200913,017.3,E,A*21
$PGRME,3.0,M,3.0,M,4.3,M*29
$HCHDG,237.5,0.0,E,,*2A
$IIRMC,154000,A,4921.224,N,12316.862,W,01.9,264,200913,17,E,A*18
$HCHDG,237.5,0.0,E,,*2A
$GPRMC,154028.2,A,4921.22430,N,12316.86451,W,001.93,261.2,200913,017.3,E,A*2F
$GPRMB,A,-35.23,L,,Shil,4741.0830,N,12224.5670,W,106.0,161,-0.36,V*09
$PGRME,3.0,M,3.0,M,4.3,M*29
$IIVHW,,,,,02.2,N,,*19
$IIVLW,06312,N,000.0,N*55
$HCHDG,237.2,0.0,E,,*2D
$IIVWR,107,R,02.0,N,,,,*65
$YXXDR,A,5.8,D,PTCH,A,4.4,D,ROLL*50
$IIDPT,039.9,-1.0,*43
$HCHDG,237.2,0.0,E,,*2D
$GPRMC,154028.4,A,4921.22421,N,12316.86475,W,001.95,258.0,200913,017.3,E,A*21
$PGRME,3.0,M,3.0,M,4.3,M*29
$IIGLL,4921.224,N,12316.862,W,154000,A,A*43
$HCHDG,237.3,0.0,E,,*2C
$IIMTW,+12.5,C*3E
$IIMWV,107,R,02.0,N,A*17
$HCHDG,237.2,0.0,E,,*2D
$GPRMC,154028.6,A,4921.22415,N,12316.86486,W,001.96,260.5,200913,017.3,E,A*25
$PGRME,3.0,M,3.0,M,4.3,M*29
$IIMWV,147,T,03.3,N,A*17
$HCHDG,237.2,0.0,E,,*2D
$HCHDG,237.2,0.0,E,,*2D
$GPRMC,154028.8,A,4921.22417,N,12316.86494,W,001.98,258.1,200913,017.3,E,A*2B
$PGRME,3.0,M,3.0,M,4.3,M*29
$YXXDR,A,6.0,D,PTCH,A,3.8,D,ROLL*50
$PTAK,FFD1,3.8*5E
$HCHDG,237.3,0.0,E,,*2C
$HCHDG,237.2,0.0,E,,*2D
$GPRMC,154029.0,A,4921.22405,N,12316.86507,W,001.98,255.9,200913,017.3,E,A*2F
$PGRME,3.0,M,3.0,M,4.3,M*29
$HCHDG,237.0,0.0,E,,*2F
$IIRMB,A,,,,Shil,,,,,106.0,161,,V,A*2A
$HCHDG,237.0,0.0,E,,*2F
$GPRMC,154029.2,A,4921.22396,N,12316.86518,W,001.99,255.1,200913,017.3,E,A*27
$PGRME,3.0,M,3.0,M,4.3,M*29
$IIRMC,154000,A,4921.224,N,12316.864,W,01.9,261,200913,17,E,A*1B
$HCHDG,237.0,0.0,E,,*2F
$IIVHW,,,,,02.2,N,,*19
$YXXDR,A,6.0,D,PTCH,A,4.1,D,ROLL*5E
$IIVLW,06312,N,000.0,N*55
$HCHDG,236.9,0.0,E,,*27
$GPRMC,154029.4,A,4921.22392,N,12316.86530,W,001.98,256.6,200913,017.3,E,A*2A
$GPRMB,A,-35.23,L,,Shil,4741.0830,N,12224.5670,W,106.0,161,-0.21,V*0F
$PGRME,3.0,M,3.0,M,4.3,M*29
$IIVWR,110,R,02.0,N,,,,*63
$HCHDG,237.1,0.0,E,,*2E
$IIDPT,040.4,-1.0,*40
$IIGLL,4921.224,N,12316.864,W,154000,A,A*45
$HCHDG,237.2,0.0,E,,*2D
$IIMTW,+12.5,C*3E
$GPRMC,154029.6,A,4921.22387,N,12316.86549,W,001.97,262.1,200913,017.3,E,A*2D
$PGRME,3.0,M,3.0,M,4.3,M*29
$IIMWV,110,R,02.0,N,A*11
$HCHDG,237.2,0.0,E,,*2D
$HCHDG,237.4,0.0,E,,*2B
$GPRMC,154029.8,A,4921.22388,N,12316.86562,W,002.00,260.8,200913,017.3,E,A*23
$PGRME,3.0,M,3.0,M,4.3,M*29
$YXXDR,A,5.9,D,PTCH,A,2.6,D,ROLL*55
$PTAK,FFD1,2.6*51
$HCHDG,237.5,0.0,E,,*2A
$HCHDG,237.4,0.0,E,,*2B
$GPRMC,154030.0,A,4921.22390,N,12316.86577,W,001.99,261.7,200913,017.3,E,A*23
$PGRME,3.0,M,3.0,M,4.3,M*29
$HCHDG,237.4,0.0,E,,*2B
$IIMWV,147,T,03.3,N,A*17
$IIRMB,A,,,,Shil,,,,,106.0,161,,V,A*2A
$HCHDG,237.3,0.0,E,,*2C
$GPRMC,154030.2,A,4921.22385,N,12316.86599,W,001.83,264.2,200913,017.3,E,A*2E
$PTAK,FFP1,HEEL,@*07
$PGRME,3.0,M,3.0,M,4.3,M*29
$HCHDG,237.3,0.0,E,,*2C
$IIRMC,154000,A,4921.223,N,12316.865,W,01.9,255,200913,17,E,A*1A
$YXXDR,A,6.2,D,PTCH,A,3.9,D,ROLL*53
$IIVHW,,,,,02.2,N,,*19
$HCHDG,237.1,0.0,E,,*2E
$GPRMC,154030.4,A,4921.22378,N,12316.86623,W,001.84,261.0,200913,017.3,E,A*28
$PGRME,3.0,M,3.0,M,4.3,M*29
$IIVLW,06312,N,000.0,N*55
$HCHDG,237.0,0.0,E,,*2F
$IIVWR,108,R,02.0,N,,,,*6A
$IIDPT,040.4,-1.0,*40
$HCHDG,236.9,0.0,E,,*27
$GPRMC,154030.6,A,4921.22374,N,12316.86647,W,001.87,256.5,200913,017.3,E,A*26
$GPRMB,A,-35.23,L,,Shil,4741.0830,N,12224.5670,W,106.0,161,-0.19,V*04
$PGRME,3.0,M,3.0,M,4.3,M*29
$IIGLL,4921.223,N,12316.865,W,154000,A,A*43
$IIMTW,+12.5,C*3E
$HCHDG,236.8,0.0,E,,*26
$HCHDG,236.4,0.0,E,,*2A
$GPRMC,154030.8,A,4921.22372,N,12316.86664,W,001.91,257.7,200913,017.3,E,A*2B
$PGRME,3.0,M,3.0,M,4.3,M*29
$YXXDR,A,5.5,D,PTCH,A,4.7,D,ROLL*5E
$PTAK,FFD1,4.7*56
$HCHDG,236.3,0.0,E,,*2D
$HCHDG,236.2,0.0,E,,*2C
$GPRMC,154031.0,A,4921.22369,N,12316.86678,W,001.89,260.2,200913,017.3,E,A*2D
$PGRME,3.0,M,3.0,M,4.3,M*29
$HCHDG,236.3,0.0,E,,*2D
$IIMWV,113,R,02.0,N,A*12
$IIMWV,146,T,03.3,N,A*16
$HCHDG,236.3,0.0,E,,*2D
$GPRMC,154031.2,A,4921.22371,N,12316.86681,W,001.87,261.7,200913,017.3,E,A*2A
$PGRME,3.0,M,3.0,M,4.3,M*29
$IIRMB,A,,,,Shil,,,,,106.0,161,,V,A*2A
$HCHDG,236.5,0.0,E,,*2B
$YXXDR,A,5.9,D,PTCH,A,4.3,D,ROLL*56
$IIRMC,154000,A,4921.223,N,12316.865,W,01.8,264,200913,17,E,A*19
$HCHDG,236.6,0.0,E,,*28
$GPRMC,154031.4,A,4921.22375,N,12316.86693,W,001.90,263.0,200913,017.3,E,A*28
$PGRME,3.0,M,3.0,M,4.3,M*29
$IIVHW,,,,,02.2,N,,*19
$IIVLW,06312,N,000.0,N*55
$HCHDG,236.8,0.0,E,,*26
$IIVWR,113,R,02.0,N,,,,*60
$IIDPT,040.4,-1.0,*40
$HCHDG,236.9,0.0,E,,*27
$GPRMC,154031.6,A,4921.22373,N,12316.86712,W,001.90,263.0,200913,017.3,E,A*24
$GPRMB,A,-35.23,L,,Shil,4741.0830,N,12224.5670,W,106.0,161,-0.41,V*09
$PGRME,3.0,M,3.0,M,4.3,M*29
$HCHDG,237.0,0.0,E,,*2F
$HCHDG,236.8,0.0,E,,*26
$GPRMC,154031.8,A,4921.22371,N,12316.86735,W,001.88,261.5,200913,017.3,E,A*23
$PGRME,3.0,M,3.0,M,4.3,M*29
$YXXDR,A,6.0,D,PTCH,A,4.4,D,ROLL*5B
$HCHDG,236.7,0.0,E,,*29
$HCHDG,236.6,0.0,E,,*28
$GPRMC,154032.0,A,4921.22372,N,12316.86742,W,001.87,259.9,200913,017.3,E,A*23
$PGRME,3.0,M,3.0,M,4.3,M*29
$HCHDG,236.6,0.0,E,,*28
$IIGLL,4921.223,N,12316.866,W,154000,A,A*40
$HCHDG,236.6,0.0,E,,*28
$IIMTW,+12.5,C*3E
$GPRMC,154032.2,A,4921.22372,N,12316.86755,W,001.90,254.4,200913,017.3,E,A*21
$PGRME,3.0,M,3.0,M,4.3,M*29
$IIMWV,110,R,01.9,N,A*1B
$HCHDG,236.6,0.0,E,,*28
$IIMWV,148,T,03.4,N,A*1F
$YXXDR,A,5.9,D,PTCH,A,5.6,D,ROLL*52
$PTAK,FFD1,5.6*56
$IIRMB,A,,,,Shil,,,,,106.0,161,,V,A*2A
$HCHDG,236.4,0.0,E,,*2A
$GPRMC,154032.4,A,4921.22370,N,12316.86758,W,001.92,253.6,200913,017.3,E,A*2F
$PGRME,3.0,M,3.0,M,4.3,M*29
$HCHDG,236.6,0.0,E,,*28
$IIRMC,154000,A,4921.223,N,12316.866,W,01.8,261,200913,17,E,A*1F
$IIVHW,,,,,02.1,N,,*1A
$HCHDG,236.5,0.0,E,,*2B
$IIVLW,06312,N,000.0,N*55
$GPRMC,154032.6,A,4921.22372,N,12316.86768,W,001.93,261.2,200913,017.3,E,A*28
$GPRMB,A,-35.23,L,,Shil,4741.0830,N,12224.5670,W,106.0,161,-0.36,V*09
$PGRME,3.0,M,3.0,M,4.3,M*29
$HCHDG,236.6,0.0,E,,*28
$HCHDG,236.5,0.0,E,,*2B
$GPRMC,154032.8,A,4921.22365,N,12316.86779,W,001.95,257.7,200913,017.3,E,A*26
$PGRME,3.0,M,3.0,M,4.3,M*29
$YXXDR,A,6.1,D,PTCH,A,4.6,D,ROLL*58
$HCHDG,236.5,0.0,E,,*2B
$HCHDG,236.6,0.0,E,,*28
$GPRMC,154033.0,A,4921.22366,N,12316.86793,W,001.75,260.8,200913,017.3,E,A*2D
$PGRME,3.0,M,3.0,M,4.3,M*29
$HCHDG,236.5,0.0,E,,*2B
$IIVWR,111,R,02.0,N,,,,*62
$IIDPT,040.4,-1.0,*40
$HCHDG,236.4,0.0,E,,*2A
$GPRMC,154033.2,A,4921.22360,N,12316.86805,W,001.74,260.2,200913,017.3,E,A*22
$PGRME,3.0,M,3.0,M,4.3,M*29
$IIGLL,4921.223,N,12316.867,W,154000,A,A*41
$HCHDG,236.2,0.0,E,,*2C
$IIMTW,+12.5,C*3E
$IIMWV,111,R,02.0,N,A*10
$YXXDR,A,5.8,D,PTCH,A,5.2,D,ROLL*57
$IIMWV,149,T,03.2,N,A*18
$HCHDG,236.1,0.0,E,,*2F
$GPRMC,154033.4,A,4921.22352,N,12316.86825,W,001.71,258.1,200913,017.3,E,A*2A
$PGRME,3.0,M,3.0,M,4.3,M*29
$IIRMB,A,,,,Shil,,,,,106.0,161,,V,A*2A
$HCHDG,236.0,0.0,E,,*2E
$HCHDG,235.7,0.0,E,,*2A
$IIRMC,154000,A,4921.223,N,12316.867,W,01.9,254,200913,17,E,A*19
$GPRMC,154033.6,A,4921.22347,N,12316.86845,W,001.90,252.1,200913,017.3,E,A*2F
$GPRMB,A,-35.23,L,,Shil,4741.0830,N,12224.5670,W,106.0,161,-0.05,V*09
$PGRME,3.0,M,3.0,M,4.3,M*29
$HCHDG,235.7,0.0,E,,*2A
$HCHDG,235.6,0.0,E,,*2B
$GPRMC,154033.8,A,4921.22349,N,12316.86849,W,001.87,251.7,200913,017.3,E,A*20
$PGRME,3.0,M,3.0,M,4.3,M*29
$YXXDR,A,5.4,D,PTCH,A,5.2,D,ROLL*5B
$PTAK,FFD1,5.2*52
$HCHDG,235.7,0.0,E,,*2A
$HCHDG,235.7,0.0,E,,*2A
$GPRMC,154034.0,A,4921.22350,N,12316.86849,W,001.84,257.0,200913,017.3,E,A*25
$PGRME,3.0,M,3.0,M,4.3,M*29
$HCHDG,235.9,0.0,E,,*24
$IIVHW,,,,,02.2,N,,*19
$IIVLW,06312,N,000.0,N*55
$HCHDG,236.1,0.0,E,,*2F
$IIVWR,110,R,02.1,N,,,,*62
$GPRMC,154034.2,A,4921.22356,N,12316.86850,W,001.82,260.3,200913,017.3,E,A*28
$PTAK,FFP1,HEEL,@*07
$PGRME,3.0,M,3.0,M,4.3,M*29
$IIDPT,040.4,-1.0,*40
$HCHDG,236.3,0.0,E,,*2D
$IIGLL,4921.223,N,12316.868,W,154000,A,A*4E
$YXXDR,A,6.0,D,PTCH,A,3.8,D,ROLL*50
$IIMTW,+12.5,C*3E
$HCHDG,236.5,0.0,E,,*2B
$GPRMC,154034.4,A,4921.22351,N,12316.86857,W,001.85,263.7,200913,017.3,E,A*2E
$PGRME,3.0,M,3.0,M,4.3,M*29
$IIMWV,110,R,02.1,N,A*10
$HCHDG,236.7,0.0,E,,*29
$IIMWV,148,T,03.4,N,A*1F
$HCHDG,237.0,0.0,E,,*2F
$IIRMB,A,,,,Shil,,,,,106.0,161,,V,A*2A
$GPRMC,154034.6,A,4921.22352,N,12316.86874,W,001.87,260.7,200913,017.3,E,A*2F
$PGRME,3.0,M,3.0,M,4.3,M*29
$HCHDG,237.0,0.0,E,,*2F
$HCHDG,237.2,0.0,E,,*2D
$GPRMC,154034.8,A,4921.22348,N,12316.86895,W,001.87,261.3,200913,017.3,E,A*20
$GPRMB,A,-35.23,L,,Shil,4741.0830,N,12224.5670,W,106.0,161,-0.35,V*0A
$PGRME,3.0,M,3.0,M,4.3,M*29
$YXXDR,A,6.2,D,PTCH,A,3.6,D,ROLL*5C
$PTAK,FFD1,3.6*50
$HCHDG,237.2,0.0,E,,*2D
$HCHDG,237.1,0.0,E,,*2E
$GPRMC,154035.0,A,4921.22344,N,12316.86906,W,002.03,254.6,200913,017.3,E,A*22
$PGRME,3.0,M,3.0,M,4.3,M*29
$HCHDG,237.0,0.0,E,,*2F
$HCHDG,237.0,0.0,E,,*2F
$IIRMC,154000,A,4921.223,N,12316.868,W,01.8,260,200913,17,E,A*10
$GPRMC,154035.2,A,4921.22350,N,12316.86919,W,001.97,256.3,200913,017.3,E,A*22
$PGRME,3.0,M,3.0,M,4.3,M*29
$IIVHW,,,,,02.2,N,,*19
$HCHDG,236.6,0.0,E,,*28
$IIVLW,06312,N,000.0,N*55
$IIVWR,108,R,01.8,N,,,,*61
$YXXDR,A,6.0,D,PTCH,A,4.8,D,ROLL*57
$IIDPT,040.4,-1.0,*40
$HCHDG,236.5,0.0,E,,*2B
$GPRMC,154035.4,A,4921.22339,N,12316.86943,W,002.00,253.1,200913,017.3,E,A*2E
$PGRME,3.0,M,3.0,M,4.3,M*29
$HCHDG,236.4,0.0,E,,*2A
$IIGLL,4921.223,N,12316.868,W,154000,A,A*4E
$IIMTW,+12.5,C*3E
$HCHDG,236.4,0.0,E,,*2A
$IIMWV,108,R,01.8,N,A*13
$GPRMC,154035.6,A,4921.22332,N,12316.86970,W,001.97,257.2,200913,017.3,E,A*2D
$PGRME,3.0,M,3.0,M,4.3,M*29
$IIMWV,147,T,03.4,N,A*10
$HCHDG,236.4,0.0,E,,*2A
$HCHDG,236.3,0.0,E,,*2D
$GPRMC,154035.8,A,4921.22332,N,12316.86982,W,001.77,259.7,200913,017.3,E,A*2B
$GPRMB,A,-35.23,L,,Shil,4741.0830,N,12224.5670,W,106.0,161,-0.28,V*06
$PGRME,3.0,M,3.0,M,4.3,M*29
$YXXDR,A,5.8,D,PTCH,A,4.3,D,ROLL*57
$HCHDG,236.3,0.0,E,,*2D
$HCHDG,236.2,0.0,E,,*2C
$GPRMC,154036.0,A,4921.22321,N,12316.86999,W,001.71,259.1,200913,017.3,E,A*28
$PGRME,3.0,M,3.0,M,4.3,M*29
$HCHDG,236.2,0.0,E,,*2C
$IIRMB,A,,,,Shil,,,,,106.0,161,,V,A*2A
$HCHDG,236.2,0.0,E,,*2C
$GPRMC,154036.2,A,4921.22321,N,12316.87011,W,001.94,252.8,200913,017.3,E,A*2B
$PGRME,3.0,M,3.0,M,4.3,M*29
$IIRMC,154000,A,4921.223,N,12316.869,W,01.9,256,200913,17,E,A*15
$HCHDG,236.1,0.0,E,,*2F
$IIVHW,,,,,02.1,N,,*1A
$YXXDR,A,5.6,D,PTCH,A,4.0,D,ROLL*5A
$PTAK,FFD1,4.0*51
$IIVLW,06312,N,000.0,N*55
$HCHDG,236.1,0.0,E,,*2F
$GPRMC,154036.4,A,4921.22325,N,12316.87039,W,001.95,257.1,200913,017.3,E,A*2E
$PGRME,3.0,M,3.0,M,4.3,M*29
$IIVWR,116,R,01.9,N,,,,*6F
$HCHDG,236.2,0.0,E,,*2C
$IIDPT,040.4,-1.0,*40
$IIGLL,4921.223,N,12316.869,W,154000,A,A*4F
$HCHDG,236.2,0.0,E,,*2C
$IIMTW,+12.5,C*3E
$GPRMC,154036.6,A,4921.22327,N,12316.87050,W,001.88,260.7,200913,017.3,E,A*2F
$PGRME,3.0,M,3.0,M,4.3,M*29
$IIMWV,116,R,01.9,N,A*1D
$HCHDG,236.3,0.0,E,,*2D
$HCHDG,236.2,0.0,E,,*2C
$GPRMC,154036.8,A,4921.22324,N,12316.87067,W,001.87,258.7,200913,017.3,E,A*22
$PGRME,3.0,M,3.0,M,4.3,M*29
$YXXDR,A,6.0,D,PTCH,A,3.1,D,ROLL*59
$HCHDG,236.4,0.0,E,,*2A
$HCHDG,236.4,0.0,E,,*2A
$GPRMC,154037.0,A,4921.22313,N,12316.87092,W,001.85,253.9,200913,017.3,E,A*22
$GPRMB,A,-35.23,L,,Shil,4741.0830,N,12224.5670,W,106.0,161,-0.11,V*0C
$PGRME,3.0,M,3.0,M,4.3,M*29
$HCHDG,236.4,0.0,E,,*2A
$IIMWV,150,T,03.3,N,A*11
$HCHDG,236.4,0.0,E,,*2A
$IIRMB,A,,,,Shil,,,,,106.0,161,,V,A*2A
$GPRMC,154037.2,A,4921.22309,N,12316.87113,W,001.83,256.2,200913,017.3,E,A*2B
$PGRME,3.0,M,3.0,M,4.3,M*29
$HCHDG,236.1,0.0,E,,*2F
$IIRMC,154000,A,4921.223,N,12316.870,W,01.9,252,200913,17,E,A*19
$YXXDR,A,6.1,D,PTCH,A,4.0,D,ROLL*5E
$PTAK,FFD1,4.0*51
$IIVHW,,,,,02.0,N,,*1B
$HCHDG,236.0,0.0,E,,*2E
$GPRMC,154037.4,A,4921.22309,N,12316.87122,W,001.79,257.2,200913,017.3,E,A*2B
$PGRME,3.0,M,3.0,M,4.3,M*29
$IIVLW,06312,N,000.0,N*55
$HCHDG,236.3,0.0,E,,*2D
$IIVWR,115,R,01.8,N,,,,*6D
$IIDPT,040.4,-1.0,*40
$HCHDG,236.4,0.0,E,,*2A
$GPRMC,154037.6,A,4921.22311,N,12316.87130,W,001.82,253.5,200913,017.3,E,A*24
$PGRME,3.0,M,3.0,M,4.3,M*29
$IIGLL,4921.223,N,12316.870,W,154000,A,A*47
$IIMTW,+12.5,C*3E
$HCHDG,236.4,0.0,E,,*2A
$HCHDG,236.4,0.0,E,,*2A
$GPRMC,154037.8,A,4921.22303,N,12316.87143,W,001.85,252.1,200913,017.3,E,A*2F
$PGRME,3.0,M,3.0,M,4.3,M*29
$YXXDR,A,5.7,D,PTCH,A,4.1,D,ROLL*5A
$HCHDG,236.5,0.0,E,,*2B
$HCHDG,236.5,0.0,E,,*2B
$GPRMC,154038.0,A,4921.22284,N,12316.87164,W,001.87,257.6,200913,017.3,E,A*23
$GPRMB,A,-35.23,L,,Shil,4741.0830,N,12224.5670,W,106.0,161,-0.23,V*0D
$PGRME,3.0,M,3.0,M,4.3,M*29
$HCHDG,236.6,0.0,E,,*28
$PTAK,FFP1,HEEL,@*07
$IIMWV,115,R,01.8,N,A*1F
$IIMWV,150,T,03.2,N,A*10
$HCHDG,236.9,0.0,E,,*27
$GPRMC,154038.2,A,4921.22270,N,12316.87187,W,001.87,261.3,200913,017.3,E,A*27
$PGRME,3.0,M,3.0,M,4.3,M*29
$IIRMB,A,,,,Shil,,,,,106.0,161,,V,A*2A
$HCHDG,236.6,0.0,E,,*28
$YXXDR,A,6.0,D,PTCH,A,3.4,D,ROLL*5C
$PTAK,FFD1,3.4*52
$IIRMC,154000,A,4921.223,N,12316.871,W,01.8,256,200913,17,E,A*1D
$HCHDG,236.7,0.0,E,,*29
$GPRMC,154038.4,A,4921.22265,N,12316.87196,W,001.89,254.8,200913,017.3,E,A*26
$IIVHW,,,,,02.0,N,,*1B
$PGRME,3.0,M,3.0,M,4.3,M*29
$HCHDG,236.9,0.0,E,,*27
$IIVLW,06312,N,000.0,N*55
$IIVWR,115,R,01.8,N,,,,*6D
$HCHDG,236.7,0.0,E,,*29
$GPRMC,154038.6,A,4921.22254,N,12316.87213,W,001.72,260.9,200913,017.3,E,A*2A
$PGRME,3.0,M,3.0,M,4.3,M*29
$IIGLL,4921.223,N,12316.871,W,154000,A,A*46
$HCHDG,236.7,0.0,E,,*29
$HCHDG,236.7,0.0,E,,*29
$GPRMC,154038.8,A,4921.22254,N,12316.87226,W,001.69,258.9,200913,017.3,E,A*23
$PGRME,3.0,M,3.0,M,4.3,M*29
$YXXDR,A,6.0,D,PTCH,A,4.0,D,ROLL*5F
$HCHDG,236.5,0.0,E,,*2B
$HCHDG,236.3,0.0,E,,*2D
$GPRMC,154039.0,A,4921.22248,N,12316.87237,W,001.72,253.4,200913,017.3,E,A*2B
$PGRME,3.0,M,3.0,M,4.3,M*29
$HCHDG,236.2,0.0,E,,*2C
$IIMTW,+12.5,C*3E
$IIMWV,114,R,01.7,N,A*11
$HCHDG,236.3,0.0,E,,*2D
$IIMWV,149,T,03.1,N,A*1B
$GPRMC,154039.2,A,4921.22240,N,12316.87258,W,001.75,253.1,200913,017.3,E,A*2A
$GPRMB,A,-35.24,L,,Shil,4741.0830,N,12224.5670,W,106.0,161,-0.08,V*03
$PGRME,3.0,M,3.0,M,4.3,M*29
$IIRMB,A,,,,Shil,,,,,106.0,161,,V,A*2A
$HCHDG,236.3,0.0,E,,*2D
$YXXDR,A,5.6,D,PTCH,A,4.3,D,ROLL*59
$HCHDG,236.3,0.0,E,,*2D
$IIRMC,154000,A,4921.222,N,12316.871,W,01.8,261,200913,17,E,A*18
$GPRMC,154039.4,A,4921.22238,N,12316.87278,W,001.74,251.0,200913,017.3,E,A*23
$PGRME,3.0,M,3.0,M,4.3,M*29
$IIVHW,,,,,02.0,N,,*1B
$HCHDG,236.5,0.0,E,,*2B
$IIVLW,06312,N,000.0,N*55
$IIVWR,114,R,01.7,N,,,,*63
$HCHDG,236.7,0.0,E,,*29
$GPRMC,154039.6,A,4921.22238,N,12316.87297,W,001.70,257.6,200913,017.3,E,A*24
$PGRME,3.0,M,3.0,M,4.3,M*29
$HCHDG,236.6,0.0,E,,*28
$HCHDG,236.8,0.0,E,,*26
$GPRMC,154039.8,A,4921.22238,N,12316.87317,W,001.71,258.5,200913,017.3,E,A*2E
$PGRME,3.0,M,3.0,M,4.3,M*29
$YXXDR,A,5.6,D,PTCH,A,1.9,D,ROLL*56
$PTAK,FFD1,1.9*5D
$HCHDG,237.2,0.0,E,,*2D
$HCHDG,237.2,0.0,E,,*2D
$GPRMC,154040.0,A,4921.22231,N,12316.87333,W,001.69,264.5,200913,017.3,E,A*21
$PGRME,3.0,M,3.0,M,4.3,M*29
$HCHDG,237.2,0.0,E,,*2D
$IIGLL,4921.222,N,12316.872,W,154000,A,A*44
$HCHDG,237.4,0.0,E,,*2B
$IIMTW,+12.5,C*3E
$GPRMC,154040.2,A,4921.22219,N,12316.87357,W,001.87,258.6,200913,017.3,E,A*27
$PGRME,3.0,M,3.0,M,4.3,M*29
$IIMWV,115,R,01.6,N,A*11
$HCHDG,237.6,0.0,E,,*29
$IIMWV,150,T,03.0,N,A*12
$YXXDR,A,5.8,D,PTCH,A,2.3,D,ROLL*51
$IIRMB,A,,,,Shil,,,,,106.0,161,,V,A*2A
$HCHDG,237.5,0.0,E,,*2A
$GPRMC,154040.4,A,4921.22215,N,12316.87374,W,001.88,257.8,200913,017.3,E,A*22
$GPRMB,A,-35.24,L,,Shil,4741.0830,N,12224.5670,W,106.0,161,-0.24,V*0D
$PGRME,3.0,M,3.0,M,4.3,M*29
$HCHDG,237.4,0.0,E,,*2B
$IIRMC,154000,A,4921.222,N,12316.872,W,01.7,251,200913,17,E,A*17
$IIVHW,,,,,02.0,N,,*1B
$HCHDG,237.5,0.0,E,,*2A
$IIVLW,06312,N,000.0,N*55
$GPRMC,154040.6,A,4921.22214,N,12316.87395,W,001.88,252.3,200913,017.3,E,A*20
$PGRME,3.0,M,3.0,M,4.3,M*29
$HCHDG,237.5,0.0,E,,*2A
$HCHDG,237.4,0.0,E,,*2B
$GPRMC,154040.8,A,4921.22211,N,12316.87408,W,001.87,255.5,200913,017.3,E,A*26
$PGRME,3.0,M,3.0,M,4.3,M*29
$YXXDR,A,5.6,D,PTCH,A,3.0,D,ROLL*5D
$PTAK,FFD1,3.0*56
$HCHDG,237.4,0.0,E,,*2B
$HCHDG,237.5,0.0,E,,*2A
$GPRMC,154041.0,A,4921.22211,N,12316.87414,W,001.84,259.6,200913,017.3,E,A*2E
$PGRME,3.0,M,3.0,M,4.3,M*29
$HCHDG,237.6,0.0,E,,*29
$IIVWR,115,R,01.5,N,,,,*60
$HCHDG,237.7,0.0,E,,*28
$IIGLL,4921.222,N,12316.873,W,154000,A,A*45
$GPRMC,154041.2,A,4921.22210,N,12316.87431,W,001.79,258.4,200913,017.3,E,A*2B
$PGRME,3.0,M,3.0,M,4.3,M*29
$IIMTW,+12.5,C*3E
$HCHDG,237.8,0.0,E,,*27
$IIMWV,115,R,01.5,N,A*12
$IIMWV,152,T,02.9,N,A*18
$YXXDR,A,5.9,D,PTCH,A,2.6,D,ROLL*55
$HCHDG,237.9,0.0,E,,*26
$GPRMC,154041.4,A,4921.22210,N,12316.87453,W,001.80,257.1,200913,017.3,E,A*25
$GPRMB,A,-35.24,L,,Shil,4741.0830,N,12224.5670,W,106.0,161,-0.20,V*09
$PGRME,3.0,M,3.0,M,4.3,M*29
$IIRMB,A,,,,Shil,,,,,106.0,161,,V,A*2A
$HCHDG,238.2,0.0,E,,*22
$IIRMC,154000,A,4921.222,N,12316.873,W,01.8,257,200913,17,E,A*1F
$HCHDG,238.0,0.0,E,,*20
$IIVHW,,,,,01.9,N,,*11
$GPRMC,154041.6,A,4921.22206,N,12316.87466,W,001.80,255.1,200913,017.3,E,A*24
$PGRME,3.0,M,3.0,M,4.3,M*29
$HCHDG,238.0,0.0,E,,*20
$HCHDG,238.1,0.0,E,,*21
$GPRMC,154041.8,A,4921.22207,N,12316.87480,W,001.98,248.1,200913,017.3,E,A*26
$PGRME,3.0,M,3.0,M,4.3,M*29
$YXXDR,A,6.0,D,PTCH,A,3.4,D,ROLL*5C
$HCHDG,237.9,0.0,E,,*26
$HCHDG,238.1,0.0,E,,*21
$GPRMC,154042.0,A,4921.22202,N,12316.87493,W,001.82,250.6,200913,017.3,E,A*2F
$PGRME,3.0,M,3.0,M,4.3,M*29
$HCHDG,237.9,0.0,E,,*26
$IIVLW,06312,N,000.0,N*55
$IIVWR,116,R,01.7,N,,,,*61
$HCHDG,237.8,0.0,E,,*27
$GPRMC,154042.2,A,4921.22192,N,12316.87514,W,001.76,256.1,200913,017.3,E,A*23
$PGRME,3.0,M,3.0,M,4.3,M*29
$IIGLL,4921.222,N,12316.874,W,154000,A,A*42
$HCHDG,237.8,0.0,E,,*27
$IIMTW,+12.5,C*3E
$IIMWV,116,R,01.7,N,A*13
$YXXDR,A,5.5,D,PTCH,A,3.1,D,ROLL*5F
$PTAK,FFD1,3.1*57
$IIMWV,153,T,02.8,N,A*18
$HCHDG,237.8,0.0,E,,*27
$PTAK,FFP1,HEEL,@*07
$GPRMC,154042.4,A,4921.22200,N,12316.87521,W,001.73,257.4,200913,017.3,E,A*2A
$GPRMB,A,-35.24,L,,Shil,4741.0830,N,12224.5670,W,106.0,161,-0.21,V*08
$PGRME,3.0,M,3.0,M,4.3,M*29
$HCHDG,238.1,0.0,E,,*21
$IIRMB,A,,,,Shil,,,,,106.0,161,,V,A*2A
$HCHDG,238.0,0.0,E,,*20
$GPRMC,154042.6,A,4921.22201,N,12316.87537,W,001.71,257.0,200913,017.3,E,A*28
$IIRMC,154000,A,4921.222,N,12316.874,W,01.8,257,200913,17,E,A*18
$PGRME,3.0,M,3.0,M,4.3,M*29
$HCHDG,238.1,0.0,E,,*21
$HCHDG,237.8,0.0,E,,*27
$GPRMC,154042.8,A,4921.22200,N,12316.87552,W,001.72,254.5,200913,017.3,E,A*21
$PGRME,3.0,M,3.0,M,4.3,M*29
$YXXDR,A,5.6,D,PTCH,A,2.3,D,ROLL*5F
$HCHDG,238.1,0.0,E,,*21
$HCHDG,238.2,0.0,E,,*22
$GPRMC,154043.0,A,4921.22200,N,12316.87569,W,001.71,258.5,200913,017.3,E,A*2F
$PGRME,3.0,M,3.0,M,4.3,M*29
$HCHDG,238.5,0.0,E,,*25
$IIVHW,,,,,01.9,N,,*11
$IIVLW,06312,N,000.0,N*55
$HCHDG,238.5,0.0,E,,*25
$IIVWR,118,R,01.6,N,,,,*6E
$GPRMC,154043.2,A,4921.22194,N,12316.87589,W,001.72,257.4,200913,017.3,E,A*20
$PGRME,3.0,M,3.0,M,4.3,M*29
$HCHDG,238.6,0.0,E,,*26
$IIGLL,4921.222,N,12316.875,W,154000,A,A*43
$IIMTW,+12.5,C*3E
$YXXDR,A,5.8,D,PTCH,A,1.7,D,ROLL*56
$IIMWV,118,R,01.6,N,A*1C
$GPRMC,154043.4,A,4921.22191,N,12316.87612,W,001.73,263.0,200913,017.3,E,A*20
$HCHDG,238.8,0.0,E,,*28
$PGRME,3.0,M,3.0,M,4.3,M*29
$IIMWV,150,T,03.0,N,A*12
$HCHDG,239.1,0.0,E,,*20
$IIRMB,A,,,,Shil,,,,,106.0,161,,V,A*2A
$HCHDG,239.1,0.0,E,,*20
$GPRMC,154043.6,A,4921.22191,N,12316.87624,W,001.74,263.7,200913,017.3,E,A*27
$GPRMB,A,-35.24,L,,Shil,4741.0830,N,12224.5670,W,106.0,161,-0.39,V*01
$PGRME,3.0,M,3.0,M,4.3,M*29
$HCHDG,239.3,0.0,E,,*22
$HCHDG,239.3,0.0,E,,*22
$GPRMC,154043.8,A,4921.22187,N,12316.87644,W,001.75,260.7,200913,017.3,E,A*2A
$PGRME,3.0,M,3.0,M,4.3,M*29
$YXXDR,A,6.0,D,PTCH,A,1.6,D,ROLL*5C
$PTAK,FFD1,1.6*52
$HCHDG,239.4,0.0,E,,*25
$HCHDG,239.3,0.0,E,,*22
$GPRMC,154044.0,A,4921.22185,N,12316.87653,W,001.75,259.7,200913,017.3,E,A*2B
$PGRME,3.0,M,3.0,M,4.3,M*29
$PGRMT,GPS 18x-5Hz software ver. 3.20,,,,,,,,*30
$HCHDG,239.2,0.0,E,,*23
$HCHDG,239.2,0.0,E,,*23
$IIRMC,154000,A,4921.221,N,12316.876,W,01.7,263,200913,17,E,A*11
$GPRMC,154044.2,A,4921.22184,N,12316.87668,W,001.76,256.8,200913,017.3,E,A*23
$PGRME,3.0,M,3.0,M,4.3,M*29
$IIVHW,,,,,01.9,N,,*11
$HCHDG,239.2,0.0,E,,*23
$IIVLW,06312,N,000.0,N*55
$IIVWR,117,R,01.6,N,,,,*61
$YXXDR,A,5.6,D,PTCH,A,2.3,D,ROLL*5F
$HCHDG,239.2,0.0,E,,*23
$GPRMC,154044.4,A,4921.22175,N,12316.87696,W,001.76,257.6,200913,017.3,E,A*25
$PGRME,3.0,M,3.0,M,4.3,M*29
$IIGLL,4921.221,N,12316.876,W,154000,A,A*43
$HCHDG,239.0,0.0,E,,*21
$IIMTW,+12.5,C*3E
$IIMWV,117,R,01.6,N,A*13
$HCHDG,238.8,0.0,E,,*28
$IIMWV,153,T,03.0,N,A*11
$GPRMC,154044.6,A,4921.22172,N,12316.87705,W,001.76,256.5,200913,017.3,E,A*29
$GPRMB,A,-35.24,L,,Shil,4741.0830,N,12224.5670,W,106.0,161,-0.18,V*02
$PGRME,3.0,M,3.0,M,4.3,M*29
$HCHDG,238.8,0.0,E,,*28
$HCHDG,238.9,0.0,E,,*29
$GPRMC,154044.8,A,4921.22177,N,12316.87727,W,001.74,259.8,200913,017.3,E,A*22
$PGRME,3.0,M,3.0,M,4.3,M*29
$YXXDR,A,5.5,D,PTCH,A,2.7,D,ROLL*58
$PTAK,FFD1,2.7*50
$HCHDG,239.1,0.0,E,,*20
$HCHDG,239.2,0.0,E,,*23
$GPRMC,154045.0,A,4921.22173,N,12316.87743,W,001.73,263.4,200913,017.3,E,A*2F
$PGRME,3.0,M,3.0,M,4.3,M*29
$HCHDG,239.5,0.0,E,,*24
$IIRMB,A,,,,Shil,,,,,106.0,161,,V,A*2A
$HCHDG,239.5,0.0,E,,*24
$GPRMC,154045.2,A,4921.22170,N,12316.87769,W,001.72,261.1,200913,017.3,E,A*20
$PGRME,3.0,M,3.0,M,4.3,M*29
$IIRMC,154000,A,4921.221,N,12316.877,W,01.7,256,200913,17,E,A*16
$HCHDG,239.7,0.0,E,,*26
$IIVHW,,,,,01.7,N,,*1F
$YXXDR,A,5.8,D,PTCH,A,1.6,D,ROLL*57
$IIVLW,06312,N,000.0,N*55
$HCHDG,240.0,0.0,E,,*2F
$GPRMC,154045.4,A,4921.22165,N,12316.87798,W,001.72,260.9,200913,017.3,E,A*25
$PGRME,3.0,M,3.0,M,4.3,M*29
$IIVWR,115,R,01.6,N,,,,*63
$HCHDG,240.1,0.0,E,,*2E
$IIGLL,4921.221,N,12316.877,W,154000,A,A*42
$IIMTW,+12.5,C*3E
$HCHDG,239.9,0.0,E,,*28
$GPRMC,154045.6,A,4921.22170,N,12316.87808,W,001.70,260.5,200913,017.3,E,A*2B
$IIMWV,115,R,01.6,N,A*11
$PGRME,3.0,M,3.0,M,4.3,M*29
$HCHDG,240.0,0.0,E,,*2F
$HCHDG,239.9,0.0,E,,*28
$GPRMC,154045.8,A,4921.22173,N,12316.87825,W,001.93,256.8,200913,017.3,E,A*2C
$GPRMB,A,-35.24,L,,Shil,4741.0830,N,12224.5670,W,106.0,161,-0.21,V*08
$PGRME,3.0,M,3.0,M,4.3,M*29
$YXXDR,A,5.7,D,PTCH,A,2.5,D,ROLL*58
$PTAK,FFD1,2.5*52
$HCHDG,240.1,0.0,E,,*2E
$HCHDG,239.9,0.0,E,,*28
$GPRMC,154046.0,A,4921.22173,N,12316.87835,W,001.78,258.7,200913,017.3,E,A*22
$PGRME,3.0,M,3.0,M,4.3,M*29
$HCHDG,239.8,0.0,E,,*29
$IIMWV,150,T,02.7,N,A*14
$HCHDG,239.8,0.0,E,,*29
$IIRMB,A,,,,Shil,,,,,106.0,161,,V,A*2A
$GPRMC,154046.2,A,4921.22173,N,12316.87847,W,001.77,261.2,200913,017.3,E,A*25
$PGRME,3.0,M,3.0,M,4.3,M*29
$HCHDG,240.0,0.0,E,,*2F
$IIRMC,154000,A,4921.221,N,12316.878,W,01.7,260,200913,17,E,A*1C
$YXXDR,A,5.4,D,PTCH,A,2.8,D,ROLL*56
$IIVHW,,,,,01.7,N,,*1F
$HCHDG,239.8,0.0,E,,*29
$GPRMC,154046.4,A,4921.22174,N,12316.87874,W,001.74,263.0,200913,017.3,E,A*27
$PTAK,FFP1,HEEL,@*07
$PGRME,3.0,M,3.0,M,4.3,M*29
$IIVLW,06312,N,000.0,N*55
$IIVWR,116,R,01.6,N,,,,*60
$HCHDG,239.8,0.0,E,,*29
$IIGLL,4921.221,N,12316.878,W,154000,A,A*4D
$HCHDG,240.0,0.0,E,,*2F
$IIMTW,+12.5,C*3E
$GPRMC,154046.6,A,4921.22173,N,12316.87889,W,001.69,262.8,200913,017.3,E,A*25
$PGRME,3.0,M,3.0,M,4.3,M*29
$HCHDG,239.9,0.0,E,,*28
$HCHDG,239.9,0.0,E,,*28
$GPRMC,154046.8,A,4921.22170,N,12316.87896,W,001.75,256.4,200913,017.3,E,A*20
$GPRMB,A,-35.24,L,,Shil,4741.0830,N,12224.5670,W,106.0,161,-0.18,V*02
$PGRME,3.0,M,3.0,M,4.3,M*29
$YXXDR,A,5.5,D,PTCH,A,2.5,D,ROLL*5A
$HCHDG,240.0,0.0,E,,*2F
$HCHDG,240.0,0.0,E,,*2F
$GPRMC,154047.0,A,4921.22164,N,12316.87919,W,001.72,259.8,200913,017.3,E,A*2E
$PGRME,3.0,M,3.0,M,4.3,M*29
$HCHDG,240.0,0.0,E,,*2F
$IIMWV,113,R,01.8,N,A*19
$IIMWV,151,T,02.8,N,A*1A
$HCHDG,240.3,0.0,E,,*2C
$GPRMC,154047.2,A,4921.22158,N,12316.87942,W,001.72,258.0,200913,017.3,E,A*24
$PGRME,3.0,M,3.0,M,4.3,M*29
$IIRMB,A,,,,Shil,,,,,106.0,161,,V,A*2A
$HCHDG,240.3,0.0,E,,*2C
$YXXDR,A,5.9,D,PTCH,A,3.4,D,ROLL*56
$PTAK,FFD1,3.4*52
$IIRMC,154000,A,4921.221,N,12316.878,W,01.6,262,200913,17,E,A*1F
$HCHDG,240.3,0.0,E,,*2C
$GPRMC,154047.4,A,4921.22151,N,12316.87965,W,001.72,259.2,200913,017.3,E,A*2D
$IIVHW,,,,,01.6,N,,*1E
$PGRME,3.0,M,3.0,M,4.3,M*29
$HCHDG,240.3,0.0,E,,*2C
$IIVLW,06312,N,000.0,N*55
$IIVWR,113,R,01.8,N,,,,*6B
$HCHDG,240.1,0.0,E,,*2E
$GPRMC,154047.6,A,4921.22146,N,12316.87971,W,001.73,254.1,200913,017.3,E,A*23
$PGRME,3.0,M,3.0,M,4.3,M*29
$IIGLL,4921.221,N,12316.878,W,154000,A,A*4D
$HCHDG,240.2,0.0,E,,*2D
$HCHDG,240.2,0.0,E,,*2D
$GPRMC,154047.8,A,4921.22146,N,12316.87999,W,001.72,255.5,200913,017.3,E,A*2F
$GPRMB,A,-35.24,L,,Shil,4741.0830,N,12224.5670,W,106.0,161,-0.15,V*0F
$PGRME,3.0,M,3.0,M,4.3,M*29
$YXXDR,A,5.4,D,PTCH,A,3.4,D,ROLL*5B
$HCHDG,240.1,0.0,E,,*2E
$HCHDG,240.2,0.0,E,,*2D
$GPRMC,154048.0,A,4921.22131,N,12316.88037,W,001.73,256.0,200913,017.3,E,A*2D
$PGRME,3.0,M,3.0,M,4.3,M*29
$HCHDG,240.2,0.0,E,,*2D
$IIMTW,+12.5,C*3E
$IIMWV,115,R,01.7,N,A*10
$HCHDG,240.5,0.0,E,,*2A
$IIMWV,146,T,02.8,N,A*1C
$GPRMC,154048.2,A,4921.22130,N,12316.88056,W,001.74,256.0,200913,017.3,E,A*2E
$PGRME,3.0,M,3.0,M,4.3,M*29
$IIRMB,A,,,,Shil,,,,,106.0,161,,V,A*2A
$HCHDG,240.5,0.0,E,,*2A
$YXXDR,A,5.5,D,PTCH,A,3.1,D,ROLL*5F
$PTAK,FFD1,3.1*57
$HCHDG,240.8,0.0,E,,*27
$IIRMC,154000,A,4921.221,N,12316.879,W,01.7,254,200913,17,E,A*1A
$GPRMC,154048.4,A,4921.22128,N,12316.88071,W,001.74,260.8,200913,017.3,E,A*29
$PGRME,3.0,M,3.0,M,4.3,M*29
$IIVHW,,,,,01.7,N,,*1F
$HCHDG,241.1,0.0,E,,*2F
$IIVLW,06312,N,000.0,N*55
$HCHDG,241.3,0.0,E,,*2D
$IIVWR,115,R,01.7,N,,,,*62
$GPRMC,154048.6,A,4921.22122,N,12316.88081,W,001.74,261.5,200913,017.3,E,A*22
$PGRME,3.0,M,3.0,M,4.3,M*29
$HCHDG,241.6,0.0,E,,*28
$HCHDG,241.8,0.0,E,,*26
$GPRMC,154048.8,A,4921.22115,N,12316.88089,W,001.74,262.8,200913,017.3,E,A*2E
$GPRMB,A,-35.24,L,,Shil,4741.0830,N,12224.5670,W,106.0,161,-0.37,V*0F
$PGRME,3.0,M,3.0,M,4.3,M*29
$YXXDR,A,5.6,D,PTCH,A,2.2,D,ROLL*5E
$HCHDG,241.7,0.0,E,,*29
$HCHDG,242.0,0.0,E,,*2D
$GPRMC,154049.0,A,4921.22110,N,12316.88097,W,001.74,263.0,200913,017.3,E,A*24
$PGRME,3.0,M,3.0,M,4.3,M*29
$HCHDG,242.1,0.0,E,,*2C
$IIGLL,4921.221,N,12316.880,W,154000,A,A*4A
$HCHDG,242.1,0.0,E,,*2C
$IIMTW,+12.5,C*3E
$GPRMC,154049.2,A,4921.22109,N,12316.88113,W,001.73,260.4,200913,017.3,E,A*23
$PGRME,3.0,M,3.0,M,4.3,M*29
$IIMWV,110,R,01.8,N,A*1A
$HCHDG,242.1,0.0,E,,*2C
$IIMWV,148,T,02.8,N,A*12
$YXXDR,A,5.9,D,PTCH,A,3.1,D,ROLL*53
$PTAK,FFD1,3.1*57
$IIRMB,A,,,,Shil,,,,,106.0,161,,V,A*2A
$HCHDG,242.1,0.0,E,,*2C
$GPRMC,154049.4,A,4921.22111,N,12316.88128,W,001.74,260.6,200913,017.3,E,A*21
$PGRME,3.0,M,3.0,M,4.3,M*29
$HCHDG,242.0,0.0,E,,*2D
$IIRMC,154000,A,4921.221,N,12316.880,W,01.7,261,200913,17,E,A*1A
$IIVHW,,,,,01.7,N,,*1F
$HCHDG,242.1,0.0,E,,*2C
$IIVLW,06312,N,000.0,N*55
$GPRMC,154049.6,A,4921.22113,N,12316.88139,W,001.76,259.4,200913,017.3,E,A*2B
$PGRME,3.0,M,3.0,M,4.3,M*29
$HCHDG,242.1,0.0,E,,*2C
$HCHDG,242.0,0.0,E,,*2D
$GPRMC,154049.8,A,4921.22104,N,12316.88142,W,001.73,260.2,200913,017.3,E,A*26
$PGRME,3.0,M,3.0,M,4.3,M*29
$YXXDR,A,5.7,D,PTCH,A,3.2,D,ROLL*5E
$HCHDG,242.0,0.0,E,,*2D
$HCHDG,242.2,0.0,E,,*2F
$GPRMC,154050.0,A,4921.22103,N,12316.88165,W,001.75,256.4,200913,017.3,E,A*21
$GPRMB,A,-35.24,L,,Shil,4741.0830,N,12224.5670,W,106.0,161,-0.18,V*02
$PGRME,3.0,M,3.0,M,4.3,M*29
$HCHDG,242.2,0.0,E,,*2F
$IIVWR,115,R,01.9,N,,,,*6C
$HCHDG,242.4,0.0,E,,*29
$IIGLL,4921.221,N,12316.881,W,154000,A,A*4B
$GPRMC,154050.2,A,4921.22104,N,12316.88177,W,001.77,259.0,200913,017.3,E,A*2E
$PGRME,3.0,M,3.0,M,4.3,M*29
$IIMTW,+12.5,C*3E
$HCHDG,242.4,0.0,E,,*29
$IIMWV,115,R,01.9,N,A*1E
$IIMWV,145,T,02.8,N,A*1F
$YXXDR,A,5.6,D,PTCH,A,3.0,D,ROLL*5D
$PTAK,FFD1,3.0*56
$HCHDG,242.3,0.0,E,,*2E
$GPRMC,154050.4,A,4921.22103,N,12316.88198,W,001.78,264.1,200913,017.3,E,A*2E
$PTAK,FFP1,HEEL,@*07
$PGRME,3.0,M,3.0,M,4.3,M*29
$IIRMB,A,,,,Shil,,,,,106.0,161,,V,A*2A
$HCHDG,242.5,0.0,E,,*28
$IIRMC,154000,A,4921.221,N,12316.881,W,01.7,259,200913,17,E,A*10
$HCHDG,242.7,0.0,E,,*2A
$IIVHW,,,,,01.7,N,,*1F
$GPRMC,154050.6,A,4921.22105,N,12316.88218,W,001.80,265.8,200913,017.3,E,A*2E
$PGRME,3.0,M,3.0,M,4.3,M*29
$HCHDG,242.9,0.0,E,,*24
$HCHDG,243.3,0.0,E,,*2F
$GPRMC,154050.8,A,4921.22100,N,12316.88245,W,001.84,265.7,200913,017.3,E,A*26
$PGRME,3.0,M,3.0,M,4.3,M*29
$YXXDR,A,5.9,D,PTCH,A,2.3,D,ROLL*50
$HCHDG,243.4,0.0,E,,*28
$HCHDG,243.4,0.0,E,,*28
$GPRMC,154051.0,A,4921.22099,N,12316.88274,W,001.84,266.1,200913,017.3,E,A*29
$PGRME,3.0,M,3.0,M,4.3,M*29
$HCHDG,243.5,0.0,E,,*29
$IIVLW,06312,N,000.0,N*55
$IIVWR,113,R,01.8,N,,,,*6B
$HCHDG,243.5,0.0,E,,*29
$GPRMC,154051.2,A,4921.22095,N,12316.88299,W,001.83,264.0,200913,017.3,E,A*20
$GPRMB,A,-35.24,L,,Shil,4741.0830,N,12224.5670,W,106.0,161,-0.42,V*0D
$PGRME,3.0,M,3.0,M,4.3,M*29
$IIGLL,4921.221,N,12316.882,W,154000,A,A*48
$HCHDG,243.4,0.0,E,,*28
$IIMTW,+12.5,C*3E
$IIMWV,113,R,01.8,N,A*19
$YXXDR,A,5.9,D,PTCH,A,2.6,D,ROLL*55
$PTAK,FFD1,2.6*51
$IIMWV,145,T,02.9,N,A*1E
$HCHDG,243.2,0.0,E,,*2E
$GPRMC,154051.4,A,4921.22093,N,12316.88331,W,001.86,263.3,200913,017.3,E,A*22
$PGRME,3.0,M,3.0,M,4.3,M*29
$HCHDG,243.2,0.0,E,,*2E
$IIRMB,A,,,,Shil,,,,,106.0,161,,V,A*2A
$HCHDG,243.2,0.0,E,,*2E
$GPRMC,154051.6,A,4921.22092,N,12316.88352,W,001.86,266.5,200913,017.3,E,A*27
$IIRMC,154000,A,4921.221,N,12316.882,W,01.8,265,200913,17,E,A*13
$PGRME,3.0,M,3.0,M,4.3,M*29
$HCHDG,243.2,0.0,E,,*2E
$HCHDG,243.1,0.0,E,,*2D
$GPRMC,154051.8,A,4921.22088,N,12316.88370,W,001.86,268.8,200913,017.3,E,A*21
$PGRME,3.0,M,3.0,M,4.3,M*29
$YXXDR,A,5.8,D,PTCH,A,2.9,D,ROLL*5B
$HCHDG,243.0,0.0,E,,*2C
$HCHDG,243.3,0.0,E,,*2F
$GPRMC,154052.0,A,4921.22091,N,12316.88398,W,001.85,274.1,200913,017.3,E,A*23
$PGRME,3.0,M,3.0,M,4.3,M*29
$HCHDG,243.2,0.0,E,,*2E
$IIVHW,,,,,01.6,N,,*1E
$IIVLW,06312,N,000.0,N*55
$HCHDG,243.1,0.0,E,,*2D
$IIVWR,111,R,01.8,N,,,,*69
$GPRMC,154052.2,A,4921.22095,N,12316.88414,W,001.83,276.3,200913,017.3,E,A*20
$GPRMB,A,-35.24,L,,Shil,4741.0830,N,12224.5670,W,106.0,161,-0.79,V*05
$PGRME,3.0,M,3.0,M,4.3,M*29
$HCHDG,243.1,0.0,E,,*2D
$IIGLL,4921.220,N,12316.883,W,154000,A,A*48
$IIMTW,+12.5,C*3E
$YXXDR,A,5.9,D,PTCH,A,2.7,D,ROLL*54
$PTAK,FFD1,2.7*50
$IIMWV,111,R,01.8,N,A*1B
$HCHDG,242.8,0.0,E,,*25
$GPRMC,154052.4,A,4921.22095,N,12316.88432,W,001.82,269.8,200913,017.3,E,A*26
$PGRME,3.0,M,3.0,M,4.3,M*29
$IIMWV,145,T,02.8,N,A*1F
$HCHDG,242.5,0.0,E,,*28
$IIRMB,A,,,,Shil,,,,,106.0,161,,V,A*2A
$HCHDG,242.3,0.0,E,,*2E
$GPRMC,154052.6,A,4921.22094,N,12316.88451,W,001.78,265.7,200913,017.3,E,A*26
$PGRME,3.0,M,3.0,M,4.3,M*29
$HCHDG,242.3,0.0,E,,*2E
$HCHDG,242.0,0.0,E,,*2D
$GPRMC,154052.8,A,4921.22101,N,12316.88449,W,001.79,266.3,200913,017.3,E,A*2A
$PGRME,3.0,M,3.0,M,4.3,M*29
$YXXDR,A,5.8,D,PTCH,A,3.6,D,ROLL*55
$HCHDG,241.8,0.0,E,,*26
$HCHDG,241.8,0.0,E,,*26
$GPRMC,154053.0,A,4921.22113,N,12316.88466,W,001.46,276.2,200913,017.3,E,A*21
$PGRME,3.0,M,3.0,M,4.3,M*29
$HCHDG,241.6,0.0,E,,*28
$HCHDG,241.4,0.0,E,,*2A
$IIRMC,154000,A,4921.220,N,12316.884,W,01.7,265,200913,17,E,A*1B
$GPRMC,154053.2,A,4921.22122,N,12316.88472,W,001.86,260.4,200913,017.3,E,A*29
$PGRME,3.0,M,3.0,M,4.3,M*29
$IIVHW,,,,,01.7,N,,*1F
$HCHDG,241.5,0.0,E,,*2B
$IIVLW,06312,N,000.0,N*55
$IIVWR,108,R,01.8,N,,,,*61
$YXXDR,A,6.1,D,PTCH,A,4.0,D,ROLL*5E
$HCHDG,241.5,0.0,E,,*2B
$GPRMC,154053.4,A,4921.22127,N,12316.88477,W,001.79,264.3,200913,017.3,E,A*2C
$GPRMB,A,-35.24,L,,Shil,4741.0830,N,12224.5670,W,106.0,161,-0.42,V*0D
$PGRME,3.0,M,3.0,M,4.3,M*29
$IIGLL,4921.220,N,12316.884,W,154000,A,A*4F
$IIMTW,+12.5,C*3E
$HCHDG,241.6,0.0,E,,*28
$IIMWV,108,R,01.8,N,A*13
$HCHDG,241.6,0.0,E,,*28
$IIMWV,145,T,02.8,N,A*1F
$GPRMC,154053.6,A,4921.22121,N,12316.88500,W,001.83,260.7,200913,017.3,E,A*2C
$PGRME,3.0,M,3.0,M,4.3,M*29
$HCHDG,241.6,0.0,E,,*28
$HCHDG,241.7,0.0,E,,*29
$GPRMC,154053.8,A,4921.22121,N,12316.88509,W,001.79,269.9,200913,017.3,E,A*29
$PGRME,3.0,M,3.0,M,4.3,M*29
$YXXDR,A,6.1,D,PTCH,A,3.3,D,ROLL*5A
$PTAK,FFD1,3.3*55
$HCHDG,241.7,0.0,E,,*29
$HCHDG,241.8,0.0,E,,*26
$GPRMC,154054.0,A,4921.22129,N,12316.88521,W,001.75,271.3,200913,017.3,E,A*2B
$PGRME,3.0,M,3.0,M,4.3,M*29
$HCHDG,241.8,0.0,E,,*26
$IIRMB,A,,,,Shil,,,,,106.0,161,,V,A*2A
$HCHDG,241.8,0.0,E,,*26
$GPRMC,154054.2,A,4921.22130,N,12316.88531,W,001.77,271.4,200913,017.3,E,A*25
$PGRME,3.0,M,3.0,M,4.3,M*29
$IIRMC,154000,A,4921.221,N,12316.885,W,01.8,260,200913,17,E,A*11
$HCHDG,241.7,0.0,E,,*29
$IIVHW,,,,,01.7,N,,*1F
$YXXDR,A,6.0,D,PTCH,A,2.7,D,ROLL*5E
$IIVLW,06312,N,000.0,N*55
$HCHDG,241.7,0.0,E,,*29
$GPRMC,154054.4,A,4921.22125,N,12316.88539,W,001.77,267.9,200913,017.3,E,A*25
$GPRMB,A,-35.24,L,,Shil,4741.0830,N,12224.5670,W,106.0,161,-0.53,V*0D
$PTAK,FFP1,HEEL,@*07
$PGRME,3.0,M,3.0,M,4.3,M*29
$IIVWR,106,R,01.9,N,,,,*6E
$HCHDG,241.7,0.0,E,,*29
$IIGLL,4921.221,N,12316.885,W,154000,A,A*4F
$IIMTW,+12.5,C*3E
$HCHDG,241.4,0.0,E,,*2A
