$GPRMB,A,-35.07,L,,Shil,4741.0830,N,12224.5670,W,106.0,161,0.22,V*27
$PGRME,3.0,M,3.0,M,4.3,M*29
$IIVLW,06373,N,000.0,N*52
$YXXDR,A,5.4,D,PTCH,A,9.1,D,ROLL*54
$PTAK,FFD1,9.1*5D
$PTAK,FFP1,HEEL,@*07
$HCHDG,230.5,0.0,E,,*2D
$IIVWR,158,L,07.6,N,,,,*72
$IIDPT,006.9,-1.0,*4F
$HCHDG,230.3,0.0,E,,*2B
$GPRMC,164015.2,A,4921.26749,N,12316.62886,W,004.13,248.2,220913,017.3,E,A*23
$GPRMB,A,-35.07,L,,Shil,4741.0830,N,12224.5670,W,106.0,161,0.18,V*2E
$PGRME,3.0,M,3.0,M,4.3,M*29
$IIGLL,4921.268,N,12316.625,W,164000,A,A*45
$HCHDG,230.4,0.0,E,,*2C
$IIMTW,+13.0,C*3A
$HCHDG,230.2,0.0,E,,*2A
$GPRMC,164015.4,A,4921.26742,N,12316.62920,W,004.21,247.1,220913,017.3,E,A*2E
$PGRME,3.0,M,3.0,M,4.3,M*29
$HCHDG,230.1,0.0,E,,*29
$YXXDR,A,4.8,D,PTCH,A,8.8,D,ROLL*51
$HCHDG,230.2,0.0,E,,*2A
$GPRMC,164015.6,A,4921.26739,N,12316.62955,W,004.15,251.0,220913,017.3,E,A*23
$PGRME,3.0,M,3.0,M,4.3,M*29
$HCHDG,230.1,0.0,E,,*29
$IIMWV,201,R,07.2,N,A*15
$HCHDG,230.3,0.0,E,,*2B
$IIMWV,193,T,12.2,N,A*1F
$GPRMC,164015.8,A,4921.26734,N,12316.62987,W,004.21,248.2,220913,017.3,E,A*22
$PGRME,3.0,M,3.0,M,4.3,M*29
$HCHDG,230.7,0.0,E,,*2F
$IIRMC,164000,A,4921.268,N,12316.625,W,04.0,249,220913,17,E,A*1F
$HCHDG,230.7,0.0,E,,*2F
$IIVHW,,,,,04.9,N,,*14
$GPRMC,164016.0,A,4921.26722,N,12316.63030,W,004.27,248.1,220913,017.3,E,A*2F
$PGRME,3.0,M,3.0,M,4.3,M*29
$IIVLW,06373,N,000.0,N*52
$YXXDR,A,5.4,D,PTCH,A,8.0,D,ROLL*54
$HCHDG,230.8,0.0,E,,*20
$IIVWR,159,L,07.2,N,,,,*77
$IIDPT,006.9,-1.0,*4F
$HCHDG,231.0,0.0,E,,*29
$GPRMC,164016.2,A,4921.26710,N,12316.63070,W,004.30,248.5,220913,017.3,E,A*2A
$PGRME,3.0,M,3.0,M,4.3,M*29
$IIGLL,4921.268,N,12316.625,W,164000,A,A*45
$HCHDG,231.1,0.0,E,,*28
$IIMTW,+13.0,C*3A
$HCHDG,231.2,0.0,E,,*2B
$GPRMC,164016.4,A,4921.26704,N,12316.63103,W,004.27,246.9,220913,017.3,E,A*28
$PGRME,3.0,M,3.0,M,4.3,M*29
$HCHDG,231.3,0.0,E,,*2A
$YXXDR,A,5.6,D,PTCH,A,8.2,D,ROLL*54
$HCHDG,231.0,0.0,E,,*29
$GPRMC,164016.6,A,4921.26697,N,12316.63127,W,004.26,247.8,220913,017.3,E,A*26
$PGRME,3.0,M,3.0,M,4.3,M*29
$HCHDG,231.3,0.0,E,,*2A
$IIMWV,202,R,06.8,N,A*1D
$HCHDG,231.2,0.0,E,,*2B
$IIMWV,192,T,11.8,N,A*17
$GPRMC,164016.8,A,4921.26694,N,12316.63154,W,004.19,247.4,220913,017.3,E,A*2F
$PGRME,3.0,M,3.0,M,4.3,M*29
$HCHDG,231.2,0.0,E,,*2B
$IIRMB,A,,,,Shil,,,,,106.0,161,,V,A*2A
$HCHDG,231.0,0.0,E,,*29
$IIRMC,164000,A,4921.267,N,12316.629,W,04.2,248,220913,17,E,A*1F
$GPRMC,164017.0,A,4921.26683,N,12316.63182,W,004.08,247.3,220913,017.3,E,A*2C
$PGRME,3.0,M,3.0,M,4.3,M*29
$YXXDR,A,5.5,D,PTCH,A,9.1,D,ROLL*55
$IIVHW,,,,,05.0,N,,*1C
$HCHDG,230.9,0.0,E,,*21
$IIVLW,06373,N,000.0,N*52
$HCHDG,230.8,0.0,E,,*20
$IIVWR,158,L,06.8,N,,,,*7D
$GPRMC,164017.2,A,4921.26673,N,12316.63208,W,004.08,249.7,220913,017.3,E,A*2A
$PGRME,3.0,M,3.0,M,4.3,M*29
$IIDPT,007.1,-1.0,*46
$HCHDG,230.7,0.0,E,,*2F
$HCHDG,230.6,0.0,E,,*2E
$GPRMC,164017.4,A,4921.26670,N,12316.63236,W,004.18,247.7,220913,017.3,E,A*2D
$GPRMB,A,-35.07,L,,Shil,4741.0830,N,12224.5670,W,106.0,161,0.22,V*27
$PGRME,3.0,M,3.0,M,4.3,M*29
$HCHDG,230.5,0.0,E,,*2D
$YXXDR,A,4.7,D,PTCH,A,8.6,D,ROLL*50
$PTAK,FFD1,8.6*5B
$HCHDG,230.4,0.0,E,,*2C
$GPRMC,164017.6,A,4921.26668,N,12316.63256,W,003.98,249.8,220913,017.3,E,A*2E
$PGRME,3.0,M,3.0,M,4.3,M*29
$HCHDG,230.4,0.0,E,,*2C
$HCHDG,230.4,0.0,E,,*2C
$GPRMC,164017.8,A,4921.26670,N,12316.63275,W,004.05,248.0,220913,017.3,E,A*22
$PGRME,3.0,M,3.0,M,4.3,M*29
$HCHDG,230.4,0.0,E,,*2C
$HCHDG,230.6,0.0,E,,*2E
$GPRMC,164018.0,A,4921.26666,N,12316.63292,W,004.28,246.1,220913,017.3,E,A*2B
$PGRME,3.0,M,3.0,M,4.3,M*29
$YXXDR,A,5.2,D,PTCH,A,7.3,D,ROLL*5E
$HCHDG,230.6,0.0,E,,*2E
$HCHDG,230.8,0.0,E,,*20
$GPRMC,164018.2,A,4921.26663,N,12316.63312,W,004.21,247.3,220913,017.3,E,A*2F
$PGRME,3.0,M,3.0,M,4.3,M*29
$HCHDG,230.8,0.0,E,,*20
$HCHDG,231.1,0.0,E,,*28
$GPRMC,164018.4,A,4921.26658,N,12316.63338,W,004.25,245.9,220913,017.3,E,A*25
$GPRMB,A,-35.07,L,,Shil,4741.0830,N,12224.5670,W,106.0,161,0.35,V*21
$PGRME,3.0,M,3.0,M,4.3,M*29
$HCHDG,231.1,0.0,E,,*28
$YXXDR,A,5.7,D,PTCH,A,6.9,D,ROLL*50
$PTAK,FFD1,6.9*5A
$HCHDG,231.3,0.0,E,,*2A
$GPRMC,164018.6,A,4921.26651,N,12316.63363,W,004.11,250.4,220913,017.3,E,A*2E
$PGRME,3.0,M,3.0,M,4.3,M*29
$HCHDG,231.3,0.0,E,,*2A
$HCHDG,231.3,0.0,E,,*2A
$IIGLL,4921.266,N,12316.631,W,164000,A,A*4E
$GPRMC,164018.8,A,4921.26642,N,12316.63398,W,004.17,250.9,220913,017.3,E,A*2D
$IIMTW,+13.0,C*3A
$PGRME,3.0,M,3.0,M,4.3,M*29
$HCHDG,231.3,0.0,E,,*2A
$IIMWV,216,R,06.8,N,A*18
$IIMWV,192,T,11.6,N,A*19
$HCHDG,231.4,0.0,E,,*2D
$IIRMB,A,,,,Shil,,,,,106.0,161,,V,A*2A
$GPRMC,164019.0,A,4921.26637,N,12316.63431,W,004.18,250.3,220913,017.3,E,A*27
$PGRME,3.0,M,3.0,M,4.3,M*29
$YXXDR,A,5.4,D,PTCH,A,6.5,D,ROLL*5F
$HCHDG,231.4,0.0,E,,*2D
$IIRMC,164000,A,4921.266,N,12316.631,W,04.1,247,220913,17,E,A*1B
$HCHDG,231.3,0.0,E,,*2A
$IIVHW,,,,,05.1,N,,*1D
$GPRMC,164019.2,A,4921.26634,N,12316.63463,W,004.22,254.4,220913,017.3,E,A*2B
$PGRME,3.0,M,3.0,M,4.3,M*29
$IIVLW,06373,N,000.0,N*52
$HCHDG,231.4,0.0,E,,*2D
$HCHDG,231.2,0.0,E,,*2B
$GPRMC,164019.4,A,4921.26628,N,12316.63495,W,004.32,249.9,220913,017.3,E,A*29
$GPRMB,A,-35.08,L,,Shil,4741.0830,N,12224.5670,W,106.0,161,0.06,V*2E
$PGRME,3.0,M,3.0,M,4.3,M*29
$HCHDG,231.2,0.0,E,,*2B
$YXXDR,A,4.5,D,PTCH,A,6.5,D,ROLL*5F
$HCHDG,231.2,0.0,E,,*2B
$GPRMC,164019.6,A,4921.26624,N,12316.63536,W,004.32,243.7,220913,017.3,E,A*2B
$PGRME,3.0,M,3.0,M,4.3,M*29
$HCHDG,231.0,0.0,E,,*29
$IIVWR,144,L,04.8,N,,,,*72
$HCHDG,230.8,0.0,E,,*20
$IIDPT,007.1,-1.0,*46
$GPRMC,164019.8,A,4921.26615,N,12316.63571,W,004.49,245.9,220913,017.3,E,A*20
$PGRME,3.0,M,3.0,M,4.3,M*29
$HCHDG,230.9,0.0,E,,*21
$IIGLL,4921.266,N,12316.633,W,164000,A,A*4C
$IIMTW,+13.0,C*3A
$HCHDG,230.6,0.0,E,,*2E
$IIMWV,216,R,04.8,N,A*1A
$GPRMC,164020.0,A,4921.26594,N,12316.63598,W,004.24,249.8,220913,017.3,E,A*29
$PGRME,3.0,M,3.0,M,4.3,M*29
$IIMWV,201,T,10.1,N,A*16
$YXXDR,A,5.4,D,PTCH,A,7.8,D,ROLL*53
$PTAK,FFD1,7.8*5A
$HCHDG,230.6,0.0,E,,*2E
$IIRMB,A,,,,Shil,,,,,106.0,161,,V,A*2A
$HCHDG,230.3,0.0,E,,*2B
$GPRMC,164020.2,A,4921.26587,N,12316.63637,W,004.19,247.3,220913,017.3,E,A*24
$PGRME,3.0,M,3.0,M,4.3,M*29
$IIRMC,164000,A,4921.266,N,12316.633,W,04.1,250,220913,17,E,A*1F
$HCHDG,230.5,0.0,E,,*2D
$PTAK,FFP1,HEEL,@*07
$HCHDG,230.2,0.0,E,,*2A
$GPRMC,164020.4,A,4921.26578,N,12316.63667,W,004.21,245.1,220913,017.3,E,A*2C
$GPRMB,A,-35.08,L,,Shil,4741.0830,N,12224.5670,W,106.0,161,0.41,V*2D
$PGRME,3.0,M,3.0,M,4.3,M*29
$HCHDG,230.2,0.0,E,,*2A
$YXXDR,A,5.7,D,PTCH,A,7.7,D,ROLL*5F
$PTAK,FFD1,7.7*55
$HCHDG,230.3,0.0,E,,*2B
$GPRMC,164020.6,A,4921.26568,N,12316.63695,W,004.09,246.4,220913,017.3,E,A*2E
$PGRME,3.0,M,3.0,M,4.3,M*29
$HCHDG,230.3,0.0,E,,*2B
$IIVHW,,,,,05.2,N,,*1E
$HCHDG,230.5,0.0,E,,*2D
$IIVLW,06373,N,000.0,N*52
$GPRMC,164020.8,A,4921.26567,N,12316.63721,W,004.05,251.9,220913,017.3,E,A*26
$PGRME,3.0,M,3.0,M,4.3,M*29
$IIVWR,150,L,05.3,N,,,,*7D
$HCHDG,230.4,0.0,E,,*2C
$IIDPT,007.1,-1.0,*46
$HCHDG,230.5,0.0,E,,*2D
$IIGLL,4921.266,N,12316.635,W,164000,A,A*4A
$GPRMC,164021.0,A,4921.26566,N,12316.63757,W,004.11,251.3,220913,017.3,E,A*20
$PGRME,3.0,M,3.0,M,4.3,M*29
$IIMTW,+13.0,C*3A
$YXXDR,A,4.7,D,PTCH,A,6.7,D,ROLL*5F
$IIMWV,210,R,05.3,N,A*16
$HCHDG,230.4,0.0,E,,*2C
$IIMWV,197,T,09.5,N,A*16
$HCHDG,230.6,0.0,E,,*2E
$GPRMC,164021.2,A,4921.26565,N,12316.63795,W,004.15,252.9,220913,017.3,E,A*22
$IIRMB,A,,,,Shil,,,,,106.0,161,,V,A*2A
$PGRME,3.0,M,3.0,M,4.3,M*29
$HCHDG,230.8,0.0,E,,*20
$HCHDG,230.8,0.0,E,,*20
$GPRMC,164021.4,A,4921.26563,N,12316.63827,W,004.11,251.5,220913,017.3,E,A*2F
$PGRME,3.0,M,3.0,M,4.3,M*29
$HCHDG,231.2,0.0,E,,*2B
$YXXDR,A,4.5,D,PTCH,A,6.1,D,ROLL*5B
$HCHDG,231.0,0.0,E,,*29
$GPRMC,164021.6,A,4921.26560,N,12316.63859,W,004.13,252.9,220913,017.3,E,A*2A
$PGRME,3.0,M,3.0,M,4.3,M*29
$HCHDG,231.2,0.0,E,,*2B
$HCHDG,231.3,0.0,E,,*2A
$GPRMC,164021.8,A,4921.26552,N,12316.63891,W,004.34,251.2,220913,017.3,E,A*2C
$PGRME,3.0,M,3.0,M,4.3,M*29
$IIRMC,164000,A,4921.265,N,12316.637,W,04.0,251,220913,17,E,A*18
$HCHDG,231.3,0.0,E,,*2A
$IIVHW,,,,,05.2,N,,*1E
$IIVLW,06373,N,000.0,N*52
$HCHDG,231.1,0.0,E,,*28
$IIVWR,157,L,06.0,N,,,,*7A
$GPRMC,164022.0,A,4921.26540,N,12316.63929,W,004.21,254.7,220913,017.3,E,A*22
$PGRME,3.0,M,3.0,M,4.3,M*29
$IIDPT,007.1,-1.0,*46
$YXXDR,A,4.8,D,PTCH,A,6.4,D,ROLL*53
$HCHDG,231.2,0.0,E,,*2B
$IIGLL,4921.265,N,12316.637,W,164000,A,A*4B
$HCHDG,231.1,0.0,E,,*28
$IIMTW,+13.0,C*3A
$GPRMC,164022.2,A,4921.26532,N,12316.63969,W,004.22,251.9,220913,017.3,E,A*29
$GPRMB,A,-35.08,L,,Shil,4741.0830,N,12224.5670,W,106.0,161,-0.09,V*0C
$PGRME,3.0,M,3.0,M,4.3,M*29
$IIMWV,203,R,06.0,N,A*14
$HCHDG,230.9,0.0,E,,*21
$IIMWV,195,T,10.2,N,A*1B
$HCHDG,230.7,0.0,E,,*2F
$GPRMC,164022.4,A,4921.26517,N,12316.64002,W,004.21,255.6,220913,017.3,E,A*23
$PGRME,3.0,M,3.0,M,4.3,M*29
$HCHDG,230.1,0.0,E,,*29
$YXXDR,A,5.3,D,PTCH,A,7.2,D,ROLL*5E
$PTAK,FFD1,7.2*50
$HCHDG,229.9,0.0,E,,*29
$GPRMC,164022.6,A,4921.26509,N,12316.64039,W,004.09,255.5,220913,017.3,E,A*2F
$PGRME,3.0,M,3.0,M,4.3,M*29
$HCHDG,229.7,0.0,E,,*27
$HCHDG,229.2,0.0,E,,*22
$IIRMB,A,,,,Shil,,,,,106.0,161,,V,A*2A
$GPRMC,164022.8,A,4921.26509,N,12316.64079,W,004.25,253.3,220913,017.3,E,A*2B
$PGRME,3.0,M,3.0,M,4.3,M*29
$HCHDG,228.8,0.0,E,,*29
$IIRMC,164000,A,4921.265,N,12316.638,W,04.3,251,220913,17,E,A*14
$IIVHW,,,,,05.0,N,,*1C
$HCHDG,228.3,0.0,E,,*22
$IIVLW,06373,N,000.0,N*52
$GPRMC,164023.0,A,4921.26491,N,12316.64113,W,004.07,256.4,220913,017.3,E,A*2D
$PGRME,3.0,M,3.0,M,4.3,M*29
$YXXDR,A,4.9,D,PTCH,A,7.5,D,ROLL*52
$IIVWR,136,L,06.3,N,,,,*7E
$HCHDG,228.2,0.0,E,,*23
$IIDPT,007.1,-1.0,*46
$HCHDG,227.6,0.0,E,,*28
$IIGLL,4921.265,N,12316.638,W,164000,A,A*44
$GPRMC,164023.2,A,4921.26483,N,12316.64150,W,004.24,253.7,220913,017.3,E,A*2C
$GPRMB,A,-35.08,L,,Shil,4741.0830,N,12224.5670,W,106.0,161,-0.22,V*05
$PGRME,3.0,M,3.0,M,4.3,M*29
$IIMTW,+13.0,C*3A
$HCHDG,227.1,0.0,E,,*2F
$IIMWV,224,R,06.3,N,A*12
$HCHDG,226.8,0.0,E,,*27
$GPRMC,164023.4,A,4921.26486,N,12316.64193,W,004.11,252.9,220913,017.3,E,A*29
$PGRME,3.0,M,3.0,M,4.3,M*29
$HCHDG,226.4,0.0,E,,*2B
$YXXDR,A,4.8,D,PTCH,A,7.8,D,ROLL*5E
$PTAK,FFD1,7.8*5A
$HCHDG,226.2,0.0,E,,*2D
$GPRMC,164023.6,A,4921.26480,N,12316.64224,W,004.13,252.9,220913,017.3,E,A*20
$PGRME,3.0,M,3.0,M,4.3,M*29
$HCHDG,225.9,0.0,E,,*25
$IIMWV,204,T,10.5,N,A*17
$HCHDG,225.7,0.0,E,,*2B
$GPRMC,164023.8,A,4921.26478,N,12316.64267,W,004.24,252.5,220913,017.3,E,A*26
$PGRME,3.0,M,3.0,M,4.3,M*29
$IIRMB,A,,,,Shil,,,,,106.0,161,,V,A*2A
$HCHDG,225.4,0.0,E,,*28
$IIRMC,164000,A,4921.265,N,12316.640,W,04.2,253,220913,17,E,A*18
$HCHDG,225.1,0.0,E,,*2D
$IIVHW,,,,,05.0,N,,*1C
$GPRMC,164024.0,A,4921.26468,N,12316.64303,W,004.15,253.5,220913,017.3,E,A*28
$PGRME,3.0,M,3.0,M,4.3,M*29
$YXXDR,A,5.2,D,PTCH,A,8.1,D,ROLL*53
$IIVLW,06373,N,000.0,N*52
$HCHDG,224.9,0.0,E,,*24
$IIVWR,136,L,06.5,N,,,,*78
$HCHDG,224.4,0.0,E,,*29
$IIDPT,007.4,-1.0,*43
$GPRMC,164024.2,A,4921.26464,N,12316.64339,W,004.15,255.9,220913,017.3,E,A*25
$GPRMB,A,-35.08,L,,Shil,4741.0830,N,12224.5670,W,106.0,161,-0.38,V*0E
$PGRME,3.0,M,3.0,M,4.3,M*29
$HCHDG,224.2,0.0,E,,*2F
$IIGLL,4921.265,N,12316.640,W,164000,A,A*4B
$IIMTW,+13.0,C*3A
$HCHDG,223.7,0.0,E,,*2D
$GPRMC,164024.4,A,4921.26459,N,12316.64375,W,004.11,257.7,220913,017.3,E,A*2D
$PGRME,3.0,M,3.0,M,4.3,M*29
$HCHDG,223.5,0.0,E,,*2F
$YXXDR,A,5.2,D,PTCH,A,8.8,D,ROLL*5A
$PTAK,FFD1,8.8*55
$HCHDG,223.3,0.0,E,,*29
$GPRMC,164024.6,A,4921.26451,N,12316.64408,W,004.29,250.5,220913,017.3,E,A*24
$PGRME,3.0,M,3.0,M,4.3,M*29
$HCHDG,222.8,0.0,E,,*23
$IIMWV,228,R,06.0,N,A*1D
$HCHDG,222.2,0.0,E,,*29
$IIMWV,205,T,10.6,N,A*15
$GPRMC,164024.8,A,4921.26440,N,12316.64449,W,004.27,246.3,220913,017.3,E,A*20
$PGRME,3.0,M,3.0,M,4.3,M*29
$HCHDG,221.7,0.0,E,,*2F
$IIRMB,A,,,,Shil,,,,,106.0,161,,V,A*2A
$HCHDG,221.3,0.0,E,,*2B
$GPRMC,164025.0,A,4921.26429,N,12316.64490,W,004.19,246.5,220913,017.3,E,A*29
$IIRMC,164000,A,4921.264,N,12316.642,W,04.2,252,220913,17,E,A*1A
$PGRME,3.0,M,3.0,M,4.3,M*29
$YXXDR,A,5.3,D,PTCH,A,10.6,D,ROLL*6C
$PTAK,FFP1,HEEL,@*07
$IIVHW,,,,,05.0,N,,*1C
$HCHDG,220.8,0.0,E,,*21
$IIVLW,06373,N,000.0,N*52
$HCHDG,220.2,0.0,E,,*2B
$IIVWR,132,L,06.0,N,,,,*79
$GPRMC,164025.2,A,4921.26418,N,12316.64531,W,004.09,245.3,220913,017.3,E,A*27
$PGRME,3.0,M,3.0,M,4.3,M*29
$IIDPT,007.4,-1.0,*43
$HCHDG,219.9,0.0,E,,*2A
$HCHDG,219.5,0.0,E,,*26
$GPRMC,164025.4,A,4921.26409,N,12316.64568,W,004.05,243.9,220913,017.3,E,A*2D
$GPRMB,A,-35.08,L,,Shil,4741.0830,N,12224.5670,W,106.0,161,0.48,V*24
$PGRME,3.0,M,3.0,M,4.3,M*29
$HCHDG,219.1,0.0,E,,*22
$YXXDR,A,5.4,D,PTCH,A,10.6,D,ROLL*6B
$PTAK,FFD1,10.6*62
$HCHDG,219.1,0.0,E,,*22
$GPRMC,164025.6,A,4921.26400,N,12316.64608,W,004.09,242.3,220913,017.3,E,A*24
$PGRME,3.0,M,3.0,M,4.3,M*29
$HCHDG,218.7,0.0,E,,*25
$HCHDG,218.4,0.0,E,,*26
$IIGLL,4921.264,N,12316.644,W,164000,A,A*4E
$GPRMC,164025.8,A,4921.26389,N,12316.64641,W,004.15,239.5,220913,017.3,E,A*26
$IIMTW,+13.0,C*3A
$PGRME,3.0,M,3.0,M,4.3,M*29
$HCHDG,218.2,0.0,E,,*20
$IIMWV,230,R,06.8,N,A*1C
$IIMWV,206,T,10.0,N,A*10
$HCHDG,218.1,0.0,E,,*23
$IIRMB,A,,,,Shil,,,,,106.0,161,,V,A*2A
$GPRMC,164026.0,A,4921.26376,N,12316.64675,W,004.12,240.0,220913,017.3,E,A*26
$PGRME,3.0,M,3.0,M,4.3,M*29
$YXXDR,A,5.5,D,PTCH,A,10.1,D,ROLL*6D
$HCHDG,217.7,0.0,E,,*2A
$IIRMC,164000,A,4921.264,N,12316.644,W,04.2,246,220913,17,E,A*19
$HCHDG,217.6,0.0,E,,*2B
$IIVHW,,,,,05.0,N,,*1C
$GPRMC,164026.2,A,4921.26363,N,12316.64709,W,004.22,235.8,220913,017.3,E,A*23
$PGRME,3.0,M,3.0,M,4.3,M*29
$IIVLW,06373,N,000.0,N*52
$HCHDG,217.5,0.0,E,,*28
$HCHDG,217.3,0.0,E,,*2E
$GPRMC,164026.4,A,4921.26357,N,12316.64746,W,004.15,233.3,220913,017.3,E,A*20
$PGRME,3.0,M,3.0,M,4.3,M*29
$HCHDG,217.0,0.0,E,,*2D
$YXXDR,A,5.3,D,PTCH,A,9.5,D,ROLL*57
$HCHDG,216.6,0.0,E,,*2A
$GPRMC,164026.6,A,4921.26343,N,12316.64776,W,004.12,232.6,220913,017.3,E,A*27
$PGRME,3.0,M,3.0,M,4.3,M*29
$HCHDG,216.6,0.0,E,,*2A
$IIVWR,132,L,07.2,N,,,,*7A
$HCHDG,216.3,0.0,E,,*2F
$IIDPT,007.4,-1.0,*43
$GPRMC,164026.8,A,4921.26326,N,12316.64806,W,004.14,230.9,220913,017.3,E,A*29
$PGRME,3.0,M,3.0,M,4.3,M*29
$HCHDG,216.3,0.0,E,,*2F
$IIGLL,4921.263,N,12316.646,W,164000,A,A*4B
$IIMTW,+13.0,C*3A
$HCHDG,216.5,0.0,E,,*29
$IIMWV,228,R,07.2,N,A*1E
$GPRMC,164027.0,A,4921.26307,N,12316.64831,W,004.08,233.1,220913,017.3,E,A*21
$PGRME,3.0,M,3.0,M,4.3,M*29
$IIMWV,209,T,10.7,N,A*18
$YXXDR,A,5.0,D,PTCH,A,8.6,D,ROLL*56
$HCHDG,216.4,0.0,E,,*28
$IIRMB,A,,,,Shil,,,,,106.0,161,,V,A*2A
$HCHDG,216.7,0.0,E,,*2B
$GPRMC,164027.2,A,4921.26283,N,12316.64857,W,004.12,233.1,220913,017.3,E,A*25
$PGRME,3.0,M,3.0,M,4.3,M*29
$IIRMC,164000,A,4921.263,N,12316.646,W,04.1,239,220913,17,E,A*17
$HCHDG,217.0,0.0,E,,*2D
$HCHDG,217.0,0.0,E,,*2D
$GPRMC,164027.4,A,4921.26269,N,12316.64882,W,004.25,234.1,220913,017.3,E,A*2C
$PGRME,3.0,M,3.0,M,4.3,M*29
$HCHDG,217.4,0.0,E,,*29
$YXXDR,A,4.9,D,PTCH,A,6.9,D,ROLL*5F
$HCHDG,217.7,0.0,E,,*2A
$GPRMC,164027.6,A,4921.26251,N,12316.64913,W,004.28,236.6,220913,017.3,E,A*24
$GPRMB,A,-35.09,L,,Shil,4741.0830,N,12224.5670,W,106.0,161,1.04,V*2C
$PGRME,3.0,M,3.0,M,4.3,M*29
$HCHDG,217.9,0.0,E,,*24
$IIVHW,,,,,04.8,N,,*15
$HCHDG,218.2,0.0,E,,*20
$IIVLW,06373,N,000.0,N*52
$GPRMC,164027.8,A,4921.26236,N,12316.64945,W,004.34,232.7,220913,017.3,E,A*20
$PGRME,3.0,M,3.0,M,4.3,M*29
$IIVWR,133,L,08.1,N,,,,*77
$HCHDG,218.3,0.0,E,,*21
$IIDPT,007.6,-1.0,*41
$HCHDG,218.5,0.0,E,,*27
$IIGLL,4921.263,N,12316.648,W,164000,A,A*45
$GPRMC,164028.0,A,4921.26222,N,12316.64976,W,004.08,238.2,220913,017.3,E,A*22
$PGRME,3.0,M,3.0,M,4.3,M*29
$IIMTW,+13.0,C*3A
$YXXDR,A,5.5,D,PTCH,A,6.5,D,ROLL*5E
$PTAK,FFD1,6.5*56
$IIMWV,227,R,08.1,N,A*1D
$HCHDG,218.7,0.0,E,,*25
$IIMWV,209,T,11.1,N,A*1F
$HCHDG,218.8,0.0,E,,*2A
$GPRMC,164028.2,A,4921.26208,N,12316.65011,W,004.02,234.7,220913,017.3,E,A*22
$IIRMB,A,,,,Shil,,,,,106.0,161,,V,A*2A
$PGRME,3.0,M,3.0,M,4.3,M*29
$HCHDG,218.9,0.0,E,,*2B
$HCHDG,218.9,0.0,E,,*2B
$GPRMC,164028.4,A,4921.26197,N,12316.65040,W,003.96,232.5,220913,017.3,E,A*2B
$PGRME,3.0,M,3.0,M,4.3,M*29
$HCHDG,219.0,0.0,E,,*23
$YXXDR,A,5.2,D,PTCH,A,6.6,D,ROLL*5A
$HCHDG,219.2,0.0,E,,*21
$GPRMC,164028.6,A,4921.26178,N,12316.65070,W,004.29,225.0,220913,017.3,E,A*2B
$PGRME,3.0,M,3.0,M,4.3,M*29
$HCHDG,219.0,0.0,E,,*23
$HCHDG,219.3,0.0,E,,*20
$GPRMC,164028.8,A,4921.26161,N,12316.65097,W,004.35,221.6,220913,017.3,E,A*2B
$IIRMC,164000,A,4921.262,N,12316.649,W,04.3,232,220913,17,E,A*10
$PGRME,3.0,M,3.0,M,4.3,M*29
$HCHDG,219.2,0.0,E,,*21
$IIVHW,,,,,04.7,N,,*1A
$IIVLW,06373,N,000.0,N*52
$HCHDG,219.4,0.0,E,,*27
$IIVWR,142,L,08.7,N,,,,*77
$GPRMC,164029.0,A,4921.26145,N,12316.65115,W,004.30,224.7,220913,017.3,E,A*2E
$PGRME,3.0,M,3.0,M,4.3,M*29
$IIDPT,007.6,-1.0,*41
$YXXDR,A,4.2,D,PTCH,A,6.3,D,ROLL*5E
$HCHDG,219.6,0.0,E,,*25
$PTAK,FFP1,HEEL,@*07
$IIGLL,4921.262,N,12316.649,W,164000,A,A*45
$HCHDG,219.7,0.0,E,,*24
$IIMTW,+13.0,C*3A
$GPRMC,164029.2,A,4921.26134,N,12316.65136,W,004.02,235.6,220913,017.3,E,A*2B
$GPRMB,A,-35.09,L,,Shil,4741.0830,N,12224.5670,W,106.0,161,1.05,V*2D
$PGRME,3.0,M,3.0,M,4.3,M*29
$IIMWV,218,R,08.7,N,A*17
$HCHDG,220.0,0.0,E,,*29
$IIMWV,210,T,11.9,N,A*1F
$HCHDG,220.2,0.0,E,,*2B
$GPRMC,164029.4,A,4921.26115,N,12316.65174,W,004.04,237.3,220913,017.3,E,A*29
$PGRME,3.0,M,3.0,M,4.3,M*29
$HCHDG,220.3,0.0,E,,*2A
$YXXDR,A,4.6,D,PTCH,A,5.7,D,ROLL*5D
$PTAK,FFD1,5.7*57
$HCHDG,220.7,0.0,E,,*2E
$GPRMC,164029.6,A,4921.26090,N,12316.65216,W,003.99,237.5,220913,017.3,E,A*25
$PGRME,3.0,M,3.0,M,4.3,M*29
$HCHDG,221.0,0.0,E,,*28
$HCHDG,221.3,0.0,E,,*2B
$IIRMB,A,,,,Shil,,,,,106.0,161,,V,A*2A
$GPRMC,164029.8,A,4921.26074,N,12316.65242,W,004.34,236.5,220913,017.3,E,A*21
$PGRME,3.0,M,3.0,M,4.3,M*29
$HCHDG,221.3,0.0,E,,*2B
$IIRMC,164000,A,4921.261,N,12316.650,W,04.3,221,220913,17,E,A*19
$IIVHW,,,,,04.6,N,,*1B
$HCHDG,221.6,0.0,E,,*2E
$GPRMC,164030.0,A,4921.26062,N,12316.65266,W,003.81,242.9,220913,017.3,E,A*26
$IIVLW,06373,N,000.0,N*52
$PGRME,3.0,M,3.0,M,4.3,M*29
$YXXDR,A,5.2,D,PTCH,A,5.6,D,ROLL*59
$IIVWR,146,L,08.5,N,,,,*71
$HCHDG,221.8,0.0,E,,*20
$IIDPT,007.6,-1.0,*41
$HCHDG,222.0,0.0,E,,*2B
$IIGLL,4921.261,N,12316.650,W,164000,A,A*4E
$GPRMC,164030.2,A,4921.26052,N,12316.65295,W,004.15,239.9,220913,017.3,E,A*2D
$GPRMB,A,-35.09,L,,Shil,4741.0830,N,12224.5670,W,106.0,161,0.78,V*26
$PGRME,3.0,M,3.0,M,4.3,M*29
$IIMTW,+13.0,C*3A
$HCHDG,222.2,0.0,E,,*29
$IIMWV,214,R,08.5,N,A*19
$HCHDG,221.9,0.0,E,,*21
$GPRMC,164030.4,A,4921.26035,N,12316.65330,W,004.13,238.9,220913,017.3,E,A*23
$PGRME,3.0,M,3.0,M,4.3,M*29
$HCHDG,221.9,0.0,E,,*21
$YXXDR,A,5.3,D,PTCH,A,6.2,D,ROLL*5F
$PTAK,FFD1,6.2*51
$HCHDG,221.8,0.0,E,,*20
$GPRMC,164030.6,A,4921.26026,N,12316.65357,W,003.73,242.2,220913,017.3,E,A*25
$PGRME,3.0,M,3.0,M,4.3,M*29
$HCHDG,221.6,0.0,E,,*2E
$IIMWV,202,T,12.5,N,A*13
$HCHDG,221.2,0.0,E,,*2A
$GPRMC,164030.8,A,4921.26010,N,12316.65378,W,003.88,239.3,220913,017.3,E,A*2A
$PGRME,3.0,M,3.0,M,4.3,M*29
$IIRMB,A,,,,Shil,,,,,106.0,161,,V,A*2A
$HCHDG,221.2,0.0,E,,*2A
$IIRMC,164000,A,4921.260,N,12316.652,W,03.8,242,220913,17,E,A*13
$HCHDG,221.2,0.0,E,,*2A
$IIVHW,,,,,04.5,N,,*18
$GPRMC,164031.0,A,4921.25999,N,12316.65409,W,004.03,237.6,220913,017.3,E,A*26
$PGRME,3.0,M,3.0,M,4.3,M*29
$YXXDR,A,4.9,D,PTCH,A,6.9,D,ROLL*5F
$IIVLW,06373,N,000.0,N*52
$HCHDG,221.1,0.0,E,,*29
$IIVWR,144,L,08.9,N,,,,*7F
$HCHDG,221.1,0.0,E,,*29
$IIDPT,007.8,-1.0,*4F
$GPRMC,164031.2,A,4921.25986,N,12316.65435,W,004.19,237.9,220913,017.3,E,A*21
$PGRME,3.0,M,3.0,M,4.3,M*29
$HCHDG,220.9,0.0,E,,*20
$IIGLL,4921.260,N,12316.652,W,164000,A,A*4D
$IIMTW,+13.0,C*3A
$HCHDG,220.8,0.0,E,,*21
$GPRMC,164031.4,A,4921.25977,N,12316.65465,W,003.96,239.1,220913,017.3,E,A*2A
$GPRMB,A,-35.09,L,,Shil,4741.0830,N,12224.5670,W,106.0,161,0.79,V*27
$PGRME,3.0,M,3.0,M,4.3,M*29
$HCHDG,221.0,0.0,E,,*28
$YXXDR,A,5.1,D,PTCH,A,6.5,D,ROLL*5A
$HCHDG,220.8,0.0,E,,*21
$GPRMC,164031.6,A,4921.25965,N,12316.65489,W,004.00,239.7,220913,017.3,E,A*27
$PGRME,3.0,M,3.0,M,4.3,M*29
$HCHDG,221.0,0.0,E,,*28
$IIMWV,217,R,08.8,N,A*17
$HCHDG,221.0,0.0,E,,*28
$IIMWV,204,T,12.8,N,A*18
$GPRMC,164031.8,A,4921.25952,N,12316.65521,W,004.13,237.0,220913,017.3,E,A*25
$PGRME,3.0,M,3.0,M,4.3,M*29
$HCHDG,220.9,0.0,E,,*20
$IIRMB,A,,,,Shil,,,,,106.0,161,,V,A*2A
$HCHDG,221.0,0.0,E,,*28
$GPRMC,164032.0,A,4921.25943,N,12316.65557,W,004.08,240.6,220913,017.3,E,A*23
$IIRMC,164000,A,4921.259,N,12316.654,W,04.0,237,220913,17,E,A*12
$PGRME,3.0,M,3.0,M,4.3,M*29
$YXXDR,A,5.3,D,PTCH,A,7.2,D,ROLL*5E
$PTAK,FFD1,7.2*50
$IIVHW,,,,,04.5,N,,*18
$HCHDG,221.0,0.0,E,,*28
$IIVLW,06373,N,000.0,N*52
$HCHDG,221.1,0.0,E,,*29
$IIVWR,143,L,08.8,N,,,,*79
$GPRMC,164032.2,A,4921.25932,N,12316.65588,W,004.16,241.8,220913,017.3,E,A*25
$IIDPT,007.8,-1.0,*4F
$PGRME,3.0,M,3.0,M,4.3,M*29
$HCHDG,221.2,0.0,E,,*2A
$HCHDG,221.3,0.0,E,,*2B
$GPRMC,164032.4,A,4921.25915,N,12316.65615,W,004.06,241.2,220913,017.3,E,A*2A
$GPRMB,A,-35.09,L,,Shil,4741.0830,N,12224.5670,W,106.0,161,0.67,V*28
$PGRME,3.0,M,3.0,M,4.3,M*29
$HCHDG,221.3,0.0,E,,*2B
$YXXDR,A,5.3,D,PTCH,A,7.1,D,ROLL*5D
$HCHDG,221.1,0.0,E,,*29
$GPRMC,164032.6,A,4921.25900,N,12316.65647,W,004.12,244.7,220913,017.3,E,A*2E
$PGRME,3.0,M,3.0,M,4.3,M*29
$HCHDG,220.9,0.0,E,,*20
$HCHDG,220.8,0.0,E,,*21
$IIGLL,4921.259,N,12316.655,W,164000,A,A*40
$GPRMC,164032.8,A,4921.25881,N,12316.65675,W,004.11,240.1,220913,017.3,E,A*28
$IIMTW,+13.0,C*3A
$PGRME,3.0,M,3.0,M,4.3,M*29
$HCHDG,220.6,0.0,E,,*2F
$IIMWV,223,R,08.7,N,A*1F
$IIMWV,204,T,12.6,N,A*16
$HCHDG,220.4,0.0,E,,*2D
$IIRMB,A,,,,Shil,,,,,106.0,161,,V,A*2A
$GPRMC,164033.0,A,4921.25860,N,12316.65701,W,004.06,239.6,220913,017.3,E,A*23
$PGRME,3.0,M,3.0,M,4.3,M*29
$YXXDR,A,5.1,D,PTCH,A,7.9,D,ROLL*57
$HCHDG,220.1,0.0,E,,*28
$IIRMC,164000,A,4921.259,N,12316.655,W,04.0,240,220913,17,E,A*13
$HCHDG,219.9,0.0,E,,*2A
$PTAK,FFP1,HEEL,@*07
$IIVHW,,,,,04.4,N,,*19
$GPRMC,164033.2,A,4921.25849,N,12316.65728,W,004.01,241.1,220913,017.3,E,A*2E
$PGRME,3.0,M,3.0,M,4.3,M*29
$IIVLW,06373,N,000.0,N*52
$HCHDG,219.8,0.0,E,,*2B
$HCHDG,219.8,0.0,E,,*2B
$GPRMC,164033.4,A,4921.25838,N,12316.65760,W,003.99,239.9,220913,017.3,E,A*23
$PGRME,3.0,M,3.0,M,4.3,M*29
$HCHDG,219.5,0.0,E,,*26
$YXXDR,A,5.1,D,PTCH,A,8.1,D,ROLL*50
$PTAK,FFD1,8.1*5C
$HCHDG,219.5,0.0,E,,*26
$GPRMC,164033.6,A,4921.25827,N,12316.65783,W,003.97,237.6,220913,017.3,E,A*2D
$GPRMB,A,-35.09,L,,Shil,4741.0830,N,12224.5670,W,106.0,161,0.90,V*20
$PGRME,3.0,M,3.0,M,4.3,M*29
$HCHDG,219.4,0.0,E,,*27
$IIVWR,130,L,09.0,N,,,,*74
$HCHDG,219.3,0.0,E,,*20
$IIDPT,008.0,-1.0,*48
$GPRMC,164033.8,A,4921.25813,N,12316.65809,W,003.99,236.3,220913,017.3,E,A*23
$PGRME,3.0,M,3.0,M,4.3,M*29
$HCHDG,219.2,0.0,E,,*21
$IIGLL,4921.258,N,12316.657,W,164000,A,A*43
$IIMTW,+13.0,C*3A
$HCHDG,219.2,0.0,E,,*21
$IIMWV,230,R,09.0,N,A*1B
$GPRMC,164034.0,A,4921.25799,N,12316.65838,W,004.02,235.0,220913,017.3,E,A*26
$PGRME,3.0,M,3.0,M,4.3,M*29
$IIMWV,209,T,12.3,N,A*1E
$YXXDR,A,4.9,D,PTCH,A,7.8,D,ROLL*5F
$HCHDG,219.0,0.0,E,,*23
$IIRMB,A,,,,Shil,,,,,106.0,161,,V,A*2A
$HCHDG,219.0,0.0,E,,*23
$GPRMC,164034.2,A,4921.25782,N,12316.65865,W,004.07,236.3,220913,017.3,E,A*23
$PGRME,3.0,M,3.0,M,4.3,M*29
$IIRMC,164000,A,4921.258,N,12316.657,W,04.0,239,220913,17,E,A*1E
$HCHDG,219.3,0.0,E,,*20
$HCHDG,219.1,0.0,E,,*22
$GPRMC,164034.4,A,4921.25770,N,12316.65891,W,004.09,236.2,220913,017.3,E,A*2C
$PGRME,3.0,M,3.0,M,4.3,M*29
$HCHDG,219.4,0.0,E,,*27
$YXXDR,A,5.0,D,PTCH,A,7.0,D,ROLL*5F
$PTAK,FFD1,7.0*52
$HCHDG,219.4,0.0,E,,*27
$GPRMC,164034.6,A,4921.25760,N,12316.65917,W,004.06,237.8,220913,017.3,E,A*24
$PGRME,3.0,M,3.0,M,4.3,M*29
$HCHDG,219.5,0.0,E,,*26
$IIVHW,,,,,04.3,N,,*1E
$HCHDG,219.6,0.0,E,,*25
$IIVLW,06373,N,000.1,N*53
$GPRMC,164034.8,A,4921.25746,N,12316.65952,W,004.03,240.6,220913,017.3,E,A*24
$GPRMB,A,-35.09,L,,Shil,4741.0830,N,12224.5670,W,106.0,161,0.70,V*2E
$PGRME,3.0,M,3.0,M,4.3,M*29
$IIVWR,129,L,08.4,N,,,,*79
$HCHDG,219.6,0.0,E,,*25
$IIDPT,008.0,-1.0,*48
$HCHDG,219.7,0.0,E,,*24
$IIGLL,4921.257,N,12316.658,W,164000,A,A*43
$GPRMC,164035.0,A,4921.25730,N,12316.65991,W,003.87,238.2,220913,017.3,E,A*23
$PGRME,3.0,M,3.0,M,4.3,M*29
$IIMTW,+13.0,C*3A
$YXXDR,A,4.8,D,PTCH,A,6.4,D,ROLL*53
$IIMWV,231,R,08.4,N,A*1F
$HCHDG,219.8,0.0,E,,*2B
$IIMWV,214,T,12.3,N,A*12
$HCHDG,219.7,0.0,E,,*24
$GPRMC,164035.2,A,4921.25716,N,12316.66029,W,003.88,239.5,220913,017.3,E,A*25
$IIRMB,A,,,,Shil,,,,,106.0,161,,V,A*2A
$PGRME,3.0,M,3.0,M,4.3,M*29
$HCHDG,219.8,0.0,E,,*2B
$HCHDG,219.5,0.0,E,,*26
$GPRMC,164035.4,A,4921.25701,N,12316.66056,W,003.90,235.4,220913,017.3,E,A*29
$PGRME,3.0,M,3.0,M,4.3,M*29
$HCHDG,219.6,0.0,E,,*25
$YXXDR,A,4.2,D,PTCH,A,6.5,D,ROLL*58
$PTAK,FFD1,6.5*56
$HCHDG,219.2,0.0,E,,*21
$GPRMC,164035.6,A,4921.25683,N,12316.66101,W,003.90,237.2,220913,017.3,E,A*27
$PGRME,3.0,M,3.0,M,4.3,M*29
$HCHDG,219.1,0.0,E,,*22
$HCHDG,219.1,0.0,E,,*22
$GPRMC,164035.8,A,4921.25669,N,12316.66128,W,003.90,238.4,220913,017.3,E,A*2F
$PGRME,3.0,M,3.0,M,4.3,M*29
$IIRMC,164000,A,4921.257,N,12316.659,W,03.8,238,220913,17,E,A*11
$HCHDG,218.9,0.0,E,,*2B
$IIVHW,,,,,04.3,N,,*1E
$IIVLW,06373,N,000.1,N*53
$HCHDG,218.9,0.0,E,,*2B
$IIVWR,119,L,08.4,N,,,,*7A
$GPRMC,164036.0,A,4921.25658,N,12316.66146,W,003.86,238.3,220913,017.3,E,A*2E
$GPRMB,A,-35.09,L,,Shil,4741.0830,N,12224.5670,W,106.0,161,0.83,V*22
$PGRME,3.0,M,3.0,M,4.3,M*29
$IIDPT,008.0,-1.0,*48
$YXXDR,A,4.4,D,PTCH,A,6.9,D,ROLL*52
$HCHDG,219.1,0.0,E,,*22
$IIGLL,4921.257,N,12316.659,W,164000,A,A*42
$IIMTW,+13.0,C*3A
$HCHDG,219.1,0.0,E,,*22
$GPRMC,164036.2,A,4921.25648,N,12316.66169,W,003.90,239.9,220913,017.3,E,A*2C
$IIMWV,241,R,08.4,N,A*18
$PGRME,3.0,M,3.0,M,4.3,M*29
$HCHDG,219.1,0.0,E,,*22
$IIMWV,214,T,11.5,N,A*17
$HCHDG,218.9,0.0,E,,*2B
$GPRMC,164036.4,A,4921.25633,N,12316.66193,W,003.89,240.0,220913,017.3,E,A*2C
$PGRME,3.0,M,3.0,M,4.3,M*29
$HCHDG,219.1,0.0,E,,*22
$YXXDR,A,5.1,D,PTCH,A,6.9,D,ROLL*56
$HCHDG,218.9,0.0,E,,*2B
$GPRMC,164036.6,A,4921.25611,N,12316.66227,W,003.87,238.4,220913,017.3,E,A*27
$PGRME,3.0,M,3.0,M,4.3,M*29
$HCHDG,219.0,0.0,E,,*23
$HCHDG,219.0,0.0,E,,*23
$IIRMB,A,,,,Shil,,,,,106.0,161,,V,A*2A
$GPRMC,164036.8,A,4921.25602,N,12316.66250,W,003.55,241.1,220913,017.3,E,A*2F
$PGRME,3.0,M,3.0,M,4.3,M*29
$HCHDG,219.0,0.0,E,,*23
$IIRMC,164000,A,4921.256,N,12316.661,W,03.8,238,220913,17,E,A*1B
$IIVHW,,,,,04.2,N,,*1F
$HCHDG,218.8,0.0,E,,*2A
$GPRMC,164037.0,A,4921.25594,N,12316.66275,W,003.62,238.0,220913,017.3,E,A*26
$IIVLW,06373,N,000.1,N*53
$PGRME,3.0,M,3.0,M,4.3,M*29
$YXXDR,A,5.1,D,PTCH,A,7.3,D,ROLL*5D
$PTAK,FFD1,7.3*51
$IIVWR,123,L,07.7,N,,,,*7F
$HCHDG,218.9,0.0,E,,*2B
$IIDPT,008.0,-1.0,*48
$HCHDG,218.7,0.0,E,,*25
$IIGLL,4921.256,N,12316.661,W,164000,A,A*48
$GPRMC,164037.2,A,4921.25584,N,12316.66309,W,003.41,240.3,220913,017.3,E,A*22
$GPRMB,A,-35.09,L,,Shil,4741.0830,N,12224.5670,W,106.0,161,0.61,V*2E
$PTAK,FFP1,HEEL,@*07
$PGRME,3.0,M,3.0,M,4.3,M*29
$IIMTW,+13.0,C*3A
$HCHDG,218.7,0.0,E,,*25
$IIMWV,237,R,07.7,N,A*15
$HCHDG,218.5,0.0,E,,*27
$GPRMC,164037.4,A,4921.25570,N,12316.66335,W,003.44,240.9,220913,017.3,E,A*2F
$PGRME,3.0,M,3.0,M,4.3,M*29
$HCHDG,218.5,0.0,E,,*27
$YXXDR,A,4.3,D,PTCH,A,7.7,D,ROLL*5A
$HCHDG,218.4,0.0,E,,*26
$GPRMC,164037.6,A,4921.25561,N,12316.66358,W,003.63,242.5,220913,017.3,E,A*2D
$PGRME,3.0,M,3.0,M,4.3,M*29
$HCHDG,218.3,0.0,E,,*21
$IIMWV,217,T,10.5,N,A*15
$HCHDG,218.4,0.0,E,,*26
$GPRMC,164037.8,A,4921.25551,N,12316.66378,W,003.67,240.1,220913,017.3,E,A*20
$PGRME,3.0,M,3.0,M,4.3,M*29
$IIRMB,A,,,,Shil,,,,,106.0,161,,V,A*2A
$HCHDG,218.5,0.0,E,,*27
$IIRMC,164000,A,4921.255,N,12316.663,W,03.4,240,220913,17,E,A*19
$HCHDG,218.8,0.0,E,,*2A
$IIVHW,,,,,04.1,N,,*1C
$GPRMC,164038.0,A,4921.25540,N,12316.66407,W,003.84,238.5,220913,017.3,E,A*2E
$PGRME,3.0,M,3.0,M,4.3,M*29
$YXXDR,A,5.3,D,PTCH,A,7.2,D,ROLL*5E
$IIVLW,06373,N,000.1,N*53
$HCHDG,219.0,0.0,E,,*23
$IIVWR,130,L,07.6,N,,,,*7C
$HCHDG,219.3,0.0,E,,*20
$IIDPT,008.0,-1.0,*48
$GPRMC,164038.2,A,4921.25530,N,12316.66440,W,004.02,241.2,220913,017.3,E,A*28
$PGRME,3.0,M,3.0,M,4.3,M*29
$HCHDG,219.0,0.0,E,,*23
$IIGLL,4921.255,N,12316.663,W,164000,A,A*49
$IIMTW,+13.0,C*3A
$HCHDG,219.0,0.0,E,,*23
$GPRMC,164038.4,A,4921.25521,N,12316.66470,W,004.01,242.2,220913,017.3,E,A*2D
$GPRMB,A,-35.10,L,,Shil,4741.0830,N,12224.5670,W,106.0,161,0.59,V*2D
$PGRME,3.0,M,3.0,M,4.3,M*29
$HCHDG,219.0,0.0,E,,*23
$YXXDR,A,5.9,D,PTCH,A,7.8,D,ROLL*5E
$PTAK,FFD1,7.8*5A
$HCHDG,218.9,0.0,E,,*2B
$GPRMC,164038.6,A,4921.25509,N,12316.66499,W,003.99,234.1,220913,017.3,E,A*26
$PGRME,3.0,M,3.0,M,4.3,M*29
$HCHDG,218.8,0.0,E,,*2A
$IIMWV,224,R,08.0,N,A*1F
$HCHDG,218.9,0.0,E,,*2B
$IIMWV,213,T,10.7,N,A*13
$GPRMC,164038.8,A,4921.25496,N,12316.66528,W,003.97,232.6,220913,017.3,E,A*2B
$PGRME,3.0,M,3.0,M,4.3,M*29
$HCHDG,218.7,0.0,E,,*25
$IIRMB,A,,,,Shil,,,,,106.0,161,,V,A*2A
$HCHDG,218.9,0.0,E,,*2B
$IIRMC,164000,A,4921.255,N,12316.664,W,04.0,241,220913,17,E,A*1C
$GPRMC,164039.0,A,4921.25477,N,12316.66553,W,004.04,227.2,220913,017.3,E,A*2C
$PGRME,3.0,M,3.0,M,4.3,M*29
$YXXDR,A,5.5,D,PTCH,A,8.1,D,ROLL*54
$IIVHW,,,,,04.1,N,,*1C
$HCHDG,218.8,0.0,E,,*2A
$IIVLW,06373,N,000.1,N*53
$HCHDG,218.7,0.0,E,,*25
$IIVWR,136,L,08.0,N,,,,*73
$GPRMC,164039.2,A,4921.25464,N,12316.66575,W,003.57,239.2,220913,017.3,E,A*26
$IIDPT,008.2,-1.0,*4A
$PGRME,3.0,M,3.0,M,4.3,M*29
$HCHDG,218.7,0.0,E,,*25
$HCHDG,218.7,0.0,E,,*25
$GPRMC,164039.4,A,4921.25454,N,12316.66594,W,003.85,237.9,220913,017.3,E,A*26
$PGRME,3.0,M,3.0,M,4.3,M*29
$HCHDG,219.1,0.0,E,,*22
$YXXDR,A,4.5,D,PTCH,A,6.6,D,ROLL*5C
$HCHDG,219.1,0.0,E,,*22
$GPRMC,164039.6,A,4921.25446,N,12316.66621,W,003.85,241.8,220913,017.3,E,A*2A
$GPRMB,A,-35.10,L,,Shil,4741.0830,N,12224.5670,W,106.0,161,0.59,V*2D
$PGRME,3.0,M,3.0,M,4.3,M*29
$HCHDG,219.2,0.0,E,,*21
$HCHDG,219.3,0.0,E,,*20
$IIGLL,4921.254,N,12316.665,W,164000,A,A*4E
$GPRMC,164039.8,A,4921.25436,N,12316.66641,W,003.79,244.2,220913,017.3,E,A*29
$IIMTW,+13.0,C*3A
$PGRME,3.0,M,3.0,M,4.3,M*29
$HCHDG,219.5,0.0,E,,*26
$IIMWV,235,R,08.6,N,A*19
$IIMWV,209,T,11.3,N,A*1D
$HCHDG,219.8,0.0,E,,*2B
$IIRMB,A,,,,Shil,,,,,106.0,161,,V,A*2A
$GPRMC,164040.0,A,4921.25427,N,12316.66668,W,004.02,242.0,220913,017.3,E,A*2B
$PGRME,3.0,M,3.0,M,4.3,M*29
$YXXDR,A,4.8,D,PTCH,A,5.8,D,ROLL*5C
$PTAK,FFD1,5.8*58
$HCHDG,219.7,0.0,E,,*24
$IIRMC,164000,A,4921.254,N,12316.665,W,03.5,239,220913,17,E,A*11
$HCHDG,219.8,0.0,E,,*2B
$IIVHW,,,,,04.1,N,,*1C
$GPRMC,164040.2,A,4921.25413,N,12316.66699,W,004.22,241.9,220913,017.3,E,A*28
$PGRME,3.0,M,3.0,M,4.3,M*29
$IIVLW,06373,N,000.1,N*53
$HCHDG,219.9,0.0,E,,*2A
$HCHDG,219.7,0.0,E,,*24
$GPRMC,164040.4,A,4921.25399,N,12316.66747,W,004.45,235.2,220913,017.3,E,A*20
$PGRME,3.0,M,3.0,M,4.3,M*29
$HCHDG,219.8,0.0,E,,*2B
$YXXDR,A,5.5,D,PTCH,A,6.6,D,ROLL*5D
$HCHDG,219.6,0.0,E,,*25
$GPRMC,164040.6,A,4921.25382,N,12316.66790,W,004.42,234.4,220913,017.3,E,A*22
$GPRMB,A,-35.10,L,,Shil,4741.0830,N,12224.5670,W,106.0,161,1.24,V*26
$PGRME,3.0,M,3.0,M,4.3,M*29
$HCHDG,219.4,0.0,E,,*27
$IIVWR,125,L,08.6,N,,,,*77
$HCHDG,219.2,0.0,E,,*21
$IIDPT,008.4,-1.0,*4C
$GPRMC,164040.8,A,4921.25367,N,12316.66816,W,004.12,239.2,220913,017.3,E,A*28
$PGRME,3.0,M,3.0,M,4.3,M*29
$HCHDG,218.9,0.0,E,,*2B
$IIGLL,4921.253,N,12316.667,W,164000,A,A*4B
$IIMTW,+13.0,C*3A
$HCHDG,218.6,0.0,E,,*24
$IIMWV,235,R,08.6,N,A*19
$GPRMC,164041.0,A,4921.25354,N,12316.66848,W,004.11,233.8,220913,017.3,E,A*29
$PGRME,3.0,M,3.0,M,4.3,M*29
$IIMWV,218,T,11.4,N,A*1A
$YXXDR,A,5.6,D,PTCH,A,7.8,D,ROLL*51
$PTAK,FFD1,7.8*5A
$HCHDG,218.4,0.0,E,,*26
$IIRMB,A,,,,Shil,,,,,106.0,161,,V,A*2A
$HCHDG,218.1,0.0,E,,*23
$GPRMC,164041.2,A,4921.25341,N,12316.66878,W,003.74,237.1,220913,017.3,E,A*25
$PGRME,3.0,M,3.0,M,4.3,M*29
$IIRMC,164000,A,4921.253,N,12316.667,W,04.4,235,220913,17,E,A*1E
$HCHDG,217.6,0.0,E,,*2B
$PTAK,FFP1,HEEL,@*07
$HCHDG,217.4,0.0,E,,*29
$GPRMC,164041.4,A,4921.25329,N,12316.66897,W,003.75,235.1,220913,017.3,E,A*2F
$PGRME,3.0,M,3.0,M,4.3,M*29
$HCHDG,217.2,0.0,E,,*2F
$YXXDR,A,4.8,D,PTCH,A,7.9,D,ROLL*5F
$HCHDG,217.2,0.0,E,,*2F
$GPRMC,164041.6,A,4921.25315,N,12316.66911,W,003.68,239.2,220913,017.3,E,A*2E
$PGRME,3.0,M,3.0,M,4.3,M*29
$HCHDG,217.0,0.0,E,,*2D
$IIVHW,,,,,04.1,N,,*1C
$HCHDG,216.9,0.0,E,,*25
$IIVLW,06373,N,000.1,N*53
$GPRMC,164041.8,A,4921.25300,N,12316.66932,W,003.67,237.6,220913,017.3,E,A*20
$GPRMB,A,-35.10,L,,Shil,4741.0830,N,12224.5670,W,106.0,161,0.83,V*2A
$PGRME,3.0,M,3.0,M,4.3,M*29
$IIVWR,129,L,09.0,N,,,,*7C
$HCHDG,217.0,0.0,E,,*2D
$IIDPT,008.5,-1.0,*4D
$HCHDG,217.0,0.0,E,,*2D
$IIGLL,4921.253,N,12316.668,W,164000,A,A*44
$GPRMC,164042.0,A,4921.25291,N,12316.66954,W,003.72,237.1,220913,017.3,E,A*21
$PGRME,3.0,M,3.0,M,4.3,M*29
$IIMTW,+13.0,C*3A
$YXXDR,A,4.5,D,PTCH,A,7.5,D,ROLL*5E
$PTAK,FFD1,7.5*57
$IIMWV,231,R,09.0,N,A*1A
$HCHDG,217.1,0.0,E,,*2C
$IIMWV,218,T,11.4,N,A*1A
$HCHDG,217.1,0.0,E,,*2C
$GPRMC,164042.2,A,4921.25281,N,12316.66983,W,003.75,241.2,220913,017.3,E,A*2D
$IIRMB,A,,,,Shil,,,,,106.0,161,,V,A*2A
$PGRME,3.0,M,3.0,M,4.3,M*29
$HCHDG,217.3,0.0,E,,*2E
$HCHDG,217.4,0.0,E,,*29
$GPRMC,164042.4,A,4921.25273,N,12316.67010,W,003.77,239.3,220913,017.3,E,A*28
$PGRME,3.0,M,3.0,M,4.3,M*29
$HCHDG,217.3,0.0,E,,*2E
$YXXDR,A,4.9,D,PTCH,A,7.2,D,ROLL*55
$HCHDG,217.5,0.0,E,,*28
$GPRMC,164042.6,A,4921.25261,N,12316.67041,W,004.00,234.2,220913,017.3,E,A*26
$PGRME,3.0,M,3.0,M,4.3,M*29
$HCHDG,217.2,0.0,E,,*2F
$HCHDG,217.2,0.0,E,,*2F
$GPRMC,164042.8,A,4921.25250,N,12316.67074,W,003.79,233.5,220913,017.3,E,A*25
$PGRME,3.0,M,3.0,M,4.3,M*29
$IIRMC,164000,A,4921.252,N,12316.670,W,03.7,239,220913,17,E,A*11
$HCHDG,217.3,0.0,E,,*2E
$IIVHW,,,,,04.1,N,,*1C
$IIVLW,06373,N,000.1,N*53
$HCHDG,217.1,0.0,E,,*2C
$IIVWR,123,L,08.9,N,,,,*7E
$GPRMC,164043.0,A,4921.25238,N,12316.67104,W,003.79,237.1,220913,017.3,E,A*24
$GPRMB,A,-35.10,L,,Shil,4741.0830,N,12224.5670,W,106.0,161,0.89,V*20
$PGRME,3.0,M,3.0,M,4.3,M*29
$IIDPT,008.5,-1.0,*4D
$YXXDR,A,5.3,D,PTCH,A,7.4,D,ROLL*58
$PTAK,FFD1,7.4*56
$HCHDG,217.3,0.0,E,,*2E
$IIGLL,4921.252,N,12316.670,W,164000,A,A*4C
$HCHDG,217.3,0.0,E,,*2E
$IIMTW,+13.0,C*3A
$GPRMC,164043.2,A,4921.25225,N,12316.67126,W,003.75,235.2,220913,017.3,E,A*27
$IIMWV,237,R,08.9,N,A*14
$PGRME,3.0,M,3.0,M,4.3,M*29
$HCHDG,217.1,0.0,E,,*2C
$IIMWV,216,T,11.9,N,A*19
$HCHDG,217.1,0.0,E,,*2C
$GPRMC,164043.4,A,4921.25212,N,12316.67157,W,003.82,238.0,220913,017.3,E,A*24
$PGRME,3.0,M,3.0,M,4.3,M*29
$HCHDG,217.1,0.0,E,,*2C
$YXXDR,A,4.8,D,PTCH,A,7.0,D,ROLL*56
$HCHDG,217.2,0.0,E,,*2F
$GPRMC,164043.6,A,4921.25191,N,12316.67186,W,004.19,228.9,220913,017.3,E,A*2F
$PGRME,3.0,M,3.0,M,4.3,M*29
$HCHDG,216.9,0.0,E,,*25
$HCHDG,217.2,0.0,E,,*2F
$IIRMB,A,,,,Shil,,,,,106.0,161,,V,A*2A
$GPRMC,164043.8,A,4921.25171,N,12316.67207,W,003.89,235.3,220913,017.3,E,A*2D
$PGRME,3.0,M,3.0,M,4.3,M*29
$HCHDG,217.3,0.0,E,,*2E
$IIRMC,164000,A,4921.252,N,12316.671,W,03.8,238,220913,17,E,A*1E
$IIVHW,,,,,04.1,N,,*1C
$HCHDG,217.3,0.0,E,,*2E
$IIVLW,06373,N,000.1,N*53
$GPRMC,164044.0,A,4921.25159,N,12316.67225,W,003.90,237.6,220913,017.3,E,A*27
$GPRMB,A,-35.10,L,,Shil,4741.0830,N,12224.5670,W,106.0,161,0.88,V*21
$PGRME,3.0,M,3.0,M,4.3,M*29
$PGRMT,GPS 18x-5Hz software ver. 3.20,,,,,,,,*30
$YXXDR,A,4.6,D,PTCH,A,6.6,D,ROLL*5F
$PTAK,FFD1,6.6*55
$IIVWR,122,L,08.8,N,,,,*7E
$HCHDG,217.3,0.0,E,,*2E
$IIDPT,008.5,-1.0,*4D
$HCHDG,217.0,0.0,E,,*2D
$IIGLL,4921.252,N,12316.671,W,164000,A,A*4D
$GPRMC,164044.2,A,4921.25147,N,12316.67257,W,003.93,237.1,220913,017.3,E,A*2B
$PGRME,3.0,M,3.0,M,4.3,M*29
$IIMTW,+13.0,C*3A
$HCHDG,217.1,0.0,E,,*2C
$IIMWV,238,R,08.8,N,A*1A
$HCHDG,216.9,0.0,E,,*25
$GPRMC,164044.4,A,4921.25132,N,12316.67289,W,003.86,236.9,220913,017.3,E,A*21
$PGRME,3.0,M,3.0,M,4.3,M*29
$HCHDG,216.6,0.0,E,,*2A
$YXXDR,A,5.1,D,PTCH,A,6.9,D,ROLL*56
$HCHDG,216.7,0.0,E,,*2B
$GPRMC,164044.6,A,4921.25120,N,12316.67315,W,003.84,233.5,220913,017.3,E,A*2F
$PGRME,3.0,M,3.0,M,4.3,M*29
$HCHDG,216.6,0.0,E,,*2A
$IIMWV,220,T,11.4,N,A*11
$HCHDG,216.5,0.0,E,,*29
$GPRMC,164044.8,A,4921.25108,N,12316.67343,W,003.80,230.7,220913,017.3,E,A*2D
$IIRMB,A,,,,Shil,,,,,106.0,161,,V,A*2A
$PGRME,3.0,M,3.0,M,4.3,M*29
$HCHDG,216.3,0.0,E,,*2F
$IIRMC,164000,A,4921.251,N,12316.672,W,03.8,236,220913,17,E,A*10
$HCHDG,216.4,0.0,E,,*28
$IIVHW,,,,,04.1,N,,*1C
$GPRMC,164045.0,A,4921.25095,N,12316.67373,W,003.75,236.4,220913,017.3,E,A*2D
$PGRME,3.0,M,3.0,M,4.3,M*29
$YXXDR,A,5.0,D,PTCH,A,7.0,D,ROLL*5F
$IIVLW,06373,N,000.1,N*53
$HCHDG,216.4,0.0,E,,*28
$IIVWR,121,L,08.7,N,,,,*72
$HCHDG,216.5,0.0,E,,*29
$IIDPT,008.5,-1.0,*4D
$GPRMC,164045.2,A,4921.25085,N,12316.67402,W,003.69,239.8,220913,017.3,E,A*21
$GPRMB,A,-35.10,L,,Shil,4741.0830,N,12224.5670,W,106.0,161,0.70,V*26
$PGRME,3.0,M,3.0,M,4.3,M*29
$IIGLL,4921.251,N,12316.672,W,164000,A,A*4D
$HCHDG,216.7,0.0,E,,*2B
$PTAK,FFP1,HEEL,@*07
$IIMTW,+13.0,C*3A
$HCHDG,216.8,0.0,E,,*24
$GPRMC,164045.4,A,4921.25077,N,12316.67435,W,003.96,236.0,220913,017.3,E,A*29
$PGRME,3.0,M,3.0,M,4.3,M*29
$HCHDG,217.1,0.0,E,,*2C
$YXXDR,A,4.4,D,PTCH,A,5.7,D,ROLL*5F
$PTAK,FFD1,5.7*57
$HCHDG,217.0,0.0,E,,*2D
$GPRMC,164045.6,A,4921.25067,N,12316.67466,W,003.96,236.2,220913,017.3,E,A*2E
$PGRME,3.0,M,3.0,M,4.3,M*29
$HCHDG,217.3,0.0,E,,*2E
$IIMWV,245,R,08.3,N,A*1B
$HCHDG,217.2,0.0,E,,*2F
$IIMWV,220,T,11.4,N,A*11
$GPRMC,164045.8,A,4921.25055,N,12316.67492,W,004.00,233.8,220913,017.3,E,A*2D
$PGRME,3.0,M,3.0,M,4.3,M*29
$HCHDG,217.1,0.0,E,,*2C
$IIRMB,A,,,,Shil,,,,,106.0,161,,V,A*2A
$HCHDG,217.0,0.0,E,,*2D
$IIRMC,164000,A,4921.251,N,12316.672,W,03.8,236,220913,17,E,A*10
$GPRMC,164046.0,A,4921.25040,N,12316.67515,W,003.94,233.0,220913,017.3,E,A*2E
$PGRME,3.0,M,3.0,M,4.3,M*29
$YXXDR,A,5.0,D,PTCH,A,6.7,D,ROLL*59
$IIVHW,,,,,04.2,N,,*1F
$HCHDG,216.9,0.0,E,,*25
$IIVLW,06373,N,000.1,N*53
$HCHDG,217.1,0.0,E,,*2C
$IIVWR,115,L,08.3,N,,,,*71
$GPRMC,164046.2,A,4921.25032,N,12316.67548,W,003.97,230.1,220913,017.3,E,A*20
$GPRMB,A,-35.10,L,,Shil,4741.0830,N,12224.5670,W,106.0,161,1.39,V*2A
$PGRME,3.0,M,3.0,M,4.3,M*29
$IIDPT,008.7,-1.0,*4F
$HCHDG,217.2,0.0,E,,*2F
$HCHDG,217.2,0.0,E,,*2F
$GPRMC,164046.4,A,4921.25019,N,12316.67577,W,003.92,232.8,220913,017.3,E,A*2D
$PGRME,3.0,M,3.0,M,4.3,M*29
$HCHDG,217.1,0.0,E,,*2C
$YXXDR,A,5.0,D,PTCH,A,6.7,D,ROLL*59
$HCHDG,217.0,0.0,E,,*2D
$GPRMC,164046.6,A,4921.25000,N,12316.67598,W,004.19,225.5,220913,017.3,E,A*29
$PGRME,3.0,M,3.0,M,4.3,M*29
$HCHDG,217.4,0.0,E,,*29
$HCHDG,217.4,0.0,E,,*29
$IIGLL,4921.250,N,12316.674,W,164000,A,A*4A
$GPRMC,164046.8,A,4921.24986,N,12316.67620,W,004.17,229.7,220913,017.3,E,A*21
$IIMTW,+13.0,C*3A
$PGRME,3.0,M,3.0,M,4.3,M*29
$HCHDG,217.7,0.0,E,,*2A
$IIMWV,247,R,08.4,N,A*1E
$IIMWV,224,T,10.7,N,A*17
$HCHDG,217.9,0.0,E,,*24
$IIRMB,A,,,,Shil,,,,,106.0,161,,V,A*2A
$GPRMC,164047.0,A,4921.24971,N,12316.67647,W,003.99,236.0,220913,017.3,E,A*29
$PGRME,3.0,M,3.0,M,4.3,M*29
$YXXDR,A,4.7,D,PTCH,A,5.7,D,ROLL*5C
$PTAK,FFD1,5.7*57
$HCHDG,218.1,0.0,E,,*23
$IIRMC,164000,A,4921.250,N,12316.674,W,03.9,236,220913,17,E,A*16
$HCHDG,218.4,0.0,E,,*26
$IIVHW,,,,,04.4,N,,*19
$GPRMC,164047.2,A,4921.24957,N,12316.67674,W,003.97,238.7,220913,017.3,E,A*28
$GPRMB,A,-35.10,L,,Shil,4741.0830,N,12224.5670,W,106.0,161,0.82,V*2B
$PGRME,3.0,M,3.0,M,4.3,M*29
$IIVLW,06373,N,000.1,N*53
$HCHDG,218.6,0.0,E,,*24
$HCHDG,218.4,0.0,E,,*26
$GPRMC,164047.4,A,4921.24947,N,12316.67706,W,004.02,237.6,220913,017.3,E,A*2E
$PGRME,3.0,M,3.0,M,4.3,M*29
$HCHDG,218.6,0.0,E,,*24
$YXXDR,A,4.7,D,PTCH,A,5.0,D,ROLL*5B
$HCHDG,218.5,0.0,E,,*27
$GPRMC,164047.6,A,4921.24936,N,12316.67742,W,004.04,240.4,220913,017.3,E,A*2E
$PGRME,3.0,M,3.0,M,4.3,M*29
$HCHDG,218.6,0.0,E,,*24
$IIVWR,107,L,08.5,N,,,,*74
$HCHDG,218.7,0.0,E,,*25
$IIDPT,008.9,-1.0,*41
$GPRMC,164047.8,A,4921.24925,N,12316.67768,W,004.06,238.7,220913,017.3,E,A*24
$PGRME,3.0,M,3.0,M,4.3,M*29
$HCHDG,218.5,0.0,E,,*27
$IIGLL,4921.250,N,12316.675,W,164000,A,A*4B
$IIMTW,+13.0,C*3A
$HCHDG,218.6,0.0,E,,*24
$IIMWV,253,R,08.5,N,A*1A
$GPRMC,164048.0,A,4921.24912,N,12316.67798,W,004.10,238.0,220913,017.3,E,A*28
$PGRME,3.0,M,3.0,M,4.3,M*29
$IIMWV,225,T,10.8,N,A*19
$YXXDR,A,5.4,D,PTCH,A,6.5,D,ROLL*5F
$PTAK,FFD1,6.5*56
$HCHDG,218.5,0.0,E,,*27
$IIRMB,A,,,,Shil,,,,,106.0,161,,V,A*2A
$HCHDG,218.2,0.0,E,,*20
$GPRMC,164048.2,A,4921.24893,N,12316.67820,W,003.90,236.7,220913,017.3,E,A*28
$PGRME,3.0,M,3.0,M,4.3,M*29
$IIRMC,164000,A,4921.250,N,12316.675,W,04.1,225,220913,17,E,A*1A
$HCHDG,218.1,0.0,E,,*23
$HCHDG,217.6,0.0,E,,*2B
$GPRMC,164048.4,A,4921.24881,N,12316.67845,W,003.87,234.4,220913,017.3,E,A*29
$GPRMB,A,-35.10,L,,Shil,4741.0830,N,12224.5670,W,106.0,161,1.08,V*28
$PGRME,3.0,M,3.0,M,4.3,M*29
$HCHDG,217.5,0.0,E,,*28
$YXXDR,A,5.1,D,PTCH,A,7.2,D,ROLL*5C
$HCHDG,217.2,0.0,E,,*2F
$GPRMC,164048.6,A,4921.24877,N,12316.67866,W,003.65,238.4,220913,017.3,E,A*23
$PGRME,3.0,M,3.0,M,4.3,M*29
$HCHDG,217.1,0.0,E,,*2C
$IIVHW,,,,,04.7,N,,*1A
$HCHDG,217.2,0.0,E,,*2F
$IIVLW,06373,N,000.1,N*53
$GPRMC,164048.8,A,4921.24871,N,12316.67898,W,003.62,241.8,220913,017.3,E,A*2F
$PGRME,3.0,M,3.0,M,4.3,M*29
$IIVWR,103,L,08.2,N,,,,*77
$HCHDG,217.2,0.0,E,,*2F
$IIDPT,008.9,-1.0,*41
$HCHDG,217.3,0.0,E,,*2E
$IIGLL,4921.249,N,12316.677,W,164000,A,A*41
$GPRMC,164049.0,A,4921.24874,N,12316.67920,W,003.64,238.0,220913,017.3,E,A*21
$PGRME,3.0,M,3.0,M,4.3,M*29
$IIMTW,+13.0,C*3A
$YXXDR,A,4.8,D,PTCH,A,5.8,D,ROLL*5C
$IIMWV,257,R,08.2,N,A*19
$HCHDG,217.2,0.0,E,,*2F
$IIMWV,229,T,10.7,N,A*1A
$HCHDG,217.4,0.0,E,,*29
$GPRMC,164049.2,A,4921.24874,N,12316.67948,W,003.84,239.7,220913,017.3,E,A*25
$IIRMB,A,,,,Shil,,,,,106.0,161,,V,A*2A
$PGRME,3.0,M,3.0,M,4.3,M*29
$HCHDG,217.2,0.0,E,,*2F
$HCHDG,217.4,0.0,E,,*29
$GPRMC,164049.4,A,4921.24867,N,12316.67975,W,003.77,242.7,220913,017.3,E,A*2F
$PGRME,3.0,M,3.0,M,4.3,M*29
$HCHDG,217.3,0.0,E,,*2E
$PTAK,FFP1,HEEL,@*07
$YXXDR,A,4.8,D,PTCH,A,5.2,D,ROLL*56
$PTAK,FFD1,5.2*52
$HCHDG,217.4,0.0,E,,*29
$GPRMC,164049.6,A,4921.24847,N,12316.68010,W,004.01,238.4,220913,017.3,E,A*22
$GPRMB,A,-35.11,L,,Shil,4741.0830,N,12224.5670,W,106.0,161,0.85,V*2D
$PGRME,3.0,M,3.0,M,4.3,M*29
$HCHDG,217.4,0.0,E,,*29
$HCHDG,217.4,0.0,E,,*29
$GPRMC,164049.8,A,4921.24838,N,12316.68042,W,004.07,237.3,220913,017.3,E,A*2D
$IIRMC,164000,A,4921.248,N,12316.678,W,03.6,238,220913,17,E,A*12
$PGRME,3.0,M,3.0,M,4.3,M*29
$HCHDG,217.3,0.0,E,,*2E
$IIVHW,,,,,04.8,N,,*15
$IIVLW,06373,N,000.1,N*53
$HCHDG,217.2,0.0,E,,*2F
$IIVWR,095,L,08.0,N,,,,*7B
$GPRMC,164050.0,A,4921.24826,N,12316.68073,W,004.52,235.7,220913,017.3,E,A*26
$PGRME,3.0,M,3.0,M,4.3,M*29
$IIDPT,009.1,-1.0,*48
$YXXDR,A,5.1,D,PTCH,A,5.2,D,ROLL*5E
$HCHDG,217.3,0.0,E,,*2E
$IIGLL,4921.248,N,12316.678,W,164000,A,A*4F
$IIMTW,+13.0,C*3A
$HCHDG,217.2,0.0,E,,*2F
$GPRMC,164050.2,A,4921.24821,N,12316.68092,W,004.27,236.3,220913,017.3,E,A*29
$IIMWV,265,R,08.0,N,A*1A
$PGRME,3.0,M,3.0,M,4.3,M*29
$HCHDG,217.0,0.0,E,,*2D
$IIMWV,231,T,10.2,N,A*16
$HCHDG,217.0,0.0,E,,*2D
$GPRMC,164050.4,A,4921.24811,N,12316.68121,W,004.23,236.9,220913,017.3,E,A*2B
$PGRME,3.0,M,3.0,M,4.3,M*29
$HCHDG,216.9,0.0,E,,*25
$YXXDR,A,5.6,D,PTCH,A,5.6,D,ROLL*5D
$PTAK,FFD1,5.6*56
$HCHDG,216.5,0.0,E,,*29
$GPRMC,164050.6,A,4921.24808,N,12316.68150,W,004.18,236.3,220913,017.3,E,A*25
$GPRMB,A,-35.11,L,,Shil,4741.0830,N,12224.5670,W,106.0,161,1.04,V*25
$PGRME,3.0,M,3.0,M,4.3,M*29
$HCHDG,216.5,0.0,E,,*29
$IIRMB,A,,,,Shil,,,,,106.0,161,,V,A*2A
$HCHDG,216.3,0.0,E,,*2F
$GPRMC,164050.8,A,4921.24803,N,12316.68177,W,004.12,236.4,220913,017.3,E,A*28
$PGRME,3.0,M,3.0,M,4.3,M*29
$HCHDG,216.0,0.0,E,,*2C
$IIRMC,164000,A,4921.248,N,12316.680,W,04.0,237,220913,17,E,A*1B
$IIVHW,,,,,04.8,N,,*15
$HCHDG,215.8,0.0,E,,*27
$IIVLW,06373,N,000.1,N*53
$GPRMC,164051.0,A,4921.24797,N,12316.68199,W,003.92,235.7,220913,017.3,E,A*2C
$PGRME,3.0,M,3.0,M,4.3,M*29
$YXXDR,A,5.1,D,PTCH,A,6.3,D,ROLL*5C
$IIVWR,092,L,07.8,N,,,,*7B
$HCHDG,215.4,0.0,E,,*2B
$IIDPT,009.1,-1.0,*48
$HCHDG,215.3,0.0,E,,*2C
$IIGLL,4921.248,N,12316.680,W,164000,A,A*48
$GPRMC,164051.2,A,4921.24788,N,12316.68221,W,003.86,234.9,220913,017.3,E,A*2A
$PGRME,3.0,M,3.0,M,4.3,M*29
$IIMTW,+13.0,C*3A
$HCHDG,215.0,0.0,E,,*2F
$IIMWV,268,R,07.8,N,A*10
$HCHDG,214.6,0.0,E,,*28
$GPRMC,164051.4,A,4921.24778,N,12316.68247,W,003.92,233.4,220913,017.3,E,A*2C
$PGRME,3.0,M,3.0,M,4.3,M*29
$HCHDG,214.4,0.0,E,,*2A
$YXXDR,A,4.6,D,PTCH,A,6.8,D,ROLL*51
$HCHDG,214.3,0.0,E,,*2D
$GPRMC,164051.6,A,4921.24772,N,12316.68273,W,003.91,233.3,220913,017.3,E,A*27
$PGRME,3.0,M,3.0,M,4.3,M*29
$HCHDG,214.2,0.0,E,,*2C
$IIMWV,237,T,09.3,N,A*19
$HCHDG,214.2,0.0,E,,*2C
$GPRMC,164051.8,A,4921.24763,N,12316.68297,W,003.99,234.2,220913,017.3,E,A*2D
$GPRMB,A,-35.11,L,,Shil,4741.0830,N,12224.5670,W,106.0,161,1.13,V*23
$IIRMB,A,,,,Shil,,,,,106.0,161,,V,A*2A
$PGRME,3.0,M,3.0,M,4.3,M*29
$HCHDG,214.2,0.0,E,,*2C
$IIRMC,164000,A,4921.247,N,12316.681,W,03.9,235,220913,17,E,A*19
$HCHDG,214.3,0.0,E,,*2D
$IIVHW,,,,,04.9,N,,*14
$GPRMC,164052.0,A,4921.24755,N,12316.68320,W,004.00,232.1,220913,017.3,E,A*2C
$PGRME,3.0,M,3.0,M,4.3,M*29
$YXXDR,A,4.5,D,PTCH,A,6.6,D,ROLL*5C
$PTAK,FFD1,6.6*55
$IIVLW,06373,N,000.1,N*53
$HCHDG,214.5,0.0,E,,*2B
$IIVWR,085,L,07.5,N,,,,*70
$HCHDG,214.4,0.0,E,,*2A
$IIDPT,009.1,-1.0,*48
$GPRMC,164052.2,A,4921.24754,N,12316.68345,W,004.04,235.1,220913,017.3,E,A*2F
$PGRME,3.0,M,3.0,M,4.3,M*29
$HCHDG,214.6,0.0,E,,*28
$IIGLL,4921.247,N,12316.681,W,164000,A,A*46
$IIMTW,+13.0,C*3A
$HCHDG,214.6,0.0,E,,*28
$GPRMC,164052.4,A,4921.24755,N,12316.68368,W,004.06,232.7,220913,017.3,E,A*24
$PGRME,3.0,M,3.0,M,4.3,M*29
$HCHDG,214.8,0.0,E,,*26
$YXXDR,A,5.0,D,PTCH,A,6.1,D,ROLL*5F
$HCHDG,214.7,0.0,E,,*29
$GPRMC,164052.6,A,4921.24747,N,12316.68397,W,004.07,234.6,220913,017.3,E,A*23
$PGRME,3.0,M,3.0,M,4.3,M*29
$HCHDG,214.9,0.0,E,,*27
$IIMWV,279,R,07.8,N,A*10
$HCHDG,214.8,0.0,E,,*26
$IIMWV,240,T,08.6,N,A*1D
$GPRMC,164052.8,A,4921.24732,N,12316.68424,W,004.08,234.1,220913,017.3,E,A*28
$GPRMB,A,-35.11,L,,Shil,4741.0830,N,12224.5670,W,106.0,161,1.16,V*26
$PGRME,3.0,M,3.0,M,4.3,M*29
$HCHDG,215.0,0.0,E,,*2F
$IIRMB,A,,,,Shil,,,,,106.0,161,,V,A*2A
$HCHDG,214.9,0.0,E,,*27
$IIRMC,164000,A,4921.247,N,12316.683,W,04.0,232,220913,17,E,A*12
$GPRMC,164053.0,A,4921.24721,N,12316.68450,W,004.09,233.9,220913,017.3,E,A*2E
$PGRME,3.0,M,3.0,M,4.3,M*29
$YXXDR,A,5.2,D,PTCH,A,5.4,D,ROLL*5B
$IIVHW,,,,,04.9,N,,*14
$HCHDG,214.8,0.0,E,,*26
$IIVLW,06373,N,000.1,N*53
$HCHDG,214.9,0.0,E,,*27
$IIVWR,081,L,07.8,N,,,,*79
$GPRMC,164053.2,A,4921.24709,N,12316.68478,W,004.09,233.2,220913,017.3,E,A*27
$IIDPT,009.2,-1.0,*4B
$PGRME,3.0,M,3.0,M,4.3,M*29
$HCHDG,214.7,0.0,E,,*29
$HCHDG,214.5,0.0,E,,*2B
$GPRMC,164053.4,A,4921.24699,N,12316.68498,W,004.07,233.0,220913,017.3,E,A*2B
$PGRME,3.0,M,3.0,M,4.3,M*29
$HCHDG,214.3,0.0,E,,*2D
$PTAK,FFP1,HEEL,@*07
$YXXDR,A,5.3,D,PTCH,A,5.8,D,ROLL*56
$PTAK,FFD1,5.8*58
$HCHDG,214.3,0.0,E,,*2D
$GPRMC,164053.6,A,4921.24680,N,12316.68523,W,004.05,233.4,220913,017.3,E,A*26
$PGRME,3.0,M,3.0,M,4.3,M*29
$HCHDG,214.1,0.0,E,,*2F
$HCHDG,214.0,0.0,E,,*2E
$IIGLL,4921.247,N,12316.684,W,164000,A,A*43
$IIMTW,+13.0,C*3A
$GPRMC,164053.8,A,4921.24668,N,12316.68549,W,004.02,230.5,220913,017.3,E,A*27
$GPRMB,A,-35.11,L,,Shil,4741.0830,N,12224.5670,W,106.0,161,1.39,V*2B
$PGRME,3.0,M,3.0,M,4.3,M*29
$HCHDG,213.9,0.0,E,,*20
$IIMWV,273,R,07.4,N,A*16
$IIMWV,244,T,08.5,N,A*1A
$HCHDG,213.9,0.0,E,,*20
$IIRMB,A,,,,Shil,,,,,106.0,161,,V,A*2A
$GPRMC,164054.0,A,4921.24657,N,12316.68569,W,003.98,230.7,220913,017.3,E,A*20
$GPRMB,A,-35.11,L,,Shil,4741.0830,N,12224.5670,W,106.0,161,1.36,V*24
$PGRME,3.0,M,3.0,M,4.3,M*29
$YXXDR,A,5.0,D,PTCH,A,6.0,D,ROLL*5E
$PTAK,FFD1,6.0*53
$HCHDG,214.0,0.0,E,,*2E
$IIRMC,164000,A,4921.247,N,12316.684,W,04.0,233,220913,17,E,A*14
$HCHDG,213.9,0.0,E,,*20
$IIVHW,,,,,05.0,N,,*1C
$GPRMC,164054.2,A,4921.24648,N,12316.68596,W,003.97,231.0,220913,017.3,E,A*25
$PGRME,3.0,M,3.0,M,4.3,M*29
$IIVLW,06373,N,000.1,N*53
$HCHDG,214.0,0.0,E,,*2E
$HCHDG,214.2,0.0,E,,*2C
$GPRMC,164054.4,A,4921.24637,N,12316.68622,W,003.97,231.3,220913,017.3,E,A*24
$PGRME,3.0,M,3.0,M,4.3,M*29
$HCHDG,214.2,0.0,E,,*2C
$YXXDR,A,4.5,D,PTCH,A,5.6,D,ROLL*5F
$HCHDG,214.5,0.0,E,,*2B
$GPRMC,164054.6,A,4921.24626,N,12316.68648,W,003.99,230.7,220913,017.3,E,A*21
$PGRME,3.0,M,3.0,M,4.3,M*29
$HCHDG,214.6,0.0,E,,*28
$IIVWR,079,L,06.9,N,,,,*7E
$HCHDG,214.6,0.0,E,,*28
$IIDPT,009.4,-1.0,*4D
$GPRMC,164054.8,A,4921.24611,N,12316.68676,W,004.03,232.9,220913,017.3,E,A*2E
$PGRME,3.0,M,3.0,M,4.3,M*29
$HCHDG,214.8,0.0,E,,*26
$IIGLL,4921.246,N,12316.685,W,164000,A,A*43
$IIMTW,+13.0,C*3A
$HCHDG,214.8,0.0,E,,*26
$IIMWV,281,R,06.9,N,A*17
$GPRMC,164055.0,A,4921.24593,N,12316.68711,W,004.07,233.9,220913,017.3,E,A*2B
$PGRME,3.0,M,3.0,M,4.3,M*29
$IIMWV,237,T,08.7,N,A*1C
$YXXDR,A,5.1,D,PTCH,A,5.6,D,ROLL*5A
$HCHDG,214.7,0.0,E,,*29
$IIRMB,A,,,,Shil,,,,,106.0,161,,V,A*2A
$HCHDG,214.7,0.0,E,,*29
$GPRMC,164055.2,A,4921.24577,N,12316.68747,W,004.06,228.3,220913,017.3,E,A*21
$PGRME,3.0,M,3.0,M,4.3,M*29
$IIRMC,164000,A,4921.246,N,12316.685,W,03.9,230,220913,17,E,A*19
$HCHDG,214.6,0.0,E,,*28
$HCHDG,214.7,0.0,E,,*29
$GPRMC,164055.4,A,4921.24561,N,12316.68781,W,003.82,231.5,220913,017.3,E,A*2F
$PGRME,3.0,M,3.0,M,4.3,M*29
$HCHDG,214.7,0.0,E,,*29
$YXXDR,A,5.1,D,PTCH,A,6.1,D,ROLL*5E
$HCHDG,214.9,0.0,E,,*27
$GPRMC,164055.6,A,4921.24548,N,12316.68819,W,004.01,231.2,220913,017.3,E,A*23
$PGRME,3.0,M,3.0,M,4.3,M*29
$HCHDG,215.3,0.0,E,,*2C
$IIVHW,,,,,04.9,N,,*14
$HCHDG,215.5,0.0,E,,*2A
$IIVLW,06373,N,000.1,N*53
$GPRMC,164055.8,A,4921.24533,N,12316.68841,W,004.01,225.7,220913,017.3,E,A*2C
$PGRME,3.0,M,3.0,M,4.3,M*29
$IIVWR,088,L,06.8,N,,,,*71
$HCHDG,215.9,0.0,E,,*26
$IIDPT,009.4,-1.0,*4D
$HCHDG,215.7,0.0,E,,*28
$IIGLL,4921.245,N,12316.687,W,164000,A,A*42
$GPRMC,164056.0,A,4921.24517,N,12316.68866,W,004.01,235.5,220913,017.3,E,A*27
$GPRMB,A,-35.11,L,,Shil,4741.0830,N,12224.5670,W,106.0,161,1.05,V*24
$PGRME,3.0,M,3.0,M,4.3,M*29
$IIMTW,+13.0,C*3A
$YXXDR,A,4.2,D,PTCH,A,5.2,D,ROLL*5C
$PTAK,FFD1,5.2*52
$IIMWV,272,R,06.8,N,A*1A
$HCHDG,216.1,0.0,E,,*2D
$IIMWV,241,T,07.6,N,A*13
$HCHDG,216.3,0.0,E,,*2F
$IIRMB,A,,,,Shil,,,,,106.0,161,,V,A*2A
$GPRMC,164056.2,A,4921.24498,N,12316.68891,W,004.00,234.3,220913,017.3,E,A*2D
$PGRME,3.0,M,3.0,M,4.3,M*29
$HCHDG,216.1,0.0,E,,*2D
$HCHDG,216.3,0.0,E,,*2F
$GPRMC,164056.4,A,4921.24481,N,12316.68908,W,003.99,235.7,220913,017.3,E,A*20
$PGRME,3.0,M,3.0,M,4.3,M*29
$HCHDG,216.2,0.0,E,,*2E
$YXXDR,A,4.6,D,PTCH,A,5.5,D,ROLL*5F
$HCHDG,216.2,0.0,E,,*2E
$GPRMC,164056.6,A,4921.24467,N,12316.68938,W,004.03,231.3,220913,017.3,E,A*2D
$PGRME,3.0,M,3.0,M,4.3,M*29
$HCHDG,216.2,0.0,E,,*2E
$HCHDG,216.1,0.0,E,,*2D
$GPRMC,164056.8,A,4921.24444,N,12316.68977,W,004.00,230.5,220913,017.3,E,A*2D
$IIRMC,164000,A,4921.244,N,12316.688,W,04.0,234,220913,17,E,A*1C
$PGRME,3.0,M,3.0,M,4.3,M*29
$HCHDG,216.2,0.0,E,,*2E
$IIVHW,,,,,04.9,N,,*14
$IIVLW,06373,N,000.1,N*53
$HCHDG,216.0,0.0,E,,*2C
$IIVWR,080,L,06.4,N,,,,*75
$GPRMC,164057.0,A,4921.24426,N,12316.69009,W,004.01,230.8,220913,017.3,E,A*2D
$PGRME,3.0,M,3.0,M,4.3,M*29
$IIDPT,009.4,-1.0,*4D
$YXXDR,A,5.3,D,PTCH,A,6.2,D,ROLL*5F
$HCHDG,216.3,0.0,E,,*2F
$IIGLL,4921.244,N,12316.688,W,164000,A,A*4C
$HCHDG,216.3,0.0,E,,*2F
$IIMTW,+13.0,C*3A
$GPRMC,164057.2,A,4921.24413,N,12316.69026,W,003.85,234.8,220913,017.3,E,A*2B
$GPRMB,A,-35.11,L,,Shil,4741.0830,N,12224.5670,W,106.0,161,1.05,V*24
$IIMWV,280,R,06.4,N,A*1B
$PGRME,3.0,M,3.0,M,4.3,M*29
$HCHDG,216.5,0.0,E,,*29
$IIMWV,235,T,08.3,N,A*1A
$HCHDG,216.6,0.0,E,,*2A
$GPRMC,164057.4,A,4921.24408,N,12316.69054,W,003.80,238.3,220913,017.3,E,A*20
$PGRME,3.0,M,3.0,M,4.3,M*29
$HCHDG,217.0,0.0,E,,*2D
$PTAK,FFP1,HEEL,@*07
$YXXDR,A,4.8,D,PTCH,A,4.8,D,ROLL*5D
$PTAK,FFD1,4.8*59
$HCHDG,216.9,0.0,E,,*25
$GPRMC,164057.6,A,4921.24399,N,12316.69087,W,003.83,238.7,220913,017.3,E,A*24
$PGRME,3.0,M,3.0,M,4.3,M*29
$HCHDG,216.9,0.0,E,,*25
$HCHDG,216.9,0.0,E,,*25
$IIRMB,A,,,,Shil,,,,,106.0,161,,V,A*2A
$GPRMC,164057.8,A,4921.24392,N,12316.69118,W,003.85,239.4,220913,017.3,E,A*22
$PGRME,3.0,M,3.0,M,4.3,M*29
$HCHDG,216.8,0.0,E,,*24
$IIRMC,164000,A,4921.244,N,12316.688,W,04.0,234,220913,17,E,A*1C
$IIVHW,,,,,04.9,N,,*14
$HCHDG,216.7,0.0,E,,*2B
$IIVLW,06373,N,000.1,N*53
$GPRMC,164058.0,A,4921.24394,N,12316.69159,W,003.90,237.6,220913,017.3,E,A*2E
$PGRME,3.0,M,3.0,M,4.3,M*29
$YXXDR,A,4.9,D,PTCH,A,5.1,D,ROLL*54
$IIVWR,080,L,06.2,N,,,,*73
$HCHDG,216.6,0.0,E,,*2A
$IIDPT,009.6,-1.0,*4F
$HCHDG,216.6,0.0,E,,*2A
$IIGLL,4921.244,N,12316.688,W,164000,A,A*4C
$GPRMC,164058.2,A,4921.24383,N,12316.69190,W,003.96,237.4,220913,017.3,E,A*2B
$GPRMB,A,-35.11,L,,Shil,4741.0830,N,12224.5670,W,106.0,161,0.91,V*28
$PGRME,3.0,M,3.0,M,4.3,M*29
$IIMTW,+13.0,C*3A
$HCHDG,216.2,0.0,E,,*2E
$IIMWV,280,R,06.2,N,A*1D
$HCHDG,216.3,0.0,E,,*2F
$GPRMC,164058.4,A,4921.24372,N,12316.69218,W,003.99,235.6,220913,017.3,E,A*2F
$PGRME,3.0,M,3.0,M,4.3,M*29
$HCHDG,216.1,0.0,E,,*2D
$YXXDR,A,4.6,D,PTCH,A,6.1,D,ROLL*58
$PTAK,FFD1,6.1*52
$HCHDG,216.1,0.0,E,,*2D
$GPRMC,164058.6,A,4921.24361,N,12316.69248,W,004.03,234.7,220913,017.3,E,A*2E
$PGRME,3.0,M,3.0,M,4.3,M*29
$HCHDG,216.0,0.0,E,,*2C
$IIMWV,237,T,07.1,N,A*15
$HCHDG,215.8,0.0,E,,*27
$GPRMC,164058.8,A,4921.24349,N,12316.69277,W,004.03,235.1,220913,017.3,E,A*21
$IIRMB,A,,,,Shil,,,,,106.0,161,,V,A*2A
$PGRME,3.0,M,3.0,M,4.3,M*29
$HCHDG,215.9,0.0,E,,*26
$IIRMC,164000,A,4921.244,N,12316.690,W,03.8,238,220913,17,E,A*16
$HCHDG,216.0,0.0,E,,*2C
$IIVHW,,,,,04.8,N,,*15
$GPRMC,164059.0,A,4921.24339,N,12316.69300,W,004.06,235.7,220913,017.3,E,A*2D
$PGRME,3.0,M,3.0,M,4.3,M*29
$YXXDR,A,4.8,D,PTCH,A,6.3,D,ROLL*54
$IIVLW,06373,N,000.1,N*53
$HCHDG,216.1,0.0,E,,*2D
$IIVWR,077,L,06.1,N,,,,*78
$HCHDG,215.9,0.0,E,,*26
$IIDPT,009.6,-1.0,*4F
$GPRMC,164059.2,A,4921.24327,N,12316.69324,W,004.05,234.0,220913,017.3,E,A*23
$PGRME,3.0,M,3.0,M,4.3,M*29
$HCHDG,216.0,0.0,E,,*2C
$IIGLL,4921.244,N,12316.690,W,164000,A,A*45
$IIMTW,+13.0,C*3A
$HCHDG,215.8,0.0,E,,*27
$GPRMC,164059.4,A,4921.24305,N,12316.69354,W,004.04,233.9,220913,017.3,E,A*2D
$GPRMB,A,-35.12,L,,Shil,4741.0830,N,12224.5670,W,106.0,161,1.16,V*25
$PGRME,3.0,M,3.0,M,4.3,M*29
$HCHDG,215.5,0.0,E,,*2A
$YXXDR,A,5.3,D,PTCH,A,6.6,D,ROLL*5B
$PTAK,FFD1,6.6*55
$HCHDG,215.3,0.0,E,,*2C
$GPRMC,164059.6,A,4921.24289,N,12316.69379,W,004.04,231.9,220913,017.3,E,A*27
$PGRME,3.0,M,3.0,M,4.3,M*29
$HCHDG,215.5,0.0,E,,*2A
$IIMWV,286,R,06.0,N,A*19
$HCHDG,215.1,0.0,E,,*2E
$IIMWV,239,T,06.9,N,A*12
$GPRMC,164059.8,A,4921.24281,N,12316.69404,W,004.02,233.7,220913,017.3,E,A*26
$PGRME,3.0,M,3.0,M,4.3,M*29
$HCHDG,215.3,0.0,E,,*2C
$IIRMB,A,,,,Shil,,,,,106.0,161,,V,A*2A
$HCHDG,215.2,0.0,E,,*2D
$IIRMC,164000,A,4921.243,N,12316.692,W,04.0,234,220913,17,E,A*10
$GPRMC,164100.0,A,4921.24266,N,12316.69427,W,003.99,235.5,220913,017.3,E,A*2A
$PGRME,3.0,M,3.0,M,4.3,M*29
$YXXDR,A,5.0,D,PTCH,A,6.0,D,ROLL*5E
$IIVHW,,,,,04.8,N,,*15
$HCHDG,215.3,0.0,E,,*2C
$IIVLW,06373,N,000.1,N*53
$HCHDG,215.4,0.0,E,,*2B
$IIVWR,074,L,06.0,N,,,,*7A
$GPRMC,164100.2,A,4921.24254,N,12316.69453,W,003.97,236.8,220913,017.3,E,A*2A
$IIDPT,009.6,-1.0,*4F
$PGRME,3.0,M,3.0,M,4.3,M*29
$HCHDG,215.4,0.0,E,,*2B
$HCHDG,215.5,0.0,E,,*2A
$GPRMC,164100.4,A,4921.24244,N,12316.69486,W,003.97,236.6,220913,017.3,E,A*2B
$PGRME,3.0,M,3.0,M,4.3,M*29
$HCHDG,215.4,0.0,E,,*2B
$YXXDR,A,4.7,D,PTCH,A,5.1,D,ROLL*5A
$HCHDG,215.2,0.0,E,,*2D
$GPRMC,164100.6,A,4921.24231,N,12316.69518,W,003.95,236.3,220913,017.3,E,A*2A
$GPRMB,A,-35.12,L,,Shil,4741.0830,N,12224.5670,W,106.0,161,0.98,V*22
$PGRME,3.0,M,3.0,M,4.3,M*29
$HCHDG,215.0,0.0,E,,*2F
$HCHDG,214.8,0.0,E,,*26
$IIGLL,4921.242,N,12316.693,W,164000,A,A*40
$GPRMC,164100.8,A,4921.24217,N,12316.69554,W,003.95,238.3,220913,017.3,E,A*26
$IIMTW,+13.0,C*3A
$PGRME,3.0,M,3.0,M,4.3,M*29
$HCHDG,214.7,0.0,E,,*29
$IIMWV,291,R,05.9,N,A*15
$IIMWV,240,T,06.5,N,A*10
$HCHDG,214.7,0.0,E,,*29
$IIRMB,A,,,,Shil,,,,,106.0,161,,V,A*2A
$GPRMC,164101.0,A,4921.24210,N,12316.69589,W,003.96,237.6,220913,017.3,E,A*21
$PGRME,3.0,M,3.0,M,4.3,M*29
$YXXDR,A,4.8,D,PTCH,A,5.8,D,ROLL*5C
$PTAK,FFD1,5.8*58
$HCHDG,214.4,0.0,E,,*2A
$IIRMC,164000,A,4921.242,N,12316.693,W,04.0,231,220913,17,E,A*15
$HCHDG,214.4,0.0,E,,*2A
$IIVHW,,,,,04.8,N,,*15
$GPRMC,164101.2,A,4921.24206,N,12316.69616,W,003.99,233.3,220913,017.3,E,A*2F
$PGRME,3.0,M,3.0,M,4.3,M*29
$IIVLW,06373,N,000.1,N*53
$HCHDG,214.4,0.0,E,,*2A
$HCHDG,214.2,0.0,E,,*2C
$GPRMC,164101.4,A,4921.24205,N,12316.69632,W,003.70,233.6,220913,017.3,E,A*2E
$PGRME,3.0,M,3.0,M,4.3,M*29
$HCHDG,213.8,0.0,E,,*21
$YXXDR,A,5.0,D,PTCH,A,6.7,D,ROLL*59
$HCHDG,213.5,0.0,E,,*2C
$PTAK,FFP1,HEEL,@*07
$GPRMC,164101.6,A,4921.24196,N,12316.69658,W,003.93,232.3,220913,017.3,E,A*20
$GPRMB,A,-35.12,L,,Shil,4741.0830,N,12224.5670,W,106.0,161,1.24,V*24
$PGRME,3.0,M,3.0,M,4.3,M*29
$HCHDG,213.7,0.0,E,,*2E
$IIVWR,070,L,05.7,N,,,,*7A
$HCHDG,213.5,0.0,E,,*2C
$IIDPT,010.0,-1.0,*41
$GPRMC,164101.8,A,4921.24182,N,12316.69686,W,003.92,232.2,220913,017.3,E,A*28
$PGRME,3.0,M,3.0,M,4.3,M*29
$HCHDG,213.5,0.0,E,,*2C
$IIGLL,4921.242,N,12316.695,W,164100,A,A*47
$IIMTW,+13.5,C*3F
$HCHDG,213.8,0.0,E,,*21
$IIMWV,290,R,05.7,N,A*1A
$GPRMC,164102.0,A,4921.24169,N,12316.69711,W,003.85,231.1,220913,017.3,E,A*2F
$PGRME,3.0,M,3.0,M,4.3,M*29
$IIMWV,243,T,06.0,N,A*16
$YXXDR,A,5.0,D,PTCH,A,6.9,D,ROLL*57
$PTAK,FFD1,6.9*5A
$HCHDG,213.9,0.0,E,,*20
$IIRMB,A,,,,Shil,,,,,106.0,161,,V,A*2A
$HCHDG,213.6,0.0,E,,*2F
$GPRMC,164102.2,A,4921.24158,N,12316.69738,W,003.85,230.6,220913,017.3,E,A*22
$PGRME,3.0,M,3.0,M,4.3,M*29
$IIRMC,164100,A,4921.242,N,12316.695,W,03.9,236,220913,17,E,A*1B
$HCHDG,213.7,0.0,E,,*2E
$HCHDG,213.6,0.0,E,,*2F
$GPRMC,164102.4,A,4921.24144,N,12316.69764,W,003.88,231.1,220913,017.3,E,A*2B
$PGRME,3.0,M,3.0,M,4.3,M*29
$HCHDG,213.7,0.0,E,,*2E
$YXXDR,A,5.1,D,PTCH,A,6.9,D,ROLL*56
$HCHDG,213.5,0.0,E,,*2C
$GPRMC,164102.6,A,4921.24126,N,12316.69790,W,003.86,229.2,220913,017.3,E,A*22
$PGRME,3.0,M,3.0,M,4.3,M*29
$HCHDG,213.6,0.0,E,,*2F
$IIVHW,,,,,04.6,N,,*1B
$HCHDG,213.6,0.0,E,,*2F
$IIVLW,06373,N,000.1,N*53
$GPRMC,164102.8,A,4921.24111,N,12316.69811,W,003.86,230.6,220913,017.3,E,A*22
$GPRMB,A,-35.12,L,,Shil,4741.0830,N,12224.5670,W,106.0,161,1.32,V*23
$PGRME,3.0,M,3.0,M,4.3,M*29
$IIVWR,065,L,05.7,N,,,,*7E
$HCHDG,213.9,0.0,E,,*20
$IIDPT,010.0,-1.0,*41
$HCHDG,213.8,0.0,E,,*21
$IIGLL,4921.241,N,12316.696,W,164100,A,A*47
$GPRMC,164103.0,A,4921.24101,N,12316.69836,W,003.89,232.0,220913,017.3,E,A*24
$PGRME,3.0,M,3.0,M,4.3,M*29
$IIMTW,+13.5,C*3F
$YXXDR,A,4.5,D,PTCH,A,6.1,D,ROLL*5B
$PTAK,FFD1,6.1*52
$IIMWV,295,R,05.7,N,A*1F
$HCHDG,214.2,0.0,E,,*2C
$IIMWV,242,T,05.9,N,A*1D
$HCHDG,214.4,0.0,E,,*2A
$GPRMC,164103.2,A,4921.24086,N,12316.69863,W,003.92,232.5,220913,017.3,E,A*27
$IIRMB,A,,,,Shil,,,,,106.0,161,,V,A*2A
$PGRME,3.0,M,3.0,M,4.3,M*29
$HCHDG,214.6,0.0,E,,*28
$HCHDG,214.7,0.0,E,,*29
$GPRMC,164103.4,A,4921.24073,N,12316.69898,W,003.93,232.6,220913,017.3,E,A*2D
$PGRME,3.0,M,3.0,M,4.3,M*29
$HCHDG,214.7,0.0,E,,*29
$YXXDR,A,5.1,D,PTCH,A,5.0,D,ROLL*5C
$HCHDG,214.8,0.0,E,,*26
$GPRMC,164103.6,A,4921.24063,N,12316.69932,W,003.95,233.7,220913,017.3,E,A*29
$PGRME,3.0,M,3.0,M,4.3,M*29
$HCHDG,214.8,0.0,E,,*26
$HCHDG,214.9,0.0,E,,*27
$GPRMC,164103.8,A,4921.24052,N,12316.69964,W,003.94,237.5,220913,017.3,E,A*21
$PGRME,3.0,M,3.0,M,4.3,M*29
$IIRMC,164100,A,4921.241,N,12316.697,W,03.8,229,220913,17,E,A*15
$HCHDG,215.0,0.0,E,,*2F
$IIVHW,,,,,04.5,N,,*18
$IIVLW,06373,N,000.1,N*53
$HCHDG,215.1,0.0,E,,*2E
$IIVWR,061,L,05.9,N,,,,*74
$GPRMC,164104.0,A,4921.24044,N,12316.69993,W,003.95,236.6,220913,017.3,E,A*22
$GPRMB,A,-35.12,L,,Shil,4741.0830,N,12224.5670,W,106.0,161,0.96,V*2C
$PGRME,3.0,M,3.0,M,4.3,M*29
$IIDPT,010.1,-1.0,*40
$YXXDR,A,5.0,D,PTCH,A,4.2,D,ROLL*5E
$PTAK,FFD1,4.2*53
$HCHDG,215.1,0.0,E,,*2E
$IIGLL,4921.241,N,12316.697,W,164100,A,A*46
$HCHDG,215.1,0.0,E,,*2E
$IIMTW,+13.5,C*3F
$GPRMC,164104.2,A,4921.24035,N,12316.70021,W,003.95,236.4,220913,017.3,E,A*2C
