$IIRMB,A,,,,Shil,,,,,104.7,160,,V,A*2E
$HCHDG,38.9,0.0,E,,*1B
$YXXDR,A,4.3,D,PTCH,A,-2.9,D,ROLL*7C
$IIRMC,230000,A,4919.686,N,12317.577,W,06.7,062,200913,17,E,A*1B
$GPRMC,230001.0,A,4919.68731,N,12317.57508,W,006.73,070.2,200913,017.3,E,D*2E
$GPRMB,A,-35.71,L,,Shil,4741.0830,N,12224.5670,W,104.7,160,0.02,V*20
$PGRME,2.4,M,2.4,M,3.4,M*29
$HCHDG,39.6,0.0,E,,*15
$HCHDG,39.7,0.0,E,,*14
$HCHDG,40.0,0.0,E,,*1D
$GPRMC,230001.2,A,4919.68747,N,12317.57441,W,006.75,070.9,200913,017.3,E,D*2C
$PGRME,2.4,M,2.4,M,3.4,M*29
$HCHDG,40.4,0.0,E,,*19
$HCHDG,41.0,0.0,E,,*1C
$GPRMC,230001.4,A,4919.68755,N,12317.57386,W,006.70,070.8,200913,017.3,E,D*21
$PGRME,2.4,M,2.4,M,3.4,M*29
$IIVHW,,,,,06.6,N,,*19
$YXXDR,A,4.4,D,PTCH,A,0.0,D,ROLL*5D
$PTAK,FFD1,0.0*55
$IIVLW,06337,N,025.6,N*53
$HCHDG,41.2,0.0,E,,*1E
$IIVWR,137,L,09.5,N,,,,*76
$HCHDG,41.5,0.0,E,,*19
$GPRMC,230001.6,A,4919.68767,N,12317.57337,W,006.65,070.5,200913,017.3,E,D*21
$PGRME,2.4,M,2.4,M,3.4,M*29
$IIGLL,4919.687,N,12317.575,W,230000,A,A*4E
$HCHDG,41.7,0.0,E,,*1B
$IIMTW,+14.0,C*3D
$IIMWV,223,R,09.5,N,A*1C
$HCHDG,42.0,0.0,E,,*1F
$GPRMC,230001.8,A,4919.68775,N,12317.57292,W,006.65,069.8,200913,017.3,E,D*27
$IIMWV,215,T,14.9,N,A*1F
$PGRME,2.4,M,2.4,M,3.4,M*29
$HCHDG,42.0,0.0,E,,*1F
$IIRMB,A,,,,Shil,,,,,104.7,160,,V,A*2E
$YXXDR,A,4.6,D,PTCH,A,2.5,D,ROLL*58
$GPRMC,230002.0,A,4919.68785,N,12317.57243,W,006.64,068.3,200913,017.3,E,D*24
$PGRME,2.4,M,2.4,M,3.4,M*29
$HCHDG,41.9,0.0,E,,*15
$HCHDG,41.8,0.0,E,,*14
$HCHDG,41.9,0.0,E,,*15
$GPRMC,230002.2,A,4919.68794,N,12317.57195,W,006.62,068.5,200913,017.3,E,D*2E
$GPRMB,A,-35.71,L,,Shil,4741.0830,N,12224.5670,W,104.7,160,-0.18,V*06
$PGRME,2.4,M,2.4,M,3.4,M*29
$HCHDG,42.0,0.0,E,,*1F
$HCHDG,42.1,0.0,E,,*1E
$GPRMC,230002.4,A,4919.68807,N,12317.57140,W,006.62,066.7,200913,017.3,E,D*29
$PGRME,2.4,M,2.4,M,3.4,M*29
$YXXDR,A,4.8,D,PTCH,A,5.4,D,ROLL*50
$PTAK,FFP1,HEEL,@*07
$HCHDG,42.0,0.0,E,,*1F
$IIRMC,230000,A,4919.687,N,12317.572,W,06.6,068,200913,17,E,A*14
$HCHDG,41.9,0.0,E,,*15
$IIVHW,,,,,06.5,N,,*1A
$GPRMC,230002.6,A,4919.68815,N,12317.57077,W,006.58,065.1,200913,017.3,E,D*21
$PGRME,2.4,M,2.4,M,3.4,M*29
$IIVLW,06337,N,025.6,N*53
$HCHDG,42.0,0.0,E,,*1F
$IIVWR,145,L,08.4,N,,,,*73
$HCHDG,41.8,0.0,E,,*14
$IIGLL,4919.687,N,12317.572,W,230000,A,A*49
$GPRMC,230002.8,A,4919.68823,N,12317.57026,W,006.54,063.9,200913,017.3,E,D*2C
$PGRME,2.4,M,2.4,M,3.4,M*29
$IIMTW,+14.0,C*3D
$HCHDG,41.9,0.0,E,,*15
$IIMWV,215,R,08.4,N,A*19
$IIMWV,205,T,15.0,N,A*16
$YXXDR,A,4.7,D,PTCH,A,8.4,D,ROLL*52
$PTAK,FFD1,8.4*59
$GPRMC,230003.0,A,4919.68832,N,12317.56990,W,006.51,063.1,200913,017.3,E,D*2D
$PGRME,2.4,M,2.4,M,3.4,M*29
$HCHDG,41.8,0.0,E,,*14
$HCHDG,41.7,0.0,E,,*1B
$HCHDG,41.6,0.0,E,,*1A
$GPRMC,230003.2,A,4919.68850,N,12317.56951,W,006.46,063.5,200913,017.3,E,D*24
$PGRME,2.4,M,2.4,M,3.4,M*29
$HCHDG,41.6,0.0,E,,*1A
$HCHDG,41.4,0.0,E,,*18
$GPRMC,230003.4,A,4919.68866,N,12317.56905,W,006.42,061.3,200913,017.3,E,D*26
$GPRMB,A,-35.70,L,,Shil,4741.0830,N,12224.5670,W,104.7,160,-0.98,V*0F
$PGRME,2.4,M,2.4,M,3.4,M*29
$YXXDR,A,4.7,D,PTCH,A,10.3,D,ROLL*6C
$IIRMB,A,,,,Shil,,,,,104.7,160,,V,A*2E
$HCHDG,41.4,0.0,E,,*18
$HCHDG,41.2,0.0,E,,*1E
$GPRMC,230003.6,A,4919.68878,N,12317.56859,W,006.39,059.3,200913,017.3,E,D*24
$PGRME,2.4,M,2.4,M,3.4,M*29
$IIRMC,230000,A,4919.688,N,12317.569,W,06.5,063,200913,17,E,A*19
$IIVHW,,,,,06.3,N,,*1C
$HCHDG,41.2,0.0,E,,*1E
$IIVLW,06337,N,025.6,N*53
$HCHDG,41.3,0.0,E,,*1F
$IIVWR,149,L,07.3,N,,,,*77
$GPRMC,230003.8,A,4919.68890,N,12317.56808,W,006.35,059.0,200913,017.3,E,D*27
$PGRME,2.4,M,2.4,M,3.4,M*29
$IIGLL,4919.688,N,12317.569,W,230000,A,A*4C
$HCHDG,41.0,0.0,E,,*1C
$IIMTW,+14.0,C*3D
$YXXDR,A,4.8,D,PTCH,A,11.8,D,ROLL*69
$IIMWV,211,R,07.3,N,A*15
$GPRMC,230004.0,A,4919.68903,N,12317.56762,W,006.34,058.6,200913,017.3,E,D*26
$PGRME,2.4,M,2.4,M,3.4,M*29
$HCHDG,41.0,0.0,E,,*1C
$HCHDG,40.7,0.0,E,,*1A
$HCHDG,40.3,0.0,E,,*1E
$GPRMC,230004.2,A,4919.68920,N,12317.56724,W,006.35,058.4,200913,017.3,E,D*24
$PGRME,2.4,M,2.4,M,3.4,M*29
$HCHDG,40.0,0.0,E,,*1D
$HCHDG,39.6,0.0,E,,*15
$GPRMC,230004.4,A,4919.68938,N,12317.56689,W,006.36,059.4,200913,017.3,E,D*2F
$GPRMB,A,-35.70,L,,Shil,4741.0830,N,12224.5670,W,104.7,160,-1.18,V*06
$PGRME,2.4,M,2.4,M,3.4,M*29
$IIMWV,196,T,13.1,N,A*18
$YXXDR,A,4.7,D,PTCH,A,10.5,D,ROLL*6A
$PTAK,FFD1,10.5*61
$HCHDG,39.4,0.0,E,,*17
$IIRMB,A,,,,Shil,,,,,104.7,160,,V,A*2E
$HCHDG,38.9,0.0,E,,*1B
$GPRMC,230004.6,A,4919.68952,N,12317.56648,W,006.40,057.8,200913,017.3,E,D*2F
$PGRME,2.4,M,2.4,M,3.4,M*29
$IIRMC,230000,A,4919.689,N,12317.567,W,06.3,058,200913,17,E,A*18
$HCHDG,38.9,0.0,E,,*1B
$IIVHW,,,,,06.2,N,,*1D
$IIVLW,06337,N,025.6,N*53
$HCHDG,38.6,0.0,E,,*14
$GPRMC,230004.8,A,4919.68967,N,12317.56602,W,006.40,058.9,200913,017.3,E,D*27
$PGRME,2.4,M,2.4,M,3.4,M*29
$IIVWR,142,L,06.8,N,,,,*76
$HCHDG,38.6,0.0,E,,*14
$IIGLL,4919.689,N,12317.567,W,230000,A,A*43
$YXXDR,A,4.8,D,PTCH,A,9.8,D,ROLL*50
$IIMTW,+14.0,C*3D
$GPRMC,230005.0,A,4919.68981,N,12317.56555,W,006.39,058.1,200913,017.3,E,D*21
$PGRME,2.4,M,2.4,M,3.4,M*29
$HCHDG,38.3,0.0,E,,*11
$HCHDG,38.2,0.0,E,,*10
$HCHDG,37.9,0.0,E,,*14
$GPRMC,230005.2,A,4919.69002,N,12317.56506,W,006.57,057.4,200913,017.3,E,D*24
$PGRME,2.4,M,2.4,M,3.4,M*29
$HCHDG,37.7,0.0,E,,*1A
$HCHDG,37.4,0.0,E,,*19
$GPRMC,230005.4,A,4919.69019,N,12317.56448,W,006.52,054.8,200913,017.3,E,D*29
$GPRMB,A,-35.70,L,,Shil,4741.0830,N,12224.5670,W,104.7,160,-1.72,V*0A
$PGRME,2.4,M,2.4,M,3.4,M*29
$IIMWV,222,R,07.3,N,A*15
$YXXDR,A,5.0,D,PTCH,A,8.5,D,ROLL*55
$PTAK,FFD1,8.5*58
$IIMWV,200,T,12.2,N,A*16
$HCHDG,37.1,0.0,E,,*1C
$HCHDG,36.8,0.0,E,,*14
$IIRMB,A,,,,Shil,,,,,104.7,160,,V,A*2E
$GPRMC,230005.6,A,4919.69053,N,12317.56398,W,006.51,054.7,200913,017.3,E,D*23
$PGRME,2.4,M,2.4,M,3.4,M*29
$HCHDG,36.7,0.0,E,,*1B
$IIRMC,230000,A,4919.689,N,12317.565,W,06.3,058,200913,17,E,A*1A
$IIVHW,,,,,06.0,N,,*1F
$HCHDG,36.3,0.0,E,,*1F
$GPRMC,230005.8,A,4919.69068,N,12317.56364,W,006.52,054.6,200913,017.3,E,D*24
$PGRME,2.4,M,2.4,M,3.4,M*29
$IIVLW,06337,N,025.6,N*53
$HCHDG,36.2,0.0,E,,*1E
$IIVWR,138,L,07.3,N,,,,*71
$YXXDR,A,4.7,D,PTCH,A,7.5,D,ROLL*5C
$IIGLL,4919.689,N,12317.565,W,230000,A,A*41
$GPRMC,230006.0,A,4919.69094,N,12317.56312,W,006.59,053.1,200913,017.3,E,D*26
$PGRME,2.4,M,2.4,M,3.4,M*29
$HCHDG,36.2,0.0,E,,*1E
$HCHDG,35.9,0.0,E,,*16
$HCHDG,35.9,0.0,E,,*16
$GPRMC,230006.2,A,4919.69110,N,12317.56266,W,006.63,053.6,200913,017.3,E,D*25
$PGRME,2.4,M,2.4,M,3.4,M*29
$HCHDG,35.8,0.0,E,,*17
$HCHDG,35.6,0.0,E,,*19
$GPRMC,230006.4,A,4919.69129,N,12317.56227,W,006.41,053.6,200913,017.3,E,D*2C
$GPRMB,A,-35.70,L,,Shil,4741.0830,N,12224.5670,W,104.7,160,-1.82,V*05
$PGRME,2.4,M,2.4,M,3.4,M*29
$IIMTW,+14.0,C*3D
$YXXDR,A,4.9,D,PTCH,A,6.6,D,ROLL*50
$PTAK,FFP1,HEEL,@*07
$IIMWV,227,R,07.6,N,A*15
$HCHDG,35.6,0.0,E,,*19
$IIMWV,203,T,12.4,N,A*13
$HCHDG,35.5,0.0,E,,*1A
$GPRMC,230006.6,A,4919.69147,N,12317.56189,W,006.47,053.9,200913,017.3,E,D*28
$PGRME,2.4,M,2.4,M,3.4,M*29
$IIRMB,A,,,,Shil,,,,,104.7,160,,V,A*2E
$HCHDG,35.4,0.0,E,,*1B
$IIRMC,230000,A,4919.690,N,12317.563,W,06.5,053,200913,17,E,A*19
$HCHDG,35.2,0.0,E,,*1D
$GPRMC,230006.8,A,4919.69167,N,12317.56139,W,006.51,052.2,200913,017.3,E,D*22
$PGRME,2.4,M,2.4,M,3.4,M*29
$IIVHW,,,,,06.1,N,,*1E
$IIVLW,06337,N,025.6,N*53
$HCHDG,34.8,0.0,E,,*16
$IIVWR,133,L,07.6,N,,,,*7F
$YXXDR,A,4.3,D,PTCH,A,6.2,D,ROLL*5E
$PTAK,FFD1,6.2*51
$GPRMC,230007.0,A,4919.69197,N,12317.56107,W,006.56,051.8,200913,017.3,E,D*27
$PGRME,2.4,M,2.4,M,3.4,M*29
$HCHDG,34.5,0.0,E,,*1B
$HCHDG,34.3,0.0,E,,*1D
$HCHDG,34.4,0.0,E,,*1A
$GPRMC,230007.2,A,4919.69220,N,12317.56062,W,006.55,050.2,200913,017.3,E,D*20
$PGRME,2.4,M,2.4,M,3.4,M*29
$HCHDG,34.2,0.0,E,,*1C
$HCHDG,34.3,0.0,E,,*1D
$GPRMC,230007.4,A,4919.69238,N,12317.56017,W,006.54,050.2,200913,017.3,E,D*2C
$PGRME,2.4,M,2.4,M,3.4,M*29
$YXXDR,A,4.6,D,PTCH,A,6.6,D,ROLL*5F
$IIGLL,4919.691,N,12317.561,W,230000,A,A*4C
$HCHDG,34.1,0.0,E,,*1F
$IIMTW,+14.0,C*3D
$HCHDG,33.9,0.0,E,,*10
$IIMWV,226,R,07.9,N,A*1B
$GPRMC,230007.6,A,4919.69259,N,12317.55969,W,006.59,050.9,200913,017.3,E,D*2C
$GPRMB,A,-35.70,L,,Shil,4741.0830,N,12224.5670,W,104.7,160,-2.16,V*0B
$PGRME,2.4,M,2.4,M,3.4,M*29
$IIMWV,206,T,12.4,N,A*16
$HCHDG,33.7,0.0,E,,*1E
$IIRMB,A,,,,Shil,,,,,104.7,160,,V,A*2E
$HCHDG,33.4,0.0,E,,*1D
$GPRMC,230007.8,A,4919.69279,N,12317.55920,W,006.61,052.4,200913,017.3,E,D*29
$PGRME,2.4,M,2.4,M,3.4,M*29
$IIRMC,230000,A,4919.691,N,12317.561,W,06.5,051,200913,17,E,A*18
$HCHDG,33.3,0.0,E,,*1A
$IIVHW,,,,,06.3,N,,*1C
$YXXDR,A,4.9,D,PTCH,A,6.6,D,ROLL*50
$IIVLW,06337,N,025.6,N*53
$GPRMC,230008.0,A,4919.69310,N,12317.55862,W,006.63,052.4,200913,017.3,E,D*25
$PGRME,2.4,M,2.4,M,3.4,M*29
$HCHDG,33.1,0.0,E,,*18
$HCHDG,32.9,0.0,E,,*11
$HCHDG,32.9,0.0,E,,*11
$GPRMC,230008.2,A,4919.69332,N,12317.55821,W,006.64,052.4,200913,017.3,E,D*27
$PGRME,2.4,M,2.4,M,3.4,M*29
$HCHDG,32.8,0.0,E,,*10
$HCHDG,32.8,0.0,E,,*10
$GPRMC,230008.4,A,4919.69355,N,12317.55774,W,006.64,051.7,200913,017.3,E,D*2F
$PGRME,2.4,M,2.4,M,3.4,M*29
$IIVWR,133,L,07.6,N,,,,*7F
$YXXDR,A,5.1,D,PTCH,A,7.9,D,ROLL*57
$PTAK,FFD1,7.9*5B
$HCHDG,32.9,0.0,E,,*11
$IIGLL,4919.693,N,12317.558,W,230000,A,A*44
$HCHDG,32.9,0.0,E,,*11
$IIMTW,+14.0,C*3D
$GPRMC,230008.6,A,4919.69371,N,12317.55726,W,006.64,052.5,200913,017.3,E,D*2D
$PGRME,2.4,M,2.4,M,3.4,M*29
$IIMWV,227,R,07.6,N,A*15
$HCHDG,32.7,0.0,E,,*1F
$IIMWV,206,T,12.9,N,A*1B
$HCHDG,32.5,0.0,E,,*1D
$IIRMB,A,,,,Shil,,,,,104.7,160,,V,A*2E
$GPRMC,230008.8,A,4919.69389,N,12317.55689,W,006.64,053.3,200913,017.3,E,D*27
$GPRMB,A,-35.70,L,,Shil,4741.0830,N,12224.5670,W,104.7,160,-1.92,V*04
$PGRME,2.4,M,2.4,M,3.4,M*29
$HCHDG,31.9,0.0,E,,*12
$IIRMC,230000,A,4919.693,N,12317.558,W,06.6,052,200913,17,E,A*10
$YXXDR,A,5.0,D,PTCH,A,7.2,D,ROLL*5D
$IIVHW,,,,,06.4,N,,*1B
$GPRMC,230009.0,A,4919.69407,N,12317.55655,W,006.65,054.5,200913,017.3,E,D*2E
$PGRME,2.4,M,2.4,M,3.4,M*29
$HCHDG,31.4,0.0,E,,*1F
$HCHDG,31.3,0.0,E,,*18
$HCHDG,30.6,0.0,E,,*1C
$GPRMC,230009.2,A,4919.69431,N,12317.55607,W,006.81,056.0,200913,017.3,E,D*23
$PGRME,2.4,M,2.4,M,3.4,M*29
$HCHDG,30.2,0.0,E,,*18
$HCHDG,30.2,0.0,E,,*18
$GPRMC,230009.4,A,4919.69450,N,12317.55560,W,006.75,053.9,200913,017.3,E,D*27
$PGRME,2.4,M,2.4,M,3.4,M*29
$IIVLW,06337,N,025.6,N*53
$YXXDR,A,4.8,D,PTCH,A,6.5,D,ROLL*52
$HCHDG,29.7,0.0,E,,*15
$IIVWR,130,L,07.8,N,,,,*72
$HCHDG,29.5,0.0,E,,*17
$GPRMC,230009.6,A,4919.69478,N,12317.55491,W,006.74,052.0,200913,017.3,E,D*29
$PGRME,2.4,M,2.4,M,3.4,M*29
$IIGLL,4919.694,N,12317.556,W,230000,A,A*4D
$IIMTW,+14.0,C*3D
$HCHDG,29.3,0.0,E,,*11
$IIMWV,230,R,07.8,N,A*1D
$IIMWV,205,T,12.8,N,A*19
$HCHDG,29.3,0.0,E,,*11
$GPRMC,230009.8,A,4919.69499,N,12317.55424,W,006.75,052.6,200913,017.3,E,D*21
$PGRME,2.4,M,2.4,M,3.4,M*29
$IIRMB,A,,,,Shil,,,,,104.7,160,,V,A*2E
$HCHDG,29.2,0.0,E,,*10
$YXXDR,A,4.9,D,PTCH,A,7.8,D,ROLL*5F
$PTAK,FFD1,7.8*5A
$IIRMC,230000,A,4919.694,N,12317.556,W,06.6,054,200913,17,E,A*1F
$GPRMC,230010.0,A,4919.69521,N,12317.55372,W,006.75,051.0,200913,017.3,E,D*22
$GPRMB,A,-35.69,L,,Shil,4741.0830,N,12224.5670,W,104.7,160,-2.21,V*07
$PGRME,2.4,M,2.4,M,3.4,M*29
$HCHDG,29.1,0.0,E,,*13
$HCHDG,28.9,0.0,E,,*1A
$HCHDG,29.0,0.0,E,,*12
$GPRMC,230010.2,A,4919.69549,N,12317.55324,W,006.73,050.1,200913,017.3,E,D*2B
$PGRME,2.4,M,2.4,M,3.4,M*29
$HCHDG,28.5,0.0,E,,*16
$HCHDG,28.3,0.0,E,,*10
$GPRMC,230010.4,A,4919.69585,N,12317.55273,W,006.74,050.2,200913,017.3,E,D*2A
$PGRME,2.4,M,2.4,M,3.4,M*29
$IIVHW,,,,,06.3,N,,*1C
$YXXDR,A,4.8,D,PTCH,A,7.7,D,ROLL*51
$IIVLW,06337,N,025.6,N*53
$HCHDG,28.1,0.0,E,,*12
$IIVWR,125,L,07.8,N,,,,*76
$HCHDG,27.8,0.0,E,,*14
$GPRMC,230010.6,A,4919.69621,N,12317.55215,W,006.72,049.3,200913,017.3,E,D*2A
$PTAK,FFP1,HEEL,@*07
$PGRME,2.4,M,2.4,M,3.4,M*29
$IIGLL,4919.695,N,12317.553,W,230000,A,A*49
$HCHDG,27.2,0.0,E,,*1E
$IIMTW,+14.0,C*3D
$IIMWV,235,R,07.8,N,A*18
$HCHDG,26.9,0.0,E,,*14
$GPRMC,230010.8,A,4919.69651,N,12317.55180,W,006.74,049.3,200913,017.3,E,D*2A
$IIMWV,208,T,12.8,N,A*14
$PGRME,2.4,M,2.4,M,3.4,M*29
$HCHDG,26.6,0.0,E,,*1B
$IIRMB,A,,,,Shil,,,,,104.7,160,,V,A*2E
$YXXDR,A,4.9,D,PTCH,A,7.9,D,ROLL*5E
$PTAK,FFD1,7.9*5B
$GPRMC,230011.0,A,4919.69664,N,12317.55175,W,006.75,048.2,200913,017.3,E,D*2E
$PGRME,2.4,M,2.4,M,3.4,M*29
$HCHDG,26.5,0.0,E,,*18
$HCHDG,26.0,0.0,E,,*1D
$HCHDG,25.8,0.0,E,,*16
$GPRMC,230011.2,A,4919.69688,N,12317.55149,W,006.75,047.5,200913,017.3,E,D*29
$GPRMB,A,-35.69,L,,Shil,4741.0830,N,12224.5670,W,104.7,160,-2.59,V*08
$PGRME,2.4,M,2.4,M,3.4,M*29
$HCHDG,25.7,0.0,E,,*19
$HCHDG,25.5,0.0,E,,*1B
$GPRMC,230011.4,A,4919.69713,N,12317.55098,W,006.75,047.4,200913,017.3,E,D*20
$PGRME,2.4,M,2.4,M,3.4,M*29
$YXXDR,A,5.2,D,PTCH,A,8.8,D,ROLL*5A
$HCHDG,25.3,0.0,E,,*1D
$IIRMC,230000,A,4919.696,N,12317.551,W,06.7,048,200913,17,E,A*16
$HCHDG,24.9,0.0,E,,*16
$IIVHW,,,,,06.2,N,,*1D
$GPRMC,230011.6,A,4919.69747,N,12317.55037,W,006.74,046.7,200913,017.3,E,D*25
$PGRME,2.4,M,2.4,M,3.4,M*29
$IIVLW,06337,N,025.6,N*53
$HCHDG,24.6,0.0,E,,*19
$IIVWR,123,L,08.0,N,,,,*77
$HCHDG,24.1,0.0,E,,*1E
$IIGLL,4919.696,N,12317.551,W,230000,A,A*48
$GPRMC,230011.8,A,4919.69772,N,12317.54993,W,006.72,045.5,200913,017.3,E,D*2C
$PGRME,2.4,M,2.4,M,3.4,M*29
$IIMTW,+14.0,C*3D
$HCHDG,23.9,0.0,E,,*11
$IIMWV,237,R,08.0,N,A*1D
$IIMWV,211,T,12.4,N,A*10
$YXXDR,A,5.2,D,PTCH,A,8.8,D,ROLL*5A
$PTAK,FFD1,8.8*55
$GPRMC,230012.0,A,4919.69798,N,12317.54950,W,006.73,044.9,200913,017.3,E,D*20
$PGRME,2.4,M,2.4,M,3.4,M*29
$HCHDG,23.6,0.0,E,,*1E
$HCHDG,23.2,0.0,E,,*1A
$HCHDG,23.0,0.0,E,,*18
$GPRMC,230012.2,A,4919.69831,N,12317.54910,W,006.73,043.8,200913,017.3,E,D*2C
$GPRMB,A,-35.69,L,,Shil,4741.0830,N,12224.5670,W,104.7,160,-2.98,V*05
$PGRME,2.4,M,2.4,M,3.4,M*29
$HCHDG,22.6,0.0,E,,*1F
$HCHDG,22.1,0.0,E,,*18
$GPRMC,230012.4,A,4919.69861,N,12317.54884,W,006.76,042.4,200913,017.3,E,D*2B
$PGRME,2.4,M,2.4,M,3.4,M*29
$YXXDR,A,5.0,D,PTCH,A,9.3,D,ROLL*52
$IIRMB,A,,,,Shil,,,,,104.7,160,,V,A*2E
$HCHDG,21.9,0.0,E,,*13
$HCHDG,21.5,0.0,E,,*1F
$GPRMC,230012.6,A,4919.69899,N,12317.54840,W,006.77,042.9,200913,017.3,E,D*2A
$PGRME,2.4,M,2.4,M,3.4,M*29
$IIRMC,230000,A,4919.697,N,12317.549,W,06.7,044,200913,17,E,A*12
$IIVHW,,,,,06.1,N,,*1E
$HCHDG,21.3,0.0,E,,*19
$IIVLW,06337,N,025.6,N*53
$HCHDG,20.9,0.0,E,,*12
$IIVWR,117,L,07.9,N,,,,*76
$GPRMC,230012.8,A,4919.69925,N,12317.54793,W,006.79,042.1,200913,017.3,E,D*25
$PGRME,2.4,M,2.4,M,3.4,M*29
$IIGLL,4919.697,N,12317.549,W,230000,A,A*40
$HCHDG,20.5,0.0,E,,*1E
$IIMTW,+14.0,C*3D
$YXXDR,A,4.9,D,PTCH,A,8.6,D,ROLL*5E
$IIMWV,243,R,07.9,N,A*18
$GPRMC,230013.0,A,4919.69963,N,12317.54772,W,006.80,039.9,200913,017.3,E,D*23
$PGRME,2.4,M,2.4,M,3.4,M*29
$HCHDG,20.0,0.0,E,,*1B
$HCHDG,19.4,0.0,E,,*15
$HCHDG,19.0,0.0,E,,*11
$GPRMC,230013.2,A,4919.69990,N,12317.54741,W,006.81,041.9,200913,017.3,E,D*23
$PGRME,2.4,M,2.4,M,3.4,M*29
$HCHDG,18.6,0.0,E,,*16
$HCHDG,18.3,0.0,E,,*13
$GPRMC,230013.4,A,4919.70010,N,12317.54703,W,006.79,041.2,200913,017.3,E,D*26
$GPRMB,A,-35.69,L,,Shil,4741.0830,N,12224.5670,W,104.7,160,-3.28,V*0F
$PGRME,2.4,M,2.4,M,3.4,M*29
$IIMWV,216,T,11.8,N,A*18
$YXXDR,A,5.3,D,PTCH,A,9.3,D,ROLL*51
$PTAK,FFD1,9.3*5F
$HCHDG,18.2,0.0,E,,*12
$IIRMB,A,,,,Shil,,,,,104.7,160,,V,A*2E
$HCHDG,17.7,0.0,E,,*18
$GPRMC,230013.6,A,4919.70035,N,12317.54653,W,006.79,040.6,200913,017.3,E,D*22
$PGRME,2.4,M,2.4,M,3.4,M*29
$IIRMC,230000,A,4919.699,N,12317.547,W,06.8,039,200913,17,E,A*17
$HCHDG,17.1,0.0,E,,*1E
$IIVHW,,,,,06.1,N,,*1E
$IIVLW,06337,N,025.6,N*53
$HCHDG,16.9,0.0,E,,*17
$GPRMC,230013.8,A,4919.70063,N,12317.54604,W,006.82,040.4,200913,017.3,E,D*2B
$PGRME,2.4,M,2.4,M,3.4,M*29
$IIVWR,113,L,08.1,N,,,,*75
$HCHDG,16.5,0.0,E,,*1B
$IIGLL,4919.699,N,12317.547,W,230000,A,A*40
$YXXDR,A,5.2,D,PTCH,A,9.2,D,ROLL*51
$IIMTW,+14.0,C*3D
$GPRMC,230014.0,A,4919.70092,N,12317.54550,W,006.84,039.6,200913,017.3,E,D*22
$PGRME,2.4,M,2.4,M,3.4,M*29
$HCHDG,16.0,0.0,E,,*1E
$HCHDG,15.8,0.0,E,,*15
$HCHDG,15.2,0.0,E,,*1F
$GPRMC,230014.2,A,4919.70125,N,12317.54517,W,006.87,039.2,200913,017.3,E,D*29
$PGRME,2.4,M,2.4,M,3.4,M*29
$HCHDG,14.7,0.0,E,,*1B
$HCHDG,14.5,0.0,E,,*19
$GPRMC,230014.4,A,4919.70152,N,12317.54490,W,006.87,037.0,200913,017.3,E,D*2D
$GPRMB,A,-35.69,L,,Shil,4741.0830,N,12224.5670,W,104.7,160,-3.75,V*07
$PGRME,2.4,M,2.4,M,3.4,M*29
$IIMWV,253,R,08.6,N,A*19
$YXXDR,A,5.3,D,PTCH,A,9.6,D,ROLL*54
$PTAK,FFD1,9.6*5A
$IIMWV,219,T,11.8,N,A*17
$HCHDG,14.1,0.0,E,,*1D
$PTAK,FFP1,HEEL,@*07
$HCHDG,13.7,0.0,E,,*1C
$IIRMB,A,,,,Shil,,,,,104.7,160,,V,A*2E
$GPRMC,230014.6,A,4919.70179,N,12317.54455,W,006.87,035.4,200913,017.3,E,D*29
$PGRME,2.4,M,2.4,M,3.4,M*29
$HCHDG,13.5,0.0,E,,*1E
$IIRMC,230000,A,4919.700,N,12317.545,W,06.8,039,200913,17,E,A*14
$IIVHW,,,,,06.0,N,,*1F
$HCHDG,13.4,0.0,E,,*1F
$GPRMC,230014.8,A,4919.70215,N,12317.54422,W,006.83,034.2,200913,017.3,E,D*2D
$PGRME,2.4,M,2.4,M,3.4,M*29
$IIVLW,06337,N,025.6,N*53
$HCHDG,13.4,0.0,E,,*1F
$IIVWR,107,L,08.6,N,,,,*77
$YXXDR,A,5.2,D,PTCH,A,10.8,D,ROLL*63
$IIGLL,4919.700,N,12317.545,W,230000,A,A*43
$GPRMC,230015.0,A,4919.70250,N,12317.54378,W,006.79,033.2,200913,017.3,E,D*2F
$PGRME,2.4,M,2.4,M,3.4,M*29
$HCHDG,13.3,0.0,E,,*18
$HCHDG,13.2,0.0,E,,*19
$HCHDG,13.4,0.0,E,,*1F
$GPRMC,230015.2,A,4919.70292,N,12317.54342,W,006.75,027.5,200913,017.3,E,D*24
$PGRME,2.4,M,2.4,M,3.4,M*29
$HCHDG,13.6,0.0,E,,*1D
$HCHDG,13.6,0.0,E,,*1D
$GPRMC,230015.4,A,4919.70327,N,12317.54314,W,006.72,025.9,200913,017.3,E,D*27
$PGRME,2.4,M,2.4,M,3.4,M*29
$IIMTW,+14.0,C*3D
$YXXDR,A,5.5,D,PTCH,A,12.1,D,ROLL*6F
$IIMWV,256,R,08.6,N,A*1C
$HCHDG,13.6,0.0,E,,*1D
$IIMWV,224,T,11.8,N,A*19
$HCHDG,13.8,0.0,E,,*13
$GPRMC,230015.6,A,4919.70365,N,12317.54290,W,006.53,027.1,200913,017.3,E,D*27
$GPRMB,A,-35.69,L,,Shil,4741.0830,N,12224.5670,W,104.7,160,-4.45,V*03
$PGRME,2.4,M,2.4,M,3.4,M*29
$IIRMB,A,,,,Shil,,,,,104.7,160,,V,A*2E
$HCHDG,13.6,0.0,E,,*1D
$IIRMC,230000,A,4919.702,N,12317.543,W,06.7,033,200913,17,E,A*15
$HCHDG,13.7,0.0,E,,*1C
$GPRMC,230015.8,A,4919.70401,N,12317.54267,W,006.53,025.8,200913,017.3,E,D*2F
$PGRME,2.4,M,2.4,M,3.4,M*29
$IIVHW,,,,,06.0,N,,*1F
$IIVLW,06337,N,025.6,N*53
$HCHDG,13.3,0.0,E,,*18
$IIVWR,104,L,08.6,N,,,,*74
$YXXDR,A,4.9,D,PTCH,A,10.3,D,ROLL*62
$PTAK,FFD1,10.3*67
$GPRMC,230016.0,A,4919.70435,N,12317.54238,W,006.51,025.6,200913,017.3,E,D*25
$PGRME,2.4,M,2.4,M,3.4,M*29
$HCHDG,12.9,0.0,E,,*13
$HCHDG,12.5,0.0,E,,*1F
$HCHDG,12.4,0.0,E,,*1E
$GPRMC,230016.2,A,4919.70466,N,12317.54211,W,006.53,025.2,200913,017.3,E,D*2C
$PGRME,2.4,M,2.4,M,3.4,M*29
$HCHDG,12.3,0.0,E,,*19
$HCHDG,12.0,0.0,E,,*1A
$GPRMC,230016.4,A,4919.70498,N,12317.54185,W,006.56,026.4,200913,017.3,E,D*25
$PGRME,2.4,M,2.4,M,3.4,M*29
$YXXDR,A,4.6,D,PTCH,A,8.5,D,ROLL*52
$IIGLL,4919.704,N,12317.542,W,230000,A,A*40
$HCHDG,11.7,0.0,E,,*1E
$IIMTW,+14.0,C*3D
$IIMWV,260,R,08.9,N,A*16
$HCHDG,11.6,0.0,E,,*1F
$GPRMC,230016.6,A,4919.70534,N,12317.54167,W,006.57,027.8,200913,017.3,E,D*20
$PGRME,2.4,M,2.4,M,3.4,M*29
$IIMWV,226,T,11.5,N,A*16
$HCHDG,11.2,0.0,E,,*1B
$IIRMB,A,,,,Shil,,,,,104.7,160,,V,A*2E
$HCHDG,10.8,0.0,E,,*10
$GPRMC,230016.8,A,4919.70568,N,12317.54144,W,006.60,027.1,200913,017.3,E,D*2B
$GPRMB,A,-35.69,L,,Shil,4741.0830,N,12224.5670,W,104.8,160,-4.50,V*08
$PGRME,2.4,M,2.4,M,3.4,M*29
$IIRMC,230000,A,4919.704,N,12317.542,W,06.5,025,200913,17,E,A*17
$HCHDG,10.4,0.0,E,,*1C
$IIVHW,,,,,06.0,N,,*1F
$YXXDR,A,4.9,D,PTCH,A,6.6,D,ROLL*50
$IIVLW,06337,N,025.6,N*53
$GPRMC,230017.0,A,4919.70605,N,12317.54120,W,006.63,027.5,200913,017.3,E,D*2F
$PGRME,2.4,M,2.4,M,3.4,M*29
$HCHDG,10.1,0.0,E,,*19
$HCHDG,9.6,0.0,E,,*26
$HCHDG,9.7,0.0,E,,*27
$GPRMC,230017.2,A,4919.70638,N,12317.54095,W,006.64,027.3,200913,017.3,E,D*2D
$PGRME,2.4,M,2.4,M,3.4,M*29
$HCHDG,9.6,0.0,E,,*26
$HCHDG,9.5,0.0,E,,*25
$GPRMC,230017.4,A,4919.70670,N,12317.54070,W,006.68,027.0,200913,017.3,E,D*23
$PGRME,2.4,M,2.4,M,3.4,M*29
$IIVWR,098,L,09.4,N,,,,*73
$YXXDR,A,4.9,D,PTCH,A,7.0,D,ROLL*57
$PTAK,FFD1,7.0*52
$HCHDG,9.5,0.0,E,,*25
$IIGLL,4919.706,N,12317.541,W,230000,A,A*41
$HCHDG,9.5,0.0,E,,*25
$IIMTW,+14.0,C*3D
$GPRMC,230017.6,A,4919.70709,N,12317.54053,W,006.84,026.8,200913,017.3,E,D*24
$PGRME,2.4,M,2.4,M,3.4,M*29
$IIMWV,262,R,09.4,N,A*18
$HCHDG,9.4,0.0,E,,*24
$IIMWV,229,T,11.5,N,A*19
$IIRMB,A,,,,Shil,,,,,104.8,160,,V,A*21
$HCHDG,9.3,0.0,E,,*23
$GPRMC,230017.8,A,4919.70735,N,12317.54038,W,006.82,026.8,200913,017.3,E,D*2E
$GPRMB,A,-35.69,L,,Shil,4741.0830,N,12224.5670,W,104.8,160,-4.68,V*03
$PGRME,2.4,M,2.4,M,3.4,M*29
$HCHDG,9.1,0.0,E,,*21
$IIRMC,230000,A,4919.706,N,12317.541,W,06.6,027,200913,17,E,A*17
$YXXDR,A,5.3,D,PTCH,A,7.2,D,ROLL*5E
$IIVHW,,,,,06.0,N,,*1F
$GPRMC,230018.0,A,4919.70762,N,12317.54025,W,006.84,027.2,200913,017.3,E,D*2A
$PGRME,2.4,M,2.4,M,3.4,M*29
$HCHDG,9.2,0.0,E,,*22
$HCHDG,9.2,0.0,E,,*22
$HCHDG,8.9,0.0,E,,*28
$GPRMC,230018.2,A,4919.70792,N,12317.54005,W,006.84,027.1,200913,017.3,E,D*26
$PGRME,2.4,M,2.4,M,3.4,M*29
$HCHDG,9.1,0.0,E,,*21
$HCHDG,8.8,0.0,E,,*29
$GPRMC,230018.4,A,4919.70826,N,12317.53984,W,006.85,027.3,200913,017.3,E,D*24
$PGRME,2.4,M,2.4,M,3.4,M*29
$IIVLW,06337,N,025.6,N*53
$YXXDR,A,5.1,D,PTCH,A,7.7,D,ROLL*59
$HCHDG,8.9,0.0,E,,*28
$IIVWR,094,L,09.5,N,,,,*7E
$HCHDG,8.8,0.0,E,,*29
$GPRMC,230018.6,A,4919.70863,N,12317.53966,W,006.86,028.0,200913,017.3,E,D*24
$PGRME,2.4,M,2.4,M,3.4,M*29
$IIGLL,4919.707,N,12317.540,W,230000,A,A*41
$IIMTW,+14.0,C*3D
$HCHDG,8.8,0.0,E,,*29
$PTAK,FFP1,HEEL,@*07
$IIMWV,266,R,09.5,N,A*1D
$IIMWV,232,T,11.8,N,A*1E
$HCHDG,8.6,0.0,E,,*27
$GPRMC,230018.8,A,4919.70904,N,12317.53935,W,006.86,027.4,200913,017.3,E,D*27
$PGRME,2.4,M,2.4,M,3.4,M*29
$IIRMB,A,,,,Shil,,,,,104.8,160,,V,A*21
$HCHDG,8.6,0.0,E,,*27
$YXXDR,A,4.9,D,PTCH,A,8.0,D,ROLL*58
$PTAK,FFD1,8.0*5D
$IIRMC,230000,A,4919.707,N,12317.540,W,06.8,027,200913,17,E,A*19
$GPRMC,230019.0,A,4919.70943,N,12317.53913,W,006.86,026.9,200913,017.3,E,D*25
$GPRMB,A,-35.68,L,,Shil,4741.0830,N,12224.5670,W,104.8,160,-4.69,V*03
$PGRME,2.4,M,2.4,M,3.4,M*29
$HCHDG,8.8,0.0,E,,*29
$HCHDG,9.2,0.0,E,,*22
$HCHDG,9.1,0.0,E,,*21
$GPRMC,230019.2,A,4919.70989,N,12317.53886,W,006.88,026.4,200913,017.3,E,D*2F
$PGRME,2.4,M,2.4,M,3.4,M*29
$HCHDG,9.2,0.0,E,,*22
$HCHDG,9.3,0.0,E,,*23
$GPRMC,230019.4,A,4919.71028,N,12317.53864,W,006.90,026.0,200913,017.3,E,D*2B
$PGRME,2.4,M,2.4,M,3.4,M*29
$IIVHW,,,,,06.0,N,,*1F
$YXXDR,A,5.5,D,PTCH,A,9.6,D,ROLL*52
$IIVLW,06337,N,025.6,N*53
$HCHDG,9.4,0.0,E,,*24
$IIVWR,092,L,09.5,N,,,,*78
$HCHDG,9.3,0.0,E,,*23
$GPRMC,230019.6,A,4919.71067,N,12317.53843,W,006.92,025.5,200913,017.3,E,D*23
$PGRME,2.4,M,2.4,M,3.4,M*29
$IIGLL,4919.709,N,12317.539,W,230000,A,A*41
$HCHDG,9.5,0.0,E,,*25
$IIMTW,+14.0,C*3D
$IIMWV,268,R,09.5,N,A*13
$HCHDG,9.5,0.0,E,,*25
$GPRMC,230019.8,A,4919.71103,N,12317.53814,W,006.94,025.7,200913,017.3,E,D*28
$IIMWV,235,T,11.5,N,A*14
$PGRME,2.4,M,2.4,M,3.4,M*29
$HCHDG,9.7,0.0,E,,*27
$IIRMB,A,,,,Shil,,,,,104.8,160,,V,A*21
$YXXDR,A,5.2,D,PTCH,A,8.5,D,ROLL*57
$PTAK,FFD1,8.5*58
$GPRMC,230020.0,A,4919.71145,N,12317.53779,W,006.92,024.9,200913,017.3,E,D*25
$HCHDG,9.9,0.0,E,,*29
$PGRME,2.4,M,2.4,M,3.4,M*29
$HCHDG,10.0,0.0,E,,*18
$HCHDG,9.8,0.0,E,,*28
$GPRMC,230020.2,A,4919.71188,N,12317.53748,W,006.92,026.7,200913,017.3,E,D*28
$GPRMB,A,-35.68,L,,Shil,4741.0830,N,12224.5670,W,104.8,160,-4.75,V*0E
$PGRME,2.4,M,2.4,M,3.4,M*29
$HCHDG,10.0,0.0,E,,*18
$HCHDG,9.6,0.0,E,,*26
$GPRMC,230020.4,A,4919.71227,N,12317.53725,W,006.94,027.8,200913,017.3,E,D*2B
$PGRME,2.4,M,2.4,M,3.4,M*29
$YXXDR,A,5.0,D,PTCH,A,6.8,D,ROLL*56
$HCHDG,9.2,0.0,E,,*22
$IIRMC,230000,A,4919.711,N,12317.537,W,06.9,024,200913,17,E,A*1C
$IIVHW,,,,,06.1,N,,*1E
$HCHDG,9.1,0.0,E,,*21
$GPRMC,230020.6,A,4919.71261,N,12317.53712,W,006.97,029.0,200913,017.3,E,D*2A
$PGRME,2.4,M,2.4,M,3.4,M*29
$IIVLW,06337,N,025.6,N*53
$HCHDG,8.8,0.0,E,,*29
$IIVWR,092,L,09.5,N,,,,*78
$HCHDG,8.6,0.0,E,,*27
$IIGLL,4919.711,N,12317.537,W,230000,A,A*46
$GPRMC,230020.8,A,4919.71296,N,12317.53704,W,006.97,029.1,200913,017.3,E,D*2A
$PGRME,2.4,M,2.4,M,3.4,M*29
$IIMTW,+14.0,C*3D
$HCHDG,8.8,0.0,E,,*29
$IIMWV,268,R,09.5,N,A*13
$IIMWV,237,T,11.3,N,A*10
$YXXDR,A,5.2,D,PTCH,A,5.1,D,ROLL*5E
$PTAK,FFD1,5.1*51
$GPRMC,230021.0,A,4919.71332,N,12317.53682,W,006.97,027.9,200913,017.3,E,D*25
$HCHDG,8.4,0.0,E,,*25
$PGRME,2.4,M,2.4,M,3.4,M*29
$HCHDG,8.6,0.0,E,,*27
$HCHDG,8.9,0.0,E,,*28
$GPRMC,230021.2,A,4919.71369,N,12317.53646,W,006.94,028.5,200913,017.3,E,D*21
$PGRME,2.4,M,2.4,M,3.4,M*29
$HCHDG,8.9,0.0,E,,*28
$HCHDG,8.8,0.0,E,,*29
$GPRMC,230021.4,A,4919.71401,N,12317.53620,W,006.89,027.7,200913,017.3,E,D*2F
$GPRMB,A,-35.68,L,,Shil,4741.0830,N,12224.5670,W,104.8,160,-4.64,V*0E
$PGRME,2.4,M,2.4,M,3.4,M*29
$YXXDR,A,5.0,D,PTCH,A,5.0,D,ROLL*5D
$IIRMB,A,,,,Shil,,,,,104.8,160,,V,A*21
$HCHDG,8.9,0.0,E,,*28
$HCHDG,9.2,0.0,E,,*22
$GPRMC,230021.6,A,4919.71440,N,12317.53603,W,006.85,028.4,200913,017.3,E,D*29
$PGRME,2.4,M,2.4,M,3.4,M*29
$IIRMC,230000,A,4919.713,N,12317.536,W,06.9,027,200913,17,E,A*1C
$IIVHW,,,,,06.1,N,,*1E
$HCHDG,9.3,0.0,E,,*23
$IIVLW,06337,N,025.6,N*53
$HCHDG,9.0,0.0,E,,*20
$IIVWR,093,L,10.1,N,,,,*75
$GPRMC,230021.8,A,4919.71472,N,12317.53590,W,006.82,028.8,200913,017.3,E,D*24
$PGRME,2.4,M,2.4,M,3.4,M*29
$IIGLL,4919.713,N,12317.536,W,230000,A,A*45
$HCHDG,8.9,0.0,E,,*28
$IIMTW,+14.0,C*3D
$YXXDR,A,4.9,D,PTCH,A,4.4,D,ROLL*50
$IIMWV,267,R,10.1,N,A*10
$GPRMC,230022.0,A,4919.71502,N,12317.53569,W,006.81,030.0,200913,017.3,E,D*2D
$HCHDG,8.9,0.0,E,,*28
$PGRME,2.4,M,2.4,M,3.4,M*29
$HCHDG,8.6,0.0,E,,*27
$HCHDG,8.5,0.0,E,,*24
$GPRMC,230022.2,A,4919.71544,N,12317.53541,W,006.82,030.5,200913,017.3,E,D*21
$PGRME,2.4,M,2.4,M,3.4,M*29
$HCHDG,8.5,0.0,E,,*24
$HCHDG,8.2,0.0,E,,*23
$GPRMC,230022.4,A,4919.71572,N,12317.53502,W,006.81,030.3,200913,017.3,E,D*20
$GPRMB,A,-35.68,L,,Shil,4741.0830,N,12224.5670,W,104.8,160,-4.36,V*09
$PGRME,2.4,M,2.4,M,3.4,M*29
$IIMWV,237,T,12.1,N,A*11
$YXXDR,A,4.8,D,PTCH,A,4.2,D,ROLL*57
$PTAK,FFD1,4.2*53
$HCHDG,8.1,0.0,E,,*20
$IIRMB,A,,,,Shil,,,,,104.8,160,,V,A*21
$HCHDG,7.9,0.0,E,,*27
$GPRMC,230022.6,A,4919.71610,N,12317.53487,W,006.79,030.4,200913,017.3,E,D*29
$PGRME,2.4,M,2.4,M,3.4,M*29
$IIRMC,230000,A,4919.715,N,12317.535,W,06.8,030,200913,17,E,A*1E
$HCHDG,8.0,0.0,E,,*21
$PTAK,FFP1,HEEL,@*07
$IIVHW,,,,,06.1,N,,*1E
$IIVLW,06337,N,025.7,N*52
$HCHDG,7.7,0.0,E,,*29
$GPRMC,230022.8,A,4919.71651,N,12317.53468,W,006.78,031.7,200913,017.3,E,D*20
$PGRME,2.4,M,2.4,M,3.4,M*29
$IIVWR,091,L,09.9,N,,,,*77
$HCHDG,7.6,0.0,E,,*28
$IIGLL,4919.715,N,12317.535,W,230000,A,A*40
$YXXDR,A,4.8,D,PTCH,A,4.9,D,ROLL*5C
$IIMTW,+14.0,C*3D
$GPRMC,230023.0,A,4919.71684,N,12317.53458,W,006.75,031.1,200913,017.3,E,D*29
$HCHDG,7.6,0.0,E,,*28
$PGRME,2.4,M,2.4,M,3.4,M*29
$HCHDG,7.7,0.0,E,,*29
$HCHDG,7.4,0.0,E,,*2A
$GPRMC,230023.2,A,4919.71712,N,12317.53436,W,006.77,030.9,200913,017.3,E,D*26
$PGRME,2.4,M,2.4,M,3.4,M*29
$HCHDG,7.5,0.0,E,,*2B
$HCHDG,7.8,0.0,E,,*26
$GPRMC,230023.4,A,4919.71746,N,12317.53396,W,006.81,030.1,200913,017.3,E,D*2D
$PGRME,2.4,M,2.4,M,3.4,M*29
$IIMWV,268,R,09.5,N,A*13
$YXXDR,A,4.8,D,PTCH,A,6.6,D,ROLL*51
$HCHDG,7.7,0.0,E,,*29
$IIMWV,237,T,11.7,N,A*14
$HCHDG,8.0,0.0,E,,*21
$IIRMB,A,,,,Shil,,,,,104.8,160,,V,A*21
$GPRMC,230023.6,A,4919.71784,N,12317.53364,W,006.85,028.7,200913,017.3,E,D*27
$GPRMB,A,-35.68,L,,Shil,4741.0830,N,12224.5670,W,104.8,160,-4.53,V*0A
$PGRME,2.4,M,2.4,M,3.4,M*29
$HCHDG,7.9,0.0,E,,*27
$IIRMC,230000,A,4919.716,N,12317.534,W,06.7,031,200913,17,E,A*12
$IIVHW,,,,,06.1,N,,*1E
$HCHDG,8.1,0.0,E,,*20
$GPRMC,230023.8,A,4919.71816,N,12317.53335,W,006.88,028.5,200913,017.3,E,D*26
$PGRME,2.4,M,2.4,M,3.4,M*29
$IIVLW,06337,N,025.7,N*52
$HCHDG,8.1,0.0,E,,*20
$IIVWR,092,L,09.5,N,,,,*78
$YXXDR,A,5.5,D,PTCH,A,8.0,D,ROLL*55
$PTAK,FFD1,8.0*5D
$IIGLL,4919.716,N,12317.534,W,230000,A,A*42
$GPRMC,230024.0,A,4919.71848,N,12317.53310,W,006.91,028.2,200913,017.3,E,D*2A
$HCHDG,8.1,0.0,E,,*20
$PGRME,2.4,M,2.4,M,3.4,M*29
$HCHDG,8.4,0.0,E,,*25
$HCHDG,8.2,0.0,E,,*23
$GPRMC,230024.2,A,4919.71883,N,12317.53285,W,006.90,027.5,200913,017.3,E,D*2B
$PGRME,2.4,M,2.4,M,3.4,M*29
$HCHDG,8.3,0.0,E,,*22
$HCHDG,8.6,0.0,E,,*27
$GPRMC,230024.4,A,4919.71919,N,12317.53256,W,006.75,027.5,200913,017.3,E,D*2A
$PGRME,2.4,M,2.4,M,3.4,M*29
$IIMTW,+14.0,C*3D
$YXXDR,A,5.4,D,PTCH,A,8.5,D,ROLL*51
$IIMWV,265,R,08.9,N,A*13
$HCHDG,8.6,0.0,E,,*27
$IIMWV,236,T,11.4,N,A*16
$HCHDG,8.5,0.0,E,,*24
$GPRMC,230024.6,A,4919.71947,N,12317.53227,W,006.93,027.7,200913,017.3,E,D*2F
$PGRME,2.4,M,2.4,M,3.4,M*29
$IIRMB,A,,,,Shil,,,,,104.8,160,,V,A*21
$HCHDG,8.8,0.0,E,,*29
$IIRMC,230000,A,4919.718,N,12317.533,W,06.9,028,200913,17,E,A*1D
$HCHDG,8.6,0.0,E,,*27
$GPRMC,230024.8,A,4919.71985,N,12317.53200,W,006.89,027.6,200913,017.3,E,D*20
$GPRMB,A,-35.68,L,,Shil,4741.0830,N,12224.5670,W,104.8,160,-4.65,V*0F
$PGRME,2.4,M,2.4,M,3.4,M*29
$IIVHW,,,,,06.2,N,,*1D
$IIVLW,06337,N,025.7,N*52
$HCHDG,8.7,0.0,E,,*26
$IIVWR,095,L,08.9,N,,,,*72
$YXXDR,A,5.2,D,PTCH,A,8.8,D,ROLL*5A
$PTAK,FFD1,8.8*55
$GPRMC,230025.0,A,4919.72012,N,12317.53177,W,006.92,028.4,200913,017.3,E,D*29
$PGRME,2.4,M,2.4,M,3.4,M*29
$HCHDG,8.2,0.0,E,,*23
$HCHDG,7.9,0.0,E,,*27
$HCHDG,7.4,0.0,E,,*2A
$GPRMC,230025.2,A,4919.72048,N,12317.53144,W,006.92,030.5,200913,017.3,E,D*2C
$PGRME,2.4,M,2.4,M,3.4,M*29
$HCHDG,7.0,0.0,E,,*2E
$HCHDG,6.9,0.0,E,,*26
$GPRMC,230025.4,A,4919.72075,N,12317.53118,W,006.93,030.3,200913,017.3,E,D*2A
$PGRME,2.4,M,2.4,M,3.4,M*29
$YXXDR,A,5.3,D,PTCH,A,7.2,D,ROLL*5E
$IIGLL,4919.720,N,12317.531,W,230000,A,A*42
$HCHDG,6.4,0.0,E,,*2B
$IIMTW,+14.0,C*3D
$HCHDG,6.2,0.0,E,,*2D
$IIMWV,269,R,09.4,N,A*13
$GPRMC,230025.6,A,4919.72100,N,12317.53093,W,006.93,030.3,200913,017.3,E,D*29
$PGRME,2.4,M,2.4,M,3.4,M*29
$IIMWV,232,T,11.3,N,A*15
$HCHDG,6.1,0.0,E,,*2E
$IIRMB,A,,,,Shil,,,,,104.8,160,,V,A*21
$HCHDG,6.3,0.0,E,,*2C
$GPRMC,230025.8,A,4919.72133,N,12317.53058,W,006.94,029.1,200913,017.3,E,D*2D
$PGRME,2.4,M,2.4,M,3.4,M*29
$IIRMC,230000,A,4919.720,N,12317.531,W,06.9,028,200913,17,E,A*14
$HCHDG,6.5,0.0,E,,*2A
$IIVHW,,,,,06.2,N,,*1D
$YXXDR,A,5.0,D,PTCH,A,7.5,D,ROLL*5A
$IIVLW,06337,N,025.7,N*52
$GPRMC,230026.0,A,4919.72171,N,12317.53039,W,006.94,028.0,200913,017.3,E,D*27
$GPRMB,A,-35.68,L,,Shil,4741.0830,N,12224.5670,W,104.8,160,-4.65,V*0F
$PGRME,2.4,M,2.4,M,3.4,M*29
$HCHDG,6.3,0.0,E,,*2C
$HCHDG,6.5,0.0,E,,*2A
$HCHDG,6.5,0.0,E,,*2A
$GPRMC,230026.2,A,4919.72209,N,12317.53004,W,006.95,027.7,200913,017.3,E,D*2E
$PGRME,2.4,M,2.4,M,3.4,M*29
$HCHDG,6.5,0.0,E,,*2A
$HCHDG,6.5,0.0,E,,*2A
$GPRMC,230026.4,A,4919.72247,N,12317.52974,W,006.99,027.1,200913,017.3,E,D*27
$PGRME,2.4,M,2.4,M,3.4,M*29
$IIVWR,090,L,09.8,N,,,,*77
$YXXDR,A,5.4,D,PTCH,A,7.5,D,ROLL*5E
$PTAK,FFD1,7.5*57
$HCHDG,6.2,0.0,E,,*2D
$IIGLL,4919.721,N,12317.530,W,230000,A,A*42
$HCHDG,6.2,0.0,E,,*2D
$IIMTW,+14.0,C*3D
$GPRMC,230026.6,A,4919.72279,N,12317.52957,W,007.02,027.3,200913,017.3,E,D*28
$PGRME,2.4,M,2.4,M,3.4,M*29
$IIMWV,270,R,09.8,N,A*17
$HCHDG,6.2,0.0,E,,*2D
$IIMWV,236,T,11.3,N,A*11
$HCHDG,5.8,0.0,E,,*24
$PTAK,FFP1,HEEL,@*07
$IIRMB,A,,,,Shil,,,,,104.8,160,,V,A*21
$GPRMC,230026.8,A,4919.72315,N,12317.52927,W,007.04,027.4,200913,017.3,E,D*2B
$PGRME,2.4,M,2.4,M,3.4,M*29
$HCHDG,5.9,0.0,E,,*25
$IIRMC,230000,A,4919.721,N,12317.530,W,06.9,028,200913,17,E,A*14
$YXXDR,A,5.2,D,PTCH,A,6.6,D,ROLL*5A
$IIVHW,,,,,06.3,N,,*1C
$GPRMC,230027.0,A,4919.72349,N,12317.52890,W,007.07,026.4,200913,017.3,E,D*24
$GPRMB,A,-35.68,L,,Shil,4741.0830,N,12224.5670,W,104.8,160,-4.88,V*0C
$HCHDG,6.0,0.0,E,,*2F
$PGRME,2.4,M,2.4,M,3.4,M*29
$HCHDG,5.7,0.0,E,,*2B
$HCHDG,5.4,0.0,E,,*28
$GPRMC,230027.2,A,4919.72387,N,12317.52859,W,007.10,026.5,200913,017.3,E,D*26
$PGRME,2.4,M,2.4,M,3.4,M*29
$HCHDG,5.6,0.0,E,,*2A
$HCHDG,5.3,0.0,E,,*2F
$GPRMC,230027.4,A,4919.72426,N,12317.52830,W,007.12,026.9,200913,017.3,E,D*2D
$PGRME,2.4,M,2.4,M,3.4,M*29
$IIVLW,06337,N,025.7,N*52
$YXXDR,A,5.1,D,PTCH,A,6.4,D,ROLL*5B
$IIVWR,088,L,10.0,N,,,,*7E
$HCHDG,5.0,0.0,E,,*2C
$HCHDG,4.8,0.0,E,,*25
$GPRMC,230027.6,A,4919.72469,N,12317.52804,W,007.14,026.9,200913,017.3,E,D*25
$PGRME,2.4,M,2.4,M,3.4,M*29
$IIGLL,4919.723,N,12317.528,W,230000,A,A*49
$IIMTW,+14.0,C*3D
$HCHDG,4.9,0.0,E,,*24
$IIMWV,272,R,10.0,N,A*15
$IIMWV,237,T,11.6,N,A*15
$HCHDG,4.6,0.0,E,,*2B
$GPRMC,230027.8,A,4919.72513,N,12317.52790,W,007.13,025.9,200913,017.3,E,D*21
$PGRME,2.4,M,2.4,M,3.4,M*29
$IIRMB,A,,,,Shil,,,,,104.8,160,,V,A*21
$HCHDG,4.7,0.0,E,,*2A
$YXXDR,A,5.4,D,PTCH,A,6.0,D,ROLL*5A
$PTAK,FFD1,6.0*53
$IIRMC,230000,A,4919.723,N,12317.528,W,07.0,026,200913,17,E,A*19
$GPRMC,230028.0,A,4919.72551,N,12317.52766,W,007.13,025.9,200913,017.3,E,D*29
$GPRMB,A,-35.68,L,,Shil,4741.0830,N,12224.5670,W,104.8,160,-4.97,V*02
$PGRME,2.4,M,2.4,M,3.4,M*29
$HCHDG,4.4,0.0,E,,*29
$HCHDG,4.3,0.0,E,,*2E
$HCHDG,4.3,0.0,E,,*2E
$GPRMC,230028.2,A,4919.72587,N,12317.52738,W,007.13,025.2,200913,017.3,E,D*20
$PGRME,2.4,M,2.4,M,3.4,M*29
$HCHDG,4.3,0.0,E,,*2E
$HCHDG,4.2,0.0,E,,*2F
$GPRMC,230028.4,A,4919.72626,N,12317.52714,W,007.14,024.8,200913,017.3,E,D*2C
$PGRME,2.4,M,2.4,M,3.4,M*29
$IIVHW,,,,,06.4,N,,*1B
$YXXDR,A,5.5,D,PTCH,A,6.3,D,ROLL*58
$IIVLW,06337,N,025.7,N*52
$HCHDG,3.9,0.0,E,,*23
$IIVWR,088,L,10.2,N,,,,*7C
$HCHDG,4.1,0.0,E,,*2C
$GPRMC,230028.6,A,4919.72664,N,12317.52674,W,007.11,025.5,200913,017.3,E,D*26
$PGRME,2.4,M,2.4,M,3.4,M*29
$IIGLL,4919.725,N,12317.527,W,230000,A,A*40
$HCHDG,3.9,0.0,E,,*23
$IIMTW,+14.0,C*3D
$IIMWV,272,R,10.2,N,A*17
$HCHDG,3.9,0.0,E,,*23
$GPRMC,230028.8,A,4919.72706,N,12317.52645,W,007.08,025.3,200913,017.3,E,D*21
$IIMWV,239,T,11.7,N,A*1A
$PGRME,2.4,M,2.4,M,3.4,M*29
$HCHDG,3.7,0.0,E,,*2D
$IIRMB,A,,,,Shil,,,,,104.8,160,,V,A*21
$YXXDR,A,5.2,D,PTCH,A,6.8,D,ROLL*54
$PTAK,FFD1,6.8*5B
$GPRMC,230029.0,A,4919.72738,N,12317.52627,W,007.02,024.6,200913,017.3,E,D*2F
$HCHDG,3.6,0.0,E,,*2C
$PGRME,2.4,M,2.4,M,3.4,M*29
$HCHDG,3.5,0.0,E,,*2F
$HCHDG,3.2,0.0,E,,*28
$GPRMC,230029.2,A,4919.72773,N,12317.52607,W,006.97,025.3,200913,017.3,E,D*29
$GPRMB,A,-35.68,L,,Shil,4741.0830,N,12224.5670,W,104.8,160,-4.91,V*04
$PGRME,2.4,M,2.4,M,3.4,M*29
$HCHDG,2.6,0.0,E,,*2D
$HCHDG,2.4,0.0,E,,*2F
$GPRMC,230029.4,A,4919.72804,N,12317.52583,W,006.92,025.4,200913,017.3,E,D*2D
$PGRME,2.4,M,2.4,M,3.4,M*29
$YXXDR,A,5.1,D,PTCH,A,6.5,D,ROLL*5A
$HCHDG,2.4,0.0,E,,*2F
$IIRMC,230000,A,4919.727,N,12317.526,W,07.0,024,200913,17,E,A*11
$HCHDG,2.0,0.0,E,,*2B
$IIVHW,,,,,06.3,N,,*1C
$GPRMC,230029.6,A,4919.72831,N,12317.52554,W,006.89,024.9,200913,017.3,E,D*25
$PGRME,2.4,M,2.4,M,3.4,M*29
$IIVLW,06337,N,025.7,N*52
$HCHDG,2.1,0.0,E,,*2A
$IIVWR,086,L,10.0,N,,,,*70
$HCHDG,1.7,0.0,E,,*2F
$IIGLL,4919.727,N,12317.526,W,230000,A,A*43
$GPRMC,230029.8,A,4919.72865,N,12317.52512,W,006.86,024.7,200913,017.3,E,D*29
$PGRME,2.4,M,2.4,M,3.4,M*29
$IIMTW,+14.0,C*3D
$HCHDG,1.5,0.0,E,,*2D
$IIMWV,274,R,10.0,N,A*13
$IIMWV,239,T,11.8,N,A*15
$YXXDR,A,5.2,D,PTCH,A,7.1,D,ROLL*5C
$PTAK,FFD1,7.1*53
$GPRMC,230030.0,A,4919.72898,N,12317.52483,W,006.86,024.5,200913,017.3,E,D*20
$GPRMB,A,-35.67,L,,Shil,4741.0830,N,12224.5670,W,104.8,160,-4.90,V*0A
$PGRME,2.4,M,2.4,M,3.4,M*29
$HCHDG,1.1,0.0,E,,*29
$HCHDG,0.8,0.0,E,,*21
$HCHDG,1.0,0.0,E,,*28
$GPRMC,230030.2,A,4919.72937,N,12317.52471,W,006.87,024.4,200913,017.3,E,D*2B
$PGRME,2.4,M,2.4,M,3.4,M*29
$HCHDG,0.5,0.0,E,,*2C
$HCHDG,0.5,0.0,E,,*2C
$GPRMC,230030.4,A,4919.72969,N,12317.52452,W,006.90,023.5,200913,017.3,E,D*27
$PTAK,FFP1,HEEL,@*07
$PGRME,2.4,M,2.4,M,3.4,M*29
$YXXDR,A,5.3,D,PTCH,A,7.5,D,ROLL*59
$IIRMB,A,,,,Shil,,,,,104.8,160,,V,A*21
$HCHDG,0.1,0.0,E,,*28
$HCHDG,0.0,0.0,E,,*29
$GPRMC,230030.6,A,4919.73004,N,12317.52429,W,006.92,023.9,200913,017.3,E,D*24
$PGRME,2.4,M,2.4,M,3.4,M*29
$IIRMC,230000,A,4919.728,N,12317.524,W,06.8,024,200913,17,E,A*15
$IIVHW,,,,,06.3,N,,*1C
$HCHDG,359.9,0.0,E,,*2F
$IIVLW,06337,N,025.7,N*52
$IIVWR,084,L,10.1,N,,,,*73
$HCHDG,359.7,0.0,E,,*21
$GPRMC,230030.8,A,4919.73030,N,12317.52415,W,006.92,022.9,200913,017.3,E,D*23
$PGRME,2.4,M,2.4,M,3.4,M*29
$IIGLL,4919.728,N,12317.524,W,230000,A,A*4E
$HCHDG,359.5,0.0,E,,*23
$IIMTW,+14.0,C*3D
$YXXDR,A,5.1,D,PTCH,A,8.4,D,ROLL*55
$IIMWV,276,R,10.1,N,A*10
$GPRMC,230031.0,A,4919.73058,N,12317.52400,W,006.90,022.1,200913,017.3,E,D*2A
$GPRMB,A,-35.67,L,,Shil,4741.0830,N,12224.5670,W,104.8,160,-5.13,V*00
$PGRME,2.4,M,2.4,M,3.4,M*29
$HCHDG,359.3,0.0,E,,*25
$HCHDG,359.3,0.0,E,,*25
$HCHDG,359.1,0.0,E,,*27
$GPRMC,230031.2,A,4919.73098,N,12317.52378,W,006.90,023.1,200913,017.3,E,D*2D
$PGRME,2.4,M,2.4,M,3.4,M*29
$HCHDG,358.9,0.0,E,,*2E
$HCHDG,358.6,0.0,E,,*21
$GPRMC,230031.4,A,4919.73136,N,12317.52358,W,006.90,021.9,200913,017.3,E,D*26
$PGRME,2.4,M,2.4,M,3.4,M*29
$IIMWV,242,T,11.2,N,A*13
$YXXDR,A,5.1,D,PTCH,A,9.1,D,ROLL*51
$PTAK,FFD1,9.1*5D
$HCHDG,358.3,0.0,E,,*24
$IIRMB,A,,,,Shil,,,,,104.8,160,,V,A*21
$HCHDG,358.2,0.0,E,,*25
$GPRMC,230031.6,A,4919.73172,N,12317.52340,W,006.91,021.3,200913,017.3,E,D*26
$PGRME,2.4,M,2.4,M,3.4,M*29
$IIRMC,230000,A,4919.730,N,12317.524,W,06.9,022,200913,17,E,A*1B
$HCHDG,357.8,0.0,E,,*20
$IIVHW,,,,,06.3,N,,*1C
$IIVLW,06337,N,025.7,N*52
$HCHDG,357.7,0.0,E,,*2F
$GPRMC,230031.8,A,4919.73210,N,12317.52319,W,006.89,021.0,200913,017.3,E,D*29
$PGRME,2.4,M,2.4,M,3.4,M*29
$IIVWR,083,L,10.2,N,,,,*77
$HCHDG,357.5,0.0,E,,*2D
$IIGLL,4919.730,N,12317.524,W,230000,A,A*47
$YXXDR,A,5.0,D,PTCH,A,9.9,D,ROLL*58
$IIMTW,+14.0,C*3D
$GPRMC,230032.0,A,4919.73251,N,12317.52307,W,006.90,020.2,200913,017.3,E,D*23
$PGRME,2.4,M,2.4,M,3.4,M*29
$HCHDG,357.4,0.0,E,,*2C
$HCHDG,357.4,0.0,E,,*2C
$HCHDG,357.5,0.0,E,,*2D
$GPRMC,230032.2,A,4919.73287,N,12317.52291,W,006.88,018.5,200913,017.3,E,D*21
$GPRMB,A,-35.67,L,,Shil,4741.0830,N,12224.5670,W,104.8,160,-5.39,V*08
$PGRME,2.4,M,2.4,M,3.4,M*29
$HCHDG,357.6,0.0,E,,*2E
$HCHDG,357.7,0.0,E,,*2F
$GPRMC,230032.4,A,4919.73326,N,12317.52273,W,006.84,015.6,200913,017.3,E,D*23
$PGRME,2.4,M,2.4,M,3.4,M*29
$IIMWV,279,R,10.3,N,A*1D
$YXXDR,A,5.2,D,PTCH,A,11.3,D,ROLL*69
$PTAK,FFD1,11.3*66
$IIMWV,243,T,11.2,N,A*12
$HCHDG,357.8,0.0,E,,*20
$HCHDG,358.0,0.0,E,,*27
$IIRMB,A,,,,Shil,,,,,104.8,160,,V,A*21
$GPRMC,230032.6,A,4919.73364,N,12317.52259,W,006.68,014.0,200913,017.3,E,D*2A
$PGRME,2.4,M,2.4,M,3.4,M*29
$HCHDG,358.2,0.0,E,,*25
$IIRMC,230000,A,4919.732,N,12317.523,W,06.9,020,200913,17,E,A*1C
$IIVHW,,,,,06.2,N,,*1D
$HCHDG,358.4,0.0,E,,*23
$GPRMC,230032.8,A,4919.73399,N,12317.52247,W,006.70,012.4,200913,017.3,E,D*22
$PGRME,2.4,M,2.4,M,3.4,M*29
$IIVLW,06337,N,025.7,N*52
$HCHDG,358.8,0.0,E,,*2F
$IIVWR,081,L,10.3,N,,,,*74
$YXXDR,A,5.1,D,PTCH,A,11.9,D,ROLL*60
$IIGLL,4919.732,N,12317.523,W,230000,A,A*42
$GPRMC,230033.0,A,4919.73442,N,12317.52234,W,006.92,010.9,200913,017.3,E,D*2D
$PGRME,2.4,M,2.4,M,3.4,M*29
$HCHDG,359.0,0.0,E,,*26
$HCHDG,358.9,0.0,E,,*2E
$HCHDG,359.1,0.0,E,,*27
$GPRMC,230033.2,A,4919.73482,N,12317.52228,W,006.88,011.6,200913,017.3,E,D*2B
$PGRME,2.4,M,2.4,M,3.4,M*29
$HCHDG,358.8,0.0,E,,*2F
$HCHDG,358.8,0.0,E,,*2F
$GPRMC,230033.4,A,4919.73520,N,12317.52214,W,006.85,012.3,200913,017.3,E,D*20
$GPRMB,A,-35.67,L,,Shil,4741.0830,N,12224.5670,W,104.8,160,-5.80,V*0A
$PGRME,2.4,M,2.4,M,3.4,M*29
$IIMTW,+14.0,C*3D
$YXXDR,A,5.2,D,PTCH,A,10.3,D,ROLL*68
$PTAK,FFD1,10.3*67
$IIMWV,281,R,10.9,N,A*10
$HCHDG,358.2,0.0,E,,*25
$IIMWV,245,T,11.1,N,A*17
$HCHDG,358.1,0.0,E,,*26
$GPRMC,230033.6,A,4919.73562,N,12317.52200,W,006.89,011.8,200913,017.3,E,D*25
$PGRME,2.4,M,2.4,M,3.4,M*29
$IIRMB,A,,,,Shil,,,,,104.8,160,,V,A*21
$HCHDG,357.9,0.0,E,,*21
$IIRMC,230000,A,4919.732,N,12317.523,W,06.9,020,200913,17,E,A*1C
$HCHDG,357.6,0.0,E,,*2E
$GPRMC,230033.8,A,4919.73605,N,12317.52185,W,006.91,012.0,200913,017.3,E,D*25
$PGRME,2.4,M,2.4,M,3.4,M*29
$IIVHW,,,,,06.2,N,,*1D
$IIVLW,06337,N,025.7,N*52
$HCHDG,357.5,0.0,E,,*2D
$IIVWR,079,L,10.9,N,,,,*79
$YXXDR,A,5.1,D,PTCH,A,7.9,D,ROLL*57
$GPRMC,230034.0,A,4919.73650,N,12317.52165,W,006.95,011.9,200913,017.3,E,D*2A
$PGRME,2.4,M,2.4,M,3.4,M*29
$HCHDG,357.6,0.0,E,,*2E
$HCHDG,357.4,0.0,E,,*2C
$HCHDG,357.6,0.0,E,,*2E
$GPRMC,230034.2,A,4919.73682,N,12317.52161,W,007.12,011.7,200913,017.3,E,D*23
$PGRME,2.4,M,2.4,M,3.4,M*29
$HCHDG,357.4,0.0,E,,*2C
$HCHDG,357.4,0.0,E,,*2C
$GPRMC,230034.4,A,4919.73721,N,12317.52139,W,007.10,012.7,200913,017.3,E,D*21
$PTAK,FFP1,HEEL,@*07
$PGRME,2.4,M,2.4,M,3.4,M*29
$YXXDR,A,5.3,D,PTCH,A,6.7,D,ROLL*5A
$IIGLL,4919.734,N,12317.522,W,230000,A,A*45
$HCHDG,357.7,0.0,E,,*2F
$IIMTW,+14.0,C*3D
$HCHDG,357.5,0.0,E,,*2D
$IIMWV,281,R,11.7,N,A*1F
$GPRMC,230034.6,A,4919.73752,N,12317.52129,W,007.11,012.2,200913,017.3,E,D*22
$GPRMB,A,-35.67,L,,Shil,4741.0830,N,12224.5670,W,104.8,160,-6.02,V*03
$PGRME,2.4,M,2.4,M,3.4,M*29
$IIMWV,249,T,11.4,N,A*1E
$HCHDG,357.5,0.0,E,,*2D
$IIRMB,A,,,,Shil,,,,,104.8,160,,V,A*21
$HCHDG,357.6,0.0,E,,*2E
$GPRMC,230034.8,A,4919.73790,N,12317.52119,W,007.09,011.7,200913,017.3,E,D*2E
$PGRME,2.4,M,2.4,M,3.4,M*29
$IIRMC,230000,A,4919.734,N,12317.522,W,06.8,011,200913,17,E,A*18
$HCHDG,357.5,0.0,E,,*2D
$IIVHW,,,,,06.2,N,,*1D
$YXXDR,A,5.6,D,PTCH,A,5.6,D,ROLL*5D
$PTAK,FFD1,5.6*56
$IIVLW,06337,N,025.7,N*52
$GPRMC,230035.0,A,4919.73825,N,12317.52105,W,007.11,012.2,200913,017.3,E,D*24
$PGRME,2.4,M,2.4,M,3.4,M*29
$HCHDG,357.9,0.0,E,,*21
$HCHDG,358.1,0.0,E,,*26
$HCHDG,358.3,0.0,E,,*24
$GPRMC,230035.2,A,4919.73860,N,12317.52089,W,007.13,012.3,200913,017.3,E,D*21
$PGRME,2.4,M,2.4,M,3.4,M*29
$HCHDG,358.7,0.0,E,,*20
$HCHDG,358.6,0.0,E,,*21
$GPRMC,230035.4,A,4919.73887,N,12317.52069,W,007.13,013.4,200913,017.3,E,D*26
$PGRME,2.4,M,2.4,M,3.4,M*29
$IIVWR,078,L,11.6,N,,,,*76
$YXXDR,A,5.4,D,PTCH,A,4.4,D,ROLL*5C
$HCHDG,358.8,0.0,E,,*2F
$IIGLL,4919.736,N,12317.521,W,230000,A,A*44
$IIMTW,+14.0,C*3D
$HCHDG,358.7,0.0,E,,*20
$GPRMC,230035.6,A,4919.73919,N,12317.52058,W,007.13,016.2,200913,017.3,E,D*23
$GPRMB,A,-35.67,L,,Shil,4741.0830,N,12224.5670,W,104.8,160,-5.76,V*03
$PGRME,2.4,M,2.4,M,3.4,M*29
$IIMWV,282,R,11.6,N,A*1D
$HCHDG,358.7,0.0,E,,*20
$IIMWV,250,T,12.1,N,A*10
$IIRMB,A,,,,Shil,,,,,104.8,160,,V,A*21
$HCHDG,358.2,0.0,E,,*25
$GPRMC,230035.8,A,4919.73956,N,12317.52031,W,007.12,017.9,200913,017.3,E,D*22
$PGRME,2.4,M,2.4,M,3.4,M*29
$HCHDG,358.0,0.0,E,,*27
$IIRMC,230000,A,4919.736,N,12317.521,W,07.1,011,200913,17,E,A*11
$IIVHW,,,,,06.3,N,,*1C
$YXXDR,A,5.6,D,PTCH,A,1.0,D,ROLL*5F
$PTAK,FFD1,1.0*54
$GPRMC,230036.0,A,4919.73984,N,12317.52007,W,007.11,018.3,200913,017.3,E,D*25
$PGRME,2.4,M,2.4,M,3.4,M*29
$HCHDG,357.8,0.0,E,,*20
$HCHDG,358.0,0.0,E,,*27
$HCHDG,358.0,0.0,E,,*27
$GPRMC,230036.2,A,4919.74025,N,12317.51996,W,007.10,018.4,200913,017.3,E,D*26
$PGRME,2.4,M,2.4,M,3.4,M*29
$HCHDG,358.1,0.0,E,,*26
$HCHDG,358.1,0.0,E,,*26
$GPRMC,230036.4,A,4919.74059,N,12317.51972,W,007.06,019.2,200913,017.3,E,D*21
$PGRME,2.4,M,2.4,M,3.4,M*29
$IIVLW,06337,N,025.7,N*52
$YXXDR,A,5.2,D,PTCH,A,1.6,D,ROLL*5D
$IIVWR,078,L,11.5,N,,,,*75
$HCHDG,358.6,0.0,E,,*21
$HCHDG,358.8,0.0,E,,*2F
$GPRMC,230036.6,A,4919.74088,N,12317.51956,W,007.05,020.0,200913,017.3,E,D*22
$PGRME,2.4,M,2.4,M,3.4,M*29
$IIGLL,4919.738,N,12317.520,W,230000,A,A*4B
$IIMTW,+14.0,C*3D
$HCHDG,358.9,0.0,E,,*2E
$IIMWV,282,R,11.5,N,A*1E
$IIMWV,251,T,11.9,N,A*1A
$HCHDG,359.2,0.0,E,,*24
$GPRMC,230036.8,A,4919.74133,N,12317.51942,W,007.02,020.5,200913,017.3,E,D*2A
$GPRMB,A,-35.67,L,,Shil,4741.0830,N,12224.5670,W,104.8,160,-5.35,V*04
$PGRME,2.4,M,2.4,M,3.4,M*29
$IIRMB,A,,,,Shil,,,,,104.8,160,,V,A*21
$HCHDG,359.3,0.0,E,,*25
$IIRMC,230000,A,4919.738,N,12317.520,W,07.1,012,200913,17,E,A*1D
$YXXDR,A,5.4,D,PTCH,A,1.7,D,ROLL*5A
$GPRMC,230037.0,A,4919.74174,N,12317.51912,W,007.00,021.2,200913,017.3,E,D*21
$PGRME,2.4,M,2.4,M,3.4,M*29
$HCHDG,359.6,0.0,E,,*20
$HCHDG,359.7,0.0,E,,*21
$HCHDG,0.1,0.0,E,,*28
$GPRMC,230037.2,A,4919.74207,N,12317.51879,W,006.97,022.6,200913,017.3,E,D*20
$PGRME,2.4,M,2.4,M,3.4,M*29
$HCHDG,0.1,0.0,E,,*28
$HCHDG,0.4,0.0,E,,*2D
$GPRMC,230037.4,A,4919.74244,N,12317.51868,W,006.97,023.7,200913,017.3,E,D*21
$PGRME,2.4,M,2.4,M,3.4,M*29
$IIVHW,,,,,06.3,N,,*1C
$YXXDR,A,5.2,D,PTCH,A,1.1,D,ROLL*5A
$PTAK,FFD1,1.1*55
$IIVLW,06337,N,025.7,N*52
$HCHDG,0.7,0.0,E,,*2E
$IIVWR,079,L,11.1,N,,,,*70
$HCHDG,0.7,0.0,E,,*2E
$GPRMC,230037.6,A,4919.74280,N,12317.51846,W,006.95,023.7,200913,017.3,E,D*25
$PGRME,2.4,M,2.4,M,3.4,M*29
$IIGLL,4919.740,N,12317.519,W,230000,A,A*4E
$HCHDG,1.2,0.0,E,,*2A
$IIMTW,+14.0,C*3D
$IIMWV,281,R,11.1,N,A*19
$HCHDG,1.3,0.0,E,,*2B
$GPRMC,230037.8,A,4919.74314,N,12317.51813,W,006.94,023.2,200913,017.3,E,D*23
$IIMWV,250,T,11.8,N,A*1A
$PGRME,2.4,M,2.4,M,3.4,M*29
$HCHDG,1.8,0.0,E,,*20
$IIRMB,A,,,,Shil,,,,,104.8,160,,V,A*21
$YXXDR,A,5.2,D,PTCH,A,2.3,D,ROLL*5B
$GPRMC,230038.0,A,4919.74346,N,12317.51789,W,006.90,024.0,200913,017.3,E,D*2E
$GPRMB,A,-35.67,L,,Shil,4741.0830,N,12224.5670,W,104.8,160,-4.97,V*0D
$HCHDG,2.1,0.0,E,,*2A
$PGRME,2.4,M,2.4,M,3.4,M*29
$HCHDG,2.5,0.0,E,,*2E
$HCHDG,2.7,0.0,E,,*2C
$GPRMC,230038.2,A,4919.74380,N,12317.51766,W,006.87,024.4,200913,017.3,E,D*25
$PGRME,2.4,M,2.4,M,3.4,M*29
$HCHDG,3.1,0.0,E,,*2B
$HCHDG,3.3,0.0,E,,*29
$GPRMC,230038.4,A,4919.74407,N,12317.51734,W,006.82,024.7,200913,017.3,E,D*2A
$PGRME,2.4,M,2.4,M,3.4,M*29
$YXXDR,A,5.2,D,PTCH,A,3.4,D,ROLL*5D
$PTAK,FFP1,HEEL,@*07
$HCHDG,3.6,0.0,E,,*2C
$IIRMC,230000,A,4919.742,N,12317.518,W,06.9,022,200913,17,E,A*11
$HCHDG,3.7,0.0,E,,*2D
$IIVHW,,,,,06.3,N,,*1C
$GPRMC,230038.6,A,4919.74438,N,12317.51711,W,006.76,024.7,200913,017.3,E,D*28
$PGRME,2.4,M,2.4,M,3.4,M*29
$IIVLW,06337,N,025.7,N*52
$HCHDG,3.9,0.0,E,,*23
$IIVWR,080,L,10.5,N,,,,*73
$HCHDG,4.0,0.0,E,,*2D
$IIGLL,4919.742,N,12317.518,W,230000,A,A*4D
$GPRMC,230038.8,A,4919.74471,N,12317.51692,W,006.74,026.4,200913,017.3,E,D*22
$PGRME,2.4,M,2.4,M,3.4,M*29
$IIMTW,+14.0,C*3D
$HCHDG,3.9,0.0,E,,*23
$IIMWV,280,R,10.5,N,A*1D
$IIMWV,248,T,11.6,N,A*1D
$YXXDR,A,5.2,D,PTCH,A,3.8,D,ROLL*51
$PTAK,FFD1,3.8*5E
$GPRMC,230039.0,A,4919.74503,N,12317.51671,W,006.72,027.4,200913,017.3,E,D*25
$GPRMB,A,-35.67,L,,Shil,4741.0830,N,12224.5670,W,104.8,160,-4.56,V*00
$PGRME,2.4,M,2.4,M,3.4,M*29
$HCHDG,3.9,0.0,E,,*23
$HCHDG,4.0,0.0,E,,*2D
$HCHDG,4.1,0.0,E,,*2C
$GPRMC,230039.2,A,4919.74533,N,12317.51652,W,006.72,028.2,200913,017.3,E,D*2C
$PGRME,2.4,M,2.4,M,3.4,M*29
$HCHDG,4.2,0.0,E,,*2F
$HCHDG,4.3,0.0,E,,*2E
$GPRMC,230039.4,A,4919.74569,N,12317.51627,W,006.72,028.3,200913,017.3,E,D*26
$PGRME,2.4,M,2.4,M,3.4,M*29
$YXXDR,A,5.5,D,PTCH,A,5.1,D,ROLL*59
$IIRMB,A,,,,Shil,,,,,104.8,160,,V,A*21
$HCHDG,4.4,0.0,E,,*29
$HCHDG,4.7,0.0,E,,*2A
$GPRMC,230039.6,A,4919.74600,N,12317.51604,W,006.72,028.6,200913,017.3,E,D*2C
$PGRME,2.4,M,2.4,M,3.4,M*29
$IIRMC,230000,A,4919.743,N,12317.517,W,06.8,024,200913,17,E,A*18
$IIVHW,,,,,06.2,N,,*1D
$HCHDG,4.5,0.0,E,,*28
$IIVLW,06337,N,025.7,N*52
$IIVWR,083,L,09.4,N,,,,*79
$HCHDG,5.1,0.0,E,,*2D
$GPRMC,230039.8,A,4919.74634,N,12317.51584,W,006.72,028.9,200913,017.3,E,D*21
$PGRME,2.4,M,2.4,M,3.4,M*29
$IIGLL,4919.743,N,12317.517,W,230000,A,A*43
$HCHDG,5.1,0.0,E,,*2D
$IIMTW,+14.0,C*3D
$YXXDR,A,5.0,D,PTCH,A,5.9,D,ROLL*54
$IIMWV,277,R,09.4,N,A*1C
$GPRMC,230040.0,A,4919.74669,N,12317.51551,W,006.69,029.7,200913,017.3,E,D*22
$GPRMB,A,-35.67,L,,Shil,4741.0830,N,12224.5670,W,104.8,160,-4.34,V*04
$PGRME,2.4,M,2.4,M,3.4,M*29
$HCHDG,5.1,0.0,E,,*2D
$HCHDG,5.2,0.0,E,,*2E
$HCHDG,5.2,0.0,E,,*2E
$GPRMC,230040.2,A,4919.74700,N,12317.51541,W,006.67,030.6,200913,017.3,E,D*28
$PGRME,2.4,M,2.4,M,3.4,M*29
$HCHDG,5.4,0.0,E,,*28
$HCHDG,5.1,0.0,E,,*2D
$GPRMC,230040.4,A,4919.74733,N,12317.51520,W,006.70,030.0,200913,017.3,E,D*29
$PGRME,2.4,M,2.4,M,3.4,M*29
$IIMWV,241,T,10.6,N,A*15
$YXXDR,A,5.0,D,PTCH,A,5.7,D,ROLL*5A
$PTAK,FFD1,5.7*57
$HCHDG,5.6,0.0,E,,*2A
$IIRMB,A,,,,Shil,,,,,104.8,160,,V,A*21
$HCHDG,5.6,0.0,E,,*2A
$GPRMC,230040.6,A,4919.74761,N,12317.51488,W,006.73,028.9,200913,017.3,E,D*2C
$PGRME,2.4,M,2.4,M,3.4,M*29
$IIRMC,230000,A,4919.745,N,12317.516,W,06.7,028,200913,17,E,A*1C
$HCHDG,5.8,0.0,E,,*24
$IIVHW,,,,,06.1,N,,*1E
$IIVLW,06337,N,025.7,N*52
$HCHDG,6.3,0.0,E,,*2C
$GPRMC,230040.8,A,4919.74794,N,12317.51463,W,006.75,028.8,200913,017.3,E,D*2A
$PGRME,2.4,M,2.4,M,3.4,M*29
$IIVWR,085,L,09.1,N,,,,*7A
$HCHDG,6.3,0.0,E,,*2C
$IIGLL,4919.745,N,12317.516,W,230000,A,A*44
$YXXDR,A,5.2,D,PTCH,A,6.4,D,ROLL*58
$IIMTW,+14.0,C*3D
$GPRMC,230041.0,A,4919.74825,N,12317.51425,W,006.76,029.8,200913,017.3,E,D*26
$PGRME,2.4,M,2.4,M,3.4,M*29
$HCHDG,6.4,0.0,E,,*2B
$HCHDG,6.3,0.0,E,,*2C
$HCHDG,5.9,0.0,E,,*25
$GPRMC,230041.2,A,4919.74856,N,12317.51394,W,006.76,031.2,200913,017.3,E,D*2E
$GPRMB,A,-35.67,L,,Shil,4741.0830,N,12224.5670,W,104.8,160,-4.24,V*05
$PGRME,2.4,M,2.4,M,3.4,M*29
$HCHDG,5.9,0.0,E,,*25
$HCHDG,5.6,0.0,E,,*2A
$GPRMC,230041.4,A,4919.74890,N,12317.51356,W,006.76,031.6,200913,017.3,E,D*28
$PGRME,2.4,M,2.4,M,3.4,M*29
$IIMWV,269,R,09.2,N,A*15
$YXXDR,A,4.7,D,PTCH,A,5.7,D,ROLL*5C
$PTAK,FFD1,5.7*57
$HCHDG,5.4,0.0,E,,*28
$IIMWV,239,T,10.5,N,A*19
$IIRMB,A,,,,Shil,,,,,104.8,160,,V,A*21
$HCHDG,5.5,0.0,E,,*29
$GPRMC,230041.6,A,4919.74928,N,12317.51331,W,006.77,030.6,200913,017.3,E,D*29
$PGRME,2.4,M,2.4,M,3.4,M*29
$HCHDG,5.7,0.0,E,,*2B
$IIRMC,230000,A,4919.747,N,12317.515,W,06.7,030,200913,17,E,A*14
$IIVHW,,,,,06.1,N,,*1E
$HCHDG,5.7,0.0,E,,*2B
$GPRMC,230041.8,A,4919.74966,N,12317.51295,W,006.80,030.7,200913,017.3,E,D*2B
$PGRME,2.4,M,2.4,M,3.4,M*29
$IIVLW,06337,N,025.7,N*52
$HCHDG,5.8,0.0,E,,*24
$IIVWR,091,L,09.2,N,,,,*7C
$YXXDR,A,4.8,D,PTCH,A,7.4,D,ROLL*52
$IIGLL,4919.747,N,12317.515,W,230000,A,A*45
$GPRMC,230042.0,A,4919.74992,N,12317.51261,W,006.81,030.1,200913,017.3,E,D*27
$PGRME,2.4,M,2.4,M,3.4,M*29
$HCHDG,5.6,0.0,E,,*2A
$HCHDG,5.6,0.0,E,,*2A
$HCHDG,5.5,0.0,E,,*29
$GPRMC,230042.2,A,4919.75024,N,12317.51225,W,006.82,031.4,200913,017.3,E,D*27
$PGRME,2.4,M,2.4,M,3.4,M*29
$HCHDG,5.0,0.0,E,,*2C
$HCHDG,4.8,0.0,E,,*25
$GPRMC,230042.4,A,4919.75065,N,12317.51187,W,006.85,031.1,200913,017.3,E,D*2D
$GPRMB,A,-35.67,L,,Shil,4741.0830,N,12224.5670,W,104.8,160,-4.31,V*01
$PGRME,2.4,M,2.4,M,3.4,M*29
$IIMTW,+14.0,C*3D
$YXXDR,A,4.9,D,PTCH,A,7.8,D,ROLL*5F
$PTAK,FFD1,7.8*5A
$PTAK,FFP1,HEEL,@*07
$IIMWV,271,R,08.9,N,A*16
$HCHDG,4.5,0.0,E,,*28
$IIMWV,236,T,11.1,N,A*13
$HCHDG,4.3,0.0,E,,*2E
$GPRMC,230042.6,A,4919.75108,N,12317.51142,W,006.90,030.4,200913,017.3,E,D*2C
$PGRME,2.4,M,2.4,M,3.4,M*29
$IIRMB,A,,,,Shil,,,,,104.8,160,,V,A*21
$HCHDG,4.1,0.0,E,,*2C
$IIRMC,230000,A,4919.748,N,12317.513,W,06.7,031,200913,17,E,A*1C
$HCHDG,4.3,0.0,E,,*2E
$GPRMC,230042.8,A,4919.75145,N,12317.51113,W,006.94,029.8,200913,017.3,E,D*2F
$PGRME,2.4,M,2.4,M,3.4,M*29
$IIVHW,,,,,06.2,N,,*1D
$IIVLW,06337,N,025.7,N*52
$HCHDG,4.2,0.0,E,,*2F
$IIVWR,089,L,08.9,N,,,,*7F
$YXXDR,A,5.2,D,PTCH,A,10.1,D,ROLL*6A
$GPRMC,230043.0,A,4919.75177,N,12317.51082,W,007.00,027.9,200913,017.3,E,D*2D
$PGRME,2.4,M,2.4,M,3.4,M*29
$HCHDG,4.3,0.0,E,,*2E
$HCHDG,4.6,0.0,E,,*2B
$HCHDG,4.7,0.0,E,,*2A
$GPRMC,230043.2,A,4919.75208,N,12317.51052,W,007.01,027.3,200913,017.3,E,D*22
$PGRME,2.4,M,2.4,M,3.4,M*29
$HCHDG,4.6,0.0,E,,*2B
$HCHDG,4.8,0.0,E,,*25
$GPRMC,230043.4,A,4919.75245,N,12317.51015,W,007.02,025.3,200913,017.3,E,D*2F
$PGRME,2.4,M,2.4,M,3.4,M*29
$YXXDR,A,5.4,D,PTCH,A,11.2,D,ROLL*6E
$IIGLL,4919.751,N,12317.511,W,230000,A,A*46
$HCHDG,5.1,0.0,E,,*2D
$IIMTW,+14.0,C*3D
$HCHDG,5.3,0.0,E,,*2F
$IIMWV,271,R,08.8,N,A*17
$GPRMC,230043.6,A,4919.75278,N,12317.50997,W,006.99,023.2,200913,017.3,E,D*25
$GPRMB,A,-35.66,L,,Shil,4741.0830,N,12224.5670,W,104.8,160,-5.10,V*02
$PGRME,2.4,M,2.4,M,3.4,M*29
$IIMWV,236,T,10.7,N,A*14
$HCHDG,5.5,0.0,E,,*29
$IIRMB,A,,,,Shil,,,,,104.8,160,,V,A*21
$HCHDG,5.8,0.0,E,,*24
$GPRMC,230043.8,A,4919.75310,N,12317.50979,W,006.96,022.8,200913,017.3,E,D*20
$PGRME,2.4,M,2.4,M,3.4,M*29
$IIRMC,230000,A,4919.751,N,12317.511,W,06.9,030,200913,17,E,A*19
$HCHDG,5.5,0.0,E,,*29
$IIVHW,,,,,06.1,N,,*1E
$YXXDR,A,5.4,D,PTCH,A,11.5,D,ROLL*69
$PTAK,FFD1,11.5*60
$IIVLW,06337,N,025.7,N*52
$GPRMC,230044.0,A,4919.75343,N,12317.50958,W,006.93,022.7,200913,017.3,E,D*20
$PGRME,2.4,M,2.4,M,3.4,M*29
$HCHDG,5.4,0.0,E,,*28
$PGRMT,GPS 18x-5Hz software ver. 3.20,,,,,,,,*30
$HCHDG,5.3,0.0,E,,*2F
$HCHDG,5.1,0.0,E,,*2D
$GPRMC,230044.2,A,4919.75384,N,12317.50926,W,006.92,022.6,200913,017.3,E,D*20
$PGRME,2.4,M,2.4,M,3.4,M*29
$HCHDG,4.8,0.0,E,,*25
$HCHDG,4.5,0.0,E,,*28
$GPRMC,230044.4,A,4919.75421,N,12317.50898,W,006.89,023.1,200913,017.3,E,D*26
$PGRME,2.4,M,2.4,M,3.4,M*29
$IIVWR,088,L,09.4,N,,,,*72
$YXXDR,A,5.3,D,PTCH,A,9.6,D,ROLL*54
$HCHDG,4.4,0.0,E,,*29
$IIGLL,4919.752,N,12317.509,W,230000,A,A*4C
$HCHDG,4.2,0.0,E,,*2F
$IIMTW,+14.0,C*3D
$GPRMC,230044.6,A,4919.75456,N,12317.50875,W,006.92,023.4,200913,017.3,E,D*28
$PGRME,2.4,M,2.4,M,3.4,M*29
$IIMWV,272,R,09.4,N,A*19
$HCHDG,3.8,0.0,E,,*22
$IIMWV,235,T,10.7,N,A*17
$IIRMB,A,,,,Shil,,,,,104.8,160,,V,A*21
$HCHDG,3.4,0.0,E,,*2E
$GPRMC,230044.8,A,4919.75488,N,12317.50858,W,006.95,024.4,200913,017.3,E,D*2A
$GPRMB,A,-35.66,L,,Shil,4741.0830,N,12224.5670,W,104.8,160,-4.97,V*0C
$PGRME,2.4,M,2.4,M,3.4,M*29
$HCHDG,2.9,0.0,E,,*22
$IIRMC,230000,A,4919.752,N,12317.509,W,06.9,023,200913,17,E,A*11
$YXXDR,A,5.3,D,PTCH,A,8.2,D,ROLL*51
$PTAK,FFD1,8.2*5F
$IIVHW,,,,,06.2,N,,*1D
$GPRMC,230045.0,A,4919.75526,N,12317.50837,W,006.98,023.9,200913,017.3,E,D*28
$PGRME,2.4,M,2.4,M,3.4,M*29
$HCHDG,2.7,0.0,E,,*2C
$HCHDG,2.6,0.0,E,,*2D
$HCHDG,2.4,0.0,E,,*2F
$GPRMC,230045.2,A,4919.75561,N,12317.50812,W,006.96,024.6,200913,017.3,E,D*28
$PGRME,2.4,M,2.4,M,3.4,M*29
$HCHDG,2.5,0.0,E,,*2E
$HCHDG,2.4,0.0,E,,*2F
$GPRMC,230045.4,A,4919.75604,N,12317.50788,W,006.93,024.3,200913,017.3,E,D*22
$PGRME,2.4,M,2.4,M,3.4,M*29
$IIVLW,06337,N,025.7,N*52
$YXXDR,A,5.1,D,PTCH,A,8.2,D,ROLL*53
$HCHDG,2.2,0.0,E,,*29
$IIVWR,085,L,09.9,N,,,,*72
$HCHDG,2.2,0.0,E,,*29
$GPRMC,230045.6,A,4919.75637,N,12317.50763,W,006.92,023.8,200913,017.3,E,D*28
$PGRME,2.4,M,2.4,M,3.4,M*29
$IIGLL,4919.754,N,12317.508,W,230000,A,A*4B
$IIMTW,+14.0,C*3D
$HCHDG,2.2,0.0,E,,*29
$IIMWV,275,R,09.9,N,A*13
$IIMWV,237,T,11.1,N,A*12
$HCHDG,2.3,0.0,E,,*28
$GPRMC,230045.8,A,4919.75677,N,12317.50742,W,006.93,022.1,200913,017.3,E,D*28
$PGRME,2.4,M,2.4,M,3.4,M*29
$IIRMB,A,,,,Shil,,,,,104.8,160,,V,A*21
$HCHDG,2.2,0.0,E,,*29
$YXXDR,A,5.4,D,PTCH,A,8.8,D,ROLL*5C
$IIRMC,230000,A,4919.754,N,12317.508,W,06.9,024,200913,17,E,A*11
$GPRMC,230046.0,A,4919.75717,N,12317.50722,W,006.95,022.2,200913,017.3,E,D*27
$GPRMB,A,-35.66,L,,Shil,4741.0830,N,12224.5670,W,104.8,160,-5.16,V*04
$PGRME,2.4,M,2.4,M,3.4,M*29
$HCHDG,2.3,0.0,E,,*28
$HCHDG,2.3,0.0,E,,*28
$HCHDG,2.3,0.0,E,,*28
$GPRMC,230046.2,A,4919.75755,N,12317.50696,W,006.99,022.4,200913,017.3,E,D*27
$PGRME,2.4,M,2.4,M,3.4,M*29
$HCHDG,2.3,0.0,E,,*28
$HCHDG,2.4,0.0,E,,*2F
$GPRMC,230046.4,A,4919.75797,N,12317.50676,W,007.01,022.0,200913,017.3,E,D*25
$PGRME,2.4,M,2.4,M,3.4,M*29
$IIVHW,,,,,06.2,N,,*1D
$YXXDR,A,5.2,D,PTCH,A,8.4,D,ROLL*56
$PTAK,FFD1,8.4*59
$IIVLW,06337,N,025.7,N*52
$HCHDG,2.2,0.0,E,,*29
$IIVWR,084,L,10.1,N,,,,*73
$HCHDG,2.2,0.0,E,,*29
$GPRMC,230046.6,A,4919.75836,N,12317.50657,W,007.02,021.9,200913,017.3,E,D*29
$PTAK,FFP1,HEEL,@*07
$PGRME,2.4,M,2.4,M,3.4,M*29
$IIGLL,4919.756,N,12317.507,W,230000,A,A*46
$HCHDG,2.2,0.0,E,,*29
$IIMTW,+14.0,C*3D
$IIMWV,276,R,10.1,N,A*10
$HCHDG,2.1,0.0,E,,*2A
$GPRMC,230046.8,A,4919.75873,N,12317.50640,W,007.04,021.9,200913,017.3,E,D*26
$IIMWV,241,T,11.2,N,A*10
$PGRME,2.4,M,2.4,M,3.4,M*29
$HCHDG,2.2,0.0,E,,*29
$IIRMB,A,,,,Shil,,,,,104.8,160,,V,A*21
$YXXDR,A,5.4,D,PTCH,A,9.1,D,ROLL*54
$GPRMC,230047.0,A,4919.75908,N,12317.50620,W,007.03,021.1,200913,017.3,E,D*2B
$HCHDG,2.2,0.0,E,,*29
$PGRME,2.4,M,2.4,M,3.4,M*29
$HCHDG,2.2,0.0,E,,*29
$HCHDG,2.1,0.0,E,,*2A
$GPRMC,230047.2,A,4919.75942,N,12317.50601,W,007.02,021.4,200913,017.3,E,D*20
$GPRMB,A,-35.66,L,,Shil,4741.0830,N,12224.5670,W,104.8,160,-5.27,V*06
$PGRME,2.4,M,2.4,M,3.4,M*29
$HCHDG,2.1,0.0,E,,*2A
$HCHDG,1.8,0.0,E,,*20
$GPRMC,230047.4,A,4919.75974,N,12317.50576,W,007.02,021.6,200913,017.3,E,D*22
$PGRME,2.4,M,2.4,M,3.4,M*29
$YXXDR,A,5.4,D,PTCH,A,8.4,D,ROLL*50
$HCHDG,1.8,0.0,E,,*20
$IIRMC,230000,A,4919.758,N,12317.506,W,07.0,021,200913,17,E,A*1E
$HCHDG,1.6,0.0,E,,*2E
$IIVHW,,,,,06.2,N,,*1D
$GPRMC,230047.6,A,4919.76011,N,12317.50542,W,006.99,022.5,200913,017.3,E,D*2D
$PGRME,2.4,M,2.4,M,3.4,M*29
$IIVLW,06337,N,025.7,N*52
$HCHDG,1.6,0.0,E,,*2E
$IIVWR,084,L,10.2,N,,,,*70
$HCHDG,1.3,0.0,E,,*2B
$IIGLL,4919.758,N,12317.506,W,230000,A,A*49
$GPRMC,230047.8,A,4919.76045,N,12317.50520,W,006.99,021.7,200913,017.3,E,D*27
$PGRME,2.4,M,2.4,M,3.4,M*29
$IIMTW,+14.0,C*3D
$HCHDG,1.3,0.0,E,,*2B
$IIMWV,276,R,10.2,N,A*13
$IIMWV,242,T,11.1,N,A*10
$YXXDR,A,5.7,D,PTCH,A,7.7,D,ROLL*5F
$PTAK,FFD1,7.7*55
$GPRMC,230048.0,A,4919.76079,N,12317.50496,W,007.00,022.0,200913,017.3,E,D*26
$PGRME,2.4,M,2.4,M,3.4,M*29
$HCHDG,1.3,0.0,E,,*2B
$HCHDG,1.1,0.0,E,,*29
$HCHDG,1.2,0.0,E,,*2A
$GPRMC,230048.2,A,4919.76116,N,12317.50470,W,006.97,022.7,200913,017.3,E,D*2C
$GPRMB,A,-35.66,L,,Shil,4741.0830,N,12224.5670,W,104.8,160,-5.13,V*01
$PGRME,2.4,M,2.4,M,3.4,M*29
$HCHDG,1.0,0.0,E,,*28
$HCHDG,0.7,0.0,E,,*2E
$GPRMC,230048.4,A,4919.76147,N,12317.50450,W,006.95,023.1,200913,017.3,E,D*29
$PGRME,2.4,M,2.4,M,3.4,M*29
$YXXDR,A,5.0,D,PTCH,A,7.2,D,ROLL*5D
$IIRMB,A,,,,Shil,,,,,104.8,160,,V,A*21
$HCHDG,0.5,0.0,E,,*2C
$HCHDG,0.6,0.0,E,,*2F
$GPRMC,230048.6,A,4919.76182,N,12317.50431,W,006.94,022.0,200913,017.3,E,D*24
$PGRME,2.4,M,2.4,M,3.4,M*29
$IIRMC,230000,A,4919.758,N,12317.506,W,07.0,021,200913,17,E,A*1E
$IIVHW,,,,,06.3,N,,*1C
$HCHDG,0.5,0.0,E,,*2C
$IIVLW,06337,N,025.7,N*52
$HCHDG,0.6,0.0,E,,*2F
$IIVWR,083,L,10.3,N,,,,*76
$GPRMC,230048.8,A,4919.76222,N,12317.50409,W,006.93,022.0,200913,017.3,E,D*2F
$PGRME,2.4,M,2.4,M,3.4,M*29
$IIGLL,4919.758,N,12317.506,W,230000,A,A*49
$HCHDG,0.7,0.0,E,,*2E
$IIMTW,+14.0,C*3D
$YXXDR,A,5.4,D,PTCH,A,7.9,D,ROLL*52
$IIMWV,277,R,10.3,N,A*13
$GPRMC,230049.0,A,4919.76255,N,12317.50387,W,006.94,022.0,200913,017.3,E,D*20
$PGRME,2.4,M,2.4,M,3.4,M*29
$HCHDG,0.6,0.0,E,,*2F
$HCHDG,0.6,0.0,E,,*2F
$HCHDG,0.4,0.0,E,,*2D
$GPRMC,230049.2,A,4919.76284,N,12317.50356,W,006.92,022.0,200913,017.3,E,D*24
$GPRMB,A,-35.66,L,,Shil,4741.0830,N,12224.5670,W,104.8,160,-5.15,V*07
$PGRME,2.4,M,2.4,M,3.4,M*29
$HCHDG,0.5,0.0,E,,*2C
$HCHDG,0.3,0.0,E,,*2A
$GPRMC,230049.4,A,4919.76324,N,12317.50335,W,006.91,021.0,200913,017.3,E,D*2C
$PGRME,2.4,M,2.4,M,3.4,M*29
$IIMWV,243,T,11.3,N,A*13
$YXXDR,A,5.8,D,PTCH,A,7.1,D,ROLL*56
$PTAK,FFD1,7.1*53
$HCHDG,0.4,0.0,E,,*2D
$IIRMB,A,,,,Shil,,,,,104.8,160,,V,A*21
$HCHDG,0.6,0.0,E,,*2F
$GPRMC,230049.6,A,4919.76357,N,12317.50302,W,006.89,020.0,200913,017.3,E,D*26
$PGRME,2.4,M,2.4,M,3.4,M*29
$IIRMC,230000,A,4919.762,N,12317.504,W,06.9,022,200913,17,E,A*1E
$HCHDG,0.6,0.0,E,,*2F
$IIVHW,,,,,06.2,N,,*1D
$IIVLW,06337,N,025.7,N*52
$HCHDG,0.8,0.0,E,,*21
$GPRMC,230049.8,A,4919.76397,N,12317.50279,W,006.84,019.3,200913,017.3,E,D*2D
$PGRME,2.4,M,2.4,M,3.4,M*29
$IIVWR,085,L,10.3,N,,,,*70
$HCHDG,1.0,0.0,E,,*28
$IIGLL,4919.762,N,12317.504,W,230000,A,A*42
$YXXDR,A,5.7,D,PTCH,A,7.3,D,ROLL*5B
$IIMTW,+14.0,C*3D
$GPRMC,230050.0,A,4919.76434,N,12317.50271,W,006.81,019.5,200913,017.3,E,D*28
$HCHDG,1.1,0.0,E,,*29
$PGRME,2.4,M,2.4,M,3.4,M*29
$HCHDG,1.5,0.0,E,,*2D
$HCHDG,1.4,0.0,E,,*2C
$GPRMC,230050.2,A,4919.76472,N,12317.50270,W,006.79,019.0,200913,017.3,E,D*2B
$PGRME,2.4,M,2.4,M,3.4,M*29
$HCHDG,1.4,0.0,E,,*2C
$HCHDG,1.5,0.0,E,,*2D
$GPRMC,230050.4,A,4919.76509,N,12317.50252,W,006.76,019.6,200913,017.3,E,D*29
$GPRMB,A,-35.66,L,,Shil,4741.0830,N,12224.5670,W,104.8,160,-5.22,V*03
$PGRME,2.4,M,2.4,M,3.4,M*29
$IIMWV,276,R,11.1,N,A*11
$YXXDR,A,5.7,D,PTCH,A,5.7,D,ROLL*5D
$PTAK,FFD1,5.7*57
$PTAK,FFP1,HEEL,@*07
$IIMWV,242,T,11.6,N,A*17
$HCHDG,1.6,0.0,E,,*2E
$HCHDG,1.3,0.0,E,,*2B
$IIRMB,A,,,,Shil,,,,,104.8,160,,V,A*21
$GPRMC,230050.6,A,4919.76547,N,12317.50224,W,006.72,020.4,200913,017.3,E,D*2C
$PGRME,2.4,M,2.4,M,3.4,M*29
$HCHDG,1.0,0.0,E,,*28
