$GPRMC,200000.2,A,4921.38047,N,12316.41568,W,000.00,006.9,220913,017.3,E,D*2C
$HCHDG,46.1,0.0,E,,*1A
$PGRME,2.4,M,2.4,M,3.4,M*29
$HCHDG,46.1,0.0,E,,*1A
$GPRMC,200000.4,A,4921.38047,N,12316.41568,W,000.01,006.9,220913,017.3,E,D*2B
$HCHDG,46.1,0.0,E,,*1A
$PGRME,2.4,M,2.4,M,3.4,M*29
$YXXDR,A,5.3,D,PTCH,A,5.0,D,ROLL*5E
$PTAK,FFD1,5.0*50
$HCHDG,46.1,0.0,E,,*1A
$GPRMC,200000.6,A,4921.38047,N,12316.41568,W,000.00,006.9,220913,017.3,E,D*28
$HCHDG,46.1,0.0,E,,*1A
$PGRME,2.4,M,2.4,M,3.4,M*29
$HCHDG,46.0,0.0,E,,*1B
$GPRMC,200000.8,A,4921.38047,N,12316.41567,W,000.00,006.9,220913,017.3,E,D*29
$HCHDG,46.2,0.0,E,,*19
$PGRME,2.4,M,2.4,M,3.4,M*29
$HCHDG,46.1,0.0,E,,*1A
$YXXDR,A,5.3,D,PTCH,A,4.8,D,ROLL*57
$GPRMC,200001.0,A,4921.38047,N,12316.41567,W,000.01,006.9,220913,017.3,E,D*21
$GPRMB,A,-34.93,L,,Shil,4741.0830,N,12224.5670,W,106.1,161,-0.01,V*06
$PTAK,FFP1,HEEL,@*07
$PGRME,2.4,M,2.4,M,3.4,M*29
$HCHDG,46.0,0.0,E,,*1B
$HCHDG,46.1,0.0,E,,*1A
$GPRMC,200001.2,A,4921.38047,N,12316.41567,W,000.01,006.9,220913,017.3,E,D*23
$HCHDG,45.9,0.0,E,,*11
$PGRME,2.4,M,2.4,M,3.4,M*29
$HCHDG,46.0,0.0,E,,*1B
$GPRMC,200001.4,A,4921.38047,N,12316.41567,W,000.00,006.9,220913,017.3,E,D*24
$HCHDG,45.7,0.0,E,,*1F
$PGRME,2.4,M,2.4,M,3.4,M*29
$YXXDR,A,5.4,D,PTCH,A,4.2,D,ROLL*5A
$HCHDG,45.7,0.0,E,,*1F
$GPRMC,200001.6,A,4921.38047,N,12316.41566,W,000.01,006.9,220913,017.3,E,D*26
$HCHDG,45.7,0.0,E,,*1F
$PGRME,2.4,M,2.4,M,3.4,M*29
$HCHDG,45.7,0.0,E,,*1F
$GPRMC,200001.8,A,4921.38047,N,12316.41566,W,000.00,006.9,220913,017.3,E,D*29
$HCHDG,45.5,0.0,E,,*1D
$PGRME,2.4,M,2.4,M,3.4,M*29
$HCHDG,45.3,0.0,E,,*1B
$YXXDR,A,5.5,D,PTCH,A,3.8,D,ROLL*56
$PTAK,FFD1,3.8*5E
$GPRMC,200002.0,A,4921.38047,N,12316.41566,W,000.01,006.9,220913,017.3,E,D*23
$GPRMB,A,-34.93,L,,Shil,4741.0830,N,12224.5670,W,106.1,161,-0.01,V*06
$PGRME,2.4,M,2.4,M,3.4,M*29
$HCHDG,45.4,0.0,E,,*1C
$HCHDG,45.2,0.0,E,,*1A
$GPRMC,200002.2,A,4921.38047,N,12316.41566,W,000.02,006.9,220913,017.3,E,D*22
$HCHDG,45.2,0.0,E,,*1A
$PGRME,2.4,M,2.4,M,3.4,M*29
$HCHDG,45.2,0.0,E,,*1A
$GPRMC,200002.4,A,4921.38047,N,12316.41565,W,000.01,006.9,220913,017.3,E,D*24
$HCHDG,45.0,0.0,E,,*18
$PGRME,2.4,M,2.4,M,3.4,M*29
$YXXDR,A,5.5,D,PTCH,A,3.1,D,ROLL*5F
$HCHDG,45.0,0.0,E,,*18
$GPRMC,200002.6,A,4921.38047,N,12316.41565,W,000.01,006.9,220913,017.3,E,D*26
$HCHDG,45.0,0.0,E,,*18
$PGRME,2.4,M,2.4,M,3.4,M*29
$HCHDG,44.9,0.0,E,,*10
$GPRMC,200002.8,A,4921.38047,N,12316.41565,W,000.00,006.9,220913,017.3,E,D*29
$HCHDG,44.8,0.0,E,,*11
$PGRME,2.4,M,2.4,M,3.4,M*29
$HCHDG,44.8,0.0,E,,*11
$YXXDR,A,5.5,D,PTCH,A,3.1,D,ROLL*5F
$PTAK,FFD1,3.1*57
$GPRMC,200003.0,A,4921.38047,N,12316.41565,W,000.01,006.9,220913,017.3,E,D*21
$PGRME,2.4,M,2.4,M,3.4,M*29
$HCHDG,44.7,0.0,E,,*1E
$HCHDG,44.7,0.0,E,,*1E
$GPRMC,200003.2,A,4921.38047,N,12316.41565,W,000.00,006.9,220913,017.3,E,D*22
$GPRMB,A,-34.93,L,,Shil,4741.0830,N,12224.5670,W,106.1,161,-0.00,V*07
$HCHDG,44.6,0.0,E,,*1F
$PGRME,2.4,M,2.4,M,3.4,M*29
$HCHDG,44.7,0.0,E,,*1E
$GPRMC,200003.4,A,4921.38047,N,12316.41565,W,000.00,006.9,220913,017.3,E,D*24
$HCHDG,44.7,0.0,E,,*1E
$PGRME,2.4,M,2.4,M,3.4,M*29
$YXXDR,A,5.6,D,PTCH,A,3.6,D,ROLL*5B
$HCHDG,44.9,0.0,E,,*10
$GPRMC,200003.6,A,4921.38047,N,12316.41565,W,000.00,006.9,220913,017.3,E,D*26
$HCHDG,44.8,0.0,E,,*11
$PGRME,2.4,M,2.4,M,3.4,M*29
$HCHDG,44.7,0.0,E,,*1E
$GPRMC,200003.8,A,4921.38047,N,12316.41565,W,000.00,006.9,220913,017.3,E,D*28
$HCHDG,44.9,0.0,E,,*10
$PGRME,2.4,M,2.4,M,3.4,M*29
$HCHDG,44.7,0.0,E,,*1E
$YXXDR,A,5.3,D,PTCH,A,2.6,D,ROLL*5F
$PTAK,FFD1,2.6*51
$GPRMC,200004.0,A,4921.38047,N,12316.41565,W,000.00,006.9,220913,017.3,E,D*27
$PGRME,2.4,M,2.4,M,3.4,M*29
$HCHDG,44.6,0.0,E,,*1F
$HCHDG,44.7,0.0,E,,*1E
$GPRMC,200004.2,A,4921.38047,N,12316.41565,W,000.01,006.9,220913,017.3,E,D*24
$HCHDG,44.6,0.0,E,,*1F
$PGRME,2.4,M,2.4,M,3.4,M*29
$HCHDG,44.5,0.0,E,,*1C
$GPRMC,200004.4,A,4921.38047,N,12316.41565,W,000.00,006.9,220913,017.3,E,D*23
$GPRMB,A,-34.93,L,,Shil,4741.0830,N,12224.5670,W,106.1,161,-0.00,V*07
$HCHDG,44.6,0.0,E,,*1F
$PGRME,2.4,M,2.4,M,3.4,M*29
$YXXDR,A,5.4,D,PTCH,A,2.2,D,ROLL*5C
$HCHDG,44.5,0.0,E,,*1C
$GPRMC,200004.6,A,4921.38047,N,12316.41565,W,000.01,006.9,220913,017.3,E,D*20
$HCHDG,44.5,0.0,E,,*1C
$PGRME,2.4,M,2.4,M,3.4,M*29
$HCHDG,44.5,0.0,E,,*1C
$GPRMC,200004.8,A,4921.38047,N,12316.41565,W,000.00,006.9,220913,017.3,E,D*2F
$HCHDG,44.6,0.0,E,,*1F
$PGRME,2.4,M,2.4,M,3.4,M*29
$HCHDG,44.5,0.0,E,,*1C
$YXXDR,A,5.4,D,PTCH,A,2.0,D,ROLL*5E
$PTAK,FFD1,2.0*57
$GPRMC,200005.0,A,4921.38047,N,12316.41565,W,000.01,006.9,220913,017.3,E,D*27
$PTAK,FFP1,HEEL,@*07
$PGRME,2.4,M,2.4,M,3.4,M*29
$HCHDG,44.6,0.0,E,,*1F
$HCHDG,44.4,0.0,E,,*1D
$GPRMC,200005.2,A,4921.38047,N,12316.41564,W,000.01,006.9,220913,017.3,E,D*24
$HCHDG,44.5,0.0,E,,*1C
$PGRME,2.4,M,2.4,M,3.4,M*29
$HCHDG,44.4,0.0,E,,*1D
$GPRMC,200005.4,A,4921.38047,N,12316.41564,W,000.00,006.9,220913,017.3,E,D*23
$HCHDG,44.4,0.0,E,,*1D
$PGRME,2.4,M,2.4,M,3.4,M*29
$YXXDR,A,5.5,D,PTCH,A,2.3,D,ROLL*5C
$HCHDG,44.4,0.0,E,,*1D
$GPRMC,200005.6,A,4921.38047,N,12316.41564,W,000.00,006.9,220913,017.3,E,D*21
$GPRMB,A,-34.93,L,,Shil,4741.0830,N,12224.5670,W,106.1,161,-0.00,V*07
$PGRME,2.4,M,2.4,M,3.4,M*29
$HCHDG,44.4,0.0,E,,*1D
$HCHDG,44.4,0.0,E,,*1D
$GPRMC,200005.8,A,4921.38047,N,12316.41564,W,000.01,006.9,220913,017.3,E,D*2E
$HCHDG,44.5,0.0,E,,*1C
$PGRME,2.4,M,2.4,M,3.4,M*29
$HCHDG,44.7,0.0,E,,*1E
$YXXDR,A,5.5,D,PTCH,A,2.7,D,ROLL*58
$GPRMC,200006.0,A,4921.38047,N,12316.41564,W,000.01,006.9,220913,017.3,E,D*25
$PGRME,2.4,M,2.4,M,3.4,M*29
$HCHDG,44.5,0.0,E,,*1C
$HCHDG,44.5,0.0,E,,*1C
$GPRMC,200006.2,A,4921.38047,N,12316.41564,W,000.00,006.9,220913,017.3,E,D*26
$HCHDG,44.6,0.0,E,,*1F
$PGRME,2.4,M,2.4,M,3.4,M*29
$HCHDG,44.6,0.0,E,,*1F
$GPRMC,200006.4,A,4921.38047,N,12316.41564,W,000.00,006.9,220913,017.3,E,D*20
$HCHDG,44.5,0.0,E,,*1C
$PGRME,2.4,M,2.4,M,3.4,M*29
$YXXDR,A,5.5,D,PTCH,A,2.5,D,ROLL*5A
$PTAK,FFD1,2.5*52
$HCHDG,44.6,0.0,E,,*1F
$GPRMC,200006.6,A,4921.38047,N,12316.41564,W,000.00,006.9,220913,017.3,E,D*22
$HCHDG,44.6,0.0,E,,*1F
$PGRME,2.4,M,2.4,M,3.4,M*29
$HCHDG,44.6,0.0,E,,*1F
$GPRMC,200006.8,A,4921.38047,N,12316.41564,W,000.01,006.9,220913,017.3,E,D*2D
$GPRMB,A,-34.93,L,,Shil,4741.0830,N,12224.5670,W,106.1,161,-0.01,V*06
$HCHDG,44.6,0.0,E,,*1F
$PGRME,2.4,M,2.4,M,3.4,M*29
$HCHDG,44.7,0.0,E,,*1E
$YXXDR,A,5.4,D,PTCH,A,2.4,D,ROLL*5A
$GPRMC,200007.0,A,4921.38047,N,12316.41564,W,000.00,006.9,220913,017.3,E,D*25
$PGRME,2.4,M,2.4,M,3.4,M*29
$HCHDG,44.7,0.0,E,,*1E
$HCHDG,44.7,0.0,E,,*1E
$GPRMC,200007.2,A,4921.38047,N,12316.41564,W,000.01,006.9,220913,017.3,E,D*26
$HCHDG,44.7,0.0,E,,*1E
$PGRME,2.4,M,2.4,M,3.4,M*29
$HCHDG,44.8,0.0,E,,*11
$GPRMC,200007.4,A,4921.38047,N,12316.41564,W,000.01,006.9,220913,017.3,E,D*20
$PGRME,2.4,M,2.4,M,3.4,M*29
$HCHDG,44.8,0.0,E,,*11
$YXXDR,A,5.5,D,PTCH,A,2.5,D,ROLL*5A
$HCHDG,44.8,0.0,E,,*11
$GPRMC,200007.6,A,4921.38047,N,12316.41564,W,000.00,006.9,220913,017.3,E,D*23
$HCHDG,44.9,0.0,E,,*10
$PGRME,2.4,M,2.4,M,3.4,M*29
$HCHDG,44.8,0.0,E,,*11
$GPRMC,200007.8,A,4921.38047,N,12316.41564,W,000.01,006.9,220913,017.3,E,D*2C
$HCHDG,44.8,0.0,E,,*11
$PGRME,2.4,M,2.4,M,3.4,M*29
$HCHDG,44.8,0.0,E,,*11
$YXXDR,A,5.4,D,PTCH,A,2.3,D,ROLL*5D
$PTAK,FFD1,2.3*54
$GPRMC,200008.0,A,4921.38047,N,12316.41564,W,000.01,006.9,220913,017.3,E,D*2B
$GPRMB,A,-34.93,L,,Shil,4741.0830,N,12224.5670,W,106.1,161,-0.01,V*06
$PGRME,2.4,M,2.4,M,3.4,M*29
$HCHDG,44.8,0.0,E,,*11
$HCHDG,44.8,0.0,E,,*11
$GPRMC,200008.2,A,4921.38047,N,12316.41564,W,000.00,006.9,220913,017.3,E,D*28
$HCHDG,44.8,0.0,E,,*11
$PGRME,2.4,M,2.4,M,3.4,M*29
$HCHDG,44.9,0.0,E,,*10
$GPRMC,200008.4,A,4921.38047,N,12316.41564,W,000.00,006.9,220913,017.3,E,D*2E
$HCHDG,44.8,0.0,E,,*11
$PGRME,2.4,M,2.4,M,3.4,M*29
$YXXDR,A,5.4,D,PTCH,A,2.4,D,ROLL*5A
$HCHDG,44.8,0.0,E,,*11
$GPRMC,200008.6,A,4921.38047,N,12316.41564,W,000.00,006.9,220913,017.3,E,D*2C
$PGRME,2.4,M,2.4,M,3.4,M*29
$HCHDG,44.8,0.0,E,,*11
$HCHDG,44.8,0.0,E,,*11
$GPRMC,200008.8,A,4921.38047,N,12316.41564,W,000.00,006.9,220913,017.3,E,D*22
$PGRME,2.4,M,2.4,M,3.4,M*29
$HCHDG,44.8,0.0,E,,*11
$HCHDG,44.9,0.0,E,,*10
$YXXDR,A,5.5,D,PTCH,A,2.5,D,ROLL*5A
$PTAK,FFD1,2.5*52
$GPRMC,200009.0,A,4921.38047,N,12316.41564,W,000.00,006.9,220913,017.3,E,D*2B
$GPRMB,A,-34.93,L,,Shil,4741.0830,N,12224.5670,W,106.1,161,-0.00,V*07
$PTAK,FFP1,HEEL,@*07
$PGRME,2.4,M,2.4,M,3.4,M*29
$HCHDG,44.9,0.0,E,,*10
$HCHDG,44.8,0.0,E,,*11
$GPRMC,200009.2,A,4921.38047,N,12316.41563,W,000.00,006.9,220913,017.3,E,D*2E
$HCHDG,44.8,0.0,E,,*11
$PGRME,2.4,M,2.4,M,3.4,M*29
$HCHDG,44.7,0.0,E,,*1E
$GPRMC,200009.4,A,4921.38047,N,12316.41563,W,000.00,006.9,220913,017.3,E,D*28
$PGRME,2.4,M,2.4,M,3.4,M*29
$HCHDG,44.8,0.0,E,,*11
$YXXDR,A,5.5,D,PTCH,A,2.5,D,ROLL*5A
$HCHDG,44.8,0.0,E,,*11
$GPRMC,200009.6,A,4921.38047,N,12316.41563,W,000.01,006.9,220913,017.3,E,D*2B
$PGRME,2.4,M,2.4,M,3.4,M*29
$HCHDG,44.7,0.0,E,,*1E
$HCHDG,44.7,0.0,E,,*1E
$GPRMC,200009.8,A,4921.38047,N,12316.41563,W,000.01,006.9,220913,017.3,E,D*25
$PGRME,2.4,M,2.4,M,3.4,M*29
$HCHDG,44.8,0.0,E,,*11
$HCHDG,44.8,0.0,E,,*11
$YXXDR,A,5.6,D,PTCH,A,2.4,D,ROLL*58
$PTAK,FFD1,2.4*53
$GPRMC,200010.0,A,4921.38047,N,12316.41563,W,000.01,006.9,220913,017.3,E,D*25
$GPRMB,A,-34.93,L,,Shil,4741.0830,N,12224.5670,W,106.1,161,-0.01,V*06
$PGRME,2.4,M,2.4,M,3.4,M*29
$HCHDG,44.8,0.0,E,,*11
$HCHDG,44.7,0.0,E,,*1E
$GPRMC,200010.2,A,4921.38047,N,12316.41563,W,000.01,006.9,220913,017.3,E,D*27
$HCHDG,44.7,0.0,E,,*1E
$PGRME,2.4,M,2.4,M,3.4,M*29
$HCHDG,44.7,0.0,E,,*1E
$GPRMC,200010.4,A,4921.38047,N,12316.41563,W,000.01,006.9,220913,017.3,E,D*21
$HCHDG,44.7,0.0,E,,*1E
$PGRME,2.4,M,2.4,M,3.4,M*29
$YXXDR,A,5.6,D,PTCH,A,2.3,D,ROLL*5F
$HCHDG,44.7,0.0,E,,*1E
$GPRMC,200010.6,A,4921.38047,N,12316.41563,W,000.00,006.9,220913,017.3,E,D*22
$HCHDG,44.8,0.0,E,,*11
$PGRME,2.4,M,2.4,M,3.4,M*29
$HCHDG,44.7,0.0,E,,*1E
$GPRMC,200010.8,A,4921.38047,N,12316.41563,W,000.00,006.9,220913,017.3,E,D*2C
$PGRME,2.4,M,2.4,M,3.4,M*29
$HCHDG,44.7,0.0,E,,*1E
$HCHDG,44.7,0.0,E,,*1E
$YXXDR,A,5.5,D,PTCH,A,2.3,D,ROLL*5C
$PTAK,FFD1,2.3*54
$GPRMC,200011.0,A,4921.38047,N,12316.41563,W,000.01,006.9,220913,017.3,E,D*24
$GPRMB,A,-34.93,L,,Shil,4741.0830,N,12224.5670,W,106.1,161,-0.01,V*06
$PGRME,2.4,M,2.4,M,3.4,M*29
$HCHDG,44.9,0.0,E,,*10
$HCHDG,44.9,0.0,E,,*10
$GPRMC,200011.2,A,4921.38047,N,12316.41564,W,000.01,006.9,220913,017.3,E,D*21
$PGRME,2.4,M,2.4,M,3.4,M*29
$HCHDG,44.9,0.0,E,,*10
$HCHDG,44.9,0.0,E,,*10
$GPRMC,200011.4,A,4921.38047,N,12316.41564,W,000.00,006.9,220913,017.3,E,D*26
$HCHDG,44.9,0.0,E,,*10
$PGRME,2.4,M,2.4,M,3.4,M*29
$YXXDR,A,5.3,D,PTCH,A,2.4,D,ROLL*5D
$HCHDG,44.8,0.0,E,,*11
$GPRMC,200011.6,A,4921.38047,N,12316.41564,W,000.01,006.9,220913,017.3,E,D*25
$PGRME,2.4,M,2.4,M,3.4,M*29
$HCHDG,44.9,0.0,E,,*10
$HCHDG,45.0,0.0,E,,*18
$GPRMC,200011.8,A,4921.38047,N,12316.41563,W,000.00,006.9,220913,017.3,E,D*2D
$PGRME,2.4,M,2.4,M,3.4,M*29
$HCHDG,45.0,0.0,E,,*18
$HCHDG,44.8,0.0,E,,*11
$YXXDR,A,5.1,D,PTCH,A,2.3,D,ROLL*58
$GPRMC,200012.0,A,4921.38047,N,12316.41563,W,000.00,006.9,220913,017.3,E,D*26
$PGRME,2.4,M,2.4,M,3.4,M*29
$HCHDG,44.8,0.0,E,,*11
$HCHDG,44.8,0.0,E,,*11
$GPRMC,200012.2,A,4921.38047,N,12316.41563,W,000.00,006.9,220913,017.3,E,D*24
$GPRMB,A,-34.93,L,,Shil,4741.0830,N,12224.5670,W,106.1,161,-0.00,V*07
$HCHDG,44.8,0.0,E,,*11
$PGRME,2.4,M,2.4,M,3.4,M*29
$HCHDG,44.8,0.0,E,,*11
$GPRMC,200012.4,A,4921.38047,N,12316.41563,W,000.00,006.9,220913,017.3,E,D*22
$HCHDG,44.8,0.0,E,,*11
$PGRME,2.4,M,2.4,M,3.4,M*29
$YXXDR,A,5.5,D,PTCH,A,2.7,D,ROLL*58
$PTAK,FFD1,2.7*50
$HCHDG,44.9,0.0,E,,*10
$GPRMC,200012.6,A,4921.38047,N,12316.41563,W,000.01,006.9,220913,017.3,E,D*21
$HCHDG,44.9,0.0,E,,*10
$PGRME,2.4,M,2.4,M,3.4,M*29
$HCHDG,44.9,0.0,E,,*10
$GPRMC,200012.8,A,4921.38047,N,12316.41563,W,000.01,006.9,220913,017.3,E,D*2F
$PGRME,2.4,M,2.4,M,3.4,M*29
$HCHDG,44.9,0.0,E,,*10
$HCHDG,44.8,0.0,E,,*11
$YXXDR,A,5.5,D,PTCH,A,2.7,D,ROLL*58
$GPRMC,200013.0,A,4921.38047,N,12316.41563,W,000.01,006.9,220913,017.3,E,D*26
$PTAK,FFP1,HEEL,@*07
$PGRME,2.4,M,2.4,M,3.4,M*29
$HCHDG,44.8,0.0,E,,*11
$HCHDG,44.8,0.0,E,,*11
$GPRMC,200013.2,A,4921.38047,N,12316.41563,W,000.01,006.9,220913,017.3,E,D*24
$GPRMB,A,-34.93,L,,Shil,4741.0830,N,12224.5670,W,106.1,161,-0.01,V*06
$PGRME,2.4,M,2.4,M,3.4,M*29
$HCHDG,44.8,0.0,E,,*11
$HCHDG,45.0,0.0,E,,*18
$GPRMC,200013.4,A,4921.38047,N,12316.41563,W,000.01,006.9,220913,017.3,E,D*22
$PGRME,2.4,M,2.4,M,3.4,M*29
$HCHDG,45.0,0.0,E,,*18
$YXXDR,A,5.5,D,PTCH,A,2.5,D,ROLL*5A
$PTAK,FFD1,2.5*52
$HCHDG,45.0,0.0,E,,*18
$GPRMC,200013.6,A,4921.38047,N,12316.41563,W,000.01,006.9,220913,017.3,E,D*20
$PGRME,2.4,M,2.4,M,3.4,M*29
$HCHDG,45.0,0.0,E,,*18
$HCHDG,44.9,0.0,E,,*10
$GPRMC,200013.8,A,4921.38047,N,12316.41563,W,000.01,006.9,220913,017.3,E,D*2E
$PGRME,2.4,M,2.4,M,3.4,M*29
$HCHDG,45.0,0.0,E,,*18
$HCHDG,45.0,0.0,E,,*18
$YXXDR,A,5.4,D,PTCH,A,2.8,D,ROLL*56
$GPRMC,200014.0,A,4921.38047,N,12316.41563,W,000.00,006.9,220913,017.3,E,D*20
$PGRME,2.4,M,2.4,M,3.4,M*29
$HCHDG,45.0,0.0,E,,*18
$HCHDG,45.0,0.0,E,,*18
$GPRMC,200014.2,A,4921.38047,N,12316.41563,W,000.01,006.9,220913,017.3,E,D*23
$HCHDG,44.9,0.0,E,,*10
$PGRME,2.4,M,2.4,M,3.4,M*29
$HCHDG,44.9,0.0,E,,*10
$HCHDG,45.0,0.0,E,,*18
$GPRMC,200014.4,A,4921.38047,N,12316.41563,W,000.01,006.9,220913,017.3,E,D*25
$GPRMB,A,-34.93,L,,Shil,4741.0830,N,12224.5670,W,106.1,161,-0.01,V*06
$PGRME,2.4,M,2.4,M,3.4,M*29
$YXXDR,A,5.5,D,PTCH,A,2.5,D,ROLL*5A
$PTAK,FFD1,2.5*52
$HCHDG,45.1,0.0,E,,*19
$GPRMC,200014.6,A,4921.38047,N,12316.41563,W,000.01,006.9,220913,017.3,E,D*27
$PGRME,2.4,M,2.4,M,3.4,M*29
$HCHDG,45.0,0.0,E,,*18
$HCHDG,45.1,0.0,E,,*19
$GPRMC,200014.8,A,4921.38047,N,12316.41563,W,000.00,006.9,220913,017.3,E,D*28
$PGRME,2.4,M,2.4,M,3.4,M*29
$HCHDG,44.9,0.0,E,,*10
$HCHDG,44.9,0.0,E,,*10
$YXXDR,A,5.5,D,PTCH,A,2.3,D,ROLL*5C
$GPRMC,200015.0,A,4921.38047,N,12316.41563,W,000.01,006.9,220913,017.3,E,D*20
$PGRME,2.4,M,2.4,M,3.4,M*29
$HCHDG,44.9,0.0,E,,*10
$HCHDG,44.9,0.0,E,,*10
$GPRMC,200015.2,A,4921.38047,N,12316.41563,W,000.01,006.9,220913,017.3,E,D*22
$HCHDG,44.9,0.0,E,,*10
$PGRME,2.4,M,2.4,M,3.4,M*29
$HCHDG,44.9,0.0,E,,*10
$GPRMC,200015.4,A,4921.38047,N,12316.41563,W,000.01,006.9,220913,017.3,E,D*24
$PGRME,2.4,M,2.4,M,3.4,M*29
$HCHDG,45.1,0.0,E,,*19
$YXXDR,A,5.3,D,PTCH,A,2.6,D,ROLL*5F
$HCHDG,45.2,0.0,E,,*1A
$GPRMC,200015.6,A,4921.38047,N,12316.41563,W,000.01,006.9,220913,017.3,E,D*26
$GPRMB,A,-34.93,L,,Shil,4741.0830,N,12224.5670,W,106.1,161,-0.01,V*06
$HCHDG,45.2,0.0,E,,*1A
$PGRME,2.4,M,2.4,M,3.4,M*29
$HCHDG,45.1,0.0,E,,*19
$GPRMC,200015.8,A,4921.38047,N,12316.41563,W,000.01,006.9,220913,017.3,E,D*28
$HCHDG,45.0,0.0,E,,*18
$PGRME,2.4,M,2.4,M,3.4,M*29
$HCHDG,45.0,0.0,E,,*18
$YXXDR,A,5.5,D,PTCH,A,2.5,D,ROLL*5A
$PTAK,FFD1,2.5*52
$GPRMC,200016.0,A,4921.38047,N,12316.41563,W,000.00,006.9,220913,017.3,E,D*22
$PGRME,2.4,M,2.4,M,3.4,M*29
$HCHDG,44.9,0.0,E,,*10
$HCHDG,44.9,0.0,E,,*10
$GPRMC,200016.2,A,4921.38047,N,12316.41564,W,000.00,006.9,220913,017.3,E,D*27
$HCHDG,44.9,0.0,E,,*10
$PGRME,2.4,M,2.4,M,3.4,M*29
$HCHDG,44.9,0.0,E,,*10
$GPRMC,200016.4,A,4921.38046,N,12316.41564,W,000.01,006.9,220913,017.3,E,D*21
$HCHDG,45.0,0.0,E,,*18
$PGRME,2.4,M,2.4,M,3.4,M*29
$YXXDR,A,5.5,D,PTCH,A,2.5,D,ROLL*5A
$HCHDG,45.0,0.0,E,,*18
$GPRMC,200016.6,A,4921.38046,N,12316.41564,W,000.00,006.9,220913,017.3,E,D*22
$GPRMB,A,-34.93,L,,Shil,4741.0830,N,12224.5670,W,106.1,161,-0.00,V*07
$HCHDG,45.0,0.0,E,,*18
$PGRME,2.4,M,2.4,M,3.4,M*29
$HCHDG,45.0,0.0,E,,*18
$GPRMC,200016.8,A,4921.38046,N,12316.41564,W,000.01,006.9,220913,017.3,E,D*2D
$HCHDG,45.0,0.0,E,,*18
$PGRME,2.4,M,2.4,M,3.4,M*29
$HCHDG,45.0,0.0,E,,*18
$YXXDR,A,5.5,D,PTCH,A,2.7,D,ROLL*58
$PTAK,FFD1,2.7*50
$GPRMC,200017.0,A,4921.38046,N,12316.41564,W,000.01,006.9,220913,017.3,E,D*24
$PTAK,FFP1,HEEL,@*07
$PGRME,2.4,M,2.4,M,3.4,M*29
$HCHDG,45.0,0.0,E,,*18
$HCHDG,45.0,0.0,E,,*18
$GPRMC,200017.2,A,4921.38046,N,12316.41564,W,000.01,006.9,220913,017.3,E,D*26
$HCHDG,45.0,0.0,E,,*18
$PGRME,2.4,M,2.4,M,3.4,M*29
$HCHDG,44.9,0.0,E,,*10
$GPRMC,200017.4,A,4921.38047,N,12316.41564,W,000.01,006.9,220913,017.3,E,D*21
$HCHDG,45.0,0.0,E,,*18
$PGRME,2.4,M,2.4,M,3.4,M*29
$YXXDR,A,5.5,D,PTCH,A,2.7,D,ROLL*58
$HCHDG,45.0,0.0,E,,*18
$GPRMC,200017.6,A,4921.38047,N,12316.41564,W,000.00,006.9,220913,017.3,E,D*22
$HCHDG,45.0,0.0,E,,*18
$PGRME,2.4,M,2.4,M,3.4,M*29
$HCHDG,45.0,0.0,E,,*18
$GPRMC,200017.8,A,4921.38047,N,12316.41564,W,000.00,006.9,220913,017.3,E,D*2C
$GPRMB,A,-34.93,L,,Shil,4741.0830,N,12224.5670,W,106.1,161,-0.00,V*07
$HCHDG,45.1,0.0,E,,*19
$PGRME,2.4,M,2.4,M,3.4,M*29
$HCHDG,45.0,0.0,E,,*18
$YXXDR,A,5.5,D,PTCH,A,2.0,D,ROLL*5F
$PTAK,FFD1,2.0*57
$GPRMC,200018.0,A,4921.38047,N,12316.41564,W,000.01,006.9,220913,017.3,E,D*2A
$PGRME,2.4,M,2.4,M,3.4,M*29
$HCHDG,45.0,0.0,E,,*18
$HCHDG,45.0,0.0,E,,*18
$GPRMC,200018.2,A,4921.38047,N,12316.41564,W,000.01,006.9,220913,017.3,E,D*28
$PGRME,2.4,M,2.4,M,3.4,M*29
$HCHDG,45.0,0.0,E,,*18
$HCHDG,45.0,0.0,E,,*18
$GPRMC,200018.4,A,4921.38047,N,12316.41564,W,000.00,006.9,220913,017.3,E,D*2F
$HCHDG,45.1,0.0,E,,*19
$PGRME,2.4,M,2.4,M,3.4,M*29
$YXXDR,A,5.4,D,PTCH,A,2.2,D,ROLL*5C
$HCHDG,45.1,0.0,E,,*19
$GPRMC,200018.6,A,4921.38046,N,12316.41564,W,000.00,006.9,220913,017.3,E,D*2C
$HCHDG,45.0,0.0,E,,*18
$PGRME,2.4,M,2.4,M,3.4,M*29
$HCHDG,45.0,0.0,E,,*18
$GPRMC,200018.8,A,4921.38047,N,12316.41564,W,000.00,006.9,220913,017.3,E,D*23
$HCHDG,45.0,0.0,E,,*18
$PGRME,2.4,M,2.4,M,3.4,M*29
$HCHDG,45.0,0.0,E,,*18
$YXXDR,A,5.4,D,PTCH,A,2.3,D,ROLL*5D
$GPRMC,200019.0,A,4921.38046,N,12316.41564,W,000.01,006.9,220913,017.3,E,D*2A
$GPRMB,A,-34.93,L,,Shil,4741.0830,N,12224.5670,W,106.1,161,-0.01,V*06
$PGRME,2.4,M,2.4,M,3.4,M*29
$HCHDG,45.2,0.0,E,,*1A
$HCHDG,45.1,0.0,E,,*19
$GPRMC,200019.2,A,4921.38046,N,12316.41564,W,000.01,006.9,220913,017.3,E,D*28
$HCHDG,45.1,0.0,E,,*19
$PGRME,2.4,M,2.4,M,3.4,M*29
$HCHDG,45.2,0.0,E,,*1A
$GPRMC,200019.4,A,4921.38046,N,12316.41564,W,000.01,006.9,220913,017.3,E,D*2E
$HCHDG,45.2,0.0,E,,*1A
$PGRME,2.4,M,2.4,M,3.4,M*29
$YXXDR,A,5.4,D,PTCH,A,2.3,D,ROLL*5D
$PTAK,FFD1,2.3*54
$HCHDG,45.3,0.0,E,,*1B
$GPRMC,200019.6,A,4921.38046,N,12316.41564,W,000.00,006.9,220913,017.3,E,D*2D
$HCHDG,45.3,0.0,E,,*1B
$PGRME,2.4,M,2.4,M,3.4,M*29
$HCHDG,45.3,0.0,E,,*1B
$GPRMC,200019.8,A,4921.38046,N,12316.41564,W,000.00,006.9,220913,017.3,E,D*23
$HCHDG,45.3,0.0,E,,*1B
$PGRME,2.4,M,2.4,M,3.4,M*29
$HCHDG,45.4,0.0,E,,*1C
$YXXDR,A,5.3,D,PTCH,A,2.4,D,ROLL*5D
$GPRMC,200020.0,A,4921.38046,N,12316.41563,W,000.00,006.9,220913,017.3,E,D*26
$PGRME,2.4,M,2.4,M,3.4,M*29
$HCHDG,45.4,0.0,E,,*1C
$HCHDG,45.2,0.0,E,,*1A
$GPRMC,200020.2,A,4921.38046,N,12316.41564,W,000.00,006.9,220913,017.3,E,D*23
$GPRMB,A,-34.93,L,,Shil,4741.0830,N,12224.5670,W,106.1,161,-0.00,V*07
$HCHDG,45.2,0.0,E,,*1A
$PGRME,2.4,M,2.4,M,3.4,M*29
$HCHDG,45.2,0.0,E,,*1A
$GPRMC,200020.4,A,4921.38046,N,12316.41564,W,000.00,006.9,220913,017.3,E,D*25
$HCHDG,45.1,0.0,E,,*19
$PGRME,2.4,M,2.4,M,3.4,M*29
$YXXDR,A,5.6,D,PTCH,A,2.7,D,ROLL*5B
$PTAK,FFD1,2.7*50
$HCHDG,45.3,0.0,E,,*1B
$GPRMC,200020.6,A,4921.38046,N,12316.41564,W,000.01,006.9,220913,017.3,E,D*26
$PGRME,2.4,M,2.4,M,3.4,M*29
$HCHDG,45.3,0.0,E,,*1B
$HCHDG,45.2,0.0,E,,*1A
$GPRMC,200020.8,A,4921.38046,N,12316.41564,W,000.01,006.9,220913,017.3,E,D*28
$PGRME,2.4,M,2.4,M,3.4,M*29
$HCHDG,45.1,0.0,E,,*19
$HCHDG,45.1,0.0,E,,*19
$YXXDR,A,5.6,D,PTCH,A,2.7,D,ROLL*5B
$GPRMC,200021.0,A,4921.38046,N,12316.41564,W,000.00,006.9,220913,017.3,E,D*20
$PGRME,2.4,M,2.4,M,3.4,M*29
$HCHDG,45.2,0.0,E,,*1A
$PTAK,FFP1,HEEL,@*07
$HCHDG,45.1,0.0,E,,*19
$GPRMC,200021.2,A,4921.38046,N,12316.41564,W,000.01,006.9,220913,017.3,E,D*23
$HCHDG,45.1,0.0,E,,*19
$PGRME,2.4,M,2.4,M,3.4,M*29
$HCHDG,45.1,0.0,E,,*19
$GPRMC,200021.4,A,4921.38046,N,12316.41564,W,000.01,006.9,220913,017.3,E,D*25
$GPRMB,A,-34.93,L,,Shil,4741.0830,N,12224.5670,W,106.1,161,-0.01,V*06
$HCHDG,45.1,0.0,E,,*19
$PGRME,2.4,M,2.4,M,3.4,M*29
$YXXDR,A,5.6,D,PTCH,A,2.3,D,ROLL*5F
$PTAK,FFD1,2.3*54
$HCHDG,45.3,0.0,E,,*1B
$GPRMC,200021.6,A,4921.38046,N,12316.41564,W,000.01,006.9,220913,017.3,E,D*27
$HCHDG,45.3,0.0,E,,*1B
$PGRME,2.4,M,2.4,M,3.4,M*29
$HCHDG,45.2,0.0,E,,*1A
$GPRMC,200021.8,A,4921.38046,N,12316.41564,W,000.00,006.9,220913,017.3,E,D*28
$HCHDG,45.2,0.0,E,,*1A
$PGRME,2.4,M,2.4,M,3.4,M*29
$HCHDG,45.2,0.0,E,,*1A
$YXXDR,A,5.5,D,PTCH,A,1.9,D,ROLL*55
$GPRMC,200022.0,A,4921.38046,N,12316.41564,W,000.00,006.9,220913,017.3,E,D*23
$PGRME,2.4,M,2.4,M,3.4,M*29
$HCHDG,45.2,0.0,E,,*1A
$HCHDG,45.1,0.0,E,,*19
$GPRMC,200022.2,A,4921.38046,N,12316.41564,W,000.00,006.9,220913,017.3,E,D*21
$HCHDG,45.1,0.0,E,,*19
$PGRME,2.4,M,2.4,M,3.4,M*29
$HCHDG,45.1,0.0,E,,*19
$GPRMC,200022.4,A,4921.38046,N,12316.41564,W,000.00,006.9,220913,017.3,E,D*27
$GPRMB,A,-34.93,L,,Shil,4741.0830,N,12224.5670,W,106.1,161,-0.00,V*07
$PGRME,2.4,M,2.4,M,3.4,M*29
$HCHDG,45.3,0.0,E,,*1B
$YXXDR,A,5.3,D,PTCH,A,2.4,D,ROLL*5D
$HCHDG,45.3,0.0,E,,*1B
$GPRMC,200022.6,A,4921.38046,N,12316.41563,W,000.01,006.9,220913,017.3,E,D*23
$PGRME,2.4,M,2.4,M,3.4,M*29
$HCHDG,45.3,0.0,E,,*1B
$HCHDG,45.2,0.0,E,,*1A
$GPRMC,200022.8,A,4921.38046,N,12316.41563,W,000.00,006.9,220913,017.3,E,D*2C
$HCHDG,45.2,0.0,E,,*1A
$PGRME,2.4,M,2.4,M,3.4,M*29
$HCHDG,45.2,0.0,E,,*1A
$YXXDR,A,5.4,D,PTCH,A,2.4,D,ROLL*5A
$PTAK,FFD1,2.4*53
$GPRMC,200023.0,A,4921.38046,N,12316.41563,W,000.00,006.9,220913,017.3,E,D*25
$PGRME,2.4,M,2.4,M,3.4,M*29
$HCHDG,45.2,0.0,E,,*1A
$HCHDG,45.2,0.0,E,,*1A
$GPRMC,200023.2,A,4921.38046,N,12316.41563,W,000.01,006.9,220913,017.3,E,D*26
$HCHDG,45.3,0.0,E,,*1B
$PGRME,2.4,M,2.4,M,3.4,M*29
$HCHDG,45.3,0.0,E,,*1B
$GPRMC,200023.4,A,4921.38046,N,12316.41563,W,000.01,006.9,220913,017.3,E,D*20
$GPRMB,A,-34.93,L,,Shil,4741.0830,N,12224.5670,W,106.1,161,-0.01,V*06
$HCHDG,45.3,0.0,E,,*1B
$PGRME,2.4,M,2.4,M,3.4,M*29
$YXXDR,A,5.3,D,PTCH,A,2.4,D,ROLL*5D
$HCHDG,45.3,0.0,E,,*1B
$GPRMC,200023.6,A,4921.38046,N,12316.41563,W,000.00,006.9,220913,017.3,E,D*23
$HCHDG,45.2,0.0,E,,*1A
$PGRME,2.4,M,2.4,M,3.4,M*29
$HCHDG,45.4,0.0,E,,*1C
$GPRMC,200023.8,A,4921.38046,N,12316.41563,W,000.00,006.9,220913,017.3,E,D*2D
$HCHDG,45.3,0.0,E,,*1B
$PGRME,2.4,M,2.4,M,3.4,M*29
$HCHDG,45.4,0.0,E,,*1C
$YXXDR,A,5.4,D,PTCH,A,2.9,D,ROLL*57
$GPRMC,200024.0,A,4921.38046,N,12316.41563,W,000.01,006.9,220913,017.3,E,D*23
$PGRME,2.4,M,2.4,M,3.4,M*29
$HCHDG,45.5,0.0,E,,*1D
$HCHDG,45.4,0.0,E,,*1C
$GPRMC,200024.2,A,4921.38046,N,12316.41563,W,000.01,006.9,220913,017.3,E,D*21
$HCHDG,45.5,0.0,E,,*1D
$PGRME,2.4,M,2.4,M,3.4,M*29
$HCHDG,45.5,0.0,E,,*1D
$GPRMC,200024.4,A,4921.38046,N,12316.41563,W,000.01,006.9,220913,017.3,E,D*27
$GPRMB,A,-34.93,L,,Shil,4741.0830,N,12224.5670,W,106.1,161,-0.01,V*06
$HCHDG,45.5,0.0,E,,*1D
$PGRME,2.4,M,2.4,M,3.4,M*29
$YXXDR,A,5.5,D,PTCH,A,2.9,D,ROLL*56
$PTAK,FFD1,2.9*5E
$HCHDG,45.4,0.0,E,,*1C
$GPRMC,200024.6,A,4921.38046,N,12316.41563,W,000.00,006.9,220913,017.3,E,D*24
$HCHDG,45.4,0.0,E,,*1C
$PGRME,2.4,M,2.4,M,3.4,M*29
$HCHDG,45.5,0.0,E,,*1D
$GPRMC,200024.8,A,4921.38046,N,12316.41563,W,000.00,006.9,220913,017.3,E,D*2A
$HCHDG,45.5,0.0,E,,*1D
$PGRME,2.4,M,2.4,M,3.4,M*29
$HCHDG,45.3,0.0,E,,*1B
$YXXDR,A,5.5,D,PTCH,A,2.8,D,ROLL*57
$GPRMC,200025.0,A,4921.38046,N,12316.41563,W,000.01,006.9,220913,017.3,E,D*22
$PGRME,2.4,M,2.4,M,3.4,M*29
$HCHDG,45.3,0.0,E,,*1B
$PTAK,FFP1,HEEL,@*07
$HCHDG,45.3,0.0,E,,*1B
$GPRMC,200025.2,A,4921.38046,N,12316.41563,W,000.01,006.9,220913,017.3,E,D*20
$HCHDG,45.3,0.0,E,,*1B
$PGRME,2.4,M,2.4,M,3.4,M*29
$HCHDG,45.3,0.0,E,,*1B
$GPRMC,200025.4,A,4921.38046,N,12316.41563,W,000.01,006.9,220913,017.3,E,D*26
$GPRMB,A,-34.93,L,,Shil,4741.0830,N,12224.5670,W,106.1,161,-0.01,V*06
$HCHDG,45.3,0.0,E,,*1B
$PGRME,2.4,M,2.4,M,3.4,M*29
$YXXDR,A,5.5,D,PTCH,A,2.8,D,ROLL*57
$HCHDG,45.4,0.0,E,,*1C
$GPRMC,200025.6,A,4921.38046,N,12316.41563,W,000.01,006.9,220913,017.3,E,D*24
$HCHDG,45.4,0.0,E,,*1C
$PGRME,2.4,M,2.4,M,3.4,M*29
$HCHDG,45.4,0.0,E,,*1C
$GPRMC,200025.8,A,4921.38046,N,12316.41563,W,000.00,006.9,220913,017.3,E,D*2B
$HCHDG,45.3,0.0,E,,*1B
$PGRME,2.4,M,2.4,M,3.4,M*29
$HCHDG,45.3,0.0,E,,*1B
$YXXDR,A,5.3,D,PTCH,A,2.7,D,ROLL*5E
$PTAK,FFD1,2.7*50
$GPRMC,200026.0,A,4921.38046,N,12316.41563,W,000.01,006.9,220913,017.3,E,D*21
$PGRME,2.4,M,2.4,M,3.4,M*29
$HCHDG,45.3,0.0,E,,*1B
$HCHDG,45.1,0.0,E,,*19
$GPRMC,200026.2,A,4921.38046,N,12316.41563,W,000.00,006.9,220913,017.3,E,D*22
$HCHDG,45.2,0.0,E,,*1A
$PGRME,2.4,M,2.4,M,3.4,M*29
$HCHDG,45.2,0.0,E,,*1A
$GPRMC,200026.4,A,4921.38046,N,12316.41563,W,000.00,006.9,220913,017.3,E,D*24
$HCHDG,45.2,0.0,E,,*1A
$PGRME,2.4,M,2.4,M,3.4,M*29
$YXXDR,A,5.5,D,PTCH,A,2.5,D,ROLL*5A
$HCHDG,45.2,0.0,E,,*1A
$GPRMC,200026.6,A,4921.38046,N,12316.41563,W,000.01,006.9,220913,017.3,E,D*27
$HCHDG,45.2,0.0,E,,*1A
$PGRME,2.4,M,2.4,M,3.4,M*29
$HCHDG,45.3,0.0,E,,*1B
$GPRMC,200026.8,A,4921.38047,N,12316.41562,W,000.02,006.9,220913,017.3,E,D*2A
$GPRMB,A,-34.93,L,,Shil,4741.0830,N,12224.5670,W,106.1,161,-0.02,V*05
$HCHDG,45.3,0.0,E,,*1B
$PGRME,2.4,M,2.4,M,3.4,M*29
$HCHDG,45.3,0.0,E,,*1B
$YXXDR,A,5.4,D,PTCH,A,3.0,D,ROLL*5F
$PTAK,FFD1,3.0*56
$GPRMC,200027.0,A,4921.38047,N,12316.41562,W,000.01,006.9,220913,017.3,E,D*20
$PGRME,2.4,M,2.4,M,3.4,M*29
$HCHDG,45.4,0.0,E,,*1C
$HCHDG,45.3,0.0,E,,*1B
$GPRMC,200027.2,A,4921.38047,N,12316.41562,W,000.01,006.9,220913,017.3,E,D*22
$HCHDG,45.2,0.0,E,,*1A
$PGRME,2.4,M,2.4,M,3.4,M*29
$HCHDG,45.3,0.0,E,,*1B
$GPRMC,200027.4,A,4921.38047,N,12316.41562,W,000.00,006.9,220913,017.3,E,D*25
$HCHDG,45.2,0.0,E,,*1A
$PGRME,2.4,M,2.4,M,3.4,M*29
$YXXDR,A,5.5,D,PTCH,A,3.1,D,ROLL*5F
$HCHDG,45.2,0.0,E,,*1A
$GPRMC,200027.6,A,4921.38047,N,12316.41562,W,000.00,006.9,220913,017.3,E,D*27
$HCHDG,45.1,0.0,E,,*19
$PGRME,2.4,M,2.4,M,3.4,M*29
$HCHDG,45.1,0.0,E,,*19
$GPRMC,200027.8,A,4921.38047,N,12316.41562,W,000.00,006.9,220913,017.3,E,D*29
$PGRME,2.4,M,2.4,M,3.4,M*29
$HCHDG,45.2,0.0,E,,*1A
$HCHDG,45.2,0.0,E,,*1A
$YXXDR,A,5.5,D,PTCH,A,3.1,D,ROLL*5F
$GPRMC,200028.0,A,4921.38047,N,12316.41562,W,000.00,006.9,220913,017.3,E,D*2E
$GPRMB,A,-34.93,L,,Shil,4741.0830,N,12224.5670,W,106.1,161,-0.00,V*07
$PGRME,2.4,M,2.4,M,3.4,M*29
$HCHDG,45.2,0.0,E,,*1A
$HCHDG,45.2,0.0,E,,*1A
$GPRMC,200028.2,A,4921.38047,N,12316.41562,W,000.00,006.9,220913,017.3,E,D*2C
$PGRME,2.4,M,2.4,M,3.4,M*29
$HCHDG,45.1,0.0,E,,*19
$HCHDG,45.1,0.0,E,,*19
$GPRMC,200028.4,A,4921.38047,N,12316.41562,W,000.00,006.9,220913,017.3,E,D*2A
$HCHDG,45.0,0.0,E,,*18
$PGRME,2.4,M,2.4,M,3.4,M*29
$YXXDR,A,5.5,D,PTCH,A,2.7,D,ROLL*58
$PTAK,FFD1,2.7*50
$HCHDG,45.0,0.0,E,,*18
$GPRMC,200028.6,A,4921.38047,N,12316.41562,W,000.00,006.9,220913,017.3,E,D*28
$PGRME,2.4,M,2.4,M,3.4,M*29
$HCHDG,45.0,0.0,E,,*18
$HCHDG,44.8,0.0,E,,*11
$GPRMC,200028.8,A,4921.38047,N,12316.41562,W,000.01,006.9,220913,017.3,E,D*27
$PGRME,2.4,M,2.4,M,3.4,M*29
$HCHDG,44.9,0.0,E,,*10
$HCHDG,44.8,0.0,E,,*11
$YXXDR,A,5.6,D,PTCH,A,2.3,D,ROLL*5F
$GPRMC,200029.0,A,4921.38047,N,12316.41562,W,000.00,006.9,220913,017.3,E,D*2F
$PGRME,2.4,M,2.4,M,3.4,M*29
$HCHDG,44.5,0.0,E,,*1C
$HCHDG,44.5,0.0,E,,*1C
$GPRMC,200029.2,A,4921.38047,N,12316.41562,W,000.00,006.9,220913,017.3,E,D*2D
$GPRMB,A,-34.93,L,,Shil,4741.0830,N,12224.5670,W,106.1,161,-0.00,V*07
$HCHDG,44.6,0.0,E,,*1F
$PTAK,FFP1,HEEL,@*07
$PGRME,2.4,M,2.4,M,3.4,M*29
$HCHDG,44.6,0.0,E,,*1F
$GPRMC,200029.4,A,4921.38047,N,12316.41561,W,000.01,006.9,220913,017.3,E,D*29
$HCHDG,44.5,0.0,E,,*1C
$PGRME,2.4,M,2.4,M,3.4,M*29
$YXXDR,A,5.6,D,PTCH,A,2.3,D,ROLL*5F
$HCHDG,44.2,0.0,E,,*1B
$GPRMC,200029.6,A,4921.38047,N,12316.41561,W,000.00,006.9,220913,017.3,E,D*2A
$PGRME,2.4,M,2.4,M,3.4,M*29
$HCHDG,44.4,0.0,E,,*1D
$HCHDG,44.5,0.0,E,,*1C
$GPRMC,200029.8,A,4921.38047,N,12316.41561,W,000.01,006.9,220913,017.3,E,D*25
$PGRME,2.4,M,2.4,M,3.4,M*29
$HCHDG,44.5,0.0,E,,*1C
$HCHDG,44.4,0.0,E,,*1D
$YXXDR,A,5.5,D,PTCH,A,2.1,D,ROLL*5E
$PTAK,FFD1,2.1*56
$GPRMC,200030.0,A,4921.38047,N,12316.41561,W,000.01,006.9,220913,017.3,E,D*25
$PGRME,2.4,M,2.4,M,3.4,M*29
$HCHDG,44.4,0.0,E,,*1D
$HCHDG,44.4,0.0,E,,*1D
$GPRMC,200030.2,A,4921.38047,N,12316.41561,W,000.01,006.9,220913,017.3,E,D*27
$HCHDG,44.5,0.0,E,,*1C
$PGRME,2.4,M,2.4,M,3.4,M*29
$HCHDG,44.5,0.0,E,,*1C
$GPRMC,200030.4,A,4921.38047,N,12316.41561,W,000.01,006.9,220913,017.3,E,D*21
$GPRMB,A,-34.93,L,,Shil,4741.0830,N,12224.5670,W,106.1,161,-0.01,V*06
$HCHDG,44.6,0.0,E,,*1F
$PGRME,2.4,M,2.4,M,3.4,M*29
$YXXDR,A,5.4,D,PTCH,A,2.3,D,ROLL*5D
$HCHDG,44.6,0.0,E,,*1F
$GPRMC,200030.6,A,4921.38047,N,12316.41560,W,000.01,006.9,220913,017.3,E,D*22
$HCHDG,44.6,0.0,E,,*1F
$PGRME,2.4,M,2.4,M,3.4,M*29
$HCHDG,44.6,0.0,E,,*1F
$GPRMC,200030.8,A,4921.38047,N,12316.41560,W,000.01,006.9,220913,017.3,E,D*2C
$HCHDG,44.5,0.0,E,,*1C
$PGRME,2.4,M,2.4,M,3.4,M*29
$HCHDG,44.5,0.0,E,,*1C
$YXXDR,A,5.3,D,PTCH,A,2.6,D,ROLL*5F
$GPRMC,200031.0,A,4921.38047,N,12316.41560,W,000.01,006.9,220913,017.3,E,D*25
$PGRME,2.4,M,2.4,M,3.4,M*29
$HCHDG,44.5,0.0,E,,*1C
$HCHDG,44.5,0.0,E,,*1C
$GPRMC,200031.2,A,4921.38047,N,12316.41560,W,000.00,006.9,220913,017.3,E,D*26
$HCHDG,44.5,0.0,E,,*1C
$PGRME,2.4,M,2.4,M,3.4,M*29
$HCHDG,44.7,0.0,E,,*1E
$GPRMC,200031.4,A,4921.38047,N,12316.41560,W,000.01,006.9,220913,017.3,E,D*21
$HCHDG,44.7,0.0,E,,*1E
$PGRME,2.4,M,2.4,M,3.4,M*29
$YXXDR,A,5.2,D,PTCH,A,2.6,D,ROLL*5E
$PTAK,FFD1,2.6*51
$HCHDG,44.7,0.0,E,,*1E
$GPRMC,200031.6,A,4921.38047,N,12316.41559,W,000.01,006.9,220913,017.3,E,D*29
$GPRMB,A,-34.93,L,,Shil,4741.0830,N,12224.5670,W,106.1,161,-0.01,V*06
$PGRME,2.4,M,2.4,M,3.4,M*29
$HCHDG,44.7,0.0,E,,*1E
$HCHDG,44.7,0.0,E,,*1E
$GPRMC,200031.8,A,4921.38047,N,12316.41559,W,000.01,006.9,220913,017.3,E,D*27
$PGRME,2.4,M,2.4,M,3.4,M*29
$HCHDG,44.7,0.0,E,,*1E
$HCHDG,44.7,0.0,E,,*1E
$YXXDR,A,5.2,D,PTCH,A,2.6,D,ROLL*5E
$GPRMC,200032.0,A,4921.38047,N,12316.41559,W,000.01,006.9,220913,017.3,E,D*2C
$PGRME,2.4,M,2.4,M,3.4,M*29
$HCHDG,44.7,0.0,E,,*1E
$HCHDG,45.0,0.0,E,,*18
$HCHDG,44.9,0.0,E,,*10
$GPRMC,200032.2,A,4921.38047,N,12316.41559,W,000.01,006.9,220913,017.3,E,D*2E
$PGRME,2.4,M,2.4,M,3.4,M*29
$HCHDG,44.8,0.0,E,,*11
$HCHDG,44.8,0.0,E,,*11
$GPRMC,200032.4,A,4921.38047,N,12316.41559,W,000.01,006.9,220913,017.3,E,D*28
$PGRME,2.4,M,2.4,M,3.4,M*29
$YXXDR,A,5.5,D,PTCH,A,2.9,D,ROLL*56
$PTAK,FFD1,2.9*5E
$HCHDG,44.8,0.0,E,,*11
$GPRMC,200032.6,A,4921.38047,N,12316.41559,W,000.00,006.9,220913,017.3,E,D*2B
$GPRMB,A,-34.93,L,,Shil,4741.0830,N,12224.5670,W,106.1,161,-0.00,V*07
$HCHDG,44.9,0.0,E,,*10
$PGRME,2.4,M,2.4,M,3.4,M*29
$HCHDG,44.9,0.0,E,,*10
$GPRMC,200032.8,A,4921.38047,N,12316.41558,W,000.00,006.9,220913,017.3,E,D*24
$HCHDG,44.9,0.0,E,,*10
$PGRME,2.4,M,2.4,M,3.4,M*29
$HCHDG,45.0,0.0,E,,*18
$YXXDR,A,5.5,D,PTCH,A,2.8,D,ROLL*57
$GPRMC,200033.0,A,4921.38047,N,12316.41558,W,000.00,006.9,220913,017.3,E,D*2D
$PGRME,2.4,M,2.4,M,3.4,M*29
$HCHDG,45.0,0.0,E,,*18
$HCHDG,45.0,0.0,E,,*18
$GPRMC,200033.2,A,4921.38047,N,12316.41558,W,000.00,006.9,220913,017.3,E,D*2F
$HCHDG,44.8,0.0,E,,*11
$PGRME,2.4,M,2.4,M,3.4,M*29
$HCHDG,44.9,0.0,E,,*10
$GPRMC,200033.4,A,4921.38047,N,12316.41558,W,000.01,006.9,220913,017.3,E,D*28
$PGRME,2.4,M,2.4,M,3.4,M*29
$HCHDG,45.0,0.0,E,,*18
$PTAK,FFP1,HEEL,@*07
$YXXDR,A,5.5,D,PTCH,A,2.5,D,ROLL*5A
$PTAK,FFD1,2.5*52
$HCHDG,45.0,0.0,E,,*18
$GPRMC,200033.6,A,4921.38047,N,12316.41558,W,000.00,006.9,220913,017.3,E,D*2B
$GPRMB,A,-34.93,L,,Shil,4741.0830,N,12224.5670,W,106.1,161,-0.00,V*07
$HCHDG,44.9,0.0,E,,*10
$PGRME,2.4,M,2.4,M,3.4,M*29
$HCHDG,45.0,0.0,E,,*18
$GPRMC,200033.8,A,4921.38047,N,12316.41558,W,000.00,006.9,220913,017.3,E,D*25
$HCHDG,45.1,0.0,E,,*19
$PGRME,2.4,M,2.4,M,3.4,M*29
$HCHDG,45.1,0.0,E,,*19
$YXXDR,A,5.5,D,PTCH,A,2.1,D,ROLL*5E
$GPRMC,200034.0,A,4921.38047,N,12316.41558,W,000.01,006.9,220913,017.3,E,D*2B
$PGRME,2.4,M,2.4,M,3.4,M*29
$HCHDG,45.0,0.0,E,,*18
$HCHDG,45.0,0.0,E,,*18
$GPRMC,200034.2,A,4921.38047,N,12316.41557,W,000.00,006.9,220913,017.3,E,D*27
$HCHDG,45.1,0.0,E,,*19
$PGRME,2.4,M,2.4,M,3.4,M*29
$HCHDG,45.0,0.0,E,,*18
$GPRMC,200034.4,A,4921.38047,N,12316.41557,W,000.01,006.9,220913,017.3,E,D*20
$HCHDG,45.0,0.0,E,,*18
$PGRME,2.4,M,2.4,M,3.4,M*29
$YXXDR,A,5.6,D,PTCH,A,2.0,D,ROLL*5C
$HCHDG,45.1,0.0,E,,*19
$GPRMC,200034.6,A,4921.38047,N,12316.41557,W,000.00,006.9,220913,017.3,E,D*23
$HCHDG,45.0,0.0,E,,*18
$PGRME,2.4,M,2.4,M,3.4,M*29
$HCHDG,45.1,0.0,E,,*19
$GPRMC,200034.8,A,4921.38047,N,12316.41557,W,000.01,006.9,220913,017.3,E,D*2C
$GPRMB,A,-34.93,L,,Shil,4741.0830,N,12224.5670,W,106.1,161,-0.01,V*06
$HCHDG,45.1,0.0,E,,*19
$PGRME,2.4,M,2.4,M,3.4,M*29
$HCHDG,45.2,0.0,E,,*1A
$YXXDR,A,5.4,D,PTCH,A,2.2,D,ROLL*5C
$PTAK,FFD1,2.2*55
$GPRMC,200035.0,A,4921.38047,N,12316.41557,W,000.01,006.9,220913,017.3,E,D*25
$PGRME,2.4,M,2.4,M,3.4,M*29
$HCHDG,45.2,0.0,E,,*1A
$HCHDG,45.2,0.0,E,,*1A
$GPRMC,200035.2,A,4921.38047,N,12316.41557,W,000.00,006.9,220913,017.3,E,D*26
$HCHDG,45.1,0.0,E,,*19
$PGRME,2.4,M,2.4,M,3.4,M*29
$HCHDG,45.1,0.0,E,,*19
$GPRMC,200035.4,A,4921.38048,N,12316.41556,W,000.00,006.9,220913,017.3,E,D*2E
$HCHDG,45.3,0.0,E,,*1B
$PGRME,2.4,M,2.4,M,3.4,M*29
$YXXDR,A,5.4,D,PTCH,A,2.2,D,ROLL*5C
$HCHDG,45.3,0.0,E,,*1B
$GPRMC,200035.6,A,4921.38048,N,12316.41556,W,000.01,006.9,220913,017.3,E,D*2D
$HCHDG,45.3,0.0,E,,*1B
$PGRME,2.4,M,2.4,M,3.4,M*29
$HCHDG,45.2,0.0,E,,*1A
$GPRMC,200035.8,A,4921.38048,N,12316.41556,W,000.00,006.9,220913,017.3,E,D*22
$HCHDG,45.2,0.0,E,,*1A
$PGRME,2.4,M,2.4,M,3.4,M*29
$HCHDG,45.2,0.0,E,,*1A
$YXXDR,A,5.2,D,PTCH,A,2.3,D,ROLL*5B
$GPRMC,200036.0,A,4921.38048,N,12316.41556,W,000.00,006.9,220913,017.3,E,D*29
$PGRME,2.4,M,2.4,M,3.4,M*29
$HCHDG,45.2,0.0,E,,*1A
$HCHDG,45.1,0.0,E,,*19
$GPRMC,200036.2,A,4921.38048,N,12316.41555,W,000.01,006.9,220913,017.3,E,D*29
$HCHDG,45.2,0.0,E,,*1A
$PGRME,2.4,M,2.4,M,3.4,M*29
$HCHDG,45.2,0.0,E,,*1A
$GPRMC,200036.4,A,4921.38048,N,12316.41555,W,000.01,006.9,220913,017.3,E,D*2F
$GPRMB,A,-34.93,L,,Shil,4741.0830,N,12224.5670,W,106.1,161,-0.01,V*06
$HCHDG,45.2,0.0,E,,*1A
$PGRME,2.4,M,2.4,M,3.4,M*29
$YXXDR,A,5.5,D,PTCH,A,2.8,D,ROLL*57
$PTAK,FFD1,2.8*5F
$HCHDG,45.1,0.0,E,,*19
$GPRMC,200036.6,A,4921.38048,N,12316.41555,W,000.00,006.9,220913,017.3,E,D*2C
$PGRME,2.4,M,2.4,M,3.4,M*29
$HCHDG,45.2,0.0,E,,*1A
$HCHDG,45.1,0.0,E,,*19
$GPRMC,200036.8,A,4921.38049,N,12316.41555,W,000.00,006.9,220913,017.3,E,D*23
$HCHDG,44.9,0.0,E,,*10
$PGRME,2.4,M,2.4,M,3.4,M*29
$HCHDG,45.1,0.0,E,,*19
$YXXDR,A,5.6,D,PTCH,A,2.9,D,ROLL*55
$GPRMC,200037.0,A,4921.38049,N,12316.41555,W,000.00,006.9,220913,017.3,E,D*2A
$PGRME,2.4,M,2.4,M,3.4,M*29
$HCHDG,45.0,0.0,E,,*18
$HCHDG,45.0,0.0,E,,*18
$GPRMC,200037.2,A,4921.38049,N,12316.41555,W,000.00,006.9,220913,017.3,E,D*28
$HCHDG,45.0,0.0,E,,*18
$PGRME,2.4,M,2.4,M,3.4,M*29
$HCHDG,45.0,0.0,E,,*18
$GPRMC,200037.4,A,4921.38049,N,12316.41555,W,000.01,006.9,220913,017.3,E,D*2F
$HCHDG,45.1,0.0,E,,*19
$PGRME,2.4,M,2.4,M,3.4,M*29
$YXXDR,A,5.5,D,PTCH,A,2.5,D,ROLL*5A
$PTAK,FFP1,HEEL,@*07
$HCHDG,45.1,0.0,E,,*19
$GPRMC,200037.6,A,4921.38049,N,12316.41555,W,000.01,006.9,220913,017.3,E,D*2D
$GPRMB,A,-34.93,L,,Shil,4741.0830,N,12224.5670,W,106.1,161,-0.01,V*06
$HCHDG,45.1,0.0,E,,*19
$PGRME,2.4,M,2.4,M,3.4,M*29
$HCHDG,45.1,0.0,E,,*19
$GPRMC,200037.8,A,4921.38049,N,12316.41555,W,000.01,006.9,220913,017.3,E,D*23
$HCHDG,45.1,0.0,E,,*19
$PGRME,2.4,M,2.4,M,3.4,M*29
$HCHDG,45.0,0.0,E,,*18
$YXXDR,A,5.5,D,PTCH,A,2.7,D,ROLL*58
$PTAK,FFD1,2.7*50
$GPRMC,200038.0,A,4921.38049,N,12316.41555,W,000.00,006.9,220913,017.3,E,D*25
$PGRME,2.4,M,2.4,M,3.4,M*29
$HCHDG,45.0,0.0,E,,*18
$HCHDG,45.0,0.0,E,,*18
$GPRMC,200038.2,A,4921.38049,N,12316.41555,W,000.00,006.9,220913,017.3,E,D*27
$HCHDG,45.0,0.0,E,,*18
$PGRME,2.4,M,2.4,M,3.4,M*29
$HCHDG,44.8,0.0,E,,*11
$GPRMC,200038.4,A,4921.38049,N,12316.41555,W,000.00,006.9,220913,017.3,E,D*21
$HCHDG,44.8,0.0,E,,*11
$PGRME,2.4,M,2.4,M,3.4,M*29
$YXXDR,A,5.4,D,PTCH,A,2.2,D,ROLL*5C
$HCHDG,44.8,0.0,E,,*11
$GPRMC,200038.6,A,4921.38049,N,12316.41555,W,000.00,006.9,220913,017.3,E,D*23
$GPRMB,A,-34.93,L,,Shil,4741.0830,N,12224.5670,W,106.1,161,-0.00,V*07
$HCHDG,45.0,0.0,E,,*18
$PGRME,2.4,M,2.4,M,3.4,M*29
$HCHDG,45.1,0.0,E,,*19
$GPRMC,200038.8,A,4921.38049,N,12316.41555,W,000.01,006.9,220913,017.3,E,D*2C
$PGRME,2.4,M,2.4,M,3.4,M*29
$HCHDG,44.9,0.0,E,,*10
$HCHDG,44.9,0.0,E,,*10
$YXXDR,A,5.4,D,PTCH,A,2.2,D,ROLL*5C
$PTAK,FFD1,2.2*55
$GPRMC,200039.0,A,4921.38049,N,12316.41554,W,000.00,006.9,220913,017.3,E,D*25
$PGRME,2.4,M,2.4,M,3.4,M*29
$HCHDG,44.9,0.0,E,,*10
$HCHDG,44.9,0.0,E,,*10
$GPRMC,200039.2,A,4921.38049,N,12316.41554,W,000.00,006.9,220913,017.3,E,D*27
$PGRME,2.4,M,2.4,M,3.4,M*29
$HCHDG,44.9,0.0,E,,*10
$HCHDG,44.8,0.0,E,,*11
$GPRMC,200039.4,A,4921.38049,N,12316.41554,W,000.01,006.9,220913,017.3,E,D*20
$PGRME,2.4,M,2.4,M,3.4,M*29
$HCHDG,44.8,0.0,E,,*11
$YXXDR,A,5.5,D,PTCH,A,2.5,D,ROLL*5A
$HCHDG,44.8,0.0,E,,*11
$GPRMC,200039.6,A,4921.38049,N,12316.41554,W,000.00,006.9,220913,017.3,E,D*23
$GPRMB,A,-34.93,L,,Shil,4741.0830,N,12224.5670,W,106.1,161,-0.00,V*07
$PGRME,2.4,M,2.4,M,3.4,M*29
$HCHDG,45.1,0.0,E,,*19
$HCHDG,45.0,0.0,E,,*18
$GPRMC,200039.8,A,4921.38049,N,12316.41554,W,000.01,006.9,220913,017.3,E,D*2C
$PGRME,2.4,M,2.4,M,3.4,M*29
$HCHDG,44.9,0.0,E,,*10
$HCHDG,44.9,0.0,E,,*10
$YXXDR,A,5.5,D,PTCH,A,2.5,D,ROLL*5A
$GPRMC,200040.0,A,4921.38049,N,12316.41554,W,000.00,006.9,220913,017.3,E,D*2B
$PGRME,2.4,M,2.4,M,3.4,M*29
$HCHDG,44.9,0.0,E,,*10
$HCHDG,44.9,0.0,E,,*10
$GPRMC,200040.2,A,4921.38049,N,12316.41554,W,000.00,006.9,220913,017.3,E,D*29
$HCHDG,44.8,0.0,E,,*11
$PGRME,2.4,M,2.4,M,3.4,M*29
$HCHDG,44.8,0.0,E,,*11
$GPRMC,200040.4,A,4921.38049,N,12316.41554,W,000.01,006.9,220913,017.3,E,D*2E
$HCHDG,44.8,0.0,E,,*11
$PGRME,2.4,M,2.4,M,3.4,M*29
$YXXDR,A,5.5,D,PTCH,A,2.3,D,ROLL*5C
$PTAK,FFD1,2.3*54
$HCHDG,44.7,0.0,E,,*1E
$GPRMC,200040.6,A,4921.38049,N,12316.41554,W,000.01,006.9,220913,017.3,E,D*2C
$PGRME,2.4,M,2.4,M,3.4,M*29
$HCHDG,44.8,0.0,E,,*11
$HCHDG,44.8,0.0,E,,*11
$GPRMC,200040.8,A,4921.38049,N,12316.41554,W,000.01,006.9,220913,017.3,E,D*22
$GPRMB,A,-34.93,L,,Shil,4741.0830,N,12224.5670,W,106.1,161,-0.01,V*06
$PGRME,2.4,M,2.4,M,3.4,M*29
$HCHDG,44.8,0.0,E,,*11
$HCHDG,44.8,0.0,E,,*11
$YXXDR,A,5.5,D,PTCH,A,2.5,D,ROLL*5A
$GPRMC,200041.0,A,4921.38049,N,12316.41554,W,000.00,006.9,220913,017.3,E,D*2A
$PGRME,2.4,M,2.4,M,3.4,M*29
$HCHDG,44.8,0.0,E,,*11
$HCHDG,44.9,0.0,E,,*10
$GPRMC,200041.2,A,4921.38049,N,12316.41554,W,000.00,006.9,220913,017.3,E,D*28
$HCHDG,44.9,0.0,E,,*10
$PGRME,2.4,M,2.4,M,3.4,M*29
$HCHDG,44.9,0.0,E,,*10
$GPRMC,200041.4,A,4921.38049,N,12316.41554,W,000.01,006.9,220913,017.3,E,D*2F
$HCHDG,45.2,0.0,E,,*1A
$PGRME,2.4,M,2.4,M,3.4,M*29
$YXXDR,A,5.3,D,PTCH,A,2.6,D,ROLL*5F
$HCHDG,45.1,0.0,E,,*19
$PTAK,FFP1,HEEL,@*07
$GPRMC,200041.6,A,4921.38049,N,12316.41554,W,000.00,006.9,220913,017.3,E,D*2C
$PGRME,2.4,M,2.4,M,3.4,M*29
$HCHDG,45.1,0.0,E,,*19
$HCHDG,45.1,0.0,E,,*19
$GPRMC,200041.8,A,4921.38049,N,12316.41554,W,000.01,006.9,220913,017.3,E,D*23
$GPRMB,A,-34.93,L,,Shil,4741.0830,N,12224.5670,W,106.1,161,-0.01,V*06
$PGRME,2.4,M,2.4,M,3.4,M*29
$HCHDG,45.0,0.0,E,,*18
$HCHDG,45.0,0.0,E,,*18
$YXXDR,A,5.3,D,PTCH,A,2.6,D,ROLL*5F
$PTAK,FFD1,2.6*51
$GPRMC,200042.0,A,4921.38049,N,12316.41554,W,000.01,006.9,220913,017.3,E,D*28
$PGRME,2.4,M,2.4,M,3.4,M*29
$HCHDG,45.0,0.0,E,,*18
$HCHDG,45.0,0.0,E,,*18
$GPRMC,200042.2,A,4921.38049,N,12316.41554,W,000.00,006.9,220913,017.3,E,D*2B
$HCHDG,45.0,0.0,E,,*18
$PGRME,2.4,M,2.4,M,3.4,M*29
$HCHDG,45.0,0.0,E,,*18
$GPRMC,200042.4,A,4921.38049,N,12316.41554,W,000.01,006.9,220913,017.3,E,D*2C
$HCHDG,45.0,0.0,E,,*18
$PGRME,2.4,M,2.4,M,3.4,M*29
$YXXDR,A,5.3,D,PTCH,A,2.7,D,ROLL*5E
$HCHDG,45.2,0.0,E,,*1A
$GPRMC,200042.6,A,4921.38049,N,12316.41553,W,000.00,006.9,220913,017.3,E,D*28
$HCHDG,45.2,0.0,E,,*1A
$PGRME,2.4,M,2.4,M,3.4,M*29
$HCHDG,45.2,0.0,E,,*1A
$GPRMC,200042.8,A,4921.38049,N,12316.41553,W,000.01,006.9,220913,017.3,E,D*27
$GPRMB,A,-34.93,L,,Shil,4741.0830,N,12224.5670,W,106.1,161,-0.01,V*06
$HCHDG,45.2,0.0,E,,*1A
$PGRME,2.4,M,2.4,M,3.4,M*29
$HCHDG,45.2,0.0,E,,*1A
$YXXDR,A,5.3,D,PTCH,A,2.6,D,ROLL*5F
$PTAK,FFD1,2.6*51
$GPRMC,200043.0,A,4921.38049,N,12316.41553,W,000.00,006.9,220913,017.3,E,D*2F
$PGRME,2.4,M,2.4,M,3.4,M*29
$HCHDG,45.2,0.0,E,,*1A
$HCHDG,45.2,0.0,E,,*1A
$GPRMC,200043.2,A,4921.38048,N,12316.41553,W,000.00,006.9,220913,017.3,E,D*2C
$PGRME,2.4,M,2.4,M,3.4,M*29
$HCHDG,45.2,0.0,E,,*1A
$HCHDG,45.3,0.0,E,,*1B
$GPRMC,200043.4,A,4921.38048,N,12316.41553,W,000.00,006.9,220913,017.3,E,D*2A
$HCHDG,45.1,0.0,E,,*19
$PGRME,2.4,M,2.4,M,3.4,M*29
$YXXDR,A,5.4,D,PTCH,A,2.9,D,ROLL*57
$HCHDG,45.1,0.0,E,,*19
$GPRMC,200043.6,A,4921.38048,N,12316.41553,W,000.00,006.9,220913,017.3,E,D*28
$PGRME,2.4,M,2.4,M,3.4,M*29
$HCHDG,45.1,0.0,E,,*19
$HCHDG,45.2,0.0,E,,*1A
$GPRMC,200043.8,A,4921.38048,N,12316.41553,W,000.00,006.9,220913,017.3,E,D*26
$GPRMB,A,-34.93,L,,Shil,4741.0830,N,12224.5670,W,106.1,161,-0.00,V*07
$PGRME,2.4,M,2.4,M,3.4,M*29
$HCHDG,45.2,0.0,E,,*1A
$HCHDG,45.2,0.0,E,,*1A
$YXXDR,A,5.5,D,PTCH,A,2.8,D,ROLL*57
$PTAK,FFD1,2.8*5F
$GPRMC,200044.0,A,4921.38048,N,12316.41553,W,000.00,006.9,220913,017.3,E,D*29
$PGRME,2.4,M,2.4,M,3.4,M*29
$PGRMT,GPS 18x-5Hz software ver. 3.20,,,,,,,,*30
$HCHDG,45.2,0.0,E,,*1A
$HCHDG,45.2,0.0,E,,*1A
$GPRMC,200044.2,A,4921.38048,N,12316.41553,W,000.00,006.9,220913,017.3,E,D*2B
$HCHDG,45.2,0.0,E,,*1A
$PGRME,2.4,M,2.4,M,3.4,M*29
$HCHDG,45.2,0.0,E,,*1A
$GPRMC,200044.4,A,4921.38048,N,12316.41553,W,000.00,006.9,220913,017.3,E,D*2D
$PGRME,2.4,M,2.4,M,3.4,M*29
$HCHDG,45.2,0.0,E,,*1A
$YXXDR,A,5.5,D,PTCH,A,2.5,D,ROLL*5A
$HCHDG,45.2,0.0,E,,*1A
$GPRMC,200044.6,A,4921.38048,N,12316.41553,W,000.01,006.9,220913,017.3,E,D*2E
$PGRME,2.4,M,2.4,M,3.4,M*29
$HCHDG,45.2,0.0,E,,*1A
$HCHDG,45.2,0.0,E,,*1A
$GPRMC,200044.8,A,4921.38048,N,12316.41553,W,000.01,006.9,220913,017.3,E,D*20
$GPRMB,A,-34.93,L,,Shil,4741.0830,N,12224.5670,W,106.1,161,-0.01,V*06
$PGRME,2.4,M,2.4,M,3.4,M*29
$HCHDG,45.2,0.0,E,,*1A
$HCHDG,45.2,0.0,E,,*1A
$YXXDR,A,5.5,D,PTCH,A,2.7,D,ROLL*58
$GPRMC,200045.0,A,4921.38048,N,12316.41553,W,000.01,006.9,220913,017.3,E,D*29
$PGRME,2.4,M,2.4,M,3.4,M*29
$HCHDG,45.2,0.0,E,,*1A
$HCHDG,45.3,0.0,E,,*1B
$GPRMC,200045.2,A,4921.38048,N,12316.41553,W,000.00,006.9,220913,017.3,E,D*2A
$PGRME,2.4,M,2.4,M,3.4,M*29
$HCHDG,45.3,0.0,E,,*1B
$HCHDG,45.3,0.0,E,,*1B
$GPRMC,200045.4,A,4921.38048,N,12316.41553,W,000.01,006.9,220913,017.3,E,D*2D
$PGRME,2.4,M,2.4,M,3.4,M*29
$HCHDG,45.3,0.0,E,,*1B
$YXXDR,A,5.4,D,PTCH,A,2.8,D,ROLL*56
$PTAK,FFD1,2.8*5F
$HCHDG,45.3,0.0,E,,*1B
$PTAK,FFP1,HEEL,@*07
$GPRMC,200045.6,A,4921.38048,N,12316.41553,W,000.01,006.9,220913,017.3,E,D*2F
$PGRME,2.4,M,2.4,M,3.4,M*29
$HCHDG,45.3,0.0,E,,*1B
$HCHDG,45.3,0.0,E,,*1B
$GPRMC,200045.8,A,4921.38047,N,12316.41553,W,000.01,006.9,220913,017.3,E,D*2E
$HCHDG,45.3,0.0,E,,*1B
$PGRME,2.4,M,2.4,M,3.4,M*29
$HCHDG,45.3,0.0,E,,*1B
$YXXDR,A,5.4,D,PTCH,A,2.8,D,ROLL*56
$GPRMC,200046.0,A,4921.38047,N,12316.41553,W,000.01,006.9,220913,017.3,E,D*25
$GPRMB,A,-34.93,L,,Shil,4741.0830,N,12224.5670,W,106.1,161,-0.01,V*06
$PGRME,2.4,M,2.4,M,3.4,M*29
$HCHDG,45.3,0.0,E,,*1B
$HCHDG,45.3,0.0,E,,*1B
$GPRMC,200046.2,A,4921.38047,N,12316.41553,W,000.01,006.9,220913,017.3,E,D*27
$PGRME,2.4,M,2.4,M,3.4,M*29
$HCHDG,45.3,0.0,E,,*1B
$HCHDG,45.3,0.0,E,,*1B
$GPRMC,200046.4,A,4921.38048,N,12316.41553,W,000.01,006.9,220913,017.3,E,D*2E
$HCHDG,45.3,0.0,E,,*1B
$PGRME,2.4,M,2.4,M,3.4,M*29
$YXXDR,A,5.3,D,PTCH,A,2.4,D,ROLL*5D
$PTAK,FFD1,2.4*53
$HCHDG,45.2,0.0,E,,*1A
$GPRMC,200046.6,A,4921.38048,N,12316.41553,W,000.01,006.9,220913,017.3,E,D*2C
$HCHDG,45.1,0.0,E,,*19
$PGRME,2.4,M,2.4,M,3.4,M*29
$HCHDG,45.1,0.0,E,,*19
$GPRMC,200046.8,A,4921.38048,N,12316.41553,W,000.01,006.9,220913,017.3,E,D*22
$PGRME,2.4,M,2.4,M,3.4,M*29
$HCHDG,45.1,0.0,E,,*19
$HCHDG,45.1,0.0,E,,*19
$YXXDR,A,5.5,D,PTCH,A,2.8,D,ROLL*57
$GPRMC,200047.0,A,4921.38048,N,12316.41553,W,000.00,006.9,220913,017.3,E,D*2A
$PGRME,2.4,M,2.4,M,3.4,M*29
$HCHDG,45.2,0.0,E,,*1A
$HCHDG,45.2,0.0,E,,*1A
$GPRMC,200047.2,A,4921.38048,N,12316.41553,W,000.01,006.9,220913,017.3,E,D*29
$GPRMB,A,-34.93,L,,Shil,4741.0830,N,12224.5670,W,106.1,161,-0.01,V*06
$HCHDG,45.1,0.0,E,,*19
$PGRME,2.4,M,2.4,M,3.4,M*29
$HCHDG,45.1,0.0,E,,*19
$GPRMC,200047.4,A,4921.38048,N,12316.41553,W,000.01,006.9,220913,017.3,E,D*2F
$PGRME,2.4,M,2.4,M,3.4,M*29
$HCHDG,45.1,0.0,E,,*19
$YXXDR,A,5.4,D,PTCH,A,2.9,D,ROLL*57
$PTAK,FFD1,2.9*5E
$HCHDG,45.1,0.0,E,,*19
$GPRMC,200047.6,A,4921.38048,N,12316.41553,W,000.00,006.9,220913,017.3,E,D*2C
$PGRME,2.4,M,2.4,M,3.4,M*29
$HCHDG,45.1,0.0,E,,*19
$HCHDG,45.1,0.0,E,,*19
$GPRMC,200047.8,A,4921.38048,N,12316.41552,W,000.00,006.9,220913,017.3,E,D*23
$PGRME,2.4,M,2.4,M,3.4,M*29
$HCHDG,45.1,0.0,E,,*19
$HCHDG,45.1,0.0,E,,*19
$YXXDR,A,5.4,D,PTCH,A,2.3,D,ROLL*5D
$GPRMC,200048.0,A,4921.38048,N,12316.41552,W,000.01,006.9,220913,017.3,E,D*25
$PGRME,2.4,M,2.4,M,3.4,M*29
$HCHDG,45.0,0.0,E,,*18
$HCHDG,45.0,0.0,E,,*18
$GPRMC,200048.2,A,4921.38048,N,12316.41552,W,000.01,006.9,220913,017.3,E,D*27
$HCHDG,45.0,0.0,E,,*18
$PGRME,2.4,M,2.4,M,3.4,M*29
$HCHDG,45.0,0.0,E,,*18
$GPRMC,200048.4,A,4921.38048,N,12316.41552,W,000.01,006.9,220913,017.3,E,D*21
$GPRMB,A,-34.93,L,,Shil,4741.0830,N,12224.5670,W,106.1,161,-0.01,V*06
$HCHDG,45.1,0.0,E,,*19
$PGRME,2.4,M,2.4,M,3.4,M*29
$YXXDR,A,5.5,D,PTCH,A,2.3,D,ROLL*5C
$PTAK,FFD1,2.3*54
$HCHDG,45.1,0.0,E,,*19
$GPRMC,200048.6,A,4921.38048,N,12316.41552,W,000.01,006.9,220913,017.3,E,D*23
$PGRME,2.4,M,2.4,M,3.4,M*29
$HCHDG,45.1,0.0,E,,*19
$HCHDG,45.1,0.0,E,,*19
$GPRMC,200048.8,A,4921.38048,N,12316.41552,W,000.01,006.9,220913,017.3,E,D*2D
$PGRME,2.4,M,2.4,M,3.4,M*29
$HCHDG,45.1,0.0,E,,*19
$HCHDG,44.9,0.0,E,,*10
$YXXDR,A,5.3,D,PTCH,A,2.4,D,ROLL*5D
$GPRMC,200049.0,A,4921.38048,N,12316.41552,W,000.00,006.9,220913,017.3,E,D*25
$PGRME,2.4,M,2.4,M,3.4,M*29
$HCHDG,44.9,0.0,E,,*10
$HCHDG,44.9,0.0,E,,*10
$GPRMC,200049.2,A,4921.38048,N,12316.41552,W,000.00,006.9,220913,017.3,E,D*27
$PGRME,2.4,M,2.4,M,3.4,M*29
$HCHDG,44.9,0.0,E,,*10
$HCHDG,44.9,0.0,E,,*10
$GPRMC,200049.4,A,4921.38048,N,12316.41552,W,000.00,006.9,220913,017.3,E,D*21
$PGRME,2.4,M,2.4,M,3.4,M*29
$HCHDG,44.9,0.0,E,,*10
$YXXDR,A,5.3,D,PTCH,A,2.2,D,ROLL*5B
$HCHDG,44.8,0.0,E,,*11
$GPRMC,200049.6,A,4921.38048,N,12316.41551,W,000.00,006.9,220913,017.3,E,D*20
$GPRMB,A,-34.93,L,,Shil,4741.0830,N,12224.5670,W,106.1,161,-0.00,V*07
$PTAK,FFP1,HEEL,@*07
$PGRME,2.4,M,2.4,M,3.4,M*29
$HCHDG,44.8,0.0,E,,*11
$HCHDG,44.8,0.0,E,,*11
$GPRMC,200049.8,A,4921.38048,N,12316.41551,W,000.00,006.9,220913,017.3,E,D*2E
$PGRME,2.4,M,2.4,M,3.4,M*29
$HCHDG,44.8,0.0,E,,*11
$HCHDG,44.7,0.0,E,,*1E
$YXXDR,A,5.4,D,PTCH,A,2.2,D,ROLL*5C
$PTAK,FFD1,2.2*55
$GPRMC,200050.0,A,4921.38048,N,12316.41551,W,000.00,006.9,220913,017.3,E,D*2E
$PGRME,2.4,M,2.4,M,3.4,M*29
$HCHDG,44.7,0.0,E,,*1E
$HCHDG,44.7,0.0,E,,*1E
$GPRMC,200050.2,A,4921.38048,N,12316.41551,W,000.01,006.9,220913,017.3,E,D*2D
$PGRME,2.4,M,2.4,M,3.4,M*29
$HCHDG,44.7,0.0,E,,*1E
$HCHDG,44.7,0.0,E,,*1E
$GPRMC,200050.4,A,4921.38048,N,12316.41551,W,000.00,006.9,220913,017.3,E,D*2A
$PGRME,2.4,M,2.4,M,3.4,M*29
$HCHDG,44.7,0.0,E,,*1E
$YXXDR,A,5.4,D,PTCH,A,2.2,D,ROLL*5C
$HCHDG,44.7,0.0,E,,*1E
$GPRMC,200050.6,A,4921.38048,N,12316.41551,W,000.00,006.9,220913,017.3,E,D*28
$GPRMB,A,-34.93,L,,Shil,4741.0830,N,12224.5670,W,106.1,161,-0.00,V*07
$PGRME,2.4,M,2.4,M,3.4,M*29
$HCHDG,44.7,0.0,E,,*1E
$HCHDG,44.7,0.0,E,,*1E
$GPRMC,200050.8,A,4921.38048,N,12316.41551,W,000.01,006.9,220913,017.3,E,D*27
$PGRME,2.4,M,2.4,M,3.4,M*29
$HCHDG,44.7,0.0,E,,*1E
$HCHDG,44.7,0.0,E,,*1E
$YXXDR,A,5.3,D,PTCH,A,2.4,D,ROLL*5D
$GPRMC,200051.0,A,4921.38048,N,12316.41551,W,000.01,006.9,220913,017.3,E,D*2E
$PGRME,2.4,M,2.4,M,3.4,M*29
$HCHDG,44.7,0.0,E,,*1E
$HCHDG,44.8,0.0,E,,*11
$GPRMC,200051.2,A,4921.38047,N,12316.41551,W,000.01,006.9,220913,017.3,E,D*23
$HCHDG,44.8,0.0,E,,*11
$PGRME,2.4,M,2.4,M,3.4,M*29
$HCHDG,44.8,0.0,E,,*11
$GPRMC,200051.4,A,4921.38047,N,12316.41551,W,000.00,006.9,220913,017.3,E,D*24
$PGRME,2.4,M,2.4,M,3.4,M*29
$HCHDG,44.8,0.0,E,,*11
$YXXDR,A,5.3,D,PTCH,A,2.4,D,ROLL*5D
$PTAK,FFD1,2.4*53
$HCHDG,44.8,0.0,E,,*11
$GPRMC,200051.6,A,4921.38047,N,12316.41551,W,000.00,006.9,220913,017.3,E,D*26
$PGRME,2.4,M,2.4,M,3.4,M*29
$HCHDG,44.8,0.0,E,,*11
$HCHDG,44.9,0.0,E,,*10
$GPRMC,200051.8,A,4921.38047,N,12316.41551,W,000.00,006.9,220913,017.3,E,D*28
$GPRMB,A,-34.93,L,,Shil,4741.0830,N,12224.5670,W,106.1,161,-0.00,V*07
$PGRME,2.4,M,2.4,M,3.4,M*29
$HCHDG,44.9,0.0,E,,*10
$HCHDG,44.9,0.0,E,,*10
$YXXDR,A,5.3,D,PTCH,A,2.4,D,ROLL*5D
$GPRMC,200052.0,A,4921.38047,N,12316.41550,W,000.00,006.9,220913,017.3,E,D*22
$PGRME,2.4,M,2.4,M,3.4,M*29
$HCHDG,44.9,0.0,E,,*10
$HCHDG,44.9,0.0,E,,*10
$GPRMC,200052.2,A,4921.38047,N,12316.41550,W,000.01,006.9,220913,017.3,E,D*21
$PGRME,2.4,M,2.4,M,3.4,M*29
$HCHDG,44.9,0.0,E,,*10
$HCHDG,44.9,0.0,E,,*10
$GPRMC,200052.4,A,4921.38047,N,12316.41550,W,000.00,006.9,220913,017.3,E,D*26
$HCHDG,44.9,0.0,E,,*10
$PGRME,2.4,M,2.4,M,3.4,M*29
$YXXDR,A,5.2,D,PTCH,A,2.3,D,ROLL*5B
$PTAK,FFD1,2.3*54
$HCHDG,44.9,0.0,E,,*10
$GPRMC,200052.6,A,4921.38047,N,12316.41550,W,000.00,006.9,220913,017.3,E,D*24
$PGRME,2.4,M,2.4,M,3.4,M*29
$HCHDG,44.9,0.0,E,,*10
$HCHDG,44.8,0.0,E,,*11
$GPRMC,200052.8,A,4921.38047,N,12316.41550,W,000.00,006.9,220913,017.3,E,D*2A
$PGRME,2.4,M,2.4,M,3.4,M*29
$HCHDG,44.8,0.0,E,,*11
$HCHDG,44.8,0.0,E,,*11
$YXXDR,A,5.4,D,PTCH,A,2.3,D,ROLL*5D
$GPRMC,200053.0,A,4921.38047,N,12316.41550,W,000.00,006.9,220913,017.3,E,D*23
$GPRMB,A,-34.93,L,,Shil,4741.0830,N,12224.5670,W,106.1,161,-0.00,V*07
$PGRME,2.4,M,2.4,M,3.4,M*29
$HCHDG,44.8,0.0,E,,*11
$HCHDG,44.9,0.0,E,,*10
$GPRMC,200053.2,A,4921.38047,N,12316.41550,W,000.01,006.9,220913,017.3,E,D*20
$PGRME,2.4,M,2.4,M,3.4,M*29
$HCHDG,44.9,0.0,E,,*10
$HCHDG,44.9,0.0,E,,*10
$GPRMC,200053.4,A,4921.38047,N,12316.41550,W,000.00,006.9,220913,017.3,E,D*27
$PGRME,2.4,M,2.4,M,3.4,M*29
$HCHDG,45.0,0.0,E,,*18
$YXXDR,A,5.4,D,PTCH,A,2.4,D,ROLL*5A
$PTAK,FFD1,2.4*53
$HCHDG,45.0,0.0,E,,*18
$GPRMC,200053.6,A,4921.38047,N,12316.41550,W,000.01,006.9,220913,017.3,E,D*24
$PTAK,FFP1,HEEL,@*07
$PGRME,2.4,M,2.4,M,3.4,M*29
$HCHDG,45.1,0.0,E,,*19
$HCHDG,45.1,0.0,E,,*19
$GPRMC,200053.8,A,4921.38047,N,12316.41550,W,000.00,006.9,220913,017.3,E,D*2B
$PGRME,2.4,M,2.4,M,3.4,M*29
$HCHDG,45.1,0.0,E,,*19
$HCHDG,45.1,0.0,E,,*19
$YXXDR,A,5.4,D,PTCH,A,2.3,D,ROLL*5D
$GPRMC,200054.0,A,4921.38047,N,12316.41550,W,000.01,006.9,220913,017.3,E,D*25
$PGRME,2.4,M,2.4,M,3.4,M*29
$HCHDG,45.1,0.0,E,,*19
$HCHDG,45.1,0.0,E,,*19
$GPRMC,200054.2,A,4921.38047,N,12316.41550,W,000.01,006.9,220913,017.3,E,D*27
$GPRMB,A,-34.93,L,,Shil,4741.0830,N,12224.5670,W,106.1,161,-0.01,V*06
$PGRME,2.4,M,2.4,M,3.4,M*29
$HCHDG,45.1,0.0,E,,*19
$HCHDG,45.2,0.0,E,,*1A
$GPRMC,200054.4,A,4921.38047,N,12316.41550,W,000.00,006.9,220913,017.3,E,D*20
$HCHDG,45.2,0.0,E,,*1A
$PGRME,2.4,M,2.4,M,3.4,M*29
$YXXDR,A,5.2,D,PTCH,A,2.3,D,ROLL*5B
$PTAK,FFD1,2.3*54
$HCHDG,45.1,0.0,E,,*19
$GPRMC,200054.6,A,4921.38047,N,12316.41550,W,000.01,006.9,220913,017.3,E,D*23
$PGRME,2.4,M,2.4,M,3.4,M*29
$HCHDG,45.1,0.0,E,,*19
$HCHDG,45.1,0.0,E,,*19
$GPRMC,200054.8,A,4921.38047,N,12316.41550,W,000.01,006.9,220913,017.3,E,D*2D
$PGRME,2.4,M,2.4,M,3.4,M*29
$HCHDG,45.1,0.0,E,,*19
$HCHDG,45.1,0.0,E,,*19
$YXXDR,A,5.3,D,PTCH,A,2.4,D,ROLL*5D
$GPRMC,200055.0,A,4921.38047,N,12316.41550,W,000.01,006.9,220913,017.3,E,D*24
$PGRME,2.4,M,2.4,M,3.4,M*29
$HCHDG,45.2,0.0,E,,*1A
$HCHDG,45.2,0.0,E,,*1A
$GPRMC,200055.2,A,4921.38047,N,12316.41550,W,000.01,006.9,220913,017.3,E,D*26
$PGRME,2.4,M,2.4,M,3.4,M*29
$HCHDG,45.2,0.0,E,,*1A
$HCHDG,45.2,0.0,E,,*1A
$GPRMC,200055.4,A,4921.38047,N,12316.41550,W,000.00,006.9,220913,017.3,E,D*21
$GPRMB,A,-34.93,L,,Shil,4741.0830,N,12224.5670,W,106.1,161,-0.00,V*07
$HCHDG,45.2,0.0,E,,*1A
$PGRME,2.4,M,2.4,M,3.4,M*29
$YXXDR,A,5.2,D,PTCH,A,2.3,D,ROLL*5B
$PTAK,FFD1,2.3*54
$HCHDG,45.2,0.0,E,,*1A
$GPRMC,200055.6,A,4921.38047,N,12316.41550,W,000.00,006.9,220913,017.3,E,D*23
$PGRME,2.4,M,2.4,M,3.4,M*29
$HCHDG,45.2,0.0,E,,*1A
$HCHDG,45.2,0.0,E,,*1A
$GPRMC,200055.8,A,4921.38047,N,12316.41550,W,000.01,006.9,220913,017.3,E,D*2C
$PGRME,2.4,M,2.4,M,3.4,M*29
$HCHDG,45.2,0.0,E,,*1A
$HCHDG,45.2,0.0,E,,*1A
$YXXDR,A,5.3,D,PTCH,A,2.4,D,ROLL*5D
$GPRMC,200056.0,A,4921.38047,N,12316.41549,W,000.00,006.9,220913,017.3,E,D*2E
$PGRME,2.4,M,2.4,M,3.4,M*29
$HCHDG,45.2,0.0,E,,*1A
$HCHDG,45.2,0.0,E,,*1A
$GPRMC,200056.2,A,4921.38047,N,12316.41549,W,000.01,006.9,220913,017.3,E,D*2D
$PGRME,2.4,M,2.4,M,3.4,M*29
$HCHDG,45.4,0.0,E,,*1C
$HCHDG,45.4,0.0,E,,*1C
$GPRMC,200056.4,A,4921.38046,N,12316.41549,W,000.00,006.9,220913,017.3,E,D*2B
$HCHDG,45.3,0.0,E,,*1B
$PGRME,2.4,M,2.4,M,3.4,M*29
$YXXDR,A,5.3,D,PTCH,A,2.7,D,ROLL*5E
$HCHDG,45.3,0.0,E,,*1B
$GPRMC,200056.6,A,4921.38046,N,12316.41549,W,000.00,006.9,220913,017.3,E,D*29
$GPRMB,A,-34.93,L,,Shil,4741.0830,N,12224.5670,W,106.1,161,-0.00,V*07
$PGRME,2.4,M,2.4,M,3.4,M*29
$HCHDG,45.3,0.0,E,,*1B
$HCHDG,45.2,0.0,E,,*1A
$GPRMC,200056.8,A,4921.38046,N,12316.41549,W,000.01,006.9,220913,017.3,E,D*26
$PGRME,2.4,M,2.4,M,3.4,M*29
$HCHDG,45.3,0.0,E,,*1B
$HCHDG,45.3,0.0,E,,*1B
$YXXDR,A,5.5,D,PTCH,A,2.1,D,ROLL*5E
$PTAK,FFD1,2.1*56
$GPRMC,200057.0,A,4921.38046,N,12316.41549,W,000.01,006.9,220913,017.3,E,D*2F
$PGRME,2.4,M,2.4,M,3.4,M*29
$HCHDG,45.3,0.0,E,,*1B
$HCHDG,45.3,0.0,E,,*1B
$GPRMC,200057.2,A,4921.38046,N,12316.41549,W,000.00,006.9,220913,017.3,E,D*2C
$HCHDG,45.2,0.0,E,,*1A
$PGRME,2.4,M,2.4,M,3.4,M*29
$HCHDG,45.2,0.0,E,,*1A
$GPRMC,200057.4,A,4921.38046,N,12316.41549,W,000.00,006.9,220913,017.3,E,D*2A
$HCHDG,45.3,0.0,E,,*1B
$PGRME,2.4,M,2.4,M,3.4,M*29
$YXXDR,A,5.1,D,PTCH,A,2.2,D,ROLL*59
$HCHDG,45.3,0.0,E,,*1B
$GPRMC,200057.6,A,4921.38046,N,12316.41549,W,000.01,006.9,220913,017.3,E,D*29
$PGRME,2.4,M,2.4,M,3.4,M*29
$HCHDG,45.4,0.0,E,,*1C
$PTAK,FFP1,HEEL,@*07
$HCHDG,45.4,0.0,E,,*1C
$GPRMC,200057.8,A,4921.38046,N,12316.41549,W,000.00,006.9,220913,017.3,E,D*26
$GPRMB,A,-34.93,L,,Shil,4741.0830,N,12224.5670,W,106.1,161,-0.00,V*07
$PGRME,2.4,M,2.4,M,3.4,M*29
$HCHDG,45.3,0.0,E,,*1B
$HCHDG,45.3,0.0,E,,*1B
$YXXDR,A,5.1,D,PTCH,A,2.2,D,ROLL*59
$PTAK,FFD1,2.2*55
$GPRMC,200058.0,A,4921.38046,N,12316.41548,W,000.01,006.9,220913,017.3,E,D*21
$PGRME,2.4,M,2.4,M,3.4,M*29
$HCHDG,45.3,0.0,E,,*1B
$HCHDG,45.3,0.0,E,,*1B
$GPRMC,200058.2,A,4921.38046,N,12316.41548,W,000.01,006.9,220913,017.3,E,D*23
$PGRME,2.4,M,2.4,M,3.4,M*29
$HCHDG,45.3,0.0,E,,*1B
$HCHDG,45.1,0.0,E,,*19
$GPRMC,200058.4,A,4921.38046,N,12316.41548,W,000.01,006.9,220913,017.3,E,D*25
$HCHDG,45.1,0.0,E,,*19
$PGRME,2.4,M,2.4,M,3.4,M*29
$YXXDR,A,5.2,D,PTCH,A,2.1,D,ROLL*59
$HCHDG,45.1,0.0,E,,*19
$GPRMC,200058.6,A,4921.38046,N,12316.41548,W,000.00,006.9,220913,017.3,E,D*26
$PGRME,2.4,M,2.4,M,3.4,M*29
$HCHDG,45.1,0.0,E,,*19
$HCHDG,45.1,0.0,E,,*19
$GPRMC,200058.8,A,4921.38046,N,12316.41548,W,000.01,006.9,220913,017.3,E,D*29
$PGRME,2.4,M,2.4,M,3.4,M*29
$HCHDG,45.0,0.0,E,,*18
$HCHDG,45.1,0.0,E,,*19
$YXXDR,A,5.2,D,PTCH,A,2.3,D,ROLL*5B
$GPRMC,200059.0,A,4921.38046,N,12316.41547,W,000.01,006.9,220913,017.3,E,D*2F
$GPRMB,A,-34.93,L,,Shil,4741.0830,N,12224.5670,W,106.1,161,-0.01,V*06
$PGRME,2.4,M,2.4,M,3.4,M*29
$HCHDG,45.1,0.0,E,,*19
$HCHDG,45.1,0.0,E,,*19
$GPRMC,200059.2,A,4921.38046,N,12316.41547,W,000.00,006.9,220913,017.3,E,D*2C
$PGRME,2.4,M,2.4,M,3.4,M*29
$HCHDG,45.1,0.0,E,,*19
$HCHDG,45.0,0.0,E,,*18
$GPRMC,200059.4,A,4921.38046,N,12316.41547,W,000.01,006.9,220913,017.3,E,D*2B
$HCHDG,45.1,0.0,E,,*19
$PGRME,2.4,M,2.4,M,3.4,M*29
$YXXDR,A,5.3,D,PTCH,A,2.4,D,ROLL*5D
$PTAK,FFD1,2.4*53
$HCHDG,45.1,0.0,E,,*19
$GPRMC,200059.6,A,4921.38046,N,12316.41547,W,000.00,006.9,220913,017.3,E,D*28
$PGRME,2.4,M,2.4,M,3.4,M*29
$HCHDG,45.1,0.0,E,,*19
$HCHDG,45.1,0.0,E,,*19
$GPRMC,200059.8,A,4921.38046,N,12316.41547,W,000.00,006.9,220913,017.3,E,D*26
$PGRME,2.4,M,2.4,M,3.4,M*29
$HCHDG,45.1,0.0,E,,*19
$HCHDG,45.1,0.0,E,,*19
$YXXDR,A,5.4,D,PTCH,A,2.2,D,ROLL*5C
$GPRMC,200100.0,A,4921.38046,N,12316.41547,W,000.00,006.9,220913,017.3,E,D*23
$PGRME,2.4,M,2.4,M,3.4,M*29
$HCHDG,45.0,0.0,E,,*18
$HCHDG,45.0,0.0,E,,*18
$GPRMC,200100.2,A,4921.38046,N,12316.41547,W,000.01,006.9,220913,017.3,E,D*20
$GPRMB,A,-34.93,L,,Shil,4741.0830,N,12224.5670,W,106.1,161,-0.01,V*06
$PGRME,2.4,M,2.4,M,3.4,M*29
$HCHDG,45.0,0.0,E,,*18
$HCHDG,45.2,0.0,E,,*1A
$GPRMC,200100.4,A,4921.38046,N,12316.41546,W,000.00,006.9,220913,017.3,E,D*26
$HCHDG,45.3,0.0,E,,*1B
$PGRME,2.4,M,2.4,M,3.4,M*29
$YXXDR,A,5.2,D,PTCH,A,2.3,D,ROLL*5B
$PTAK,FFD1,2.3*54
$HCHDG,45.3,0.0,E,,*1B
$GPRMC,200100.6,A,4921.38046,N,12316.41546,W,000.00,006.9,220913,017.3,E,D*24
$HCHDG,45.3,0.0,E,,*1B
$PGRME,2.4,M,2.4,M,3.4,M*29
$HCHDG,45.1,0.0,E,,*19
$GPRMC,200100.8,A,4921.38046,N,12316.41546,W,000.00,006.9,220913,017.3,E,D*2A
$PGRME,2.4,M,2.4,M,3.4,M*29
$HCHDG,45.1,0.0,E,,*19
$HCHDG,45.1,0.0,E,,*19
$YXXDR,A,5.3,D,PTCH,A,2.2,D,ROLL*5B
$GPRMC,200101.0,A,4921.38046,N,12316.41546,W,000.00,006.9,220913,017.3,E,D*23
$PGRME,2.4,M,2.4,M,3.4,M*29
$HCHDG,45.1,0.0,E,,*19
$HCHDG,45.0,0.0,E,,*18
$GPRMC,200101.2,A,4921.38046,N,12316.41546,W,000.00,006.9,220913,017.3,E,D*21
$PGRME,2.4,M,2.4,M,3.4,M*29
$HCHDG,45.0,0.0,E,,*18
$HCHDG,45.0,0.0,E,,*18
$GPRMC,200101.4,A,4921.38046,N,12316.41546,W,000.01,006.9,220913,017.3,E,D*26
$GPRMB,A,-34.93,L,,Shil,4741.0830,N,12224.5670,W,106.1,161,-0.01,V*06
$PGRME,2.4,M,2.4,M,3.4,M*29
$HCHDG,45.0,0.0,E,,*18
$YXXDR,A,5.2,D,PTCH,A,2.1,D,ROLL*59
$PTAK,FFD1,2.1*56
$HCHDG,44.9,0.0,E,,*10
$GPRMC,200101.6,A,4921.38046,N,12316.41546,W,000.01,006.9,220913,017.3,E,D*24
$PGRME,2.4,M,2.4,M,3.4,M*29
$HCHDG,44.9,0.0,E,,*10
$PTAK,FFP1,HEEL,@*07
$HCHDG,44.9,0.0,E,,*10
$GPRMC,200101.8,A,4921.38046,N,12316.41546,W,000.00,006.9,220913,017.3,E,D*2B
$PGRME,2.4,M,2.4,M,3.4,M*29
$HCHDG,44.9,0.0,E,,*10
$HCHDG,45.0,0.0,E,,*18
$YXXDR,A,5.3,D,PTCH,A,2.6,D,ROLL*5F
$GPRMC,200102.0,A,4921.38046,N,12316.41546,W,000.00,006.9,220913,017.3,E,D*20
$PGRME,2.4,M,2.4,M,3.4,M*29
$HCHDG,45.0,0.0,E,,*18
$HCHDG,45.0,0.0,E,,*18
$GPRMC,200102.2,A,4921.38046,N,12316.41546,W,000.00,006.9,220913,017.3,E,D*22
$PGRME,2.4,M,2.4,M,3.4,M*29
$HCHDG,45.0,0.0,E,,*18
$HCHDG,45.0,0.0,E,,*18
$GPRMC,200102.4,A,4921.38046,N,12316.41546,W,000.00,006.9,220913,017.3,E,D*24
$PGRME,2.4,M,2.4,M,3.4,M*29
$HCHDG,45.0,0.0,E,,*18
$YXXDR,A,5.4,D,PTCH,A,2.2,D,ROLL*5C
$HCHDG,44.9,0.0,E,,*10
$GPRMC,200102.6,A,4921.38046,N,12316.41546,W,000.00,006.9,220913,017.3,E,D*26
$GPRMB,A,-34.93,L,,Shil,4741.0830,N,12224.5670,W,106.1,161,-0.00,V*07
$PGRME,2.4,M,2.4,M,3.4,M*29
$HCHDG,45.0,0.0,E,,*18
$HCHDG,44.8,0.0,E,,*11
$GPRMC,200102.8,A,4921.38046,N,12316.41546,W,000.01,006.9,220913,017.3,E,D*29
$PGRME,2.4,M,2.4,M,3.4,M*29
$HCHDG,44.8,0.0,E,,*11
$HCHDG,44.8,0.0,E,,*11
$YXXDR,A,5.4,D,PTCH,A,2.2,D,ROLL*5C
$PTAK,FFD1,2.2*55
$GPRMC,200103.0,A,4921.38046,N,12316.41546,W,000.00,006.9,220913,017.3,E,D*21
$PGRME,2.4,M,2.4,M,3.4,M*29
$HCHDG,44.8,0.0,E,,*11
$HCHDG,44.8,0.0,E,,*11
$GPRMC,200103.2,A,4921.38046,N,12316.41546,W,000.00,006.9,220913,017.3,E,D*23
$PGRME,2.4,M,2.4,M,3.4,M*29
$HCHDG,44.8,0.0,E,,*11
$HCHDG,44.8,0.0,E,,*11
$GPRMC,200103.4,A,4921.38046,N,12316.41546,W,000.00,006.9,220913,017.3,E,D*25
$PGRME,2.4,M,2.4,M,3.4,M*29
$HCHDG,44.8,0.0,E,,*11
$YXXDR,A,5.4,D,PTCH,A,2.2,D,ROLL*5C
$HCHDG,44.8,0.0,E,,*11
$GPRMC,200103.6,A,4921.38046,N,12316.41546,W,000.00,006.9,220913,017.3,E,D*27
$PGRME,2.4,M,2.4,M,3.4,M*29
$HCHDG,44.8,0.0,E,,*11
$HCHDG,44.8,0.0,E,,*11
$GPRMC,200103.8,A,4921.38046,N,12316.41546,W,000.01,006.9,220913,017.3,E,D*28
$GPRMB,A,-34.93,L,,Shil,4741.0830,N,12224.5670,W,106.1,161,-0.01,V*06
$PGRME,2.4,M,2.4,M,3.4,M*29
$HCHDG,44.8,0.0,E,,*11
$HCHDG,44.8,0.0,E,,*11
$YXXDR,A,5.4,D,PTCH,A,2.0,D,ROLL*5E
$PTAK,FFD1,2.0*57
$GPRMC,200104.0,A,4921.38046,N,12316.41546,W,000.01,006.9,220913,017.3,E,D*27
$PGRME,2.4,M,2.4,M,3.4,M*29
