$GPRMB,A,2.35,L,,Oh,4814.8080,N,12233.9900,W,30.5,184,1.71,V*1D
$PGRME,3.4,M,5.1,M,6.1,M*2A
$HCHDG,239.5,0.0,E,,*24
$PTAK,FFP1,HEEL,@*07
$HCHDG,239.6,0.0,E,,*27
$GPRMC,162725.8,A,4845.21416,N,12230.47067,W,005.88,258.1,010913,016.9,E,A*28
$GPRMB,A,2.35,L,,Oh,4814.8080,N,12233.9900,W,30.5,184,1.65,V*18
$PGRME,3.3,M,4.9,M,6.0,M*25
$HCHDG,239.7,0.0,E,,*26
$HCHDG,239.9,0.0,E,,*28
$GPRMC,162726.0,A,4845.21408,N,12230.47121,W,005.96,256.4,010913,016.9,E,A*2B
$PGRME,3.3,M,4.8,M,5.8,M*2F
$HCHDG,239.9,0.0,E,,*28
$YXXDR,A,6.9,D,PTCH,A,2.3,D,ROLL*53
$PTAK,FFD1,2.3*54
$HCHDG,239.7,0.0,E,,*26
$HCHDG,239.6,0.0,E,,*27
$GPRMC,162726.2,A,4845.21371,N,12230.47119,W,005.92,256.8,010913,016.9,E,A*23
$PGRME,3.2,M,4.6,M,5.6,M*2E
$HCHDG,239.4,0.0,E,,*25
$GPRMC,162726.4,A,4845.21343,N,12230.47149,W,006.01,256.6,010913,016.9,E,A*26
$HCHDG,239.2,0.0,E,,*23
$PGRME,3.1,M,4.5,M,5.4,M*2C
$HCHDG,239.4,0.0,E,,*25
$YXXDR,A,6.8,D,PTCH,A,2.8,D,ROLL*59
$GPRMC,162726.6,A,4845.21325,N,12230.47179,W,006.01,256.9,010913,016.9,E,A*28
$PGRME,3.1,M,4.3,M,5.3,M*2D
$HCHDG,239.6,0.0,E,,*27
$HCHDG,239.5,0.0,E,,*24
$GPRMC,162726.8,A,4845.21306,N,12230.47204,W,005.95,256.8,010913,016.9,E,A*21
$PGRME,3.0,M,4.2,M,5.2,M*2C
$HCHDG,239.5,0.0,E,,*24
$HCHDG,239.8,0.0,E,,*29
$GPRMC,162727.0,A,4845.21290,N,12230.47236,W,006.06,258.0,010913,016.9,E,A*28
$HCHDG,239.4,0.0,E,,*25
$PGRME,3.0,M,4.1,M,5.1,M*2C
$YXXDR,A,6.5,D,PTCH,A,2.3,D,ROLL*5F
$HCHDG,239.7,0.0,E,,*26
$GPRMC,162727.2,A,4845.21275,N,12230.47262,W,005.95,256.9,010913,016.9,E,A*2E
$HCHDG,239.6,0.0,E,,*27
$PGRME,3.0,M,3.9,M,5.0,M*22
$HCHDG,239.7,0.0,E,,*26
$GPRMC,162727.4,A,4845.21266,N,12230.47308,W,006.00,256.0,010913,016.9,E,A*21
$HCHDG,239.7,0.0,E,,*26
$PGRME,3.0,M,3.8,M,4.9,M*2B
$HCHDG,239.3,0.0,E,,*22
$YXXDR,A,6.3,D,PTCH,A,2.7,D,ROLL*5D
$GPRMC,162727.6,A,4845.21254,N,12230.47354,W,005.94,257.4,010913,016.9,E,A*20
$PGRME,3.0,M,3.7,M,4.8,M*25
$HCHDG,239.1,0.0,E,,*20
$HCHDG,239.1,0.0,E,,*20
$GPRMC,162727.8,A,4845.21240,N,12230.47407,W,005.95,256.7,010913,016.9,E,A*29
$HCHDG,238.6,0.0,E,,*26
$PGRME,3.0,M,3.6,M,4.8,M*24
$HCHDG,239.0,0.0,E,,*21
$GPRMC,162728.0,A,4845.21220,N,12230.47437,W,006.05,255.3,010913,016.9,E,A*26
$PGRME,3.0,M,3.6,M,4.7,M*2B
$HCHDG,238.8,0.0,E,,*28
$YXXDR,A,6.1,D,PTCH,A,2.9,D,ROLL*51
$HCHDG,238.8,0.0,E,,*28
$GPRMC,162728.2,A,4845.21211,N,12230.47483,W,006.01,257.5,010913,016.9,E,A*29
$PGRME,3.0,M,3.5,M,4.6,M*29
$HCHDG,238.9,0.0,E,,*29
$HCHDG,238.9,0.0,E,,*29
$GPRMC,162728.4,A,4845.21198,N,12230.47528,W,005.95,257.1,010913,016.9,E,A*27
$PGRME,3.0,M,3.4,M,4.6,M*28
$HCHDG,238.7,0.0,E,,*27
$HCHDG,238.8,0.0,E,,*28
$YXXDR,A,6.0,D,PTCH,A,2.6,D,ROLL*5F
$GPRMC,162728.6,A,4845.21190,N,12230.47573,W,005.89,255.2,010913,016.9,E,A*2F
$GPRMB,A,2.34,L,,Oh,4814.8080,N,12233.9900,W,30.5,184,1.94,V*17
$PGRME,3.0,M,3.3,M,4.5,M*2C
$HCHDG,238.6,0.0,E,,*26
$HCHDG,238.8,0.0,E,,*28
$GPRMC,162728.8,A,4845.21175,N,12230.47611,W,006.06,256.8,010913,016.9,E,A*20
$HCHDG,238.8,0.0,E,,*28
$PGRME,3.0,M,3.2,M,4.5,M*2D
$HCHDG,238.7,0.0,E,,*27
$GPRMC,162729.0,A,4845.21159,N,12230.47640,W,006.03,255.6,010913,016.9,E,A*2B
$HCHDG,238.6,0.0,E,,*26
$PGRME,3.0,M,3.2,M,4.4,M*2C
$YXXDR,A,6.3,D,PTCH,A,3.4,D,ROLL*5F
$PTAK,FFD1,3.4*52
$HCHDG,238.6,0.0,E,,*26
$GPRMC,162729.2,A,4845.21144,N,12230.47675,W,005.94,254.8,010913,016.9,E,A*21
$HCHDG,238.4,0.0,E,,*24
$PGRME,3.0,M,3.1,M,4.4,M*2F
$HCHDG,238.3,0.0,E,,*23
$GPRMC,162729.4,A,4845.21126,N,12230.47721,W,006.00,254.6,010913,016.9,E,A*23
$PGRME,3.0,M,3.1,M,4.3,M*28
$HCHDG,238.4,0.0,E,,*24
$HCHDG,238.4,0.0,E,,*24
$YXXDR,A,6.0,D,PTCH,A,3.5,D,ROLL*5D
$GPRMC,162729.6,A,4845.21107,N,12230.47768,W,006.00,254.9,010913,016.9,E,A*20
$PGRME,3.0,M,3.0,M,4.3,M*29
$HCHDG,238.7,0.0,E,,*27
$HCHDG,238.7,0.0,E,,*27
$GPRMC,162729.8,A,4845.21089,N,12230.47807,W,006.04,256.3,010913,016.9,E,A*23
$GPRMB,A,2.34,L,,Oh,4814.8080,N,12233.9900,W,30.5,184,1.88,V*1A
$HCHDG,238.6,0.0,E,,*26
$PGRME,3.0,M,3.0,M,4.3,M*29
$HCHDG,238.7,0.0,E,,*27
$GPRMC,162730.0,A,4845.21073,N,12230.47846,W,006.01,254.5,010913,016.9,E,A*22
$HCHDG,238.8,0.0,E,,*28
$PGRME,3.0,M,3.0,M,4.3,M*29
$YXXDR,A,6.6,D,PTCH,A,3.8,D,ROLL*56
$HCHDG,239.0,0.0,E,,*21
$GPRMC,162730.2,A,4845.21062,N,12230.47888,W,005.94,255.2,010913,016.9,E,A*2B
$PGRME,3.0,M,3.0,M,4.3,M*29
$HCHDG,239.1,0.0,E,,*20
$HCHDG,239.0,0.0,E,,*21
$GPRMC,162730.4,A,4845.21058,N,12230.47942,W,006.12,255.4,010913,016.9,E,A*28
$HCHDG,239.2,0.0,E,,*23
$PGRME,3.0,M,3.0,M,4.3,M*29
$HCHDG,238.9,0.0,E,,*29
$YXXDR,A,6.3,D,PTCH,A,4.1,D,ROLL*5D
$PTAK,FFD1,4.1*50
$GPRMC,162730.6,A,4845.21053,N,12230.47998,W,005.97,255.0,010913,016.9,E,A*2C
$PGRME,3.0,M,3.0,M,4.3,M*29
$HCHDG,238.7,0.0,E,,*27
$HCHDG,238.8,0.0,E,,*28
$GPRMC,162730.8,A,4845.21048,N,12230.48042,W,005.94,255.1,010913,016.9,E,A*2B
$HCHDG,238.9,0.0,E,,*29
$PGRME,3.0,M,3.0,M,4.3,M*29
$HCHDG,238.7,0.0,E,,*27
$GPRMC,162731.0,A,4845.21048,N,12230.48088,W,005.97,254.4,010913,016.9,E,A*23
$GPRMB,A,2.34,L,,Oh,4814.8080,N,12233.9900,W,30.5,184,2.04,V*1D
$HCHDG,238.7,0.0,E,,*27
$PGRME,3.0,M,3.0,M,4.3,M*29
$YXXDR,A,6.1,D,PTCH,A,4.6,D,ROLL*58
$HCHDG,238.6,0.0,E,,*26
$GPRMC,162731.2,A,4845.21040,N,12230.48136,W,006.08,255.0,010913,016.9,E,A*2D
$HCHDG,239.1,0.0,E,,*20
$PGRME,3.0,M,3.0,M,4.3,M*29
$HCHDG,239.1,0.0,E,,*20
$GPRMC,162731.4,A,4845.21032,N,12230.48194,W,005.94,255.8,010913,016.9,E,A*28
$HCHDG,239.1,0.0,E,,*20
$PTAK,FFP1,HEEL,@*07
$PGRME,3.0,M,3.0,M,4.3,M*29
$HCHDG,239.1,0.0,E,,*20
$YXXDR,A,6.2,D,PTCH,A,4.6,D,ROLL*5B
$PTAK,FFD1,4.6*57
$GPRMC,162731.6,A,4845.21020,N,12230.48247,W,005.97,254.7,010913,016.9,E,A*29
$PGRME,3.0,M,3.0,M,4.3,M*29
$HCHDG,239.2,0.0,E,,*23
$HCHDG,239.2,0.0,E,,*23
$GPRMC,162731.8,A,4845.21007,N,12230.48283,W,005.98,255.2,010913,016.9,E,A*21
$PGRME,3.0,M,3.0,M,4.3,M*29
$HCHDG,239.2,0.0,E,,*23
$HCHDG,239.3,0.0,E,,*22
$GPRMC,162732.0,A,4845.20995,N,12230.48324,W,005.97,255.1,010913,016.9,E,A*29
$GPRMB,A,2.34,L,,Oh,4814.8080,N,12233.9900,W,30.5,184,1.97,V*14
$PGRME,3.0,M,3.0,M,4.3,M*29
$HCHDG,239.3,0.0,E,,*22
$YXXDR,A,6.3,D,PTCH,A,5.0,D,ROLL*5D
$HCHDG,239.4,0.0,E,,*25
$GPRMC,162732.2,A,4845.20982,N,12230.48368,W,006.17,254.9,010913,016.9,E,A*27
$HCHDG,239.2,0.0,E,,*23
$PGRME,3.0,M,3.0,M,4.3,M*29
$HCHDG,239.3,0.0,E,,*22
$GPRMC,162732.4,A,4845.20972,N,12230.48411,W,006.04,254.7,010913,016.9,E,A*2B
$PGRME,3.0,M,3.0,M,4.3,M*29
$HCHDG,239.5,0.0,E,,*24
$HCHDG,239.5,0.0,E,,*24
$YXXDR,A,6.4,D,PTCH,A,4.5,D,ROLL*5E
$PTAK,FFD1,4.5*54
$GPRMC,162732.6,A,4845.20962,N,12230.48455,W,005.95,255.0,010913,016.9,E,A*25
$PGRME,3.0,M,3.0,M,4.3,M*29
$HCHDG,239.6,0.0,E,,*27
$HCHDG,239.5,0.0,E,,*24
$GPRMC,162732.8,A,4845.20950,N,12230.48484,W,005.89,256.4,010913,016.9,E,A*2C
$HCHDG,239.6,0.0,E,,*27
$PGRME,3.0,M,3.0,M,4.3,M*29
$HCHDG,239.6,0.0,E,,*27
$GPRMC,162733.0,A,4845.20941,N,12230.48527,W,006.04,255.4,010913,016.9,E,A*28
$HCHDG,240.0,0.0,E,,*2F
$PGRME,3.0,M,3.0,M,4.3,M*29
$YXXDR,A,6.4,D,PTCH,A,4.8,D,ROLL*53
$HCHDG,239.9,0.0,E,,*28
$GPRMC,162733.2,A,4845.20934,N,12230.48579,W,005.92,256.5,010913,016.9,E,A*2D
$GPRMB,A,2.34,L,,Oh,4814.8080,N,12233.9900,W,30.5,184,1.82,V*10
$HCHDG,240.0,0.0,E,,*2F
$PGRME,3.0,M,3.0,M,4.3,M*29
$HCHDG,240.1,0.0,E,,*2E
$GPRMC,162733.4,A,4845.20929,N,12230.48631,W,006.08,255.6,010913,016.9,E,A*28
$HCHDG,240.1,0.0,E,,*2E
$PGRME,3.0,M,3.0,M,4.3,M*29
$HCHDG,240.2,0.0,E,,*2D
$YXXDR,A,6.8,D,PTCH,A,5.1,D,ROLL*57
$GPRMC,162733.6,A,4845.20920,N,12230.48666,W,005.99,256.5,010913,016.9,E,A*2A
$PGRME,3.0,M,3.0,M,4.3,M*29
$HCHDG,240.2,0.0,E,,*2D
$HCHDG,240.4,0.0,E,,*2B
$GPRMC,162733.8,A,4845.20911,N,12230.48691,W,005.95,256.5,010913,016.9,E,A*22
$HCHDG,240.3,0.0,E,,*2C
$PGRME,3.0,M,3.0,M,4.3,M*29
$HCHDG,240.5,0.0,E,,*2A
$GPRMC,162734.0,A,4845.20900,N,12230.48731,W,005.98,256.7,010913,016.9,E,A*29
$PGRME,3.0,M,3.0,M,4.3,M*29
$HCHDG,240.6,0.0,E,,*29
$YXXDR,A,5.9,D,PTCH,A,5.6,D,ROLL*52
$PTAK,FFD1,5.6*56
$HCHDG,240.6,0.0,E,,*29
$GPRMC,162734.2,A,4845.20889,N,12230.48777,W,006.04,257.0,010913,016.9,E,A*29
$GPRMB,A,2.33,L,,Oh,4814.8080,N,12233.9900,W,30.5,184,1.80,V*15
$PGRME,3.0,M,3.0,M,4.3,M*29
$HCHDG,240.6,0.0,E,,*29
$HCHDG,240.7,0.0,E,,*28
$GPRMC,162734.4,A,4845.20883,N,12230.48821,W,006.04,255.9,010913,016.9,E,A*22
$HCHDG,240.9,0.0,E,,*26
$PGRME,3.0,M,3.0,M,4.3,M*29
$HCHDG,240.9,0.0,E,,*26
$YXXDR,A,6.3,D,PTCH,A,6.3,D,ROLL*5D
$GPRMC,162734.6,A,4845.20874,N,12230.48871,W,005.95,256.3,010913,016.9,E,A*2F
$PGRME,3.0,M,3.0,M,4.3,M*29
$HCHDG,240.9,0.0,E,,*26
$HCHDG,241.2,0.0,E,,*2C
$GPRMC,162734.8,A,4845.20869,N,12230.48911,W,005.95,257.5,010913,016.9,E,A*2D
$HCHDG,241.3,0.0,E,,*2D
$PGRME,3.0,M,3.0,M,4.3,M*29
$HCHDG,241.4,0.0,E,,*2A
$GPRMC,162735.0,A,4845.20867,N,12230.48957,W,006.02,258.1,010913,016.9,E,A*2E
$HCHDG,241.5,0.0,E,,*2B
$PGRME,3.0,M,3.0,M,4.3,M*29
$YXXDR,A,6.2,D,PTCH,A,6.4,D,ROLL*5B
$PTAK,FFD1,6.4*57
$HCHDG,241.3,0.0,E,,*2D
$GPRMC,162735.2,A,4845.20856,N,12230.49002,W,006.07,257.7,010913,016.9,E,A*2A
$PGRME,3.0,M,3.0,M,4.3,M*29
$HCHDG,241.5,0.0,E,,*2B
$HCHDG,241.5,0.0,E,,*2B
$GPRMC,162735.4,A,4845.20850,N,12230.49053,W,006.00,257.8,010913,016.9,E,A*26
$GPRMB,A,2.33,L,,Oh,4814.8080,N,12233.9900,W,30.5,184,1.71,V*1B
$PGRME,3.0,M,3.0,M,4.3,M*29
$HCHDG,241.8,0.0,E,,*26
$PTAK,FFP1,HEEL,@*07
$HCHDG,241.7,0.0,E,,*29
$YXXDR,A,6.2,D,PTCH,A,6.7,D,ROLL*58
$GPRMC,162735.6,A,4845.20838,N,12230.49092,W,006.10,258.2,010913,016.9,E,A*23
$PGRME,3.0,M,3.0,M,4.3,M*29
$HCHDG,241.7,0.0,E,,*29
$HCHDG,241.7,0.0,E,,*29
$GPRMC,162735.8,A,4845.20829,N,12230.49141,W,005.89,257.9,010913,016.9,E,A*25
$HCHDG,241.4,0.0,E,,*2A
$PGRME,3.0,M,3.0,M,4.3,M*29
$HCHDG,241.3,0.0,E,,*2D
$GPRMC,162736.0,A,4845.20816,N,12230.49188,W,006.05,258.2,010913,016.9,E,A*24
$PGRME,3.0,M,3.0,M,4.3,M*29
$HCHDG,241.7,0.0,E,,*29
$YXXDR,A,7.0,D,PTCH,A,7.0,D,ROLL*5D
$PTAK,FFD1,7.0*52
$HCHDG,241.6,0.0,E,,*28
$GPRMC,162736.2,A,4845.20802,N,12230.49235,W,006.04,257.7,010913,016.9,E,A*2D
$HCHDG,241.6,0.0,E,,*28
$PGRME,3.0,M,3.0,M,4.3,M*29
$HCHDG,241.3,0.0,E,,*2D
$GPRMC,162736.4,A,4845.20799,N,12230.49276,W,006.07,258.8,010913,016.9,E,A*22
$HCHDG,241.4,0.0,E,,*2A
$PGRME,3.0,M,3.0,M,4.3,M*29
$HCHDG,241.3,0.0,E,,*2D
$YXXDR,A,6.0,D,PTCH,A,6.6,D,ROLL*5B
$GPRMC,162736.6,A,4845.20794,N,12230.49312,W,006.01,257.6,010913,016.9,E,A*29
$GPRMB,A,2.33,L,,Oh,4814.8080,N,12233.9900,W,30.5,184,1.74,V*1E
$PGRME,3.0,M,3.0,M,4.3,M*29
$HCHDG,241.4,0.0,E,,*2A
$HCHDG,241.4,0.0,E,,*2A
$GPRMC,162736.8,A,4845.20786,N,12230.49353,W,006.01,257.4,010913,016.9,E,A*23
$HCHDG,241.6,0.0,E,,*28
$PGRME,3.0,M,3.0,M,4.3,M*29
$HCHDG,241.4,0.0,E,,*2A
$GPRMC,162737.0,A,4845.20781,N,12230.49405,W,006.04,258.1,010913,016.9,E,A*26
$HCHDG,241.3,0.0,E,,*2D
$PGRME,3.0,M,3.0,M,4.3,M*29
$YXXDR,A,6.7,D,PTCH,A,6.5,D,ROLL*5F
$HCHDG,241.3,0.0,E,,*2D
$GPRMC,162737.2,A,4845.20773,N,12230.49460,W,006.13,259.0,010913,016.9,E,A*2C
$HCHDG,241.6,0.0,E,,*28
$PGRME,3.0,M,3.0,M,4.3,M*29
$HCHDG,241.7,0.0,E,,*29
$GPRMC,162737.4,A,4845.20765,N,12230.49516,W,006.05,257.6,010913,016.9,E,A*22
$HCHDG,241.7,0.0,E,,*29
$PGRME,3.0,M,3.0,M,4.3,M*29
$HCHDG,241.3,0.0,E,,*2D
$YXXDR,A,6.5,D,PTCH,A,6.0,D,ROLL*58
$PTAK,FFD1,6.0*53
$GPRMC,162737.6,A,4845.20758,N,12230.49573,W,006.03,258.7,010913,016.9,E,A*25
$GPRMB,A,2.33,L,,Oh,4814.8080,N,12233.9900,W,30.5,184,1.63,V*18
$PGRME,3.0,M,3.0,M,4.3,M*29
$HCHDG,241.2,0.0,E,,*2C
$HCHDG,241.2,0.0,E,,*2C
$GPRMC,162737.8,A,4845.20750,N,12230.49629,W,006.10,256.2,010913,016.9,E,A*26
$PGRME,3.0,M,3.0,M,4.3,M*29
$HCHDG,241.2,0.0,E,,*2C
$HCHDG,241.3,0.0,E,,*2D
$GPRMC,162738.0,A,4845.20743,N,12230.49691,W,006.09,258.3,010913,016.9,E,A*27
$PGRME,3.0,M,3.0,M,4.3,M*29
$HCHDG,241.3,0.0,E,,*2D
$YXXDR,A,6.5,D,PTCH,A,6.3,D,ROLL*5B
$HCHDG,241.0,0.0,E,,*2E
$GPRMC,162738.2,A,4845.20735,N,12230.49742,W,006.01,258.3,010913,016.9,E,A*23
$HCHDG,240.9,0.0,E,,*26
$PGRME,3.0,M,3.0,M,4.3,M*29
$HCHDG,240.7,0.0,E,,*28
$GPRMC,162738.4,A,4845.20729,N,12230.49799,W,005.99,258.2,010913,016.9,E,A*2D
$PGRME,3.0,M,3.0,M,4.3,M*29
$HCHDG,240.7,0.0,E,,*28
$HCHDG,240.6,0.0,E,,*29
$YXXDR,A,6.1,D,PTCH,A,6.4,D,ROLL*58
$GPRMC,162738.6,A,4845.20722,N,12230.49848,W,006.01,257.0,010913,016.9,E,A*28
$PGRME,3.0,M,3.0,M,4.3,M*29
$HCHDG,240.6,0.0,E,,*29
$HCHDG,240.6,0.0,E,,*29
$GPRMC,162738.8,A,4845.20711,N,12230.49890,W,006.05,257.3,010913,016.9,E,A*24
$GPRMB,A,2.33,L,,Oh,4814.8080,N,12233.9900,W,30.5,184,1.78,V*12
$HCHDG,240.7,0.0,E,,*28
$PGRME,3.0,M,3.0,M,4.3,M*29
$HCHDG,240.8,0.0,E,,*27
$GPRMC,162739.0,A,4845.20703,N,12230.49929,W,006.13,256.6,010913,016.9,E,A*2E
$PGRME,3.0,M,3.0,M,4.3,M*29
$HCHDG,240.8,0.0,E,,*27
$YXXDR,A,6.5,D,PTCH,A,7.1,D,ROLL*58
$PTAK,FFD1,7.1*53
$HCHDG,240.6,0.0,E,,*29
$GPRMC,162739.2,A,4845.20695,N,12230.49970,W,006.06,257.3,010913,016.9,E,A*2E
$HCHDG,240.7,0.0,E,,*28
$PGRME,3.0,M,3.0,M,4.3,M*29
$HCHDG,240.6,0.0,E,,*29
$GPRMC,162739.4,A,4845.20688,N,12230.50002,W,005.99,256.8,010913,016.9,E,A*2F
$HCHDG,240.5,0.0,E,,*2A
$PGRME,3.0,M,3.0,M,4.3,M*29
$HCHDG,240.6,0.0,E,,*29
$YXXDR,A,6.1,D,PTCH,A,7.6,D,ROLL*5B
$GPRMC,162739.6,A,4845.20681,N,12230.50048,W,005.89,257.6,010913,016.9,E,A*24
$PTAK,FFP1,HEEL,@*07
$PGRME,3.0,M,3.0,M,4.3,M*29
$HCHDG,240.4,0.0,E,,*2B
$HCHDG,240.6,0.0,E,,*29
$GPRMC,162739.8,A,4845.20674,N,12230.50095,W,006.07,257.5,010913,016.9,E,A*26
$HCHDG,240.8,0.0,E,,*27
$PGRME,3.0,M,3.0,M,4.3,M*29
$HCHDG,240.8,0.0,E,,*27
$GPRMC,162740.0,A,4845.20663,N,12230.50135,W,006.03,256.4,010913,016.9,E,A*29
$GPRMB,A,2.32,L,,Oh,4814.8080,N,12233.9900,W,30.5,184,1.86,V*12
$PGRME,3.0,M,3.0,M,4.3,M*29
$HCHDG,240.8,0.0,E,,*27
$YXXDR,A,6.4,D,PTCH,A,8.0,D,ROLL*57
$PTAK,FFD1,8.0*5D
$HCHDG,240.8,0.0,E,,*27
$GPRMC,162740.2,A,4845.20656,N,12230.50180,W,005.99,256.8,010913,016.9,E,A*2F
$PGRME,3.0,M,3.0,M,4.3,M*29
$HCHDG,240.6,0.0,E,,*29
$HCHDG,240.8,0.0,E,,*27
$GPRMC,162740.4,A,4845.20643,N,12230.50209,W,006.09,256.9,010913,016.9,E,A*24
$HCHDG,240.9,0.0,E,,*26
$PGRME,3.0,M,3.0,M,4.3,M*29
$HCHDG,240.9,0.0,E,,*26
$YXXDR,A,6.5,D,PTCH,A,7.8,D,ROLL*51
$GPRMC,162740.6,A,4845.20637,N,12230.50245,W,005.98,257.2,010913,016.9,E,A*2C
$PGRME,3.0,M,3.0,M,4.3,M*29
$HCHDG,240.8,0.0,E,,*27
$HCHDG,240.8,0.0,E,,*27
$GPRMC,162740.8,A,4845.20632,N,12230.50290,W,006.08,256.8,010913,016.9,E,A*2E
$HCHDG,240.7,0.0,E,,*28
$PGRME,3.0,M,3.0,M,4.3,M*29
$HCHDG,240.4,0.0,E,,*2B
$GPRMC,162741.0,A,4845.20623,N,12230.50352,W,006.03,257.7,010913,016.9,E,A*2D
$HCHDG,240.7,0.0,E,,*28
$PGRME,3.0,M,3.0,M,4.3,M*29
$YXXDR,A,5.9,D,PTCH,A,7.4,D,ROLL*52
$HCHDG,240.8,0.0,E,,*27
$GPRMC,162741.2,A,4845.20619,N,12230.50403,W,006.00,255.6,010913,016.9,E,A*25
$GPRMB,A,2.32,L,,Oh,4814.8080,N,12233.9900,W,30.5,184,1.93,V*16
$HCHDG,241.0,0.0,E,,*2E
$PGRME,3.0,M,3.0,M,4.3,M*29
$HCHDG,240.9,0.0,E,,*26
$GPRMC,162741.4,A,4845.20610,N,12230.50446,W,006.05,258.0,010913,016.9,E,A*25
$HCHDG,240.8,0.0,E,,*27
$PGRME,3.0,M,3.0,M,4.3,M*29
$HCHDG,240.8,0.0,E,,*27
$YXXDR,A,6.4,D,PTCH,A,7.2,D,ROLL*5A
$PTAK,FFD1,7.2*50
$GPRMC,162741.6,A,4845.20601,N,12230.50495,W,006.01,256.6,010913,016.9,E,A*25
$PGRME,3.0,M,3.0,M,4.3,M*29
$HCHDG,240.9,0.0,E,,*26
$HCHDG,241.1,0.0,E,,*2F
$GPRMC,162741.8,A,4845.20589,N,12230.50554,W,006.05,256.2,010913,016.9,E,A*24
$HCHDG,241.0,0.0,E,,*2E
$PGRME,3.0,M,3.0,M,4.3,M*29
$HCHDG,240.7,0.0,E,,*28
$GPRMC,162742.0,A,4845.20574,N,12230.50607,W,006.07,256.8,010913,016.9,E,A*20
$HCHDG,240.8,0.0,E,,*27
$PGRME,3.0,M,3.0,M,4.3,M*29
$YXXDR,A,6.3,D,PTCH,A,7.0,D,ROLL*5F
$HCHDG,240.6,0.0,E,,*29
$GPRMC,162742.2,A,4845.20564,N,12230.50659,W,005.94,257.5,010913,016.9,E,A*2D
$GPRMB,A,2.32,L,,Oh,4814.8080,N,12233.9900,W,30.5,184,1.72,V*19
$PGRME,3.0,M,3.0,M,4.3,M*29
$HCHDG,240.6,0.0,E,,*29
$HCHDG,240.5,0.0,E,,*2A
$GPRMC,162742.4,A,4845.20554,N,12230.50707,W,006.16,256.8,010913,016.9,E,A*27
$HCHDG,240.9,0.0,E,,*26
$PGRME,3.0,M,3.0,M,4.3,M*29
$HCHDG,240.9,0.0,E,,*26
$YXXDR,A,6.6,D,PTCH,A,6.1,D,ROLL*5A
$GPRMC,162742.6,A,4845.20545,N,12230.50761,W,006.01,256.2,010913,016.9,E,A*29
$PGRME,3.0,M,3.0,M,4.3,M*29
$HCHDG,240.9,0.0,E,,*26
$HCHDG,240.7,0.0,E,,*28
$GPRMC,162742.8,A,4845.20538,N,12230.50812,W,005.99,256.3,010913,016.9,E,A*25
$HCHDG,240.6,0.0,E,,*29
$PGRME,3.0,M,3.0,M,4.3,M*29
$HCHDG,240.6,0.0,E,,*29
$GPRMC,162743.0,A,4845.20530,N,12230.50860,W,005.99,256.7,010913,016.9,E,A*25
$HCHDG,240.6,0.0,E,,*29
$PGRME,3.0,M,3.0,M,4.3,M*29
$YXXDR,A,6.2,D,PTCH,A,5.9,D,ROLL*55
$PTAK,FFD1,5.9*59
$HCHDG,240.8,0.0,E,,*27
$GPRMC,162743.2,A,4845.20519,N,12230.50905,W,006.03,256.9,010913,016.9,E,A*20
$PGRME,3.0,M,3.0,M,4.3,M*29
$HCHDG,240.9,0.0,E,,*26
$HCHDG,240.9,0.0,E,,*26
$GPRMC,162743.4,A,4845.20511,N,12230.50949,W,006.12,256.5,010913,016.9,E,A*2A
$GPRMB,A,2.32,L,,Oh,4814.8080,N,12233.9900,W,30.5,184,1.88,V*1C
$PGRME,3.0,M,3.0,M,4.3,M*29
$HCHDG,240.9,0.0,E,,*26
$HCHDG,240.7,0.0,E,,*28
$YXXDR,A,5.8,D,PTCH,A,5.3,D,ROLL*56
$PTAK,FFP1,HEEL,@*07
$GPRMC,162743.6,A,4845.20504,N,12230.51000,W,006.04,257.4,010913,016.9,E,A*2E
$PGRME,3.0,M,3.0,M,4.3,M*29
$HCHDG,240.5,0.0,E,,*2A
$HCHDG,240.6,0.0,E,,*29
$GPRMC,162743.8,A,4845.20500,N,12230.51061,W,006.05,257.5,010913,016.9,E,A*23
$PGRME,3.0,M,3.0,M,4.3,M*29
$HCHDG,240.6,0.0,E,,*29
$HCHDG,240.9,0.0,E,,*26
$GPRMC,162744.0,A,4845.20496,N,12230.51108,W,006.03,256.7,010913,016.9,E,A*29
$HCHDG,241.1,0.0,E,,*2F
$PGRME,3.0,M,3.0,M,4.3,M*29
$PGRMT,GPS 18x-5Hz software ver. 3.20,,,,,,,,*30
$YXXDR,A,6.7,D,PTCH,A,5.4,D,ROLL*5D
$PTAK,FFD1,5.4*54
$HCHDG,241.0,0.0,E,,*2E
$GPRMC,162744.2,A,4845.20493,N,12230.51152,W,006.06,257.2,010913,016.9,E,A*20
$HCHDG,241.0,0.0,E,,*2E
$PGRME,3.0,M,3.0,M,4.3,M*29
$HCHDG,240.5,0.0,E,,*2A
$GPRMC,162744.4,A,4845.20486,N,12230.51210,W,006.04,258.3,010913,016.9,E,A*2B
$HCHDG,240.4,0.0,E,,*2B
$PGRME,3.0,M,3.0,M,4.3,M*29
$HCHDG,240.2,0.0,E,,*2D
$YXXDR,A,5.4,D,PTCH,A,5.4,D,ROLL*5D
$GPRMC,162744.6,A,4845.20477,N,12230.51271,W,006.01,256.0,010913,016.9,E,A*28
$GPRMB,A,2.32,L,,Oh,4814.8080,N,12233.9900,W,30.5,184,1.89,V*1D
$PGRME,3.0,M,3.0,M,4.3,M*29
$HCHDG,240.1,0.0,E,,*2E
$HCHDG,240.1,0.0,E,,*2E
$GPRMC,162744.8,A,4845.20469,N,12230.51329,W,006.05,256.7,010913,016.9,E,A*26
$PGRME,3.0,M,3.0,M,4.3,M*29
$HCHDG,240.2,0.0,E,,*2D
$HCHDG,240.3,0.0,E,,*2C
$GPRMC,162745.0,A,4845.20464,N,12230.51379,W,006.06,257.7,010913,016.9,E,A*25
$PGRME,3.0,M,3.0,M,4.3,M*29
$HCHDG,240.6,0.0,E,,*29
$YXXDR,A,6.8,D,PTCH,A,5.8,D,ROLL*5E
$HCHDG,240.5,0.0,E,,*2A
$GPRMC,162745.2,A,4845.20461,N,12230.51434,W,006.00,256.9,010913,016.9,E,A*25
$PGRME,3.0,M,3.0,M,4.3,M*29
$HCHDG,240.3,0.0,E,,*2C
$HCHDG,240.1,0.0,E,,*2E
$GPRMC,162745.4,A,4845.20449,N,12230.51490,W,006.03,256.7,010913,016.9,E,A*2A
$PGRME,3.0,M,3.0,M,4.3,M*29
$HCHDG,240.0,0.0,E,,*2F
$HCHDG,239.9,0.0,E,,*28
$YXXDR,A,5.9,D,PTCH,A,6.0,D,ROLL*57
$PTAK,FFD1,6.0*53
$GPRMC,162745.6,A,4845.20443,N,12230.51549,W,006.01,257.1,010913,016.9,E,A*22
$GPRMB,A,2.32,L,,Oh,4814.8080,N,12233.9900,W,30.5,184,1.78,V*13
$PGRME,3.0,M,3.0,M,4.3,M*29
$HCHDG,240.0,0.0,E,,*2F
$HCHDG,240.0,0.0,E,,*2F
$GPRMC,162745.8,A,4845.20434,N,12230.51603,W,006.10,257.0,010913,016.9,E,A*20
$HCHDG,240.1,0.0,E,,*2E
$PGRME,3.0,M,3.0,M,4.3,M*29
$HCHDG,239.8,0.0,E,,*29
$GPRMC,162746.0,A,4845.20427,N,12230.51649,W,006.00,257.0,010913,016.9,E,A*26
$HCHDG,239.6,0.0,E,,*27
$PGRME,3.0,M,3.0,M,4.3,M*29
$YXXDR,A,5.6,D,PTCH,A,6.0,D,ROLL*58
$HCHDG,239.6,0.0,E,,*27
$GPRMC,162746.2,A,4845.20420,N,12230.51696,W,005.92,257.2,010913,016.9,E,A*2B
$HCHDG,239.8,0.0,E,,*29
$PGRME,3.0,M,3.0,M,4.3,M*29
$HCHDG,239.7,0.0,E,,*26
$GPRMC,162746.4,A,4845.20410,N,12230.51751,W,005.93,256.0,010913,016.9,E,A*26
$HCHDG,240.0,0.0,E,,*2F
$PGRME,3.0,M,3.0,M,4.3,M*29
$HCHDG,239.5,0.0,E,,*24
$YXXDR,A,6.3,D,PTCH,A,6.3,D,ROLL*5D
$PTAK,FFD1,6.3*50
$GPRMC,162746.6,A,4845.20402,N,12230.51799,W,006.04,257.7,010913,016.9,E,A*28
$PGRME,3.0,M,3.0,M,4.3,M*29
$HCHDG,239.5,0.0,E,,*24
$HCHDG,239.4,0.0,E,,*25
$GPRMC,162746.8,A,4845.20399,N,12230.51852,W,005.93,256.3,010913,016.9,E,A*23
$GPRMB,A,2.31,L,,Oh,4814.8080,N,12233.9900,W,30.5,184,1.84,V*13
$HCHDG,239.3,0.0,E,,*22
$PGRME,3.0,M,3.0,M,4.3,M*29
$HCHDG,239.2,0.0,E,,*23
$GPRMC,162747.0,A,4845.20394,N,12230.51893,W,006.02,257.7,010913,016.9,E,A*24
$HCHDG,239.4,0.0,E,,*25
$PGRME,3.0,M,3.0,M,4.3,M*29
$YXXDR,A,5.9,D,PTCH,A,6.4,D,ROLL*53
$HCHDG,239.3,0.0,E,,*22
$GPRMC,162747.2,A,4845.20385,N,12230.51935,W,005.98,255.6,010913,016.9,E,A*28
$HCHDG,239.2,0.0,E,,*23
$PGRME,3.0,M,3.0,M,4.3,M*29
$HCHDG,239.2,0.0,E,,*23
$GPRMC,162747.4,A,4845.20377,N,12230.51985,W,006.07,256.2,010913,016.9,E,A*2A
$HCHDG,239.1,0.0,E,,*20
$PGRME,3.0,M,3.0,M,4.3,M*29
$HCHDG,239.2,0.0,E,,*23
$YXXDR,A,6.4,D,PTCH,A,6.9,D,ROLL*50
$GPRMC,162747.6,A,4845.20371,N,12230.52043,W,006.13,258.2,010913,016.9,E,A*25
$PTAK,FFP1,HEEL,@*07
$PGRME,3.0,M,3.0,M,4.3,M*29
$HCHDG,239.0,0.0,E,,*21
$HCHDG,239.3,0.0,E,,*22
$GPRMC,162747.8,A,4845.20358,N,12230.52104,W,005.96,255.0,010913,016.9,E,A*23
$GPRMB,A,2.31,L,,Oh,4814.8080,N,12233.9900,W,30.5,184,1.97,V*11
$HCHDG,239.1,0.0,E,,*20
$PGRME,3.0,M,3.0,M,4.3,M*29
$HCHDG,238.9,0.0,E,,*29
$GPRMC,162748.0,A,4845.20348,N,12230.52152,W,006.01,255.6,010913,016.9,E,A*2D
$HCHDG,238.8,0.0,E,,*28
$PGRME,3.0,M,3.0,M,4.3,M*29
$YXXDR,A,5.9,D,PTCH,A,6.7,D,ROLL*50
$PTAK,FFD1,6.7*54
$HCHDG,238.5,0.0,E,,*25
$GPRMC,162748.2,A,4845.20342,N,12230.52209,W,006.12,254.8,010913,016.9,E,A*25
$HCHDG,238.4,0.0,E,,*24
$PGRME,3.0,M,3.0,M,4.3,M*29
$HCHDG,238.4,0.0,E,,*24
$GPRMC,162748.4,A,4845.20337,N,12230.52266,W,005.93,257.1,010913,016.9,E,A*28
$HCHDG,238.4,0.0,E,,*24
$PGRME,3.0,M,3.0,M,4.3,M*29
$HCHDG,238.7,0.0,E,,*27
$YXXDR,A,6.4,D,PTCH,A,6.9,D,ROLL*50
$GPRMC,162748.6,A,4845.20325,N,12230.52321,W,006.06,255.1,010913,016.9,E,A*26
$PGRME,3.0,M,3.0,M,4.3,M*29
$HCHDG,238.6,0.0,E,,*26
$HCHDG,238.6,0.0,E,,*26
$GPRMC,162748.8,A,4845.20309,N,12230.52364,W,006.07,255.5,010913,016.9,E,A*22
$HCHDG,238.2,0.0,E,,*22
$PGRME,3.0,M,3.0,M,4.3,M*29
$HCHDG,237.9,0.0,E,,*26
$GPRMC,162749.0,A,4845.20295,N,12230.52399,W,006.06,255.0,010913,016.9,E,A*29
$GPRMB,A,2.31,L,,Oh,4814.8080,N,12233.9900,W,30.5,184,2.01,V*1D
$HCHDG,237.5,0.0,E,,*2A
$PGRME,3.0,M,3.0,M,4.3,M*29
$YXXDR,A,5.2,D,PTCH,A,6.8,D,ROLL*54
$PTAK,FFD1,6.8*5B
$HCHDG,237.4,0.0,E,,*2B
$GPRMC,162749.2,A,4845.20279,N,12230.52439,W,006.00,254.7,010913,016.9,E,A*24
$HCHDG,237.4,0.0,E,,*2B
$PGRME,3.0,M,3.0,M,4.3,M*29
$HCHDG,237.3,0.0,E,,*2C
$GPRMC,162749.4,A,4845.20267,N,12230.52491,W,006.07,254.7,010913,016.9,E,A*28
$HCHDG,237.4,0.0,E,,*2B
$PGRME,3.0,M,3.0,M,4.3,M*29
$HCHDG,237.6,0.0,E,,*29
$YXXDR,A,6.5,D,PTCH,A,6.3,D,ROLL*5B
$GPRMC,162749.6,A,4845.20257,N,12230.52545,W,006.02,254.1,010913,016.9,E,A*22
$PGRME,3.0,M,3.0,M,4.3,M*29
$HCHDG,237.5,0.0,E,,*2A
$HCHDG,237.2,0.0,E,,*2D
$GPRMC,162749.8,A,4845.20247,N,12230.52596,W,005.89,253.1,010913,016.9,E,A*24
$HCHDG,236.8,0.0,E,,*26
$PGRME,3.0,M,3.0,M,4.3,M*29
$HCHDG,236.8,0.0,E,,*26
$GPRMC,162750.0,A,4845.20235,N,12230.52645,W,006.01,253.4,010913,016.9,E,A*2A
$HCHDG,236.7,0.0,E,,*29
$PGRME,3.0,M,3.0,M,4.3,M*29
$YXXDR,A,5.3,D,PTCH,A,6.0,D,ROLL*5D
$HCHDG,236.9,0.0,E,,*27
$HCHDG,237.0,0.0,E,,*2F
$GPRMC,162750.2,A,4845.20229,N,12230.52685,W,006.04,254.0,010913,016.9,E,A*2F
$GPRMB,A,2.31,L,,Oh,4814.8080,N,12233.9900,W,30.5,184,2.10,V*1D
$PGRME,3.0,M,3.0,M,4.3,M*29
$HCHDG,237.0,0.0,E,,*2F
$GPRMC,162750.4,A,4845.20220,N,12230.52724,W,005.89,253.6,010913,016.9,E,A*2D
$HCHDG,237.3,0.0,E,,*2C
$PGRME,3.0,M,3.0,M,4.3,M*29
$HCHDG,237.1,0.0,E,,*2E
$YXXDR,A,6.3,D,PTCH,A,5.5,D,ROLL*58
$PTAK,FFD1,5.5*55
$GPRMC,162750.6,A,4845.20205,N,12230.52757,W,005.87,252.2,010913,016.9,E,A*27
$PGRME,3.0,M,3.0,M,4.3,M*29
$HCHDG,237.1,0.0,E,,*2E
$HCHDG,236.9,0.0,E,,*27
$GPRMC,162750.8,A,4845.20188,N,12230.52771,W,006.11,254.9,010913,016.9,E,A*2A
$HCHDG,236.7,0.0,E,,*29
$PGRME,3.0,M,3.0,M,4.3,M*29
$HCHDG,236.7,0.0,E,,*29
$GPRMC,162751.0,A,4845.20174,N,12230.52802,W,006.09,253.0,010913,016.9,E,A*2C
$HCHDG,237.0,0.0,E,,*2F
$PGRME,3.0,M,3.0,M,4.3,M*29
$YXXDR,A,6.1,D,PTCH,A,4.6,D,ROLL*58
$HCHDG,237.4,0.0,E,,*2B
$GPRMC,162751.2,A,4845.20160,N,12230.52836,W,006.02,254.0,010913,016.9,E,A*20
$HCHDG,237.6,0.0,E,,*29
$PGRME,3.0,M,3.0,M,4.3,M*29
$HCHDG,237.8,0.0,E,,*27
$HCHDG,237.7,0.0,E,,*28
$GPRMC,162751.4,A,4845.20148,N,12230.52882,W,006.02,253.9,010913,016.9,E,A*2D
$GPRMB,A,2.31,L,,Oh,4814.8080,N,12233.9900,W,30.5,184,2.10,V*1D
$PGRME,3.0,M,3.0,M,4.3,M*29
$HCHDG,237.7,0.0,E,,*28
$YXXDR,A,5.8,D,PTCH,A,4.5,D,ROLL*51
$PTAK,FFD1,4.5*54
$PTAK,FFP1,HEEL,@*07
$GPRMC,162751.6,A,4845.20138,N,12230.52931,W,006.03,254.6,010913,016.9,E,A*28
$PGRME,3.0,M,3.0,M,4.3,M*29
$HCHDG,237.5,0.0,E,,*2A
$HCHDG,237.3,0.0,E,,*2C
$GPRMC,162751.8,A,4845.20131,N,12230.52967,W,005.98,254.1,010913,016.9,E,A*2A
$HCHDG,237.2,0.0,E,,*2D
$PGRME,3.0,M,3.0,M,4.3,M*29
$HCHDG,237.3,0.0,E,,*2C
$GPRMC,162752.0,A,4845.20120,N,12230.53010,W,005.97,253.7,010913,016.9,E,A*27
$HCHDG,237.6,0.0,E,,*29
$PGRME,3.0,M,3.0,M,4.3,M*29
$YXXDR,A,5.6,D,PTCH,A,4.1,D,ROLL*5B
$HCHDG,237.8,0.0,E,,*27
$GPRMC,162752.2,A,4845.20105,N,12230.53052,W,005.96,254.0,010913,016.9,E,A*25
$HCHDG,237.8,0.0,E,,*27
$PGRME,3.0,M,3.0,M,4.3,M*29
$HCHDG,237.8,0.0,E,,*27
$GPRMC,162752.4,A,4845.20094,N,12230.53091,W,005.95,253.2,010913,016.9,E,A*23
$HCHDG,237.9,0.0,E,,*26
$PGRME,3.0,M,3.0,M,4.3,M*29
$HCHDG,237.7,0.0,E,,*28
$YXXDR,A,5.4,D,PTCH,A,4.4,D,ROLL*5C
$GPRMC,162752.6,A,4845.20084,N,12230.53140,W,005.95,255.2,010913,016.9,E,A*2B
$GPRMB,A,2.30,L,,Oh,4814.8080,N,12233.9900,W,30.5,184,1.95,V*12
$PGRME,3.0,M,3.0,M,4.3,M*29
$HCHDG,237.9,0.0,E,,*26
$HCHDG,237.9,0.0,E,,*26
$GPRMC,162752.8,A,4845.20072,N,12230.53177,W,005.99,256.4,010913,016.9,E,A*21
$HCHDG,238.0,0.0,E,,*20
$PGRME,3.0,M,3.0,M,4.3,M*29
$HCHDG,238.4,0.0,E,,*24
$GPRMC,162753.0,A,4845.20065,N,12230.53227,W,006.02,255.6,010913,016.9,E,A*28
$HCHDG,238.6,0.0,E,,*26
$PGRME,3.0,M,3.0,M,4.3,M*29
$YXXDR,A,6.0,D,PTCH,A,4.4,D,ROLL*5B
$PTAK,FFD1,4.4*55
$HCHDG,238.6,0.0,E,,*26
$GPRMC,162753.2,A,4845.20056,N,12230.53282,W,006.03,254.4,010913,016.9,E,A*27
$HCHDG,238.7,0.0,E,,*27
$PGRME,3.0,M,3.0,M,4.3,M*29
$HCHDG,238.9,0.0,E,,*29
$GPRMC,162753.4,A,4845.20046,N,12230.53318,W,006.03,255.5,010913,016.9,E,A*22
$HCHDG,238.9,0.0,E,,*29
$PGRME,3.0,M,3.0,M,4.3,M*29
$HCHDG,238.5,0.0,E,,*25
$YXXDR,A,5.9,D,PTCH,A,5.3,D,ROLL*57
$GPRMC,162753.6,A,4845.20033,N,12230.53358,W,006.07,256.0,010913,016.9,E,A*24
$PGRME,3.0,M,3.0,M,4.3,M*29
$HCHDG,238.6,0.0,E,,*26
$HCHDG,238.4,0.0,E,,*24
$GPRMC,162753.8,A,4845.20029,N,12230.53406,W,006.06,255.7,010913,016.9,E,A*28
$GPRMB,A,2.30,L,,Oh,4814.8080,N,12233.9900,W,30.5,184,1.94,V*13
$HCHDG,238.1,0.0,E,,*21
$PGRME,3.0,M,3.0,M,4.3,M*29
$HCHDG,237.8,0.0,E,,*27
$GPRMC,162754.0,A,4845.20021,N,12230.53456,W,006.06,254.8,010913,016.9,E,A*24
$HCHDG,237.4,0.0,E,,*2B
$PGRME,3.0,M,3.0,M,4.3,M*29
$YXXDR,A,4.7,D,PTCH,A,5.5,D,ROLL*5E
$HCHDG,237.2,0.0,E,,*2D
$GPRMC,162754.2,A,4845.20014,N,12230.53502,W,006.06,253.8,010913,016.9,E,A*27
$HCHDG,237.1,0.0,E,,*2E
$PGRME,3.0,M,3.0,M,4.3,M*29
$HCHDG,237.1,0.0,E,,*2E
$GPRMC,162754.4,A,4845.20011,N,12230.53553,W,006.06,255.6,010913,016.9,E,A*28
$HCHDG,237.2,0.0,E,,*2D
$PGRME,3.0,M,3.0,M,4.3,M*29
$HCHDG,237.2,0.0,E,,*2D
$YXXDR,A,6.0,D,PTCH,A,6.6,D,ROLL*5B
$PTAK,FFD1,6.6*55
$GPRMC,162754.6,A,4845.20003,N,12230.53607,W,006.08,255.4,010913,016.9,E,A*27
$PGRME,3.0,M,3.0,M,4.3,M*29
$HCHDG,237.4,0.0,E,,*2B
$HCHDG,237.4,0.0,E,,*2B
$GPRMC,162754.8,A,4845.19998,N,12230.53656,W,006.10,254.0,010913,016.9,E,A*20
$HCHDG,238.0,0.0,E,,*20
$PGRME,3.0,M,3.0,M,4.3,M*29
$HCHDG,238.0,0.0,E,,*20
$GPRMC,162755.0,A,4845.19995,N,12230.53707,W,006.10,253.9,010913,016.9,E,A*2F
$GPRMB,A,2.30,L,,Oh,4814.8080,N,12233.9900,W,30.5,184,2.13,V*1F
$HCHDG,238.2,0.0,E,,*22
$PGRME,3.0,M,3.0,M,4.3,M*29
$YXXDR,A,7.3,D,PTCH,A,6.6,D,ROLL*59
$HCHDG,238.0,0.0,E,,*20
$GPRMC,162755.2,A,4845.19989,N,12230.53750,W,006.08,254.7,010913,016.9,E,A*22
$HCHDG,237.6,0.0,E,,*29
$PGRME,3.0,M,3.0,M,4.3,M*29
$HCHDG,237.6,0.0,E,,*29
$GPRMC,162755.4,A,4845.19980,N,12230.53796,W,006.09,253.2,010913,016.9,E,A*24
$HCHDG,237.4,0.0,E,,*2B
$PGRME,3.0,M,3.0,M,4.3,M*29
$HCHDG,236.9,0.0,E,,*27
$YXXDR,A,5.4,D,PTCH,A,6.9,D,ROLL*53
$PTAK,FFD1,6.9*5A
$GPRMC,162755.6,A,4845.19969,N,12230.53831,W,006.07,253.5,010913,016.9,E,A*2A
$PTAK,FFP1,HEEL,@*07
$PGRME,3.0,M,3.0,M,4.3,M*29
$HCHDG,236.7,0.0,E,,*29
$HCHDG,236.3,0.0,E,,*2D
$GPRMC,162755.8,A,4845.19960,N,12230.53868,W,006.07,253.0,010913,016.9,E,A*24
$HCHDG,236.3,0.0,E,,*2D
$PGRME,3.0,M,3.0,M,4.3,M*29
$HCHDG,236.1,0.0,E,,*2F
$GPRMC,162756.0,A,4845.19952,N,12230.53918,W,006.09,253.0,010913,016.9,E,A*26
$GPRMB,A,2.30,L,,Oh,4814.8080,N,12233.9900,W,30.5,184,2.21,V*1E
$HCHDG,236.0,0.0,E,,*2E
$PGRME,3.0,M,3.0,M,4.3,M*29
$YXXDR,A,5.1,D,PTCH,A,6.4,D,ROLL*5B
$HCHDG,236.0,0.0,E,,*2E
$GPRMC,162756.2,A,4845.19950,N,12230.53986,W,006.10,253.7,010913,016.9,E,A*2E
$HCHDG,236.5,0.0,E,,*2B
$PGRME,3.0,M,3.0,M,4.3,M*29
$HCHDG,236.4,0.0,E,,*2A
$GPRMC,162756.4,A,4845.19941,N,12230.54044,W,006.10,252.4,010913,016.9,E,A*2A
$HCHDG,236.7,0.0,E,,*29
$PGRME,3.0,M,3.0,M,4.3,M*29
$HCHDG,236.8,0.0,E,,*26
$YXXDR,A,6.7,D,PTCH,A,5.9,D,ROLL*50
$GPRMC,162756.6,A,4845.19929,N,12230.54091,W,006.11,251.9,010913,016.9,E,A*21
$PGRME,3.0,M,3.0,M,4.3,M*29
$HCHDG,236.9,0.0,E,,*27
$HCHDG,237.1,0.0,E,,*2E
$GPRMC,162756.8,A,4845.19914,N,12230.54145,W,006.13,252.4,010913,016.9,E,A*25
$HCHDG,237.1,0.0,E,,*2E
$PGRME,3.0,M,3.0,M,4.3,M*29
$HCHDG,237.0,0.0,E,,*2F
$GPRMC,162757.0,A,4845.19900,N,12230.54202,W,005.95,252.2,010913,016.9,E,A*22
$HCHDG,236.9,0.0,E,,*27
$PGRME,3.0,M,3.0,M,4.3,M*29
$YXXDR,A,6.1,D,PTCH,A,5.6,D,ROLL*59
$PTAK,FFD1,5.6*56
$HCHDG,236.7,0.0,E,,*29
$GPRMC,162757.2,A,4845.19889,N,12230.54251,W,006.26,252.5,010913,016.9,E,A*2A
$GPRMB,A,2.30,L,,Oh,4814.8080,N,12233.9900,W,30.5,184,2.33,V*1D
$HCHDG,236.5,0.0,E,,*2B
$PGRME,3.0,M,3.0,M,4.3,M*29
$HCHDG,236.1,0.0,E,,*2F
$GPRMC,162757.4,A,4845.19872,N,12230.54306,W,006.24,252.4,010913,016.9,E,A*28
$HCHDG,236.2,0.0,E,,*2C
$PGRME,3.0,M,3.0,M,4.3,M*29
$HCHDG,236.0,0.0,E,,*2E
$YXXDR,A,4.7,D,PTCH,A,4.6,D,ROLL*5C
$GPRMC,162757.6,A,4845.19862,N,12230.54360,W,006.20,252.7,010913,016.9,E,A*2C
$PGRME,3.0,M,3.0,M,4.3,M*29
$HCHDG,235.8,0.0,E,,*25
$HCHDG,235.5,0.0,E,,*28
$GPRMC,162757.8,A,4845.19852,N,12230.54407,W,006.17,253.1,010913,016.9,E,A*24
$HCHDG,235.3,0.0,E,,*2E
$PGRME,3.0,M,3.0,M,4.3,M*29
$HCHDG,235.1,0.0,E,,*2C
$GPRMC,162758.0,A,4845.19838,N,12230.54459,W,006.12,252.8,010913,016.9,E,A*29
$HCHDG,234.9,0.0,E,,*25
$PGRME,3.0,M,3.0,M,4.3,M*29
$YXXDR,A,4.3,D,PTCH,A,3.9,D,ROLL*50
$HCHDG,234.9,0.0,E,,*25
$GPRMC,162758.2,A,4845.19830,N,12230.54507,W,006.17,253.6,010913,016.9,E,A*23
$HCHDG,234.8,0.0,E,,*24
$PGRME,3.0,M,3.0,M,4.3,M*29
$HCHDG,234.8,0.0,E,,*24
$GPRMC,162758.4,A,4845.19816,N,12230.54548,W,006.14,253.0,010913,016.9,E,A*2F
$GPRMB,A,2.30,L,,Oh,4814.8080,N,12233.9900,W,30.5,184,2.23,V*1C
$HCHDG,234.6,0.0,E,,*2A
$PGRME,3.0,M,3.0,M,4.3,M*29
$HCHDG,234.6,0.0,E,,*2A
$YXXDR,A,4.3,D,PTCH,A,3.4,D,ROLL*5D
$PTAK,FFD1,3.4*52
$GPRMC,162758.6,A,4845.19812,N,12230.54579,W,006.15,253.2,010913,016.9,E,A*28
$PGRME,3.0,M,3.0,M,4.3,M*29
$HCHDG,234.7,0.0,E,,*2B
$HCHDG,234.8,0.0,E,,*24
$GPRMC,162758.8,A,4845.19800,N,12230.54621,W,006.14,252.4,010913,016.9,E,A*2D
$HCHDG,234.8,0.0,E,,*24
$PGRME,3.0,M,3.0,M,4.3,M*29
$HCHDG,235.1,0.0,E,,*2C
$GPRMC,162759.0,A,4845.19785,N,12230.54664,W,006.16,254.4,010913,016.9,E,A*23
$HCHDG,235.2,0.0,E,,*2F
$PGRME,3.0,M,3.0,M,4.3,M*29
$YXXDR,A,6.3,D,PTCH,A,3.3,D,ROLL*58
$HCHDG,235.5,0.0,E,,*28
$GPRMC,162759.2,A,4845.19772,N,12230.54697,W,006.14,251.7,010913,016.9,E,A*21
$PGRME,3.0,M,3.0,M,4.3,M*29
$HCHDG,235.9,0.0,E,,*24
$HCHDG,236.0,0.0,E,,*2E
$GPRMC,162759.4,A,4845.19757,N,12230.54731,W,006.15,253.8,010913,016.9,E,A*21
$GPRMB,A,2.29,L,,Oh,4814.8080,N,12233.9900,W,30.5,184,2.16,V*12
$PGRME,3.0,M,3.0,M,4.3,M*29
$HCHDG,236.2,0.0,E,,*2C
$HCHDG,236.5,0.0,E,,*2B
$YXXDR,A,7.3,D,PTCH,A,3.7,D,ROLL*5D
$GPRMC,162759.6,A,4845.19743,N,12230.54768,W,006.14,252.5,010913,016.9,E,A*27
$PTAK,FFP1,HEEL,@*07
$PGRME,3.0,M,3.0,M,4.3,M*29
$HCHDG,236.8,0.0,E,,*26
$HCHDG,236.8,0.0,E,,*26
$GPRMC,162759.8,A,4845.19724,N,12230.54814,W,006.11,254.1,010913,016.9,E,A*2B
$PGRME,3.0,M,3.0,M,4.3,M*29
$HCHDG,236.8,0.0,E,,*26
$HCHDG,236.5,0.0,E,,*2B
$GPRMC,162800.0,A,4845.19712,N,12230.54861,W,006.10,253.9,010913,016.9,E,A*29
$HCHDG,236.7,0.0,E,,*29
$PGRME,3.0,M,3.0,M,4.3,M*29
$YXXDR,A,6.2,D,PTCH,A,3.2,D,ROLL*58
$PTAK,FFD1,3.2*54
$HCHDG,236.5,0.0,E,,*2B
$GPRMC,162800.2,A,4845.19698,N,12230.54910,W,006.09,253.7,010913,016.9,E,A*29
$HCHDG,236.3,0.0,E,,*2D
$PGRME,3.0,M,3.0,M,4.3,M*29
$HCHDG,236.2,0.0,E,,*2C
$GPRMC,162800.4,A,4845.19687,N,12230.54955,W,006.11,253.4,010913,016.9,E,A*2A
$HCHDG,236.1,0.0,E,,*2F
$PGRME,3.0,M,3.0,M,4.3,M*29
$HCHDG,236.2,0.0,E,,*2C
$YXXDR,A,6.3,D,PTCH,A,3.5,D,ROLL*5E
$GPRMC,162800.6,A,4845.19679,N,12230.54995,W,006.13,253.4,010913,016.9,E,A*27
$GPRMB,A,2.29,L,,Oh,4814.8080,N,12233.9900,W,30.5,184,2.19,V*1D
$PGRME,3.0,M,3.0,M,4.3,M*29
$HCHDG,236.5,0.0,E,,*2B
$HCHDG,236.7,0.0,E,,*29
$GPRMC,162800.8,A,4845.19669,N,12230.55037,W,006.12,253.8,010913,016.9,E,A*25
$PGRME,3.0,M,3.0,M,4.3,M*29
$HCHDG,236.8,0.0,E,,*26
$HCHDG,236.9,0.0,E,,*27
$GPRMC,162801.0,A,4845.19662,N,12230.55088,W,006.11,252.6,010913,016.9,E,A*2F
$PGRME,3.0,M,3.0,M,4.3,M*29
$HCHDG,237.0,0.0,E,,*2F
$YXXDR,A,7.0,D,PTCH,A,3.3,D,ROLL*5A
$HCHDG,237.1,0.0,E,,*2E
$GPRMC,162801.2,A,4845.19647,N,12230.55133,W,006.08,254.2,010913,016.9,E,A*21
$PGRME,3.0,M,3.0,M,4.3,M*29
$HCHDG,237.1,0.0,E,,*2E
$HCHDG,237.2,0.0,E,,*2D
$GPRMC,162801.4,A,4845.19640,N,12230.55172,W,006.07,253.8,010913,016.9,E,A*27
$PGRME,3.0,M,3.0,M,4.3,M*29
$HCHDG,237.1,0.0,E,,*2E
$HCHDG,237.1,0.0,E,,*2E
$YXXDR,A,5.4,D,PTCH,A,2.3,D,ROLL*5D
$PTAK,FFD1,2.3*54
$GPRMC,162801.6,A,4845.19630,N,12230.55204,W,006.08,254.2,010913,016.9,E,A*22
$PGRME,3.0,M,3.0,M,4.3,M*29
$HCHDG,236.9,0.0,E,,*27
$HCHDG,236.9,0.0,E,,*27
$GPRMC,162801.8,A,4845.19620,N,12230.55250,W,006.07,252.3,010913,016.9,E,A*24
$GPRMB,A,2.29,L,,Oh,4814.8080,N,12233.9900,W,30.5,184,2.27,V*10
$HCHDG,237.3,0.0,E,,*2C
$PGRME,3.0,M,3.0,M,4.3,M*29
$HCHDG,237.3,0.0,E,,*2C
$GPRMC,162802.0,A,4845.19608,N,12230.55284,W,006.09,253.7,010913,016.9,E,A*27
$HCHDG,237.4,0.0,E,,*2B
$PGRME,3.0,M,3.0,M,4.3,M*29
$YXXDR,A,6.4,D,PTCH,A,2.3,D,ROLL*5E
$HCHDG,237.8,0.0,E,,*27
$GPRMC,162802.2,A,4845.19601,N,12230.55328,W,006.09,254.1,010913,016.9,E,A*2A
$HCHDG,237.9,0.0,E,,*26
$PGRME,3.0,M,3.0,M,4.3,M*29
$HCHDG,237.9,0.0,E,,*26
$GPRMC,162802.4,A,4845.19592,N,12230.55375,W,006.10,254.0,010913,016.9,E,A*24
$PGRME,3.0,M,3.0,M,4.3,M*29
$HCHDG,237.8,0.0,E,,*27
$HCHDG,237.7,0.0,E,,*28
$YXXDR,A,6.4,D,PTCH,A,2.4,D,ROLL*59
$PTAK,FFD1,2.4*53
$GPRMC,162802.6,A,4845.19585,N,12230.55419,W,006.09,254.8,010913,016.9,E,A*2D
$PGRME,3.0,M,3.0,M,4.3,M*29
$HCHDG,237.8,0.0,E,,*27
$HCHDG,237.7,0.0,E,,*28
$GPRMC,162802.8,A,4845.19577,N,12230.55471,W,006.32,255.3,010913,016.9,E,A*22
$GPRMB,A,2.29,L,,Oh,4814.8080,N,12233.9900,W,30.5,184,2.06,V*13
$PGRME,3.0,M,3.0,M,4.3,M*29
$HCHDG,237.9,0.0,E,,*26
$HCHDG,237.6,0.0,E,,*29
$GPRMC,162803.0,A,4845.19563,N,12230.55528,W,006.10,255.3,010913,016.9,E,A*23
$PGRME,3.0,M,3.0,M,4.3,M*29
$HCHDG,238.0,0.0,E,,*20
$YXXDR,A,6.1,D,PTCH,A,2.0,D,ROLL*58
$HCHDG,238.0,0.0,E,,*20
$GPRMC,162803.2,A,4845.19546,N,12230.55582,W,006.08,255.8,010913,016.9,E,A*24
$HCHDG,238.3,0.0,E,,*23
$PGRME,3.0,M,3.0,M,4.3,M*29
$HCHDG,238.6,0.0,E,,*26
$GPRMC,162803.4,A,4845.19530,N,12230.55622,W,006.11,255.0,010913,016.9,E,A*2A
$HCHDG,238.6,0.0,E,,*26
$PGRME,3.0,M,3.0,M,4.3,M*29
$HCHDG,238.5,0.0,E,,*25
$YXXDR,A,6.8,D,PTCH,A,3.0,D,ROLL*50
$GPRMC,162803.6,A,4845.19522,N,12230.55660,W,006.10,256.0,010913,016.9,E,A*2F
$PGRME,3.0,M,3.0,M,4.3,M*29
$HCHDG,238.5,0.0,E,,*25
$PTAK,FFP1,HEEL,@*07
$HCHDG,238.3,0.0,E,,*23
$GPRMC,162803.8,A,4845.19516,N,12230.55713,W,006.34,255.1,010913,016.9,E,A*27
$HCHDG,238.2,0.0,E,,*22
$PGRME,3.0,M,3.0,M,4.3,M*29
$HCHDG,238.0,0.0,E,,*20
$GPRMC,162804.0,A,4845.19510,N,12230.55767,W,006.17,255.8,010913,016.9,E,A*25
$GPRMB,A,2.29,L,,Oh,4814.8080,N,12233.9900,W,30.5,184,1.96,V*19
$PGRME,3.0,M,3.0,M,4.3,M*29
$HCHDG,237.9,0.0,E,,*26
$YXXDR,A,5.4,D,PTCH,A,3.5,D,ROLL*5A
$PTAK,FFD1,3.5*53
$HCHDG,237.7,0.0,E,,*28
$GPRMC,162804.2,A,4845.19502,N,12230.55824,W,006.14,254.6,010913,016.9,E,A*20
$PGRME,3.0,M,3.0,M,4.3,M*29
$HCHDG,237.5,0.0,E,,*2A
$HCHDG,237.5,0.0,E,,*2A
$GPRMC,162804.4,A,4845.19490,N,12230.55875,W,006.15,256.6,010913,016.9,E,A*2B
$PGRME,3.0,M,3.0,M,4.3,M*29
$HCHDG,237.5,0.0,E,,*2A
$HCHDG,237.5,0.0,E,,*2A
$YXXDR,A,5.6,D,PTCH,A,3.8,D,ROLL*55
$GPRMC,162804.6,A,4845.19486,N,12230.55929,W,006.18,254.9,010913,016.9,E,A*26
$PGRME,3.0,M,3.0,M,4.3,M*29
$HCHDG,237.8,0.0,E,,*27
$HCHDG,238.0,0.0,E,,*20
$GPRMC,162804.8,A,4845.19475,N,12230.55987,W,006.14,255.7,010913,016.9,E,A*23
$HCHDG,238.1,0.0,E,,*21
$PGRME,3.0,M,3.0,M,4.3,M*29
$HCHDG,238.4,0.0,E,,*24
$GPRMC,162805.0,A,4845.19468,N,12230.56039,W,006.17,254.7,010913,016.9,E,A*2B
$HCHDG,238.5,0.0,E,,*25
$PGRME,3.0,M,3.0,M,4.3,M*29
$YXXDR,A,7.1,D,PTCH,A,4.7,D,ROLL*58
$HCHDG,238.7,0.0,E,,*27
$GPRMC,162805.2,A,4845.19459,N,12230.56098,W,006.19,256.2,010913,016.9,E,A*29
$GPRMB,A,2.29,L,,Oh,4814.8080,N,12233.9900,W,30.5,184,1.92,V*1D
$HCHDG,238.6,0.0,E,,*26
$PGRME,3.0,M,3.0,M,4.3,M*29
$HCHDG,238.2,0.0,E,,*22
$GPRMC,162805.4,A,4845.19454,N,12230.56140,W,006.16,254.9,010913,016.9,E,A*20
$HCHDG,238.3,0.0,E,,*23
$PGRME,3.0,M,3.0,M,4.3,M*29
$HCHDG,238.0,0.0,E,,*20
$YXXDR,A,6.1,D,PTCH,A,4.5,D,ROLL*5B
$PTAK,FFD1,4.5*54
$GPRMC,162805.6,A,4845.19449,N,12230.56182,W,006.14,255.9,010913,016.9,E,A*23
$PGRME,3.0,M,3.0,M,4.3,M*29
$HCHDG,237.8,0.0,E,,*27
$HCHDG,237.6,0.0,E,,*29
$GPRMC,162805.8,A,4845.19440,N,12230.56237,W,006.12,254.3,010913,016.9,E,A*24
$PGRME,3.0,M,3.0,M,4.3,M*29
$HCHDG,237.6,0.0,E,,*29
$HCHDG,237.7,0.0,E,,*28
$GPRMC,162806.0,A,4845.19430,N,12230.56286,W,006.11,256.1,010913,016.9,E,A*21
$PGRME,3.0,M,3.0,M,4.3,M*29
$HCHDG,237.5,0.0,E,,*2A
$YXXDR,A,5.9,D,PTCH,A,4.3,D,ROLL*56
$HCHDG,237.7,0.0,E,,*28
$GPRMC,162806.2,A,4845.19419,N,12230.56327,W,006.11,254.6,010913,016.9,E,A*27
$GPRMB,A,2.28,L,,Oh,4814.8080,N,12233.9900,W,30.5,184,2.06,V*12
$PGRME,3.0,M,3.0,M,4.3,M*29
$HCHDG,238.0,0.0,E,,*20
$HCHDG,238.2,0.0,E,,*22
$GPRMC,162806.4,A,4845.19410,N,12230.56379,W,006.15,255.1,010913,016.9,E,A*21
$HCHDG,238.1,0.0,E,,*21
$PGRME,3.0,M,3.0,M,4.3,M*29
$HCHDG,237.8,0.0,E,,*27
$YXXDR,A,6.4,D,PTCH,A,4.1,D,ROLL*5A
$GPRMC,162806.6,A,4845.19404,N,12230.56432,W,005.97,255.3,010913,016.9,E,A*25
$PGRME,3.0,M,3.0,M,4.3,M*29
$HCHDG,237.6,0.0,E,,*29
$IIVWR,133,L,04.4,N,,,,*7E
$HCHDG,237.2,0.0,E,,*2D
$IIGLL,4845.194,N,12230.561,W,162800,A,A*4E
$IIMWV,227,R,04.4,N,A*14
$GPRMC,162806.8,A,4845.19405,N,12230.56487,W,006.17,255.1,010913,016.9,E,A*2D
$HCHDG,236.9,0.0,E,,*27
$PGRME,3.0,M,3.0,M,4.3,M*29
$IIRMB,A,2.28,L,,Oh  ,,,,,030.5,184,,V,A*63
$HCHDG,236.7,0.0,E,,*29
$GPRMC,162807.0,A,4845.19399,N,12230.56538,W,006.16,254.7,010913,016.9,E,A*25
$HCHDG,236.7,0.0,E,,*29
$PGRME,3.0,M,3.0,M,4.3,M*29
$IIRMC,162800,A,4845.194,N,12230.561,W,06.1,255,010913,16,E,A*1A
$YXXDR,A,6.3,D,PTCH,A,3.9,D,ROLL*52
$PTAK,FFD1,3.9*5F
$HCHDG,236.7,0.0,E,,*29
$GPRMC,162807.2,A,4845.19392,N,12230.56577,W,006.14,255.5,010913,016.9,E,A*26
$PGRME,3.0,M,3.0,M,4.3,M*29
$HCHDG,237.0,0.0,E,,*2F
$HCHDG,237.3,0.0,E,,*2C
$GPRMC,162807.4,A,4845.19382,N,12230.56623,W,006.12,254.8,010913,016.9,E,A*29
$GPRMB,A,2.28,L,,Oh,4814.8080,N,12233.9900,W,30.5,184,2.04,V*10
$PGRME,3.0,M,3.0,M,4.3,M*29
$HCHDG,237.3,0.0,E,,*2C
$HCHDG,237.6,0.0,E,,*29
$YXXDR,A,7.7,D,PTCH,A,4.4,D,ROLL*5D
$GPRMC,162807.6,A,4845.19370,N,12230.56669,W,006.14,255.2,010913,016.9,E,A*25
$PGRME,3.0,M,3.0,M,4.3,M*29
$IIVHW,,,,,00.0,N,,*19
$PTAK,FFP1,HEEL,@*07
$HCHDG,237.3,0.0,E,,*2C
$IIVLW,02219,N,000.0,N*5B
$HCHDG,237.0,0.0,E,,*2F
$IIVWR,007,L,08.7,N,,,,*77
$GPRMC,162807.8,A,4845.19360,N,12230.56725,W,006.14,254.7,010913,016.9,E,A*27
$PGRME,3.0,M,3.0,M,4.3,M*29
$HCHDG,236.8,0.0,E,,*26
$IIGLL,4845.194,N,12230.564,W,162800,A,A*4B
$IIMTW,+00.0,C*38
$HCHDG,236.8,0.0,E,,*26
$IIMWV,353,R,08.7,N,A*19
$IIMWV,200,T,09.5,N,A*1B
$GPRMC,162808.0,A,4845.19346,N,12230.56781,W,006.16,254.1,010913,016.9,E,A*2E
$HCHDG,236.4,0.0,E,,*2A
$PGRME,3.0,M,3.0,M,4.3,M*29
$YXXDR,A,4.8,D,PTCH,A,4.1,D,ROLL*54
$IIRMB,A,2.28,L,,Oh  ,,,,,030.5,184,,V,A*63
$HCHDG,236.6,0.0,E,,*28
$GPRMC,162808.2,A,4845.19339,N,12230.56834,W,006.13,255.7,010913,016.9,E,A*27
$HCHDG,237.0,0.0,E,,*2F
$PGRME,3.0,M,3.0,M,4.3,M*29
$HCHDG,236.9,0.0,E,,*27
$GPRMC,162808.4,A,4845.19331,N,12230.56880,W,006.13,254.6,010913,016.9,E,A*26
$HCHDG,237.0,0.0,E,,*2F
$PGRME,3.0,M,3.0,M,4.3,M*29
$HCHDG,237.0,0.0,E,,*2F
$YXXDR,A,6.4,D,PTCH,A,4.1,D,ROLL*5A
$PTAK,FFD1,4.1*50
$GPRMC,162808.6,A,4845.19324,N,12230.56932,W,006.13,255.4,010913,016.9,E,A*2B
$GPRMB,A,2.28,L,,Oh,4814.8080,N,12233.9900,W,30.5,184,1.98,V*16
$PGRME,3.0,M,3.0,M,4.3,M*29
$HCHDG,237.0,0.0,E,,*2F
$HCHDG,236.8,0.0,E,,*26
$IIRMC,162800,A,4845.194,N,12230.564,W,05.9,255,010913,16,E,A*14
$IIVHW,,,,,01.7,N,,*1F
$GPRMC,162808.8,A,4845.19317,N,12230.56978,W,006.11,255.1,010913,016.9,E,A*2C
$HCHDG,236.6,0.0,E,,*28
$PGRME,3.0,M,3.0,M,4.3,M*29
$IIVLW,02219,N,000.0,N*5B
$IIVWR,006,R,09.8,N,,,,*66
$HCHDG,236.2,0.0,E,,*2C
$IIGLL,4845.194,N,12230.564,W,162800,A,A*4B
$GPRMC,162809.0,A,4845.19308,N,12230.57024,W,006.09,254.3,010913,016.9,E,A*20
$HCHDG,236.2,0.0,E,,*2C
$PGRME,3.0,M,3.0,M,4.3,M*29
$IIMTW,+16.0,C*3F
$IIMWV,006,R,09.8,N,A*14
$YXXDR,A,4.9,D,PTCH,A,3.8,D,ROLL*5B
$IIMWV,353,T,08.7,N,A*1F
$HCHDG,236.3,0.0,E,,*2D
$GPRMC,162809.2,A,4845.19298,N,12230.57072,W,006.11,255.3,010913,016.9,E,A*21
$HCHDG,236.5,0.0,E,,*2B
$PGRME,3.0,M,3.0,M,4.3,M*29
$HCHDG,236.6,0.0,E,,*28
$GPRMC,162809.4,A,4845.19287,N,12230.57115,W,006.10,254.5,010913,016.9,E,A*2F
$HCHDG,236.3,0.0,E,,*2D
$PGRME,3.0,M,3.0,M,4.3,M*29
$HCHDG,236.3,0.0,E,,*2D
$YXXDR,A,6.0,D,PTCH,A,4.0,D,ROLL*5F
$PTAK,FFD1,4.0*51
$GPRMC,162809.6,A,4845.19272,N,12230.57159,W,006.08,254.4,010913,016.9,E,A*27
$GPRMB,A,2.28,L,,Oh,4814.8080,N,12233.9900,W,30.5,184,2.07,V*13
$PGRME,3.0,M,3.0,M,4.3,M*29
$HCHDG,236.2,0.0,E,,*2C
$IIRMB,A,2.28,L,,Oh  ,,,,,030.5,184,,V,A*63
$HCHDG,236.3,0.0,E,,*2D
$GPRMC,162809.8,A,4845.19260,N,12230.57204,W,006.10,255.6,010913,016.9,E,A*2B
$HCHDG,236.7,0.0,E,,*29
$PGRME,3.0,M,3.0,M,4.3,M*29
$IIRMC,162800,A,4845.193,N,12230.569,W,06.1,255,010913,16,E,A*15
$IIVHW,,,,,02.3,N,,*18
$HCHDG,236.7,0.0,E,,*29
$IIVLW,02219,N,000.0,N*5B
$IIVWR,008,R,10.7,N,,,,*6F
$GPRMC,162810.0,A,4845.19248,N,12230.57247,W,006.10,254.5,010913,016.9,E,A*24
$HCHDG,236.7,0.0,E,,*29
$PGRME,3.0,M,3.0,M,4.3,M*29
$IIGLL,4845.193,N,12230.569,W,162800,A,A*41
$YXXDR,A,6.7,D,PTCH,A,4.1,D,ROLL*59
$IIMTW,+16.0,C*3F
$HCHDG,236.4,0.0,E,,*2A
$IIMWV,008,R,10.7,N,A*1D
$GPRMC,162810.2,A,4845.19239,N,12230.57299,W,006.10,254.2,010913,016.9,E,A*24
$HCHDG,236.1,0.0,E,,*2F
$PGRME,3.0,M,3.0,M,4.3,M*29
$HCHDG,235.9,0.0,E,,*24
$GPRMC,162810.4,A,4845.19230,N,12230.57338,W,006.08,253.7,010913,016.9,E,A*2A
$HCHDG,235.5,0.0,E,,*28
$PGRME,3.0,M,3.0,M,4.3,M*29
$HCHDG,235.6,0.0,E,,*2B
$YXXDR,A,5.4,D,PTCH,A,4.9,D,ROLL*51
$GPRMC,162810.6,A,4845.19222,N,12230.57387,W,006.09,254.4,010913,016.9,E,A*2A
$GPRMB,A,2.28,L,,Oh,4814.8080,N,12233.9900,W,30.5,184,2.07,V*13
$PGRME,3.0,M,3.0,M,4.3,M*29
$HCHDG,235.3,0.0,E,,*2E
$IIMWV,010,T,08.3,N,A*1F
$HCHDG,235.5,0.0,E,,*28
$IIRMB,A,2.28,L,,Oh  ,,,,,030.5,184,,V,A*63
$GPRMC,162810.8,A,4845.19213,N,12230.57425,W,006.11,253.7,010913,016.9,E,A*24
$HCHDG,235.7,0.0,E,,*2A
$PGRME,3.0,M,3.0,M,4.3,M*29
$IIRMC,162800,A,4845.193,N,12230.569,W,06.1,255,010913,16,E,A*15
$HCHDG,235.5,0.0,E,,*28
$IIVHW,,,,,03.1,N,,*1B
$IIVLW,02219,N,000.0,N*5B
$GPRMC,162811.0,A,4845.19203,N,12230.57462,W,006.12,253.5,010913,016.9,E,A*2E
$HCHDG,235.3,0.0,E,,*2E
$PGRME,3.0,M,3.0,M,4.3,M*29
$IIVWR,009,R,10.6,N,,,,*6F
$IIDPT,004.7,-1.0,*43
$YXXDR,A,6.3,D,PTCH,A,4.7,D,ROLL*5B
$PTAK,FFD1,4.7*56
$HCHDG,235.1,0.0,E,,*2C
$IIGLL,4845.193,N,12230.569,W,162800,A,A*41
$GPRMC,162811.2,A,4845.19193,N,12230.57497,W,006.11,253.1,010913,016.9,E,A*2B
$HCHDG,234.9,0.0,E,,*25
$PGRME,3.0,M,3.0,M,4.3,M*29
$HCHDG,234.9,0.0,E,,*25
$GPRMC,162811.4,A,4845.19183,N,12230.57537,W,006.11,252.6,010913,016.9,E,A*21
$HCHDG,235.1,0.0,E,,*2C
$PGRME,3.0,M,3.0,M,4.3,M*29
$HCHDG,234.9,0.0,E,,*25
$YXXDR,A,7.1,D,PTCH,A,5.1,D,ROLL*5F
$GPRMC,162811.6,A,4845.19166,N,12230.57573,W,006.09,252.4,010913,016.9,E,A*23
$PGRME,3.0,M,3.0,M,4.3,M*29
$IIMTW,+16.0,C*3F
$HCHDG,235.0,0.0,E,,*2D
$PTAK,FFP1,HEEL,@*07
$IIMWV,009,R,11.0,N,A*1A
$HCHDG,234.6,0.0,E,,*2A
$IIMWV,012,T,07.4,N,A*15
$GPRMC,162811.8,A,4845.19154,N,12230.57613,W,006.09,252.8,010913,016.9,E,A*25
$GPRMB,A,2.27,L,,Oh,4814.8080,N,12233.9900,W,30.5,184,2.23,V*1A
$HCHDG,234.3,0.0,E,,*2F
$PGRME,3.0,M,3.0,M,4.3,M*29
$IIRMB,A,2.28,L,,Oh  ,,,,,030.5,184,,V,A*63
$HCHDG,234.1,0.0,E,,*2D
$IIRMC,162800,A,4845.192,N,12230.573,W,06.0,254,010913,16,E,A*1F
$GPRMC,162812.0,A,4845.19143,N,12230.57654,W,006.07,252.5,010913,016.9,E,A*28
$HCHDG,234.1,0.0,E,,*2D
$PGRME,3.0,M,3.0,M,4.3,M*29
$IIVHW,,,,,03.8,N,,*12
$IIVLW,02219,N,000.0,N*5B
$YXXDR,A,5.8,D,PTCH,A,5.0,D,ROLL*55
$PTAK,FFD1,5.0*50
$IIVWR,009,R,11.0,N,,,,*68
$HCHDG,234.4,0.0,E,,*28
$IIDPT,004.7,-1.0,*43
$GPRMC,162812.2,A,4845.19131,N,12230.57707,W,006.09,251.8,010913,016.9,E,A*28
$PGRME,3.0,M,3.0,M,4.3,M*29
$HCHDG,234.3,0.0,E,,*2F
$HCHDG,234.5,0.0,E,,*29
$GPRMC,162812.4,A,4845.19119,N,12230.57739,W,006.08,251.5,010913,016.9,E,A*25
$HCHDG,234.1,0.0,E,,*2D
$PGRME,3.0,M,3.0,M,4.3,M*29
$HCHDG,233.9,0.0,E,,*22
$YXXDR,A,5.4,D,PTCH,A,5.2,D,ROLL*5B
$GPRMC,162812.6,A,4845.19107,N,12230.57774,W,006.10,253.1,010913,016.9,E,A*2E
$PGRME,3.0,M,3.0,M,4.3,M*29
$HCHDG,233.9,0.0,E,,*22
$IIGLL,4845.191,N,12230.575,W,162800,A,A*4E
$HCHDG,233.7,0.0,E,,*2C
$IIMTW,+16.0,C*3F
$IIMWV,011,R,10.7,N,A*15
$GPRMC,162812.8,A,4845.19093,N,12230.57818,W,006.11,253.3,010913,016.9,E,A*2A
$GPRMB,A,2.27,L,,Oh,4814.8080,N,12233.9900,W,30.5,184,2.19,V*13
$HCHDG,234.0,0.0,E,,*2C
$PGRME,3.0,M,3.0,M,4.3,M*29
$IIMWV,014,T,07.1,N,A*16
$HCHDG,234.0,0.0,E,,*2C
$IIRMB,A,2.27,L,,Oh  ,,,,,030.5,184,,V,A*6C
$GPRMC,162813.0,A,4845.19085,N,12230.57860,W,006.10,251.1,010913,016.9,E,A*2A
$HCHDG,234.0,0.0,E,,*2C
$PGRME,3.0,M,3.0,M,4.3,M*29
$IIRMC,162800,A,4845.191,N,12230.575,W,06.0,252,010913,16,E,A*1C
$YXXDR,A,6.8,D,PTCH,A,4.7,D,ROLL*50
$IIVHW,,,,,04.7,N,,*1A
$HCHDG,234.2,0.0,E,,*2E
$IIVLW,02219,N,000.0,N*5B
$GPRMC,162813.2,A,4845.19078,N,12230.57904,W,006.09,251.3,010913,016.9,E,A*23
$HCHDG,234.2,0.0,E,,*2E
$PGRME,3.0,M,3.0,M,4.3,M*29
$HCHDG,234.0,0.0,E,,*2C
$GPRMC,162813.4,A,4845.19073,N,12230.57946,W,006.11,251.2,010913,016.9,E,A*20
$HCHDG,234.0,0.0,E,,*2C
$PGRME,3.0,M,3.0,M,4.3,M*29
$HCHDG,233.6,0.0,E,,*2D
$YXXDR,A,6.0,D,PTCH,A,5.6,D,ROLL*58
$PTAK,FFD1,5.6*56
$GPRMC,162813.6,A,4845.19061,N,12230.57997,W,006.12,251.0,010913,016.9,E,A*2C
$PGRME,3.0,M,3.0,M,4.3,M*29
$HCHDG,233.4,0.0,E,,*2F
$IIVWR,011,R,11.1,N,,,,*60
$IIDPT,004.7,-1.0,*43
$HCHDG,233.5,0.0,E,,*2E
$IIGLL,4845.191,N,12230.577,W,162800,A,A*4C
$GPRMC,162813.8,A,4845.19046,N,12230.58036,W,006.13,251.6,010913,016.9,E,A*2D
$GPRMB,A,2.27,L,,Oh,4814.8080,N,12233.9900,W,30.5,184,2.36,V*1E
$HCHDG,233.2,0.0,E,,*29
$PGRME,3.0,M,3.0,M,4.3,M*29
$IIMTW,+16.0,C*3F
$IIMWV,011,R,11.1,N,A*12
$HCHDG,233.1,0.0,E,,*2A
$IIMWV,020,T,05.9,N,A*1B
$GPRMC,162814.0,A,4845.19029,N,12230.58079,W,006.17,250.6,010913,016.9,E,A*25
$PGRME,3.0,M,3.0,M,4.3,M*29
$HCHDG,232.9,0.0,E,,*23
$IIRMB,A,2.27,L,,Oh  ,,,,,030.5,184,,V,A*6C
$YXXDR,A,5.6,D,PTCH,A,5.3,D,ROLL*58
$HCHDG,233.0,0.0,E,,*2B
$IIRMC,162800,A,4845.191,N,12230.577,W,06.1,253,010913,16,E,A*1E
$GPRMC,162814.2,A,4845.19017,N,12230.58123,W,006.01,250.6,010913,016.9,E,A*23
$HCHDG,233.4,0.0,E,,*2F
$PGRME,3.0,M,3.0,M,4.3,M*29
$HCHDG,233.4,0.0,E,,*2F
$GPRMC,162814.4,A,4845.19009,N,12230.58164,W,006.05,250.4,010913,016.9,E,A*2F
$HCHDG,233.5,0.0,E,,*2E
$PGRME,3.0,M,3.0,M,4.3,M*29
$HCHDG,233.7,0.0,E,,*2C
$YXXDR,A,7.7,D,PTCH,A,5.6,D,ROLL*5E
$PTAK,FFD1,5.6*56
$GPRMC,162814.6,A,4845.19000,N,12230.58210,W,006.10,250.0,010913,016.9,E,A*24
$PGRME,3.0,M,3.0,M,4.3,M*29
$IIVHW,,,,,05.6,N,,*1A
$HCHDG,233.7,0.0,E,,*2C
$IIVLW,02219,N,000.0,N*5B
$HCHDG,233.8,0.0,E,,*23
$IIVWR,009,R,10.8,N,,,,*61
$IIDPT,004.7,-1.0,*43
$GPRMC,162814.8,A,4845.18985,N,12230.58264,W,006.12,250.3,010913,016.9,E,A*2D
$GPRMB,A,2.27,L,,Oh,4814.8080,N,12233.9900,W,30.5,184,2.49,V*16
$HCHDG,233.7,0.0,E,,*2C
$PGRME,3.0,M,3.0,M,4.3,M*29
$IIGLL,4845.190,N,12230.579,W,162800,A,A*43
$HCHDG,233.8,0.0,E,,*23
$IIMTW,+16.0,C*3F
$IIMWV,009,R,10.8,N,A*13
$GPRMC,162815.0,A,4845.18971,N,12230.58320,W,006.13,250.7,010913,016.9,E,A*2B
$HCHDG,233.5,0.0,E,,*2E
$PGRME,3.0,M,3.0,M,4.3,M*29
$IIMWV,021,T,05.7,N,A*14
$YXXDR,A,7.0,D,PTCH,A,5.3,D,ROLL*5C
$IIRMB,A,2.27,L,,Oh  ,,,,,030.5,184,,V,A*6C
$HCHDG,233.4,0.0,E,,*2F
$GPRMC,162815.2,A,4845.18957,N,12230.58371,W,006.14,250.3,010913,016.9,E,A*2A
$HCHDG,233.1,0.0,E,,*2A
$PGRME,3.0,M,3.0,M,4.3,M*29
$HCHDG,232.9,0.0,E,,*23
$GPRMC,162815.4,A,4845.18939,N,12230.58414,W,006.15,249.8,010913,016.9,E,A*22
$HCHDG,232.3,0.0,E,,*29
$PGRME,3.0,M,3.0,M,4.3,M*29
$HCHDG,232.4,0.0,E,,*2E
$YXXDR,A,5.2,D,PTCH,A,5.1,D,ROLL*5E
$PTAK,FFD1,5.1*51
$GPRMC,162815.6,A,4845.18930,N,12230.58460,W,006.16,249.3,010913,016.9,E,A*22
$PGRME,3.0,M,3.0,M,4.3,M*29
$HCHDG,232.2,0.0,E,,*28
$PTAK,FFP1,HEEL,@*07
$HCHDG,232.0,0.0,E,,*2A
$IIRMC,162800,A,4845.190,N,12230.582,W,06.1,250,010913,16,E,A*16
$IIVHW,,,,,05.5,N,,*19
$GPRMC,162815.8,A,4845.18914,N,12230.58513,W,006.15,250.0,010913,016.9,E,A*27
$PGRME,3.0,M,3.0,M,4.3,M*29
$HCHDG,232.3,0.0,E,,*29
$IIVLW,02219,N,000.0,N*5B
$IIVWR,011,R,10.3,N,,,,*63
$HCHDG,232.4,0.0,E,,*2E
$IIDPT,004.7,-1.0,*43
$GPRMC,162816.0,A,4845.18900,N,12230.58554,W,006.14,248.9,010913,016.9,E,A*2B
$GPRMB,A,2.27,L,,Oh,4814.8080,N,12233.9900,W,30.5,184,2.63,V*1E
$PGRME,3.0,M,3.0,M,4.3,M*29
$HCHDG,232.6,0.0,E,,*2C
$IIGLL,4845.190,N,12230.582,W,162800,A,A*47
$IIMTW,+16.0,C*3F
$YXXDR,A,6.5,D,PTCH,A,5.4,D,ROLL*5F
$IIMWV,011,R,10.3,N,A*11
$HCHDG,232.8,0.0,E,,*22
$IIMWV,019,T,05.2,N,A*1A
$GPRMC,162816.2,A,4845.18886,N,12230.58601,W,006.15,248.7,010913,016.9,E,A*2A
$PGRME,3.0,M,3.0,M,4.3,M*29
$HCHDG,232.5,0.0,E,,*2F
$HCHDG,232.7,0.0,E,,*2D
$GPRMC,162816.4,A,4845.18873,N,12230.58656,W,006.12,249.5,010913,016.9,E,A*20
$HCHDG,232.7,0.0,E,,*2D
$PGRME,3.0,M,3.0,M,4.3,M*29
$HCHDG,232.7,0.0,E,,*2D
$YXXDR,A,6.7,D,PTCH,A,5.4,D,ROLL*5D
$GPRMC,162816.6,A,4845.18860,N,12230.58697,W,006.11,249.7,010913,016.9,E,A*2C
$PGRME,3.0,M,3.0,M,4.3,M*29
$HCHDG,232.4,0.0,E,,*2E
$IIRMB,A,2.27,L,,Oh  ,,,,,030.5,184,,V,A*6C
$HCHDG,231.9,0.0,E,,*20
$GPRMC,162816.8,A,4845.18844,N,12230.58745,W,006.11,248.9,010913,016.9,E,A*25
$HCHDG,231.8,0.0,E,,*21
$PGRME,3.0,M,3.0,M,4.3,M*29
$IIRMC,162800,A,4845.189,N,12230.584,W,06.1,249,010913,16,E,A*10
$IIVHW,,,,,05.6,N,,*1A
$HCHDG,231.5,0.0,E,,*2C
$IIVLW,02219,N,000.0,N*5B
$IIVWR,011,R,10.3,N,,,,*63
$GPRMC,162817.0,A,4845.18824,N,12230.58795,W,006.12,248.7,010913,016.9,E,A*2A
$GPRMB,A,2.27,L,,Oh,4814.8080,N,12233.9900,W,30.5,184,2.64,V*19
$HCHDG,231.4,0.0,E,,*2D
$PGRME,3.0,M,3.0,M,4.3,M*29
$IIDPT,004.7,-1.0,*43
$YXXDR,A,5.3,D,PTCH,A,5.2,D,ROLL*5C
$PTAK,FFD1,5.2*52
$IIGLL,4845.189,N,12230.584,W,162800,A,A*49
$HCHDG,231.3,0.0,E,,*2A
$IIMTW,+16.0,C*3F
$GPRMC,162817.2,A,4845.18814,N,12230.58844,W,006.11,248.1,010913,016.9,E,A*2D
$HCHDG,231.5,0.0,E,,*2C
$PGRME,3.0,M,3.0,M,4.3,M*29
$HCHDG,231.4,0.0,E,,*2D
$GPRMC,162817.4,A,4845.18808,N,12230.58892,W,006.10,248.4,010913,016.9,E,A*29
$PGRME,3.0,M,3.0,M,4.3,M*29
$HCHDG,231.5,0.0,E,,*2C
$HCHDG,231.8,0.0,E,,*21
$YXXDR,A,7.3,D,PTCH,A,5.2,D,ROLL*5E
$GPRMC,162817.6,A,4845.18800,N,12230.58935,W,006.09,248.4,010913,016.9,E,A*27
$PGRME,3.0,M,3.0,M,4.3,M*29
$IIMWV,012,R,10.3,N,A*12
$HCHDG,231.8,0.0,E,,*21
$IIMWV,024,T,04.7,N,A*10
$HCHDG,231.7,0.0,E,,*2E
$IIRMB,A,2.27,L,,Oh  ,,,,,030.5,184,,V,A*6C
$GPRMC,162817.8,A,4845.18789,N,12230.58975,W,006.10,249.0,010913,016.9,E,A*2E
$PGRME,3.0,M,3.0,M,4.3,M*29
$HCHDG,231.6,0.0,E,,*2F
$HCHDG,231.3,0.0,E,,*2A
$IIRMC,162800,A,4845.188,N,12230.586,W,06.1,249,010913,16,E,A*13
$IIVHW,,,,,05.6,N,,*1A
$GPRMC,162818.0,A,4845.18774,N,12230.59019,W,006.10,248.5,010913,016.9,E,A*2D
$PGRME,3.0,M,3.0,M,4.3,M*29
$HCHDG,231.0,0.0,E,,*29
$IIVLW,02219,N,000.0,N*5B
$IIVWR,012,R,10.3,N,,,,*60
$YXXDR,A,5.1,D,PTCH,A,5.0,D,ROLL*5C
$IIDPT,004.7,-1.0,*43
$HCHDG,230.8,0.0,E,,*20
$GPRMC,162818.2,A,4845.18757,N,12230.59063,W,006.12,248.9,010913,016.9,E,A*2D
$GPRMB,A,2.27,L,,Oh,4814.8080,N,12233.9900,W,30.5,184,2.62,V*1F
$PGRME,3.0,M,3.0,M,4.3,M*29
$HCHDG,230.6,0.0,E,,*2E
$HCHDG,230.5,0.0,E,,*2D
$GPRMC,162818.4,A,4845.18745,N,12230.59113,W,006.13,248.1,010913,016.9,E,A*27
$PGRME,3.0,M,3.0,M,4.3,M*29
$HCHDG,230.7,0.0,E,,*2F
$HCHDG,230.8,0.0,E,,*20
$YXXDR,A,5.4,D,PTCH,A,5.1,D,ROLL*58
$PTAK,FFD1,5.1*51
$GPRMC,162818.6,A,4845.18739,N,12230.59156,W,006.11,248.0,010913,016.9,E,A*2C
$PGRME,3.0,M,3.0,M,4.3,M*29
$HCHDG,231.1,0.0,E,,*28
$IIGLL,4845.187,N,12230.589,W,162800,A,A*4A
$HCHDG,231.1,0.0,E,,*28
$IIMTW,+16.0,C*3F
$IIMWV,013,R,10.3,N,A*13
$GPRMC,162818.8,A,4845.18727,N,12230.59208,W,006.13,248.2,010913,016.9,E,A*25
$PGRME,3.0,M,3.0,M,4.3,M*29
$HCHDG,231.5,0.0,E,,*2C
$IIMWV,026,T,04.8,N,A*1D
$HCHDG,231.7,0.0,E,,*2E
$IIRMB,A,2.27,L,,Oh  ,,,,,030.5,184,,V,A*6C
$GPRMC,162819.0,A,4845.18713,N,12230.59274,W,006.13,247.2,010913,016.9,E,A*2F
$HCHDG,231.9,0.0,E,,*20
$PGRME,3.0,M,3.0,M,4.3,M*29
$IIRMC,162800,A,4845.187,N,12230.589,W,06.1,249,010913,16,E,A*13
$YXXDR,A,7.5,D,PTCH,A,5.4,D,ROLL*5E
$IIVHW,,,,,05.6,N,,*1A
$HCHDG,231.9,0.0,E,,*20
$IIVLW,02219,N,000.0,N*5B
$GPRMC,162819.2,A,4845.18698,N,12230.59326,W,006.14,247.3,010913,016.9,E,A*2F
$GPRMB,A,2.26,L,,Oh,4814.8080,N,12233.9900,W,30.5,184,2.78,V*15
$HCHDG,232.1,0.0,E,,*2B
$PGRME,3.0,M,3.0,M,4.3,M*29
$HCHDG,232.1,0.0,E,,*2B
$GPRMC,162819.4,A,4845.18683,N,12230.59373,W,006.13,248.1,010913,016.9,E,A*29
$HCHDG,232.0,0.0,E,,*2A
$PGRME,3.0,M,3.0,M,4.3,M*29
$HCHDG,232.0,0.0,E,,*2A
$YXXDR,A,7.2,D,PTCH,A,5.4,D,ROLL*59
$GPRMC,162819.6,A,4845.18673,N,12230.59417,W,006.13,246.9,010913,016.9,E,A*27
$PGRME,3.0,M,3.0,M,4.3,M*29
$HCHDG,231.8,0.0,E,,*21
$IIVWR,015,R,10.2,N,,,,*66
$IIDPT,004.7,-1.0,*43
$HCHDG,231.4,0.0,E,,*2D
$PTAK,FFP1,HEEL,@*07
$IIGLL,4845.187,N,12230.592,W,162800,A,A*40
$GPRMC,162819.8,A,4845.18662,N,12230.59463,W,006.10,246.4,010913,016.9,E,A*24
$HCHDG,231.0,0.0,E,,*29
$PGRME,3.0,M,3.0,M,4.3,M*29
$IIMTW,+16.0,C*3F
$IIMWV,015,R,10.2,N,A*14
$HCHDG,230.6,0.0,E,,*2E
$IIMWV,027,T,04.8,N,A*1C
$GPRMC,162820.0,A,4845.18651,N,12230.59514,W,006.09,246.4,010913,016.9,E,A*2F
$PGRME,3.0,M,3.0,M,4.3,M*29
$HCHDG,230.6,0.0,E,,*2E
$IIRMB,A,2.26,L,,Oh  ,,,,,030.5,184,,V,A*6D
$YXXDR,A,5.3,D,PTCH,A,5.9,D,ROLL*57
$PTAK,FFD1,5.9*59
$HCHDG,230.0,0.0,E,,*28
$IIRMC,162800,A,4845.187,N,12230.592,W,06.1,248,010913,16,E,A*18
$GPRMC,162820.2,A,4845.18641,N,12230.59567,W,006.11,246.8,010913,016.9,E,A*2D
$GPRMB,A,2.26,L,,Oh,4814.8080,N,12233.9900,W,30.5,184,2.82,V*10
$HCHDG,229.8,0.0,E,,*28
$PGRME,3.0,M,3.0,M,4.3,M*29
$HCHDG,229.4,0.0,E,,*24
$GPRMC,162820.4,A,4845.18627,N,12230.59607,W,006.11,246.1,010913,016.9,E,A*27
$HCHDG,229.5,0.0,E,,*25
$PGRME,3.0,M,3.0,M,4.3,M*29
$HCHDG,229.4,0.0,E,,*24
$YXXDR,A,4.8,D,PTCH,A,5.2,D,ROLL*56
$GPRMC,162820.6,A,4845.18611,N,12230.59649,W,006.11,247.0,010913,016.9,E,A*2A
$PGRME,3.0,M,3.0,M,4.3,M*29
$HCHDG,229.3,0.0,E,,*23
$IIVHW,,,,,05.4,N,,*18
$IIVLW,02219,N,000.0,N*5B
$HCHDG,229.2,0.0,E,,*22
$IIVWR,015,R,10.2,N,,,,*66
$IIDPT,004.7,-1.0,*43
$GPRMC,162820.8,A,4845.18592,N,12230.59688,W,006.11,246.9,010913,016.9,E,A*29
$HCHDG,229.4,0.0,E,,*24
$PGRME,3.0,M,3.0,M,4.3,M*29
$IIGLL,4845.186,N,12230.594,W,162800,A,A*47
$HCHDG,229.4,0.0,E,,*24
$IIMTW,+16.0,C*3F
$IIMWV,015,R,10.2,N,A*14
$GPRMC,162821.0,A,4845.18577,N,12230.59743,W,006.09,245.9,010913,016.9,E,A*27
$PGRME,3.0,M,3.0,M,4.3,M*29
$HCHDG,229.7,0.0,E,,*27
$IIMWV,031,T,05.0,N,A*12
$YXXDR,A,5.9,D,PTCH,A,5.0,D,ROLL*54
$IIRMB,A,2.26,L,,Oh  ,,,,,030.5,184,,V,A*6D
$HCHDG,229.7,0.0,E,,*27
$GPRMC,162821.2,A,4845.18564,N,12230.59799,W,006.07,246.0,010913,016.9,E,A*24
$PGRME,3.0,M,3.0,M,4.3,M*29
$HCHDG,229.9,0.0,E,,*29
$HCHDG,230.1,0.0,E,,*29
$GPRMC,162821.4,A,4845.18552,N,12230.59851,W,006.08,246.3,010913,016.9,E,A*20
$GPRMB,A,2.26,L,,Oh,4814.8080,N,12233.9900,W,30.5,184,2.85,V*17
$PGRME,3.0,M,3.0,M,4.3,M*29
$HCHDG,230.1,0.0,E,,*29
$HCHDG,230.2,0.0,E,,*2A
$YXXDR,A,7.1,D,PTCH,A,5.3,D,ROLL*5D
$PTAK,FFD1,5.3*53
$GPRMC,162821.6,A,4845.18540,N,12230.59886,W,006.10,245.5,010913,016.9,E,A*27
$PGRME,3.0,M,3.0,M,4.3,M*29
$HCHDG,230.2,0.0,E,,*2A
$HCHDG,230.5,0.0,E,,*2D
$IIRMC,162800,A,4845.185,N,12230.596,W,06.1,246,010913,16,E,A*10
$IIVHW,,,,,05.4,N,,*18
$GPRMC,162821.8,A,4845.18522,N,12230.59944,W,006.11,245.8,010913,016.9,E,A*2E
$HCHDG,230.2,0.0,E,,*2A
$PGRME,3.0,M,3.0,M,4.3,M*29
$IIVLW,02219,N,000.0,N*5B
$IIVWR,016,R,10.2,N,,,,*65
$HCHDG,230.2,0.0,E,,*2A
$IIDPT,004.7,-1.0,*43
$GPRMC,162822.0,A,4845.18504,N,12230.59993,W,006.10,245.0,010913,016.9,E,A*22
$HCHDG,230.2,0.0,E,,*2A
$PGRME,3.0,M,3.0,M,4.3,M*29
$IIGLL,4845.185,N,12230.596,W,162800,A,A*46
$IIMTW,+16.0,C*3F
$YXXDR,A,6.4,D,PTCH,A,5.5,D,ROLL*5F
$IIMWV,016,R,10.2,N,A*17
$HCHDG,230.2,0.0,E,,*2A
$IIMWV,031,T,05.1,N,A*13
$GPRMC,162822.2,A,4845.18490,N,12230.60034,W,006.09,245.7,010913,016.9,E,A*2D
$HCHDG,229.9,0.0,E,,*29
$PGRME,3.0,M,3.0,M,4.3,M*29
$HCHDG,229.7,0.0,E,,*27
$GPRMC,162822.4,A,4845.18476,N,12230.60079,W,006.10,245.3,010913,016.9,E,A*26
$HCHDG,229.4,0.0,E,,*24
$PGRME,3.0,M,3.0,M,4.3,M*29
$HCHDG,229.0,0.0,E,,*20
$YXXDR,A,5.5,D,PTCH,A,5.6,D,ROLL*5E
$GPRMC,162822.6,A,4845.18466,N,12230.60115,W,006.09,244.4,010913,016.9,E,A*20
$GPRMB,A,2.26,L,,Oh,4814.8080,N,12233.9900,W,30.5,184,3.03,V*18
$PGRME,3.0,M,3.0,M,4.3,M*29
$HCHDG,228.7,0.0,E,,*26
$IIRMB,A,2.26,L,,Oh  ,,,,,030.5,184,,V,A*6D
$HCHDG,228.7,0.0,E,,*26
$GPRMC,162822.8,A,4845.18453,N,12230.60159,W,006.10,245.9,010913,016.9,E,A*24
$HCHDG,228.5,0.0,E,,*24
$PGRME,3.0,M,3.0,M,4.3,M*29
$IIRMC,162800,A,4845.185,N,12230.599,W,06.1,245,010913,16,E,A*1C
$IIVHW,,,,,05.4,N,,*18
$HCHDG,228.3,0.0,E,,*22
$IIVLW,02219,N,000.0,N*5B
$IIVWR,017,R,10.4,N,,,,*62
$GPRMC,162823.0,A,4845.18439,N,12230.60206,W,006.10,245.7,010913,016.9,E,A*26
$HCHDG,228.1,0.0,E,,*20
$PGRME,3.0,M,3.0,M,4.3,M*29
$IIDPT,004.7,-1.0,*43
$YXXDR,A,4.8,D,PTCH,A,5.2,D,ROLL*56
$PTAK,FFD1,5.2*52
$IIGLL,4845.185,N,12230.599,W,162800,A,A*49
$HCHDG,227.8,0.0,E,,*26
$IIMTW,+16.0,C*3F
$GPRMC,162823.2,A,4845.18418,N,12230.60250,W,006.08,244.8,010913,016.9,E,A*23
$HCHDG,228.0,0.0,E,,*21
$PGRME,3.0,M,3.0,M,4.3,M*29
$HCHDG,227.6,0.0,E,,*28
$GPRMC,162823.4,A,4845.18401,N,12230.60296,W,006.09,245.9,010913,016.9,E,A*26
$HCHDG,227.9,0.0,E,,*27
$PGRME,3.0,M,3.0,M,4.3,M*29
$HCHDG,228.1,0.0,E,,*20
$YXXDR,A,5.6,D,PTCH,A,5.5,D,ROLL*5E
$GPRMC,162823.6,A,4845.18389,N,12230.60332,W,006.06,243.8,010913,016.9,E,A*24
$PGRME,3.0,M,3.0,M,4.3,M*29
$HCHDG,228.2,0.0,E,,*23
$IIMWV,016,R,09.9,N,A*14
$IIMWV,034,T,05.4,N,A*13
$HCHDG,228.2,0.0,E,,*23
$PTAK,FFP1,HEEL,@*07
$IIRMB,A,2.26,L,,Oh  ,,,,,030.5,184,,V,A*6D
$GPRMC,162823.8,A,4845.18377,N,12230.60377,W,006.07,243.8,010913,016.9,E,A*2B
$GPRMB,A,2.26,L,,Oh,4814.8080,N,12233.9900,W,30.5,184,3.08,V*13
$HCHDG,228.4,0.0,E,,*25
$PGRME,3.0,M,3.0,M,4.3,M*29
$HCHDG,228.6,0.0,E,,*27
$IIRMC,162800,A,4845.184,N,12230.601,W,06.1,245,010913,16,E,A*1F
$IIVHW,,,,,05.4,N,,*18
$GPRMC,162824.0,A,4845.18369,N,12230.60421,W,006.06,244.7,010913,016.9,E,A*26
$HCHDG,228.6,0.0,E,,*27
$PGRME,3.0,M,3.0,M,4.3,M*29
$IIVLW,02219,N,000.0,N*5B
$YXXDR,A,6.5,D,PTCH,A,5.4,D,ROLL*5F
$PTAK,FFD1,5.4*54
$IIVWR,016,R,09.9,N,,,,*66
$IIDPT,004.7,-1.0,*43
$HCHDG,228.8,0.0,E,,*29
