$GPRMC,190000.8,A,4921.29108,N,12316.56009,W,000.05,046.5,220913,017.3,E,D*2F
$PGRME,2.4,M,2.4,M,3.4,M*29
$HCHDG,23.4,0.0,E,,*1C
$HCHDG,23.4,0.0,E,,*1C
$GPRMC,190001.0,A,4921.29108,N,12316.56009,W,000.05,046.5,220913,017.3,E,D*26
$GPRMB,A,-35.03,L,,Shil,4741.0830,N,12224.5670,W,106.0,161,-0.02,V*0C
$PGRME,2.4,M,2.4,M,3.4,M*29
$HCHDG,23.7,0.0,E,,*1F
$HCHDG,23.6,0.0,E,,*1E
$YXXDR,A,5.3,D,PTCH,A,2.0,D,ROLL*59
$PTAK,FFD1,2.0*57
$GPRMC,190001.2,A,4921.29108,N,12316.56009,W,000.01,046.5,220913,017.3,E,D*20
$PGRME,2.4,M,2.4,M,3.4,M*29
$HCHDG,23.6,0.0,E,,*1E
$HCHDG,23.5,0.0,E,,*1D
$GPRMC,190001.4,A,4921.29108,N,12316.56009,W,000.02,046.5,220913,017.3,E,D*25
$PGRME,2.4,M,2.4,M,3.4,M*29
$HCHDG,23.7,0.0,E,,*1F
$HCHDG,23.8,0.0,E,,*10
$IIVWR,053,R,15.8,N,,,,*6B
$GPRMC,190001.6,A,4921.29108,N,12316.56009,W,000.03,046.5,220913,017.3,E,D*26
$PGRME,2.4,M,2.4,M,3.4,M*29
$HCHDG,23.8,0.0,E,,*10
$IIDPT,005.3,-1.0,*46
$YXXDR,A,5.2,D,PTCH,A,2.0,D,ROLL*58
$IIGLL,4921.291,N,12316.560,W,185900,A,A*47
$HCHDG,23.7,0.0,E,,*1F
$IIMTW,+13.0,C*3A
$GPRMC,190001.8,A,4921.29108,N,12316.56009,W,000.01,046.5,220913,017.3,E,D*2A
$PGRME,2.4,M,2.4,M,3.4,M*29
$IIMWV,053,R,15.8,N,A*19
$HCHDG,23.7,0.0,E,,*1F
$IIMWV,051,T,15.4,N,A*11
$HCHDG,23.6,0.0,E,,*1E
$IIRMB,A,,,,Shil,,,,,106.0,161,,V,A*2A
$GPRMC,190002.0,A,4921.29108,N,12316.56009,W,000.01,046.5,220913,017.3,E,D*21
$GPRMB,A,-35.03,L,,Shil,4741.0830,N,12224.5670,W,106.0,161,-0.00,V*0E
$PGRME,2.4,M,2.4,M,3.4,M*29
$HCHDG,23.5,0.0,E,,*1D
$IIRMC,185900,A,4921.291,N,12316.560,W,00.0,046,220913,17,E,A*14
$HCHDG,23.5,0.0,E,,*1D
$YXXDR,A,5.2,D,PTCH,A,1.3,D,ROLL*58
$PTAK,FFD1,1.3*57
$GPRMC,190002.2,A,4921.29108,N,12316.56009,W,000.03,046.5,220913,017.3,E,D*21
$PGRME,2.4,M,2.4,M,3.4,M*29
$HCHDG,23.3,0.0,E,,*1B
$HCHDG,23.3,0.0,E,,*1B
$GPRMC,190002.4,A,4921.29108,N,12316.56010,W,000.04,046.5,220913,017.3,E,D*28
$PGRME,2.4,M,2.4,M,3.4,M*29
$HCHDG,23.4,0.0,E,,*1C
$PTAK,FFP1,HEEL,@*07
$HCHDG,23.3,0.0,E,,*1B
$IIVHW,,,,,00.0,N,,*19
$GPRMC,190002.6,A,4921.29108,N,12316.56010,W,000.00,046.5,220913,017.3,E,D*2E
$PGRME,2.4,M,2.4,M,3.4,M*29
$HCHDG,23.1,0.0,E,,*19
$IIVLW,06381,N,008.5,N*52
$IIVWR,042,R,16.0,N,,,,*60
$YXXDR,A,5.2,D,PTCH,A,1.2,D,ROLL*59
$IIDPT,005.3,-1.0,*46
$HCHDG,23.2,0.0,E,,*1A
$GPRMC,190002.8,A,4921.29108,N,12316.56010,W,000.02,046.5,220913,017.3,E,D*22
$PGRME,2.4,M,2.4,M,3.4,M*29
$HCHDG,23.2,0.0,E,,*1A
$IIGLL,4921.291,N,12316.560,W,190000,A,A*4A
$IIMTW,+13.0,C*3A
$HCHDG,23.1,0.0,E,,*19
$IIMWV,042,R,16.0,N,A*12
$IIMWV,048,T,16.4,N,A*1A
$GPRMC,190003.0,A,4921.29107,N,12316.56010,W,000.02,046.5,220913,017.3,E,D*24
$GPRMB,A,-35.03,L,,Shil,4741.0830,N,12224.5670,W,106.0,161,-0.01,V*0F
$PGRME,2.4,M,2.4,M,3.4,M*29
$HCHDG,23.2,0.0,E,,*1A
$IIRMB,A,,,,Shil,,,,,106.0,161,,V,A*2A
$HCHDG,23.1,0.0,E,,*19
$YXXDR,A,5.1,D,PTCH,A,1.5,D,ROLL*5D
$PTAK,FFD1,1.5*51
$GPRMC,190003.2,A,4921.29107,N,12316.56009,W,000.01,046.5,220913,017.3,E,D*2D
$PGRME,2.4,M,2.4,M,3.4,M*29
$HCHDG,23.0,0.0,E,,*18
$HCHDG,23.0,0.0,E,,*18
$GPRMC,190003.4,A,4921.29107,N,12316.56010,W,000.03,046.5,220913,017.3,E,D*21
$PGRME,2.4,M,2.4,M,3.4,M*29
$HCHDG,22.9,0.0,E,,*10
$HCHDG,23.2,0.0,E,,*1A
$GPRMC,190003.6,A,4921.29107,N,12316.56010,W,000.01,046.5,220913,017.3,E,D*21
$PGRME,2.4,M,2.4,M,3.4,M*29
$HCHDG,23.2,0.0,E,,*1A
$IIRMC,190000,A,4921.291,N,12316.560,W,00.0,046,220913,17,E,A*19
$YXXDR,A,5.5,D,PTCH,A,2.2,D,ROLL*5D
$IIVHW,,,,,00.0,N,,*19
$HCHDG,23.4,0.0,E,,*1C
$IIVLW,06381,N,008.5,N*52
$GPRMC,190003.8,A,4921.29107,N,12316.56009,W,000.03,046.5,220913,017.3,E,D*25
$PGRME,2.4,M,2.4,M,3.4,M*29
$HCHDG,23.8,0.0,E,,*10
$IIVWR,038,R,15.7,N,,,,*69
$IIDPT,005.3,-1.0,*46
$HCHDG,23.7,0.0,E,,*1F
$IIGLL,4921.291,N,12316.560,W,190000,A,A*4A
$GPRMC,190004.0,A,4921.29108,N,12316.56010,W,000.02,046.5,220913,017.3,E,D*2C
$IIMTW,+13.0,C*3A
$PGRME,2.4,M,2.4,M,3.4,M*29
$HCHDG,23.7,0.0,E,,*1F
$IIMWV,038,R,15.7,N,A*1B
$IIMWV,042,T,16.0,N,A*14
$HCHDG,24.0,0.0,E,,*1F
$YXXDR,A,5.1,D,PTCH,A,2.0,D,ROLL*5B
$GPRMC,190004.2,A,4921.29108,N,12316.56010,W,000.02,046.5,220913,017.3,E,D*2E
$GPRMB,A,-35.03,L,,Shil,4741.0830,N,12224.5670,W,106.0,161,-0.01,V*0F
$PGRME,2.4,M,2.4,M,3.4,M*29
$HCHDG,24.0,0.0,E,,*1F
$HCHDG,24.2,0.0,E,,*1D
$GPRMC,190004.4,A,4921.29108,N,12316.56010,W,000.02,046.5,220913,017.3,E,D*28
$PGRME,2.4,M,2.4,M,3.4,M*29
$HCHDG,24.1,0.0,E,,*1E
$HCHDG,24.1,0.0,E,,*1E
$GPRMC,190004.6,A,4921.29108,N,12316.56010,W,000.02,046.5,220913,017.3,E,D*2A
$PGRME,2.4,M,2.4,M,3.4,M*29
$IIRMB,A,,,,Shil,,,,,106.0,161,,V,A*2A
$HCHDG,24.0,0.0,E,,*1F
$YXXDR,A,5.2,D,PTCH,A,1.8,D,ROLL*53
$PTAK,FFD1,1.8*5C
$HCHDG,24.1,0.0,E,,*1E
$IIRMC,190000,A,4921.291,N,12316.560,W,00.0,046,220913,17,E,A*19
$IIVHW,,,,,00.0,N,,*19
$GPRMC,190004.8,A,4921.29108,N,12316.56010,W,000.00,046.5,220913,017.3,E,D*26
$PGRME,2.4,M,2.4,M,3.4,M*29
$HCHDG,24.1,0.0,E,,*1E
$IIVLW,06381,N,008.5,N*52
$IIVWR,036,R,15.5,N,,,,*65
$HCHDG,24.1,0.0,E,,*1E
$IIDPT,005.3,-1.0,*46
$GPRMC,190005.0,A,4921.29108,N,12316.56010,W,000.01,046.5,220913,017.3,E,D*2E
$PGRME,2.4,M,2.4,M,3.4,M*29
$HCHDG,24.0,0.0,E,,*1F
$IIGLL,4921.291,N,12316.560,W,190000,A,A*4A
$IIMTW,+13.0,C*3A
$HCHDG,24.1,0.0,E,,*1E
$IIMWV,036,R,15.5,N,A*17
$GPRMC,190005.2,A,4921.29108,N,12316.56010,W,000.01,046.5,220913,017.3,E,D*2C
$YXXDR,A,5.4,D,PTCH,A,1.7,D,ROLL*5A
$PGRME,2.4,M,2.4,M,3.4,M*29
$HCHDG,24.2,0.0,E,,*1D
$HCHDG,24.1,0.0,E,,*1E
$GPRMC,190005.4,A,4921.29108,N,12316.56010,W,000.01,046.5,220913,017.3,E,D*2A
$GPRMB,A,-35.03,L,,Shil,4741.0830,N,12224.5670,W,106.0,161,-0.00,V*0E
$PGRME,2.4,M,2.4,M,3.4,M*29
$HCHDG,23.9,0.0,E,,*11
$HCHDG,24.1,0.0,E,,*1E
$IIMWV,036,T,15.5,N,A*11
$GPRMC,190005.6,A,4921.29108,N,12316.56010,W,000.00,046.5,220913,017.3,E,D*29
$PGRME,2.4,M,2.4,M,3.4,M*29
$HCHDG,24.1,0.0,E,,*1E
$IIRMB,A,,,,Shil,,,,,106.0,161,,V,A*2A
$YXXDR,A,5.2,D,PTCH,A,1.3,D,ROLL*58
$PTAK,FFD1,1.3*57
$HCHDG,24.1,0.0,E,,*1E
$GPRMC,190005.8,A,4921.29108,N,12316.56010,W,000.00,046.5,220913,017.3,E,D*27
$IIRMC,190000,A,4921.291,N,12316.560,W,00.0,046,220913,17,E,A*19
$PGRME,2.4,M,2.4,M,3.4,M*29
$HCHDG,23.9,0.0,E,,*11
$IIVHW,,,,,00.0,N,,*19
$IIVLW,06381,N,008.5,N*52
$HCHDG,24.0,0.0,E,,*1F
$IIVWR,033,R,15.3,N,,,,*66
$GPRMC,190006.0,A,4921.29108,N,12316.56010,W,000.01,046.5,220913,017.3,E,D*2D
$PGRME,2.4,M,2.4,M,3.4,M*29
$IIDPT,005.3,-1.0,*46
$HCHDG,24.0,0.0,E,,*1F
$IIGLL,4921.291,N,12316.560,W,190000,A,A*4A
$HCHDG,24.1,0.0,E,,*1E
$IIMTW,+13.0,C*3A
$YXXDR,A,5.2,D,PTCH,A,1.3,D,ROLL*58
$GPRMC,190006.2,A,4921.29108,N,12316.56010,W,000.01,046.5,220913,017.3,E,D*2F
$PGRME,2.4,M,2.4,M,3.4,M*29
$HCHDG,23.9,0.0,E,,*11
$HCHDG,23.9,0.0,E,,*11
$GPRMC,190006.4,A,4921.29108,N,12316.56010,W,000.01,046.5,220913,017.3,E,D*29
$GPRMB,A,-35.03,L,,Shil,4741.0830,N,12224.5670,W,106.0,161,-0.00,V*0E
$PGRME,2.4,M,2.4,M,3.4,M*29
$HCHDG,23.7,0.0,E,,*1F
$PTAK,FFP1,HEEL,@*07
$HCHDG,23.7,0.0,E,,*1F
$IIMWV,031,R,15.2,N,A*17
$GPRMC,190006.6,A,4921.29108,N,12316.56010,W,000.03,046.5,220913,017.3,E,D*29
$PGRME,2.4,M,2.4,M,3.4,M*29
$HCHDG,23.7,0.0,E,,*1F
$IIMWV,033,T,15.3,N,A*12
$YXXDR,A,5.4,D,PTCH,A,1.4,D,ROLL*59
$PTAK,FFD1,1.4*50
$IIRMB,A,,,,Shil,,,,,106.0,161,,V,A*2A
$HCHDG,23.5,0.0,E,,*1D
$GPRMC,190006.8,A,4921.29108,N,12316.56010,W,000.01,046.5,220913,017.3,E,D*25
$PGRME,2.4,M,2.4,M,3.4,M*29
$HCHDG,23.5,0.0,E,,*1D
$IIRMC,190000,A,4921.291,N,12316.560,W,00.0,046,220913,17,E,A*19
$IIVHW,,,,,00.0,N,,*19
$HCHDG,23.6,0.0,E,,*1E
$IIVLW,06381,N,008.5,N*52
$GPRMC,190007.0,A,4921.29108,N,12316.56010,W,000.01,046.5,220913,017.3,E,D*2C
$PGRME,2.4,M,2.4,M,3.4,M*29
$IIVWR,031,R,15.2,N,,,,*65
$HCHDG,23.5,0.0,E,,*1D
$IIDPT,005.3,-1.0,*46
$HCHDG,23.6,0.0,E,,*1E
$YXXDR,A,5.6,D,PTCH,A,2.0,D,ROLL*5C
$GPRMC,190007.2,A,4921.29107,N,12316.56010,W,000.01,046.5,220913,017.3,E,D*21
$PGRME,2.4,M,2.4,M,3.4,M*29
$HCHDG,23.6,0.0,E,,*1E
$HCHDG,23.3,0.0,E,,*1B
$GPRMC,190007.4,A,4921.29107,N,12316.56010,W,000.01,046.5,220913,017.3,E,D*27
$PGRME,2.4,M,2.4,M,3.4,M*29
$HCHDG,23.6,0.0,E,,*1E
$HCHDG,23.6,0.0,E,,*1E
$GPRMC,190007.6,A,4921.29107,N,12316.56010,W,000.02,046.5,220913,017.3,E,D*26
$GPRMB,A,-35.03,L,,Shil,4741.0830,N,12224.5670,W,106.0,161,-0.01,V*0F
$PGRME,2.4,M,2.4,M,3.4,M*29
$IIGLL,4921.291,N,12316.560,W,190000,A,A*4A
$HCHDG,23.7,0.0,E,,*1F
$IIMTW,+13.0,C*3A
$YXXDR,A,5.6,D,PTCH,A,2.0,D,ROLL*5C
$PTAK,FFD1,2.0*57
$IIMWV,030,R,15.1,N,A*15
$HCHDG,23.8,0.0,E,,*10
$IIMWV,031,T,15.2,N,A*11
$GPRMC,190007.8,A,4921.29107,N,12316.56010,W,000.00,046.5,220913,017.3,E,D*2A
$PGRME,2.4,M,2.4,M,3.4,M*29
$HCHDG,23.8,0.0,E,,*10
$IIRMB,A,,,,Shil,,,,,106.0,161,,V,A*2A
$HCHDG,23.4,0.0,E,,*1C
$IIRMC,190000,A,4921.291,N,12316.560,W,00.0,046,220913,17,E,A*19
$GPRMC,190008.0,A,4921.29107,N,12316.56010,W,000.01,046.5,220913,017.3,E,D*2C
$PGRME,2.4,M,2.4,M,3.4,M*29
$HCHDG,23.4,0.0,E,,*1C
$IIVHW,,,,,00.0,N,,*19
$IIVLW,06381,N,008.5,N*52
$HCHDG,23.5,0.0,E,,*1D
$YXXDR,A,5.5,D,PTCH,A,1.4,D,ROLL*58
$GPRMC,190008.2,A,4921.29107,N,12316.56010,W,000.02,046.5,220913,017.3,E,D*2D
$PGRME,2.4,M,2.4,M,3.4,M*29
$HCHDG,23.2,0.0,E,,*1A
$HCHDG,23.0,0.0,E,,*18
$GPRMC,190008.4,A,4921.29107,N,12316.56010,W,000.02,046.5,220913,017.3,E,D*2B
$PGRME,2.4,M,2.4,M,3.4,M*29
$HCHDG,23.0,0.0,E,,*18
$HCHDG,22.8,0.0,E,,*11
$IIVWR,030,R,15.0,N,,,,*66
$GPRMC,190008.6,A,4921.29107,N,12316.56010,W,000.00,046.5,220913,017.3,E,D*2B
$GPRMB,A,-35.03,L,,Shil,4741.0830,N,12224.5670,W,106.0,161,-0.00,V*0E
$PGRME,2.4,M,2.4,M,3.4,M*29
$HCHDG,22.6,0.0,E,,*1F
$IIDPT,005.3,-1.0,*46
$YXXDR,A,5.4,D,PTCH,A,1.1,D,ROLL*5C
$IIGLL,4921.291,N,12316.560,W,190000,A,A*4A
$HCHDG,22.6,0.0,E,,*1F
$IIMTW,+13.0,C*3A
$GPRMC,190008.8,A,4921.29107,N,12316.56010,W,000.02,046.5,220913,017.3,E,D*27
$PGRME,2.4,M,2.4,M,3.4,M*29
$IIMWV,030,R,15.0,N,A*14
$HCHDG,22.6,0.0,E,,*1F
$IIMWV,030,T,15.1,N,A*13
$HCHDG,22.9,0.0,E,,*10
$IIRMB,A,,,,Shil,,,,,106.0,161,,V,A*2A
$GPRMC,190009.0,A,4921.29107,N,12316.56011,W,000.01,046.5,220913,017.3,E,D*2C
$PGRME,2.4,M,2.4,M,3.4,M*29
$HCHDG,22.9,0.0,E,,*10
$IIRMC,190000,A,4921.291,N,12316.560,W,00.0,046,220913,17,E,A*19
$HCHDG,23.1,0.0,E,,*19
$YXXDR,A,5.1,D,PTCH,A,2.3,D,ROLL*58
$PTAK,FFD1,2.3*54
$GPRMC,190009.2,A,4921.29107,N,12316.56011,W,000.00,046.5,220913,017.3,E,D*2F
$PGRME,2.4,M,2.4,M,3.4,M*29
$HCHDG,23.0,0.0,E,,*18
$HCHDG,23.3,0.0,E,,*1B
$GPRMC,190009.4,A,4921.29106,N,12316.56011,W,000.01,046.5,220913,017.3,E,D*29
$PGRME,2.4,M,2.4,M,3.4,M*29
$HCHDG,23.5,0.0,E,,*1D
$HCHDG,23.4,0.0,E,,*1C
$IIVHW,,,,,00.0,N,,*19
$GPRMC,190009.6,A,4921.29106,N,12316.56011,W,000.02,046.5,220913,017.3,E,D*28
$PGRME,2.4,M,2.4,M,3.4,M*29
$HCHDG,23.4,0.0,E,,*1C
$IIVLW,06381,N,008.5,N*52
$IIVWR,033,R,15.0,N,,,,*65
$YXXDR,A,5.1,D,PTCH,A,1.5,D,ROLL*5D
$IIDPT,005.3,-1.0,*46
$HCHDG,23.3,0.0,E,,*1B
$GPRMC,190009.8,A,4921.29106,N,12316.56011,W,000.00,046.5,220913,017.3,E,D*24
$GPRMB,A,-35.03,L,,Shil,4741.0830,N,12224.5670,W,106.0,161,-0.00,V*0E
$PGRME,2.4,M,2.4,M,3.4,M*29
$HCHDG,23.3,0.0,E,,*1B
$IIGLL,4921.291,N,12316.560,W,190000,A,A*4A
$IIMTW,+13.0,C*3A
$IIMWV,033,R,15.0,N,A*17
$HCHDG,23.3,0.0,E,,*1B
$IIMWV,030,T,15.0,N,A*12
$GPRMC,190010.0,A,4921.29106,N,12316.56011,W,000.04,046.5,220913,017.3,E,D*20
$PGRME,2.4,M,2.4,M,3.4,M*29
$HCHDG,23.2,0.0,E,,*1A
$IIRMB,A,,,,Shil,,,,,106.0,161,,V,A*2A
$HCHDG,23.0,0.0,E,,*18
$YXXDR,A,5.5,D,PTCH,A,1.3,D,ROLL*5F
$GPRMC,190010.2,A,4921.29106,N,12316.56011,W,000.02,046.5,220913,017.3,E,D*24
$PGRME,2.4,M,2.4,M,3.4,M*29
$HCHDG,23.0,0.0,E,,*18
$HCHDG,23.0,0.0,E,,*18
$GPRMC,190010.4,A,4921.29106,N,12316.56011,W,000.00,046.5,220913,017.3,E,D*20
$PGRME,2.4,M,2.4,M,3.4,M*29
$HCHDG,23.1,0.0,E,,*19
$HCHDG,23.1,0.0,E,,*19
$GPRMC,190010.6,A,4921.29106,N,12316.56011,W,000.01,046.5,220913,017.3,E,D*23
$PGRME,2.4,M,2.4,M,3.4,M*29
$HCHDG,22.8,0.0,E,,*11
$PTAK,FFP1,HEEL,@*07
$IIRMC,190000,A,4921.291,N,12316.560,W,00.0,046,220913,17,E,A*19
$YXXDR,A,5.4,D,PTCH,A,1.2,D,ROLL*5F
$PTAK,FFD1,1.2*56
$IIVHW,,,,,00.0,N,,*19
$HCHDG,22.8,0.0,E,,*11
$IIVLW,06381,N,008.5,N*52
$GPRMC,190010.8,A,4921.29106,N,12316.56012,W,000.02,046.5,220913,017.3,E,D*2D
$GPRMB,A,-35.03,L,,Shil,4741.0830,N,12224.5670,W,106.0,161,-0.01,V*0F
$PGRME,2.4,M,2.4,M,3.4,M*29
$HCHDG,22.8,0.0,E,,*11
$IIVWR,035,R,14.7,N,,,,*65
$IIDPT,005.3,-1.0,*46
$HCHDG,22.7,0.0,E,,*1E
$IIGLL,4921.291,N,12316.560,W,190000,A,A*4A
$GPRMC,190011.0,A,4921.29106,N,12316.56012,W,000.01,046.5,220913,017.3,E,D*27
$IIMTW,+13.0,C*3A
$PGRME,2.4,M,2.4,M,3.4,M*29
$HCHDG,22.6,0.0,E,,*1F
$IIMWV,035,R,14.7,N,A*17
$IIMWV,033,T,15.0,N,A*11
$HCHDG,22.6,0.0,E,,*1F
$YXXDR,A,5.5,D,PTCH,A,1.4,D,ROLL*58
$GPRMC,190011.2,A,4921.29106,N,12316.56012,W,000.01,046.5,220913,017.3,E,D*25
$PGRME,2.4,M,2.4,M,3.4,M*29
$HCHDG,22.5,0.0,E,,*1C
$HCHDG,22.6,0.0,E,,*1F
$GPRMC,190011.4,A,4921.29106,N,12316.56012,W,000.02,046.5,220913,017.3,E,D*20
$PGRME,2.4,M,2.4,M,3.4,M*29
$HCHDG,22.7,0.0,E,,*1E
$HCHDG,22.8,0.0,E,,*11
$GPRMC,190011.6,A,4921.29106,N,12316.56012,W,000.01,046.5,220913,017.3,E,D*21
$PGRME,2.4,M,2.4,M,3.4,M*29
$IIRMB,A,,,,Shil,,,,,106.0,161,,V,A*2A
$HCHDG,22.9,0.0,E,,*10
$YXXDR,A,5.4,D,PTCH,A,1.8,D,ROLL*55
$IIRMC,190000,A,4921.291,N,12316.560,W,00.0,046,220913,17,E,A*19
$HCHDG,22.8,0.0,E,,*11
$IIVHW,,,,,00.0,N,,*19
$GPRMC,190011.8,A,4921.29106,N,12316.56012,W,000.09,046.5,220913,017.3,E,D*27
$GPRMB,A,-35.03,L,,Shil,4741.0830,N,12224.5670,W,106.0,161,-0.04,V*0A
$PGRME,2.4,M,2.4,M,3.4,M*29
$HCHDG,22.9,0.0,E,,*10
$IIVLW,06381,N,008.5,N*52
$IIVWR,036,R,14.5,N,,,,*64
$HCHDG,22.5,0.0,E,,*1C
$IIDPT,005.3,-1.0,*46
$GPRMC,190012.0,A,4921.29106,N,12316.56012,W,000.13,046.5,220913,017.3,E,D*27
$PGRME,2.4,M,2.4,M,3.4,M*29
$HCHDG,22.5,0.0,E,,*1C
$IIGLL,4921.291,N,12316.560,W,190000,A,A*4A
$IIMTW,+13.0,C*3A
$HCHDG,22.3,0.0,E,,*1A
$IIMWV,036,R,14.5,N,A*16
$YXXDR,A,5.6,D,PTCH,A,0.8,D,ROLL*56
$PTAK,FFD1,0.8*5D
$GPRMC,190012.2,A,4921.29106,N,12316.56012,W,000.01,046.5,220913,017.3,E,D*26
$PGRME,2.4,M,2.4,M,3.4,M*29
$HCHDG,21.9,0.0,E,,*13
$HCHDG,21.9,0.0,E,,*13
$GPRMC,190012.4,A,4921.29106,N,12316.56012,W,000.10,046.5,220913,017.3,E,D*20
$PGRME,2.4,M,2.4,M,3.4,M*29
$HCHDG,21.7,0.0,E,,*1D
$HCHDG,21.8,0.0,E,,*12
$IIMWV,036,T,14.5,N,A*10
$GPRMC,190012.6,A,4921.29106,N,12316.56011,W,000.18,046.5,220913,017.3,E,D*29
$PGRME,2.4,M,2.4,M,3.4,M*29
$HCHDG,21.8,0.0,E,,*12
$IIRMB,A,,,,Shil,,,,,106.0,161,,V,A*2A
$YXXDR,A,5.5,D,PTCH,A,1.1,D,ROLL*5D
$HCHDG,21.8,0.0,E,,*12
$GPRMC,190012.8,A,4921.29106,N,12316.56011,W,000.02,046.5,220913,017.3,E,D*2C
$IIRMC,190000,A,4921.291,N,12316.560,W,00.1,046,220913,17,E,A*18
$PGRME,2.4,M,2.4,M,3.4,M*29
$HCHDG,22.1,0.0,E,,*18
$IIVHW,,,,,00.0,N,,*19
$IIVLW,06381,N,008.5,N*52
$HCHDG,22.3,0.0,E,,*1A
$IIVWR,038,R,15.0,N,,,,*6E
$GPRMC,190013.0,A,4921.29106,N,12316.56011,W,000.09,046.5,220913,017.3,E,D*2E
$GPRMB,A,-35.03,L,,Shil,4741.0830,N,12224.5670,W,106.0,161,-0.04,V*0A
$PGRME,2.4,M,2.4,M,3.4,M*29
$IIDPT,005.3,-1.0,*46
$HCHDG,22.7,0.0,E,,*1E
$IIGLL,4921.291,N,12316.560,W,190000,A,A*4A
$HCHDG,23.0,0.0,E,,*18
$IIMTW,+13.0,C*3A
$YXXDR,A,5.1,D,PTCH,A,2.9,D,ROLL*52
$PTAK,FFD1,2.9*5E
$GPRMC,190013.2,A,4921.29106,N,12316.56011,W,000.04,046.5,220913,017.3,E,D*21
$PGRME,2.4,M,2.4,M,3.4,M*29
$HCHDG,23.0,0.0,E,,*18
$HCHDG,23.3,0.0,E,,*1B
$GPRMC,190013.4,A,4921.29106,N,12316.56011,W,000.04,046.5,220913,017.3,E,D*27
$PGRME,2.4,M,2.4,M,3.4,M*29
$HCHDG,23.4,0.0,E,,*1C
$HCHDG,23.5,0.0,E,,*1D
$IIMWV,039,R,16.1,N,A*1F
$GPRMC,190013.6,A,4921.29106,N,12316.56011,W,000.04,046.5,220913,017.3,E,D*25
$PGRME,2.4,M,2.4,M,3.4,M*29
$HCHDG,23.5,0.0,E,,*1D
$IIMWV,038,T,15.0,N,A*1A
$YXXDR,A,5.4,D,PTCH,A,1.8,D,ROLL*55
$IIRMB,A,,,,Shil,,,,,106.0,161,,V,A*2A
$HCHDG,23.5,0.0,E,,*1D
$GPRMC,190013.8,A,4921.29106,N,12316.56011,W,000.03,046.5,220913,017.3,E,D*2C
$PGRME,2.4,M,2.4,M,3.4,M*29
$HCHDG,23.6,0.0,E,,*1E
$IIRMC,190000,A,4921.291,N,12316.560,W,00.0,046,220913,17,E,A*19
$IIVHW,,,,,00.0,N,,*19
$HCHDG,23.7,0.0,E,,*1F
$IIVLW,06381,N,008.5,N*52
$GPRMC,190014.0,A,4921.29106,N,12316.56011,W,000.02,046.5,220913,017.3,E,D*22
$PGRME,2.4,M,2.4,M,3.4,M*29
$IIVWR,039,R,16.1,N,,,,*6D
$HCHDG,23.6,0.0,E,,*1E
$IIDPT,005.3,-1.0,*46
$HCHDG,23.8,0.0,E,,*10
$GPRMC,190014.2,A,4921.29106,N,12316.56011,W,000.03,046.5,220913,017.3,E,D*21
$GPRMB,A,-35.03,L,,Shil,4741.0830,N,12224.5670,W,106.0,161,-0.01,V*0F
$YXXDR,A,5.0,D,PTCH,A,1.2,D,ROLL*5B
$PTAK,FFD1,1.2*56
$PGRME,2.5,M,2.4,M,3.5,M*29
$HCHDG,23.5,0.0,E,,*1D
$HCHDG,23.5,0.0,E,,*1D
$GPRMC,190014.4,A,4921.29105,N,12316.56013,W,000.03,046.5,220913,017.3,E,D*26
$PGRME,2.5,M,2.4,M,3.5,M*29
$HCHDG,23.2,0.0,E,,*1A
$HCHDG,23.3,0.0,E,,*1B
$GPRMC,190014.6,A,4921.29104,N,12316.56015,W,000.01,046.5,220913,017.3,E,D*21
$PGRME,2.5,M,2.4,M,3.5,M*29
$IIGLL,4921.291,N,12316.560,W,190000,A,A*4A
$HCHDG,23.2,0.0,E,,*1A
$PTAK,FFP1,HEEL,@*07
$IIMTW,+13.0,C*3A
$YXXDR,A,5.2,D,PTCH,A,1.0,D,ROLL*5B
$IIMWV,038,R,16.1,N,A*1E
$HCHDG,23.0,0.0,E,,*18
$IIMWV,039,T,16.1,N,A*19
$GPRMC,190014.8,A,4921.29104,N,12316.56016,W,000.02,046.5,220913,017.3,E,D*2F
$PGRME,2.5,M,2.4,M,3.5,M*29
$HCHDG,23.0,0.0,E,,*18
$IIRMB,A,,,,Shil,,,,,106.0,161,,V,A*2A
$HCHDG,23.0,0.0,E,,*18
$IIRMC,190000,A,4921.291,N,12316.560,W,00.0,046,220913,17,E,A*19
$GPRMC,190015.0,A,4921.29104,N,12316.56016,W,000.05,046.5,220913,017.3,E,D*21
$PGRME,2.6,M,2.4,M,3.5,M*2A
$HCHDG,22.7,0.0,E,,*1E
$IIVHW,,,,,00.0,N,,*19
$IIVLW,06381,N,008.5,N*52
$HCHDG,22.7,0.0,E,,*1E
$GPRMC,190015.2,A,4921.29104,N,12316.56016,W,000.04,046.5,220913,017.3,E,D*22
$PGRME,2.6,M,2.4,M,3.6,M*29
$YXXDR,A,5.5,D,PTCH,A,0.9,D,ROLL*54
$HCHDG,22.5,0.0,E,,*1C
$HCHDG,22.5,0.0,E,,*1C
$GPRMC,190015.4,A,4921.29103,N,12316.56017,W,000.04,046.5,220913,017.3,E,D*22
$GPRMB,A,-35.03,L,,Shil,4741.0830,N,12224.5670,W,106.0,161,-0.02,V*0C
$PGRME,2.6,M,2.4,M,3.6,M*29
$HCHDG,22.5,0.0,E,,*1C
$HCHDG,22.8,0.0,E,,*11
$IIVWR,040,R,16.0,N,,,,*62
$GPRMC,190015.6,A,4921.29103,N,12316.56017,W,000.01,046.5,220913,017.3,E,D*25
$PGRME,2.6,M,2.4,M,3.6,M*29
$HCHDG,23.0,0.0,E,,*18
$IIDPT,005.3,-1.0,*46
$YXXDR,A,5.7,D,PTCH,A,1.4,D,ROLL*5A
$PTAK,FFD1,1.4*50
$IIGLL,4921.291,N,12316.560,W,190000,A,A*4A
$HCHDG,23.0,0.0,E,,*18
$IIMTW,+13.0,C*3A
$GPRMC,190015.8,A,4921.29103,N,12316.56016,W,000.02,046.5,220913,017.3,E,D*29
$PGRME,2.6,M,2.4,M,3.6,M*29
$IIMWV,040,R,16.0,N,A*10
$HCHDG,23.2,0.0,E,,*1A
$IIMWV,038,T,16.1,N,A*18
$HCHDG,23.1,0.0,E,,*19
$IIRMB,A,,,,Shil,,,,,106.0,161,,V,A*2A
$GPRMC,190016.0,A,4921.29103,N,12316.56016,W,000.01,046.5,220913,017.3,E,D*21
$PGRME,2.7,M,2.4,M,3.6,M*28
$HCHDG,23.2,0.0,E,,*1A
$IIRMC,190000,A,4921.291,N,12316.560,W,00.0,046,220913,17,E,A*19
$HCHDG,23.3,0.0,E,,*1B
$GPRMC,190016.2,A,4921.29103,N,12316.56017,W,000.01,046.5,220913,017.3,E,D*22
$PGRME,2.7,M,2.4,M,3.6,M*28
$YXXDR,A,5.6,D,PTCH,A,1.5,D,ROLL*5A
$HCHDG,23.3,0.0,E,,*1B
$HCHDG,23.2,0.0,E,,*1A
$GPRMC,190016.4,A,4921.29103,N,12316.56016,W,000.03,046.5,220913,017.3,E,D*27
$PGRME,2.7,M,2.4,M,3.6,M*28
$HCHDG,23.2,0.0,E,,*1A
$HCHDG,22.9,0.0,E,,*10
$IIVHW,,,,,00.0,N,,*19
$GPRMC,190016.6,A,4921.29103,N,12316.56017,W,000.03,046.5,220913,017.3,E,D*24
$GPRMB,A,-35.03,L,,Shil,4741.0830,N,12224.5670,W,106.0,161,-0.01,V*0F
$PGRME,2.7,M,2.4,M,3.7,M*29
$HCHDG,22.7,0.0,E,,*1E
$IIVLW,06381,N,008.5,N*52
$IIVWR,041,R,15.0,N,,,,*60
$YXXDR,A,5.4,D,PTCH,A,0.5,D,ROLL*59
$PTAK,FFD1,0.5*50
$IIDPT,005.3,-1.0,*46
$HCHDG,22.5,0.0,E,,*1C
$GPRMC,190016.8,A,4921.29103,N,12316.56017,W,000.01,046.5,220913,017.3,E,D*28
$PGRME,2.7,M,2.4,M,3.7,M*29
$HCHDG,22.3,0.0,E,,*1A
$IIGLL,4921.291,N,12316.560,W,190000,A,A*4A
$IIMTW,+13.0,C*3A
$IIMWV,041,R,15.0,N,A*12
$HCHDG,22.1,0.0,E,,*18
$IIMWV,040,T,16.0,N,A*16
$GPRMC,190017.0,A,4921.29103,N,12316.56016,W,000.01,046.5,220913,017.3,E,D*20
$PGRME,2.7,M,2.4,M,3.7,M*29
$HCHDG,22.1,0.0,E,,*18
$IIRMB,A,,,,Shil,,,,,106.0,161,,V,A*2A
$HCHDG,22.3,0.0,E,,*1A
$GPRMC,190017.2,A,4921.29104,N,12316.56016,W,000.04,046.5,220913,017.3,E,D*20
$YXXDR,A,5.2,D,PTCH,A,1.1,D,ROLL*5A
$PGRME,2.8,M,2.4,M,3.7,M*26
$HCHDG,22.7,0.0,E,,*1E
$HCHDG,22.8,0.0,E,,*11
$GPRMC,190017.4,A,4921.29104,N,12316.56016,W,000.01,046.5,220913,017.3,E,D*23
$PGRME,2.8,M,2.4,M,3.7,M*26
$HCHDG,23.3,0.0,E,,*1B
$HCHDG,23.7,0.0,E,,*1F
$GPRMC,190017.6,A,4921.29104,N,12316.56016,W,000.02,046.5,220913,017.3,E,D*22
$PGRME,2.8,M,2.4,M,3.7,M*26
$HCHDG,23.6,0.0,E,,*1E
$IIRMC,190000,A,4921.291,N,12316.560,W,00.0,046,220913,17,E,A*19
$YXXDR,A,5.1,D,PTCH,A,2.7,D,ROLL*5C
$IIVHW,,,,,00.0,N,,*19
$HCHDG,23.9,0.0,E,,*11
$IIVLW,06381,N,008.5,N*52
$GPRMC,190017.8,A,4921.29104,N,12316.56016,W,000.01,046.5,220913,017.3,E,D*2F
$GPRMB,A,-35.03,L,,Shil,4741.0830,N,12224.5670,W,106.0,161,-0.00,V*0E
$PGRME,2.8,M,2.4,M,3.7,M*26
$IIVWR,042,R,14.6,N,,,,*64
$HCHDG,23.9,0.0,E,,*11
$IIDPT,005.3,-1.0,*46
$HCHDG,23.8,0.0,E,,*10
$IIGLL,4921.291,N,12316.560,W,190000,A,A*4A
$GPRMC,190018.0,A,4921.29104,N,12316.56016,W,000.02,046.5,220913,017.3,E,D*2B
$IIMTW,+13.0,C*3A
$PGRME,2.8,M,2.4,M,3.7,M*26
$HCHDG,23.8,0.0,E,,*10
$IIMWV,042,R,14.6,N,A*16
$IIMWV,041,T,15.0,N,A*14
$HCHDG,23.7,0.0,E,,*1F
$GPRMC,190018.2,A,4921.29104,N,12316.56016,W,000.00,046.5,220913,017.3,E,D*2B
$YXXDR,A,5.2,D,PTCH,A,2.1,D,ROLL*59
$PTAK,FFD1,2.1*56
$PGRME,2.8,M,2.4,M,3.7,M*26
$HCHDG,24.0,0.0,E,,*1F
$HCHDG,24.0,0.0,E,,*1F
$GPRMC,190018.4,A,4921.29103,N,12316.56016,W,000.03,046.5,220913,017.3,E,D*29
$PGRME,2.8,M,2.4,M,3.7,M*26
$HCHDG,23.9,0.0,E,,*11
$HCHDG,24.0,0.0,E,,*1F
$GPRMC,190018.6,A,4921.29103,N,12316.56016,W,000.02,046.5,220913,017.3,E,D*2A
$IIRMB,A,,,,Shil,,,,,106.0,161,,V,A*2A
$PGRME,2.9,M,2.4,M,3.8,M*28
$HCHDG,23.9,0.0,E,,*11
$YXXDR,A,5.4,D,PTCH,A,1.7,D,ROLL*5A
$PTAK,FFP1,HEEL,@*07
$IIRMC,190000,A,4921.291,N,12316.560,W,00.0,046,220913,17,E,A*19
$HCHDG,23.6,0.0,E,,*1E
$IIVHW,,,,,00.0,N,,*19
$GPRMC,190018.8,A,4921.29103,N,12316.56016,W,000.02,046.5,220913,017.3,E,D*24
$GPRMB,A,-35.03,L,,Shil,4741.0830,N,12224.5670,W,106.0,161,-0.01,V*0F
$PGRME,2.9,M,2.4,M,3.8,M*28
$HCHDG,23.6,0.0,E,,*1E
$IIVLW,06381,N,008.5,N*52
$IIVWR,043,R,13.9,N,,,,*6D
$HCHDG,23.2,0.0,E,,*1A
$IIDPT,005.3,-1.0,*46
$GPRMC,190019.0,A,4921.29103,N,12316.56016,W,000.02,046.5,220913,017.3,E,D*2D
$PGRME,2.9,M,2.4,M,3.8,M*28
$HCHDG,23.3,0.0,E,,*1B
$IIGLL,4921.291,N,12316.560,W,190000,A,A*4A
$IIMTW,+13.0,C*3A
$HCHDG,23.0,0.0,E,,*18
$IIMWV,043,R,13.9,N,A*1F
$GPRMC,190019.2,A,4921.29103,N,12316.56016,W,000.03,046.5,220913,017.3,E,D*2E
$YXXDR,A,5.4,D,PTCH,A,1.0,D,ROLL*5D
$PTAK,FFD1,1.0*54
$PGRME,2.9,M,2.4,M,3.8,M*28
$HCHDG,22.9,0.0,E,,*10
$HCHDG,22.5,0.0,E,,*1C
$GPRMC,190019.4,A,4921.29104,N,12316.56016,W,000.02,046.5,220913,017.3,E,D*2E
$PGRME,2.9,M,2.4,M,3.8,M*28
$HCHDG,22.3,0.0,E,,*1A
$HCHDG,22.1,0.0,E,,*18
$IIMWV,043,T,13.9,N,A*19
$GPRMC,190019.6,A,4921.29104,N,12316.56016,W,000.01,046.5,220913,017.3,E,D*2F
$PGRME,2.9,M,2.4,M,3.8,M*28
$HCHDG,22.1,0.0,E,,*18
$IIRMB,A,,,,Shil,,,,,106.0,161,,V,A*2A
$YXXDR,A,5.6,D,PTCH,A,1.7,D,ROLL*58
$HCHDG,22.1,0.0,E,,*18
$IIRMC,190000,A,4921.291,N,12316.560,W,00.0,046,220913,17,E,A*19
$GPRMC,190019.8,A,4921.29104,N,12316.56016,W,000.01,046.5,220913,017.3,E,D*21
$GPRMB,A,-35.03,L,,Shil,4741.0830,N,12224.5670,W,106.0,161,-0.00,V*0E
$PGRME,2.9,M,2.4,M,3.8,M*28
$HCHDG,22.2,0.0,E,,*1B
$IIVHW,,,,,00.0,N,,*19
$IIVLW,06381,N,008.5,N*52
$HCHDG,22.3,0.0,E,,*1A
$IIVWR,038,R,13.3,N,,,,*6B
$GPRMC,190020.0,A,4921.29103,N,12316.56015,W,000.02,046.5,220913,017.3,E,D*24
$PGRME,2.9,M,2.4,M,3.8,M*28
$IIDPT,005.3,-1.0,*46
$HCHDG,22.3,0.0,E,,*1A
$IIGLL,4921.291,N,12316.560,W,190000,A,A*4A
$HCHDG,22.8,0.0,E,,*11
$IIMTW,+13.0,C*3A
$YXXDR,A,5.4,D,PTCH,A,2.9,D,ROLL*57
$GPRMC,190020.2,A,4921.29103,N,12316.56015,W,000.03,046.5,220913,017.3,E,D*27
$PGRME,2.9,M,2.4,M,3.8,M*28
$HCHDG,22.9,0.0,E,,*10
$HCHDG,23.1,0.0,E,,*19
$GPRMC,190020.4,A,4921.29103,N,12316.56015,W,000.01,046.5,220913,017.3,E,D*23
$PGRME,2.9,M,2.4,M,3.8,M*28
$HCHDG,23.1,0.0,E,,*19
$HCHDG,23.1,0.0,E,,*19
$IIMWV,033,R,12.9,N,A*19
$GPRMC,190020.6,A,4921.29103,N,12316.56015,W,000.03,046.5,220913,017.3,E,D*23
$PGRME,3.0,M,2.4,M,3.8,M*20
$HCHDG,23.0,0.0,E,,*18
$IIMWV,038,T,13.3,N,A*1F
$YXXDR,A,5.5,D,PTCH,A,2.1,D,ROLL*5E
$PTAK,FFD1,2.1*56
$IIRMB,A,,,,Shil,,,,,106.0,161,,V,A*2A
$HCHDG,23.0,0.0,E,,*18
$GPRMC,190020.8,A,4921.29104,N,12316.56015,W,000.03,046.5,220913,017.3,E,D*2A
$PGRME,3.0,M,2.4,M,3.8,M*20
$HCHDG,23.1,0.0,E,,*19
$IIRMC,190000,A,4921.291,N,12316.560,W,00.0,046,220913,17,E,A*19
$IIVHW,,,,,00.0,N,,*19
$HCHDG,22.8,0.0,E,,*11
$IIVLW,06381,N,008.5,N*52
$GPRMC,190021.0,A,4921.29104,N,12316.56015,W,000.03,046.5,220913,017.3,E,D*23
$GPRMB,A,-35.03,L,,Shil,4741.0830,N,12224.5670,W,106.0,161,-0.01,V*0F
$PGRME,3.0,M,2.4,M,3.8,M*20
$IIVWR,033,R,12.9,N,,,,*6B
$HCHDG,22.9,0.0,E,,*10
$IIDPT,005.3,-1.0,*46
$HCHDG,22.9,0.0,E,,*10
$YXXDR,A,5.2,D,PTCH,A,1.8,D,ROLL*53
$GPRMC,190021.2,A,4921.29103,N,12316.56015,W,000.00,046.5,220913,017.3,E,D*25
$PGRME,3.0,M,2.4,M,3.9,M*21
$HCHDG,23.0,0.0,E,,*18
$HCHDG,23.0,0.0,E,,*18
$GPRMC,190021.4,A,4921.29103,N,12316.56015,W,000.00,046.5,220913,017.3,E,D*23
$PGRME,3.0,M,2.4,M,3.9,M*21
$HCHDG,23.1,0.0,E,,*19
$HCHDG,22.8,0.0,E,,*11
$GPRMC,190021.6,A,4921.29103,N,12316.56015,W,000.01,046.5,220913,017.3,E,D*20
$PGRME,3.0,M,2.4,M,3.9,M*21
$IIGLL,4921.291,N,12316.560,W,190000,A,A*4A
$HCHDG,22.9,0.0,E,,*10
$IIMTW,+13.0,C*3A
$YXXDR,A,5.4,D,PTCH,A,1.7,D,ROLL*5A
$PTAK,FFD1,1.7*53
$IIMWV,032,R,13.6,N,A*16
$HCHDG,22.8,0.0,E,,*11
$IIMWV,033,T,12.9,N,A*1F
$GPRMC,190021.8,A,4921.29103,N,12316.56014,W,000.02,046.5,220913,017.3,E,D*2C
$PGRME,3.0,M,2.4,M,3.9,M*21
$HCHDG,22.8,0.0,E,,*11
$IIRMB,A,,,,Shil,,,,,106.0,161,,V,A*2A
$HCHDG,22.9,0.0,E,,*10
$IIRMC,190000,A,4921.291,N,12316.560,W,00.0,046,220913,17,E,A*19
$GPRMC,190022.0,A,4921.29103,N,12316.56014,W,000.02,046.5,220913,017.3,E,D*27
$GPRMB,A,-35.03,L,,Shil,4741.0830,N,12224.5670,W,106.0,161,-0.01,V*0F
$PGRME,3.0,M,2.4,M,3.9,M*21
$HCHDG,22.9,0.0,E,,*10
$IIVHW,,,,,00.0,N,,*19
$IIVLW,06381,N,008.5,N*52
$HCHDG,22.9,0.0,E,,*10
$YXXDR,A,5.2,D,PTCH,A,1.7,D,ROLL*5C
$GPRMC,190022.2,A,4921.29103,N,12316.56014,W,000.01,046.5,220913,017.3,E,D*26
$PGRME,3.0,M,2.4,M,3.9,M*21
$HCHDG,23.0,0.0,E,,*18
$HCHDG,23.0,0.0,E,,*18
$GPRMC,190022.4,A,4921.29103,N,12316.56014,W,000.02,046.5,220913,017.3,E,D*23
$PGRME,3.0,M,2.4,M,3.9,M*21
$HCHDG,23.1,0.0,E,,*19
$HCHDG,23.1,0.0,E,,*19
$IIVWR,030,R,13.8,N,,,,*68
$GPRMC,190022.6,A,4921.29103,N,12316.56014,W,000.01,046.5,220913,017.3,E,D*22
$PGRME,3.0,M,2.4,M,3.9,M*21
$IIDPT,005.3,-1.0,*46
$HCHDG,23.1,0.0,E,,*19
$YXXDR,A,5.1,D,PTCH,A,2.0,D,ROLL*5B
$IIGLL,4921.291,N,12316.560,W,190000,A,A*4A
$HCHDG,23.1,0.0,E,,*19
$PTAK,FFP1,HEEL,@*07
$IIMTW,+13.0,C*3A
$GPRMC,190022.8,A,4921.29103,N,12316.56014,W,000.00,046.5,220913,017.3,E,D*2D
$PGRME,3.0,M,2.4,M,3.9,M*21
$IIMWV,030,R,13.8,N,A*1A
$HCHDG,23.3,0.0,E,,*1B
$IIMWV,032,T,13.6,N,A*10
$HCHDG,23.4,0.0,E,,*1C
$IIRMB,A,,,,Shil,,,,,106.0,161,,V,A*2A
$GPRMC,190023.0,A,4921.29103,N,12316.56013,W,000.01,046.5,220913,017.3,E,D*22
$PGRME,3.0,M,2.4,M,3.9,M*21
$HCHDG,23.3,0.0,E,,*1B
$IIRMC,190000,A,4921.291,N,12316.560,W,00.0,046,220913,17,E,A*19
$HCHDG,23.5,0.0,E,,*1D
$YXXDR,A,5.5,D,PTCH,A,2.5,D,ROLL*5A
$PTAK,FFD1,2.5*52
$GPRMC,190023.2,A,4921.29103,N,12316.56013,W,000.02,046.5,220913,017.3,E,D*23
$GPRMB,A,-35.03,L,,Shil,4741.0830,N,12224.5670,W,106.0,161,-0.01,V*0F
$PGRME,3.0,M,2.4,M,3.9,M*21
$HCHDG,23.5,0.0,E,,*1D
$HCHDG,23.6,0.0,E,,*1E
$GPRMC,190023.4,A,4921.29103,N,12316.56013,W,000.03,046.5,220913,017.3,E,D*24
$PGRME,3.0,M,2.4,M,3.9,M*21
$HCHDG,23.9,0.0,E,,*11
$HCHDG,23.8,0.0,E,,*10
$IIVHW,,,,,00.0,N,,*19
$GPRMC,190023.6,A,4921.29103,N,12316.56013,W,000.03,046.5,220913,017.3,E,D*26
$PGRME,3.0,M,2.4,M,3.9,M*21
$HCHDG,23.8,0.0,E,,*10
$IIVLW,06381,N,008.5,N*52
$IIVWR,030,R,13.9,N,,,,*69
$YXXDR,A,5.6,D,PTCH,A,2.6,D,ROLL*5A
$PTAK,FFD1,2.6*51
$IIDPT,005.3,-1.0,*46
$HCHDG,23.7,0.0,E,,*1F
$GPRMC,190023.8,A,4921.29103,N,12316.56013,W,000.04,046.5,220913,017.3,E,D*2F
$GPRMB,A,-35.03,L,,Shil,4741.0830,N,12224.5670,W,106.0,161,-0.02,V*0C
$PGRME,3.0,M,2.4,M,3.9,M*21
$IIGLL,4921.291,N,12316.560,W,190000,A,A*4A
$HCHDG,23.7,0.0,E,,*1F
$IIMTW,+13.0,C*3A
$HCHDG,23.8,0.0,E,,*10
$IIMWV,030,R,13.9,N,A*1B
$IIMWV,030,T,13.8,N,A*1C
$GPRMC,190024.0,A,4921.29103,N,12316.56013,W,000.01,046.5,220913,017.3,E,D*25
$PGRME,3.1,M,2.4,M,3.9,M*20
$HCHDG,23.8,0.0,E,,*10
$IIRMB,A,,,,Shil,,,,,106.0,161,,V,A*2A
$HCHDG,23.7,0.0,E,,*1F
$GPRMC,190024.2,A,4921.29103,N,12316.56013,W,000.00,046.5,220913,017.3,E,D*26
$YXXDR,A,5.5,D,PTCH,A,2.1,D,ROLL*5E
$PGRME,3.1,M,2.4,M,3.9,M*20
$HCHDG,23.8,0.0,E,,*10
$HCHDG,23.8,0.0,E,,*10
$GPRMC,190024.4,A,4921.29103,N,12316.56013,W,000.00,046.5,220913,017.3,E,D*20
$PGRME,3.1,M,2.4,M,3.9,M*20
$HCHDG,23.6,0.0,E,,*1E
$HCHDG,23.6,0.0,E,,*1E
$GPRMC,190024.6,A,4921.29103,N,12316.56013,W,000.01,046.5,220913,017.3,E,D*23
$PGRME,3.1,M,2.4,M,3.9,M*20
$HCHDG,23.4,0.0,E,,*1C
$IIRMC,190000,A,4921.291,N,12316.560,W,00.0,046,220913,17,E,A*19
$YXXDR,A,5.5,D,PTCH,A,1.2,D,ROLL*5E
$IIVHW,,,,,00.0,N,,*19
$HCHDG,23.5,0.0,E,,*1D
$IIVLW,06381,N,008.5,N*52
$GPRMC,190024.8,A,4921.29103,N,12316.56013,W,000.00,046.5,220913,017.3,E,D*2C
$GPRMB,A,-35.03,L,,Shil,4741.0830,N,12224.5670,W,106.0,161,-0.00,V*0E
$PGRME,3.1,M,2.4,M,3.9,M*20
$HCHDG,23.3,0.0,E,,*1B
$IIVWR,035,R,14.6,N,,,,*64
$IIDPT,005.3,-1.0,*46
$HCHDG,23.4,0.0,E,,*1C
$IIGLL,4921.291,N,12316.560,W,190000,A,A*4A
$GPRMC,190025.0,A,4921.29103,N,12316.56013,W,000.01,046.5,220913,017.3,E,D*24
$IIMTW,+13.0,C*3A
$PGRME,3.1,M,2.4,M,3.9,M*20
$HCHDG,23.5,0.0,E,,*1D
$IIMWV,035,R,14.6,N,A*16
$IIMWV,030,T,13.9,N,A*1D
$HCHDG,23.2,0.0,E,,*1A
$YXXDR,A,5.5,D,PTCH,A,1.3,D,ROLL*5F
$PTAK,FFD1,1.3*57
$GPRMC,190025.2,A,4921.29103,N,12316.56013,W,000.03,046.5,220913,017.3,E,D*24
$PGRME,3.1,M,2.4,M,3.9,M*20
$HCHDG,23.3,0.0,E,,*1B
$HCHDG,23.3,0.0,E,,*1B
$GPRMC,190025.4,A,4921.29103,N,12316.56013,W,000.01,046.5,220913,017.3,E,D*20
$PGRME,3.1,M,2.4,M,3.9,M*20
$HCHDG,23.4,0.0,E,,*1C
$HCHDG,22.9,0.0,E,,*10
$GPRMC,190025.6,A,4921.29103,N,12316.56013,W,000.02,046.5,220913,017.3,E,D*21
$PGRME,3.1,M,2.4,M,3.9,M*20
$IIRMB,A,,,,Shil,,,,,106.0,161,,V,A*2A
$HCHDG,23.0,0.0,E,,*18
$YXXDR,A,5.5,D,PTCH,A,1.5,D,ROLL*59
$IIRMC,190000,A,4921.291,N,12316.560,W,00.0,046,220913,17,E,A*19
$HCHDG,23.0,0.0,E,,*18
$IIVHW,,,,,00.0,N,,*19
$GPRMC,190025.8,A,4921.29103,N,12316.56012,W,000.02,046.5,220913,017.3,E,D*2E
$GPRMB,A,-35.03,L,,Shil,4741.0830,N,12224.5670,W,106.0,161,-0.01,V*0F
$PGRME,3.1,M,2.4,M,3.9,M*20
$HCHDG,23.2,0.0,E,,*1A
$IIVLW,06381,N,008.5,N*52
$IIVWR,036,R,14.8,N,,,,*69
$HCHDG,23.2,0.0,E,,*1A
$IIDPT,005.3,-1.0,*46
$GPRMC,190026.0,A,4921.29103,N,12316.56012,W,000.02,046.5,220913,017.3,E,D*25
$PGRME,3.1,M,2.4,M,3.9,M*20
$HCHDG,23.2,0.0,E,,*1A
$IIGLL,4921.291,N,12316.560,W,190000,A,A*4A
$IIMTW,+13.0,C*3A
$HCHDG,23.2,0.0,E,,*1A
$IIMWV,036,R,14.8,N,A*1B
$YXXDR,A,5.4,D,PTCH,A,2.3,D,ROLL*5D
$PTAK,FFD1,2.3*54
$GPRMC,190026.2,A,4921.29102,N,12316.56012,W,000.01,046.5,220913,017.3,E,D*25
$PTAK,FFP1,HEEL,@*07
$PGRME,3.1,M,2.4,M,3.9,M*20
$HCHDG,23.2,0.0,E,,*1A
$HCHDG,23.5,0.0,E,,*1D
$GPRMC,190026.4,A,4921.29102,N,12316.56012,W,000.01,046.5,220913,017.3,E,D*23
$PGRME,3.1,M,2.4,M,3.9,M*20
$HCHDG,23.5,0.0,E,,*1D
$HCHDG,23.6,0.0,E,,*1E
$IIMWV,036,T,14.8,N,A*1D
$GPRMC,190026.6,A,4921.29102,N,12316.56012,W,000.01,046.5,220913,017.3,E,D*21
$PGRME,3.0,M,2.4,M,3.9,M*21
$HCHDG,23.2,0.0,E,,*1A
$IIRMB,A,,,,Shil,,,,,106.0,161,,V,A*2A
$YXXDR,A,5.4,D,PTCH,A,1.8,D,ROLL*55
$HCHDG,23.2,0.0,E,,*1A
$GPRMC,190026.8,A,4921.29102,N,12316.56012,W,000.01,046.5,220913,017.3,E,D*2F
$IIRMC,190000,A,4921.291,N,12316.560,W,00.0,046,220913,17,E,A*19
$PGRME,3.0,M,2.4,M,3.9,M*21
$HCHDG,23.3,0.0,E,,*1B
$IIVHW,,,,,00.0,N,,*19
$IIVLW,06381,N,008.5,N*52
$HCHDG,23.0,0.0,E,,*18
$IIVWR,035,R,14.9,N,,,,*6B
$GPRMC,190027.0,A,4921.29102,N,12316.56012,W,000.01,046.5,220913,017.3,E,D*26
$GPRMB,A,-35.03,L,,Shil,4741.0830,N,12224.5670,W,106.0,161,-0.00,V*0E
$PGRME,3.0,M,2.4,M,3.9,M*21
$IIDPT,005.3,-1.0,*46
$HCHDG,23.0,0.0,E,,*18
$IIGLL,4921.291,N,12316.560,W,190000,A,A*4A
$HCHDG,22.7,0.0,E,,*1E
$IIMTW,+13.0,C*3A
$GPRMC,190027.2,A,4921.29102,N,12316.56012,W,000.01,046.5,220913,017.3,E,D*24
$PGRME,3.0,M,2.4,M,3.9,M*21
$YXXDR,A,5.4,D,PTCH,A,1.2,D,ROLL*5F
$PTAK,FFD1,1.2*56
$HCHDG,22.7,0.0,E,,*1E
$HCHDG,22.7,0.0,E,,*1E
$GPRMC,190027.4,A,4921.29102,N,12316.56012,W,000.01,046.5,220913,017.3,E,D*22
$PGRME,3.0,M,2.4,M,3.9,M*21
$HCHDG,22.8,0.0,E,,*11
$HCHDG,22.8,0.0,E,,*11
$IIMWV,035,R,14.6,N,A*16
$GPRMC,190027.6,A,4921.29102,N,12316.56012,W,000.01,046.5,220913,017.3,E,D*20
$PGRME,3.0,M,2.4,M,3.8,M*20
$HCHDG,22.8,0.0,E,,*11
$IIMWV,035,T,14.9,N,A*1F
$YXXDR,A,5.4,D,PTCH,A,1.5,D,ROLL*58
$IIRMB,A,,,,Shil,,,,,106.0,161,,V,A*2A
$HCHDG,22.9,0.0,E,,*10
$GPRMC,190027.8,A,4921.29101,N,12316.56012,W,000.01,046.5,220913,017.3,E,D*2D
$PGRME,3.0,M,2.4,M,3.8,M*20
$HCHDG,23.2,0.0,E,,*1A
$IIRMC,190000,A,4921.291,N,12316.560,W,00.0,046,220913,17,E,A*19
$IIVHW,,,,,00.0,N,,*19
$HCHDG,23.2,0.0,E,,*1A
$IIVLW,06381,N,008.5,N*52
$GPRMC,190028.0,A,4921.29101,N,12316.56012,W,000.01,046.5,220913,017.3,E,D*2A
$PGRME,2.9,M,2.4,M,3.8,M*28
$IIVWR,035,R,14.6,N,,,,*64
$HCHDG,23.2,0.0,E,,*1A
$IIDPT,005.3,-1.0,*46
$HCHDG,23.3,0.0,E,,*1B
$YXXDR,A,5.2,D,PTCH,A,1.7,D,ROLL*5C
$GPRMC,190028.2,A,4921.29101,N,12316.56012,W,000.02,046.5,220913,017.3,E,D*2B
$GPRMB,A,-35.03,L,,Shil,4741.0830,N,12224.5670,W,106.0,161,-0.01,V*0F
$PGRME,2.9,M,2.4,M,3.8,M*28
$HCHDG,23.3,0.0,E,,*1B
$HCHDG,23.3,0.0,E,,*1B
$GPRMC,190028.4,A,4921.29101,N,12316.56012,W,000.02,046.5,220913,017.3,E,D*2D
$PGRME,2.9,M,2.4,M,3.8,M*28
$HCHDG,23.2,0.0,E,,*1A
$HCHDG,23.3,0.0,E,,*1B
$GPRMC,190028.6,A,4921.29101,N,12316.56012,W,000.02,046.5,220913,017.3,E,D*2F
$PGRME,2.9,M,2.4,M,3.8,M*28
$IIGLL,4921.291,N,12316.560,W,190000,A,A*4A
$HCHDG,23.3,0.0,E,,*1B
$IIMTW,+13.0,C*3A
$YXXDR,A,5.4,D,PTCH,A,1.7,D,ROLL*5A
$PTAK,FFD1,1.7*53
$IIMWV,035,R,14.7,N,A*17
$HCHDG,23.3,0.0,E,,*1B
$IIMWV,035,T,14.6,N,A*10
$GPRMC,190028.8,A,4921.29101,N,12316.56012,W,000.02,046.5,220913,017.3,E,D*21
$PGRME,2.9,M,2.4,M,3.8,M*28
$HCHDG,23.3,0.0,E,,*1B
$IIRMB,A,,,,Shil,,,,,106.0,161,,V,A*2A
$HCHDG,23.4,0.0,E,,*1C
$IIRMC,190000,A,4921.291,N,12316.560,W,00.0,046,220913,17,E,A*19
$GPRMC,190029.0,A,4921.29101,N,12316.56012,W,000.01,046.5,220913,017.3,E,D*2B
$PGRME,2.8,M,2.4,M,3.7,M*26
$HCHDG,23.4,0.0,E,,*1C
$IIVHW,,,,,00.0,N,,*19
$IIVLW,06381,N,008.5,N*52
$HCHDG,23.4,0.0,E,,*1C
$YXXDR,A,5.4,D,PTCH,A,1.6,D,ROLL*5B
$GPRMC,190029.2,A,4921.29101,N,12316.56012,W,000.01,046.5,220913,017.3,E,D*29
$GPRMB,A,-35.03,L,,Shil,4741.0830,N,12224.5670,W,106.0,161,-0.00,V*0E
$PGRME,2.8,M,2.4,M,3.7,M*26
$HCHDG,23.4,0.0,E,,*1C
$HCHDG,23.4,0.0,E,,*1C
$GPRMC,190029.4,A,4921.29101,N,12316.56012,W,000.01,046.5,220913,017.3,E,D*2F
$PGRME,2.8,M,2.4,M,3.7,M*26
$HCHDG,23.1,0.0,E,,*19
$HCHDG,23.2,0.0,E,,*1A
$IIVWR,032,R,15.4,N,,,,*60
$GPRMC,190029.6,A,4921.29101,N,12316.56012,W,000.01,046.5,220913,017.3,E,D*2D
$PGRME,2.8,M,2.4,M,3.7,M*26
$HCHDG,23.2,0.0,E,,*1A
$IIDPT,005.3,-1.0,*46
$YXXDR,A,5.6,D,PTCH,A,1.0,D,ROLL*5F
$IIGLL,4921.291,N,12316.560,W,190000,A,A*4A
$HCHDG,22.9,0.0,E,,*10
$IIMTW,+13.0,C*3A
$GPRMC,190029.8,A,4921.29101,N,12316.56012,W,000.01,046.5,220913,017.3,E,D*23
$PGRME,2.8,M,2.4,M,3.7,M*26
$IIMWV,032,R,15.4,N,A*12
$HCHDG,22.9,0.0,E,,*10
$IIMWV,035,T,14.7,N,A*11
$HCHDG,23.0,0.0,E,,*18
$IIRMB,A,,,,Shil,,,,,106.0,161,,V,A*2A
$GPRMC,190030.0,A,4921.29101,N,12316.56012,W,000.01,046.5,220913,017.3,E,D*23
$PGRME,2.8,M,2.4,M,3.7,M*26
$HCHDG,23.1,0.0,E,,*19
$IIRMC,190000,A,4921.291,N,12316.560,W,00.0,046,220913,17,E,A*19
$HCHDG,23.1,0.0,E,,*19
$GPRMC,190030.2,A,4921.29101,N,12316.56012,W,000.01,046.5,220913,017.3,E,D*21
$PGRME,2.8,M,2.4,M,3.7,M*26
$YXXDR,A,5.8,D,PTCH,A,0.9,D,ROLL*59
$PTAK,FFD1,0.9*5C
$PTAK,FFP1,HEEL,@*07
$HCHDG,22.9,0.0,E,,*10
$HCHDG,22.8,0.0,E,,*11
$GPRMC,190030.4,A,4921.29101,N,12316.56012,W,000.02,046.5,220913,017.3,E,D*24
$GPRMB,A,-35.03,L,,Shil,4741.0830,N,12224.5670,W,106.0,161,-0.01,V*0F
$PGRME,2.8,M,2.4,M,3.7,M*26
$HCHDG,22.8,0.0,E,,*11
$HCHDG,22.8,0.0,E,,*11
$IIVHW,,,,,00.0,N,,*19
$GPRMC,190030.6,A,4921.29100,N,12316.56012,W,000.02,046.5,220913,017.3,E,D*27
$PGRME,2.8,M,2.4,M,3.7,M*26
$HCHDG,22.7,0.0,E,,*1E
$IIVLW,06381,N,008.5,N*52
$IIVWR,029,R,16.2,N,,,,*6F
$YXXDR,A,5.6,D,PTCH,A,1.0,D,ROLL*5F
$IIDPT,005.3,-1.0,*46
$HCHDG,22.5,0.0,E,,*1C
$GPRMC,190030.8,A,4921.29100,N,12316.56013,W,000.01,046.5,220913,017.3,E,D*2B
$PGRME,2.8,M,2.4,M,3.7,M*26
$HCHDG,22.4,0.0,E,,*1D
$IIGLL,4921.291,N,12316.560,W,190000,A,A*4A
$IIMTW,+13.0,C*3A
$HCHDG,22.8,0.0,E,,*11
$IIMWV,029,R,16.2,N,A*1D
$IIMWV,032,T,15.4,N,A*14
$GPRMC,190031.0,A,4921.29100,N,12316.56013,W,000.03,046.5,220913,017.3,E,D*20
$PGRME,2.8,M,2.4,M,3.7,M*26
$HCHDG,22.8,0.0,E,,*11
$IIRMB,A,,,,Shil,,,,,106.0,161,,V,A*2A
$HCHDG,22.8,0.0,E,,*11
$GPRMC,190031.2,A,4921.29100,N,12316.56013,W,000.03,046.5,220913,017.3,E,D*22
$YXXDR,A,5.4,D,PTCH,A,1.8,D,ROLL*55
$PGRME,2.8,M,2.4,M,3.7,M*26
$HCHDG,22.8,0.0,E,,*11
$HCHDG,23.0,0.0,E,,*18
$GPRMC,190031.4,A,4921.29100,N,12316.56013,W,000.00,046.5,220913,017.3,E,D*27
$GPRMB,A,-35.03,L,,Shil,4741.0830,N,12224.5670,W,106.0,161,-0.00,V*0E
$PGRME,2.7,M,2.4,M,3.7,M*29
$HCHDG,23.0,0.0,E,,*18
$HCHDG,23.1,0.0,E,,*19
$GPRMC,190031.6,A,4921.29100,N,12316.56013,W,000.01,046.5,220913,017.3,E,D*24
$PGRME,2.7,M,2.4,M,3.7,M*29
$HCHDG,23.0,0.0,E,,*18
$YXXDR,A,5.2,D,PTCH,A,1.6,D,ROLL*5D
$PTAK,FFD1,1.6*52
$HCHDG,23.0,0.0,E,,*18
$GPRMC,190031.8,A,4921.29100,N,12316.56013,W,000.01,046.5,220913,017.3,E,D*2A
$PGRME,2.7,M,2.4,M,3.7,M*29
$HCHDG,22.9,0.0,E,,*10
$HCHDG,23.0,0.0,E,,*18
$GPRMC,190032.0,A,4921.29100,N,12316.56013,W,000.01,046.5,220913,017.3,E,D*21
$PGRME,2.7,M,2.4,M,3.7,M*29
$HCHDG,23.0,0.0,E,,*18
$HCHDG,22.8,0.0,E,,*11
$YXXDR,A,5.4,D,PTCH,A,0.8,D,ROLL*54
$GPRMC,190032.2,A,4921.29099,N,12316.56013,W,000.01,046.5,220913,017.3,E,D*22
$PGRME,2.7,M,2.4,M,3.7,M*29
$HCHDG,22.9,0.0,E,,*10
$HCHDG,22.5,0.0,E,,*1C
$GPRMC,190032.4,A,4921.29099,N,12316.56014,W,000.01,046.5,220913,017.3,E,D*23
$PGRME,2.7,M,2.4,M,3.7,M*29
$HCHDG,22.4,0.0,E,,*1D
$HCHDG,22.2,0.0,E,,*1B
$GPRMC,190032.6,A,4921.29099,N,12316.56014,W,000.01,046.5,220913,017.3,E,D*21
$GPRMB,A,-35.03,L,,Shil,4741.0830,N,12224.5670,W,106.0,161,-0.00,V*0E
$PGRME,2.7,M,2.4,M,3.6,M*28
$HCHDG,22.3,0.0,E,,*1A
$IIRMC,190000,A,4921.291,N,12316.560,W,00.0,046,220913,17,E,A*19
$YXXDR,A,5.4,D,PTCH,A,0.2,D,ROLL*5E
$PTAK,FFD1,0.2*57
$IIVHW,,,,,00.0,N,,*19
$HCHDG,22.1,0.0,E,,*18
$IIVLW,06381,N,008.5,N*52
$GPRMC,190032.8,A,4921.29099,N,12316.56013,W,000.01,046.5,220913,017.3,E,D*28
$PGRME,2.7,M,2.4,M,3.6,M*28
$IIVWR,028,R,17.0,N,,,,*6D
$HCHDG,22.2,0.0,E,,*1B
$IIDPT,005.3,-1.0,*46
$HCHDG,22.3,0.0,E,,*1A
$IIGLL,4921.291,N,12316.560,W,190000,A,A*4A
$GPRMC,190033.0,A,4921.29099,N,12316.56013,W,000.02,046.5,220913,017.3,E,D*22
$IIMTW,+13.0,C*3A
$PGRME,2.6,M,2.4,M,3.6,M*29
$HCHDG,22.4,0.0,E,,*1D
$IIMWV,028,R,17.0,N,A*1F
$IIMWV,029,T,16.2,N,A*1B
$HCHDG,22.4,0.0,E,,*1D
$GPRMC,190033.2,A,4921.29099,N,12316.56013,W,000.01,046.5,220913,017.3,E,D*23
$PGRME,2.6,M,2.4,M,3.6,M*29
$YXXDR,A,5.4,D,PTCH,A,0.5,D,ROLL*59
$HCHDG,22.5,0.0,E,,*1C
$HCHDG,22.5,0.0,E,,*1C
$GPRMC,190033.4,A,4921.29099,N,12316.56013,W,000.01,046.5,220913,017.3,E,D*25
$PGRME,2.6,M,2.4,M,3.6,M*29
$HCHDG,22.6,0.0,E,,*1F
$HCHDG,22.4,0.0,E,,*1D
$GPRMC,190033.6,A,4921.29099,N,12316.56013,W,000.02,046.5,220913,017.3,E,D*24
$PGRME,2.6,M,2.4,M,3.6,M*29
$IIRMB,A,,,,Shil,,,,,106.0,161,,V,A*2A
$HCHDG,22.4,0.0,E,,*1D
$YXXDR,A,5.4,D,PTCH,A,0.8,D,ROLL*54
$IIRMC,190000,A,4921.290,N,12316.560,W,00.0,046,220913,17,E,A*18
$HCHDG,22.5,0.0,E,,*1C
$IIVHW,,,,,00.0,N,,*19
$GPRMC,190033.8,A,4921.29098,N,12316.56013,W,000.00,046.5,220913,017.3,E,D*29
$GPRMB,A,-35.03,L,,Shil,4741.0830,N,12224.5670,W,106.0,161,-0.00,V*0E
$PGRME,2.6,M,2.4,M,3.6,M*29
$HCHDG,22.5,0.0,E,,*1C
$IIVLW,06381,N,008.5,N*52
$IIVWR,034,R,17.0,N,,,,*60
$HCHDG,22.6,0.0,E,,*1F
$IIDPT,005.3,-1.0,*46
$GPRMC,190034.0,A,4921.29098,N,12316.56013,W,000.01,046.5,220913,017.3,E,D*27
$PGRME,2.6,M,2.4,M,3.6,M*29
$HCHDG,22.7,0.0,E,,*1E
$IIGLL,4921.290,N,12316.560,W,190000,A,A*4B
$IIMTW,+13.0,C*3A
$HCHDG,22.7,0.0,E,,*1E
$IIMWV,034,R,17.0,N,A*12
$GPRMC,190034.2,A,4921.29098,N,12316.56013,W,000.02,046.5,220913,017.3,E,D*26
$YXXDR,A,5.2,D,PTCH,A,1.0,D,ROLL*5B
$PTAK,FFD1,1.0*54
$PGRME,2.6,M,2.4,M,3.5,M*2A
$HCHDG,22.7,0.0,E,,*1E
$PTAK,FFP1,HEEL,@*07
$HCHDG,23.0,0.0,E,,*18
$GPRMC,190034.4,A,4921.29098,N,12316.56014,W,000.01,046.5,220913,017.3,E,D*24
$PGRME,2.6,M,2.4,M,3.5,M*2A
$HCHDG,22.9,0.0,E,,*10
$HCHDG,23.1,0.0,E,,*19
$IIMWV,034,T,17.0,N,A*14
$GPRMC,190034.6,A,4921.29098,N,12316.56014,W,000.01,046.5,220913,017.3,E,D*26
$PGRME,2.6,M,2.4,M,3.5,M*2A
$HCHDG,23.3,0.0,E,,*1B
$IIRMB,A,,,,Shil,,,,,106.0,161,,V,A*2A
$YXXDR,A,5.2,D,PTCH,A,2.1,D,ROLL*59
$HCHDG,23.2,0.0,E,,*1A
$GPRMC,190034.8,A,4921.29098,N,12316.56014,W,000.01,046.5,220913,017.3,E,D*28
$IIRMC,190000,A,4921.290,N,12316.560,W,00.0,046,220913,17,E,A*18
$PGRME,2.6,M,2.4,M,3.5,M*2A
$HCHDG,23.5,0.0,E,,*1D
$IIVHW,,,,,00.0,N,,*19
$IIVLW,06381,N,008.5,N*52
$HCHDG,23.4,0.0,E,,*1C
$IIVWR,038,R,17.0,N,,,,*6C
$GPRMC,190035.0,A,4921.29098,N,12316.56014,W,000.01,046.5,220913,017.3,E,D*21
$GPRMB,A,-35.03,L,,Shil,4741.0830,N,12224.5670,W,106.0,161,-0.00,V*0E
$PGRME,2.6,M,2.4,M,3.5,M*2A
$IIDPT,005.3,-1.0,*46
$HCHDG,23.5,0.0,E,,*1D
$IIGLL,4921.290,N,12316.560,W,190000,A,A*4B
$HCHDG,23.3,0.0,E,,*1B
$IIMTW,+13.0,C*3A
$GPRMC,190035.2,A,4921.29098,N,12316.56014,W,000.02,046.5,220913,017.3,E,D*20
$YXXDR,A,5.5,D,PTCH,A,1.7,D,ROLL*5B
$PTAK,FFD1,1.7*53
$PGRME,2.6,M,2.4,M,3.5,M*2A
$HCHDG,23.6,0.0,E,,*1E
$HCHDG,23.5,0.0,E,,*1D
$GPRMC,190035.4,A,4921.29098,N,12316.56014,W,000.02,046.5,220913,017.3,E,D*26
$PGRME,2.6,M,2.4,M,3.5,M*2A
$HCHDG,23.5,0.0,E,,*1D
$HCHDG,23.2,0.0,E,,*1A
$IIMWV,040,R,16.6,N,A*16
$GPRMC,190035.6,A,4921.29098,N,12316.56014,W,000.00,046.5,220913,017.3,E,D*26
$PGRME,2.6,M,2.4,M,3.5,M*2A
$HCHDG,23.3,0.0,E,,*1B
$IIMWV,038,T,17.0,N,A*18
$YXXDR,A,5.7,D,PTCH,A,1.1,D,ROLL*5F
$IIRMB,A,,,,Shil,,,,,106.0,161,,V,A*2A
$HCHDG,23.3,0.0,E,,*1B
$GPRMC,190035.8,A,4921.29098,N,12316.56014,W,000.01,046.5,220913,017.3,E,D*29
$PGRME,2.6,M,2.4,M,3.5,M*2A
$HCHDG,23.2,0.0,E,,*1A
$IIRMC,190000,A,4921.290,N,12316.560,W,00.0,046,220913,17,E,A*18
$IIVHW,,,,,00.0,N,,*19
$HCHDG,22.9,0.0,E,,*10
$IIVLW,06381,N,008.5,N*52
$GPRMC,190036.0,A,4921.29098,N,12316.56014,W,000.00,046.5,220913,017.3,E,D*23
$PGRME,2.6,M,2.4,M,3.5,M*2A
$IIVWR,040,R,16.6,N,,,,*64
$HCHDG,22.8,0.0,E,,*11
$IIDPT,005.3,-1.0,*46
$HCHDG,22.4,0.0,E,,*1D
$YXXDR,A,5.4,D,PTCH,A,0.8,D,ROLL*54
$GPRMC,190036.2,A,4921.29098,N,12316.56014,W,000.02,046.5,220913,017.3,E,D*23
$GPRMB,A,-35.03,L,,Shil,4741.0830,N,12224.5670,W,106.0,161,-0.01,V*0F
$PGRME,2.6,M,2.4,M,3.5,M*2A
$HCHDG,22.4,0.0,E,,*1D
$HCHDG,22.3,0.0,E,,*1A
$GPRMC,190036.4,A,4921.29098,N,12316.56014,W,000.02,046.5,220913,017.3,E,D*25
$PGRME,2.6,M,2.4,M,3.5,M*2A
$HCHDG,22.5,0.0,E,,*1C
$HCHDG,22.4,0.0,E,,*1D
$GPRMC,190036.6,A,4921.29098,N,12316.56014,W,000.03,046.5,220913,017.3,E,D*26
$PGRME,2.6,M,2.4,M,3.5,M*2A
$IIGLL,4921.290,N,12316.560,W,190000,A,A*4B
$HCHDG,22.2,0.0,E,,*1B
$IIMTW,+13.0,C*3A
$YXXDR,A,5.4,D,PTCH,A,1.6,D,ROLL*5B
$PTAK,FFD1,1.6*52
$IIMWV,038,R,17.0,N,A*1E
$HCHDG,22.4,0.0,E,,*1D
$IIMWV,040,T,16.6,N,A*10
$GPRMC,190036.8,A,4921.29098,N,12316.56014,W,000.01,046.5,220913,017.3,E,D*2A
$PGRME,2.6,M,2.4,M,3.5,M*2A
$HCHDG,22.3,0.0,E,,*1A
$IIRMB,A,,,,Shil,,,,,106.0,161,,V,A*2A
$HCHDG,22.4,0.0,E,,*1D
$IIRMC,190000,A,4921.290,N,12316.560,W,00.0,046,220913,17,E,A*18
$GPRMC,190037.0,A,4921.29098,N,12316.56014,W,000.01,046.5,220913,017.3,E,D*23
$PGRME,2.6,M,2.4,M,3.5,M*2A
$HCHDG,22.6,0.0,E,,*1F
$IIVHW,,,,,00.0,N,,*19
$IIVLW,06381,N,008.5,N*52
$HCHDG,22.8,0.0,E,,*11
$GPRMC,190037.2,A,4921.29098,N,12316.56014,W,000.03,046.5,220913,017.3,E,D*23
$YXXDR,A,5.5,D,PTCH,A,2.5,D,ROLL*5A
$PGRME,2.6,M,2.4,M,3.5,M*2A
$HCHDG,22.7,0.0,E,,*1E
$HCHDG,23.0,0.0,E,,*18
$GPRMC,190037.4,A,4921.29098,N,12316.56014,W,000.02,046.5,220913,017.3,E,D*24
$GPRMB,A,-35.03,L,,Shil,4741.0830,N,12224.5670,W,106.0,161,-0.01,V*0F
$PGRME,2.6,M,2.4,M,3.5,M*2A
$HCHDG,22.9,0.0,E,,*10
$HCHDG,23.0,0.0,E,,*18
$IIVWR,041,R,17.3,N,,,,*61
$GPRMC,190037.6,A,4921.29098,N,12316.56014,W,000.00,046.5,220913,017.3,E,D*24
$PGRME,2.6,M,2.4,M,3.5,M*2A
$HCHDG,22.8,0.0,E,,*11
$IIDPT,005.3,-1.0,*46
$YXXDR,A,5.4,D,PTCH,A,2.0,D,ROLL*5E
$PTAK,FFD1,2.0*57
$IIGLL,4921.290,N,12316.560,W,190000,A,A*4B
$HCHDG,22.6,0.0,E,,*1F
$IIMTW,+13.0,C*3A
$GPRMC,190037.8,A,4921.29098,N,12316.56013,W,000.01,046.5,220913,017.3,E,D*2C
$PGRME,2.6,M,2.4,M,3.5,M*2A
$IIMWV,041,R,17.3,N,A*13
$HCHDG,22.5,0.0,E,,*1C
$IIMWV,038,T,17.0,N,A*18
$HCHDG,22.6,0.0,E,,*1F
$IIRMB,A,,,,Shil,,,,,106.0,161,,V,A*2A
$GPRMC,190038.0,A,4921.29097,N,12316.56013,W,000.02,046.5,220913,017.3,E,D*27
$PGRME,2.6,M,2.4,M,3.5,M*2A
$HCHDG,22.6,0.0,E,,*1F
$IIRMC,190000,A,4921.290,N,12316.560,W,00.0,046,220913,17,E,A*18
$HCHDG,22.3,0.0,E,,*1A
$YXXDR,A,5.4,D,PTCH,A,1.4,D,ROLL*59
$GPRMC,190038.2,A,4921.29097,N,12316.56013,W,000.01,046.5,220913,017.3,E,D*26
$PGRME,2.6,M,2.4,M,3.5,M*2A
$HCHDG,22.4,0.0,E,,*1D
$PTAK,FFP1,HEEL,@*07
$HCHDG,22.5,0.0,E,,*1C
$GPRMC,190038.4,A,4921.29097,N,12316.56013,W,000.01,046.5,220913,017.3,E,D*20
$GPRMB,A,-35.03,L,,Shil,4741.0830,N,12224.5670,W,106.0,161,-0.00,V*0E
$PGRME,2.6,M,2.4,M,3.5,M*2A
$HCHDG,22.7,0.0,E,,*1E
$HCHDG,22.7,0.0,E,,*1E
$IIVHW,,,,,00.0,N,,*19
$GPRMC,190038.6,A,4921.29097,N,12316.56013,W,000.03,046.5,220913,017.3,E,D*20
$PGRME,2.6,M,2.4,M,3.5,M*2A
$HCHDG,22.7,0.0,E,,*1E
$IIVLW,06381,N,008.5,N*52
$IIVWR,040,R,17.8,N,,,,*6B
$YXXDR,A,5.0,D,PTCH,A,1.8,D,ROLL*51
$PTAK,FFD1,1.8*5C
$IIDPT,005.3,-1.0,*46
$HCHDG,22.8,0.0,E,,*11
$GPRMC,190038.8,A,4921.29097,N,12316.56013,W,000.01,046.5,220913,017.3,E,D*2C
$PGRME,2.6,M,2.4,M,3.5,M*2A
$HCHDG,22.9,0.0,E,,*10
$IIGLL,4921.290,N,12316.560,W,190000,A,A*4B
$IIMTW,+13.0,C*3A
$HCHDG,22.8,0.0,E,,*11
$IIMWV,040,R,17.8,N,A*19
$IIMWV,041,T,17.3,N,A*15
$GPRMC,190039.0,A,4921.29097,N,12316.56013,W,000.00,046.5,220913,017.3,E,D*24
$PGRME,2.6,M,2.4,M,3.5,M*2A
$HCHDG,22.8,0.0,E,,*11
$IIRMB,A,,,,Shil,,,,,106.0,161,,V,A*2A
$HCHDG,23.1,0.0,E,,*19
$GPRMC,190039.2,A,4921.29097,N,12316.56013,W,000.01,046.5,220913,017.3,E,D*27
$YXXDR,A,5.1,D,PTCH,A,1.7,D,ROLL*5F
$PGRME,2.6,M,2.4,M,3.5,M*2A
$HCHDG,23.0,0.0,E,,*18
$HCHDG,23.0,0.0,E,,*18
$GPRMC,190039.4,A,4921.29097,N,12316.56013,W,000.01,046.5,220913,017.3,E,D*21
$PGRME,2.6,M,2.4,M,3.5,M*2A
$HCHDG,23.0,0.0,E,,*18
$HCHDG,23.1,0.0,E,,*19
$GPRMC,190039.6,A,4921.29097,N,12316.56013,W,000.02,046.5,220913,017.3,E,D*20
$GPRMB,A,-35.03,L,,Shil,4741.0830,N,12224.5670,W,106.0,161,-0.01,V*0F
$PGRME,2.6,M,2.4,M,3.5,M*2A
$HCHDG,23.0,0.0,E,,*18
$IIRMC,190000,A,4921.290,N,12316.560,W,00.0,046,220913,17,E,A*18
$YXXDR,A,5.4,D,PTCH,A,1.4,D,ROLL*59
$PTAK,FFD1,1.4*50
$IIVHW,,,,,00.0,N,,*19
$HCHDG,23.1,0.0,E,,*19
$IIVLW,06381,N,008.5,N*52
$GPRMC,190039.8,A,4921.29097,N,12316.56013,W,000.01,046.5,220913,017.3,E,D*2D
$PGRME,2.6,M,2.4,M,3.5,M*2A
$HCHDG,22.8,0.0,E,,*11
$IIVWR,042,R,17.5,N,,,,*64
$IIDPT,005.3,-1.0,*46
$HCHDG,22.9,0.0,E,,*10
$IIGLL,4921.290,N,12316.560,W,190000,A,A*4B
$GPRMC,190040.0,A,4921.29097,N,12316.56013,W,000.01,046.5,220913,017.3,E,D*2B
$IIMTW,+13.0,C*3A
$PGRME,2.6,M,2.4,M,3.5,M*2A
$HCHDG,22.8,0.0,E,,*11
$IIMWV,042,R,17.5,N,A*16
$IIMWV,040,T,17.8,N,A*1F
$HCHDG,22.6,0.0,E,,*1F
$YXXDR,A,5.5,D,PTCH,A,1.0,D,ROLL*5C
$GPRMC,190040.2,A,4921.29097,N,12316.56012,W,000.03,046.5,220913,017.3,E,D*2A
$PGRME,2.6,M,2.4,M,3.5,M*2A
$HCHDG,22.7,0.0,E,,*1E
$HCHDG,22.7,0.0,E,,*1E
$GPRMC,190040.4,A,4921.29097,N,12316.56013,W,000.00,046.5,220913,017.3,E,D*2E
$PGRME,2.6,M,2.4,M,3.5,M*2A
$HCHDG,22.8,0.0,E,,*11
$HCHDG,22.7,0.0,E,,*1E
$GPRMC,190040.6,A,4921.29097,N,12316.56013,W,000.01,046.5,220913,017.3,E,D*2D
$GPRMB,A,-35.03,L,,Shil,4741.0830,N,12224.5670,W,106.0,161,-0.00,V*0E
$IIRMB,A,,,,Shil,,,,,106.0,161,,V,A*2A
$PGRME,2.6,M,2.4,M,3.5,M*2A
$HCHDG,22.5,0.0,E,,*1C
$YXXDR,A,5.6,D,PTCH,A,1.0,D,ROLL*5F
$IIRMC,190000,A,4921.290,N,12316.560,W,00.0,046,220913,17,E,A*18
$HCHDG,22.4,0.0,E,,*1D
$IIVHW,,,,,00.0,N,,*19
$GPRMC,190040.8,A,4921.29097,N,12316.56013,W,000.00,046.5,220913,017.3,E,D*22
$PGRME,2.6,M,2.4,M,3.5,M*2A
$HCHDG,22.3,0.0,E,,*1A
$IIVLW,06381,N,008.5,N*52
$IIVWR,041,R,17.2,N,,,,*60
$HCHDG,22.3,0.0,E,,*1A
$IIDPT,005.3,-1.0,*46
$GPRMC,190041.0,A,4921.29097,N,12316.56013,W,000.01,046.5,220913,017.3,E,D*2A
$PGRME,2.6,M,2.4,M,3.5,M*2A
$HCHDG,22.5,0.0,E,,*1C
$IIGLL,4921.290,N,12316.560,W,190000,A,A*4B
$IIMTW,+13.0,C*3A
$HCHDG,22.5,0.0,E,,*1C
$IIMWV,041,R,17.2,N,A*12
$YXXDR,A,5.4,D,PTCH,A,1.8,D,ROLL*55
$PTAK,FFD1,1.8*5C
$GPRMC,190041.2,A,4921.29097,N,12316.56013,W,000.01,046.5,220913,017.3,E,D*28
$PGRME,2.6,M,2.4,M,3.5,M*2A
$HCHDG,22.7,0.0,E,,*1E
$HCHDG,22.8,0.0,E,,*11
$GPRMC,190041.4,A,4921.29096,N,12316.56012,W,000.00,046.5,220913,017.3,E,D*2F
$PGRME,2.6,M,2.4,M,3.5,M*2A
$HCHDG,22.9,0.0,E,,*10
$HCHDG,23.0,0.0,E,,*18
$IIMWV,041,T,17.2,N,A*14
$GPRMC,190041.6,A,4921.29096,N,12316.56012,W,000.01,046.5,220913,017.3,E,D*2C
$GPRMB,A,-35.03,L,,Shil,4741.0830,N,12224.5670,W,106.0,161,-0.00,V*0E
$PGRME,2.6,M,2.4,M,3.5,M*2A
$HCHDG,23.0,0.0,E,,*18
$IIRMB,A,,,,Shil,,,,,106.0,161,,V,A*2A
$YXXDR,A,5.0,D,PTCH,A,2.2,D,ROLL*58
$HCHDG,23.0,0.0,E,,*18
$GPRMC,190041.8,A,4921.29096,N,12316.56012,W,000.01,046.5,220913,017.3,E,D*22
$IIRMC,190000,A,4921.290,N,12316.560,W,00.0,046,220913,17,E,A*18
$PGRME,2.6,M,2.4,M,3.5,M*2A
$HCHDG,23.0,0.0,E,,*18
$IIVHW,,,,,00.0,N,,*19
$IIVLW,06381,N,008.5,N*52
$HCHDG,23.0,0.0,E,,*18
$IIVWR,039,R,17.1,N,,,,*6C
$GPRMC,190042.0,A,4921.29096,N,12316.56012,W,000.01,046.5,220913,017.3,E,D*29
$PGRME,2.6,M,2.4,M,3.5,M*2A
$IIDPT,005.3,-1.0,*46
$HCHDG,22.7,0.0,E,,*1E
$IIGLL,4921.290,N,12316.560,W,190000,A,A*4B
$HCHDG,22.7,0.0,E,,*1E
$IIMTW,+13.0,C*3A
$GPRMC,190042.2,A,4921.29096,N,12316.56012,W,000.01,046.5,220913,017.3,E,D*2B
$YXXDR,A,5.1,D,PTCH,A,1.5,D,ROLL*5D
$PTAK,FFD1,1.5*51
$PGRME,2.6,M,2.4,M,3.5,M*2A
$HCHDG,22.7,0.0,E,,*1E
$PTAK,FFP1,HEEL,@*07
$HCHDG,22.7,0.0,E,,*1E
$GPRMC,190042.4,A,4921.29096,N,12316.56012,W,000.01,046.5,220913,017.3,E,D*2D
$PGRME,2.6,M,2.4,M,3.5,M*2A
$HCHDG,22.7,0.0,E,,*1E
$HCHDG,22.4,0.0,E,,*1D
$IIMWV,038,R,16.3,N,A*1C
$GPRMC,190042.6,A,4921.29096,N,12316.56012,W,000.01,046.5,220913,017.3,E,D*2F
$GPRMB,A,-35.03,L,,Shil,4741.0830,N,12224.5670,W,106.0,161,-0.00,V*0E
$PGRME,2.6,M,2.4,M,3.5,M*2A
$HCHDG,22.5,0.0,E,,*1C
$IIMWV,039,T,17.1,N,A*18
$YXXDR,A,5.4,D,PTCH,A,1.2,D,ROLL*5F
$IIRMB,A,,,,Shil,,,,,106.0,161,,V,A*2A
$HCHDG,22.3,0.0,E,,*1A
$GPRMC,190042.8,A,4921.29096,N,12316.56012,W,000.01,046.5,220913,017.3,E,D*21
$PGRME,2.6,M,2.4,M,3.5,M*2A
$HCHDG,22.3,0.0,E,,*1A
$IIRMC,190000,A,4921.290,N,12316.560,W,00.0,046,220913,17,E,A*18
$IIVHW,,,,,00.0,N,,*19
$HCHDG,22.4,0.0,E,,*1D
$IIVLW,06381,N,008.5,N*52
$GPRMC,190043.0,A,4921.29096,N,12316.56011,W,000.02,046.5,220913,017.3,E,D*28
$PGRME,2.6,M,2.4,M,3.5,M*2A
$IIVWR,038,R,16.3,N,,,,*6E
$HCHDG,22.3,0.0,E,,*1A
$IIDPT,005.3,-1.0,*46
$HCHDG,22.3,0.0,E,,*1A
$GPRMC,190043.2,A,4921.29096,N,12316.56011,W,000.01,046.5,220913,017.3,E,D*29
$YXXDR,A,5.4,D,PTCH,A,1.2,D,ROLL*5F
$PTAK,FFD1,1.2*56
$PGRME,2.6,M,2.4,M,3.5,M*2A
$HCHDG,22.4,0.0,E,,*1D
$HCHDG,22.4,0.0,E,,*1D
$GPRMC,190043.4,A,4921.29096,N,12316.56011,W,000.01,046.5,220913,017.3,E,D*2F
$PGRME,2.6,M,2.4,M,3.5,M*2A
$HCHDG,22.4,0.0,E,,*1D
$HCHDG,22.3,0.0,E,,*1A
$GPRMC,190043.6,A,4921.29096,N,12316.56011,W,000.01,046.5,220913,017.3,E,D*2D
$PGRME,2.6,M,2.4,M,3.5,M*2A
$IIGLL,4921.290,N,12316.560,W,190000,A,A*4B
$HCHDG,22.6,0.0,E,,*1F
$IIMTW,+13.0,C*3A
$YXXDR,A,5.7,D,PTCH,A,1.9,D,ROLL*57
$IIMWV,038,R,16.2,N,A*1D
$HCHDG,22.6,0.0,E,,*1F
$IIMWV,038,T,16.3,N,A*1A
$GPRMC,190043.8,A,4921.29096,N,12316.56011,W,000.02,046.5,220913,017.3,E,D*20
$GPRMB,A,-35.03,L,,Shil,4741.0830,N,12224.5670,W,106.0,161,-0.01,V*0F
$PGRME,2.6,M,2.4,M,3.5,M*2A
$HCHDG,22.7,0.0,E,,*1E
$IIRMB,A,,,,Shil,,,,,106.0,161,,V,A*2A
$HCHDG,22.6,0.0,E,,*1F
$IIRMC,190000,A,4921.290,N,12316.560,W,00.0,046,220913,17,E,A*18
$GPRMC,190044.0,A,4921.29096,N,12316.56011,W,000.01,046.5,220913,017.3,E,D*2C
$PGRME,2.5,M,2.4,M,3.5,M*29
$PGRMT,GPS 18x-5Hz software ver. 3.20,,,,,,,,*30
$HCHDG,22.6,0.0,E,,*1F
$IIVHW,,,,,00.0,N,,*19
$IIVLW,06381,N,008.5,N*52
$HCHDG,22.7,0.0,E,,*1E
$YXXDR,A,5.1,D,PTCH,A,1.1,D,ROLL*59
$GPRMC,190044.2,A,4921.29096,N,12316.56011,W,000.02,046.5,220913,017.3,E,D*2D
$PGRME,2.5,M,2.4,M,3.5,M*29
$HCHDG,22.4,0.0,E,,*1D
$HCHDG,22.4,0.0,E,,*1D
$GPRMC,190044.4,A,4921.29096,N,12316.56011,W,000.01,046.5,220913,017.3,E,D*28
$PGRME,2.5,M,2.4,M,3.5,M*29
$HCHDG,22.5,0.0,E,,*1C
$HCHDG,22.3,0.0,E,,*1A
$IIVWR,039,R,18.0,N,,,,*62
$GPRMC,190044.6,A,4921.29096,N,12316.56010,W,000.01,046.5,220913,017.3,E,D*2B
$PGRME,2.5,M,2.4,M,3.5,M*29
$HCHDG,22.3,0.0,E,,*1A
$IIDPT,005.3,-1.0,*46
$YXXDR,A,5.2,D,PTCH,A,0.9,D,ROLL*53
$PTAK,FFD1,0.9*5C
$IIGLL,4921.290,N,12316.560,W,190000,A,A*4B
$HCHDG,22.4,0.0,E,,*1D
$IIMTW,+13.0,C*3A
$GPRMC,190044.8,A,4921.29096,N,12316.56010,W,000.01,046.5,220913,017.3,E,D*25
$PGRME,2.5,M,2.4,M,3.5,M*29
$IIMWV,039,R,18.0,N,A*10
$HCHDG,22.4,0.0,E,,*1D
$IIMWV,038,T,16.2,N,A*1B
$HCHDG,22.2,0.0,E,,*1B
$IIRMB,A,,,,Shil,,,,,106.0,161,,V,A*2A
$GPRMC,190045.0,A,4921.29095,N,12316.56011,W,000.02,046.5,220913,017.3,E,D*2D
$GPRMB,A,-35.03,L,,Shil,4741.0830,N,12224.5670,W,106.0,161,-0.01,V*0F
$PGRME,2.5,M,2.4,M,3.5,M*29
$HCHDG,22.2,0.0,E,,*1B
$IIRMC,190000,A,4921.290,N,12316.560,W,00.0,046,220913,17,E,A*18
$HCHDG,22.2,0.0,E,,*1B
$YXXDR,A,5.4,D,PTCH,A,1.2,D,ROLL*5F
$GPRMC,190045.2,A,4921.29095,N,12316.56011,W,000.00,046.5,220913,017.3,E,D*2D
$PGRME,2.5,M,2.4,M,3.5,M*29
$HCHDG,22.2,0.0,E,,*1B
$HCHDG,22.6,0.0,E,,*1F
$GPRMC,190045.4,A,4921.29095,N,12316.56011,W,000.01,046.5,220913,017.3,E,D*2A
$PGRME,2.5,M,2.4,M,3.5,M*29
$HCHDG,22.5,0.0,E,,*1C
$HCHDG,22.6,0.0,E,,*1F
$IIVHW,,,,,00.0,N,,*19
$GPRMC,190045.6,A,4921.29095,N,12316.56011,W,000.01,046.5,220913,017.3,E,D*28
$PGRME,2.5,M,2.4,M,3.5,M*29
$HCHDG,22.6,0.0,E,,*1F
$IIVLW,06381,N,008.5,N*52
$IIVWR,042,R,18.6,N,,,,*68
$YXXDR,A,5.1,D,PTCH,A,1.3,D,ROLL*5B
$PTAK,FFD1,1.3*57
$IIDPT,005.3,-1.0,*46
$HCHDG,22.6,0.0,E,,*1F
$GPRMC,190045.8,A,4921.29095,N,12316.56011,W,000.02,046.5,220913,017.3,E,D*25
$PGRME,2.5,M,2.4,M,3.5,M*29
$HCHDG,22.4,0.0,E,,*1D
$IIGLL,4921.290,N,12316.560,W,190000,A,A*4B
$IIMTW,+13.0,C*3A
$HCHDG,22.5,0.0,E,,*1C
$IIMWV,042,R,18.6,N,A*1A
$IIMWV,039,T,18.0,N,A*16
$GPRMC,190046.0,A,4921.29095,N,12316.56011,W,000.01,046.5,220913,017.3,E,D*2D
$GPRMB,A,-35.03,L,,Shil,4741.0830,N,12224.5670,W,106.0,161,-0.00,V*0E
$PGRME,2.5,M,2.5,M,3.5,M*28
$HCHDG,22.5,0.0,E,,*1C
$IIRMB,A,,,,Shil,,,,,106.0,161,,V,A*2A
$HCHDG,22.6,0.0,E,,*1F
$YXXDR,A,5.2,D,PTCH,A,1.0,D,ROLL*5B
$GPRMC,190046.2,A,4921.29095,N,12316.56011,W,000.02,046.5,220913,017.3,E,D*2C
$PGRME,2.5,M,2.5,M,3.5,M*28
$HCHDG,22.7,0.0,E,,*1E
$PTAK,FFP1,HEEL,@*07
$HCHDG,22.8,0.0,E,,*11
$GPRMC,190046.4,A,4921.29094,N,12316.56010,W,000.02,046.5,220913,017.3,E,D*2A
$PGRME,2.5,M,2.5,M,3.5,M*28
$HCHDG,22.7,0.0,E,,*1E
$HCHDG,22.6,0.0,E,,*1F
$GPRMC,190046.6,A,4921.29094,N,12316.56010,W,000.00,046.5,220913,017.3,E,D*2A
$PGRME,2.5,M,2.5,M,3.5,M*28
$HCHDG,22.7,0.0,E,,*1E
$IIRMC,190000,A,4921.290,N,12316.560,W,00.0,046,220913,17,E,A*18
$YXXDR,A,5.5,D,PTCH,A,1.1,D,ROLL*5D
$IIVHW,,,,,00.0,N,,*19
$HCHDG,22.8,0.0,E,,*11
$IIVLW,06381,N,008.5,N*52
$GPRMC,190046.8,A,4921.29094,N,12316.56010,W,000.02,046.5,220913,017.3,E,D*26
$PGRME,2.5,M,2.5,M,3.5,M*28
$HCHDG,22.7,0.0,E,,*1E
$IIVWR,041,R,18.0,N,,,,*6D
$IIDPT,005.3,-1.0,*46
$HCHDG,22.8,0.0,E,,*11
$IIGLL,4921.290,N,12316.560,W,190000,A,A*4B
$GPRMC,190047.0,A,4921.29094,N,12316.56010,W,000.01,046.5,220913,017.3,E,D*2C
$IIMTW,+13.0,C*3A
$PGRME,2.5,M,2.5,M,3.5,M*28
$HCHDG,22.9,0.0,E,,*10
$IIMWV,041,R,18.0,N,A*1F
$IIMWV,042,T,18.6,N,A*1C
$HCHDG,22.9,0.0,E,,*10
$YXXDR,A,5.4,D,PTCH,A,0.9,D,ROLL*55
$PTAK,FFD1,0.9*5C
$GPRMC,190047.2,A,4921.29094,N,12316.56009,W,000.04,046.5,220913,017.3,E,D*23
$GPRMB,A,-35.03,L,,Shil,4741.0830,N,12224.5670,W,106.0,161,-0.02,V*0C
$PGRME,2.5,M,2.5,M,3.5,M*28
$HCHDG,22.6,0.0,E,,*1F
$HCHDG,22.7,0.0,E,,*1E
$GPRMC,190047.4,A,4921.29094,N,12316.56009,W,000.00,046.5,220913,017.3,E,D*21
$PGRME,2.4,M,2.5,M,3.5,M*29
$HCHDG,22.7,0.0,E,,*1E
$HCHDG,22.4,0.0,E,,*1D
$GPRMC,190047.6,A,4921.29094,N,12316.56008,W,000.01,046.5,220913,017.3,E,D*23
$IIRMB,A,,,,Shil,,,,,106.0,161,,V,A*2A
$PGRME,2.4,M,2.4,M,3.5,M*28
$HCHDG,22.5,0.0,E,,*1C
$YXXDR,A,5.4,D,PTCH,A,0.7,D,ROLL*5B
$IIRMC,190000,A,4921.290,N,12316.560,W,00.0,046,220913,17,E,A*18
$HCHDG,22.4,0.0,E,,*1D
$IIVHW,,,,,00.0,N,,*19
$GPRMC,190047.8,A,4921.29094,N,12316.56008,W,000.02,046.5,220913,017.3,E,D*2E
$PGRME,2.4,M,2.4,M,3.5,M*28
$HCHDG,22.3,0.0,E,,*1A
$IIVLW,06381,N,008.5,N*52
$IIVWR,038,R,19.2,N,,,,*60
$HCHDG,22.4,0.0,E,,*1D
$IIDPT,005.3,-1.0,*46
$GPRMC,190048.0,A,4921.29094,N,12316.56008,W,000.01,046.5,220913,017.3,E,D*2A
$PGRME,2.4,M,2.4,M,3.5,M*28
$HCHDG,22.5,0.0,E,,*1C
$IIGLL,4921.290,N,12316.560,W,190000,A,A*4B
$IIMTW,+13.0,C*3A
$HCHDG,22.4,0.0,E,,*1D
$IIMWV,038,R,19.2,N,A*12
$YXXDR,A,5.4,D,PTCH,A,1.0,D,ROLL*5D
$PTAK,FFD1,1.0*54
$GPRMC,190048.2,A,4921.29094,N,12316.56008,W,000.00,046.5,220913,017.3,E,D*29
$GPRMB,A,-35.03,L,,Shil,4741.0830,N,12224.5670,W,106.0,161,-0.00,V*0E
$PGRME,2.4,M,2.4,M,3.5,M*28
$HCHDG,22.4,0.0,E,,*1D
$HCHDG,22.7,0.0,E,,*1E
$GPRMC,190048.4,A,4921.29094,N,12316.56008,W,000.01,046.5,220913,017.3,E,D*2E
$PGRME,2.4,M,2.4,M,3.5,M*28
$HCHDG,22.7,0.0,E,,*1E
$HCHDG,22.7,0.0,E,,*1E
$IIMWV,038,T,19.2,N,A*14
$GPRMC,190048.6,A,4921.29094,N,12316.56008,W,000.00,046.5,220913,017.3,E,D*2D
$PGRME,2.4,M,2.4,M,3.5,M*28
$HCHDG,22.7,0.0,E,,*1E
$IIRMB,A,,,,Shil,,,,,106.0,161,,V,A*2A
$YXXDR,A,5.4,D,PTCH,A,1.1,D,ROLL*5C
$HCHDG,22.6,0.0,E,,*1F
$IIRMC,190000,A,4921.290,N,12316.560,W,00.0,046,220913,17,E,A*18
$GPRMC,190048.8,A,4921.29094,N,12316.56008,W,000.00,046.5,220913,017.3,E,D*23
$PGRME,2.4,M,2.4,M,3.5,M*28
$HCHDG,22.3,0.0,E,,*1A
$IIVHW,,,,,00.0,N,,*19
$IIVLW,06381,N,008.5,N*52
$HCHDG,22.2,0.0,E,,*1B
$IIVWR,038,R,19.7,N,,,,*65
$GPRMC,190049.0,A,4921.29094,N,12316.56008,W,000.01,046.5,220913,017.3,E,D*2B
$PGRME,2.4,M,2.4,M,3.5,M*28
$IIDPT,005.3,-1.0,*46
$HCHDG,22.3,0.0,E,,*1A
$IIGLL,4921.290,N,12316.560,W,190000,A,A*4B
$HCHDG,22.3,0.0,E,,*1A
$IIMTW,+13.0,C*3A
$GPRMC,190049.2,A,4921.29094,N,12316.56008,W,000.00,046.5,220913,017.3,E,D*28
$PGRME,2.4,M,2.4,M,3.4,M*29
$YXXDR,A,5.2,D,PTCH,A,0.6,D,ROLL*5C
$PTAK,FFD1,0.6*53
$HCHDG,22.0,0.0,E,,*19
$HCHDG,22.0,0.0,E,,*19
$GPRMC,190049.4,A,4921.29094,N,12316.56008,W,000.01,046.5,220913,017.3,E,D*2F
$GPRMB,A,-35.03,L,,Shil,4741.0830,N,12224.5670,W,106.0,161,-0.00,V*0E
$PGRME,2.4,M,2.4,M,3.4,M*29
$HCHDG,22.2,0.0,E,,*1B
$HCHDG,22.1,0.0,E,,*18
$IIMWV,040,R,19.7,N,A*18
$GPRMC,190049.6,A,4921.29094,N,12316.56008,W,000.01,046.5,220913,017.3,E,D*2D
$PGRME,2.4,M,2.4,M,3.4,M*29
$HCHDG,22.1,0.0,E,,*18
$IIMWV,038,T,19.7,N,A*11
$YXXDR,A,5.4,D,PTCH,A,1.0,D,ROLL*5D
$IIRMB,A,,,,Shil,,,,,106.0,161,,V,A*2A
$HCHDG,22.1,0.0,E,,*18
$GPRMC,190049.8,A,4921.29093,N,12316.56008,W,000.02,046.5,220913,017.3,E,D*27
$PGRME,2.4,M,2.4,M,3.4,M*29
$HCHDG,22.3,0.0,E,,*1A
$IIRMC,190000,A,4921.290,N,12316.560,W,00.0,046,220913,17,E,A*18
$IIVHW,,,,,00.0,N,,*19
$HCHDG,22.4,0.0,E,,*1D
$IIVLW,06381,N,008.5,N*52
$GPRMC,190050.0,A,4921.29093,N,12316.56008,W,000.00,046.5,220913,017.3,E,D*25
$PGRME,2.4,M,2.4,M,3.4,M*29
$IIVWR,040,R,19.7,N,,,,*6A
$HCHDG,22.4,0.0,E,,*1D
$IIDPT,005.3,-1.0,*46
$HCHDG,22.5,0.0,E,,*1C
$YXXDR,A,5.3,D,PTCH,A,1.5,D,ROLL*5F
$GPRMC,190050.2,A,4921.29093,N,12316.56007,W,000.01,046.5,220913,017.3,E,D*29
$PGRME,2.4,M,2.4,M,3.4,M*29
$HCHDG,22.5,0.0,E,,*1C
$HCHDG,22.4,0.0,E,,*1D
