$PTAK,FFD1,3.6*50
$HCHDG,276.6,0.0,E,,*2C
$GPRMC,170000.2,A,4741.45159,N,12225.32427,W,002.72,284.8,271013,016.6,E,D*2C
$PGRME,2.4,M,2.4,M,3.4,M*29
$HCHDG,276.5,0.0,E,,*2F
$HCHDG,276.7,0.0,E,,*2D
$GPRMC,170000.4,A,4741.45165,N,12225.32447,W,002.75,283.1,271013,016.6,E,D*2A
$HCHDG,276.8,0.0,E,,*22
$PGRME,2.4,M,2.4,M,3.4,M*29
$HCHDG,276.7,0.0,E,,*2D
$YXXDR,A,5.7,D,PTCH,A,3.1,D,ROLL*5D
$GPRMC,170000.6,A,4741.45173,N,12225.32459,W,002.78,279.0,271013,016.6,E,D*29
$PGRME,2.4,M,2.4,M,3.4,M*29
$HCHDG,276.9,0.0,E,,*23
$HCHDG,277.2,0.0,E,,*29
$GPRMC,170000.8,A,4741.45178,N,12225.32479,W,002.71,277.9,271013,016.6,E,D*20
$HCHDG,277.1,0.0,E,,*2A
$PGRME,2.4,M,2.4,M,3.4,M*29
$HCHDG,277.3,0.0,E,,*28
$GPRMC,170001.0,A,4741.45182,N,12225.32497,W,002.54,276.3,271013,016.6,E,D*20
$GPRMB,A,-0.51,L,,Shil,4741.0830,N,12224.5670,W,0.6,126,-2.21,V*3C
$HCHDG,277.3,0.0,E,,*28
$PGRME,2.4,M,2.4,M,3.4,M*29
$YXXDR,A,6.0,D,PTCH,A,3.2,D,ROLL*5A
$PTAK,FFD1,3.2*54
$HCHDG,277.4,0.0,E,,*2F
$GPRMC,170001.2,A,4741.45182,N,12225.32520,W,002.59,277.9,271013,016.6,E,D*29
$HCHDG,277.3,0.0,E,,*28
$PGRME,2.4,M,2.4,M,3.4,M*29
$HCHDG,277.6,0.0,E,,*2D
$GPRMC,170001.4,A,4741.45184,N,12225.32549,W,002.57,276.5,271013,016.6,E,D*25
$HCHDG,277.5,0.0,E,,*2E
$PGRME,2.4,M,2.4,M,3.4,M*29
$HCHDG,277.4,0.0,E,,*2F
$YXXDR,A,5.8,D,PTCH,A,3.0,D,ROLL*53
$GPRMC,170001.6,A,4741.45189,N,12225.32573,W,002.56,276.5,271013,016.6,E,D*22
$PGRME,2.4,M,2.4,M,3.4,M*29
$HCHDG,277.4,0.0,E,,*2F
$HCHDG,277.3,0.0,E,,*28
$GPRMC,170001.8,A,4741.45192,N,12225.32587,W,002.49,275.3,271013,016.6,E,D*26
$HCHDG,277.2,0.0,E,,*29
$PGRME,2.4,M,2.4,M,3.4,M*29
$HCHDG,277.2,0.0,E,,*29
$GPRMC,170002.0,A,4741.45199,N,12225.32610,W,002.52,279.4,271013,016.6,E,D*2A
$GPRMB,A,-0.51,L,,Shil,4741.0830,N,12224.5670,W,0.6,126,-2.26,V*3B
$HCHDG,277.2,0.0,E,,*29
$PTAK,FFP1,HEEL,@*07
$PGRME,2.4,M,2.4,M,3.4,M*29
$YXXDR,A,5.3,D,PTCH,A,3.3,D,ROLL*5B
$HCHDG,277.3,0.0,E,,*28
$GPRMC,170002.2,A,4741.45201,N,12225.32636,W,002.50,281.0,271013,016.6,E,D*2F
$HCHDG,277.2,0.0,E,,*29
$PGRME,2.4,M,2.4,M,3.4,M*29
$HCHDG,277.3,0.0,E,,*28
$HCHDG,277.4,0.0,E,,*2F
$GPRMC,170002.4,A,4741.45205,N,12225.32664,W,002.49,276.3,271013,016.6,E,D*29
$PGRME,2.4,M,2.4,M,3.4,M*29
$HCHDG,277.5,0.0,E,,*2E
$YXXDR,A,5.4,D,PTCH,A,3.3,D,ROLL*5C
$PTAK,FFD1,3.3*55
$GPRMC,170002.6,A,4741.45208,N,12225.32689,W,002.50,280.1,271013,016.6,E,D*26
$PGRME,2.4,M,2.4,M,3.4,M*29
$HCHDG,277.6,0.0,E,,*2D
$HCHDG,278.0,0.0,E,,*24
$GPRMC,170002.8,A,4741.45210,N,12225.32713,W,002.54,281.3,271013,016.6,E,D*24
$HCHDG,278.2,0.0,E,,*26
$PGRME,2.4,M,2.4,M,3.4,M*29
$HCHDG,278.3,0.0,E,,*27
$GPRMC,170003.0,A,4741.45215,N,12225.32732,W,002.57,283.9,271013,016.6,E,D*20
$PGRME,2.4,M,2.4,M,3.4,M*29
$HCHDG,278.4,0.0,E,,*20
$YXXDR,A,5.8,D,PTCH,A,3.5,D,ROLL*56
$HCHDG,278.5,0.0,E,,*21
$GPRMC,170003.2,A,4741.45219,N,12225.32759,W,002.58,280.3,271013,016.6,E,D*25
$GPRMB,A,-0.51,L,,Shil,4741.0830,N,12224.5670,W,0.6,126,-2.33,V*3F
$PGRME,2.4,M,2.4,M,3.4,M*29
$HCHDG,278.6,0.0,E,,*22
$HCHDG,278.6,0.0,E,,*22
$GPRMC,170003.4,A,4741.45221,N,12225.32777,W,002.60,280.6,271013,016.6,E,D*2A
$PGRME,2.4,M,2.4,M,3.4,M*29
$HCHDG,278.7,0.0,E,,*23
$HCHDG,278.9,0.0,E,,*2D
$YXXDR,A,5.5,D,PTCH,A,3.1,D,ROLL*5F
$PTAK,FFD1,3.1*57
$GPRMC,170003.6,A,4741.45221,N,12225.32811,W,002.58,279.8,271013,016.6,E,D*24
$PGRME,2.4,M,2.4,M,3.4,M*29
$HCHDG,278.9,0.0,E,,*2D
$HCHDG,279.0,0.0,E,,*25
$GPRMC,170003.8,A,4741.45221,N,12225.32823,W,002.54,279.9,271013,016.6,E,D*26
$HCHDG,279.0,0.0,E,,*25
$PGRME,2.4,M,2.4,M,3.4,M*29
$HCHDG,279.2,0.0,E,,*27
$GPRMC,170004.0,A,4741.45225,N,12225.32843,W,002.50,278.8,271013,016.6,E,D*2F
$HCHDG,279.2,0.0,E,,*27
$PGRME,2.4,M,2.4,M,3.4,M*29
$YXXDR,A,5.8,D,PTCH,A,3.0,D,ROLL*53
$HCHDG,279.2,0.0,E,,*27
$GPRMC,170004.2,A,4741.45226,N,12225.32862,W,002.49,278.8,271013,016.6,E,D*25
$HCHDG,279.1,0.0,E,,*24
$PGRME,2.4,M,2.4,M,3.4,M*29
$HCHDG,279.1,0.0,E,,*24
$GPRMC,170004.4,A,4741.45225,N,12225.32882,W,002.51,280.0,271013,016.6,E,D*28
$GPRMB,A,-0.51,L,,Shil,4741.0830,N,12224.5670,W,0.6,126,-2.26,V*3B
$HCHDG,279.2,0.0,E,,*27
$PGRME,2.4,M,2.4,M,3.4,M*29
$HCHDG,279.2,0.0,E,,*27
$YXXDR,A,5.7,D,PTCH,A,3.4,D,ROLL*58
$PTAK,FFD1,3.4*52
$GPRMC,170004.6,A,4741.45225,N,12225.32902,W,002.54,282.4,271013,016.6,E,D*20
$PGRME,2.4,M,2.4,M,3.4,M*29
$HCHDG,279.2,0.0,E,,*27
$HCHDG,279.2,0.0,E,,*27
$GPRMC,170004.8,A,4741.45223,N,12225.32923,W,002.57,282.6,271013,016.6,E,D*2A
$HCHDG,279.3,0.0,E,,*26
$PGRME,2.4,M,2.4,M,3.4,M*29
$HCHDG,279.3,0.0,E,,*26
$GPRMC,170005.0,A,4741.45227,N,12225.32939,W,002.63,285.1,271013,016.6,E,D*2B
$HCHDG,279.4,0.0,E,,*21
$PGRME,2.4,M,2.4,M,3.4,M*29
$YXXDR,A,5.7,D,PTCH,A,3.3,D,ROLL*5F
$HCHDG,279.4,0.0,E,,*21
$GPRMC,170005.2,A,4741.45235,N,12225.32958,W,002.68,286.4,271013,016.6,E,D*20
$HCHDG,279.5,0.0,E,,*20
$PGRME,2.4,M,2.4,M,3.4,M*29
$HCHDG,279.4,0.0,E,,*21
$GPRMC,170005.4,A,4741.45241,N,12225.32979,W,002.70,284.7,271013,016.6,E,D*2E
$GPRMB,A,-0.51,L,,Shil,4741.0830,N,12224.5670,W,0.6,126,-2.52,V*38
$HCHDG,279.5,0.0,E,,*20
$PGRME,2.4,M,2.4,M,3.4,M*29
$HCHDG,279.6,0.0,E,,*23
$YXXDR,A,5.7,D,PTCH,A,3.5,D,ROLL*59
$PTAK,FFD1,3.5*53
$GPRMC,170005.6,A,4741.45242,N,12225.33004,W,002.70,282.6,271013,016.6,E,D*2A
$PGRME,2.4,M,2.4,M,3.4,M*29
$HCHDG,279.6,0.0,E,,*23
$HCHDG,279.8,0.0,E,,*2D
$GPRMC,170005.8,A,4741.45241,N,12225.33032,W,002.70,286.2,271013,016.6,E,D*22
$HCHDG,279.8,0.0,E,,*2D
$PGRME,2.4,M,2.4,M,3.4,M*29
$HCHDG,279.8,0.0,E,,*2D
$GPRMC,170006.0,A,4741.45243,N,12225.33062,W,002.70,286.5,271013,016.6,E,D*29
$PGRME,2.4,M,2.4,M,3.4,M*29
$HCHDG,280.1,0.0,E,,*22
$YXXDR,A,5.5,D,PTCH,A,3.1,D,ROLL*5F
$HCHDG,280.0,0.0,E,,*23
$GPRMC,170006.2,A,4741.45247,N,12225.33087,W,002.70,286.7,271013,016.6,E,D*26
$HCHDG,280.1,0.0,E,,*22
$PTAK,FFP1,HEEL,@*07
$PGRME,2.4,M,2.4,M,3.4,M*29
$HCHDG,280.2,0.0,E,,*21
$GPRMC,170006.4,A,4741.45257,N,12225.33105,W,002.70,285.7,271013,016.6,E,D*29
$HCHDG,280.3,0.0,E,,*20
$PGRME,2.4,M,2.4,M,3.4,M*29
$HCHDG,280.3,0.0,E,,*20
$YXXDR,A,5.8,D,PTCH,A,3.5,D,ROLL*56
$GPRMC,170006.6,A,4741.45269,N,12225.33129,W,002.71,286.6,271013,016.6,E,D*2B
$GPRMB,A,-0.51,L,,Shil,4741.0830,N,12224.5670,W,0.6,126,-2.56,V*3C
$PGRME,2.4,M,2.4,M,3.4,M*29
$HCHDG,280.1,0.0,E,,*22
$HCHDG,280.2,0.0,E,,*21
$GPRMC,170006.8,A,4741.45276,N,12225.33141,W,002.70,288.5,271013,016.6,E,D*29
$HCHDG,280.2,0.0,E,,*21
$PGRME,2.4,M,2.4,M,3.4,M*29
$HCHDG,279.9,0.0,E,,*2C
$GPRMC,170007.0,A,4741.45280,N,12225.33156,W,002.66,290.4,271013,016.6,E,D*20
$HCHDG,279.9,0.0,E,,*2C
$PGRME,2.4,M,2.4,M,3.4,M*29
$YXXDR,A,5.5,D,PTCH,A,3.1,D,ROLL*5F
$PTAK,FFD1,3.1*57
$HCHDG,279.9,0.0,E,,*2C
$GPRMC,170007.2,A,4741.45287,N,12225.33172,W,002.65,291.7,271013,016.6,E,D*22
$HCHDG,279.7,0.0,E,,*22
$PGRME,2.4,M,2.4,M,3.4,M*29
$HCHDG,279.7,0.0,E,,*22
$HCHDG,279.6,0.0,E,,*23
$GPRMC,170007.4,A,4741.45287,N,12225.33191,W,002.64,291.7,271013,016.6,E,D*28
$PGRME,2.4,M,2.4,M,3.4,M*29
$HCHDG,279.7,0.0,E,,*22
$YXXDR,A,5.7,D,PTCH,A,3.1,D,ROLL*5D
$GPRMC,170007.6,A,4741.45299,N,12225.33208,W,002.68,291.3,271013,016.6,E,D*2E
$PGRME,2.4,M,2.4,M,3.4,M*29
$HCHDG,279.6,0.0,E,,*23
$HCHDG,279.6,0.0,E,,*23
$GPRMC,170007.8,A,4741.45303,N,12225.33232,W,002.69,287.4,271013,016.6,E,D*2A
$GPRMB,A,-0.52,L,,Shil,4741.0830,N,12224.5670,W,0.6,126,-2.55,V*3C
$HCHDG,279.6,0.0,E,,*23
$PGRME,2.4,M,2.4,M,3.4,M*29
$HCHDG,279.5,0.0,E,,*20
$GPRMC,170008.0,A,4741.45303,N,12225.33243,W,002.68,282.8,271013,016.6,E,D*23
$HCHDG,279.4,0.0,E,,*21
$PGRME,2.4,M,2.4,M,3.4,M*29
$YXXDR,A,5.5,D,PTCH,A,4.3,D,ROLL*5A
$PTAK,FFD1,4.3*52
$HCHDG,279.4,0.0,E,,*21
$GPRMC,170008.2,A,4741.45303,N,12225.33261,W,002.65,283.9,271013,016.6,E,D*2C
$HCHDG,279.3,0.0,E,,*26
$PGRME,2.4,M,2.4,M,3.4,M*29
$HCHDG,279.3,0.0,E,,*26
$GPRMC,170008.4,A,4741.45299,N,12225.33275,W,002.63,282.3,271013,016.6,E,D*20
$HCHDG,279.4,0.0,E,,*21
$PGRME,2.4,M,2.4,M,3.4,M*29
$HCHDG,279.0,0.0,E,,*25
$YXXDR,A,5.4,D,PTCH,A,4.4,D,ROLL*5C
$GPRMC,170008.6,A,4741.45306,N,12225.33292,W,002.61,284.5,271013,016.6,E,D*2E
$PGRME,2.4,M,2.4,M,3.4,M*29
$HCHDG,279.1,0.0,E,,*24
$HCHDG,279.0,0.0,E,,*25
$GPRMC,170008.8,A,4741.45301,N,12225.33312,W,002.61,286.6,271013,016.6,E,D*2F
$HCHDG,279.1,0.0,E,,*24
$PGRME,2.4,M,2.4,M,3.4,M*29
$HCHDG,279.1,0.0,E,,*24
$GPRMC,170009.0,A,4741.45294,N,12225.33338,W,002.63,284.8,271013,016.6,E,D*2D
$GPRMB,A,-0.52,L,,Shil,4741.0830,N,12224.5670,W,0.6,126,-2.46,V*3E
$HCHDG,279.1,0.0,E,,*24
$PGRME,2.4,M,2.4,M,3.4,M*29
$YXXDR,A,5.5,D,PTCH,A,3.4,D,ROLL*5A
$PTAK,FFD1,3.4*52
$HCHDG,279.1,0.0,E,,*24
$GPRMC,170009.2,A,4741.45295,N,12225.33356,W,002.59,288.1,271013,016.6,E,D*2A
$HCHDG,279.1,0.0,E,,*24
$PGRME,2.4,M,2.4,M,3.4,M*29
$HCHDG,279.0,0.0,E,,*25
$GPRMC,170009.4,A,4741.45297,N,12225.33373,W,002.55,284.5,271013,016.6,E,D*2D
$HCHDG,279.0,0.0,E,,*25
$PGRME,2.4,M,2.4,M,3.4,M*29
$HCHDG,278.9,0.0,E,,*2D
$YXXDR,A,5.5,D,PTCH,A,3.3,D,ROLL*5D
$GPRMC,170009.6,A,4741.45306,N,12225.33393,W,002.51,285.1,271013,016.6,E,D*29
$PGRME,2.4,M,2.4,M,3.4,M*29
$HCHDG,278.9,0.0,E,,*2D
$HCHDG,278.9,0.0,E,,*2D
$GPRMC,170009.8,A,4741.45319,N,12225.33404,W,002.51,290.2,271013,016.6,E,D*27
$HCHDG,278.8,0.0,E,,*2C
$PGRME,2.4,M,2.4,M,3.4,M*29
$HCHDG,278.7,0.0,E,,*23
$GPRMC,170010.0,A,4741.45332,N,12225.33419,W,002.49,289.1,271013,016.6,E,D*20
$HCHDG,278.5,0.0,E,,*21
$PGRME,2.4,M,2.4,M,3.4,M*29
$YXXDR,A,5.4,D,PTCH,A,3.4,D,ROLL*5B
$HCHDG,278.4,0.0,E,,*20
$GPRMC,170010.2,A,4741.45338,N,12225.33442,W,002.49,288.2,271013,016.6,E,D*24
$GPRMB,A,-0.52,L,,Shil,4741.0830,N,12224.5670,W,0.6,126,-2.38,V*37
$HCHDG,278.4,0.0,E,,*20
$PTAK,FFP1,HEEL,@*07
$PGRME,2.4,M,2.4,M,3.4,M*29
$HCHDG,278.6,0.0,E,,*22
$GPRMC,170010.4,A,4741.45345,N,12225.33464,W,002.50,282.3,271013,016.6,E,D*2F
$PGRME,2.4,M,2.4,M,3.4,M*29
$HCHDG,278.6,0.0,E,,*22
$HCHDG,278.6,0.0,E,,*22
$YXXDR,A,5.8,D,PTCH,A,4.8,D,ROLL*5C
$PTAK,FFD1,4.8*59
$GPRMC,170010.6,A,4741.45350,N,12225.33492,W,002.52,285.9,271013,016.6,E,D*2F
$PGRME,2.4,M,2.4,M,3.4,M*29
$HCHDG,278.6,0.0,E,,*22
$HCHDG,278.3,0.0,E,,*27
$GPRMC,170010.8,A,4741.45356,N,12225.33514,W,002.56,284.3,271013,016.6,E,D*27
$HCHDG,278.4,0.0,E,,*20
$PGRME,2.4,M,2.4,M,3.4,M*29
$HCHDG,278.5,0.0,E,,*21
$GPRMC,170011.0,A,4741.45363,N,12225.33534,W,002.58,285.4,271013,016.6,E,D*22
$PGRME,2.4,M,2.4,M,3.4,M*29
$HCHDG,278.6,0.0,E,,*22
$YXXDR,A,5.6,D,PTCH,A,4.1,D,ROLL*5B
$HCHDG,278.6,0.0,E,,*22
$GPRMC,170011.2,A,4741.45369,N,12225.33554,W,002.61,286.0,271013,016.6,E,D*21
$GPRMB,A,-0.52,L,,Shil,4741.0830,N,12224.5670,W,0.6,126,-2.46,V*3E
$PGRME,2.4,M,2.4,M,3.4,M*29
$HCHDG,278.6,0.0,E,,*22
$HCHDG,278.6,0.0,E,,*22
$GPRMC,170011.4,A,4741.45373,N,12225.33571,W,002.59,282.4,271013,016.6,E,D*20
$HCHDG,278.7,0.0,E,,*23
$PGRME,2.4,M,2.4,M,3.4,M*29
$HCHDG,278.8,0.0,E,,*2C
$YXXDR,A,5.7,D,PTCH,A,3.8,D,ROLL*54
$GPRMC,170011.6,A,4741.45381,N,12225.33587,W,002.57,280.5,271013,016.6,E,D*2B
$PGRME,2.4,M,2.4,M,3.4,M*29
$HCHDG,278.9,0.0,E,,*2D
$HCHDG,278.8,0.0,E,,*2C
$GPRMC,170011.8,A,4741.45382,N,12225.33606,W,002.55,278.8,271013,016.6,E,D*24
$HCHDG,278.9,0.0,E,,*2D
$PGRME,2.4,M,2.4,M,3.4,M*29
$HCHDG,278.9,0.0,E,,*2D
$GPRMC,170012.0,A,4741.45381,N,12225.33631,W,002.52,279.8,271013,016.6,E,D*2E
$PGRME,2.4,M,2.4,M,3.4,M*29
$HCHDG,278.8,0.0,E,,*2C
$YXXDR,A,5.6,D,PTCH,A,3.8,D,ROLL*55
$PTAK,FFD1,3.8*5E
$HCHDG,279.0,0.0,E,,*25
$GPRMC,170012.2,A,4741.45379,N,12225.33656,W,002.49,281.8,271013,016.6,E,D*27
$GPRMB,A,-0.52,L,,Shil,4741.0830,N,12224.5670,W,0.6,126,-2.28,V*36
$HCHDG,279.0,0.0,E,,*25
$PGRME,2.4,M,2.4,M,3.4,M*29
$HCHDG,279.0,0.0,E,,*25
$GPRMC,170012.4,A,4741.45378,N,12225.33679,W,002.47,280.5,271013,016.6,E,D*2F
$HCHDG,278.8,0.0,E,,*2C
$PGRME,2.4,M,2.4,M,3.4,M*29
$HCHDG,278.9,0.0,E,,*2D
$YXXDR,A,5.5,D,PTCH,A,3.3,D,ROLL*5D
$GPRMC,170012.6,A,4741.45367,N,12225.33692,W,002.46,278.9,271013,016.6,E,D*2C
$PGRME,2.4,M,2.4,M,3.4,M*29
$HCHDG,278.8,0.0,E,,*2C
$HCHDG,278.9,0.0,E,,*2D
$GPRMC,170012.8,A,4741.45365,N,12225.33713,W,002.45,282.9,271013,016.6,E,D*2E
$PGRME,2.4,M,2.4,M,3.4,M*29
$HCHDG,279.0,0.0,E,,*25
$HCHDG,279.0,0.0,E,,*25
$GPRMC,170013.0,A,4741.45369,N,12225.33731,W,002.45,282.8,271013,016.6,E,D*2A
$PGRME,2.4,M,2.4,M,3.4,M*29
$HCHDG,278.8,0.0,E,,*2C
$YXXDR,A,5.5,D,PTCH,A,3.1,D,ROLL*5F
$HCHDG,278.9,0.0,E,,*2D
$GPRMC,170013.2,A,4741.45374,N,12225.33761,W,002.45,283.5,271013,016.6,E,D*2D
$HCHDG,278.9,0.0,E,,*2D
$PGRME,2.4,M,2.4,M,3.4,M*29
$HCHDG,279.1,0.0,E,,*24
$GPRMC,170013.4,A,4741.45377,N,12225.33790,W,002.45,283.9,271013,016.6,E,D*2A
$GPRMB,A,-0.52,L,,Shil,4741.0830,N,12224.5670,W,0.6,126,-2.28,V*36
$HCHDG,279.1,0.0,E,,*24
$PGRME,2.4,M,2.4,M,3.4,M*29
$HCHDG,279.0,0.0,E,,*25
$YXXDR,A,5.5,D,PTCH,A,3.1,D,ROLL*5F
$PTAK,FFD1,3.1*57
$GPRMC,170013.6,A,4741.45379,N,12225.33808,W,002.42,282.8,271013,016.6,E,D*2F
$PGRME,2.4,M,2.4,M,3.4,M*29
$HCHDG,279.0,0.0,E,,*25
$HCHDG,279.0,0.0,E,,*25
$GPRMC,170013.8,A,4741.45378,N,12225.33836,W,002.41,284.9,271013,016.6,E,D*29
$PGRME,2.4,M,2.4,M,3.4,M*29
$HCHDG,279.2,0.0,E,,*27
$HCHDG,279.1,0.0,E,,*24
$GPRMC,170014.0,A,4741.45384,N,12225.33858,W,002.62,286.8,271013,016.6,E,D*2F
$HCHDG,279.3,0.0,E,,*26
$PGRME,2.4,M,2.4,M,3.4,M*29
$YXXDR,A,5.5,D,PTCH,A,3.7,D,ROLL*59
$HCHDG,279.4,0.0,E,,*21
$GPRMC,170014.2,A,4741.45393,N,12225.33877,W,002.62,284.7,271013,016.6,E,D*2B
$HCHDG,279.5,0.0,E,,*20
$PGRME,2.4,M,2.4,M,3.4,M*29
$HCHDG,279.4,0.0,E,,*21
$GPRMC,170014.4,A,4741.45398,N,12225.33886,W,002.63,285.4,271013,016.6,E,D*2B
$GPRMB,A,-0.52,L,,Shil,4741.0830,N,12224.5670,W,0.6,126,-2.47,V*3F
$PGRME,2.4,M,2.4,M,3.4,M*29
$HCHDG,279.6,0.0,E,,*23
$PTAK,FFP1,HEEL,@*07
$HCHDG,279.8,0.0,E,,*2D
$YXXDR,A,5.9,D,PTCH,A,4.6,D,ROLL*53
$GPRMC,170014.6,A,4741.45388,N,12225.33885,W,002.57,277.2,271013,016.6,E,D*27
$PGRME,2.4,M,2.4,M,3.4,M*29
$HCHDG,279.8,0.0,E,,*2D
$HCHDG,280.1,0.0,E,,*22
$GPRMC,170014.8,A,4741.45389,N,12225.33913,W,002.54,279.1,271013,016.6,E,D*28
$PGRME,2.4,M,2.4,M,3.4,M*29
$HCHDG,280.1,0.0,E,,*22
$HCHDG,280.1,0.0,E,,*22
$GPRMC,170015.0,A,4741.45389,N,12225.33942,W,002.52,278.9,271013,016.6,E,D*2A
$PGRME,2.4,M,2.4,M,3.4,M*29
$HCHDG,280.3,0.0,E,,*20
$YXXDR,A,5.9,D,PTCH,A,4.3,D,ROLL*56
$PTAK,FFD1,4.3*52
$HCHDG,280.2,0.0,E,,*21
$GPRMC,170015.2,A,4741.45398,N,12225.33960,W,002.53,278.7,271013,016.6,E,D*27
$PGRME,2.4,M,2.4,M,3.4,M*29
$HCHDG,280.4,0.0,E,,*27
$HCHDG,280.3,0.0,E,,*20
$GPRMC,170015.4,A,4741.45402,N,12225.33977,W,002.54,277.0,271013,016.6,E,D*2C
$GPRMB,A,-0.52,L,,Shil,4741.0830,N,12224.5670,W,0.6,125,-2.23,V*3E
$PGRME,2.4,M,2.4,M,3.4,M*29
$HCHDG,280.3,0.0,E,,*20
$HCHDG,280.2,0.0,E,,*21
$YXXDR,A,5.8,D,PTCH,A,3.9,D,ROLL*5A
$GPRMC,170015.6,A,4741.45410,N,12225.33986,W,002.54,279.6,271013,016.6,E,D*2B
$PGRME,2.4,M,2.4,M,3.4,M*29
$HCHDG,280.1,0.0,E,,*22
$HCHDG,280.0,0.0,E,,*23
$GPRMC,170015.8,A,4741.45409,N,12225.34005,W,002.51,281.7,271013,016.6,E,D*2B
$HCHDG,280.0,0.0,E,,*23
$PGRME,2.4,M,2.4,M,3.4,M*29
$HCHDG,280.2,0.0,E,,*21
$GPRMC,170016.0,A,4741.45407,N,12225.34026,W,002.50,283.8,271013,016.6,E,D*23
$PGRME,2.4,M,2.4,M,3.4,M*29
$HCHDG,280.1,0.0,E,,*22
$YXXDR,A,5.4,D,PTCH,A,2.8,D,ROLL*56
$PTAK,FFD1,2.8*5F
$HCHDG,280.2,0.0,E,,*21
$GPRMC,170016.2,A,4741.45408,N,12225.34041,W,002.48,286.6,271013,016.6,E,D*2D
$PGRME,2.4,M,2.4,M,3.4,M*29
$HCHDG,280.4,0.0,E,,*27
$HCHDG,280.2,0.0,E,,*21
$GPRMC,170016.4,A,4741.45406,N,12225.34059,W,002.49,289.5,271013,016.6,E,D*21
$HCHDG,280.4,0.0,E,,*27
$PGRME,2.4,M,2.4,M,3.4,M*29
$HCHDG,280.6,0.0,E,,*25
$YXXDR,A,5.5,D,PTCH,A,2.3,D,ROLL*5C
$GPRMC,170016.6,A,4741.45406,N,12225.34076,W,002.48,287.6,271013,016.6,E,D*22
$GPRMB,A,-0.52,L,,Shil,4741.0830,N,12224.5670,W,0.6,125,-2.36,V*3A
$PGRME,2.4,M,2.4,M,3.4,M*29
$HCHDG,280.6,0.0,E,,*25
$HCHDG,280.8,0.0,E,,*2B
$GPRMC,170016.8,A,4741.45416,N,12225.34119,W,002.50,283.6,271013,016.6,E,D*28
$HCHDG,281.1,0.0,E,,*23
$PGRME,2.4,M,2.4,M,3.4,M*29
$HCHDG,281.4,0.0,E,,*26
$GPRMC,170017.0,A,4741.45417,N,12225.34137,W,002.50,285.0,271013,016.6,E,D*2C
$PGRME,2.4,M,2.4,M,3.4,M*29
$HCHDG,281.7,0.0,E,,*25
$YXXDR,A,5.7,D,PTCH,A,3.5,D,ROLL*59
$PTAK,FFD1,3.5*53
$HCHDG,281.8,0.0,E,,*2A
$GPRMC,170017.2,A,4741.45418,N,12225.34150,W,002.53,285.7,271013,016.6,E,D*24
$HCHDG,282.1,0.0,E,,*20
$PGRME,2.4,M,2.4,M,3.4,M*29
$HCHDG,282.3,0.0,E,,*22
$GPRMC,170017.4,A,4741.45422,N,12225.34164,W,002.53,280.2,271013,016.6,E,D*2C
$HCHDG,282.5,0.0,E,,*24
$PGRME,2.4,M,2.4,M,3.4,M*29
$HCHDG,282.5,0.0,E,,*24
$YXXDR,A,5.6,D,PTCH,A,4.4,D,ROLL*5E
$GPRMC,170017.6,A,4741.45423,N,12225.34175,W,002.56,284.9,271013,016.6,E,D*25
$PGRME,2.4,M,2.4,M,3.4,M*29
$HCHDG,282.7,0.0,E,,*26
$HCHDG,282.5,0.0,E,,*24
$GPRMC,170017.8,A,4741.45420,N,12225.34198,W,002.55,292.1,271013,016.6,E,D*27
$GPRMB,A,-0.52,L,,Shil,4741.0830,N,12224.5670,W,0.6,125,-2.48,V*33
$HCHDG,282.5,0.0,E,,*24
$PGRME,2.4,M,2.4,M,3.4,M*29
$HCHDG,282.5,0.0,E,,*24
$GPRMC,170018.0,A,4741.45423,N,12225.34218,W,002.56,297.7,271013,016.6,E,D*28
$HCHDG,282.6,0.0,E,,*27
$PGRME,2.4,M,2.4,M,3.4,M*29
$YXXDR,A,5.4,D,PTCH,A,3.3,D,ROLL*5C
$PTAK,FFD1,3.3*55
$HCHDG,282.5,0.0,E,,*24
$GPRMC,170018.2,A,4741.45420,N,12225.34232,W,002.54,289.8,271013,016.6,E,D*23
$HCHDG,282.6,0.0,E,,*27
$PGRME,2.4,M,2.4,M,3.4,M*29
$HCHDG,282.6,0.0,E,,*27
$GPRMC,170018.4,A,4741.45422,N,12225.34244,W,002.53,289.6,271013,016.6,E,D*2F
$HCHDG,282.6,0.0,E,,*27
$PGRME,2.4,M,2.4,M,3.4,M*29
$HCHDG,282.7,0.0,E,,*26
$YXXDR,A,5.6,D,PTCH,A,2.6,D,ROLL*5A
$GPRMC,170018.6,A,4741.45423,N,12225.34264,W,002.50,289.1,271013,016.6,E,D*2A
$PTAK,FFP1,HEEL,@*07
$PGRME,2.4,M,2.4,M,3.4,M*29
$HCHDG,282.8,0.0,E,,*29
$HCHDG,282.9,0.0,E,,*28
$GPRMC,170018.8,A,4741.45421,N,12225.34284,W,002.50,285.5,271013,016.6,E,D*20
$GPRMB,A,-0.52,L,,Shil,4741.0830,N,12224.5670,W,0.6,125,-2.35,V*39
$PGRME,2.4,M,2.4,M,3.4,M*29
$HCHDG,282.9,0.0,E,,*28
$HCHDG,283.0,0.0,E,,*20
$GPRMC,170019.0,A,4741.45417,N,12225.34293,W,002.50,286.9,271013,016.6,E,D*25
$PGRME,2.4,M,2.4,M,3.4,M*29
$HCHDG,283.2,0.0,E,,*22
$YXXDR,A,5.7,D,PTCH,A,2.0,D,ROLL*5D
$HCHDG,283.4,0.0,E,,*24
$GPRMC,170019.2,A,4741.45412,N,12225.34310,W,002.52,288.5,271013,016.6,E,D*28
$PGRME,2.4,M,2.4,M,3.4,M*29
$HCHDG,283.4,0.0,E,,*24
$HCHDG,283.5,0.0,E,,*25
$GPRMC,170019.4,A,4741.45416,N,12225.34331,W,002.50,288.6,271013,016.6,E,D*28
$PGRME,2.4,M,2.4,M,3.4,M*29
$HCHDG,283.6,0.0,E,,*26
$HCHDG,283.5,0.0,E,,*25
$YXXDR,A,5.5,D,PTCH,A,1.3,D,ROLL*5F
$PTAK,FFD1,1.3*57
$GPRMC,170019.6,A,4741.45411,N,12225.34351,W,002.48,293.1,271013,016.6,E,D*2F
$PGRME,2.4,M,2.4,M,3.4,M*29
$HCHDG,283.6,0.0,E,,*26
$HCHDG,283.5,0.0,E,,*25
$GPRMC,170019.8,A,4741.45411,N,12225.34367,W,002.46,293.8,271013,016.6,E,D*23
$PGRME,2.4,M,2.4,M,3.4,M*29
$HCHDG,283.4,0.0,E,,*24
$HCHDG,283.3,0.0,E,,*23
$GPRMC,170020.0,A,4741.45413,N,12225.34376,W,002.46,291.9,271013,016.6,E,D*20
$GPRMB,A,-0.52,L,,Shil,4741.0830,N,12224.5670,W,0.6,125,-2.39,V*35
$HCHDG,283.5,0.0,E,,*25
$PGRME,2.4,M,2.4,M,3.4,M*29
$YXXDR,A,5.4,D,PTCH,A,1.0,D,ROLL*5D
$HCHDG,283.4,0.0,E,,*24
$GPRMC,170020.2,A,4741.45417,N,12225.34390,W,002.46,293.2,271013,016.6,E,D*27
$HCHDG,283.4,0.0,E,,*24
$PGRME,2.4,M,2.4,M,3.4,M*29
$HCHDG,283.0,0.0,E,,*20
$GPRMC,170020.4,A,4741.45431,N,12225.34397,W,002.45,293.3,271013,016.6,E,D*20
$HCHDG,283.1,0.0,E,,*21
$PGRME,2.4,M,2.4,M,3.4,M*29
$HCHDG,283.2,0.0,E,,*22
$YXXDR,A,5.5,D,PTCH,A,1.7,D,ROLL*5B
$GPRMC,170020.6,A,4741.45433,N,12225.34406,W,002.41,293.3,271013,016.6,E,D*2B
$PGRME,2.4,M,2.4,M,3.4,M*29
$HCHDG,283.3,0.0,E,,*23
$HCHDG,283.3,0.0,E,,*23
$GPRMC,170020.8,A,4741.45436,N,12225.34427,W,002.66,293.6,271013,016.6,E,D*23
$HCHDG,283.4,0.0,E,,*24
$PGRME,2.4,M,2.4,M,3.4,M*29
$HCHDG,283.5,0.0,E,,*25
$GPRMC,170021.0,A,4741.45439,N,12225.34456,W,002.40,291.9,271013,016.6,E,D*2A
$PGRME,2.4,M,2.4,M,3.4,M*29
$HCHDG,283.7,0.0,E,,*27
$YXXDR,A,5.6,D,PTCH,A,2.4,D,ROLL*58
$PTAK,FFD1,2.4*53
$HCHDG,283.7,0.0,E,,*27
$GPRMC,170021.2,A,4741.45445,N,12225.34481,W,002.45,295.6,271013,016.6,E,D*27
$GPRMB,A,-0.52,L,,Shil,4741.0830,N,12224.5670,W,0.6,125,-2.41,V*3A
$PGRME,2.4,M,2.4,M,3.4,M*29
$HCHDG,283.7,0.0,E,,*27
$HCHDG,283.7,0.0,E,,*27
$GPRMC,170021.4,A,4741.45448,N,12225.34496,W,002.41,290.4,271013,016.6,E,D*29
$HCHDG,283.9,0.0,E,,*29
$PGRME,2.4,M,2.4,M,3.4,M*29
$HCHDG,283.8,0.0,E,,*28
$YXXDR,A,5.7,D,PTCH,A,4.4,D,ROLL*5F
$GPRMC,170021.6,A,4741.45450,N,12225.34518,W,002.40,290.4,271013,016.6,E,D*24
$PGRME,2.4,M,2.4,M,3.4,M*29
$HCHDG,283.9,0.0,E,,*29
$HCHDG,283.8,0.0,E,,*28
$GPRMC,170021.8,A,4741.45455,N,12225.34545,W,002.36,294.0,271013,016.6,E,D*26
$HCHDG,283.8,0.0,E,,*28
$PGRME,2.4,M,2.4,M,3.4,M*29
$HCHDG,283.8,0.0,E,,*28
$GPRMC,170022.0,A,4741.45462,N,12225.34567,W,002.36,294.8,271013,016.6,E,D*21
$HCHDG,284.0,0.0,E,,*27
$PGRME,2.4,M,2.4,M,3.4,M*29
$YXXDR,A,6.1,D,PTCH,A,4.5,D,ROLL*5B
$PTAK,FFD1,4.5*54
$HCHDG,283.9,0.0,E,,*29
$GPRMC,170022.2,A,4741.45475,N,12225.34594,W,002.38,294.8,271013,016.6,E,D*27
$GPRMB,A,-0.52,L,,Shil,4741.0830,N,12224.5670,W,0.6,125,-2.34,V*38
$HCHDG,284.2,0.0,E,,*25
$PGRME,2.4,M,2.4,M,3.4,M*29
$HCHDG,284.2,0.0,E,,*25
$GPRMC,170022.4,A,4741.45481,N,12225.34625,W,002.53,293.0,271013,016.6,E,D*21
$HCHDG,284.2,0.0,E,,*25
$PGRME,2.4,M,2.4,M,3.4,M*29
$HCHDG,284.3,0.0,E,,*24
$YXXDR,A,5.9,D,PTCH,A,3.6,D,ROLL*54
$GPRMC,170022.6,A,4741.45488,N,12225.34652,W,002.57,287.1,271013,016.6,E,D*2A
$PGRME,2.4,M,2.4,M,3.4,M*29
$HCHDG,284.4,0.0,E,,*23
$PTAK,FFP1,HEEL,@*07
$HCHDG,284.5,0.0,E,,*22
$GPRMC,170022.8,A,4741.45489,N,12225.34683,W,002.56,292.3,271013,016.6,E,D*2E
$PGRME,2.4,M,2.4,M,3.4,M*29
$HCHDG,284.7,0.0,E,,*20
$HCHDG,284.7,0.0,E,,*20
$GPRMC,170023.0,A,4741.45491,N,12225.34701,W,002.49,290.1,271013,016.6,E,D*2B
$PGRME,2.4,M,2.4,M,3.4,M*29
$HCHDG,285.0,0.0,E,,*26
$YXXDR,A,6.0,D,PTCH,A,2.6,D,ROLL*5F
$HCHDG,284.9,0.0,E,,*2E
$GPRMC,170023.2,A,4741.45493,N,12225.34721,W,002.42,292.5,271013,016.6,E,D*24
$GPRMB,A,-0.53,L,,Shil,4741.0830,N,12224.5670,W,0.6,125,-2.36,V*3B
$HCHDG,285.0,0.0,E,,*26
$PGRME,2.4,M,2.4,M,3.4,M*29
$HCHDG,285.1,0.0,E,,*27
$GPRMC,170023.4,A,4741.45498,N,12225.34740,W,002.39,299.3,271013,016.6,E,D*2F
$HCHDG,285.1,0.0,E,,*27
$PGRME,2.4,M,2.4,M,3.4,M*29
$HCHDG,285.0,0.0,E,,*26
$YXXDR,A,5.4,D,PTCH,A,0.2,D,ROLL*5E
$PTAK,FFD1,0.2*57
$GPRMC,170023.6,A,4741.45504,N,12225.34753,W,002.37,295.7,271013,016.6,E,D*2D
$PGRME,2.4,M,2.4,M,3.4,M*29
$HCHDG,285.0,0.0,E,,*26
$HCHDG,285.0,0.0,E,,*26
$GPRMC,170023.8,A,4741.45514,N,12225.34777,W,002.35,298.5,271013,016.6,E,D*29
$HCHDG,284.9,0.0,E,,*2E
$PGRME,2.4,M,2.4,M,3.4,M*29
$HCHDG,284.8,0.0,E,,*2F
$GPRMC,170024.0,A,4741.45522,N,12225.34799,W,002.37,297.2,271013,016.6,E,D*29
$HCHDG,284.8,0.0,E,,*2F
$PGRME,2.4,M,2.4,M,3.4,M*29
$YXXDR,A,5.5,D,PTCH,A,1.3,D,ROLL*5F
$HCHDG,284.7,0.0,E,,*20
$GPRMC,170024.2,A,4741.45529,N,12225.34820,W,002.38,299.6,271013,016.6,E,D*28
$GPRMB,A,-0.53,L,,Shil,4741.0830,N,12224.5670,W,0.6,125,-2.37,V*3A
$HCHDG,284.6,0.0,E,,*21
$PGRME,2.4,M,2.4,M,3.4,M*29
$HCHDG,284.6,0.0,E,,*21
$GPRMC,170024.4,A,4741.45532,N,12225.34841,W,002.37,295.5,271013,016.6,E,D*23
$HCHDG,284.6,0.0,E,,*21
$PGRME,2.4,M,2.4,M,3.4,M*29
$HCHDG,284.5,0.0,E,,*22
$YXXDR,A,5.5,D,PTCH,A,2.1,D,ROLL*5E
$GPRMC,170024.6,A,4741.45539,N,12225.34867,W,002.38,298.2,271013,016.6,E,D*2B
$PGRME,2.4,M,2.4,M,3.4,M*29
$HCHDG,284.6,0.0,E,,*21
$HCHDG,284.6,0.0,E,,*21
$GPRMC,170024.8,A,4741.45548,N,12225.34885,W,002.37,296.3,271013,016.6,E,D*2F
$PGRME,2.4,M,2.4,M,3.4,M*29
$HCHDG,284.6,0.0,E,,*21
$HCHDG,284.7,0.0,E,,*20
$GPRMC,170025.0,A,4741.45555,N,12225.34902,W,002.35,296.9,271013,016.6,E,D*2C
$HCHDG,284.7,0.0,E,,*20
$PGRME,2.4,M,2.4,M,3.4,M*29
$YXXDR,A,5.7,D,PTCH,A,2.7,D,ROLL*5A
$PTAK,FFD1,2.7*50
$HCHDG,284.7,0.0,E,,*20
$GPRMC,170025.2,A,4741.45565,N,12225.34925,W,002.36,300.0,271013,016.6,E,D*2C
$HCHDG,284.7,0.0,E,,*20
$PGRME,2.4,M,2.4,M,3.4,M*29
$HCHDG,284.6,0.0,E,,*21
$GPRMC,170025.4,A,4741.45570,N,12225.34942,W,002.36,301.9,271013,016.6,E,D*27
$GPRMB,A,-0.53,L,,Shil,4741.0830,N,12224.5670,W,0.6,125,-2.36,V*3B
$HCHDG,284.6,0.0,E,,*21
$PGRME,2.4,M,2.4,M,3.4,M*29
$HCHDG,284.6,0.0,E,,*21
$YXXDR,A,5.7,D,PTCH,A,3.3,D,ROLL*5F
$GPRMC,170025.6,A,4741.45579,N,12225.34964,W,002.36,300.9,271013,016.6,E,D*29
$PGRME,2.4,M,2.4,M,3.4,M*29
$HCHDG,284.6,0.0,E,,*21
$HCHDG,284.4,0.0,E,,*23
$GPRMC,170025.8,A,4741.45590,N,12225.34987,W,002.37,300.5,271013,016.6,E,D*20
$HCHDG,284.4,0.0,E,,*23
$PGRME,2.4,M,2.4,M,3.4,M*29
$HCHDG,284.3,0.0,E,,*24
$GPRMC,170026.0,A,4741.45601,N,12225.35006,W,002.38,301.9,271013,016.6,E,D*23
$HCHDG,284.1,0.0,E,,*26
$PGRME,2.4,M,2.4,M,3.4,M*29
$YXXDR,A,5.6,D,PTCH,A,3.0,D,ROLL*5D
$PTAK,FFD1,3.0*56
$HCHDG,284.2,0.0,E,,*25
$GPRMC,170026.2,A,4741.45608,N,12225.35028,W,002.40,299.8,271013,016.6,E,D*2A
$HCHDG,284.0,0.0,E,,*27
$PGRME,2.4,M,2.4,M,3.4,M*29
$HCHDG,284.1,0.0,E,,*26
$GPRMC,170026.4,A,4741.45614,N,12225.35033,W,002.41,300.2,271013,016.6,E,D*21
$GPRMB,A,-0.53,L,,Shil,4741.0830,N,12224.5670,W,0.6,125,-2.40,V*3A
$HCHDG,284.0,0.0,E,,*27
$PGRME,2.4,M,2.4,M,3.4,M*29
$HCHDG,283.9,0.0,E,,*29
$YXXDR,A,5.8,D,PTCH,A,3.2,D,ROLL*51
$GPRMC,170026.6,A,4741.45623,N,12225.35042,W,002.40,300.6,271013,016.6,E,D*24
$PGRME,2.4,M,2.4,M,3.4,M*29
$HCHDG,283.9,0.0,E,,*29
$PTAK,FFP1,HEEL,@*07
$HCHDG,283.9,0.0,E,,*29
$GPRMC,170026.8,A,4741.45634,N,12225.35057,W,002.40,298.7,271013,016.6,E,D*29
$HCHDG,283.9,0.0,E,,*29
$PGRME,2.4,M,2.4,M,3.4,M*29
$HCHDG,283.8,0.0,E,,*28
$GPRMC,170027.0,A,4741.45648,N,12225.35075,W,002.40,296.6,271013,016.6,E,D*24
$HCHDG,283.8,0.0,E,,*28
$PGRME,2.4,M,2.4,M,3.4,M*29
$YXXDR,A,5.7,D,PTCH,A,2.7,D,ROLL*5A
$HCHDG,283.9,0.0,E,,*29
$GPRMC,170027.2,A,4741.45657,N,12225.35104,W,002.40,294.2,271013,016.6,E,D*29
$HCHDG,283.8,0.0,E,,*28
$PGRME,2.4,M,2.4,M,3.4,M*29
$HCHDG,283.8,0.0,E,,*28
$GPRMC,170027.4,A,4741.45657,N,12225.35116,W,002.41,295.1,271013,016.6,E,D*2F
$GPRMB,A,-0.53,L,,Shil,4741.0830,N,12224.5670,W,0.6,125,-2.37,V*3A
$HCHDG,283.8,0.0,E,,*28
$PGRME,2.4,M,2.4,M,3.4,M*29
$HCHDG,283.9,0.0,E,,*29
$YXXDR,A,5.6,D,PTCH,A,2.3,D,ROLL*5F
$PTAK,FFD1,2.3*54
$GPRMC,170027.6,A,4741.45656,N,12225.35137,W,002.42,297.7,271013,016.6,E,D*28
$PGRME,2.4,M,2.4,M,3.4,M*29
$HCHDG,283.7,0.0,E,,*27
$HCHDG,283.8,0.0,E,,*28
$GPRMC,170027.8,A,4741.45660,N,12225.35153,W,002.39,297.2,271013,016.6,E,D*28
$HCHDG,283.6,0.0,E,,*26
$PGRME,2.4,M,2.4,M,3.4,M*29
$HCHDG,283.5,0.0,E,,*25
$GPRMC,170028.0,A,4741.45669,N,12225.35168,W,002.37,298.9,271013,016.6,E,D*24
$HCHDG,283.3,0.0,E,,*23
$PGRME,2.4,M,2.4,M,3.4,M*29
$YXXDR,A,5.8,D,PTCH,A,2.2,D,ROLL*50
$HCHDG,283.3,0.0,E,,*23
$GPRMC,170028.2,A,4741.45678,N,12225.35174,W,002.36,295.9,271013,016.6,E,D*27
$HCHDG,283.4,0.0,E,,*24
$PGRME,2.4,M,2.4,M,3.4,M*29
$HCHDG,283.4,0.0,E,,*24
$GPRMC,170028.4,A,4741.45687,N,12225.35182,W,002.36,299.0,271013,016.6,E,D*2D
$HCHDG,283.2,0.0,E,,*22
$PGRME,2.4,M,2.4,M,3.4,M*29
$HCHDG,283.2,0.0,E,,*22
$YXXDR,A,5.5,D,PTCH,A,2.5,D,ROLL*5A
$GPRMC,170028.6,A,4741.45692,N,12225.35198,W,002.39,297.7,271013,016.6,E,D*26
$GPRMB,A,-0.53,L,,Shil,4741.0830,N,12224.5670,W,0.6,125,-2.37,V*3A
$PGRME,2.4,M,2.4,M,3.4,M*29
$HCHDG,283.3,0.0,E,,*23
$HCHDG,283.2,0.0,E,,*22
$GPRMC,170028.8,A,4741.45695,N,12225.35220,W,002.38,294.5,271013,016.6,E,D*2F
$PGRME,2.4,M,2.4,M,3.4,M*29
$HCHDG,283.3,0.0,E,,*23
$HCHDG,283.3,0.0,E,,*23
$GPRMC,170029.0,A,4741.45702,N,12225.35240,W,002.39,299.1,271013,016.6,E,D*27
$PGRME,2.4,M,2.4,M,3.4,M*29
$HCHDG,283.3,0.0,E,,*23
$YXXDR,A,5.5,D,PTCH,A,3.1,D,ROLL*5F
$PTAK,FFD1,3.1*57
$HCHDG,283.2,0.0,E,,*22
$GPRMC,170029.2,A,4741.45712,N,12225.35258,W,002.42,300.0,271013,016.6,E,D*21
$PGRME,2.4,M,2.4,M,3.4,M*29
$HCHDG,283.2,0.0,E,,*22
$HCHDG,283.3,0.0,E,,*23
$GPRMC,170029.4,A,4741.45718,N,12225.35280,W,002.42,296.2,271013,016.6,E,D*24
$HCHDG,283.3,0.0,E,,*23
$PGRME,2.4,M,2.4,M,3.4,M*29
$HCHDG,283.3,0.0,E,,*23
$YXXDR,A,5.8,D,PTCH,A,2.9,D,ROLL*5B
$GPRMC,170029.6,A,4741.45727,N,12225.35294,W,002.44,299.0,271013,016.6,E,D*24
$PGRME,2.4,M,2.4,M,3.4,M*29
$HCHDG,283.2,0.0,E,,*22
$HCHDG,283.3,0.0,E,,*23
$GPRMC,170029.8,A,4741.45735,N,12225.35309,W,002.45,301.3,271013,016.6,E,D*2E
$GPRMB,A,-0.53,L,,Shil,4741.0830,N,12224.5670,W,0.6,125,-2.44,V*3E
$HCHDG,283.1,0.0,E,,*21
$PGRME,2.4,M,2.4,M,3.4,M*29
$HCHDG,282.9,0.0,E,,*28
$GPRMC,170030.0,A,4741.45744,N,12225.35319,W,002.44,302.7,271013,016.6,E,D*2F
$HCHDG,282.8,0.0,E,,*29
$PGRME,2.4,M,2.4,M,3.4,M*29
$YXXDR,A,5.6,D,PTCH,A,2.3,D,ROLL*5F
$PTAK,FFD1,2.3*54
$HCHDG,282.6,0.0,E,,*27
$GPRMC,170030.2,A,4741.45752,N,12225.35331,W,002.42,305.0,271013,016.6,E,D*26
$PGRME,2.4,M,2.4,M,3.4,M*29
$HCHDG,282.8,0.0,E,,*29
$HCHDG,282.7,0.0,E,,*26
$GPRMC,170030.4,A,4741.45750,N,12225.35355,W,002.42,298.0,271013,016.6,E,D*25
$HCHDG,282.5,0.0,E,,*24
$PGRME,2.4,M,2.4,M,3.4,M*29
$HCHDG,282.4,0.0,E,,*25
$PTAK,FFP1,HEEL,@*07
$YXXDR,A,5.5,D,PTCH,A,2.5,D,ROLL*5A
$GPRMC,170030.6,A,4741.45748,N,12225.35381,W,002.42,295.2,271013,016.6,E,D*28
$GPRMB,A,-0.53,L,,Shil,4741.0830,N,12224.5670,W,0.6,125,-2.38,V*35
$PGRME,2.4,M,2.4,M,3.4,M*29
$HCHDG,282.3,0.0,E,,*22
$HCHDG,282.4,0.0,E,,*25
$GPRMC,170030.8,A,4741.45747,N,12225.35405,W,002.43,294.3,271013,016.6,E,D*23
$HCHDG,282.5,0.0,E,,*24
$PGRME,2.4,M,2.4,M,3.4,M*29
$HCHDG,282.5,0.0,E,,*24
$GPRMC,170031.0,A,4741.45745,N,12225.35423,W,002.43,293.7,271013,016.6,E,D*2F
$HCHDG,282.6,0.0,E,,*27
$PGRME,2.4,M,2.4,M,3.4,M*29
$YXXDR,A,5.3,D,PTCH,A,3.8,D,ROLL*50
$PTAK,FFD1,3.8*5E
$HCHDG,282.4,0.0,E,,*25
$GPRMC,170031.2,A,4741.45748,N,12225.35433,W,002.46,296.7,271013,016.6,E,D*21
$PGRME,2.4,M,2.4,M,3.4,M*29
$HCHDG,282.5,0.0,E,,*24
$HCHDG,282.5,0.0,E,,*24
$GPRMC,170031.4,A,4741.45744,N,12225.35443,W,002.47,297.9,271013,016.6,E,D*22
$PGRME,2.4,M,2.4,M,3.4,M*29
$HCHDG,282.4,0.0,E,,*25
$HCHDG,282.4,0.0,E,,*25
$YXXDR,A,5.4,D,PTCH,A,3.1,D,ROLL*5E
$GPRMC,170031.6,A,4741.45748,N,12225.35459,W,002.46,299.1,271013,016.6,E,D*20
$PGRME,2.4,M,2.4,M,3.4,M*29
$HCHDG,282.5,0.0,E,,*24
$HCHDG,282.4,0.0,E,,*25
$GPRMC,170031.8,A,4741.45754,N,12225.35480,W,002.43,299.4,271013,016.6,E,D*27
$HCHDG,282.3,0.0,E,,*22
$PGRME,2.4,M,2.4,M,3.4,M*29
$HCHDG,282.2,0.0,E,,*23
$GPRMC,170032.0,A,4741.45758,N,12225.35501,W,002.40,300.0,271013,016.6,E,D*2E
$HCHDG,282.1,0.0,E,,*20
$PGRME,2.4,M,2.4,M,3.4,M*29
$YXXDR,A,5.5,D,PTCH,A,3.4,D,ROLL*5A
$HCHDG,282.1,0.0,E,,*20
$GPRMC,170032.2,A,4741.45759,N,12225.35519,W,002.38,302.9,271013,016.6,E,D*20
$GPRMB,A,-0.53,L,,Shil,4741.0830,N,12224.5670,W,0.6,125,-2.38,V*35
$HCHDG,281.9,0.0,E,,*2B
$PGRME,2.4,M,2.4,M,3.4,M*29
$HCHDG,281.9,0.0,E,,*2B
$GPRMC,170032.4,A,4741.45768,N,12225.35542,W,002.40,299.2,271013,016.6,E,D*2D
$HCHDG,282.0,0.0,E,,*21
$PGRME,2.4,M,2.4,M,3.4,M*29
$HCHDG,281.8,0.0,E,,*2A
$YXXDR,A,5.6,D,PTCH,A,4.0,D,ROLL*5A
$PTAK,FFD1,4.0*51
$GPRMC,170032.6,A,4741.45772,N,12225.35558,W,002.41,301.9,271013,016.6,E,D*25
$PGRME,2.4,M,2.4,M,3.4,M*29
$HCHDG,281.6,0.0,E,,*24
$HCHDG,281.6,0.0,E,,*24
$GPRMC,170032.8,A,4741.45782,N,12225.35572,W,002.44,303.0,271013,016.6,E,D*22
$PGRME,2.4,M,2.4,M,3.4,M*29
$HCHDG,281.4,0.0,E,,*26
$HCHDG,281.4,0.0,E,,*26
$GPRMC,170033.0,A,4741.45794,N,12225.35597,W,002.47,300.8,271013,016.6,E,D*2F
$PGRME,2.4,M,2.4,M,3.4,M*29
$HCHDG,281.4,0.0,E,,*26
$YXXDR,A,5.6,D,PTCH,A,4.5,D,ROLL*5F
$HCHDG,281.4,0.0,E,,*26
$GPRMC,170033.2,A,4741.45799,N,12225.35618,W,002.49,298.9,271013,016.6,E,D*2B
$GPRMB,A,-0.53,L,,Shil,4741.0830,N,12224.5670,W,0.7,125,-2.47,V*3C
$PGRME,2.4,M,2.4,M,3.4,M*29
$HCHDG,281.3,0.0,E,,*21
$HCHDG,281.0,0.0,E,,*22
$GPRMC,170033.4,A,4741.45805,N,12225.35651,W,002.32,297.2,271013,016.6,E,D*22
$PGRME,2.4,M,2.4,M,3.4,M*29
$HCHDG,281.0,0.0,E,,*22
$HCHDG,281.0,0.0,E,,*22
$YXXDR,A,5.6,D,PTCH,A,4.2,D,ROLL*58
$GPRMC,170033.6,A,4741.45815,N,12225.35667,W,002.34,295.4,271013,016.6,E,D*26
$PGRME,2.4,M,2.4,M,3.4,M*29
$HCHDG,280.8,0.0,E,,*2B
$HCHDG,280.8,0.0,E,,*2B
$GPRMC,170033.8,A,4741.45824,N,12225.35685,W,002.37,297.6,271013,016.6,E,D*25
$PGRME,2.4,M,2.4,M,3.4,M*29
$HCHDG,280.7,0.0,E,,*24
$HCHDG,280.5,0.0,E,,*26
$GPRMC,170034.0,A,4741.45836,N,12225.35694,W,002.40,298.6,271013,016.6,E,D*26
$PGRME,2.4,M,2.4,M,3.4,M*29
$HCHDG,280.6,0.0,E,,*25
$YXXDR,A,5.5,D,PTCH,A,3.4,D,ROLL*5A
$PTAK,FFD1,3.4*52
$HCHDG,280.4,0.0,E,,*27
$GPRMC,170034.2,A,4741.45838,N,12225.35717,W,002.44,296.2,271013,016.6,E,D*2E
$GPRMB,A,-0.53,L,,Shil,4741.0830,N,12224.5670,W,0.7,125,-2.41,V*3A
$PGRME,2.4,M,2.4,M,3.4,M*29
$HCHDG,280.4,0.0,E,,*27
$HCHDG,280.3,0.0,E,,*20
$GPRMC,170034.4,A,4741.45841,N,12225.35735,W,002.46,296.4,271013,016.6,E,D*22
$PGRME,2.4,M,2.4,M,3.4,M*29
$HCHDG,280.1,0.0,E,,*22
$HCHDG,280.1,0.0,E,,*22
$YXXDR,A,5.7,D,PTCH,A,3.1,D,ROLL*5D
$GPRMC,170034.6,A,4741.45846,N,12225.35755,W,002.64,295.0,271013,016.6,E,D*26
$PGRME,2.4,M,2.4,M,3.4,M*29
$HCHDG,280.1,0.0,E,,*22
$HCHDG,280.2,0.0,E,,*21
$GPRMC,170034.8,A,4741.45850,N,12225.35779,W,002.61,291.5,271013,016.6,E,D*25
$PGRME,2.4,M,2.4,M,3.4,M*29
$HCHDG,280.0,0.0,E,,*23
$HCHDG,280.0,0.0,E,,*23
$GPRMC,170035.0,A,4741.45853,N,12225.35798,W,002.61,292.4,271013,016.6,E,D*22
$HCHDG,280.2,0.0,E,,*21
$PTAK,FFP1,HEEL,@*07
$PGRME,2.4,M,2.4,M,3.4,M*29
$YXXDR,A,5.8,D,PTCH,A,3.3,D,ROLL*50
$PTAK,FFD1,3.3*55
$HCHDG,279.9,0.0,E,,*2C
$GPRMC,170035.2,A,4741.45854,N,12225.35823,W,002.40,289.9,271013,016.6,E,D*2C
$PGRME,2.4,M,2.4,M,3.4,M*29
$HCHDG,280.0,0.0,E,,*23
$HCHDG,280.0,0.0,E,,*23
$GPRMC,170035.4,A,4741.45853,N,12225.35846,W,002.37,289.7,271013,016.6,E,D*20
$GPRMB,A,-0.53,L,,Shil,4741.0830,N,12224.5670,W,0.7,125,-2.28,V*35
$PGRME,2.4,M,2.4,M,3.4,M*29
$HCHDG,279.9,0.0,E,,*2C
$HCHDG,279.8,0.0,E,,*2D
$YXXDR,A,5.5,D,PTCH,A,2.8,D,ROLL*57
$GPRMC,170035.6,A,4741.45860,N,12225.35870,W,002.35,289.3,271013,016.6,E,D*21
$PGRME,2.4,M,2.4,M,3.4,M*29
$HCHDG,279.7,0.0,E,,*22
$HCHDG,279.6,0.0,E,,*23
$GPRMC,170035.8,A,4741.45867,N,12225.35879,W,002.32,292.0,271013,016.6,E,D*2F
$PGRME,2.4,M,2.4,M,3.4,M*29
$HCHDG,279.6,0.0,E,,*23
$HCHDG,279.4,0.0,E,,*21
$GPRMC,170036.0,A,4741.45886,N,12225.35890,W,002.30,293.2,271013,016.6,E,D*2D
$HCHDG,279.2,0.0,E,,*27
$PGRME,2.4,M,2.4,M,3.4,M*29
$YXXDR,A,5.4,D,PTCH,A,3.1,D,ROLL*5E
$HCHDG,279.0,0.0,E,,*25
$GPRMC,170036.2,A,4741.45896,N,12225.35898,W,002.31,293.7,271013,016.6,E,D*22
$HCHDG,278.8,0.0,E,,*2C
$PGRME,2.4,M,2.4,M,3.4,M*29
$HCHDG,278.8,0.0,E,,*2C
$GPRMC,170036.4,A,4741.45905,N,12225.35921,W,002.27,293.4,271013,016.6,E,D*28
$GPRMB,A,-0.53,L,,Shil,4741.0830,N,12224.5670,W,0.7,125,-2.22,V*3F
$HCHDG,278.7,0.0,E,,*23
$PGRME,2.4,M,2.4,M,3.4,M*29
$HCHDG,278.6,0.0,E,,*22
$YXXDR,A,5.2,D,PTCH,A,3.4,D,ROLL*5D
$PTAK,FFD1,3.4*52
$GPRMC,170036.6,A,4741.45912,N,12225.35947,W,002.27,292.5,271013,016.6,E,D*2C
$PGRME,2.4,M,2.4,M,3.4,M*29
$HCHDG,278.6,0.0,E,,*22
$HCHDG,278.7,0.0,E,,*23
$GPRMC,170036.8,A,4741.45918,N,12225.35964,W,002.44,294.5,271013,016.6,E,D*2A
$HCHDG,278.7,0.0,E,,*23
$PGRME,2.4,M,2.4,M,3.4,M*29
$HCHDG,278.8,0.0,E,,*2C
$GPRMC,170037.0,A,4741.45926,N,12225.35984,W,002.45,294.4,271013,016.6,E,D*20
$PGRME,2.4,M,2.4,M,3.4,M*29
$HCHDG,278.9,0.0,E,,*2D
$YXXDR,A,5.6,D,PTCH,A,4.0,D,ROLL*5A
$HCHDG,279.1,0.0,E,,*24
$GPRMC,170037.2,A,4741.45941,N,12225.35996,W,002.48,294.9,271013,016.6,E,D*20
$PGRME,2.4,M,2.4,M,3.4,M*29
$HCHDG,278.9,0.0,E,,*2D
$HCHDG,278.9,0.0,E,,*2D
$GPRMC,170037.4,A,4741.45946,N,12225.36007,W,002.42,292.0,271013,016.6,E,D*26
$GPRMB,A,-0.53,L,,Shil,4741.0830,N,12224.5670,W,0.7,125,-2.36,V*3A
$PGRME,2.4,M,2.4,M,3.4,M*29
$HCHDG,278.8,0.0,E,,*2C
$HCHDG,278.9,0.0,E,,*2D
$YXXDR,A,5.6,D,PTCH,A,4.0,D,ROLL*5A
$GPRMC,170037.6,A,4741.45947,N,12225.36017,W,002.38,289.5,271013,016.6,E,D*26
$PGRME,2.4,M,2.4,M,3.4,M*29
$HCHDG,278.9,0.0,E,,*2D
$HCHDG,278.9,0.0,E,,*2D
$GPRMC,170037.8,A,4741.45946,N,12225.36030,W,002.37,287.8,271013,016.6,E,D*20
$HCHDG,279.2,0.0,E,,*27
$PGRME,2.4,M,2.4,M,3.4,M*29
$HCHDG,279.1,0.0,E,,*24
$GPRMC,170038.0,A,4741.45946,N,12225.36052,W,002.38,286.2,271013,016.6,E,D*27
$PGRME,2.4,M,2.4,M,3.4,M*29
$HCHDG,279.1,0.0,E,,*24
$YXXDR,A,5.7,D,PTCH,A,4.2,D,ROLL*59
$PTAK,FFD1,4.2*53
$HCHDG,279.0,0.0,E,,*25
$GPRMC,170038.2,A,4741.45947,N,12225.36075,W,002.39,287.8,271013,016.6,E,D*2B
$HCHDG,278.9,0.0,E,,*2D
$PGRME,2.4,M,2.4,M,3.4,M*29
$HCHDG,278.9,0.0,E,,*2D
$HCHDG,278.8,0.0,E,,*2C
$GPRMC,170038.4,A,4741.45945,N,12225.36094,W,002.40,288.0,271013,016.6,E,D*29
$GPRMB,A,-0.53,L,,Shil,4741.0830,N,12224.5670,W,0.7,125,-2.29,V*34
$PGRME,2.4,M,2.4,M,3.4,M*29
$HCHDG,278.6,0.0,E,,*22
$YXXDR,A,5.4,D,PTCH,A,3.5,D,ROLL*5A
$GPRMC,170038.6,A,4741.45955,N,12225.36112,W,002.39,286.2,271013,016.6,E,D*27
$PGRME,2.4,M,2.4,M,3.4,M*29
$HCHDG,278.6,0.0,E,,*22
$HCHDG,278.6,0.0,E,,*22
$GPRMC,170038.8,A,4741.45960,N,12225.36126,W,002.39,287.7,271013,016.6,E,D*2C
$PGRME,2.4,M,2.4,M,3.4,M*29
$HCHDG,278.5,0.0,E,,*21
$HCHDG,278.5,0.0,E,,*21
$GPRMC,170039.0,A,4741.45967,N,12225.36133,W,002.38,287.2,271013,016.6,E,D*22
$HCHDG,278.5,0.0,E,,*21
$PTAK,FFP1,HEEL,@*07
$PGRME,2.4,M,2.4,M,3.4,M*29
$YXXDR,A,5.5,D,PTCH,A,2.8,D,ROLL*57
$PTAK,FFD1,2.8*5F
$HCHDG,278.5,0.0,E,,*21
$GPRMC,170039.2,A,4741.45976,N,12225.36146,W,002.38,288.4,271013,016.6,E,D*2B
$HCHDG,278.3,0.0,E,,*27
$PGRME,2.4,M,2.4,M,3.4,M*29
$HCHDG,278.4,0.0,E,,*20
$GPRMC,170039.4,A,4741.45982,N,12225.36164,W,002.35,288.9,271013,016.6,E,D*26
$HCHDG,278.4,0.0,E,,*20
$PGRME,2.4,M,2.4,M,3.4,M*29
$HCHDG,278.4,0.0,E,,*20
$YXXDR,A,5.4,D,PTCH,A,2.9,D,ROLL*57
$GPRMC,170039.6,A,4741.45994,N,12225.36190,W,002.32,289.4,271013,016.6,E,D*23
$GPRMB,A,-0.54,L,,Shil,4741.0830,N,12224.5670,W,0.7,125,-2.23,V*39
$PGRME,2.4,M,2.4,M,3.4,M*29
$HCHDG,278.3,0.0,E,,*27
$HCHDG,278.4,0.0,E,,*20
$GPRMC,170039.8,A,4741.45999,N,12225.36213,W,002.30,291.2,271013,016.6,E,D*25
$PGRME,2.4,M,2.4,M,3.4,M*29
$HCHDG,278.4,0.0,E,,*20
$HCHDG,278.5,0.0,E,,*21
$GPRMC,170040.0,A,4741.46009,N,12225.36242,W,002.28,291.4,271013,016.6,E,D*2B
$PGRME,2.4,M,2.4,M,3.4,M*29
$HCHDG,278.4,0.0,E,,*20
$YXXDR,A,5.5,D,PTCH,A,2.9,D,ROLL*56
$HCHDG,278.3,0.0,E,,*27
$GPRMC,170040.2,A,4741.46016,N,12225.36269,W,002.30,293.7,271013,016.6,E,D*26
$HCHDG,278.3,0.0,E,,*27
$PGRME,2.4,M,2.4,M,3.4,M*29
$HCHDG,278.2,0.0,E,,*26
$GPRMC,170040.4,A,4741.46024,N,12225.36296,W,002.34,293.3,271013,016.6,E,D*21
$HCHDG,278.3,0.0,E,,*27
$PGRME,2.4,M,2.4,M,3.4,M*29
$HCHDG,278.3,0.0,E,,*27
$YXXDR,A,5.5,D,PTCH,A,3.4,D,ROLL*5A
$PTAK,FFD1,3.4*52
$GPRMC,170040.6,A,4741.46035,N,12225.36325,W,002.58,293.1,271013,016.6,E,D*22
$GPRMB,A,-0.54,L,,Shil,4741.0830,N,12224.5670,W,0.7,125,-2.52,V*3F
$PGRME,2.4,M,2.4,M,3.4,M*29
$HCHDG,278.3,0.0,E,,*27
$HCHDG,278.4,0.0,E,,*20
$GPRMC,170040.8,A,4741.46047,N,12225.36345,W,002.60,296.7,271013,016.6,E,D*27
$PGRME,2.4,M,2.4,M,3.4,M*29
$HCHDG,278.2,0.0,E,,*26
$HCHDG,278.3,0.0,E,,*27
$GPRMC,170041.0,A,4741.46049,N,12225.36364,W,002.58,294.1,271013,016.6,E,D*2C
$PGRME,2.4,M,2.4,M,3.4,M*29
$HCHDG,278.3,0.0,E,,*27
$YXXDR,A,5.4,D,PTCH,A,4.2,D,ROLL*5A
$HCHDG,278.4,0.0,E,,*20
$GPRMC,170041.2,A,4741.46043,N,12225.36396,W,002.56,292.0,271013,016.6,E,D*20
$PGRME,2.4,M,2.4,M,3.4,M*29
$HCHDG,278.4,0.0,E,,*20
$HCHDG,278.4,0.0,E,,*20
$GPRMC,170041.4,A,4741.46046,N,12225.36418,W,002.52,288.3,271013,016.6,E,D*2E
$PGRME,2.4,M,2.4,M,3.4,M*29
$HCHDG,278.4,0.0,E,,*20
$HCHDG,278.3,0.0,E,,*27
$YXXDR,A,5.8,D,PTCH,A,4.3,D,ROLL*57
$GPRMC,170041.6,A,4741.46052,N,12225.36433,W,002.27,282.9,271013,016.6,E,D*22
$PGRME,2.4,M,2.4,M,3.4,M*29
$HCHDG,278.2,0.0,E,,*26
$HCHDG,278.1,0.0,E,,*25
$GPRMC,170041.8,A,4741.46056,N,12225.36450,W,002.30,288.0,271013,016.6,E,D*28
$GPRMB,A,-0.54,L,,Shil,4741.0830,N,12224.5670,W,0.7,125,-2.20,V*3A
$PGRME,2.4,M,2.4,M,3.4,M*29
$HCHDG,277.9,0.0,E,,*22
$HCHDG,277.8,0.0,E,,*23
$GPRMC,170042.0,A,4741.46064,N,12225.36467,W,002.35,290.9,271013,016.6,E,D*23
$PGRME,2.4,M,2.4,M,3.4,M*29
$HCHDG,277.7,0.0,E,,*2C
$YXXDR,A,5.4,D,PTCH,A,3.3,D,ROLL*5C
$PTAK,FFD1,3.3*55
$HCHDG,277.8,0.0,E,,*23
$GPRMC,170042.2,A,4741.46070,N,12225.36485,W,002.56,293.4,271013,016.6,E,D*23
$PGRME,2.4,M,2.4,M,3.4,M*29
$HCHDG,277.6,0.0,E,,*2D
$HCHDG,277.5,0.0,E,,*2E
$GPRMC,170042.4,A,4741.46077,N,12225.36506,W,002.55,293.5,271013,016.6,E,D*2A
$PGRME,2.4,M,2.4,M,3.4,M*29
$HCHDG,277.5,0.0,E,,*2E
$HCHDG,277.4,0.0,E,,*2F
$YXXDR,A,5.3,D,PTCH,A,2.8,D,ROLL*51
$GPRMC,170042.6,A,4741.46082,N,12225.36525,W,002.60,292.0,271013,016.6,E,D*21
$PGRME,2.4,M,2.4,M,3.4,M*29
$HCHDG,277.4,0.0,E,,*2F
$HCHDG,277.5,0.0,E,,*2E
$GPRMC,170042.8,A,4741.46086,N,12225.36547,W,002.62,292.2,271013,016.6,E,D*2F
$PGRME,2.4,M,2.4,M,3.4,M*29
$HCHDG,277.6,0.0,E,,*2D
$HCHDG,277.6,0.0,E,,*2D
$GPRMC,170043.0,A,4741.46098,N,12225.36563,W,002.41,290.2,271013,016.6,E,D*2C
$GPRMB,A,-0.54,L,,Shil,4741.0830,N,12224.5670,W,0.7,125,-2.33,V*38
$PGRME,2.4,M,2.4,M,3.4,M*29
$HCHDG,277.6,0.0,E,,*2D
$PTAK,FFP1,HEEL,@*07
$YXXDR,A,5.7,D,PTCH,A,3.1,D,ROLL*5D
$PTAK,FFD1,3.1*57
$HCHDG,277.7,0.0,E,,*2C
$GPRMC,170043.2,A,4741.46099,N,12225.36579,W,002.44,291.3,271013,016.6,E,D*21
$PGRME,2.4,M,2.4,M,3.4,M*29
$HCHDG,277.6,0.0,E,,*2D
$HCHDG,277.5,0.0,E,,*2E
$GPRMC,170043.4,A,4741.46103,N,12225.36602,W,002.42,290.0,271013,016.6,E,D*2E
$PGRME,2.4,M,2.4,M,3.4,M*29
$HCHDG,277.5,0.0,E,,*2E
$HCHDG,277.7,0.0,E,,*2C
$YXXDR,A,5.4,D,PTCH,A,3.1,D,ROLL*5E
$GPRMC,170043.6,A,4741.46115,N,12225.36621,W,002.41,288.9,271013,016.6,E,D*29
$PGRME,2.4,M,2.4,M,3.4,M*29
$HCHDG,277.6,0.0,E,,*2D
$HCHDG,277.4,0.0,E,,*2F
$GPRMC,170043.8,A,4741.46131,N,12225.36639,W,002.39,295.6,271013,016.6,E,D*24
$HCHDG,277.2,0.0,E,,*29
$PGRME,2.4,M,2.4,M,3.4,M*29
$HCHDG,277.3,0.0,E,,*28
$GPRMC,170044.0,A,4741.46134,N,12225.36644,W,002.38,292.0,271013,016.6,E,D*24
$PGRME,2.4,M,2.4,M,3.4,M*29
$HCHDG,277.1,0.0,E,,*2A
$PGRMT,GPS 18x-5Hz software ver. 3.20,,,,,,,,*30
$YXXDR,A,5.2,D,PTCH,A,3.1,D,ROLL*58
$HCHDG,277.0,0.0,E,,*2B
$GPRMC,170044.2,A,4741.46138,N,12225.36677,W,002.41,292.1,271013,016.6,E,D*25
$GPRMB,A,-0.54,L,,Shil,4741.0830,N,12224.5670,W,0.7,125,-2.35,V*3E
$HCHDG,276.9,0.0,E,,*23
$PGRME,2.4,M,2.4,M,3.4,M*29
$HCHDG,277.0,0.0,E,,*2B
$GPRMC,170044.4,A,4741.46145,N,12225.36707,W,002.45,289.8,271013,016.6,E,D*28
$HCHDG,277.1,0.0,E,,*2A
$PGRME,2.4,M,2.4,M,3.4,M*29
$HCHDG,277.2,0.0,E,,*29
$YXXDR,A,5.6,D,PTCH,A,4.4,D,ROLL*5E
$PTAK,FFD1,4.4*55
$GPRMC,170044.6,A,4741.46144,N,12225.36726,W,002.47,288.4,271013,016.6,E,D*27
$PGRME,2.4,M,2.4,M,3.4,M*29
$HCHDG,277.1,0.0,E,,*2A
$HCHDG,277.1,0.0,E,,*2A
$GPRMC,170044.8,A,4741.46145,N,12225.36740,W,002.51,288.4,271013,016.6,E,D*2F
$HCHDG,277.1,0.0,E,,*2A
$PGRME,2.4,M,2.4,M,3.4,M*29
$HCHDG,277.1,0.0,E,,*2A
$GPRMC,170045.0,A,4741.46155,N,12225.36749,W,002.50,290.1,271013,016.6,E,D*23
$HCHDG,277.1,0.0,E,,*2A
$PGRME,2.4,M,2.4,M,3.4,M*29
$YXXDR,A,5.6,D,PTCH,A,4.3,D,ROLL*59
$HCHDG,277.1,0.0,E,,*2A
$GPRMC,170045.2,A,4741.46170,N,12225.36756,W,002.49,289.4,271013,016.6,E,D*2D
$HCHDG,277.0,0.0,E,,*2B
$PGRME,2.4,M,2.4,M,3.4,M*29
$HCHDG,277.1,0.0,E,,*2A
$GPRMC,170045.4,A,4741.46180,N,12225.36768,W,002.48,289.9,271013,016.6,E,D*25
$GPRMB,A,-0.54,L,,Shil,4741.0830,N,12224.5670,W,0.7,125,-2.39,V*32
$HCHDG,277.0,0.0,E,,*2B
$PGRME,2.4,M,2.4,M,3.4,M*29
$HCHDG,276.9,0.0,E,,*23
$YXXDR,A,5.5,D,PTCH,A,3.4,D,ROLL*5A
$PTAK,FFD1,3.4*52
$GPRMC,170045.6,A,4741.46184,N,12225.36783,W,002.48,288.9,271013,016.6,E,D*27
$PGRME,2.4,M,2.4,M,3.4,M*29
$HCHDG,277.1,0.0,E,,*2A
$HCHDG,277.0,0.0,E,,*2B
$GPRMC,170045.8,A,4741.46194,N,12225.36803,W,002.49,286.9,271013,016.6,E,D*20
$HCHDG,277.0,0.0,E,,*2B
$PGRME,2.4,M,2.4,M,3.4,M*29
$HCHDG,276.8,0.0,E,,*22
$GPRMC,170046.0,A,4741.46200,N,12225.36822,W,002.50,286.2,271013,016.6,E,D*25
$HCHDG,276.8,0.0,E,,*22
$PGRME,2.4,M,2.4,M,3.4,M*29
$YXXDR,A,5.6,D,PTCH,A,3.9,D,ROLL*54
$HCHDG,276.9,0.0,E,,*23
$GPRMC,170046.2,A,4741.46204,N,12225.36844,W,002.50,286.1,271013,016.6,E,D*20
$HCHDG,277.0,0.0,E,,*2B
$PGRME,2.4,M,2.4,M,3.4,M*29
$HCHDG,277.0,0.0,E,,*2B
$GPRMC,170046.4,A,4741.46210,N,12225.36863,W,002.49,282.8,271013,016.6,E,D*23
$HCHDG,277.1,0.0,E,,*2A
$PGRME,2.4,M,2.4,M,3.4,M*29
$HCHDG,276.9,0.0,E,,*23
$YXXDR,A,5.6,D,PTCH,A,3.6,D,ROLL*5B
$GPRMC,170046.6,A,4741.46208,N,12225.36881,W,002.48,285.0,271013,016.6,E,D*2A
$GPRMB,A,-0.54,L,,Shil,4741.0830,N,12224.5670,W,0.7,125,-2.33,V*38
$PGRME,2.4,M,2.4,M,3.4,M*29
$HCHDG,277.0,0.0,E,,*2B
$HCHDG,277.0,0.0,E,,*2B
$GPRMC,170046.8,A,4741.46214,N,12225.36901,W,002.46,284.1,271013,016.6,E,D*2E
$PGRME,2.4,M,2.4,M,3.4,M*29
$HCHDG,277.0,0.0,E,,*2B
$HCHDG,276.9,0.0,E,,*23
$GPRMC,170047.0,A,4741.46222,N,12225.36913,W,002.45,286.2,271013,016.6,E,D*23
$PGRME,2.4,M,2.4,M,3.4,M*29
$HCHDG,276.9,0.0,E,,*23
$YXXDR,A,5.6,D,PTCH,A,2.7,D,ROLL*5B
$PTAK,FFD1,2.7*50
$HCHDG,277.1,0.0,E,,*2A
$GPRMC,170047.2,A,4741.46240,N,12225.36926,W,002.45,289.6,271013,016.6,E,D*28
$HCHDG,277.1,0.0,E,,*2A
$PTAK,FFP1,HEEL,@*07
$PGRME,2.4,M,2.4,M,3.4,M*29
$HCHDG,277.0,0.0,E,,*2B
$GPRMC,170047.4,A,4741.46249,N,12225.36950,W,002.43,288.2,271013,016.6,E,D*25
$HCHDG,276.7,0.0,E,,*2D
$PGRME,2.4,M,2.4,M,3.4,M*29
$HCHDG,276.6,0.0,E,,*2C
$YXXDR,A,5.5,D,PTCH,A,3.1,D,ROLL*5F
$GPRMC,170047.6,A,4741.46258,N,12225.36973,W,002.39,288.3,271013,016.6,E,D*2A
$GPRMB,A,-0.54,L,,Shil,4741.0830,N,12224.5670,W,0.7,125,-2.29,V*33
$PGRME,2.4,M,2.4,M,3.4,M*29
$HCHDG,276.6,0.0,E,,*2C
$HCHDG,276.5,0.0,E,,*2F
$GPRMC,170047.8,A,4741.46264,N,12225.36992,W,002.37,287.2,271013,016.6,E,D*24
$PGRME,2.4,M,2.4,M,3.4,M*29
$HCHDG,276.7,0.0,E,,*2D
$HCHDG,276.6,0.0,E,,*2C
$GPRMC,170048.0,A,4741.46269,N,12225.37017,W,002.37,286.7,271013,016.6,E,D*2F
$PGRME,2.4,M,2.4,M,3.4,M*29
$HCHDG,276.6,0.0,E,,*2C
$YXXDR,A,5.4,D,PTCH,A,3.3,D,ROLL*5C
$PTAK,FFD1,3.3*55
$HCHDG,276.6,0.0,E,,*2C
$GPRMC,170048.2,A,4741.46274,N,12225.37038,W,002.38,285.2,271013,016.6,E,D*25
$HCHDG,276.6,0.0,E,,*2C
$PGRME,2.4,M,2.4,M,3.4,M*29
$HCHDG,276.6,0.0,E,,*2C
$GPRMC,170048.4,A,4741.46278,N,12225.37059,W,002.40,281.8,271013,016.6,E,D*29
$HCHDG,276.6,0.0,E,,*2C
$PGRME,2.4,M,2.4,M,3.4,M*29
$HCHDG,276.8,0.0,E,,*22
$YXXDR,A,5.5,D,PTCH,A,4.7,D,ROLL*5E
$GPRMC,170048.6,A,4741.46279,N,12225.37074,W,002.43,282.3,271013,016.6,E,D*2E
$GPRMB,A,-0.54,L,,Shil,4741.0830,N,12224.5670,W,0.7,125,-2.24,V*3E
$PGRME,2.4,M,2.4,M,3.4,M*29
$HCHDG,277.0,0.0,E,,*2B
$HCHDG,276.9,0.0,E,,*23
$GPRMC,170048.8,A,4741.46279,N,12225.37098,W,002.47,284.1,271013,016.6,E,D*22
$PGRME,2.4,M,2.4,M,3.4,M*29
$HCHDG,277.0,0.0,E,,*2B
$HCHDG,277.3,0.0,E,,*28
$GPRMC,170049.0,A,4741.46279,N,12225.37116,W,002.46,280.2,271013,016.6,E,D*2A
$PGRME,2.4,M,2.4,M,3.4,M*29
$HCHDG,277.4,0.0,E,,*2F
$YXXDR,A,5.7,D,PTCH,A,4.2,D,ROLL*59
$HCHDG,277.4,0.0,E,,*2F
$GPRMC,170049.2,A,4741.46283,N,12225.37133,W,002.44,282.2,271013,016.6,E,D*2A
$PGRME,2.4,M,2.4,M,3.4,M*29
$HCHDG,277.5,0.0,E,,*2E
$HCHDG,277.5,0.0,E,,*2E
$GPRMC,170049.4,A,4741.46290,N,12225.37157,W,002.42,283.1,271013,016.6,E,D*28
$PGRME,2.4,M,2.4,M,3.4,M*29
$HCHDG,277.5,0.0,E,,*2E
$HCHDG,277.7,0.0,E,,*2C
$YXXDR,A,5.8,D,PTCH,A,3.4,D,ROLL*57
$PTAK,FFD1,3.4*52
$GPRMC,170049.6,A,4741.46289,N,12225.37172,W,002.40,281.7,271013,016.6,E,D*23
$GPRMB,A,-0.54,L,,Shil,4741.0830,N,12224.5670,W,0.7,125,-2.20,V*3A
$PGRME,2.4,M,2.4,M,3.4,M*29
$HCHDG,277.6,0.0,E,,*2D
$HCHDG,277.6,0.0,E,,*2D
$GPRMC,170049.8,A,4741.46294,N,12225.37188,W,002.38,280.7,271013,016.6,E,D*2A
$PGRME,2.4,M,2.4,M,3.4,M*29
$HCHDG,277.5,0.0,E,,*2E
$HCHDG,277.5,0.0,E,,*2E
$GPRMC,170050.0,A,4741.46294,N,12225.37201,W,002.36,280.6,271013,016.6,E,D*27
$PGRME,2.4,M,2.4,M,3.4,M*29
$HCHDG,277.6,0.0,E,,*2D
$YXXDR,A,5.5,D,PTCH,A,3.1,D,ROLL*5F
$HCHDG,277.6,0.0,E,,*2D
$GPRMC,170050.2,A,4741.46290,N,12225.37220,W,002.34,282.7,271013,016.6,E,D*23
$HCHDG,277.6,0.0,E,,*2D
$PGRME,2.4,M,2.4,M,3.4,M*29
$HCHDG,277.7,0.0,E,,*2C
$GPRMC,170050.4,A,4741.46292,N,12225.37241,W,002.29,284.8,271013,016.6,E,D*25
$PGRME,2.4,M,2.4,M,3.4,M*29
$HCHDG,277.7,0.0,E,,*2C
$HCHDG,277.9,0.0,E,,*22
$YXXDR,A,5.6,D,PTCH,A,2.7,D,ROLL*5B
$PTAK,FFD1,2.7*50
$GPRMC,170050.6,A,4741.46298,N,12225.37261,W,002.31,285.1,271013,016.6,E,D*2E
$PGRME,2.4,M,2.4,M,3.4,M*29
$HCHDG,277.7,0.0,E,,*2C
$HCHDG,277.8,0.0,E,,*23
$GPRMC,170050.8,A,4741.46304,N,12225.37289,W,002.34,289.3,271013,016.6,E,D*29
$GPRMB,A,-0.54,L,,Shil,4741.0830,N,12224.5670,W,0.7,125,-2.25,V*3F
$PGRME,2.4,M,2.4,M,3.4,M*29
$HCHDG,278.0,0.0,E,,*24
$HCHDG,278.0,0.0,E,,*24
$GPRMC,170051.0,A,4741.46309,N,12225.37314,W,002.55,290.2,271013,016.6,E,D*26
$PGRME,2.4,M,2.4,M,3.4,M*29
$HCHDG,278.2,0.0,E,,*26
$YXXDR,A,5.5,D,PTCH,A,2.8,D,ROLL*57
$HCHDG,278.2,0.0,E,,*26
$GPRMC,170051.2,A,4741.46314,N,12225.37332,W,002.51,285.1,271013,016.6,E,D*2F
$PGRME,2.4,M,2.4,M,3.4,M*29
$HCHDG,278.4,0.0,E,,*20
$PTAK,FFP1,HEEL,@*07
$HCHDG,278.5,0.0,E,,*21
$GPRMC,170051.4,A,4741.46317,N,12225.37350,W,002.32,284.2,271013,016.6,E,D*29
$HCHDG,278.5,0.0,E,,*21
$PGRME,2.4,M,2.4,M,3.4,M*29
$HCHDG,278.9,0.0,E,,*2D
$YXXDR,A,5.6,D,PTCH,A,3.9,D,ROLL*54
$PTAK,FFD1,3.9*5F
$GPRMC,170051.6,A,4741.46321,N,12225.37370,W,002.29,286.1,271013,016.6,E,D*27
$PGRME,2.4,M,2.4,M,3.4,M*29
$HCHDG,278.9,0.0,E,,*2D
$HCHDG,278.8,0.0,E,,*2C
$GPRMC,170051.8,A,4741.46321,N,12225.37394,W,002.37,285.4,271013,016.6,E,D*2A
$PGRME,2.4,M,2.4,M,3.4,M*29
$HCHDG,278.8,0.0,E,,*2C
$HCHDG,278.7,0.0,E,,*23
$GPRMC,170052.0,A,4741.46318,N,12225.37421,W,002.41,286.4,271013,016.6,E,D*20
$GPRMB,A,-0.54,L,,Shil,4741.0830,N,12224.5670,W,0.7,125,-2.28,V*32
$PGRME,2.4,M,2.4,M,3.4,M*29
$HCHDG,278.6,0.0,E,,*22
$YXXDR,A,5.9,D,PTCH,A,3.6,D,ROLL*54
$HCHDG,278.8,0.0,E,,*2C
$GPRMC,170052.2,A,4741.46316,N,12225.37450,W,002.46,284.6,271013,016.6,E,D*2D
$PGRME,2.4,M,2.4,M,3.4,M*29
$HCHDG,278.9,0.0,E,,*2D
$HCHDG,278.9,0.0,E,,*2D
$GPRMC,170052.4,A,4741.46318,N,12225.37481,W,002.47,289.3,271013,016.6,E,D*20
$PGRME,2.4,M,2.4,M,3.4,M*29
$HCHDG,278.8,0.0,E,,*2C
$HCHDG,278.8,0.0,E,,*2C
$YXXDR,A,5.8,D,PTCH,A,3.9,D,ROLL*5A
$PTAK,FFD1,3.9*5F
$GPRMC,170052.6,A,4741.46330,N,12225.37499,W,002.48,291.0,271013,016.6,E,D*24
$PGRME,2.4,M,2.4,M,3.4,M*29
$HCHDG,278.9,0.0,E,,*2D
$HCHDG,279.0,0.0,E,,*25
$GPRMC,170052.8,A,4741.46343,N,12225.37510,W,002.44,290.0,271013,016.6,E,D*23
$PGRME,2.4,M,2.4,M,3.4,M*29
$HCHDG,278.9,0.0,E,,*2D
$HCHDG,278.8,0.0,E,,*2C
$GPRMC,170053.0,A,4741.46349,N,12225.37517,W,002.41,289.1,271013,016.6,E,D*2B
$GPRMB,A,-0.54,L,,Shil,4741.0830,N,12224.5670,W,0.7,125,-2.32,V*39
$PGRME,2.4,M,2.4,M,3.4,M*29
$HCHDG,278.7,0.0,E,,*23
$YXXDR,A,5.7,D,PTCH,A,3.1,D,ROLL*5D
$HCHDG,278.6,0.0,E,,*22
$GPRMC,170053.2,A,4741.46350,N,12225.37528,W,002.39,289.3,271013,016.6,E,D*20
$PGRME,2.4,M,2.4,M,3.4,M*29
$HCHDG,278.7,0.0,E,,*23
$HCHDG,278.6,0.0,E,,*22
$GPRMC,170053.4,A,4741.46352,N,12225.37551,W,002.37,287.9,271013,016.6,E,D*20
$PGRME,2.4,M,2.4,M,3.4,M*29
$HCHDG,278.5,0.0,E,,*21
$HCHDG,278.5,0.0,E,,*21
$YXXDR,A,5.1,D,PTCH,A,3.4,D,ROLL*5E
$PTAK,FFD1,3.4*52
$GPRMC,170053.6,A,4741.46350,N,12225.37565,W,002.34,290.2,271013,016.6,E,D*29
$PGRME,2.4,M,2.4,M,3.4,M*29
$HCHDG,278.5,0.0,E,,*21
$HCHDG,278.6,0.0,E,,*22
$GPRMC,170053.8,A,4741.46348,N,12225.37591,W,002.34,293.5,271013,016.6,E,D*21
$HCHDG,278.7,0.0,E,,*23
$PGRME,2.4,M,2.4,M,3.4,M*29
$HCHDG,278.6,0.0,E,,*22
$GPRMC,170054.0,A,4741.46351,N,12225.37611,W,002.36,292.5,271013,016.6,E,D*2E
$PGRME,2.4,M,2.4,M,3.4,M*29
$HCHDG,278.4,0.0,E,,*20
$YXXDR,A,5.1,D,PTCH,A,3.0,D,ROLL*5A
$HCHDG,278.5,0.0,E,,*21
$GPRMC,170054.2,A,4741.46357,N,12225.37631,W,002.55,293.2,271013,016.6,E,D*2B
$GPRMB,A,-0.55,L,,Shil,4741.0830,N,12224.5670,W,0.7,125,-2.50,V*3C
$HCHDG,278.6,0.0,E,,*22
$PGRME,2.4,M,2.4,M,3.4,M*29
$HCHDG,278.8,0.0,E,,*2C
$GPRMC,170054.4,A,4741.46367,N,12225.37653,W,002.61,295.4,271013,016.6,E,D*2D
$PGRME,2.4,M,2.4,M,3.4,M*29
$HCHDG,278.9,0.0,E,,*2D
$HCHDG,278.9,0.0,E,,*2D
$YXXDR,A,5.7,D,PTCH,A,3.4,D,ROLL*58
$GPRMC,170054.6,A,4741.46372,N,12225.37662,W,002.65,293.0,271013,016.6,E,D*2F
$PGRME,2.4,M,2.4,M,3.4,M*29
$HCHDG,279.0,0.0,E,,*25
$HCHDG,279.1,0.0,E,,*24
$GPRMC,170054.8,A,4741.46386,N,12225.37676,W,002.66,292.8,271013,016.6,E,D*25
$PGRME,2.4,M,2.4,M,3.4,M*29
$HCHDG,279.2,0.0,E,,*27
$HCHDG,279.2,0.0,E,,*27
$GPRMC,170055.0,A,4741.46401,N,12225.37694,W,002.60,289.5,271013,016.6,E,D*29
$PGRME,2.4,M,2.4,M,3.4,M*29
$HCHDG,279.2,0.0,E,,*27
$YXXDR,A,5.9,D,PTCH,A,4.3,D,ROLL*56
$PTAK,FFD1,4.3*52
$HCHDG,279.1,0.0,E,,*24
$GPRMC,170055.2,A,4741.46412,N,12225.37712,W,002.54,288.5,271013,016.6,E,D*20
$GPRMB,A,-0.55,L,,Shil,4741.0830,N,12224.5670,W,0.7,125,-2.44,V*39
$PGRME,2.4,M,2.4,M,3.4,M*29
$HCHDG,279.1,0.0,E,,*24
$PTAK,FFP1,HEEL,@*07
$HCHDG,278.9,0.0,E,,*2D
$GPRMC,170055.4,A,4741.46418,N,12225.37739,W,002.53,289.6,271013,016.6,E,D*20
$PGRME,2.4,M,2.4,M,3.4,M*29
$HCHDG,278.8,0.0,E,,*2C
$HCHDG,278.8,0.0,E,,*2C
$YXXDR,A,5.7,D,PTCH,A,4.4,D,ROLL*5F
$GPRMC,170055.6,A,4741.46423,N,12225.37758,W,002.48,290.1,271013,016.6,E,D*28
$PGRME,2.4,M,2.4,M,3.4,M*29
$HCHDG,278.6,0.0,E,,*22
$HCHDG,278.5,0.0,E,,*21
$GPRMC,170055.8,A,4741.46425,N,12225.37772,W,002.48,290.4,271013,016.6,E,D*2D
$PGRME,2.4,M,2.4,M,3.4,M*29
$HCHDG,278.3,0.0,E,,*27
$HCHDG,278.1,0.0,E,,*25
$GPRMC,170056.0,A,4741.46430,N,12225.37786,W,002.47,289.8,271013,016.6,E,D*22
$PGRME,2.4,M,2.4,M,3.4,M*29
$HCHDG,278.1,0.0,E,,*25
$YXXDR,A,5.4,D,PTCH,A,4.3,D,ROLL*5B
$HCHDG,278.1,0.0,E,,*25
$GPRMC,170056.2,A,4741.46438,N,12225.37801,W,002.47,288.8,271013,016.6,E,D*29
$PGRME,2.4,M,2.4,M,3.4,M*29
$HCHDG,278.1,0.0,E,,*25
$HCHDG,278.1,0.0,E,,*25
$GPRMC,170056.4,A,4741.46437,N,12225.37818,W,002.47,291.4,271013,016.6,E,D*2C
$GPRMB,A,-0.55,L,,Shil,4741.0830,N,12224.5670,W,0.7,125,-2.40,V*3D
$HCHDG,278.1,0.0,E,,*25
$PGRME,2.4,M,2.4,M,3.4,M*29
$HCHDG,278.1,0.0,E,,*25
$YXXDR,A,5.4,D,PTCH,A,3.6,D,ROLL*59
$PTAK,FFD1,3.6*50
$GPRMC,170056.6,A,4741.46441,N,12225.37830,W,002.46,292.5,271013,016.6,E,D*26
$PGRME,2.4,M,2.4,M,3.4,M*29
$HCHDG,278.0,0.0,E,,*24
$HCHDG,278.1,0.0,E,,*25
$GPRMC,170056.8,A,4741.46451,N,12225.37847,W,002.44,291.2,271013,016.6,E,D*2F
$HCHDG,278.1,0.0,E,,*25
$PGRME,2.4,M,2.4,M,3.4,M*29
$HCHDG,277.8,0.0,E,,*23
$GPRMC,170057.0,A,4741.46462,N,12225.37863,W,002.45,292.3,271013,016.6,E,D*23
$PGRME,2.4,M,2.4,M,3.4,M*29
$HCHDG,277.7,0.0,E,,*2C
$YXXDR,A,5.7,D,PTCH,A,2.7,D,ROLL*5A
$HCHDG,277.9,0.0,E,,*22
$GPRMC,170057.2,A,4741.46467,N,12225.37881,W,002.44,291.7,271013,016.6,E,D*2E
$HCHDG,277.8,0.0,E,,*23
$PGRME,2.4,M,2.4,M,3.4,M*29
$HCHDG,277.9,0.0,E,,*22
$GPRMC,170057.4,A,4741.46472,N,12225.37893,W,002.44,291.6,271013,016.6,E,D*2E
$HCHDG,277.8,0.0,E,,*23
$PGRME,2.4,M,2.4,M,3.4,M*29
$HCHDG,277.7,0.0,E,,*2C
$YXXDR,A,5.6,D,PTCH,A,2.7,D,ROLL*5B
$GPRMC,170057.6,A,4741.46477,N,12225.37913,W,002.44,290.9,271013,016.6,E,D*2E
$GPRMB,A,-0.55,L,,Shil,4741.0830,N,12224.5670,W,0.7,125,-2.37,V*3D
$PGRME,2.4,M,2.4,M,3.4,M*29
$HCHDG,277.7,0.0,E,,*2C
$HCHDG,277.8,0.0,E,,*23
$GPRMC,170057.8,A,4741.46481,N,12225.37931,W,002.61,289.4,271013,016.6,E,D*2B
$HCHDG,277.9,0.0,E,,*22
$PGRME,2.4,M,2.4,M,3.4,M*29
$HCHDG,277.9,0.0,E,,*22
$GPRMC,170058.0,A,4741.46488,N,12225.37952,W,002.58,289.0,271013,016.6,E,D*2E
$PGRME,2.4,M,2.4,M,3.4,M*29
$HCHDG,278.0,0.0,E,,*24
$YXXDR,A,5.5,D,PTCH,A,3.4,D,ROLL*5A
$PTAK,FFD1,3.4*52
$HCHDG,278.0,0.0,E,,*24
$GPRMC,170058.2,A,4741.46490,N,12225.37970,W,002.57,288.0,271013,016.6,E,D*2B
$PGRME,2.4,M,2.4,M,3.4,M*29
$HCHDG,277.8,0.0,E,,*23
$HCHDG,277.9,0.0,E,,*22
$GPRMC,170058.4,A,4741.46497,N,12225.37989,W,002.55,288.6,271013,016.6,E,D*28
$HCHDG,277.9,0.0,E,,*22
$PGRME,2.4,M,2.4,M,3.4,M*29
$HCHDG,277.9,0.0,E,,*22
$YXXDR,A,5.8,D,PTCH,A,3.5,D,ROLL*56
$GPRMC,170058.6,A,4741.46508,N,12225.38011,W,002.51,286.0,271013,016.6,E,D*26
$PGRME,2.4,M,2.4,M,3.4,M*29
$HCHDG,277.9,0.0,E,,*22
$HCHDG,277.9,0.0,E,,*22
$GPRMC,170058.8,A,4741.46513,N,12225.38034,W,002.50,289.3,271013,016.6,E,D*28
$GPRMB,A,-0.55,L,,Shil,4741.0830,N,12224.5670,W,0.7,125,-2.41,V*3C
$PGRME,2.4,M,2.4,M,3.4,M*29
$HCHDG,277.8,0.0,E,,*23
$HCHDG,277.7,0.0,E,,*2C
$GPRMC,170059.0,A,4741.46523,N,12225.38060,W,002.46,283.3,271013,016.6,E,D*2E
$PGRME,2.4,M,2.4,M,3.4,M*29
$HCHDG,277.7,0.0,E,,*2C
$YXXDR,A,5.6,D,PTCH,A,3.5,D,ROLL*58
$HCHDG,277.8,0.0,E,,*23
$GPRMC,170059.2,A,4741.46526,N,12225.38081,W,002.43,285.8,271013,016.6,E,D*2E
$PGRME,2.4,M,2.4,M,3.4,M*29
$HCHDG,277.8,0.0,E,,*23
$HCHDG,277.8,0.0,E,,*23
$GPRMC,170059.4,A,4741.46525,N,12225.38100,W,002.42,287.0,271013,016.6,E,D*28
$HCHDG,277.7,0.0,E,,*2C
$PTAK,FFP1,HEEL,@*07
$PGRME,2.4,M,2.4,M,3.4,M*29
$HCHDG,277.7,0.0,E,,*2C
$YXXDR,A,5.4,D,PTCH,A,3.7,D,ROLL*58
$PTAK,FFD1,3.7*51
$GPRMC,170059.6,A,4741.46527,N,12225.38116,W,002.41,287.2,271013,016.6,E,D*2E
$PGRME,2.4,M,2.4,M,3.4,M*29
$HCHDG,277.7,0.0,E,,*2C
$HCHDG,277.6,0.0,E,,*2D
$GPRMC,170059.8,A,4741.46514,N,12225.38137,W,002.41,290.5,271013,016.6,E,D*22
$PGRME,2.4,M,2.4,M,3.4,M*29
$HCHDG,277.6,0.0,E,,*2D
$HCHDG,277.6,0.0,E,,*2D
$GPRMC,170100.0,A,4741.46511,N,12225.38154,W,002.41,290.1,271013,016.6,E,D*23
$GPRMB,A,-0.55,L,,Shil,4741.0830,N,12224.5670,W,0.7,125,-2.33,V*39
$PGRME,2.4,M,2.4,M,3.4,M*29
$HCHDG,277.7,0.0,E,,*2C
$YXXDR,A,5.7,D,PTCH,A,3.1,D,ROLL*5D
$HCHDG,277.8,0.0,E,,*23
$GPRMC,170100.2,A,4741.46509,N,12225.38172,W,002.41,289.9,271013,016.6,E,D*2C
$PGRME,2.4,M,2.4,M,3.4,M*29
$HCHDG,277.9,0.0,E,,*22
$HCHDG,277.8,0.0,E,,*23
$GPRMC,170100.4,A,4741.46509,N,12225.38191,W,002.40,288.6,271013,016.6,E,D*28
$HCHDG,277.9,0.0,E,,*22
$PGRME,2.4,M,2.4,M,3.4,M*29
$HCHDG,277.9,0.0,E,,*22
$YXXDR,A,5.5,D,PTCH,A,3.4,D,ROLL*5A
$PTAK,FFD1,3.4*52
$GPRMC,170100.6,A,4741.46508,N,12225.38204,W,002.38,287.8,271013,016.6,E,D*2A
$PGRME,2.4,M,2.4,M,3.4,M*29
$HCHDG,277.8,0.0,E,,*23
$HCHDG,277.9,0.0,E,,*22
$GPRMC,170100.8,A,4741.46508,N,12225.38216,W,002.38,288.6,271013,016.6,E,D*26
$HCHDG,277.8,0.0,E,,*23
$PGRME,2.4,M,2.4,M,3.4,M*29
$HCHDG,277.6,0.0,E,,*2D
$GPRMC,170101.0,A,4741.46508,N,12225.38232,W,002.40,296.2,271013,016.6,E,D*2D
$PGRME,2.4,M,2.4,M,3.4,M*29
$HCHDG,277.7,0.0,E,,*2C
$YXXDR,A,5.6,D,PTCH,A,2.9,D,ROLL*55
$HCHDG,277.6,0.0,E,,*2D
$GPRMC,170101.2,A,4741.46512,N,12225.38250,W,002.40,289.5,271013,016.6,E,D*29
$GPRMB,A,-0.55,L,,Shil,4741.0830,N,12224.5670,W,0.7,125,-2.31,V*3B
$PGRME,2.4,M,2.4,M,3.4,M*29
$HCHDG,277.4,0.0,E,,*2F
$HCHDG,277.5,0.0,E,,*2E
$GPRMC,170101.4,A,4741.46514,N,12225.38268,W,002.43,289.3,271013,016.6,E,D*27
$PGRME,2.4,M,2.4,M,3.4,M*29
$HCHDG,277.5,0.0,E,,*2E
$HCHDG,277.4,0.0,E,,*2F
$YXXDR,A,5.8,D,PTCH,A,3.0,D,ROLL*53
$GPRMC,170101.6,A,4741.46521,N,12225.38293,W,002.45,287.5,271013,016.6,E,D*29
$PGRME,2.4,M,2.4,M,3.4,M*29
$HCHDG,277.3,0.0,E,,*28
$HCHDG,277.1,0.0,E,,*2A
$GPRMC,170101.8,A,4741.46530,N,12225.38320,W,002.44,289.2,271013,016.6,E,D*26
$HCHDG,277.1,0.0,E,,*2A
$PGRME,2.4,M,2.4,M,3.4,M*29
$HCHDG,277.0,0.0,E,,*2B
$GPRMC,170102.0,A,4741.46540,N,12225.38342,W,002.43,285.5,271013,016.6,E,D*22
$HCHDG,277.1,0.0,E,,*2A
$PGRME,2.4,M,2.4,M,3.4,M*29
$YXXDR,A,5.5,D,PTCH,A,4.0,D,ROLL*59
$PTAK,FFD1,4.0*51
$HCHDG,277.2,0.0,E,,*29
$GPRMC,170102.2,A,4741.46549,N,12225.38355,W,002.42,287.6,271013,016.6,E,D*2F
$GPRMB,A,-0.55,L,,Shil,4741.0830,N,12224.5670,W,0.7,125,-2.31,V*3B
$HCHDG,277.1,0.0,E,,*2A
$PGRME,2.4,M,2.4,M,3.4,M*29
$HCHDG,277.0,0.0,E,,*2B
$GPRMC,170102.4,A,4741.46558,N,12225.38373,W,002.38,288.6,271013,016.6,E,D*2F
$HCHDG,276.9,0.0,E,,*23
$PGRME,2.4,M,2.4,M,3.4,M*29
$HCHDG,276.8,0.0,E,,*22
$YXXDR,A,5.7,D,PTCH,A,3.2,D,ROLL*5E
$GPRMC,170102.6,A,4741.46565,N,12225.38397,W,002.37,287.7,271013,016.6,E,D*28
$PGRME,2.4,M,2.4,M,3.4,M*29
$HCHDG,277.0,0.0,E,,*2B
$HCHDG,276.9,0.0,E,,*23
$GPRMC,170102.8,A,4741.46571,N,12225.38412,W,002.39,289.8,271013,016.6,E,D*26
$PGRME,2.4,M,2.4,M,3.4,M*29
$HCHDG,276.6,0.0,E,,*2C
$HCHDG,276.6,0.0,E,,*2C
$GPRMC,170103.0,A,4741.46571,N,12225.38431,W,002.40,288.5,271013,016.6,E,D*2C
$PGRME,2.4,M,2.4,M,3.4,M*29
$HCHDG,276.5,0.0,E,,*2F
$YXXDR,A,5.4,D,PTCH,A,3.6,D,ROLL*59
$HCHDG,276.5,0.0,E,,*2F
$GPRMC,170103.2,A,4741.46576,N,12225.38442,W,002.39,287.1,271013,016.6,E,D*28
$GPRMB,A,-0.55,L,,Shil,4741.0830,N,12224.5670,W,0.7,125,-2.28,V*33
$HCHDG,276.3,0.0,E,,*29
$PGRME,2.4,M,2.4,M,3.4,M*29
$HCHDG,276.3,0.0,E,,*29
$HCHDG,276.3,0.0,E,,*29
$GPRMC,170103.4,A,4741.46570,N,12225.38460,W,002.40,289.0,271013,016.6,E,D*29
$PGRME,2.4,M,2.4,M,3.4,M*29
$HCHDG,276.3,0.0,E,,*29
