$GPRMB,A,0.21,L,,Shil,4741.0830,N,12224.5670,W,0.2,240,-0.02,V*12
$PGRME,4.1,M,41.4,M,41.6,M*29
$HCHDG,272.4,0.0,E,,*2A
$PTAK,FFP1,HEEL,@*07
$HCHDG,272.4,0.0,E,,*2A
$IIGLL,4741.207,N,12224.216,W,185400,A,A*4B
$IIMTW,+09.0,C*31
$GPRMC,185452.4,A,4741.20338,N,12224.26260,W,000.03,000.0,251013,016.6,E,A*21
$GPRMB,A,0.21,L,,Shil,4741.0830,N,12224.5670,W,0.2,240,-0.02,V*12
$HCHDG,272.3,0.0,E,,*2D
$PGRME,4.0,M,38.0,M,38.2,M*28
$IIMWV,253,R,02.7,N,A*12
$IIMWV,249,T,02.8,N,A*10
$HCHDG,272.3,0.0,E,,*2D
$GPRMC,185452.6,A,4741.20331,N,12224.26273,W,000.04,000.0,251013,016.6,E,A*2F
$HCHDG,272.3,0.0,E,,*2D
$IIRMC,185400,A,4741.207,N,12224.216,W,00.0,000,251013,16,E,A*14
$PGRME,3.9,M,35.2,M,35.4,M*22
$IIVHW,,,,,00.0,N,,*19
$YXXDR,A,5.7,D,PTCH,A,3.2,D,ROLL*5E
$PTAK,FFD1,3.2*54
$IIVLW,06403,N,000.0,N*52
$HCHDG,272.1,0.0,E,,*2F
$IIVWR,107,L,02.7,N,,,,*7C
$GPRMC,185452.8,A,4741.20326,N,12224.26293,W,000.03,000.0,251013,016.6,E,A*2E
$HCHDG,272.2,0.0,E,,*2C
$PGRME,3.8,M,32.8,M,33.0,M*2C
$IIDPT,007.8,-1.0,*4F
$HCHDG,272.2,0.0,E,,*2C
$GPRMC,185453.0,A,4741.20320,N,12224.26283,W,000.04,000.0,251013,016.6,E,A*27
$PGRME,3.7,M,30.7,M,30.9,M*24
$HCHDG,272.2,0.0,E,,*2C
$HCHDG,272.2,0.0,E,,*2C
$YXXDR,A,5.6,D,PTCH,A,3.3,D,ROLL*5E
$GPRMC,185453.2,A,4741.20313,N,12224.26284,W,000.04,000.0,251013,016.6,E,A*22
$PGRME,3.6,M,28.9,M,29.1,M*22
$HCHDG,272.2,0.0,E,,*2C
$HCHDG,272.2,0.0,E,,*2C
$IIGLL,4741.207,N,12224.216,W,185400,A,A*4B
$IIMTW,+09.0,C*31
$GPRMC,185453.4,A,4741.20307,N,12224.26284,W,000.02,000.0,251013,016.6,E,A*27
$HCHDG,272.1,0.0,E,,*2F
$PGRME,3.5,M,27.5,M,27.7,M*2A
$IIMWV,254,R,02.3,N,A*11
$IIMWV,253,T,02.7,N,A*14
$HCHDG,272.1,0.0,E,,*2F
$GPRMC,185453.6,A,4741.20304,N,12224.26273,W,000.01,000.0,251013,016.6,E,A*2D
$HCHDG,272.1,0.0,E,,*2F
$IIRMC,185400,A,4741.207,N,12224.216,W,00.0,000,251013,16,E,A*14
$PGRME,3.5,M,26.3,M,26.5,M*2E
$IIVHW,,,,,00.0,N,,*19
$YXXDR,A,5.7,D,PTCH,A,3.8,D,ROLL*54
$IIVLW,06403,N,000.0,N*52
$HCHDG,272.1,0.0,E,,*2F
$IIVWR,106,L,02.3,N,,,,*79
$GPRMC,185453.8,A,4741.20306,N,12224.26266,W,000.00,000.0,251013,016.6,E,A*24
$GPRMB,A,0.21,L,,Shil,4741.0830,N,12224.5670,W,0.2,240,-0.00,V*10
$HCHDG,272.1,0.0,E,,*2F
$PGRME,3.4,M,25.1,M,25.4,M*2C
$IIDPT,007.8,-1.0,*4F
$HCHDG,272.1,0.0,E,,*2F
$GPRMC,185454.0,A,4741.20307,N,12224.26261,W,000.01,000.0,251013,016.6,E,A*2C
$HCHDG,272.4,0.0,E,,*2A
$PGRME,3.4,M,24.0,M,24.2,M*2B
$HCHDG,272.4,0.0,E,,*2A
$YXXDR,A,5.8,D,PTCH,A,3.9,D,ROLL*5A
$PTAK,FFD1,3.9*5F
$GPRMC,185454.2,A,4741.20301,N,12224.26264,W,000.02,000.0,251013,016.6,E,A*2E
$PGRME,3.3,M,22.9,M,23.2,M*24
$HCHDG,272.3,0.0,E,,*2D
$HCHDG,272.3,0.0,E,,*2D
$IIGLL,4741.203,N,12224.262,W,185400,A,A*4C
$IIMTW,+09.0,C*31
$GPRMC,185454.4,A,4741.20290,N,12224.26265,W,000.07,000.0,251013,016.6,E,A*25
$PGRME,3.3,M,22.0,M,22.2,M*2C
$HCHDG,272.3,0.0,E,,*2D
$IIMWV,250,R,02.3,N,A*15
$IIMWV,254,T,02.3,N,A*17
$HCHDG,272.3,0.0,E,,*2D
$IIRMB,A,0.21,L,,Shil,,,,,000.2,240,,V,A*7E
$GPRMC,185454.6,A,4741.20285,N,12224.26261,W,000.07,000.0,251013,016.6,E,A*27
$HCHDG,272.3,0.0,E,,*2D
$PGRME,3.2,M,21.2,M,21.4,M*29
$YXXDR,A,5.8,D,PTCH,A,4.0,D,ROLL*54
$IIRMC,185400,A,4741.203,N,12224.262,W,00.0,000,251013,16,E,A*13
$HCHDG,272.4,0.0,E,,*2A
$IIVHW,,,,,00.0,N,,*19
$GPRMC,185454.8,A,4741.20280,N,12224.26264,W,000.04,000.0,251013,016.6,E,A*2A
$GPRMB,A,0.21,L,,Shil,4741.0830,N,12224.5670,W,0.2,240,-0.02,V*12
$HCHDG,272.4,0.0,E,,*2A
$IIVLW,06403,N,000.0,N*52
$PGRME,3.2,M,20.4,M,20.6,M*2D
$HCHDG,272.1,0.0,E,,*2F
$GPRMC,185455.0,A,4741.20276,N,12224.26276,W,000.04,000.0,251013,016.6,E,A*29
$HCHDG,272.1,0.0,E,,*2F
$PGRME,3.1,M,19.7,M,20.0,M*21
$HCHDG,272.2,0.0,E,,*2C
$YXXDR,A,5.7,D,PTCH,A,3.5,D,ROLL*59
$PTAK,FFD1,3.5*53
$GPRMC,185455.2,A,4741.20272,N,12224.26265,W,000.03,000.0,251013,016.6,E,A*2A
$PGRME,3.1,M,19.1,M,19.3,M*2E
$HCHDG,272.2,0.0,E,,*2C
$IIVWR,113,L,02.3,N,,,,*7D
$HCHDG,272.1,0.0,E,,*2F
$IIDPT,007.8,-1.0,*4F
$HCHDG,272.1,0.0,E,,*2F
$GPRMC,185455.4,A,4741.20273,N,12224.26258,W,000.03,000.0,251013,016.6,E,A*23
$PGRME,3.1,M,18.5,M,18.7,M*2E
$IIGLL,4741.203,N,12224.262,W,185400,A,A*4C
$IIMTW,+09.0,C*31
$HCHDG,272.1,0.0,E,,*2F
$IIMWV,247,R,02.3,N,A*13
$IIMWV,250,T,02.3,N,A*13
$GPRMC,185455.6,A,4741.20276,N,12224.26258,W,000.03,000.0,251013,016.6,E,A*24
$HCHDG,272.1,0.0,E,,*2F
$PGRME,3.0,M,17.9,M,18.1,M*2A
$IIRMB,A,0.21,L,,Shil,,,,,000.2,240,,V,A*7E
$YXXDR,A,5.6,D,PTCH,A,3.5,D,ROLL*58
$HCHDG,272.1,0.0,E,,*2F
$GPRMC,185455.8,A,4741.20271,N,12224.26259,W,000.02,000.0,251013,016.6,E,A*2D
$GPRMB,A,0.21,L,,Shil,4741.0830,N,12224.5670,W,0.2,240,-0.01,V*11
$HCHDG,272.0,0.0,E,,*2E
$IIRMC,185400,A,4741.203,N,12224.262,W,00.0,000,251013,16,E,A*13
$PGRME,3.0,M,17.4,M,17.6,M*2F
$HCHDG,272.3,0.0,E,,*2D
$GPRMC,185456.0,A,4741.20267,N,12224.26266,W,000.04,000.0,251013,016.6,E,A*2B
$HCHDG,272.3,0.0,E,,*2D
$PGRME,3.0,M,16.9,M,17.1,M*24
$HCHDG,272.3,0.0,E,,*2D
$YXXDR,A,5.7,D,PTCH,A,3.5,D,ROLL*59
$GPRMC,185456.2,A,4741.20264,N,12224.26265,W,000.05,000.0,251013,016.6,E,A*28
$PGRME,3.0,M,16.4,M,16.7,M*2E
$HCHDG,272.3,0.0,E,,*2D
$IIVHW,,,,,00.0,N,,*19
$HCHDG,272.3,0.0,E,,*2D
$IIVLW,06403,N,000.0,N*52
$IIVWR,116,L,02.0,N,,,,*7B
$HCHDG,272.3,0.0,E,,*2D
$GPRMC,185456.4,A,4741.20257,N,12224.26271,W,000.01,000.0,251013,016.6,E,A*2F
$PGRME,3.0,M,16.0,M,16.3,M*2E
$IIDPT,007.8,-1.0,*4F
$HCHDG,272.4,0.0,E,,*2A
$IIGLL,4741.202,N,12224.262,W,185400,A,A*4D
$IIMTW,+09.0,C*31
$GPRMC,185456.6,A,4741.20249,N,12224.26279,W,000.03,000.0,251013,016.6,E,A*28
$HCHDG,272.2,0.0,E,,*2C
$PGRME,3.0,M,15.6,M,15.9,M*22
$IIMWV,244,R,02.0,N,A*13
$YXXDR,A,5.6,D,PTCH,A,3.8,D,ROLL*55
$PTAK,FFD1,3.8*5E
$IIMWV,247,T,02.3,N,A*15
$HCHDG,272.2,0.0,E,,*2C
$PTAK,FFP1,HEEL,@*07
$IIRMB,A,0.21,L,,Shil,,,,,000.2,240,,V,A*7E
$GPRMC,185456.8,A,4741.20242,N,12224.26285,W,000.05,000.0,251013,016.6,E,A*28
$PGRME,3.0,M,15.2,M,15.5,M*2A
$HCHDG,272.2,0.0,E,,*2C
$HCHDG,272.2,0.0,E,,*2C
$GPRMC,185457.0,A,4741.20237,N,12224.26285,W,000.04,000.0,251013,016.6,E,A*22
$PGRME,3.0,M,14.8,M,15.1,M*25
$HCHDG,272.3,0.0,E,,*2D
$HCHDG,272.3,0.0,E,,*2D
$YXXDR,A,5.6,D,PTCH,A,3.8,D,ROLL*55
$GPRMC,185457.2,A,4741.20232,N,12224.26295,W,000.02,000.0,251013,016.6,E,A*22
$GPRMB,A,0.20,L,,Shil,4741.0830,N,12224.5670,W,0.2,240,-0.01,V*10
$PGRME,3.0,M,14.5,M,14.8,M*20
$HCHDG,272.5,0.0,E,,*2B
$HCHDG,272.4,0.0,E,,*2A
$IIRMC,185400,A,4741.202,N,12224.262,W,00.0,000,251013,16,E,A*12
$GPRMC,185457.4,A,4741.20231,N,12224.26290,W,000.00,000.0,251013,016.6,E,A*20
$HCHDG,272.4,0.0,E,,*2A
$PGRME,3.0,M,14.1,M,14.5,M*29
$IIVHW,,,,,00.0,N,,*19
$IIVLW,06403,N,000.0,N*52
$HCHDG,272.5,0.0,E,,*2B
$IIVWR,121,L,02.1,N,,,,*7E
$IIDPT,007.8,-1.0,*4F
$GPRMC,185457.6,A,4741.20231,N,12224.26277,W,000.03,000.0,251013,016.6,E,A*28
$HCHDG,272.5,0.0,E,,*2B
$PGRME,3.0,M,13.8,M,14.2,M*20
$IIGLL,4741.202,N,12224.262,W,185400,A,A*4D
$YXXDR,A,5.8,D,PTCH,A,3.6,D,ROLL*55
$PTAK,FFD1,3.6*50
$IIMTW,+09.0,C*31
$HCHDG,272.3,0.0,E,,*2D
$IIMWV,239,R,02.1,N,A*18
$GPRMC,185457.8,A,4741.20237,N,12224.26273,W,000.04,000.0,251013,016.6,E,A*23
$HCHDG,272.3,0.0,E,,*2D
$PGRME,3.0,M,13.5,M,13.9,M*21
$IIMWV,244,T,02.0,N,A*15
$HCHDG,272.2,0.0,E,,*2C
$GPRMC,185458.0,A,4741.20236,N,12224.26276,W,000.03,000.0,251013,016.6,E,A*27
$HCHDG,272.2,0.0,E,,*2C
$PGRME,3.0,M,13.3,M,13.6,M*28
$HCHDG,272.2,0.0,E,,*2C
$YXXDR,A,5.7,D,PTCH,A,3.8,D,ROLL*54
$GPRMC,185458.2,A,4741.20227,N,12224.26278,W,000.03,000.0,251013,016.6,E,A*2B
$PGRME,3.0,M,13.1,M,13.4,M*28
$HCHDG,272.2,0.0,E,,*2C
$HCHDG,272.2,0.0,E,,*2C
$IIRMB,A,0.20,L,,Shil,,,,,000.2,240,,V,A*7F
$GPRMC,185458.4,A,4741.20220,N,12224.26281,W,000.02,000.0,251013,016.6,E,A*2D
$GPRMB,A,0.20,L,,Shil,4741.0830,N,12224.5670,W,0.2,240,-0.01,V*10
$PGRME,3.0,M,12.8,M,13.2,M*26
$HCHDG,272.2,0.0,E,,*2C
$IIRMC,185400,A,4741.202,N,12224.262,W,00.0,000,251013,16,E,A*12
$IIVHW,,,,,00.0,N,,*19
$HCHDG,272.2,0.0,E,,*2C
$IIVLW,06403,N,000.0,N*52
$GPRMC,185458.6,A,4741.20212,N,12224.26286,W,000.04,000.0,251013,016.6,E,A*2F
$PGRME,3.0,M,12.6,M,12.9,M*22
$HCHDG,272.4,0.0,E,,*2A
$IIVWR,121,L,02.3,N,,,,*7C
$IIDPT,007.8,-1.0,*4F
$YXXDR,A,5.7,D,PTCH,A,3.8,D,ROLL*54
$PTAK,FFD1,3.8*5E
$HCHDG,272.4,0.0,E,,*2A
$IIGLL,4741.202,N,12224.262,W,185400,A,A*4D
$GPRMC,185458.8,A,4741.20203,N,12224.26290,W,000.03,000.0,251013,016.6,E,A*21
$IIMTW,+09.0,C*31
$PGRME,3.0,M,12.3,M,12.7,M*29
$HCHDG,272.5,0.0,E,,*2B
$HCHDG,272.3,0.0,E,,*2D
$GPRMC,185459.0,A,4741.20199,N,12224.26298,W,000.05,000.0,251013,016.6,E,A*26
$HCHDG,272.3,0.0,E,,*2D
$PGRME,3.0,M,12.1,M,12.5,M*29
$HCHDG,272.4,0.0,E,,*2A
$YXXDR,A,5.6,D,PTCH,A,3.8,D,ROLL*55
$GPRMC,185459.2,A,4741.20192,N,12224.26299,W,000.07,000.0,251013,016.6,E,A*2C
$PGRME,3.0,M,11.9,M,12.3,M*24
$HCHDG,272.4,0.0,E,,*2A
$IIMWV,239,R,02.4,N,A*1D
$HCHDG,272.3,0.0,E,,*2D
$IIMWV,239,T,02.3,N,A*1C
$GPRMC,185459.4,A,4741.20191,N,12224.26293,W,000.06,000.0,251013,016.6,E,A*22
$GPRMB,A,0.20,L,,Shil,4741.0830,N,12224.5670,W,0.2,240,-0.03,V*12
$HCHDG,272.3,0.0,E,,*2D
$PGRME,3.0,M,11.7,M,12.1,M*28
$IIRMB,A,0.20,L,,Shil,,,,,000.2,240,,V,A*7F
$HCHDG,272.3,0.0,E,,*2D
$IIRMC,185400,A,4741.202,N,12224.262,W,00.0,000,251013,16,E,A*12
$GPRMC,185459.6,A,4741.20187,N,12224.26293,W,000.05,000.0,251013,016.6,E,A*24
$HCHDG,272.5,0.0,E,,*2B
$PGRME,3.0,M,11.5,M,11.9,M*21
$IIVHW,,,,,00.0,N,,*19
$IIVLW,06403,N,000.0,N*52
$YXXDR,A,5.7,D,PTCH,A,3.5,D,ROLL*59
$IIVWR,121,L,02.4,N,,,,*7B
$HCHDG,272.5,0.0,E,,*2B
$IIDPT,007.8,-1.0,*4F
$GPRMC,185459.8,A,4741.20184,N,12224.26292,W,000.03,000.0,251013,016.6,E,A*2E
$HCHDG,272.5,0.0,E,,*2B
$PGRME,3.0,M,11.3,M,11.7,M*29
$HCHDG,272.5,0.0,E,,*2B
$GPRMC,185500.0,A,4741.20185,N,12224.26292,W,000.03,000.0,251013,016.6,E,A*2A
$HCHDG,272.6,0.0,E,,*28
$PGRME,3.0,M,11.1,M,11.6,M*2A
$HCHDG,272.5,0.0,E,,*2B
$YXXDR,A,5.7,D,PTCH,A,3.5,D,ROLL*59
$PTAK,FFD1,3.5*53
$GPRMC,185500.2,A,4741.20186,N,12224.26292,W,000.03,000.0,251013,016.6,E,A*2B
$PGRME,3.0,M,11.0,M,11.4,M*29
$HCHDG,272.5,0.0,E,,*2B
$HCHDG,272.5,0.0,E,,*2B
$IIGLL,4741.201,N,12224.262,W,185400,A,A*4E
$IIMTW,+09.0,C*31
$GPRMC,185500.4,A,4741.20182,N,12224.26293,W,000.01,000.0,251013,016.6,E,A*2A
$GPRMB,A,0.20,L,,Shil,4741.0830,N,12224.5670,W,0.2,240,-0.01,V*10
$HCHDG,272.5,0.0,E,,*2B
$PGRME,3.0,M,10.8,M,11.2,M*26
$IIMWV,239,R,02.6,N,A*1F
$IIMWV,239,T,02.4,N,A*1B
$HCHDG,272.5,0.0,E,,*2B
$IIRMB,A,0.20,L,,Shil,,,,,000.2,240,,V,A*7F
$GPRMC,185500.6,A,4741.20175,N,12224.26295,W,000.02,000.0,251013,016.6,E,A*25
$PGRME,3.0,M,10.7,M,11.1,M*2A
$HCHDG,272.6,0.0,E,,*28
$YXXDR,A,5.7,D,PTCH,A,3.4,D,ROLL*58
$IIRMC,185400,A,4741.201,N,12224.262,W,00.0,000,251013,16,E,A*11
$HCHDG,272.6,0.0,E,,*28
$PTAK,FFP1,HEEL,@*07
$IIVHW,,,,,00.0,N,,*19
$GPRMC,185500.8,A,4741.20165,N,12224.26300,W,000.04,000.0,251013,016.6,E,A*21
$IIVLW,06403,N,000.0,N*52
$PGRME,3.0,M,10.5,M,10.9,M*21
$HCHDG,272.6,0.0,E,,*28
$HCHDG,272.6,0.0,E,,*28
$GPRMC,185501.0,A,4741.20158,N,12224.26299,W,000.03,000.0,251013,016.6,E,A*20
$HCHDG,272.7,0.0,E,,*29
$PGRME,3.0,M,10.4,M,10.8,M*21
$HCHDG,272.7,0.0,E,,*29
$YXXDR,A,5.7,D,PTCH,A,3.5,D,ROLL*59
$GPRMC,185501.2,A,4741.20156,N,12224.26298,W,000.01,000.0,251013,016.6,E,A*2F
$PGRME,3.0,M,10.2,M,10.7,M*28
$HCHDG,272.7,0.0,E,,*29
$HCHDG,272.7,0.0,E,,*29
$GPRMC,185501.4,A,4741.20157,N,12224.26296,W,000.01,000.0,251013,016.6,E,A*26
$HCHDG,272.7,0.0,E,,*29
$PGRME,3.0,M,10.1,M,10.6,M*2A
$HCHDG,272.8,0.0,E,,*26
$GPRMC,185501.6,A,4741.20159,N,12224.26287,W,000.02,000.0,251013,016.6,E,A*29
$GPRMB,A,0.20,L,,Shil,4741.0830,N,12224.5670,W,0.2,240,-0.01,V*10
$HCHDG,272.8,0.0,E,,*26
$PGRME,3.0,M,10.0,M,10.4,M*29
$YXXDR,A,5.8,D,PTCH,A,3.4,D,ROLL*57
$PTAK,FFD1,3.4*52
$HCHDG,272.7,0.0,E,,*29
$GPRMC,185501.8,A,4741.20160,N,12224.26284,W,000.02,000.0,251013,016.6,E,A*2E
$PGRME,3.0,M,9.8,M,10.3,M*1E
$HCHDG,272.7,0.0,E,,*29
$HCHDG,272.7,0.0,E,,*29
$GPRMC,185502.0,A,4741.20157,N,12224.26276,W,000.01,000.0,251013,016.6,E,A*2F
$PGRME,3.0,M,9.7,M,10.2,M*10
$HCHDG,272.7,0.0,E,,*29
$HCHDG,272.7,0.0,E,,*29
$YXXDR,A,5.8,D,PTCH,A,3.5,D,ROLL*56
$GPRMC,185502.2,A,4741.20154,N,12224.26272,W,000.01,000.0,251013,016.6,E,A*2A
$PGRME,3.0,M,9.6,M,10.1,M*12
$HCHDG,272.7,0.0,E,,*29
$HCHDG,272.7,0.0,E,,*29
$GPRMC,185502.4,A,4741.20153,N,12224.26274,W,000.00,000.0,251013,016.6,E,A*2C
$HCHDG,272.7,0.0,E,,*29
$PGRME,3.0,M,9.5,M,9.9,M*21
$HCHDG,272.7,0.0,E,,*29
$GPRMC,185502.6,A,4741.20151,N,12224.26273,W,000.01,000.0,251013,016.6,E,A*2A
$GPRMB,A,0.20,L,,Shil,4741.0830,N,12224.5670,W,0.2,240,-0.01,V*10
$HCHDG,272.7,0.0,E,,*29
$PGRME,3.0,M,9.3,M,9.8,M*26
$YXXDR,A,5.6,D,PTCH,A,3.7,D,ROLL*5A
$PTAK,FFD1,3.7*51
$HCHDG,272.7,0.0,E,,*29
$GPRMC,185502.8,A,4741.20144,N,12224.26273,W,000.01,000.0,251013,016.6,E,A*20
$HCHDG,272.6,0.0,E,,*28
$PGRME,3.0,M,9.2,M,9.7,M*28
$HCHDG,272.6,0.0,E,,*28
$GPRMC,185503.0,A,4741.20139,N,12224.26279,W,000.01,000.0,251013,016.6,E,A*29
$HCHDG,272.6,0.0,E,,*28
$PGRME,3.0,M,9.1,M,9.6,M*2A
$HCHDG,272.6,0.0,E,,*28
$YXXDR,A,5.6,D,PTCH,A,3.7,D,ROLL*5A
$GPRMC,185503.2,A,4741.20137,N,12224.26281,W,000.02,000.0,251013,016.6,E,A*21
$PGRME,3.0,M,9.0,M,9.5,M*28
$HCHDG,272.7,0.0,E,,*29
$IIVWR,124,L,02.6,N,,,,*7C
$HCHDG,272.7,0.0,E,,*29
$IIDPT,007.8,-1.0,*4F
$HCHDG,272.7,0.0,E,,*29
$GPRMC,185503.4,A,4741.20136,N,12224.26279,W,000.04,000.0,251013,016.6,E,A*27
$PGRME,3.0,M,8.9,M,9.4,M*21
$IIGLL,4741.201,N,12224.262,W,185500,A,A*4F
$IIMTW,+09.0,C*31
$HCHDG,272.7,0.0,E,,*29
$IIMWV,236,R,02.6,N,A*10
$IIMWV,239,T,02.6,N,A*19
$HCHDG,272.8,0.0,E,,*26
$GPRMC,185503.6,A,4741.20136,N,12224.26280,W,000.03,000.0,251013,016.6,E,A*24
$GPRMB,A,0.20,L,,Shil,4741.0830,N,12224.5670,W,0.2,240,-0.02,V*13
$PGRME,3.0,M,8.8,M,9.3,M*27
$IIRMB,A,0.20,L,,Shil,,,,,000.2,240,,V,A*7F
$YXXDR,A,5.8,D,PTCH,A,3.6,D,ROLL*55
$PTAK,FFD1,3.6*50
$HCHDG,272.8,0.0,E,,*26
$IIRMC,185500,A,4741.201,N,12224.262,W,00.0,000,251013,16,E,A*10
$HCHDG,272.9,0.0,E,,*27
$GPRMC,185503.8,A,4741.20137,N,12224.26276,W,000.03,000.0,251013,016.6,E,A*22
$PGRME,3.0,M,8.7,M,9.2,M*29
$HCHDG,272.9,0.0,E,,*27
$GPRMC,185504.0,A,4741.20135,N,12224.26273,W,000.02,000.0,251013,016.6,E,A*2B
$HCHDG,273.0,0.0,E,,*2F
$PGRME,3.0,M,8.6,M,9.1,M*2B
$HCHDG,272.9,0.0,E,,*27
$YXXDR,A,5.8,D,PTCH,A,3.5,D,ROLL*56
$GPRMC,185504.2,A,4741.20134,N,12224.26270,W,000.02,000.0,251013,016.6,E,A*2B
$PGRME,3.0,M,8.5,M,9.0,M*29
$HCHDG,272.9,0.0,E,,*27
$IIVHW,,,,,00.0,N,,*19
$HCHDG,272.9,0.0,E,,*27
$IIVLW,06403,N,000.0,N*52
$IIVWR,132,L,02.4,N,,,,*79
$HCHDG,272.9,0.0,E,,*27
$GPRMC,185504.4,A,4741.20134,N,12224.26269,W,000.03,000.0,251013,016.6,E,A*24
$PGRME,3.0,M,8.4,M,8.9,M*20
$IIDPT,007.8,-1.0,*4F
$HCHDG,272.9,0.0,E,,*27
$IIGLL,4741.201,N,12224.262,W,185500,A,A*4F
$IIMTW,+09.0,C*31
$GPRMC,185504.6,A,4741.20130,N,12224.26276,W,000.03,000.0,251013,016.6,E,A*2C
$GPRMB,A,0.20,L,,Shil,4741.0830,N,12224.5670,W,0.2,240,-0.02,V*13
$PGRME,3.0,M,8.3,M,8.8,M*26
$HCHDG,272.9,0.0,E,,*27
$PTAK,FFP1,HEEL,@*07
$IIMWV,228,R,02.4,N,A*1D
$IIMWV,227,T,02.5,N,A*15
$YXXDR,A,5.8,D,PTCH,A,3.5,D,ROLL*56
$PTAK,FFD1,3.5*53
$HCHDG,272.8,0.0,E,,*26
$IIRMB,A,0.20,L,,Shil,,,,,000.2,240,,V,A*7F
$HCHDG,272.8,0.0,E,,*26
$GPRMC,185504.8,A,4741.20125,N,12224.26282,W,000.04,000.0,251013,016.6,E,A*2A
$PGRME,3.0,M,8.2,M,8.8,M*27
$HCHDG,272.8,0.0,E,,*26
$HCHDG,272.8,0.0,E,,*26
$GPRMC,185505.0,A,4741.20121,N,12224.26285,W,000.04,000.0,251013,016.6,E,A*20
$PGRME,3.0,M,8.2,M,8.7,M*28
$HCHDG,272.8,0.0,E,,*26
$YXXDR,A,5.7,D,PTCH,A,3.5,D,ROLL*59
$GPRMC,185505.2,A,4741.20121,N,12224.26284,W,000.04,000.0,251013,016.6,E,A*23
$PGRME,3.0,M,8.1,M,8.6,M*2A
$HCHDG,272.8,0.0,E,,*26
$HCHDG,272.8,0.0,E,,*26
$IIRMC,185500,A,4741.201,N,12224.262,W,00.0,000,251013,16,E,A*10
$HCHDG,272.8,0.0,E,,*26
$GPRMC,185505.4,A,4741.20123,N,12224.26285,W,000.04,000.0,251013,016.6,E,A*26
$IIVHW,,,,,00.0,N,,*19
$PGRME,3.0,M,8.0,M,8.6,M*2B
$IIVLW,06403,N,000.0,N*52
$HCHDG,272.8,0.0,E,,*26
$IIVWR,131,L,02.6,N,,,,*78
$IIDPT,007.8,-1.0,*4F
$HCHDG,272.8,0.0,E,,*26
$GPRMC,185505.6,A,4741.20125,N,12224.26286,W,000.04,000.0,251013,016.6,E,A*21
$PGRME,3.0,M,7.9,M,8.5,M*2E
$IIGLL,4741.201,N,12224.262,W,185500,A,A*4F
$YXXDR,A,5.7,D,PTCH,A,3.3,D,ROLL*5F
$IIMTW,+09.0,C*31
$HCHDG,273.0,0.0,E,,*2F
$IIMWV,229,R,02.6,N,A*1E
$HCHDG,273.0,0.0,E,,*2F
$GPRMC,185505.8,A,4741.20124,N,12224.26289,W,000.03,000.0,251013,016.6,E,A*26
$GPRMB,A,0.20,L,,Shil,4741.0830,N,12224.5670,W,0.2,240,-0.02,V*13
$PGRME,3.0,M,7.9,M,8.5,M*2E
$IIMWV,228,T,02.4,N,A*1B
$HCHDG,273.1,0.0,E,,*2E
$HCHDG,273.1,0.0,E,,*2E
$GPRMC,185506.0,A,4741.20123,N,12224.26287,W,000.03,000.0,251013,016.6,E,A*24
$PGRME,3.0,M,7.8,M,8.4,M*2E
$HCHDG,273.1,0.0,E,,*2E
$YXXDR,A,5.7,D,PTCH,A,3.3,D,ROLL*5F
$PTAK,FFD1,3.3*55
$GPRMC,185506.2,A,4741.20122,N,12224.26288,W,000.02,000.0,251013,016.6,E,A*29
$PGRME,3.0,M,7.7,M,8.3,M*26
$HCHDG,273.1,0.0,E,,*2E
$HCHDG,273.2,0.0,E,,*2D
$IIRMB,A,0.20,L,,Shil,,,,,000.2,240,,V,A*7F
$HCHDG,272.9,0.0,E,,*27
$GPRMC,185506.4,A,4741.20125,N,12224.26291,W,000.02,000.0,251013,016.6,E,A*20
$PGRME,3.0,M,7.7,M,8.3,M*26
$IIRMC,185500,A,4741.201,N,12224.262,W,00.0,000,251013,16,E,A*10
$HCHDG,272.9,0.0,E,,*27
$IIVHW,,,,,00.0,N,,*19
$IIVLW,06403,N,000.0,N*52
$HCHDG,273.0,0.0,E,,*2F
$GPRMC,185506.6,A,4741.20124,N,12224.26293,W,000.02,000.0,251013,016.6,E,A*21
$PGRME,3.0,M,7.6,M,8.2,M*26
$IIVWR,130,L,02.6,N,,,,*79
$IIDPT,007.8,-1.0,*4F
$YXXDR,A,5.7,D,PTCH,A,3.2,D,ROLL*5E
$HCHDG,273.0,0.0,E,,*2F
$IIGLL,4741.201,N,12224.262,W,185500,A,A*4F
$HCHDG,273.0,0.0,E,,*2F
$IIMTW,+09.0,C*31
$GPRMC,185506.8,A,4741.20124,N,12224.26294,W,000.03,000.0,251013,016.6,E,A*29
$GPRMB,A,0.20,L,,Shil,4741.0830,N,12224.5670,W,0.2,240,-0.02,V*13
$PGRME,3.0,M,7.6,M,8.1,M*25
$HCHDG,273.0,0.0,E,,*2F
$HCHDG,273.0,0.0,E,,*2F
$GPRMC,185507.0,A,4741.20123,N,12224.26295,W,000.01,000.0,251013,016.6,E,A*24
$PGRME,3.0,M,7.5,M,8.1,M*26
$HCHDG,273.1,0.0,E,,*2E
$YXXDR,A,5.6,D,PTCH,A,3.5,D,ROLL*58
$GPRMC,185507.2,A,4741.20123,N,12224.26295,W,000.01,000.0,251013,016.6,E,A*26
$PGRME,3.0,M,7.4,M,8.0,M*26
$HCHDG,273.2,0.0,E,,*2D
$IIMWV,232,R,02.7,N,A*15
$HCHDG,273.2,0.0,E,,*2D
$IIMWV,230,T,02.6,N,A*10
$HCHDG,273.1,0.0,E,,*2E
$GPRMC,185507.4,A,4741.20123,N,12224.26295,W,000.00,000.0,251013,016.6,E,A*21
$PGRME,3.0,M,7.4,M,8.0,M*26
$IIRMB,A,0.20,L,,Shil,,,,,000.2,240,,V,A*7F
$HCHDG,273.1,0.0,E,,*2E
$IIRMC,185500,A,4741.201,N,12224.262,W,00.0,000,251013,16,E,A*10
$HCHDG,273.1,0.0,E,,*2E
$GPRMC,185507.6,A,4741.20123,N,12224.26295,W,000.04,000.0,251013,016.6,E,A*27
$PGRME,3.0,M,7.3,M,7.9,M*27
$IIVHW,,,,,00.0,N,,*19
$IIVLW,06403,N,000.0,N*52
$YXXDR,A,5.7,D,PTCH,A,3.5,D,ROLL*59
$PTAK,FFD1,3.5*53
$IIVWR,128,L,02.7,N,,,,*71
$HCHDG,273.1,0.0,E,,*2E
$IIDPT,007.8,-1.0,*4F
$HCHDG,273.1,0.0,E,,*2E
$GPRMC,185507.8,A,4741.20124,N,12224.26295,W,000.02,000.0,251013,016.6,E,A*28
$PGRME,3.0,M,7.2,M,7.9,M*26
$HCHDG,273.1,0.0,E,,*2E
$HCHDG,273.1,0.0,E,,*2E
$GPRMC,185508.0,A,4741.20124,N,12224.26295,W,000.02,000.0,251013,016.6,E,A*2F
$GPRMB,A,0.20,L,,Shil,4741.0830,N,12224.5670,W,0.2,240,-0.01,V*10
$PGRME,3.0,M,7.2,M,7.8,M*27
$HCHDG,273.0,0.0,E,,*2F
$YXXDR,A,5.8,D,PTCH,A,3.6,D,ROLL*55
$GPRMC,185508.2,A,4741.20124,N,12224.26295,W,000.03,000.0,251013,016.6,E,A*2C
$PGRME,3.0,M,7.1,M,7.8,M*24
$HCHDG,273.2,0.0,E,,*2D
$HCHDG,273.2,0.0,E,,*2D
$IIGLL,4741.201,N,12224.262,W,185500,A,A*4F
$IIMTW,+09.0,C*31
$HCHDG,273.2,0.0,E,,*2D
$GPRMC,185508.4,A,4741.20124,N,12224.26295,W,000.05,000.0,251013,016.6,E,A*2C
$IIMWV,229,R,02.9,N,A*11
$PGRME,3.0,M,7.1,M,7.7,M*2B
$IIMWV,232,T,02.7,N,A*13
$HCHDG,272.9,0.0,E,,*27
$IIRMB,A,0.20,L,,Shil,,,,,000.2,240,,V,A*7F
$HCHDG,272.9,0.0,E,,*27
$GPRMC,185508.6,A,4741.20124,N,12224.26294,W,000.04,000.0,251013,016.6,E,A*2E
$PGRME,3.0,M,7.0,M,7.7,M*2A
$YXXDR,A,5.6,D,PTCH,A,3.8,D,ROLL*55
$IIRMC,185500,A,4741.201,N,12224.262,W,00.0,000,251013,16,E,A*10
$HCHDG,272.9,0.0,E,,*27
$IIVHW,,,,,00.0,N,,*19
$HCHDG,272.9,0.0,E,,*27
$GPRMC,185508.8,A,4741.20124,N,12224.26294,W,000.07,000.0,251013,016.6,E,A*23
$IIVLW,06403,N,000.0,N*52
$PGRME,3.0,M,7.0,M,7.6,M*2B
$HCHDG,272.9,0.0,E,,*27
$PTAK,FFP1,HEEL,@*07
$GPRMC,185509.0,A,4741.20123,N,12224.26294,W,000.07,000.0,251013,016.6,E,A*2D
$PGRME,3.0,M,6.9,M,7.6,M*23
$HCHDG,272.9,0.0,E,,*27
$HCHDG,272.9,0.0,E,,*27
$YXXDR,A,5.6,D,PTCH,A,3.9,D,ROLL*54
$PTAK,FFD1,3.9*5F
$GPRMC,185509.2,A,4741.20123,N,12224.26294,W,000.07,000.0,251013,016.6,E,A*2F
$GPRMB,A,0.20,L,,Shil,4741.0830,N,12224.5670,W,0.2,240,-0.04,V*15
$PGRME,3.0,M,6.9,M,7.5,M*20
$HCHDG,272.9,0.0,E,,*27
$IIVWR,131,L,02.8,N,,,,*76
$HCHDG,272.9,0.0,E,,*27
$IIDPT,007.8,-1.0,*4F
$HCHDG,272.9,0.0,E,,*27
$GPRMC,185509.4,A,4741.20123,N,12224.26293,W,000.05,000.0,251013,016.6,E,A*2C
$PGRME,3.0,M,6.8,M,7.4,M*20
$IIGLL,4741.201,N,12224.262,W,185500,A,A*4F
$IIMTW,+09.0,C*31
$HCHDG,272.9,0.0,E,,*27
$IIMWV,229,R,02.8,N,A*10
$IIMWV,229,T,02.9,N,A*17
$HCHDG,272.9,0.0,E,,*27
$GPRMC,185509.6,A,4741.20123,N,12224.26293,W,000.06,000.0,251013,016.6,E,A*2D
$PGRME,3.0,M,6.7,M,7.4,M*2F
$IIRMB,A,0.20,L,,Shil,,,,,000.2,240,,V,A*7F
$YXXDR,A,5.7,D,PTCH,A,3.5,D,ROLL*59
$HCHDG,272.9,0.0,E,,*27
$HCHDG,272.9,0.0,E,,*27
$IIRMC,185500,A,4741.201,N,12224.262,W,00.0,000,251013,16,E,A*10
$GPRMC,185509.8,A,4741.20122,N,12224.26293,W,000.04,000.0,251013,016.6,E,A*20
$PGRME,3.0,M,6.7,M,7.4,M*2F
$HCHDG,272.9,0.0,E,,*27
$GPRMC,185510.0,A,4741.20122,N,12224.26292,W,000.03,000.0,251013,016.6,E,A*26
$HCHDG,273.0,0.0,E,,*2F
$PGRME,3.0,M,6.6,M,7.3,M*29
$HCHDG,273.0,0.0,E,,*2F
$YXXDR,A,5.8,D,PTCH,A,3.5,D,ROLL*56
$GPRMC,185510.2,A,4741.20122,N,12224.26292,W,000.04,000.0,251013,016.6,E,A*23
$PGRME,3.0,M,6.6,M,7.3,M*29
$HCHDG,273.0,0.0,E,,*2F
$IIVHW,,,,,00.0,N,,*19
$HCHDG,273.0,0.0,E,,*2F
$IIVLW,06403,N,000.0,N*52
$IIVWR,131,L,02.9,N,,,,*77
$GPRMC,185510.4,A,4741.20122,N,12224.26292,W,000.05,000.0,251013,016.6,E,A*24
$GPRMB,A,0.20,L,,Shil,4741.0830,N,12224.5670,W,0.2,240,-0.03,V*12
$HCHDG,273.0,0.0,E,,*2F
$PGRME,3.0,M,6.5,M,7.2,M*2B
$IIDPT,007.8,-1.0,*4F
$HCHDG,273.0,0.0,E,,*2F
$IIGLL,4741.201,N,12224.262,W,185500,A,A*4F
$IIMTW,+09.0,C*31
$HCHDG,273.0,0.0,E,,*2F
$GPRMC,185510.6,A,4741.20122,N,12224.26291,W,000.03,000.0,251013,016.6,E,A*23
$PGRME,3.0,M,6.5,M,7.2,M*2B
$IIMWV,229,R,02.9,N,A*11
$YXXDR,A,5.8,D,PTCH,A,3.6,D,ROLL*55
$PTAK,FFD1,3.6*50
$IIMWV,229,T,02.8,N,A*16
$HCHDG,273.0,0.0,E,,*2F
$IIRMB,A,0.20,L,,Shil,,,,,000.2,240,,V,A*7F
$HCHDG,273.0,0.0,E,,*2F
$GPRMC,185510.8,A,4741.20122,N,12224.26291,W,000.04,000.0,251013,016.6,E,A*2A
$PGRME,3.0,M,6.5,M,7.1,M*28
$HCHDG,273.0,0.0,E,,*2F
$HCHDG,273.0,0.0,E,,*2F
$GPRMC,185511.0,A,4741.20122,N,12224.26291,W,000.03,000.0,251013,016.6,E,A*24
$PGRME,3.0,M,6.4,M,7.1,M*29
$HCHDG,273.0,0.0,E,,*2F
$YXXDR,A,5.7,D,PTCH,A,3.8,D,ROLL*54
$GPRMC,185511.2,A,4741.20122,N,12224.26291,W,000.03,000.0,251013,016.6,E,A*26
$PGRME,3.0,M,6.4,M,7.1,M*29
$HCHDG,272.9,0.0,E,,*27
$HCHDG,272.9,0.0,E,,*27
$IIRMC,185500,A,4741.201,N,12224.262,W,00.0,000,251013,16,E,A*10
$HCHDG,272.9,0.0,E,,*27
$GPRMC,185511.4,A,4741.20122,N,12224.26290,W,000.02,000.0,251013,016.6,E,A*20
$GPRMB,A,0.20,L,,Shil,4741.0830,N,12224.5670,W,0.2,240,-0.01,V*10
$PGRME,3.0,M,6.3,M,7.0,M*2F
$IIVHW,,,,,00.0,N,,*19
$IIVLW,06403,N,000.0,N*52
$HCHDG,273.1,0.0,E,,*2E
$IIVWR,134,L,02.8,N,,,,*73
$IIDPT,007.8,-1.0,*4F
$HCHDG,273.1,0.0,E,,*2E
$GPRMC,185511.6,A,4741.20122,N,12224.26290,W,000.04,000.0,251013,016.6,E,A*24
$PGRME,3.0,M,6.3,M,7.0,M*2F
$IIGLL,4741.201,N,12224.262,W,185500,A,A*4F
$YXXDR,A,5.9,D,PTCH,A,3.7,D,ROLL*55
$PTAK,FFD1,3.7*51
$IIMTW,+09.0,C*31
$HCHDG,273.1,0.0,E,,*2E
$IIMWV,226,R,02.8,N,A*1F
$HCHDG,273.1,0.0,E,,*2E
$GPRMC,185511.8,A,4741.20121,N,12224.26290,W,000.05,000.0,251013,016.6,E,A*28
$PGRME,3.0,M,6.2,M,6.9,M*26
$IIMWV,229,T,02.9,N,A*17
$HCHDG,273.0,0.0,E,,*2F
$HCHDG,273.0,0.0,E,,*2F
$GPRMC,185512.0,A,4741.20121,N,12224.26290,W,000.06,000.0,251013,016.6,E,A*20
$PGRME,3.0,M,6.2,M,6.9,M*26
$HCHDG,273.0,0.0,E,,*2F
$YXXDR,A,5.7,D,PTCH,A,3.8,D,ROLL*54
$GPRMC,185512.2,A,4741.20121,N,12224.26289,W,000.04,000.0,251013,016.6,E,A*28
$PGRME,3.0,M,6.2,M,6.9,M*26
$HCHDG,273.0,0.0,E,,*2F
$HCHDG,273.0,0.0,E,,*2F
$IIRMB,A,0.20,L,,Shil,,,,,000.2,240,,V,A*7F
$HCHDG,273.0,0.0,E,,*2F
$GPRMC,185512.4,A,4741.20121,N,12224.26289,W,000.05,000.0,251013,016.6,E,A*2F
$PGRME,3.0,M,6.1,M,6.8,M*24
$IIRMC,185500,A,4741.201,N,12224.262,W,00.0,000,251013,16,E,A*10
$HCHDG,273.0,0.0,E,,*2F
$IIVHW,,,,,00.0,N,,*19
$IIVLW,06403,N,000.0,N*52
$HCHDG,273.0,0.0,E,,*2F
$GPRMC,185512.6,A,4741.20121,N,12224.26289,W,000.05,000.0,251013,016.6,E,A*2D
$GPRMB,A,0.20,L,,Shil,4741.0830,N,12224.5670,W,0.2,240,-0.03,V*12
$PGRME,3.0,M,6.1,M,6.8,M*24
$IIVWR,133,L,02.9,N,,,,*75
$IIDPT,007.8,-1.0,*4F
$YXXDR,A,5.8,D,PTCH,A,3.6,D,ROLL*55
$PTAK,FFD1,3.6*50
$HCHDG,273.0,0.0,E,,*2F
$IIGLL,4741.201,N,12224.262,W,185500,A,A*4F
$HCHDG,273.0,0.0,E,,*2F
$IIMTW,+09.0,C*31
$GPRMC,185512.8,A,4741.20120,N,12224.26288,W,000.07,000.0,251013,016.6,E,A*21
$PTAK,FFP1,HEEL,@*07
$PGRME,3.0,M,6.0,M,6.8,M*25
$HCHDG,273.1,0.0,E,,*2E
$HCHDG,273.1,0.0,E,,*2E
$GPRMC,185513.0,A,4741.20120,N,12224.26288,W,000.06,000.0,251013,016.6,E,A*29
$PGRME,3.0,M,6.0,M,6.7,M*2A
$HCHDG,272.9,0.0,E,,*27
$YXXDR,A,5.8,D,PTCH,A,3.5,D,ROLL*56
$GPRMC,185513.2,A,4741.20121,N,12224.26288,W,000.04,000.0,251013,016.6,E,A*28
$PGRME,3.0,M,6.0,M,6.7,M*2A
$HCHDG,272.9,0.0,E,,*27
$IIMWV,224,R,02.8,N,A*1D
$HCHDG,272.9,0.0,E,,*27
$IIMWV,227,T,02.9,N,A*19
$HCHDG,273.0,0.0,E,,*2F
$GPRMC,185513.4,A,4741.20121,N,12224.26287,W,000.08,000.0,251013,016.6,E,A*2D
$PGRME,3.0,M,5.9,M,6.7,M*20
$IIRMB,A,0.20,L,,Shil,,,,,000.2,240,,V,A*7F
$HCHDG,273.0,0.0,E,,*2F
$IIRMC,185500,A,4741.201,N,12224.262,W,00.0,000,251013,16,E,A*10
$HCHDG,272.9,0.0,E,,*27
$GPRMC,185513.6,A,4741.20121,N,12224.26287,W,000.07,000.0,251013,016.6,E,A*20
$PGRME,3.0,M,5.9,M,6.6,M*21
$IIVHW,,,,,00.0,N,,*19
$IIVLW,06403,N,000.0,N*52
$YXXDR,A,5.7,D,PTCH,A,3.8,D,ROLL*54
$IIVWR,136,L,02.8,N,,,,*71
$HCHDG,272.9,0.0,E,,*27
$IIDPT,007.8,-1.0,*4F
$HCHDG,272.8,0.0,E,,*26
$GPRMC,185513.8,A,4741.20121,N,12224.26287,W,000.06,000.0,251013,016.6,E,A*2F
$GPRMB,A,0.20,L,,Shil,4741.0830,N,12224.5670,W,0.2,240,-0.03,V*12
$PGRME,3.0,M,5.9,M,6.6,M*21
$HCHDG,273.0,0.0,E,,*2F
$HCHDG,273.0,0.0,E,,*2F
$GPRMC,185514.0,A,4741.20122,N,12224.26286,W,000.03,000.0,251013,016.6,E,A*27
$PGRME,3.0,M,5.8,M,6.6,M*20
$HCHDG,273.0,0.0,E,,*2F
$YXXDR,A,5.8,D,PTCH,A,3.9,D,ROLL*5A
$PTAK,FFD1,3.9*5F
$GPRMC,185514.2,A,4741.20122,N,12224.26286,W,000.03,000.0,251013,016.6,E,A*25
$PGRME,3.0,M,5.8,M,6.5,M*23
$HCHDG,273.0,0.0,E,,*2F
$HCHDG,273.0,0.0,E,,*2F
$IIGLL,4741.201,N,12224.262,W,185500,A,A*4F
$IIMTW,+09.0,C*31
$HCHDG,273.0,0.0,E,,*2F
$GPRMC,185514.4,A,4741.20122,N,12224.26286,W,000.06,000.0,251013,016.6,E,A*26
$IIMWV,225,R,02.9,N,A*1D
$PGRME,3.0,M,5.7,M,6.5,M*2C
$IIMWV,224,T,02.8,N,A*1B
$HCHDG,272.9,0.0,E,,*27
$IIRMB,A,0.20,L,,Shil,,,,,000.2,240,,V,A*7F
$HCHDG,272.9,0.0,E,,*27
$GPRMC,185514.6,A,4741.20122,N,12224.26286,W,000.05,000.0,251013,016.6,E,A*27
$PGRME,3.0,M,5.7,M,6.5,M*2C
$YXXDR,A,5.7,D,PTCH,A,3.8,D,ROLL*54
$IIRMC,185500,A,4741.201,N,12224.262,W,00.0,000,251013,16,E,A*10
$HCHDG,272.9,0.0,E,,*27
$IIVHW,,,,,00.0,N,,*19
$HCHDG,272.9,0.0,E,,*27
$IIVLW,06403,N,000.0,N*52
$GPRMC,185514.8,A,4741.20122,N,12224.26285,W,000.04,000.0,251013,016.6,E,A*2B
$GPRMB,A,0.20,L,,Shil,4741.0830,N,12224.5670,W,0.2,240,-0.02,V*13
$PGRME,3.0,M,5.7,M,6.4,M*2D
$HCHDG,272.8,0.0,E,,*26
$GPRMC,185515.0,A,4741.20122,N,12224.26285,W,000.05,000.0,251013,016.6,E,A*23
$HCHDG,272.8,0.0,E,,*26
$PGRME,3.0,M,5.6,M,6.4,M*2C
$HCHDG,272.8,0.0,E,,*26
$YXXDR,A,5.6,D,PTCH,A,3.7,D,ROLL*5A
$PTAK,FFD1,3.7*51
$GPRMC,185515.2,A,4741.20122,N,12224.26285,W,000.06,000.0,251013,016.6,E,A*22
$PGRME,3.0,M,5.6,M,6.4,M*2C
$HCHDG,272.8,0.0,E,,*26
$IIVWR,135,L,02.8,N,,,,*72
$HCHDG,272.8,0.0,E,,*26
$IIDPT,007.8,-1.0,*4F
$HCHDG,272.8,0.0,E,,*26
$GPRMC,185515.4,A,4741.20122,N,12224.26284,W,000.05,000.0,251013,016.6,E,A*26
$PGRME,3.0,M,5.6,M,6.3,M*2B
$IIGLL,4741.201,N,12224.262,W,185500,A,A*4F
$IIMTW,+09.0,C*31
$HCHDG,272.8,0.0,E,,*26
$IIMWV,225,R,02.8,N,A*1C
$IIMWV,225,T,02.9,N,A*1B
$HCHDG,272.8,0.0,E,,*26
$GPRMC,185515.6,A,4741.20122,N,12224.26284,W,000.03,000.0,251013,016.6,E,A*22
$PGRME,3.0,M,5.5,M,6.3,M*28
$IIRMB,A,0.20,L,,Shil,,,,,000.2,240,,V,A*7F
$YXXDR,A,5.8,D,PTCH,A,3.5,D,ROLL*56
$HCHDG,272.6,0.0,E,,*28
$HCHDG,272.6,0.0,E,,*28
$IIRMC,185500,A,4741.201,N,12224.262,W,00.0,000,251013,16,E,A*10
$GPRMC,185515.8,A,4741.20122,N,12224.26284,W,000.01,000.0,251013,016.6,E,A*2E
$GPRMB,A,0.20,L,,Shil,4741.0830,N,12224.5670,W,0.2,240,-0.00,V*11
$PGRME,3.0,M,5.5,M,6.3,M*28
$HCHDG,272.6,0.0,E,,*28
$HCHDG,272.6,0.0,E,,*28
$GPRMC,185516.0,A,4741.20122,N,12224.26284,W,000.01,000.0,251013,016.6,E,A*25
$PGRME,3.0,M,5.5,M,6.2,M*29
$HCHDG,272.5,0.0,E,,*2B
$YXXDR,A,5.6,D,PTCH,A,3.8,D,ROLL*55
$GPRMC,185516.2,A,4741.20122,N,12224.26284,W,000.01,000.0,251013,016.6,E,A*27
$PGRME,3.0,M,5.4,M,6.2,M*28
$HCHDG,272.5,0.0,E,,*2B
$IIVHW,,,,,00.0,N,,*19
$HCHDG,272.8,0.0,E,,*26
$IIVLW,06403,N,000.0,N*52
$IIVWR,136,L,02.9,N,,,,*70
$GPRMC,185516.4,A,4741.20122,N,12224.26284,W,000.01,000.0,251013,016.6,E,A*21
$HCHDG,272.7,0.0,E,,*29
$PGRME,3.0,M,5.4,M,6.2,M*28
$IIDPT,007.8,-1.0,*4F
$HCHDG,272.7,0.0,E,,*29
$IIGLL,4741.201,N,12224.262,W,185500,A,A*4F
$IIMTW,+09.0,C*31
$HCHDG,272.7,0.0,E,,*29
$GPRMC,185516.6,A,4741.20122,N,12224.26284,W,000.01,000.0,251013,016.6,E,A*23
$PGRME,3.0,M,5.4,M,6.2,M*28
$IIMWV,224,R,02.9,N,A*1C
$IIMWV,225,T,02.8,N,A*1A
$YXXDR,A,5.7,D,PTCH,A,3.5,D,ROLL*59
$PTAK,FFD1,3.5*53
$HCHDG,272.7,0.0,E,,*29
$IIRMB,A,0.20,L,,Shil,,,,,000.2,240,,V,A*7F
$HCHDG,272.7,0.0,E,,*29
$GPRMC,185516.8,A,4741.20122,N,12224.26284,W,000.01,000.0,251013,016.6,E,A*2D
$PGRME,3.0,M,5.3,M,6.1,M*2C
$HCHDG,272.7,0.0,E,,*29
$HCHDG,272.7,0.0,E,,*29
$PTAK,FFP1,HEEL,@*07
$GPRMC,185517.0,A,4741.20122,N,12224.26284,W,000.01,000.0,251013,016.6,E,A*24
$GPRMB,A,0.20,L,,Shil,4741.0830,N,12224.5670,W,0.2,240,-0.00,V*11
$PGRME,3.0,M,5.3,M,6.1,M*2C
$HCHDG,272.7,0.0,E,,*29
$YXXDR,A,5.9,D,PTCH,A,3.7,D,ROLL*55
$GPRMC,185517.2,A,4741.20122,N,12224.26284,W,000.01,000.0,251013,016.6,E,A*26
$PGRME,3.0,M,5.3,M,6.1,M*2C
$HCHDG,272.7,0.0,E,,*29
$HCHDG,272.6,0.0,E,,*28
$IIRMC,185500,A,4741.201,N,12224.262,W,00.0,000,251013,16,E,A*10
$HCHDG,272.6,0.0,E,,*28
$GPRMC,185517.4,A,4741.20122,N,12224.26284,W,000.01,000.0,251013,016.6,E,A*20
$IIVHW,,,,,00.0,N,,*19
$PGRME,3.0,M,5.3,M,6.1,M*2C
$IIVLW,06403,N,000.0,N*52
$HCHDG,272.6,0.0,E,,*28
$IIVWR,139,L,03.0,N,,,,*77
$IIDPT,007.8,-1.0,*4F
$HCHDG,272.6,0.0,E,,*28
$GPRMC,185517.6,A,4741.20122,N,12224.26284,W,000.01,000.0,251013,016.6,E,A*22
$PGRME,3.0,M,5.2,M,6.1,M*2D
$IIGLL,4741.201,N,12224.262,W,185500,A,A*4F
$YXXDR,A,5.9,D,PTCH,A,3.7,D,ROLL*55
$IIMTW,+09.0,C*31
$HCHDG,272.6,0.0,E,,*28
$IIMWV,221,R,03.0,N,A*11
$HCHDG,272.6,0.0,E,,*28
$GPRMC,185517.8,A,4741.20122,N,12224.26284,W,000.01,000.0,251013,016.6,E,A*2C
$PGRME,3.0,M,5.2,M,6.0,M*2C
$IIMWV,224,T,02.9,N,A*1A
$HCHDG,272.5,0.0,E,,*2B
$GPRMC,185518.0,A,4741.20122,N,12224.26284,W,000.01,000.0,251013,016.6,E,A*2B
$HCHDG,272.5,0.0,E,,*2B
$PGRME,3.0,M,5.2,M,6.0,M*2C
$HCHDG,272.5,0.0,E,,*2B
$YXXDR,A,5.6,D,PTCH,A,4.1,D,ROLL*5B
$PTAK,FFD1,4.1*50
$GPRMC,185518.2,A,4741.20122,N,12224.26284,W,000.00,000.0,251013,016.6,E,A*28
$GPRMB,A,0.20,L,,Shil,4741.0830,N,12224.5670,W,0.2,240,-0.00,V*11
$PGRME,3.0,M,5.2,M,6.0,M*2C
$HCHDG,272.5,0.0,E,,*2B
$HCHDG,272.5,0.0,E,,*2B
$IIRMB,A,0.20,L,,Shil,,,,,000.2,240,,V,A*7F
$HCHDG,272.5,0.0,E,,*2B
$GPRMC,185518.4,A,4741.20122,N,12224.26284,W,000.00,000.0,251013,016.6,E,A*2E
$PGRME,3.0,M,5.1,M,6.0,M*2F
$IIRMC,185500,A,4741.201,N,12224.262,W,00.0,000,251013,16,E,A*10
$HCHDG,272.5,0.0,E,,*2B
$IIVHW,,,,,00.0,N,,*19
$IIVLW,06403,N,000.0,N*52
$HCHDG,272.5,0.0,E,,*2B
$GPRMC,185518.6,A,4741.20122,N,12224.26284,W,000.01,000.0,251013,016.6,E,A*2D
$PGRME,3.0,M,5.1,M,6.0,M*2F
$IIVWR,139,L,03.2,N,,,,*75
$IIDPT,007.8,-1.0,*4F
$YXXDR,A,5.9,D,PTCH,A,3.6,D,ROLL*54
$HCHDG,272.5,0.0,E,,*2B
$IIGLL,4741.201,N,12224.262,W,185500,A,A*4F
$IIMTW,+09.0,C*31
$HCHDG,272.4,0.0,E,,*2A
$GPRMC,185518.8,A,4741.20122,N,12224.26284,W,000.01,000.0,251013,016.6,E,A*23
$PGRME,3.0,M,5.1,M,5.9,M*25
$HCHDG,272.2,0.0,E,,*2C
$HCHDG,272.2,0.0,E,,*2C
$GPRMC,185519.0,A,4741.20122,N,12224.26284,W,000.01,000.0,251013,016.6,E,A*2A
$PGRME,3.0,M,5.1,M,5.9,M*25
$HCHDG,272.4,0.0,E,,*2A
$YXXDR,A,6.0,D,PTCH,A,3.5,D,ROLL*5D
$GPRMC,185519.2,A,4741.20122,N,12224.26284,W,000.01,000.0,251013,016.6,E,A*28
$PGRME,3.0,M,5.0,M,5.9,M*24
$HCHDG,272.4,0.0,E,,*2A
$IIMWV,224,R,03.3,N,A*17
$HCHDG,272.4,0.0,E,,*2A
$IIMWV,221,T,03.2,N,A*15
$HCHDG,272.4,0.0,E,,*2A
$GPRMC,185519.4,A,4741.20122,N,12224.26284,W,000.00,000.0,251013,016.6,E,A*2F
$GPRMB,A,0.20,L,,Shil,4741.0830,N,12224.5670,W,0.2,240,-0.00,V*11
$PGRME,3.0,M,5.0,M,5.9,M*24
$IIRMB,A,0.20,L,,Shil,,,,,000.2,240,,V,A*7F
$HCHDG,272.4,0.0,E,,*2A
$IIRMC,185500,A,4741.201,N,12224.262,W,00.0,000,251013,16,E,A*10
$GPRMC,185519.6,A,4741.20122,N,12224.26284,W,000.01,000.0,251013,016.6,E,A*2C
$HCHDG,272.4,0.0,E,,*2A
$IIVHW,,,,,00.0,N,,*19
$PGRME,3.0,M,5.0,M,5.9,M*24
$IIVLW,06403,N,000.0,N*52
$YXXDR,A,6.4,D,PTCH,A,2.8,D,ROLL*55
$PTAK,FFD1,2.8*5F
$IIVWR,136,L,03.3,N,,,,*7B
$HCHDG,272.4,0.0,E,,*2A
$IIDPT,007.8,-1.0,*4F
$GPRMC,185519.8,A,4741.20122,N,12224.26284,W,000.01,000.0,251013,016.6,E,A*22
$HCHDG,272.7,0.0,E,,*29
$PGRME,3.0,M,5.0,M,5.8,M*25
$HCHDG,272.7,0.0,E,,*29
$HCHDG,272.7,0.0,E,,*29
$GPRMC,185520.0,A,4741.20122,N,12224.26284,W,000.01,000.0,251013,016.6,E,A*20
$PGRME,3.0,M,5.0,M,5.8,M*25
$HCHDG,272.5,0.0,E,,*2B
$YXXDR,A,5.7,D,PTCH,A,2.6,D,ROLL*5B
$GPRMC,185520.2,A,4741.20122,N,12224.26284,W,000.01,000.0,251013,016.6,E,A*22
$PGRME,3.0,M,4.9,M,5.8,M*2D
$HCHDG,272.6,0.0,E,,*28
$HCHDG,272.6,0.0,E,,*28
$IIGLL,4741.201,N,12224.262,W,185500,A,A*4F
$IIMTW,+09.0,C*31
$HCHDG,272.6,0.0,E,,*28
$GPRMC,185520.4,A,4741.20122,N,12224.26284,W,000.01,000.0,251013,016.6,E,A*24
$IIMWV,226,R,03.3,N,A*15
$PGRME,3.0,M,4.9,M,5.8,M*2D
$IIMWV,224,T,03.3,N,A*11
$HCHDG,272.7,0.0,E,,*29
$IIRMB,A,0.20,L,,Shil,,,,,000.2,240,,V,A*7F
$HCHDG,272.7,0.0,E,,*29
$GPRMC,185520.6,A,4741.20122,N,12224.26284,W,000.01,000.0,251013,016.6,E,A*26
$GPRMB,A,0.20,L,,Shil,4741.0830,N,12224.5670,W,0.2,240,-0.00,V*11
$PGRME,3.0,M,4.9,M,5.8,M*2D
$YXXDR,A,5.9,D,PTCH,A,2.6,D,ROLL*55
$PTAK,FFD1,2.6*51
$IIRMC,185500,A,4741.201,N,12224.262,W,00.0,000,251013,16,E,A*10
$HCHDG,272.7,0.0,E,,*29
$IIVHW,,,,,00.0,N,,*19
$IIVLW,06403,N,000.0,N*52
$HCHDG,272.6,0.0,E,,*28
$GPRMC,185520.8,A,4741.20122,N,12224.26284,W,000.01,000.0,251013,016.6,E,A*28
$PGRME,3.0,M,4.9,M,5.7,M*22
$HCHDG,272.9,0.0,E,,*27
$HCHDG,272.9,0.0,E,,*27
$PTAK,FFP1,HEEL,@*07
$GPRMC,185521.0,A,4741.20122,N,12224.26284,W,000.01,000.0,251013,016.6,E,A*21
$PGRME,3.0,M,4.9,M,5.7,M*22
$HCHDG,272.9,0.0,E,,*27
$YXXDR,A,5.9,D,PTCH,A,2.6,D,ROLL*55
$GPRMC,185521.2,A,4741.20122,N,12224.26284,W,000.01,000.0,251013,016.6,E,A*23
$PGRME,3.0,M,4.8,M,5.7,M*23
$HCHDG,273.0,0.0,E,,*2F
$IIVWR,134,L,03.4,N,,,,*7E
$HCHDG,273.0,0.0,E,,*2F
$IIDPT,008.0,-1.0,*48
$HCHDG,273.0,0.0,E,,*2F
$GPRMC,185521.4,A,4741.20122,N,12224.26284,W,000.00,000.0,251013,016.6,E,A*24
$PGRME,3.0,M,4.8,M,5.7,M*23
$IIGLL,4741.201,N,12224.262,W,185500,A,A*4F
$IIMTW,+09.0,C*31
$HCHDG,273.0,0.0,E,,*2F
$IIMWV,226,R,03.4,N,A*12
$IIMWV,226,T,03.3,N,A*13
$HCHDG,273.0,0.0,E,,*2F
$GPRMC,185521.6,A,4741.20122,N,12224.26284,W,000.01,000.0,251013,016.6,E,A*27
$GPRMB,A,0.20,L,,Shil,4741.0830,N,12224.5670,W,0.2,240,-0.00,V*11
$PGRME,3.0,M,4.8,M,5.7,M*23
$IIRMB,A,0.20,L,,Shil,,,,,000.2,240,,V,A*7F
$YXXDR,A,5.8,D,PTCH,A,2.9,D,ROLL*5B
$PTAK,FFD1,2.9*5E
$HCHDG,273.0,0.0,E,,*2F
$IIRMC,185500,A,4741.201,N,12224.262,W,00.0,000,251013,16,E,A*10
$GPRMC,185521.8,A,4741.20122,N,12224.26284,W,000.01,000.0,251013,016.6,E,A*29
$PGRME,3.0,M,4.8,M,5.7,M*23
$HCHDG,273.0,0.0,E,,*2F
$HCHDG,273.1,0.0,E,,*2E
$HCHDG,273.0,0.0,E,,*2F
$GPRMC,185522.0,A,4741.20122,N,12224.26284,W,000.00,000.0,251013,016.6,E,A*23
$PGRME,3.0,M,4.8,M,5.6,M*22
$HCHDG,273.0,0.0,E,,*2F
$YXXDR,A,6.0,D,PTCH,A,3.1,D,ROLL*59
$GPRMC,185522.2,A,4741.20122,N,12224.26284,W,000.01,000.0,251013,016.6,E,A*20
$PGRME,3.0,M,4.7,M,5.6,M*2D
$HCHDG,273.0,0.0,E,,*2F
$IIVHW,,,,,00.0,N,,*19
$HCHDG,273.0,0.0,E,,*2F
$IIVLW,06403,N,000.0,N*52
$IIVWR,137,L,03.4,N,,,,*7D
$HCHDG,273.0,0.0,E,,*2F
$GPRMC,185522.4,A,4741.20122,N,12224.26284,W,000.01,000.0,251013,016.6,E,A*26
$PGRME,3.0,M,4.7,M,5.6,M*2D
$IIDPT,008.0,-1.0,*48
$HCHDG,273.0,0.0,E,,*2F
$IIGLL,4741.201,N,12224.262,W,185500,A,A*4F
$IIMTW,+09.0,C*31
$HCHDG,272.9,0.0,E,,*27
$GPRMC,185522.6,A,4741.20122,N,12224.26284,W,000.01,000.0,251013,016.6,E,A*24
$GPRMB,A,0.20,L,,Shil,4741.0830,N,12224.5670,W,0.2,240,-0.00,V*11
$PGRME,3.0,M,4.7,M,5.6,M*2D
$IIMWV,223,R,03.4,N,A*17
$IIMWV,226,T,03.4,N,A*14
$YXXDR,A,6.0,D,PTCH,A,3.0,D,ROLL*58
$PTAK,FFD1,3.0*56
$HCHDG,272.9,0.0,E,,*27
$IIRMB,A,0.20,L,,Shil,,,,,000.2,240,,V,A*7F
$HCHDG,272.9,0.0,E,,*27
$GPRMC,185522.8,A,4741.20122,N,12224.26284,W,000.01,000.0,251013,016.6,E,A*2A
$PGRME,3.0,M,4.7,M,5.6,M*2D
$HCHDG,272.9,0.0,E,,*27
$GPRMC,185523.0,A,4741.20122,N,12224.26284,W,000.02,000.0,251013,016.6,E,A*20
$HCHDG,272.8,0.0,E,,*26
$PGRME,3.0,M,4.7,M,5.6,M*2D
$HCHDG,272.8,0.0,E,,*26
$YXXDR,A,6.1,D,PTCH,A,3.2,D,ROLL*5B
$GPRMC,185523.2,A,4741.20122,N,12224.26284,W,000.02,000.0,251013,016.6,E,A*22
$PGRME,3.0,M,4.6,M,5.6,M*2C
$HCHDG,272.8,0.0,E,,*26
$HCHDG,272.7,0.0,E,,*29
$GPRMC,185523.4,A,4741.20122,N,12224.26284,W,000.00,000.0,251013,016.6,E,A*26
$HCHDG,272.6,0.0,E,,*28
$PGRME,3.0,M,4.6,M,5.5,M*2F
$HCHDG,272.5,0.0,E,,*2B
$HCHDG,272.6,0.0,E,,*28
$GPRMC,185523.6,A,4741.20122,N,12224.26284,W,000.00,000.0,251013,016.6,E,A*24
$PGRME,3.0,M,4.6,M,5.5,M*2F
$YXXDR,A,6.0,D,PTCH,A,3.1,D,ROLL*59
$HCHDG,272.5,0.0,E,,*2B
$HCHDG,272.4,0.0,E,,*2A
$GPRMC,185523.8,A,4741.20122,N,12224.26285,W,000.02,000.0,251013,016.6,E,A*29
$GPRMB,A,0.20,L,,Shil,4741.0830,N,12224.5670,W,0.2,240,-0.01,V*10
$PGRME,3.0,M,4.6,M,5.5,M*2F
$HCHDG,272.4,0.0,E,,*2A
$HCHDG,272.4,0.0,E,,*2A
$GPRMC,185524.0,A,4741.20122,N,12224.26285,W,000.01,000.0,251013,016.6,E,A*25
$PGRME,3.0,M,4.6,M,5.5,M*2F
$HCHDG,272.3,0.0,E,,*2D
$YXXDR,A,6.0,D,PTCH,A,3.0,D,ROLL*58
$PTAK,FFD1,3.0*56
$GPRMC,185524.2,A,4741.20122,N,12224.26285,W,000.02,000.0,251013,016.6,E,A*24
$PGRME,3.0,M,4.6,M,5.5,M*2F
$HCHDG,272.3,0.0,E,,*2D
$HCHDG,272.2,0.0,E,,*2C
$HCHDG,272.2,0.0,E,,*2C
$GPRMC,185524.4,A,4741.20122,N,12224.26285,W,000.02,000.0,251013,016.6,E,A*22
$PGRME,3.0,M,4.6,M,5.5,M*2F
$HCHDG,272.2,0.0,E,,*2C
$HCHDG,272.2,0.0,E,,*2C
$GPRMC,185524.6,A,4741.20122,N,12224.26285,W,000.01,000.0,251013,016.6,E,A*23
$PGRME,3.0,M,4.5,M,5.5,M*2C
$YXXDR,A,5.8,D,PTCH,A,2.6,D,ROLL*54
$HCHDG,272.1,0.0,E,,*2F
$HCHDG,272.0,0.0,E,,*2E
$GPRMC,185524.8,A,4741.20122,N,12224.26285,W,000.02,000.0,251013,016.6,E,A*2E
$GPRMB,A,0.20,L,,Shil,4741.0830,N,12224.5670,W,0.2,240,-0.01,V*10
$PGRME,3.0,M,4.5,M,5.4,M*2D
$HCHDG,272.0,0.0,E,,*2E
$PTAK,FFP1,HEEL,@*07
$HCHDG,272.2,0.0,E,,*2C
$GPRMC,185525.0,A,4741.20122,N,12224.26285,W,000.01,000.0,251013,016.6,E,A*24
$PGRME,3.0,M,4.5,M,5.4,M*2D
$HCHDG,272.1,0.0,E,,*2F
$YXXDR,A,6.1,D,PTCH,A,3.0,D,ROLL*59
$GPRMC,185525.2,A,4741.20122,N,12224.26285,W,000.00,000.0,251013,016.6,E,A*27
$PGRME,3.0,M,4.5,M,5.4,M*2D
$HCHDG,272.2,0.0,E,,*2C
$HCHDG,272.2,0.0,E,,*2C
$IIRMC,185500,A,4741.201,N,12224.262,W,00.0,000,251013,16,E,A*10
$HCHDG,272.2,0.0,E,,*2C
$IIVHW,,,,,00.0,N,,*19
$GPRMC,185525.4,A,4741.20122,N,12224.26285,W,000.01,000.0,251013,016.6,E,A*20
$PGRME,3.0,M,4.5,M,5.4,M*2D
$IIVLW,06403,N,000.0,N*52
$HCHDG,272.1,0.0,E,,*2F
$IIVWR,134,L,03.3,N,,,,*79
$IIDPT,007.8,-1.0,*4F
$HCHDG,272.1,0.0,E,,*2F
$GPRMC,185525.6,A,4741.20122,N,12224.26285,W,000.01,000.0,251013,016.6,E,A*22
$PGRME,3.0,M,4.4,M,5.4,M*2C
$IIGLL,4741.201,N,12224.262,W,185500,A,A*4F
$YXXDR,A,5.8,D,PTCH,A,3.4,D,ROLL*57
$PTAK,FFD1,3.4*52
$IIMTW,+09.0,C*31
$HCHDG,271.9,0.0,E,,*24
$IIMWV,226,R,03.3,N,A*15
$HCHDG,271.8,0.0,E,,*25
$GPRMC,185525.8,A,4741.20122,N,12224.26285,W,000.01,000.0,251013,016.6,E,A*2C
$GPRMB,A,0.20,L,,Shil,4741.0830,N,12224.5670,W,0.2,240,-0.00,V*11
$IIMWV,223,T,03.4,N,A*11
$PGRME,3.0,M,4.4,M,5.4,M*2C
$HCHDG,271.8,0.0,E,,*25
$GPRMC,185526.0,A,4741.20122,N,12224.26285,W,000.00,000.0,251013,016.6,E,A*26
$HCHDG,271.9,0.0,E,,*24
$PGRME,3.0,M,4.4,M,5.4,M*2C
$HCHDG,271.8,0.0,E,,*25
$YXXDR,A,5.8,D,PTCH,A,3.5,D,ROLL*56
$GPRMC,185526.2,A,4741.20122,N,12224.26285,W,000.00,000.0,251013,016.6,E,A*24
$PGRME,3.0,M,4.4,M,5.3,M*2B
$HCHDG,271.8,0.0,E,,*25
$HCHDG,271.8,0.0,E,,*25
$IIRMB,A,0.20,L,,Shil,,,,,000.2,240,,V,A*7F
$GPRMC,185526.4,A,4741.20122,N,12224.26285,W,000.00,000.0,251013,016.6,E,A*22
$HCHDG,271.8,0.0,E,,*25
$PGRME,3.0,M,4.4,M,5.3,M*2B
$IIRMC,185500,A,4741.201,N,12224.262,W,00.0,000,251013,16,E,A*10
$HCHDG,271.8,0.0,E,,*25
$IIVHW,,,,,00.0,N,,*19
$IIVLW,06403,N,000.0,N*52
$HCHDG,271.8,0.0,E,,*25
$GPRMC,185526.6,A,4741.20122,N,12224.26285,W,000.00,000.0,251013,016.6,E,A*20
$PGRME,3.0,M,4.4,M,5.3,M*2B
$IIVWR,134,L,03.1,N,,,,*7B
$IIDPT,007.8,-1.0,*4F
$YXXDR,A,5.8,D,PTCH,A,3.5,D,ROLL*56
$HCHDG,271.8,0.0,E,,*25
$IIGLL,4741.201,N,12224.262,W,185500,A,A*4F
$HCHDG,271.8,0.0,E,,*25
$IIMTW,+09.0,C*31
$GPRMC,185526.8,A,4741.20122,N,12224.26285,W,000.01,000.0,251013,016.6,E,A*2F
$PGRME,3.0,M,4.3,M,5.3,M*2C
$HCHDG,271.7,0.0,E,,*2A
$HCHDG,271.7,0.0,E,,*2A
$GPRMC,185527.0,A,4741.20122,N,12224.26285,W,000.01,000.0,251013,016.6,E,A*26
$PGRME,3.0,M,4.3,M,5.3,M*2C
$HCHDG,271.7,0.0,E,,*2A
$YXXDR,A,5.7,D,PTCH,A,3.5,D,ROLL*59
$PTAK,FFD1,3.5*53
$GPRMC,185527.2,A,4741.20122,N,12224.26285,W,000.01,000.0,251013,016.6,E,A*24
$GPRMB,A,0.20,L,,Shil,4741.0830,N,12224.5670,W,0.2,240,-0.00,V*11
$PGRME,3.0,M,4.3,M,5.3,M*2C
$HCHDG,271.7,0.0,E,,*2A
$IIMWV,227,R,03.1,N,A*16
$HCHDG,271.6,0.0,E,,*2B
$IIMWV,226,T,03.1,N,A*11
$HCHDG,271.8,0.0,E,,*25
$GPRMC,185527.4,A,4741.20122,N,12224.26285,W,000.01,000.0,251013,016.6,E,A*22
$PGRME,3.0,M,4.3,M,5.3,M*2C
$IIRMB,A,0.20,L,,Shil,,,,,000.2,240,,V,A*7F
$HCHDG,271.8,0.0,E,,*25
$IIRMC,185500,A,4741.201,N,12224.262,W,00.0,000,251013,16,E,A*10
$HCHDG,271.8,0.0,E,,*25
$GPRMC,185527.6,A,4741.20122,N,12224.26285,W,000.00,000.0,251013,016.6,E,A*21
$IIVHW,,,,,00.0,N,,*19
$PGRME,3.0,M,4.3,M,5.3,M*2C
$IIVLW,06403,N,000.0,N*52
$YXXDR,A,6.0,D,PTCH,A,4.0,D,ROLL*5F
$IIVWR,133,L,03.1,N,,,,*7C
$HCHDG,271.9,0.0,E,,*24
$IIDPT,007.8,-1.0,*4F
$HCHDG,271.9,0.0,E,,*24
$GPRMC,185527.8,A,4741.20122,N,12224.26285,W,000.01,000.0,251013,016.6,E,A*2E
$PGRME,3.0,M,4.3,M,5.2,M*2D
$HCHDG,271.9,0.0,E,,*24
$HCHDG,271.9,0.0,E,,*24
$GPRMC,185528.0,A,4741.20122,N,12224.26285,W,000.01,000.0,251013,016.6,E,A*29
$PGRME,3.0,M,4.3,M,5.2,M*2D
$HCHDG,271.9,0.0,E,,*24
$YXXDR,A,6.0,D,PTCH,A,4.0,D,ROLL*5F
$PTAK,FFD1,4.0*51
$GPRMC,185528.2,A,4741.20122,N,12224.26285,W,000.01,000.0,251013,016.6,E,A*2B
$GPRMB,A,0.20,L,,Shil,4741.0830,N,12224.5670,W,0.2,240,-0.00,V*11
$PGRME,3.0,M,4.3,M,5.2,M*2D
$HCHDG,271.9,0.0,E,,*24
$HCHDG,271.9,0.0,E,,*24
$IIGLL,4741.201,N,12224.262,W,185500,A,A*4F
$IIMTW,+09.0,C*31
$HCHDG,271.9,0.0,E,,*24
$GPRMC,185528.4,A,4741.20122,N,12224.26285,W,000.01,000.0,251013,016.6,E,A*2D
$IIMWV,227,R,03.2,N,A*15
$PGRME,3.0,M,4.2,M,5.2,M*2C
$IIMWV,227,T,03.1,N,A*10
$HCHDG,272.0,0.0,E,,*2E
$IIRMB,A,0.20,L,,Shil,,,,,000.2,240,,V,A*7F
$HCHDG,271.9,0.0,E,,*24
$GPRMC,185528.6,A,4741.20122,N,12224.26285,W,000.01,000.0,251013,016.6,E,A*2F
$PGRME,3.0,M,4.2,M,5.2,M*2C
$YXXDR,A,6.0,D,PTCH,A,4.8,D,ROLL*57
$IIRMC,185500,A,4741.201,N,12224.262,W,00.0,000,251013,16,E,A*10
$HCHDG,271.7,0.0,E,,*2A
$IIVHW,,,,,00.0,N,,*19
$HCHDG,271.7,0.0,E,,*2A
$IIVLW,06403,N,000.0,N*52
$GPRMC,185528.8,A,4741.20122,N,12224.26285,W,000.00,000.0,251013,016.6,E,A*20
$PGRME,3.0,M,4.2,M,5.2,M*2C
$HCHDG,271.7,0.0,E,,*2A
$HCHDG,271.7,0.0,E,,*2A
$GPRMC,185529.0,A,4741.20122,N,12224.26285,W,000.00,000.0,251013,016.6,E,A*29
$PTAK,FFP1,HEEL,@*07
$PGRME,3.0,M,4.2,M,5.2,M*2C
$HCHDG,271.8,0.0,E,,*25
$YXXDR,A,6.0,D,PTCH,A,4.8,D,ROLL*57
$GPRMC,185529.2,A,4741.20122,N,12224.26285,W,000.00,000.0,251013,016.6,E,A*2B
$PGRME,3.0,M,4.2,M,5.2,M*2C
$HCHDG,272.0,0.0,E,,*2E
$IIVWR,130,L,03.0,N,,,,*7E
$HCHDG,272.0,0.0,E,,*2E
$IIDPT,007.8,-1.0,*4F
$HCHDG,272.0,0.0,E,,*2E
$GPRMC,185529.4,A,4741.20122,N,12224.26285,W,000.01,000.0,251013,016.6,E,A*2C
$GPRMB,A,0.20,L,,Shil,4741.0830,N,12224.5670,W,0.2,240,-0.00,V*11
$PGRME,3.0,M,4.2,M,5.2,M*2C
$IIGLL,4741.201,N,12224.262,W,185500,A,A*4F
$IIMTW,+09.0,C*31
$HCHDG,272.0,0.0,E,,*2E
$IIMWV,230,R,03.0,N,A*11
$IIMWV,227,T,03.2,N,A*13
$GPRMC,185529.6,A,4741.20122,N,12224.26285,W,000.00,000.0,251013,016.6,E,A*2F
$PGRME,3.0,M,4.2,M,5.2,M*2C
$HCHDG,272.0,0.0,E,,*2E
$IIRMB,A,0.20,L,,Shil,,,,,000.2,240,,V,A*7F
$YXXDR,A,6.0,D,PTCH,A,4.3,D,ROLL*5C
$PTAK,FFD1,4.3*52
$HCHDG,271.8,0.0,E,,*25
$IIRMC,185500,A,4741.201,N,12224.262,W,00.0,000,251013,16,E,A*10
$GPRMC,185529.8,A,4741.20122,N,12224.26285,W,000.02,000.0,251013,016.6,E,A*23
$PGRME,3.0,M,4.2,M,5.2,M*2C
$HCHDG,271.8,0.0,E,,*25
$HCHDG,271.8,0.0,E,,*25
$GPRMC,185530.0,A,4741.20122,N,12224.26285,W,000.02,000.0,251013,016.6,E,A*23
$HCHDG,271.8,0.0,E,,*25
$PGRME,3.0,M,4.1,M,5.1,M*2C
$HCHDG,271.8,0.0,E,,*25
$YXXDR,A,6.1,D,PTCH,A,4.0,D,ROLL*5E
$GPRMC,185530.2,A,4741.20122,N,12224.26285,W,000.01,000.0,251013,016.6,E,A*22
$PGRME,3.0,M,4.1,M,5.1,M*2C
$HCHDG,271.7,0.0,E,,*2A
$IIVHW,,,,,00.0,N,,*19
$HCHDG,271.7,0.0,E,,*2A
$IIVLW,06403,N,000.0,N*52
$IIVWR,130,L,03.1,N,,,,*7F
$HCHDG,271.8,0.0,E,,*25
$GPRMC,185530.4,A,4741.20122,N,12224.26285,W,000.00,000.0,251013,016.6,E,A*25
$PGRME,3.0,M,4.1,M,5.1,M*2C
$IIDPT,007.8,-1.0,*4F
$HCHDG,271.7,0.0,E,,*2A
$IIGLL,4741.201,N,12224.262,W,185500,A,A*4F
$IIMTW,+09.0,C*31
$HCHDG,271.7,0.0,E,,*2A
$GPRMC,185530.6,A,4741.20122,N,12224.26285,W,000.02,000.0,251013,016.6,E,A*25
$GPRMB,A,0.20,L,,Shil,4741.0830,N,12224.5670,W,0.2,240,-0.01,V*10
$PGRME,3.0,M,4.1,M,5.1,M*2C
$IIMWV,230,R,03.1,N,A*10
$IIMWV,230,T,03.0,N,A*17
$YXXDR,A,6.1,D,PTCH,A,4.0,D,ROLL*5E
$PTAK,FFD1,4.0*51
$HCHDG,271.7,0.0,E,,*2A
$IIRMB,A,0.20,L,,Shil,,,,,000.2,240,,V,A*7F
$HCHDG,271.8,0.0,E,,*25
$GPRMC,185530.8,A,4741.20122,N,12224.26285,W,000.01,000.0,251013,016.6,E,A*28
$PGRME,3.0,M,4.1,M,5.1,M*2C
$HCHDG,271.8,0.0,E,,*25
$HCHDG,271.8,0.0,E,,*25
$GPRMC,185531.0,A,4741.20122,N,12224.26285,W,000.01,000.0,251013,016.6,E,A*21
$PGRME,3.0,M,4.1,M,5.1,M*2C
$HCHDG,271.8,0.0,E,,*25
$YXXDR,A,5.9,D,PTCH,A,3.4,D,ROLL*56
$GPRMC,185531.2,A,4741.20122,N,12224.26285,W,000.01,000.0,251013,016.6,E,A*23
$PGRME,3.0,M,4.1,M,5.1,M*2C
$HCHDG,271.8,0.0,E,,*25
$HCHDG,271.8,0.0,E,,*25
$IIRMC,185500,A,4741.201,N,12224.262,W,00.0,000,251013,16,E,A*10
$HCHDG,271.8,0.0,E,,*25
$GPRMC,185531.4,A,4741.20122,N,12224.26285,W,000.01,000.0,251013,016.6,E,A*25
$IIVHW,,,,,00.0,N,,*19
$PGRME,3.0,M,4.1,M,5.1,M*2C
$IIVLW,06403,N,000.0,N*52
$HCHDG,271.9,0.0,E,,*24
$IIVWR,130,L,03.2,N,,,,*7C
$IIDPT,007.8,-1.0,*4F
$HCHDG,272.0,0.0,E,,*2E
$GPRMC,185531.6,A,4741.20122,N,12224.26285,W,000.02,000.0,251013,016.6,E,A*24
$GPRMB,A,0.20,L,,Shil,4741.0830,N,12224.5670,W,0.2,240,-0.01,V*10
$PGRME,3.0,M,4.1,M,5.1,M*2C
$IIGLL,4741.201,N,12224.262,W,185500,A,A*4F
$YXXDR,A,5.8,D,PTCH,A,3.0,D,ROLL*53
$IIMTW,+09.0,C*31
$HCHDG,271.9,0.0,E,,*24
$IIMWV,230,R,03.2,N,A*13
$GPRMC,185531.8,A,4741.20121,N,12224.26285,W,000.01,000.0,251013,016.6,E,A*2A
$HCHDG,271.9,0.0,E,,*24
$IIMWV,230,T,03.1,N,A*16
$PGRME,3.0,M,4.0,M,5.1,M*2D
$HCHDG,272.1,0.0,E,,*2F
$GPRMC,185532.0,A,4741.20121,N,12224.26285,W,000.01,000.0,251013,016.6,E,A*21
$HCHDG,272.2,0.0,E,,*2C
$PGRME,3.0,M,4.0,M,5.1,M*2D
$HCHDG,272.2,0.0,E,,*2C
$YXXDR,A,6.2,D,PTCH,A,3.5,D,ROLL*5F
$PTAK,FFD1,3.5*53
$GPRMC,185532.2,A,4741.20121,N,12224.26285,W,000.01,000.0,251013,016.6,E,A*23
$PGRME,3.0,M,4.0,M,5.0,M*2C
$HCHDG,272.2,0.0,E,,*2C
$HCHDG,272.2,0.0,E,,*2C
$IIRMB,A,0.20,L,,Shil,,,,,000.2,240,,V,A*7F
$HCHDG,272.2,0.0,E,,*2C
$GPRMC,185532.4,A,4741.20121,N,12224.26285,W,000.00,000.0,251013,016.6,E,A*24
$PGRME,3.0,M,4.0,M,5.0,M*2C
$IIRMC,185500,A,4741.201,N,12224.262,W,00.0,000,251013,16,E,A*10
$HCHDG,272.3,0.0,E,,*2D
$IIVHW,,,,,00.0,N,,*19
$IIVLW,06403,N,000.0,N*52
$HCHDG,272.0,0.0,E,,*2E
$GPRMC,185532.6,A,4741.20121,N,12224.26285,W,000.01,000.0,251013,016.6,E,A*27
$PGRME,3.0,M,4.0,M,5.0,M*2C
$IIVWR,135,L,03.1,N,,,,*7A
$IIDPT,007.8,-1.0,*4F
$YXXDR,A,6.0,D,PTCH,A,3.8,D,ROLL*50
$HCHDG,272.1,0.0,E,,*2F
$IIGLL,4741.201,N,12224.262,W,185500,A,A*4F
$IIMTW,+09.0,C*31
$HCHDG,272.1,0.0,E,,*2F
$GPRMC,185532.8,A,4741.20122,N,12224.26285,W,000.02,000.0,251013,016.6,E,A*29
$GPRMB,A,0.20,L,,Shil,4741.0830,N,12224.5670,W,0.2,240,-0.01,V*10
$PGRME,3.0,M,4.0,M,5.0,M*2C
$HCHDG,272.0,0.0,E,,*2E
$HCHDG,272.0,0.0,E,,*2E
$GPRMC,185533.0,A,4741.20122,N,12224.26285,W,000.01,000.0,251013,016.6,E,A*23
$PTAK,FFP1,HEEL,@*07
$PGRME,3.0,M,4.0,M,5.0,M*2C
$HCHDG,272.2,0.0,E,,*2C
$YXXDR,A,6.0,D,PTCH,A,4.1,D,ROLL*5E
$GPRMC,185533.2,A,4741.20122,N,12224.26285,W,000.01,000.0,251013,016.6,E,A*21
$PGRME,3.0,M,4.0,M,5.0,M*2C
$HCHDG,272.1,0.0,E,,*2F
$IIMWV,226,R,03.1,N,A*17
$HCHDG,272.1,0.0,E,,*2F
$IIMWV,225,T,03.1,N,A*12
$HCHDG,271.7,0.0,E,,*2A
$GPRMC,185533.4,A,4741.20121,N,12224.26285,W,000.02,000.0,251013,016.6,E,A*27
$PGRME,3.0,M,4.0,M,5.0,M*2C
$IIRMB,A,0.20,L,,Shil,,,,,000.2,240,,V,A*7F
$HCHDG,271.7,0.0,E,,*2A
$IIRMC,185500,A,4741.201,N,12224.262,W,00.0,000,251013,16,E,A*10
$HCHDG,271.5,0.0,E,,*28
$GPRMC,185533.6,A,4741.20121,N,12224.26285,W,000.01,000.0,251013,016.6,E,A*26
$PGRME,3.0,M,3.9,M,5.0,M*22
$IIVHW,,,,,00.0,N,,*19
$IIVLW,06403,N,000.0,N*52
$YXXDR,A,5.9,D,PTCH,A,4.3,D,ROLL*56
$PTAK,FFD1,4.3*52
$IIVWR,134,L,03.1,N,,,,*7B
$HCHDG,271.5,0.0,E,,*28
$IIDPT,007.8,-1.0,*4F
$HCHDG,271.4,0.0,E,,*29
$GPRMC,185533.8,A,4741.20121,N,12224.26285,W,000.01,000.0,251013,016.6,E,A*28
$PGRME,3.0,M,3.9,M,5.0,M*22
$HCHDG,271.4,0.0,E,,*29
$HCHDG,271.4,0.0,E,,*29
$GPRMC,185534.0,A,4741.20121,N,12224.26285,W,000.01,000.0,251013,016.6,E,A*27
$GPRMB,A,0.20,L,,Shil,4741.0830,N,12224.5670,W,0.2,240,-0.00,V*11
$PGRME,3.0,M,3.9,M,5.0,M*22
$HCHDG,271.3,0.0,E,,*2E
$YXXDR,A,5.8,D,PTCH,A,3.9,D,ROLL*5A
$GPRMC,185534.2,A,4741.20121,N,12224.26285,W,000.01,000.0,251013,016.6,E,A*25
$PGRME,3.0,M,3.9,M,5.0,M*22
$HCHDG,271.1,0.0,E,,*2C
$HCHDG,271.2,0.0,E,,*2F
$IIGLL,4741.201,N,12224.262,W,185500,A,A*4F
$IIMTW,+09.0,C*31
$HCHDG,271.2,0.0,E,,*2F
$GPRMC,185534.4,A,4741.20121,N,12224.26285,W,000.01,000.0,251013,016.6,E,A*23
$IIMWV,230,R,03.2,N,A*13
$PGRME,3.0,M,3.9,M,4.9,M*2A
$IIMWV,226,T,03.1,N,A*11
$HCHDG,271.2,0.0,E,,*2F
$IIRMB,A,0.20,L,,Shil,,,,,000.2,240,,V,A*7F
$HCHDG,271.0,0.0,E,,*2D
$GPRMC,185534.6,A,4741.20121,N,12224.26285,W,000.01,000.0,251013,016.6,E,A*21
$PGRME,3.0,M,3.9,M,4.9,M*2A
$YXXDR,A,6.0,D,PTCH,A,3.2,D,ROLL*5A
$IIRMC,185500,A,4741.201,N,12224.262,W,00.0,000,251013,16,E,A*10
$HCHDG,271.1,0.0,E,,*2C
$IIVHW,,,,,00.0,N,,*19
$HCHDG,270.9,0.0,E,,*25
$IIVLW,06403,N,000.0,N*52
$GPRMC,185534.8,A,4741.20121,N,12224.26285,W,000.02,000.0,251013,016.6,E,A*2C
$PGRME,3.0,M,3.9,M,4.9,M*2A
$HCHDG,270.9,0.0,E,,*25
$HCHDG,270.8,0.0,E,,*24
$GPRMC,185535.0,A,4741.20121,N,12224.26285,W,000.02,000.0,251013,016.6,E,A*25
$PGRME,3.0,M,3.9,M,4.9,M*2A
$HCHDG,270.7,0.0,E,,*2B
$YXXDR,A,5.8,D,PTCH,A,3.0,D,ROLL*53
$PTAK,FFD1,3.0*56
$GPRMC,185535.2,A,4741.20121,N,12224.26285,W,000.01,000.0,251013,016.6,E,A*24
$GPRMB,A,0.20,L,,Shil,4741.0830,N,12224.5670,W,0.2,240,-0.00,V*11
$PGRME,3.0,M,3.9,M,4.9,M*2A
$HCHDG,270.7,0.0,E,,*2B
$IIVWR,129,L,03.3,N,,,,*75
$HCHDG,270.7,0.0,E,,*2B
$IIDPT,007.8,-1.0,*4F
$GPRMC,185535.4,A,4741.20121,N,12224.26285,W,000.01,000.0,251013,016.6,E,A*22
$HCHDG,270.6,0.0,E,,*2A
$PGRME,3.0,M,3.9,M,4.9,M*2A
$IIGLL,4741.201,N,12224.262,W,185500,A,A*4F
$IIMTW,+09.0,C*31
$HCHDG,270.6,0.0,E,,*2A
$IIMWV,231,R,03.3,N,A*13
$IIMWV,230,T,03.2,N,A*15
$GPRMC,185535.6,A,4741.20121,N,12224.26285,W,000.01,000.0,251013,016.6,E,A*20
$HCHDG,270.6,0.0,E,,*2A
$PGRME,3.0,M,3.8,M,4.9,M*2B
$IIRMB,A,0.20,L,,Shil,,,,,000.2,240,,V,A*7F
$YXXDR,A,5.7,D,PTCH,A,2.6,D,ROLL*5B
$HCHDG,270.7,0.0,E,,*2B
$IIRMC,185500,A,4741.201,N,12224.262,W,00.0,000,251013,16,E,A*10
$GPRMC,185535.8,A,4741.20121,N,12224.26285,W,000.01,000.0,251013,016.6,E,A*2E
$PGRME,3.0,M,3.8,M,4.9,M*2B
$HCHDG,270.7,0.0,E,,*2B
$HCHDG,270.7,0.0,E,,*2B
$HCHDG,270.8,0.0,E,,*24
$GPRMC,185536.0,A,4741.20121,N,12224.26285,W,000.00,000.0,251013,016.6,E,A*24
$PGRME,3.0,M,3.8,M,4.9,M*2B
$HCHDG,270.9,0.0,E,,*25
$YXXDR,A,5.7,D,PTCH,A,3.4,D,ROLL*58
$GPRMC,185536.2,A,4741.20121,N,12224.26285,W,000.01,000.0,251013,016.6,E,A*27
$PGRME,3.0,M,3.8,M,4.9,M*2B
$HCHDG,271.0,0.0,E,,*2D
$IIVHW,,,,,00.0,N,,*19
$HCHDG,271.2,0.0,E,,*2F
$IIVLW,06403,N,000.0,N*52
$IIVWR,132,L,03.3,N,,,,*7F
$HCHDG,271.2,0.0,E,,*2F
$GPRMC,185536.4,A,4741.20121,N,12224.26285,W,000.00,000.0,251013,016.6,E,A*20
$GPRMB,A,0.20,L,,Shil,4741.0830,N,12224.5670,W,0.2,240,-0.00,V*11
$PGRME,3.0,M,3.8,M,4.9,M*2B
$IIDPT,007.8,-1.0,*4F
$HCHDG,271.2,0.0,E,,*2F
$IIGLL,4741.201,N,12224.262,W,185500,A,A*4F
$IIMTW,+09.0,C*31
$HCHDG,271.2,0.0,E,,*2F
$GPRMC,185536.6,A,4741.20121,N,12224.26285,W,000.01,000.0,251013,016.6,E,A*23
$PGRME,3.0,M,3.8,M,4.9,M*2B
$IIMWV,228,R,03.3,N,A*1B
$IIMWV,231,T,03.3,N,A*15
$YXXDR,A,5.8,D,PTCH,A,4.0,D,ROLL*54
$PTAK,FFD1,4.0*51
$HCHDG,271.3,0.0,E,,*2E
$IIRMB,A,0.20,L,,Shil,,,,,000.2,240,,V,A*7F
$HCHDG,271.3,0.0,E,,*2E
$GPRMC,185536.8,A,4741.20121,N,12224.26285,W,000.01,000.0,251013,016.6,E,A*2D
$PGRME,3.0,M,3.8,M,4.9,M*2B
$HCHDG,271.3,0.0,E,,*2E
$HCHDG,271.3,0.0,E,,*2E
$GPRMC,185537.0,A,4741.20121,N,12224.26285,W,000.00,000.0,251013,016.6,E,A*25
$PGRME,3.0,M,3.8,M,4.9,M*2B
$HCHDG,271.3,0.0,E,,*2E
$PTAK,FFP1,HEEL,@*07
$YXXDR,A,5.9,D,PTCH,A,4.3,D,ROLL*56
$GPRMC,185537.2,A,4741.20121,N,12224.26285,W,000.00,000.0,251013,016.6,E,A*27
$PGRME,3.0,M,3.8,M,4.8,M*2A
$HCHDG,271.3,0.0,E,,*2E
$HCHDG,271.2,0.0,E,,*2F
$IIRMC,185500,A,4741.201,N,12224.262,W,00.0,000,251013,16,E,A*10
$HCHDG,271.2,0.0,E,,*2F
$GPRMC,185537.4,A,4741.20121,N,12224.26285,W,000.00,000.0,251013,016.6,E,A*21
$GPRMB,A,0.20,L,,Shil,4741.0830,N,12224.5670,W,0.2,240,-0.00,V*11
$IIVHW,,,,,00.0,N,,*19
$PGRME,3.0,M,3.8,M,4.8,M*2A
$IIVLW,06403,N,000.0,N*52
$HCHDG,271.2,0.0,E,,*2F
$IIVWR,129,L,03.3,N,,,,*75
$IIDPT,007.8,-1.0,*4F
$HCHDG,271.2,0.0,E,,*2F
$GPRMC,185537.6,A,4741.20121,N,12224.26285,W,000.01,000.0,251013,016.6,E,A*22
$PGRME,3.0,M,3.8,M,4.8,M*2A
$IIGLL,4741.201,N,12224.262,W,185500,A,A*4F
$YXXDR,A,5.8,D,PTCH,A,3.9,D,ROLL*5A
$IIMTW,+09.0,C*31
$HCHDG,271.1,0.0,E,,*2C
$IIMWV,231,R,03.3,N,A*13
$HCHDG,270.9,0.0,E,,*25
$GPRMC,185537.8,A,4741.20121,N,12224.26285,W,000.01,000.0,251013,016.6,E,A*2C
$PGRME,3.0,M,3.7,M,4.8,M*25
$IIMWV,228,T,03.3,N,A*1D
$HCHDG,270.9,0.0,E,,*25
$HCHDG,270.7,0.0,E,,*2B
$GPRMC,185538.0,A,4741.20121,N,12224.26285,W,000.02,000.0,251013,016.6,E,A*28
$PGRME,3.0,M,3.7,M,4.8,M*25
$HCHDG,270.7,0.0,E,,*2B
$YXXDR,A,5.7,D,PTCH,A,3.1,D,ROLL*5D
$PTAK,FFD1,3.1*57
$GPRMC,185538.2,A,4741.20121,N,12224.26285,W,000.01,000.0,251013,016.6,E,A*29
$PGRME,3.0,M,3.7,M,4.8,M*25
$HCHDG,270.7,0.0,E,,*2B
$HCHDG,270.7,0.0,E,,*2B
$IIRMB,A,0.20,L,,Shil,,,,,000.2,240,,V,A*7F
$HCHDG,270.7,0.0,E,,*2B
$GPRMC,185538.4,A,4741.20121,N,12224.26285,W,000.01,000.0,251013,016.6,E,A*2F
$GPRMB,A,0.20,L,,Shil,4741.0830,N,12224.5670,W,0.2,240,-0.00,V*11
$PGRME,3.0,M,3.7,M,4.8,M*25
$IIRMC,185500,A,4741.201,N,12224.262,W,00.0,000,251013,16,E,A*10
$HCHDG,270.6,0.0,E,,*2A
$IIVHW,,,,,00.0,N,,*19
$IIVLW,06403,N,000.0,N*52
$HCHDG,270.5,0.0,E,,*29
$GPRMC,185538.6,A,4741.20121,N,12224.26285,W,000.01,000.0,251013,016.6,E,A*2D
$PGRME,3.0,M,3.7,M,4.8,M*25
$IIVWR,126,L,03.6,N,,,,*7F
$IIDPT,007.8,-1.0,*4F
$YXXDR,A,5.7,D,PTCH,A,2.4,D,ROLL*59
$HCHDG,270.4,0.0,E,,*28
$IIGLL,4741.201,N,12224.262,W,185500,A,A*4F
$IIMTW,+09.0,C*31
$HCHDG,270.4,0.0,E,,*28
$GPRMC,185538.8,A,4741.20121,N,12224.26285,W,000.00,000.0,251013,016.6,E,A*22
$PGRME,3.0,M,3.7,M,4.8,M*25
$HCHDG,270.4,0.0,E,,*28
$HCHDG,270.4,0.0,E,,*28
$GPRMC,185539.0,A,4741.20121,N,12224.26285,W,000.01,000.0,251013,016.6,E,A*2A
$PGRME,3.0,M,3.7,M,4.8,M*25
$HCHDG,270.4,0.0,E,,*28
$YXXDR,A,5.8,D,PTCH,A,2.3,D,ROLL*51
$GPRMC,185539.2,A,4741.20121,N,12224.26285,W,000.01,000.0,251013,016.6,E,A*28
$PGRME,3.0,M,3.7,M,4.8,M*25
$HCHDG,270.3,0.0,E,,*2F
$IIMWV,235,R,03.9,N,A*1D
$HCHDG,270.3,0.0,E,,*2F
$IIMWV,234,T,03.6,N,A*15
$HCHDG,270.3,0.0,E,,*2F
$GPRMC,185539.4,A,4741.20121,N,12224.26285,W,000.01,000.0,251013,016.6,E,A*2E
$GPRMB,A,0.20,L,,Shil,4741.0830,N,12224.5670,W,0.2,240,-0.00,V*11
$PGRME,3.0,M,3.7,M,4.8,M*25
$IIRMB,A,0.20,L,,Shil,,,,,000.2,240,,V,A*7F
$HCHDG,270.2,0.0,E,,*2E
$IIRMC,185500,A,4741.201,N,12224.262,W,00.0,000,251013,16,E,A*10
$GPRMC,185539.6,A,4741.20121,N,12224.26285,W,000.01,000.0,251013,016.6,E,A*2C
$HCHDG,270.2,0.0,E,,*2E
$IIVHW,,,,,00.0,N,,*19
$PGRME,3.0,M,3.7,M,4.8,M*25
$IIVLW,06403,N,000.0,N*52
$YXXDR,A,6.0,D,PTCH,A,3.0,D,ROLL*58
$PTAK,FFD1,3.0*56
$IIVWR,125,L,03.9,N,,,,*73
$HCHDG,270.1,0.0,E,,*2D
$IIDPT,007.8,-1.0,*4F
$HCHDG,270.1,0.0,E,,*2D
$GPRMC,185539.8,A,4741.20121,N,12224.26285,W,000.00,000.0,251013,016.6,E,A*23
$PGRME,3.0,M,3.7,M,4.8,M*25
$HCHDG,270.0,0.0,E,,*2C
$HCHDG,270.0,0.0,E,,*2C
$GPRMC,185540.0,A,4741.20121,N,12224.26285,W,000.01,000.0,251013,016.6,E,A*24
$PGRME,3.0,M,3.7,M,4.8,M*25
$HCHDG,269.9,0.0,E,,*2D
$YXXDR,A,5.8,D,PTCH,A,3.3,D,ROLL*50
$GPRMC,185540.2,A,4741.20121,N,12224.26285,W,000.01,000.0,251013,016.6,E,A*26
$PGRME,3.0,M,3.7,M,4.8,M*25
$HCHDG,269.8,0.0,E,,*2C
$HCHDG,269.8,0.0,E,,*2C
$IIGLL,4741.201,N,12224.262,W,185500,A,A*4F
$IIMTW,+09.0,C*31
$HCHDG,269.6,0.0,E,,*22
$GPRMC,185540.4,A,4741.20121,N,12224.26285,W,000.01,000.0,251013,016.6,E,A*20
$GPRMB,A,0.20,L,,Shil,4741.0830,N,12224.5670,W,0.2,240,-0.00,V*11
$IIMWV,233,R,03.8,N,A*1A
$PGRME,3.0,M,3.6,M,4.8,M*24
$IIMWV,235,T,03.9,N,A*1B
$HCHDG,269.6,0.0,E,,*22
$IIRMB,A,0.20,L,,Shil,,,,,000.2,240,,V,A*7F
$HCHDG,269.5,0.0,E,,*21
$GPRMC,185540.6,A,4741.20121,N,12224.26285,W,000.02,000.0,251013,016.6,E,A*21
$PGRME,3.0,M,3.6,M,4.7,M*2B
$YXXDR,A,5.7,D,PTCH,A,3.3,D,ROLL*5F
$IIRMC,185500,A,4741.201,N,12224.262,W,00.0,000,251013,16,E,A*10
$HCHDG,269.5,0.0,E,,*21
$IIVHW,,,,,00.0,N,,*19
$IIVLW,06403,N,000.0,N*52
$HCHDG,269.4,0.0,E,,*20
$GPRMC,185540.8,A,4741.20121,N,12224.26285,W,000.01,000.0,251013,016.6,E,A*2C
$PGRME,3.0,M,3.6,M,4.7,M*2B
$HCHDG,269.3,0.0,E,,*27
$GPRMC,185541.0,A,4741.20121,N,12224.26285,W,000.01,000.0,251013,016.6,E,A*25
$HCHDG,269.2,0.0,E,,*26
$PGRME,3.0,M,3.6,M,4.7,M*2B
$HCHDG,269.3,0.0,E,,*27
$PTAK,FFP1,HEEL,@*07
$YXXDR,A,5.9,D,PTCH,A,2.6,D,ROLL*55
$PTAK,FFD1,2.6*51
$GPRMC,185541.2,A,4741.20121,N,12224.26285,W,000.01,000.0,251013,016.6,E,A*27
$PGRME,3.0,M,3.6,M,4.7,M*2B
$HCHDG,269.2,0.0,E,,*26
$IIVWR,121,L,04.0,N,,,,*79
$HCHDG,269.0,0.0,E,,*24
$IIDPT,007.8,-1.0,*4F
$HCHDG,269.0,0.0,E,,*24
$GPRMC,185541.4,A,4741.20121,N,12224.26285,W,000.02,000.0,251013,016.6,E,A*22
$PGRME,3.0,M,3.6,M,4.7,M*2B
$IIGLL,4741.201,N,12224.262,W,185500,A,A*4F
$IIMTW,+09.0,C*31
$HCHDG,268.9,0.0,E,,*2C
$IIMWV,239,R,04.0,N,A*1F
$IIMWV,233,T,03.8,N,A*1C
$HCHDG,268.6,0.0,E,,*23
$GPRMC,185541.6,A,4741.20121,N,12224.26284,W,000.01,000.0,251013,016.6,E,A*22
$GPRMB,A,0.20,L,,Shil,4741.0830,N,12224.5670,W,0.2,240,-0.00,V*11
$PGRME,3.0,M,3.6,M,4.7,M*2B
$IIRMB,A,0.20,L,,Shil,,,,,000.2,240,,V,A*7F
$YXXDR,A,5.8,D,PTCH,A,1.3,D,ROLL*52
$HCHDG,268.5,0.0,E,,*20
$IIRMC,185500,A,4741.201,N,12224.262,W,00.0,000,251013,16,E,A*10
$GPRMC,185541.8,A,4741.20121,N,12224.26284,W,000.01,000.0,251013,016.6,E,A*2C
$HCHDG,268.5,0.0,E,,*20
$PGRME,3.0,M,3.6,M,4.7,M*2B
$HCHDG,268.5,0.0,E,,*20
$HCHDG,268.6,0.0,E,,*23
$GPRMC,185542.0,A,4741.20121,N,12224.26284,W,000.01,000.0,251013,016.6,E,A*27
$PGRME,3.0,M,3.6,M,4.7,M*2B
$HCHDG,268.5,0.0,E,,*20
$YXXDR,A,5.8,D,PTCH,A,1.1,D,ROLL*50
