$GPRMC,220000.6,A,4741.19682,N,12224.24041,W,000.01,135.6,271013,016.6,E,D*25
$PGRME,2.4,M,2.4,M,3.4,M*29
$HCHDG,273.4,0.0,E,,*2B
$HCHDG,273.5,0.0,E,,*2A
$GPRMC,220000.8,A,4741.19682,N,12224.24041,W,000.02,135.6,271013,016.6,E,D*28
$PGRME,2.4,M,2.4,M,3.4,M*29
$HCHDG,273.4,0.0,E,,*2B
$HCHDG,273.6,0.0,E,,*29
$GPRMC,220001.0,A,4741.19682,N,12224.24041,W,000.04,135.6,271013,016.6,E,D*27
$PGRME,2.4,M,2.4,M,3.4,M*29
$YXXDR,A,4.9,D,PTCH,A,0.1,D,ROLL*51
$HCHDG,273.8,0.0,E,,*27
$HCHDG,273.8,0.0,E,,*27
$PTAK,FFP1,HEEL,@*07
$GPRMC,220001.2,A,4741.19682,N,12224.24041,W,000.03,135.6,271013,016.6,E,D*22
$GPRMB,A,0.00,L,Shil,Shil,4741.0830,N,12224.5670,W,0.2,243,-0.01,V*2F
$PGRME,2.4,M,2.4,M,3.4,M*29
$HCHDG,274.0,0.0,E,,*28
$HCHDG,274.2,0.0,E,,*2A
$GPRMC,220001.4,A,4741.19682,N,12224.24040,W,000.03,135.6,271013,016.6,E,D*25
$PGRME,2.4,M,2.4,M,3.4,M*29
$HCHDG,274.0,0.0,E,,*28
$YXXDR,A,5.0,D,PTCH,A,0.7,D,ROLL*5F
$PTAK,FFD1,0.7*52
$HCHDG,274.2,0.0,E,,*2A
$GPRMC,220001.6,A,4741.19682,N,12224.24040,W,000.06,135.6,271013,016.6,E,D*22
$PGRME,2.4,M,2.4,M,3.4,M*29
$HCHDG,274.1,0.0,E,,*29
$HCHDG,274.0,0.0,E,,*28
$GPRMC,220001.8,A,4741.19682,N,12224.24040,W,000.04,135.6,271013,016.6,E,D*2E
$PGRME,2.4,M,2.4,M,3.4,M*29
$HCHDG,273.9,0.0,E,,*26
$HCHDG,273.8,0.0,E,,*27
$GPRMC,220002.0,A,4741.19682,N,12224.24040,W,000.02,135.6,271013,016.6,E,D*23
$PGRME,2.4,M,2.4,M,3.4,M*29
$YXXDR,A,5.7,D,PTCH,A,2.4,D,ROLL*59
$HCHDG,273.6,0.0,E,,*29
$HCHDG,273.5,0.0,E,,*2A
$GPRMC,220002.2,A,4741.19682,N,12224.24040,W,000.01,135.6,271013,016.6,E,D*22
$PGRME,2.4,M,2.4,M,3.4,M*29
$HCHDG,273.2,0.0,E,,*2D
$HCHDG,273.0,0.0,E,,*2F
$GPRMC,220002.4,A,4741.19682,N,12224.24040,W,000.01,135.6,271013,016.6,E,D*24
$GPRMB,A,0.00,L,Shil,Shil,4741.0830,N,12224.5670,W,0.2,243,-0.00,V*2E
$PGRME,2.4,M,2.4,M,3.4,M*29
$HCHDG,272.8,0.0,E,,*26
$YXXDR,A,5.7,D,PTCH,A,2.5,D,ROLL*58
$PTAK,FFD1,2.5*52
$HCHDG,272.5,0.0,E,,*2B
$GPRMC,220002.6,A,4741.19682,N,12224.24040,W,000.03,135.6,271013,016.6,E,D*24
$PGRME,2.4,M,2.4,M,3.4,M*29
$HCHDG,272.4,0.0,E,,*2A
$HCHDG,272.4,0.0,E,,*2A
$GPRMC,220002.8,A,4741.19682,N,12224.24040,W,000.01,135.6,271013,016.6,E,D*28
$PGRME,2.4,M,2.4,M,3.4,M*29
$HCHDG,272.2,0.0,E,,*2C
$HCHDG,272.3,0.0,E,,*2D
$GPRMC,220003.0,A,4741.19682,N,12224.24040,W,000.02,135.6,271013,016.6,E,D*22
$PGRME,2.4,M,2.4,M,3.4,M*29
$YXXDR,A,5.1,D,PTCH,A,2.4,D,ROLL*5F
$HCHDG,272.3,0.0,E,,*2D
$HCHDG,272.4,0.0,E,,*2A
$GPRMC,220003.2,A,4741.19682,N,12224.24040,W,000.01,135.6,271013,016.6,E,D*23
$PGRME,2.4,M,2.4,M,3.4,M*29
$HCHDG,272.6,0.0,E,,*28
$HCHDG,272.6,0.0,E,,*28
$GPRMC,220003.4,A,4741.19682,N,12224.24040,W,000.02,135.6,271013,016.6,E,D*26
$PGRME,2.4,M,2.4,M,3.4,M*29
$HCHDG,272.9,0.0,E,,*27
$YXXDR,A,5.0,D,PTCH,A,1.4,D,ROLL*5D
$HCHDG,272.9,0.0,E,,*27
$GPRMC,220003.6,A,4741.19682,N,12224.24040,W,000.02,135.6,271013,016.6,E,D*24
$GPRMB,A,0.00,L,Shil,Shil,4741.0830,N,12224.5670,W,0.2,243,-0.01,V*2F
$PGRME,2.4,M,2.4,M,3.4,M*29
$HCHDG,273.0,0.0,E,,*2F
$HCHDG,273.1,0.0,E,,*2E
$GPRMC,220003.8,A,4741.19682,N,12224.24039,W,000.03,135.6,271013,016.6,E,D*25
$PGRME,2.4,M,2.4,M,3.4,M*29
$HCHDG,273.4,0.0,E,,*2B
$HCHDG,273.3,0.0,E,,*2C
$GPRMC,220004.0,A,4741.19682,N,12224.24039,W,000.18,135.6,271013,016.6,E,D*20
$PGRME,2.4,M,2.4,M,3.4,M*29
$YXXDR,A,5.1,D,PTCH,A,0.3,D,ROLL*5A
$PTAK,FFD1,0.3*56
$HCHDG,273.2,0.0,E,,*2D
$HCHDG,273.4,0.0,E,,*2B
$GPRMC,220004.2,A,4741.19682,N,12224.24039,W,000.07,135.6,271013,016.6,E,D*2C
$PGRME,2.4,M,2.4,M,3.4,M*29
$HCHDG,273.5,0.0,E,,*2A
$HCHDG,273.5,0.0,E,,*2A
$GPRMC,220004.4,A,4741.19682,N,12224.24039,W,000.02,135.6,271013,016.6,E,D*2F
$PGRME,2.4,M,2.4,M,3.4,M*29
$HCHDG,273.5,0.0,E,,*2A
$YXXDR,A,5.8,D,PTCH,A,3.3,D,ROLL*50
$HCHDG,273.5,0.0,E,,*2A
$GPRMC,220004.6,A,4741.19682,N,12224.24039,W,000.04,135.6,271013,016.6,E,D*2B
$GPRMB,A,0.00,L,Shil,Shil,4741.0830,N,12224.5670,W,0.2,243,-0.01,V*2F
$PGRME,2.4,M,2.4,M,3.4,M*29
$HCHDG,273.5,0.0,E,,*2A
$HCHDG,273.6,0.0,E,,*29
$GPRMC,220004.8,A,4741.19682,N,12224.24039,W,000.06,135.6,271013,016.6,E,D*27
$PGRME,2.4,M,2.4,M,3.4,M*29
$HCHDG,273.6,0.0,E,,*29
$HCHDG,273.7,0.0,E,,*28
$GPRMC,220005.0,A,4741.19682,N,12224.24039,W,000.03,135.6,271013,016.6,E,D*2B
$PGRME,2.4,M,2.4,M,3.4,M*29
$YXXDR,A,5.6,D,PTCH,A,2.3,D,ROLL*5F
$PTAK,FFD1,2.3*54
$HCHDG,273.5,0.0,E,,*2A
$HCHDG,273.6,0.0,E,,*29
$GPRMC,220005.2,A,4741.19682,N,12224.24039,W,000.03,135.6,271013,016.6,E,D*29
$PTAK,FFP1,HEEL,@*07
$PGRME,2.4,M,2.4,M,3.4,M*29
$HCHDG,273.6,0.0,E,,*29
$HCHDG,273.3,0.0,E,,*2C
$GPRMC,220005.4,A,4741.19682,N,12224.24039,W,000.02,135.6,271013,016.6,E,D*2E
$PGRME,2.4,M,2.4,M,3.4,M*29
$HCHDG,273.3,0.0,E,,*2C
$YXXDR,A,5.0,D,PTCH,A,1.0,D,ROLL*59
$HCHDG,273.4,0.0,E,,*2B
$GPRMC,220005.6,A,4741.19682,N,12224.24039,W,000.03,135.6,271013,016.6,E,D*2D
$GPRMB,A,0.00,L,Shil,Shil,4741.0830,N,12224.5670,W,0.2,243,-0.01,V*2F
$PGRME,2.4,M,2.4,M,3.4,M*29
$HCHDG,273.1,0.0,E,,*2E
$HCHDG,273.3,0.0,E,,*2C
$GPRMC,220005.8,A,4741.19682,N,12224.24038,W,000.01,135.6,271013,016.6,E,D*20
$PGRME,2.4,M,2.4,M,3.4,M*29
$HCHDG,273.2,0.0,E,,*2D
$HCHDG,273.4,0.0,E,,*2B
$GPRMC,220006.0,A,4741.19683,N,12224.24038,W,000.03,135.6,271013,016.6,E,D*28
$PGRME,2.4,M,2.4,M,3.4,M*29
$YXXDR,A,4.8,D,PTCH,A,1.0,D,ROLL*50
$HCHDG,273.6,0.0,E,,*29
$HCHDG,273.5,0.0,E,,*2A
$GPRMC,220006.2,A,4741.19683,N,12224.24038,W,000.01,135.6,271013,016.6,E,D*28
$PGRME,2.4,M,2.4,M,3.4,M*29
$HCHDG,273.7,0.0,E,,*28
$HCHDG,273.8,0.0,E,,*27
$GPRMC,220006.4,A,4741.19683,N,12224.24038,W,000.00,135.6,271013,016.6,E,D*2F
$PGRME,2.4,M,2.4,M,3.4,M*29
$HCHDG,273.9,0.0,E,,*26
$YXXDR,A,5.1,D,PTCH,A,1.0,D,ROLL*58
$PTAK,FFD1,1.0*54
$HCHDG,273.9,0.0,E,,*26
$GPRMC,220006.6,A,4741.19683,N,12224.24038,W,000.01,135.6,271013,016.6,E,D*2C
$GPRMB,A,0.00,L,Shil,Shil,4741.0830,N,12224.5670,W,0.2,243,-0.00,V*2E
$PGRME,2.4,M,2.4,M,3.4,M*29
$HCHDG,273.9,0.0,E,,*26
$HCHDG,274.0,0.0,E,,*28
$GPRMC,220006.8,A,4741.19683,N,12224.24038,W,000.01,135.6,271013,016.6,E,D*22
$PGRME,2.4,M,2.4,M,3.4,M*29
$HCHDG,274.0,0.0,E,,*28
$HCHDG,274.0,0.0,E,,*28
$GPRMC,220007.0,A,4741.19683,N,12224.24038,W,000.03,135.6,271013,016.6,E,D*29
$PGRME,2.4,M,2.4,M,3.4,M*29
$YXXDR,A,5.2,D,PTCH,A,2.1,D,ROLL*59
$HCHDG,273.9,0.0,E,,*26
$HCHDG,273.9,0.0,E,,*26
$GPRMC,220007.2,A,4741.19683,N,12224.24038,W,000.00,135.6,271013,016.6,E,D*28
$PGRME,2.4,M,2.4,M,3.4,M*29
$HCHDG,274.0,0.0,E,,*28
$HCHDG,274.1,0.0,E,,*29
$GPRMC,220007.4,A,4741.19683,N,12224.24038,W,000.01,135.6,271013,016.6,E,D*2F
$PGRME,2.4,M,2.4,M,3.4,M*29
$HCHDG,274.0,0.0,E,,*28
$YXXDR,A,5.3,D,PTCH,A,2.6,D,ROLL*5F
$HCHDG,273.9,0.0,E,,*26
$GPRMC,220007.6,A,4741.19683,N,12224.24038,W,000.01,135.6,271013,016.6,E,D*2D
$PGRME,2.4,M,2.4,M,3.4,M*29
$HCHDG,273.9,0.0,E,,*26
$HCHDG,273.8,0.0,E,,*27
$GPRMC,220007.8,A,4741.19683,N,12224.24038,W,000.02,135.6,271013,016.6,E,D*20
$GPRMB,A,0.00,L,Shil,Shil,4741.0830,N,12224.5670,W,0.2,243,-0.01,V*2F
$PGRME,2.4,M,2.4,M,3.4,M*29
$HCHDG,274.0,0.0,E,,*28
$HCHDG,273.9,0.0,E,,*26
$GPRMC,220008.0,A,4741.19683,N,12224.24038,W,000.03,135.6,271013,016.6,E,D*26
$PGRME,2.4,M,2.4,M,3.4,M*29
$YXXDR,A,4.9,D,PTCH,A,3.1,D,ROLL*52
$PTAK,FFD1,3.1*57
$HCHDG,274.1,0.0,E,,*29
$HCHDG,274.1,0.0,E,,*29
$GPRMC,220008.2,A,4741.19683,N,12224.24038,W,000.01,135.6,271013,016.6,E,D*26
$PGRME,2.4,M,2.4,M,3.4,M*29
$HCHDG,274.2,0.0,E,,*2A
$HCHDG,274.3,0.0,E,,*2B
$GPRMC,220008.4,A,4741.19683,N,12224.24038,W,000.01,135.6,271013,016.6,E,D*20
$PGRME,2.4,M,2.4,M,3.4,M*29
$HCHDG,274.3,0.0,E,,*2B
$YXXDR,A,5.2,D,PTCH,A,3.2,D,ROLL*5B
$HCHDG,274.5,0.0,E,,*2D
$GPRMC,220008.6,A,4741.19683,N,12224.24037,W,000.01,135.6,271013,016.6,E,D*2D
$PGRME,2.4,M,2.4,M,3.4,M*29
$HCHDG,274.4,0.0,E,,*2C
$HCHDG,274.6,0.0,E,,*2E
$GPRMC,220008.8,A,4741.19682,N,12224.24037,W,000.04,135.6,271013,016.6,E,D*27
$GPRMB,A,0.00,L,Shil,Shil,4741.0830,N,12224.5670,W,0.2,243,-0.01,V*2F
$PGRME,2.4,M,2.4,M,3.4,M*29
$HCHDG,274.7,0.0,E,,*2F
$HCHDG,274.9,0.0,E,,*21
$GPRMC,220009.0,A,4741.19682,N,12224.24037,W,000.01,135.6,271013,016.6,E,D*2B
$PGRME,2.4,M,2.4,M,3.4,M*29
$YXXDR,A,5.2,D,PTCH,A,2.6,D,ROLL*5E
$HCHDG,274.9,0.0,E,,*21
$HCHDG,275.0,0.0,E,,*29
$GPRMC,220009.2,A,4741.19682,N,12224.24037,W,000.01,135.6,271013,016.6,E,D*29
$PTAK,FFP1,HEEL,@*07
$PGRME,2.4,M,2.4,M,3.4,M*29
$HCHDG,274.9,0.0,E,,*21
$HCHDG,275.0,0.0,E,,*29
$GPRMC,220009.4,A,4741.19682,N,12224.24037,W,000.02,135.6,271013,016.6,E,D*2C
$PGRME,2.4,M,2.4,M,3.4,M*29
$HCHDG,275.0,0.0,E,,*29
$YXXDR,A,5.4,D,PTCH,A,2.0,D,ROLL*5E
$PTAK,FFD1,2.0*57
$HCHDG,275.1,0.0,E,,*28
$GPRMC,220009.6,A,4741.19682,N,12224.24037,W,000.00,135.6,271013,016.6,E,D*2C
$PGRME,2.4,M,2.4,M,3.4,M*29
$HCHDG,275.0,0.0,E,,*29
$HCHDG,274.9,0.0,E,,*21
$GPRMC,220009.8,A,4741.19682,N,12224.24037,W,000.02,135.6,271013,016.6,E,D*20
$GPRMB,A,0.00,L,Shil,Shil,4741.0830,N,12224.5670,W,0.2,243,-0.01,V*2F
$PGRME,2.4,M,2.4,M,3.4,M*29
$HCHDG,275.0,0.0,E,,*29
$HCHDG,275.0,0.0,E,,*29
$GPRMC,220010.0,A,4741.19682,N,12224.24037,W,000.02,135.6,271013,016.6,E,D*20
$PGRME,2.4,M,2.4,M,3.4,M*29
$YXXDR,A,5.4,D,PTCH,A,1.8,D,ROLL*55
$HCHDG,274.9,0.0,E,,*21
$HCHDG,274.8,0.0,E,,*20
$GPRMC,220010.2,A,4741.19682,N,12224.24037,W,000.02,135.6,271013,016.6,E,D*22
$PGRME,2.4,M,2.4,M,3.4,M*29
$HCHDG,274.6,0.0,E,,*2E
$HCHDG,274.6,0.0,E,,*2E
$GPRMC,220010.4,A,4741.19683,N,12224.24037,W,000.01,135.6,271013,016.6,E,D*26
$PGRME,2.4,M,2.4,M,3.4,M*29
$HCHDG,274.5,0.0,E,,*2D
$YXXDR,A,5.4,D,PTCH,A,2.4,D,ROLL*5A
$HCHDG,274.3,0.0,E,,*2B
$GPRMC,220010.6,A,4741.19683,N,12224.24037,W,000.02,135.6,271013,016.6,E,D*27
$PGRME,2.4,M,2.4,M,3.4,M*29
$HCHDG,274.2,0.0,E,,*2A
$HCHDG,274.2,0.0,E,,*2A
$GPRMC,220010.8,A,4741.19682,N,12224.24037,W,000.01,135.6,271013,016.6,E,D*2B
$PGRME,2.4,M,2.4,M,3.4,M*29
$HCHDG,274.3,0.0,E,,*2B
$HCHDG,274.4,0.0,E,,*2C
$GPRMC,220011.0,A,4741.19683,N,12224.24037,W,000.02,135.6,271013,016.6,E,D*20
$GPRMB,A,0.00,L,Shil,Shil,4741.0830,N,12224.5670,W,0.2,243,-0.01,V*2F
$PGRME,2.4,M,2.4,M,3.4,M*29
$YXXDR,A,5.4,D,PTCH,A,4.2,D,ROLL*5A
$PTAK,FFD1,4.2*53
$HCHDG,274.6,0.0,E,,*2E
$HCHDG,274.6,0.0,E,,*2E
$GPRMC,220011.2,A,4741.19683,N,12224.24037,W,000.01,135.6,271013,016.6,E,D*21
$PGRME,2.4,M,2.4,M,3.4,M*29
$HCHDG,274.4,0.0,E,,*2C
$HCHDG,274.5,0.0,E,,*2D
$GPRMC,220011.4,A,4741.19683,N,12224.24037,W,000.01,135.6,271013,016.6,E,D*27
$PGRME,2.4,M,2.4,M,3.4,M*29
$HCHDG,274.5,0.0,E,,*2D
$YXXDR,A,5.3,D,PTCH,A,4.0,D,ROLL*5F
$HCHDG,274.6,0.0,E,,*2E
$GPRMC,220011.6,A,4741.19683,N,12224.24037,W,000.03,135.6,271013,016.6,E,D*27
$PGRME,2.4,M,2.4,M,3.4,M*29
$HCHDG,274.7,0.0,E,,*2F
$HCHDG,274.8,0.0,E,,*20
$GPRMC,220011.8,A,4741.19682,N,12224.24036,W,000.02,135.6,271013,016.6,E,D*28
$PGRME,2.4,M,2.4,M,3.4,M*29
$HCHDG,274.9,0.0,E,,*21
$HCHDG,274.9,0.0,E,,*21
$GPRMC,220012.0,A,4741.19683,N,12224.24036,W,000.01,135.6,271013,016.6,E,D*21
$GPRMB,A,0.00,L,Shil,Shil,4741.0830,N,12224.5670,W,0.2,243,-0.00,V*2E
$PGRME,2.4,M,2.4,M,3.4,M*29
$YXXDR,A,5.1,D,PTCH,A,2.3,D,ROLL*58
$HCHDG,274.7,0.0,E,,*2F
$HCHDG,274.7,0.0,E,,*2F
$GPRMC,220012.2,A,4741.19682,N,12224.24036,W,000.01,135.6,271013,016.6,E,D*22
$PGRME,2.4,M,2.4,M,3.4,M*29
$HCHDG,274.9,0.0,E,,*21
$HCHDG,274.8,0.0,E,,*20
$GPRMC,220012.4,A,4741.19682,N,12224.24036,W,000.03,135.6,271013,016.6,E,D*26
$PGRME,2.4,M,2.4,M,3.4,M*29
$HCHDG,274.7,0.0,E,,*2F
$YXXDR,A,5.2,D,PTCH,A,1.2,D,ROLL*59
$PTAK,FFD1,1.2*56
$HCHDG,274.6,0.0,E,,*2E
$GPRMC,220012.6,A,4741.19682,N,12224.24036,W,000.01,135.6,271013,016.6,E,D*26
$PGRME,2.4,M,2.4,M,3.4,M*29
$HCHDG,274.5,0.0,E,,*2D
$HCHDG,274.3,0.0,E,,*2B
$GPRMC,220012.8,A,4741.19682,N,12224.24036,W,000.02,135.6,271013,016.6,E,D*2B
$PGRME,2.4,M,2.4,M,3.4,M*29
$HCHDG,274.1,0.0,E,,*29
$HCHDG,274.2,0.0,E,,*2A
$GPRMC,220013.0,A,4741.19682,N,12224.24036,W,000.04,135.6,271013,016.6,E,D*24
$PGRME,2.4,M,2.4,M,3.4,M*29
$YXXDR,A,5.2,D,PTCH,A,2.0,D,ROLL*58
$HCHDG,274.0,0.0,E,,*28
$HCHDG,273.8,0.0,E,,*27
$GPRMC,220013.2,A,4741.19682,N,12224.24036,W,000.00,135.6,271013,016.6,E,D*22
$GPRMB,A,0.00,L,Shil,Shil,4741.0830,N,12224.5670,W,0.2,243,-0.00,V*2E
$PTAK,FFP1,HEEL,@*07
$PGRME,2.4,M,2.4,M,3.4,M*29
$HCHDG,273.9,0.0,E,,*26
$HCHDG,273.8,0.0,E,,*27
$GPRMC,220013.4,A,4741.19682,N,12224.24036,W,000.02,135.6,271013,016.6,E,D*26
$PGRME,2.4,M,2.4,M,3.4,M*29
$HCHDG,273.9,0.0,E,,*26
$YXXDR,A,5.4,D,PTCH,A,3.1,D,ROLL*5E
$PTAK,FFD1,3.1*57
$HCHDG,273.9,0.0,E,,*26
$GPRMC,220013.6,A,4741.19682,N,12224.24036,W,000.01,135.6,271013,016.6,E,D*27
$PGRME,2.4,M,2.4,M,3.4,M*29
$HCHDG,274.0,0.0,E,,*28
$HCHDG,274.0,0.0,E,,*28
$GPRMC,220013.8,A,4741.19682,N,12224.24036,W,000.01,135.6,271013,016.6,E,D*29
$PGRME,2.4,M,2.4,M,3.4,M*29
$HCHDG,274.2,0.0,E,,*2A
$HCHDG,274.1,0.0,E,,*29
$GPRMC,220014.0,A,4741.19682,N,12224.24036,W,000.01,135.6,271013,016.6,E,D*26
$PGRME,2.4,M,2.4,M,3.4,M*29
$YXXDR,A,5.2,D,PTCH,A,2.6,D,ROLL*5E
$HCHDG,274.2,0.0,E,,*2A
$HCHDG,274.1,0.0,E,,*29
$GPRMC,220014.2,A,4741.19682,N,12224.24036,W,000.02,135.6,271013,016.6,E,D*27
$GPRMB,A,0.00,L,Shil,Shil,4741.0830,N,12224.5670,W,0.2,243,-0.01,V*2F
$PGRME,2.4,M,2.4,M,3.4,M*29
$HCHDG,274.0,0.0,E,,*28
$HCHDG,274.0,0.0,E,,*28
$GPRMC,220014.4,A,4741.19682,N,12224.24036,W,000.01,135.6,271013,016.6,E,D*22
$PGRME,2.4,M,2.4,M,3.4,M*29
$HCHDG,274.0,0.0,E,,*28
$YXXDR,A,5.4,D,PTCH,A,1.4,D,ROLL*59
$PTAK,FFD1,1.4*50
$HCHDG,273.9,0.0,E,,*26
$GPRMC,220014.6,A,4741.19682,N,12224.24036,W,000.02,135.6,271013,016.6,E,D*23
$PGRME,2.4,M,2.4,M,3.4,M*29
$HCHDG,273.8,0.0,E,,*27
$HCHDG,273.6,0.0,E,,*29
$GPRMC,220014.8,A,4741.19682,N,12224.24036,W,000.02,135.6,271013,016.6,E,D*2D
$PGRME,2.4,M,2.4,M,3.4,M*29
$HCHDG,273.5,0.0,E,,*2A
$HCHDG,273.5,0.0,E,,*2A
$GPRMC,220015.0,A,4741.19682,N,12224.24035,W,000.01,135.6,271013,016.6,E,D*24
$PGRME,2.4,M,2.4,M,3.4,M*29
$YXXDR,A,5.2,D,PTCH,A,1.1,D,ROLL*5A
$HCHDG,273.4,0.0,E,,*2B
$HCHDG,273.2,0.0,E,,*2D
$GPRMC,220015.2,A,4741.19683,N,12224.24035,W,000.02,135.6,271013,016.6,E,D*24
$PGRME,2.4,M,2.4,M,3.4,M*29
$HCHDG,273.1,0.0,E,,*2E
$HCHDG,273.1,0.0,E,,*2E
$GPRMC,220015.4,A,4741.19683,N,12224.24035,W,000.01,135.6,271013,016.6,E,D*21
$GPRMB,A,0.00,L,Shil,Shil,4741.0830,N,12224.5670,W,0.2,243,-0.00,V*2E
$PGRME,2.4,M,2.4,M,3.4,M*29
$HCHDG,273.0,0.0,E,,*2F
$YXXDR,A,5.1,D,PTCH,A,1.5,D,ROLL*5D
$PTAK,FFD1,1.5*51
$HCHDG,273.1,0.0,E,,*2E
$GPRMC,220015.6,A,4741.19683,N,12224.24035,W,000.00,135.6,271013,016.6,E,D*22
$PGRME,2.4,M,2.4,M,3.4,M*29
$HCHDG,273.2,0.0,E,,*2D
$HCHDG,273.3,0.0,E,,*2C
$GPRMC,220015.8,A,4741.19683,N,12224.24035,W,000.02,135.6,271013,016.6,E,D*2E
$PGRME,2.4,M,2.4,M,3.4,M*29
$HCHDG,273.3,0.0,E,,*2C
$HCHDG,273.4,0.0,E,,*2B
$GPRMC,220016.0,A,4741.19683,N,12224.24035,W,000.02,135.6,271013,016.6,E,D*25
$PGRME,2.4,M,2.4,M,3.4,M*29
$YXXDR,A,5.2,D,PTCH,A,3.4,D,ROLL*5D
$HCHDG,273.7,0.0,E,,*28
$HCHDG,273.9,0.0,E,,*26
$GPRMC,220016.2,A,4741.19683,N,12224.24035,W,000.04,135.6,271013,016.6,E,D*21
$PGRME,2.4,M,2.4,M,3.4,M*29
$HCHDG,273.8,0.0,E,,*27
$HCHDG,274.1,0.0,E,,*29
$GPRMC,220016.4,A,4741.19683,N,12224.24035,W,000.01,135.6,271013,016.6,E,D*22
$GPRMB,A,0.00,L,Shil,Shil,4741.0830,N,12224.5670,W,0.2,243,-0.00,V*2E
$PGRME,2.4,M,2.4,M,3.4,M*29
$HCHDG,274.3,0.0,E,,*2B
$YXXDR,A,5.1,D,PTCH,A,2.4,D,ROLL*5F
$PTAK,FFD1,2.4*53
$HCHDG,274.3,0.0,E,,*2B
$GPRMC,220016.6,A,4741.19683,N,12224.24035,W,000.02,135.6,271013,016.6,E,D*23
$PGRME,2.4,M,2.4,M,3.4,M*29
$HCHDG,274.5,0.0,E,,*2D
$HCHDG,274.7,0.0,E,,*2F
$GPRMC,220016.8,A,4741.19683,N,12224.24035,W,000.01,135.6,271013,016.6,E,D*2E
$PGRME,2.4,M,2.4,M,3.4,M*29
$HCHDG,274.7,0.0,E,,*2F
$HCHDG,274.8,0.0,E,,*20
$GPRMC,220017.0,A,4741.19683,N,12224.24035,W,000.00,135.6,271013,016.6,E,D*26
$PGRME,2.4,M,2.4,M,3.4,M*29
$YXXDR,A,5.3,D,PTCH,A,2.2,D,ROLL*5B
$HCHDG,274.7,0.0,E,,*2F
$HCHDG,274.7,0.0,E,,*2F
$GPRMC,220017.2,A,4741.19683,N,12224.24035,W,000.01,135.6,271013,016.6,E,D*25
$PTAK,FFP1,HEEL,@*07
$PGRME,2.4,M,2.4,M,3.4,M*29
$HCHDG,274.8,0.0,E,,*20
$HCHDG,274.7,0.0,E,,*2F
$GPRMC,220017.4,A,4741.19683,N,12224.24035,W,000.02,135.6,271013,016.6,E,D*20
$GPRMB,A,0.00,L,Shil,Shil,4741.0830,N,12224.5670,W,0.2,243,-0.01,V*2F
$PGRME,2.4,M,2.4,M,3.4,M*29
$HCHDG,274.6,0.0,E,,*2E
$YXXDR,A,5.6,D,PTCH,A,1.7,D,ROLL*58
$HCHDG,274.7,0.0,E,,*2F
$GPRMC,220017.6,A,4741.19683,N,12224.24035,W,000.00,135.6,271013,016.6,E,D*20
$PGRME,2.4,M,2.4,M,3.4,M*29
$HCHDG,274.5,0.0,E,,*2D
$HCHDG,274.2,0.0,E,,*2A
$GPRMC,220017.8,A,4741.19683,N,12224.24035,W,000.00,135.6,271013,016.6,E,D*2E
$PGRME,2.4,M,2.4,M,3.4,M*29
$HCHDG,274.1,0.0,E,,*29
$HCHDG,274.0,0.0,E,,*28
$GPRMC,220018.0,A,4741.19682,N,12224.24035,W,000.01,135.6,271013,016.6,E,D*29
$PGRME,2.4,M,2.4,M,3.4,M*29
$YXXDR,A,5.4,D,PTCH,A,2.0,D,ROLL*5E
$PTAK,FFD1,2.0*57
$HCHDG,273.8,0.0,E,,*27
$HCHDG,273.6,0.0,E,,*29
$GPRMC,220018.2,A,4741.19683,N,12224.24035,W,000.03,135.6,271013,016.6,E,D*28
$PGRME,2.4,M,2.4,M,3.4,M*29
$HCHDG,273.6,0.0,E,,*29
$HCHDG,273.6,0.0,E,,*29
$GPRMC,220018.4,A,4741.19683,N,12224.24035,W,000.00,135.6,271013,016.6,E,D*2D
$PGRME,2.4,M,2.4,M,3.4,M*29
$HCHDG,273.4,0.0,E,,*2B
$YXXDR,A,5.0,D,PTCH,A,1.9,D,ROLL*50
$HCHDG,273.4,0.0,E,,*2B
$GPRMC,220018.6,A,4741.19683,N,12224.24035,W,000.01,135.6,271013,016.6,E,D*2E
$GPRMB,A,0.00,L,Shil,Shil,4741.0830,N,12224.5670,W,0.2,243,-0.00,V*2E
$PGRME,2.4,M,2.4,M,3.4,M*29
$HCHDG,273.6,0.0,E,,*29
$HCHDG,273.6,0.0,E,,*29
$GPRMC,220018.8,A,4741.19683,N,12224.24035,W,000.00,135.6,271013,016.6,E,D*21
$PGRME,2.4,M,2.4,M,3.4,M*29
$HCHDG,273.7,0.0,E,,*28
$HCHDG,273.9,0.0,E,,*26
$GPRMC,220019.0,A,4741.19683,N,12224.24034,W,000.00,135.6,271013,016.6,E,D*29
$PGRME,2.4,M,2.4,M,3.4,M*29
$YXXDR,A,5.0,D,PTCH,A,3.7,D,ROLL*5C
$HCHDG,273.9,0.0,E,,*26
$HCHDG,274.1,0.0,E,,*29
$GPRMC,220019.2,A,4741.19683,N,12224.24034,W,000.01,135.6,271013,016.6,E,D*2A
$PGRME,2.4,M,2.4,M,3.4,M*29
$HCHDG,274.2,0.0,E,,*2A
$HCHDG,274.4,0.0,E,,*2C
$GPRMC,220019.4,A,4741.19683,N,12224.24034,W,000.01,135.6,271013,016.6,E,D*2C
$PGRME,2.4,M,2.4,M,3.4,M*29
$HCHDG,274.4,0.0,E,,*2C
$YXXDR,A,5.2,D,PTCH,A,3.5,D,ROLL*5C
$PTAK,FFD1,3.5*53
$HCHDG,274.6,0.0,E,,*2E
$GPRMC,220019.6,A,4741.19683,N,12224.24034,W,000.01,135.6,271013,016.6,E,D*2E
$PGRME,2.4,M,2.4,M,3.4,M*29
$HCHDG,274.7,0.0,E,,*2F
$HCHDG,274.7,0.0,E,,*2F
$GPRMC,220019.8,A,4741.19683,N,12224.24035,W,000.03,135.6,271013,016.6,E,D*23
$GPRMB,A,0.00,L,Shil,Shil,4741.0830,N,12224.5670,W,0.2,243,-0.01,V*2F
$PGRME,2.4,M,2.4,M,3.4,M*29
$HCHDG,274.8,0.0,E,,*20
$HCHDG,274.8,0.0,E,,*20
$GPRMC,220020.0,A,4741.19683,N,12224.24035,W,000.06,135.6,271013,016.6,E,D*24
$PGRME,2.4,M,2.4,M,3.4,M*29
$YXXDR,A,5.5,D,PTCH,A,4.0,D,ROLL*59
$HCHDG,274.7,0.0,E,,*2F
$HCHDG,274.7,0.0,E,,*2F
$GPRMC,220020.2,A,4741.19683,N,12224.24035,W,000.01,135.6,271013,016.6,E,D*21
$PGRME,2.4,M,2.4,M,3.4,M*29
$HCHDG,274.4,0.0,E,,*2C
$HCHDG,274.4,0.0,E,,*2C
$GPRMC,220020.4,A,4741.19683,N,12224.24035,W,000.02,135.6,271013,016.6,E,D*24
$PGRME,2.4,M,2.4,M,3.4,M*29
$HCHDG,274.3,0.0,E,,*2B
$YXXDR,A,5.3,D,PTCH,A,2.7,D,ROLL*5E
$PTAK,FFD1,2.7*50
$HCHDG,274.0,0.0,E,,*28
$GPRMC,220020.6,A,4741.19683,N,12224.24035,W,000.02,135.6,271013,016.6,E,D*26
$PGRME,2.4,M,2.4,M,3.4,M*29
$HCHDG,274.0,0.0,E,,*28
$HCHDG,273.7,0.0,E,,*28
$GPRMC,220020.8,A,4741.19683,N,12224.24035,W,000.05,135.6,271013,016.6,E,D*2F
$GPRMB,A,0.00,L,Shil,Shil,4741.0830,N,12224.5670,W,0.2,243,-0.01,V*2F
$PGRME,2.4,M,2.4,M,3.4,M*29
$HCHDG,273.7,0.0,E,,*28
$HCHDG,273.4,0.0,E,,*2B
$GPRMC,220021.0,A,4741.19683,N,12224.24035,W,000.05,135.6,271013,016.6,E,D*26
$PGRME,2.4,M,2.4,M,3.4,M*29
$YXXDR,A,4.9,D,PTCH,A,1.4,D,ROLL*55
$HCHDG,273.2,0.0,E,,*2D
$HCHDG,273.2,0.0,E,,*2D
$GPRMC,220021.2,A,4741.19683,N,12224.24035,W,000.01,135.6,271013,016.6,E,D*20
$PGRME,2.4,M,2.4,M,3.4,M*29
$HCHDG,273.0,0.0,E,,*2F
$PTAK,FFP1,HEEL,@*07
$HCHDG,273.2,0.0,E,,*2D
$GPRMC,220021.4,A,4741.19683,N,12224.24035,W,000.06,135.6,271013,016.6,E,D*21
$PGRME,2.4,M,2.4,M,3.4,M*29
$HCHDG,273.3,0.0,E,,*2C
$YXXDR,A,4.9,D,PTCH,A,2.0,D,ROLL*52
$HCHDG,273.5,0.0,E,,*2A
$GPRMC,220021.6,A,4741.19683,N,12224.24035,W,000.05,135.6,271013,016.6,E,D*20
$PGRME,2.4,M,2.4,M,3.4,M*29
$HCHDG,273.8,0.0,E,,*27
$HCHDG,274.0,0.0,E,,*28
$GPRMC,220021.8,A,4741.19683,N,12224.24035,W,000.02,135.6,271013,016.6,E,D*29
$GPRMB,A,0.00,L,Shil,Shil,4741.0830,N,12224.5670,W,0.2,243,-0.01,V*2F
$PGRME,2.4,M,2.4,M,3.4,M*29
$HCHDG,274.1,0.0,E,,*29
$HCHDG,274.4,0.0,E,,*2C
$GPRMC,220022.0,A,4741.19683,N,12224.24035,W,000.02,135.6,271013,016.6,E,D*22
$PGRME,2.4,M,2.4,M,3.4,M*29
$YXXDR,A,5.1,D,PTCH,A,1.8,D,ROLL*50
$PTAK,FFD1,1.8*5C
$HCHDG,274.4,0.0,E,,*2C
$HCHDG,274.7,0.0,E,,*2F
$GPRMC,220022.2,A,4741.19683,N,12224.24035,W,000.02,135.6,271013,016.6,E,D*20
$PGRME,2.4,M,2.4,M,3.4,M*29
$HCHDG,274.9,0.0,E,,*21
$HCHDG,275.0,0.0,E,,*29
$GPRMC,220022.4,A,4741.19683,N,12224.24035,W,000.03,135.6,271013,016.6,E,D*27
$PGRME,2.4,M,2.4,M,3.4,M*29
$HCHDG,275.2,0.0,E,,*2B
$YXXDR,A,5.4,D,PTCH,A,1.5,D,ROLL*58
$HCHDG,275.3,0.0,E,,*2A
$GPRMC,220022.6,A,4741.19683,N,12224.24035,W,000.01,135.6,271013,016.6,E,D*27
$PGRME,2.4,M,2.4,M,3.4,M*29
$HCHDG,275.5,0.0,E,,*2C
$HCHDG,275.6,0.0,E,,*2F
$GPRMC,220022.8,A,4741.19683,N,12224.24035,W,000.02,135.6,271013,016.6,E,D*2A
$PGRME,2.4,M,2.4,M,3.4,M*29
$HCHDG,275.5,0.0,E,,*2C
$HCHDG,275.8,0.0,E,,*21
$GPRMC,220023.0,A,4741.19683,N,12224.24035,W,000.13,135.6,271013,016.6,E,D*23
$GPRMB,A,0.00,L,Shil,Shil,4741.0830,N,12224.5670,W,0.2,243,-0.04,V*2A
$PGRME,2.4,M,2.4,M,3.4,M*29
$YXXDR,A,5.8,D,PTCH,A,2.9,D,ROLL*5B
$PTAK,FFD1,2.9*5E
$HCHDG,275.6,0.0,E,,*2F
$HCHDG,275.7,0.0,E,,*2E
$GPRMC,220023.2,A,4741.19683,N,12224.24035,W,000.06,135.6,271013,016.6,E,D*25
$PGRME,2.4,M,2.4,M,3.4,M*29
$HCHDG,275.6,0.0,E,,*2F
$HCHDG,275.4,0.0,E,,*2D
$GPRMC,220023.4,A,4741.19683,N,12224.24035,W,000.06,135.6,271013,016.6,E,D*23
$PGRME,2.4,M,2.4,M,3.4,M*29
$HCHDG,275.4,0.0,E,,*2D
$YXXDR,A,6.0,D,PTCH,A,2.1,D,ROLL*58
$HCHDG,275.1,0.0,E,,*28
$GPRMC,220023.6,A,4741.19683,N,12224.24035,W,000.03,135.6,271013,016.6,E,D*24
$PGRME,2.4,M,2.4,M,3.4,M*29
$HCHDG,274.9,0.0,E,,*21
$HCHDG,274.6,0.0,E,,*2E
$GPRMC,220023.8,A,4741.19683,N,12224.24035,W,000.05,135.6,271013,016.6,E,D*2C
$PGRME,2.4,M,2.4,M,3.4,M*29
$HCHDG,274.3,0.0,E,,*2B
$HCHDG,274.0,0.0,E,,*28
$GPRMC,220024.0,A,4741.19683,N,12224.24035,W,000.02,135.6,271013,016.6,E,D*24
$GPRMB,A,0.00,L,Shil,Shil,4741.0830,N,12224.5670,W,0.2,243,-0.01,V*2F
$PGRME,2.4,M,2.4,M,3.4,M*29
$YXXDR,A,5.1,D,PTCH,A,1.5,D,ROLL*5D
$HCHDG,273.8,0.0,E,,*27
$HCHDG,273.6,0.0,E,,*29
$GPRMC,220024.2,A,4741.19683,N,12224.24035,W,000.01,135.6,271013,016.6,E,D*25
$PGRME,2.4,M,2.4,M,3.4,M*29
$HCHDG,273.7,0.0,E,,*28
$HCHDG,273.6,0.0,E,,*29
$GPRMC,220024.4,A,4741.19683,N,12224.24035,W,000.04,135.6,271013,016.6,E,D*26
$PGRME,2.4,M,2.4,M,3.4,M*29
$HCHDG,273.8,0.0,E,,*27
$YXXDR,A,5.3,D,PTCH,A,5.0,D,ROLL*5E
$PTAK,FFD1,5.0*50
$HCHDG,273.8,0.0,E,,*27
$GPRMC,220024.6,A,4741.19683,N,12224.24035,W,000.00,135.6,271013,016.6,E,D*20
$PGRME,2.4,M,2.4,M,3.4,M*29
$HCHDG,273.8,0.0,E,,*27
$HCHDG,273.9,0.0,E,,*26
$GPRMC,220024.8,A,4741.19683,N,12224.24035,W,000.01,135.6,271013,016.6,E,D*2F
$PGRME,2.4,M,2.4,M,3.4,M*29
$HCHDG,273.7,0.0,E,,*28
$HCHDG,273.8,0.0,E,,*27
$GPRMC,220025.0,A,4741.19683,N,12224.24035,W,000.04,135.6,271013,016.6,E,D*23
$GPRMB,A,0.00,L,Shil,Shil,4741.0830,N,12224.5670,W,0.2,243,-0.01,V*2F
$PGRME,2.4,M,2.4,M,3.4,M*29
$YXXDR,A,5.1,D,PTCH,A,2.2,D,ROLL*59
$HCHDG,273.9,0.0,E,,*26
$HCHDG,273.7,0.0,E,,*28
$GPRMC,220025.2,A,4741.19683,N,12224.24035,W,000.02,135.6,271013,016.6,E,D*27
$PGRME,2.4,M,2.4,M,3.4,M*29
$HCHDG,273.9,0.0,E,,*26
$PTAK,FFP1,HEEL,@*07
$HCHDG,273.9,0.0,E,,*26
$GPRMC,220025.4,A,4741.19683,N,12224.24035,W,000.02,135.6,271013,016.6,E,D*21
$PGRME,2.4,M,2.4,M,3.4,M*29
$HCHDG,273.7,0.0,E,,*28
$YXXDR,A,5.0,D,PTCH,A,1.3,D,ROLL*5A
$PTAK,FFD1,1.3*57
$HCHDG,273.9,0.0,E,,*26
$GPRMC,220025.6,A,4741.19683,N,12224.24035,W,000.04,135.6,271013,016.6,E,D*25
$PGRME,2.4,M,2.4,M,3.4,M*29
$HCHDG,273.8,0.0,E,,*27
$HCHDG,273.8,0.0,E,,*27
$GPRMC,220025.8,A,4741.19683,N,12224.24035,W,000.02,135.6,271013,016.6,E,D*2D
$PGRME,2.4,M,2.4,M,3.4,M*29
$HCHDG,273.7,0.0,E,,*28
$HCHDG,273.6,0.0,E,,*29
$GPRMC,220026.0,A,4741.19683,N,12224.24035,W,000.02,135.6,271013,016.6,E,D*26
$GPRMB,A,0.00,L,Shil,Shil,4741.0830,N,12224.5670,W,0.2,243,-0.01,V*2F
$PGRME,2.4,M,2.4,M,3.4,M*29
$YXXDR,A,5.1,D,PTCH,A,2.3,D,ROLL*58
$HCHDG,273.5,0.0,E,,*2A
$HCHDG,273.4,0.0,E,,*2B
$GPRMC,220026.2,A,4741.19683,N,12224.24034,W,000.01,135.6,271013,016.6,E,D*26
$PGRME,2.4,M,2.4,M,3.4,M*29
$HCHDG,273.6,0.0,E,,*29
$HCHDG,273.4,0.0,E,,*2B
$GPRMC,220026.4,A,4741.19683,N,12224.24034,W,000.01,135.6,271013,016.6,E,D*20
$PGRME,2.4,M,2.4,M,3.4,M*29
$HCHDG,273.3,0.0,E,,*2C
$YXXDR,A,5.7,D,PTCH,A,2.7,D,ROLL*5A
$PTAK,FFD1,2.7*50
$HCHDG,273.1,0.0,E,,*2E
$GPRMC,220026.6,A,4741.19683,N,12224.24035,W,000.01,135.6,271013,016.6,E,D*23
$PGRME,2.4,M,2.4,M,3.4,M*29
$HCHDG,273.1,0.0,E,,*2E
$HCHDG,273.3,0.0,E,,*2C
$GPRMC,220026.8,A,4741.19683,N,12224.24035,W,000.00,135.6,271013,016.6,E,D*2C
$PGRME,2.4,M,2.4,M,3.4,M*29
$HCHDG,273.3,0.0,E,,*2C
$HCHDG,273.2,0.0,E,,*2D
$GPRMC,220027.0,A,4741.19683,N,12224.24035,W,000.01,135.6,271013,016.6,E,D*24
$GPRMB,A,0.00,L,Shil,Shil,4741.0830,N,12224.5670,W,0.2,243,-0.00,V*2E
$PGRME,2.4,M,2.4,M,3.4,M*29
$YXXDR,A,5.5,D,PTCH,A,2.8,D,ROLL*57
$HCHDG,273.3,0.0,E,,*2C
$HCHDG,273.3,0.0,E,,*2C
$GPRMC,220027.2,A,4741.19683,N,12224.24035,W,000.01,135.6,271013,016.6,E,D*26
$PGRME,2.4,M,2.4,M,3.4,M*29
$HCHDG,273.3,0.0,E,,*2C
$HCHDG,273.5,0.0,E,,*2A
$GPRMC,220027.4,A,4741.19683,N,12224.24035,W,000.02,135.6,271013,016.6,E,D*23
$PGRME,2.4,M,2.4,M,3.4,M*29
$HCHDG,273.4,0.0,E,,*2B
$YXXDR,A,5.2,D,PTCH,A,1.3,D,ROLL*58
$PTAK,FFD1,1.3*57
$HCHDG,273.7,0.0,E,,*28
$GPRMC,220027.6,A,4741.19683,N,12224.24035,W,000.01,135.6,271013,016.6,E,D*22
$PGRME,2.4,M,2.4,M,3.4,M*29
$HCHDG,273.8,0.0,E,,*27
$HCHDG,273.7,0.0,E,,*28
$GPRMC,220027.8,A,4741.19683,N,12224.24035,W,000.02,135.6,271013,016.6,E,D*2F
$PGRME,2.4,M,2.4,M,3.4,M*29
$HCHDG,273.9,0.0,E,,*26
$HCHDG,274.0,0.0,E,,*28
$GPRMC,220028.0,A,4741.19683,N,12224.24035,W,000.01,135.6,271013,016.6,E,D*2B
$GPRMB,A,0.00,L,Shil,Shil,4741.0830,N,12224.5670,W,0.2,243,-0.00,V*2E
$PGRME,2.4,M,2.4,M,3.4,M*29
$YXXDR,A,5.1,D,PTCH,A,1.0,D,ROLL*58
$HCHDG,274.1,0.0,E,,*29
$HCHDG,273.9,0.0,E,,*26
$GPRMC,220028.2,A,4741.19683,N,12224.24035,W,000.03,135.6,271013,016.6,E,D*2B
$PGRME,2.4,M,2.4,M,3.4,M*29
$HCHDG,273.9,0.0,E,,*26
$HCHDG,273.9,0.0,E,,*26
$GPRMC,220028.4,A,4741.19683,N,12224.24035,W,000.05,135.6,271013,016.6,E,D*2B
$PGRME,2.4,M,2.4,M,3.4,M*29
$HCHDG,273.9,0.0,E,,*26
$YXXDR,A,5.4,D,PTCH,A,1.1,D,ROLL*5C
$HCHDG,273.8,0.0,E,,*27
$GPRMC,220028.6,A,4741.19683,N,12224.24035,W,000.03,135.6,271013,016.6,E,D*2F
$PGRME,2.4,M,2.4,M,3.4,M*29
$HCHDG,273.6,0.0,E,,*29
$HCHDG,273.8,0.0,E,,*27
$GPRMC,220028.8,A,4741.19683,N,12224.24035,W,000.02,135.6,271013,016.6,E,D*20
$PGRME,2.4,M,2.4,M,3.4,M*29
$HCHDG,273.7,0.0,E,,*28
$HCHDG,273.7,0.0,E,,*28
$GPRMC,220029.0,A,4741.19683,N,12224.24035,W,000.00,135.6,271013,016.6,E,D*2B
$PGRME,2.4,M,2.4,M,3.4,M*29
$YXXDR,A,5.5,D,PTCH,A,2.3,D,ROLL*5C
$PTAK,FFD1,2.3*54
$HCHDG,273.8,0.0,E,,*27
$HCHDG,273.7,0.0,E,,*28
$GPRMC,220029.2,A,4741.19683,N,12224.24035,W,000.02,135.6,271013,016.6,E,D*2B
$GPRMB,A,0.00,L,Shil,Shil,4741.0830,N,12224.5670,W,0.2,243,-0.01,V*2F
$PGRME,2.4,M,2.4,M,3.4,M*29
$HCHDG,273.7,0.0,E,,*28
$PTAK,FFP1,HEEL,@*07
$HCHDG,273.8,0.0,E,,*27
$GPRMC,220029.4,A,4741.19683,N,12224.24035,W,000.02,135.6,271013,016.6,E,D*2D
$PGRME,2.4,M,2.4,M,3.4,M*29
$HCHDG,273.8,0.0,E,,*27
$YXXDR,A,5.7,D,PTCH,A,4.4,D,ROLL*5F
$HCHDG,273.9,0.0,E,,*26
$GPRMC,220029.6,A,4741.19683,N,12224.24034,W,000.02,135.6,271013,016.6,E,D*2E
$PGRME,2.4,M,2.4,M,3.4,M*29
$HCHDG,273.7,0.0,E,,*28
$HCHDG,273.8,0.0,E,,*27
$GPRMC,220029.8,A,4741.19683,N,12224.24034,W,000.02,135.6,271013,016.6,E,D*20
$PGRME,2.4,M,2.4,M,3.4,M*29
$HCHDG,273.8,0.0,E,,*27
$HCHDG,274.0,0.0,E,,*28
$GPRMC,220030.0,A,4741.19683,N,12224.24034,W,000.03,135.6,271013,016.6,E,D*21
$PGRME,2.4,M,2.4,M,3.4,M*29
$YXXDR,A,5.4,D,PTCH,A,2.4,D,ROLL*5A
$HCHDG,274.0,0.0,E,,*28
$HCHDG,274.1,0.0,E,,*29
$GPRMC,220030.2,A,4741.19683,N,12224.24034,W,000.05,135.6,271013,016.6,E,D*25
$PGRME,2.4,M,2.4,M,3.4,M*29
$HCHDG,273.8,0.0,E,,*27
$HCHDG,273.9,0.0,E,,*26
$GPRMC,220030.4,A,4741.19683,N,12224.24034,W,000.01,135.6,271013,016.6,E,D*27
$GPRMB,A,0.00,L,Shil,Shil,4741.0830,N,12224.5670,W,0.2,243,-0.00,V*2E
$PGRME,2.4,M,2.4,M,3.4,M*29
$HCHDG,273.9,0.0,E,,*26
$YXXDR,A,5.2,D,PTCH,A,1.3,D,ROLL*58
$PTAK,FFD1,1.3*57
$HCHDG,274.0,0.0,E,,*28
$GPRMC,220030.6,A,4741.19683,N,12224.24034,W,000.01,135.6,271013,016.6,E,D*25
$PGRME,2.4,M,2.4,M,3.4,M*29
$HCHDG,273.9,0.0,E,,*26
$HCHDG,274.0,0.0,E,,*28
$GPRMC,220030.8,A,4741.19682,N,12224.24034,W,000.02,135.6,271013,016.6,E,D*29
$PGRME,2.4,M,2.4,M,3.4,M*29
$HCHDG,274.0,0.0,E,,*28
$HCHDG,274.0,0.0,E,,*28
$GPRMC,220031.0,A,4741.19682,N,12224.24034,W,000.01,135.6,271013,016.6,E,D*23
$PGRME,2.4,M,2.4,M,3.4,M*29
$YXXDR,A,5.4,D,PTCH,A,0.9,D,ROLL*55
$HCHDG,274.0,0.0,E,,*28
$HCHDG,273.9,0.0,E,,*26
$GPRMC,220031.2,A,4741.19682,N,12224.24034,W,000.05,135.6,271013,016.6,E,D*25
$PGRME,2.4,M,2.4,M,3.4,M*29
$HCHDG,274.1,0.0,E,,*29
$HCHDG,274.1,0.0,E,,*29
$GPRMC,220031.4,A,4741.19682,N,12224.24034,W,000.02,135.6,271013,016.6,E,D*24
$GPRMB,A,0.00,L,Shil,Shil,4741.0830,N,12224.5670,W,0.2,243,-0.01,V*2F
$PGRME,2.4,M,2.4,M,3.4,M*29
$HCHDG,274.1,0.0,E,,*29
$YXXDR,A,5.2,D,PTCH,A,1.8,D,ROLL*53
$PTAK,FFD1,1.8*5C
$HCHDG,274.2,0.0,E,,*2A
$GPRMC,220031.6,A,4741.19682,N,12224.24034,W,000.01,135.6,271013,016.6,E,D*25
$PGRME,2.4,M,2.4,M,3.4,M*29
$HCHDG,274.2,0.0,E,,*2A
$HCHDG,274.2,0.0,E,,*2A
$GPRMC,220031.8,A,4741.19682,N,12224.24034,W,000.03,135.6,271013,016.6,E,D*29
$PGRME,2.4,M,2.4,M,3.4,M*29
$HCHDG,274.1,0.0,E,,*29
$HCHDG,274.2,0.0,E,,*2A
$GPRMC,220032.0,A,4741.19682,N,12224.24034,W,000.07,135.6,271013,016.6,E,D*26
$PGRME,2.4,M,2.4,M,3.4,M*29
$YXXDR,A,5.2,D,PTCH,A,2.3,D,ROLL*5B
$HCHDG,274.3,0.0,E,,*2B
$HCHDG,274.2,0.0,E,,*2A
$GPRMC,220032.2,A,4741.19682,N,12224.24034,W,000.01,135.6,271013,016.6,E,D*22
$PGRME,2.4,M,2.4,M,3.4,M*29
$HCHDG,274.3,0.0,E,,*2B
$HCHDG,274.4,0.0,E,,*2C
$GPRMC,220032.4,A,4741.19682,N,12224.24034,W,000.01,135.6,271013,016.6,E,D*24
$PGRME,2.4,M,2.4,M,3.4,M*29
$HCHDG,274.4,0.0,E,,*2C
$YXXDR,A,5.4,D,PTCH,A,4.2,D,ROLL*5A
$HCHDG,274.6,0.0,E,,*2E
$GPRMC,220032.6,A,4741.19682,N,12224.24034,W,000.01,135.6,271013,016.6,E,D*26
$GPRMB,A,0.00,L,Shil,Shil,4741.0830,N,12224.5670,W,0.2,243,-0.00,V*2E
$PGRME,2.4,M,2.4,M,3.4,M*29
$HCHDG,274.6,0.0,E,,*2E
$HCHDG,274.5,0.0,E,,*2D
$GPRMC,220032.8,A,4741.19682,N,12224.24034,W,000.02,135.6,271013,016.6,E,D*2B
$PGRME,2.4,M,2.4,M,3.4,M*29
$HCHDG,274.7,0.0,E,,*2F
$HCHDG,274.6,0.0,E,,*2E
$GPRMC,220033.0,A,4741.19682,N,12224.24034,W,000.04,135.6,271013,016.6,E,D*24
$PGRME,2.4,M,2.4,M,3.4,M*29
$YXXDR,A,5.4,D,PTCH,A,3.8,D,ROLL*57
$PTAK,FFD1,3.8*5E
$HCHDG,274.5,0.0,E,,*2D
$HCHDG,274.6,0.0,E,,*2E
$GPRMC,220033.2,A,4741.19682,N,12224.24034,W,000.02,135.6,271013,016.6,E,D*20
$PGRME,2.4,M,2.4,M,3.4,M*29
$HCHDG,274.5,0.0,E,,*2D
$HCHDG,274.6,0.0,E,,*2E
$GPRMC,220033.4,A,4741.19682,N,12224.24034,W,000.06,135.6,271013,016.6,E,D*22
$PGRME,2.4,M,2.4,M,3.4,M*29
$HCHDG,274.6,0.0,E,,*2E
$PTAK,FFP1,HEEL,@*07
$YXXDR,A,5.1,D,PTCH,A,3.0,D,ROLL*5A
$HCHDG,274.6,0.0,E,,*2E
$GPRMC,220033.6,A,4741.19682,N,12224.24034,W,000.03,135.6,271013,016.6,E,D*25
$PGRME,2.4,M,2.4,M,3.4,M*29
$HCHDG,274.6,0.0,E,,*2E
$HCHDG,274.6,0.0,E,,*2E
$GPRMC,220033.8,A,4741.19682,N,12224.24034,W,000.03,135.6,271013,016.6,E,D*2B
$GPRMB,A,0.00,L,Shil,Shil,4741.0830,N,12224.5670,W,0.2,243,-0.01,V*2F
$PGRME,2.4,M,2.4,M,3.4,M*29
$HCHDG,274.6,0.0,E,,*2E
$HCHDG,274.5,0.0,E,,*2D
$GPRMC,220034.0,A,4741.19682,N,12224.24034,W,000.03,135.6,271013,016.6,E,D*24
$PGRME,2.4,M,2.4,M,3.4,M*29
$YXXDR,A,4.9,D,PTCH,A,0.8,D,ROLL*58
$HCHDG,274.5,0.0,E,,*2D
$HCHDG,274.5,0.0,E,,*2D
$GPRMC,220034.2,A,4741.19682,N,12224.24034,W,000.04,135.6,271013,016.6,E,D*21
$PGRME,2.4,M,2.4,M,3.4,M*29
$HCHDG,274.5,0.0,E,,*2D
$HCHDG,274.3,0.0,E,,*2B
$GPRMC,220034.4,A,4741.19682,N,12224.24034,W,000.01,135.6,271013,016.6,E,D*22
$PGRME,2.4,M,2.4,M,3.4,M*29
$HCHDG,274.3,0.0,E,,*2B
$YXXDR,A,4.8,D,PTCH,A,0.3,D,ROLL*52
$PTAK,FFD1,0.3*56
$HCHDG,274.3,0.0,E,,*2B
$GPRMC,220034.6,A,4741.19682,N,12224.24034,W,000.02,135.6,271013,016.6,E,D*23
$PGRME,2.4,M,2.4,M,3.4,M*29
$HCHDG,274.3,0.0,E,,*2B
$HCHDG,274.3,0.0,E,,*2B
$GPRMC,220034.8,A,4741.19682,N,12224.24034,W,000.01,135.6,271013,016.6,E,D*2E
$PGRME,2.4,M,2.4,M,3.4,M*29
$HCHDG,274.4,0.0,E,,*2C
$HCHDG,274.5,0.0,E,,*2D
$GPRMC,220035.0,A,4741.19682,N,12224.24034,W,000.01,135.6,271013,016.6,E,D*27
$GPRMB,A,0.00,L,Shil,Shil,4741.0830,N,12224.5670,W,0.2,243,-0.00,V*2E
$PGRME,2.4,M,2.4,M,3.4,M*29
$YXXDR,A,5.1,D,PTCH,A,1.9,D,ROLL*51
$HCHDG,274.7,0.0,E,,*2F
$HCHDG,274.9,0.0,E,,*21
$GPRMC,220035.2,A,4741.19682,N,12224.24034,W,000.00,135.6,271013,016.6,E,D*24
$PGRME,2.4,M,2.4,M,3.4,M*29
$HCHDG,275.0,0.0,E,,*29
$HCHDG,275.1,0.0,E,,*28
$GPRMC,220035.4,A,4741.19682,N,12224.24034,W,000.01,135.6,271013,016.6,E,D*23
$PGRME,2.4,M,2.4,M,3.4,M*29
$HCHDG,275.3,0.0,E,,*2A
$YXXDR,A,5.6,D,PTCH,A,3.6,D,ROLL*5B
$PTAK,FFD1,3.6*50
$HCHDG,275.3,0.0,E,,*2A
$GPRMC,220035.6,A,4741.19682,N,12224.24034,W,000.02,135.6,271013,016.6,E,D*22
$PGRME,2.4,M,2.4,M,3.4,M*29
$HCHDG,275.3,0.0,E,,*2A
$HCHDG,275.3,0.0,E,,*2A
$GPRMC,220035.8,A,4741.19682,N,12224.24034,W,000.02,135.6,271013,016.6,E,D*2C
$PGRME,2.4,M,2.4,M,3.4,M*29
$HCHDG,275.3,0.0,E,,*2A
$HCHDG,275.1,0.0,E,,*28
$GPRMC,220036.0,A,4741.19682,N,12224.24034,W,000.02,135.6,271013,016.6,E,D*27
$GPRMB,A,0.00,L,Shil,Shil,4741.0830,N,12224.5670,W,0.2,243,-0.01,V*2F
$PGRME,2.4,M,2.4,M,3.4,M*29
$YXXDR,A,5.5,D,PTCH,A,3.4,D,ROLL*5A
$HCHDG,275.1,0.0,E,,*28
$HCHDG,275.0,0.0,E,,*29
$GPRMC,220036.2,A,4741.19681,N,12224.24034,W,000.02,135.6,271013,016.6,E,D*26
$PGRME,2.4,M,2.4,M,3.4,M*29
$HCHDG,275.0,0.0,E,,*29
$HCHDG,274.9,0.0,E,,*21
$GPRMC,220036.4,A,4741.19681,N,12224.24034,W,000.00,135.6,271013,016.6,E,D*22
$PGRME,2.4,M,2.4,M,3.4,M*29
$HCHDG,274.8,0.0,E,,*20
$YXXDR,A,5.4,D,PTCH,A,3.0,D,ROLL*5F
$PTAK,FFD1,3.0*56
$HCHDG,274.6,0.0,E,,*2E
$GPRMC,220036.6,A,4741.19681,N,12224.24034,W,000.00,135.6,271013,016.6,E,D*20
$PGRME,2.4,M,2.4,M,3.4,M*29
$HCHDG,274.7,0.0,E,,*2F
$HCHDG,274.5,0.0,E,,*2D
$GPRMC,220036.8,A,4741.19681,N,12224.24034,W,000.01,135.6,271013,016.6,E,D*2F
$PGRME,2.4,M,2.4,M,3.4,M*29
$HCHDG,274.4,0.0,E,,*2C
$HCHDG,274.2,0.0,E,,*2A
$GPRMC,220037.0,A,4741.19681,N,12224.24034,W,000.02,135.6,271013,016.6,E,D*25
$PGRME,2.4,M,2.4,M,3.4,M*29
$YXXDR,A,5.2,D,PTCH,A,1.3,D,ROLL*58
$HCHDG,274.1,0.0,E,,*29
$HCHDG,274.0,0.0,E,,*28
$GPRMC,220037.2,A,4741.19681,N,12224.24034,W,000.01,135.6,271013,016.6,E,D*24
$GPRMB,A,0.00,L,Shil,Shil,4741.0830,N,12224.5670,W,0.2,243,-0.00,V*2E
$PGRME,2.4,M,2.4,M,3.4,M*29
$HCHDG,273.9,0.0,E,,*26
$HCHDG,273.7,0.0,E,,*28
$GPRMC,220037.4,A,4741.19681,N,12224.24034,W,000.02,135.6,271013,016.6,E,D*21
$PGRME,2.4,M,2.4,M,3.4,M*29
$HCHDG,273.7,0.0,E,,*28
$PTAK,FFP1,HEEL,@*07
$YXXDR,A,4.9,D,PTCH,A,0.7,D,ROLL*57
$HCHDG,273.6,0.0,E,,*29
$GPRMC,220037.6,A,4741.19681,N,12224.24034,W,000.02,135.6,271013,016.6,E,D*23
$PGRME,2.4,M,2.4,M,3.4,M*29
$HCHDG,273.6,0.0,E,,*29
$HCHDG,273.7,0.0,E,,*28
$GPRMC,220037.8,A,4741.19681,N,12224.24034,W,000.01,135.6,271013,016.6,E,D*2E
$PGRME,2.4,M,2.4,M,3.4,M*29
$HCHDG,273.9,0.0,E,,*26
$HCHDG,274.0,0.0,E,,*28
$GPRMC,220038.0,A,4741.19681,N,12224.24034,W,000.01,135.6,271013,016.6,E,D*29
$PGRME,2.4,M,2.4,M,3.4,M*29
$YXXDR,A,5.1,D,PTCH,A,2.2,D,ROLL*59
$PTAK,FFD1,2.2*55
$HCHDG,274.2,0.0,E,,*2A
$HCHDG,274.5,0.0,E,,*2D
$GPRMC,220038.2,A,4741.19681,N,12224.24034,W,000.01,135.6,271013,016.6,E,D*2B
$GPRMB,A,0.00,L,Shil,Shil,4741.0830,N,12224.5670,W,0.2,243,-0.00,V*2E
$PGRME,2.4,M,2.4,M,3.4,M*29
$HCHDG,274.7,0.0,E,,*2F
$HCHDG,274.9,0.0,E,,*21
$GPRMC,220038.4,A,4741.19682,N,12224.24034,W,000.01,135.6,271013,016.6,E,D*2E
$PGRME,2.4,M,2.4,M,3.4,M*29
$HCHDG,275.2,0.0,E,,*2B
$YXXDR,A,5.1,D,PTCH,A,1.3,D,ROLL*5B
$HCHDG,275.1,0.0,E,,*28
$GPRMC,220038.6,A,4741.19682,N,12224.24034,W,000.00,135.6,271013,016.6,E,D*2D
$PGRME,2.4,M,2.4,M,3.4,M*29
$HCHDG,275.4,0.0,E,,*2D
$HCHDG,275.4,0.0,E,,*2D
$GPRMC,220038.8,A,4741.19682,N,12224.24034,W,000.01,135.6,271013,016.6,E,D*22
$PGRME,2.4,M,2.4,M,3.5,M*28
$HCHDG,275.5,0.0,E,,*2C
$HCHDG,275.7,0.0,E,,*2E
$GPRMC,220039.0,A,4741.19682,N,12224.24034,W,000.01,135.6,271013,016.6,E,D*2B
$PGRME,2.4,M,2.5,M,3.5,M*29
$YXXDR,A,5.6,D,PTCH,A,1.4,D,ROLL*5B
$HCHDG,275.7,0.0,E,,*2E
$HCHDG,275.7,0.0,E,,*2E
$GPRMC,220039.2,A,4741.19682,N,12224.24034,W,000.01,135.6,271013,016.6,E,D*29
$PGRME,2.4,M,2.5,M,3.5,M*29
$HCHDG,275.4,0.0,E,,*2D
$HCHDG,275.3,0.0,E,,*2A
$GPRMC,220039.4,A,4741.19682,N,12224.24034,W,000.01,135.6,271013,016.6,E,D*2F
$GPRMB,A,0.00,L,Shil,Shil,4741.0830,N,12224.5670,W,0.2,243,-0.00,V*2E
$PGRME,2.4,M,2.4,M,3.4,M*29
$HCHDG,275.3,0.0,E,,*2A
$YXXDR,A,6.0,D,PTCH,A,0.8,D,ROLL*53
$PTAK,FFD1,0.8*5D
$HCHDG,275.1,0.0,E,,*28
$GPRMC,220039.6,A,4741.19682,N,12224.24034,W,000.03,135.6,271013,016.6,E,D*2F
$PGRME,2.4,M,2.4,M,3.4,M*29
$HCHDG,274.9,0.0,E,,*21
$HCHDG,274.5,0.0,E,,*2D
$GPRMC,220039.8,A,4741.19682,N,12224.24034,W,000.02,135.6,271013,016.6,E,D*20
$PGRME,2.4,M,2.4,M,3.4,M*29
$HCHDG,274.2,0.0,E,,*2A
$HCHDG,274.0,0.0,E,,*28
$GPRMC,220040.0,A,4741.19682,N,12224.24034,W,000.01,135.6,271013,016.6,E,D*25
$PGRME,2.4,M,2.4,M,3.4,M*29
$YXXDR,A,5.3,D,PTCH,A,0.3,D,ROLL*58
$HCHDG,273.7,0.0,E,,*28
$HCHDG,273.4,0.0,E,,*2B
$GPRMC,220040.2,A,4741.19682,N,12224.24034,W,000.03,135.6,271013,016.6,E,D*25
$PGRME,2.4,M,2.4,M,3.4,M*29
$HCHDG,273.3,0.0,E,,*2C
$HCHDG,273.1,0.0,E,,*2E
$GPRMC,220040.4,A,4741.19682,N,12224.24034,W,000.00,135.6,271013,016.6,E,D*20
$PGRME,2.4,M,2.4,M,3.4,M*29
$HCHDG,273.1,0.0,E,,*2E
$YXXDR,A,5.6,D,PTCH,A,2.4,D,ROLL*58
$HCHDG,273.2,0.0,E,,*2D
$GPRMC,220040.6,A,4741.19682,N,12224.24034,W,000.02,135.6,271013,016.6,E,D*20
$GPRMB,A,0.00,L,Shil,Shil,4741.0830,N,12224.5670,W,0.2,243,-0.01,V*2F
$PGRME,2.4,M,2.4,M,3.4,M*29
$HCHDG,273.4,0.0,E,,*2B
$HCHDG,273.6,0.0,E,,*29
$GPRMC,220040.8,A,4741.19682,N,12224.24034,W,000.00,135.6,271013,016.6,E,D*2C
$PGRME,2.4,M,2.4,M,3.4,M*29
$HCHDG,273.7,0.0,E,,*28
$HCHDG,273.6,0.0,E,,*29
$GPRMC,220041.0,A,4741.19682,N,12224.24034,W,000.01,135.6,271013,016.6,E,D*24
$PGRME,2.4,M,2.4,M,3.4,M*29
$YXXDR,A,4.8,D,PTCH,A,0.0,D,ROLL*51
$PTAK,FFD1,0.0*55
$HCHDG,273.7,0.0,E,,*28
$HCHDG,273.5,0.0,E,,*2A
$GPRMC,220041.2,A,4741.19682,N,12224.24034,W,000.02,135.6,271013,016.6,E,D*25
$PGRME,2.4,M,2.4,M,3.4,M*29
$HCHDG,273.7,0.0,E,,*28
$HCHDG,273.8,0.0,E,,*27
$GPRMC,220041.4,A,4741.19682,N,12224.24034,W,000.01,135.6,271013,016.6,E,D*20
$PGRME,2.4,M,2.4,M,3.4,M*29
$HCHDG,273.9,0.0,E,,*26
$PTAK,FFP1,HEEL,@*07
$YXXDR,A,5.1,D,PTCH,A,0.5,D,ROLL*5C
$HCHDG,274.0,0.0,E,,*28
$GPRMC,220041.6,A,4741.19682,N,12224.24033,W,000.01,135.6,271013,016.6,E,D*25
$PGRME,2.4,M,2.4,M,3.4,M*29
$HCHDG,274.2,0.0,E,,*2A
$HCHDG,274.2,0.0,E,,*2A
$GPRMC,220041.8,A,4741.19682,N,12224.24033,W,000.01,135.6,271013,016.6,E,D*2B
$GPRMB,A,0.00,L,Shil,Shil,4741.0830,N,12224.5670,W,0.2,243,-0.00,V*2E
$PGRME,2.4,M,2.4,M,3.4,M*29
$HCHDG,274.2,0.0,E,,*2A
$HCHDG,274.3,0.0,E,,*2B
$GPRMC,220042.0,A,4741.19682,N,12224.24033,W,000.01,135.6,271013,016.6,E,D*20
$PGRME,2.4,M,2.4,M,3.4,M*29
$YXXDR,A,5.3,D,PTCH,A,0.4,D,ROLL*5F
$HCHDG,274.2,0.0,E,,*2A
$HCHDG,274.2,0.0,E,,*2A
$GPRMC,220042.2,A,4741.19682,N,12224.24033,W,000.01,135.6,271013,016.6,E,D*22
$PGRME,2.4,M,2.4,M,3.4,M*29
$HCHDG,274.2,0.0,E,,*2A
$HCHDG,274.0,0.0,E,,*28
$GPRMC,220042.4,A,4741.19682,N,12224.24033,W,000.02,135.6,271013,016.6,E,D*27
$PGRME,2.4,M,2.4,M,3.4,M*29
$HCHDG,273.8,0.0,E,,*27
$YXXDR,A,5.3,D,PTCH,A,0.4,D,ROLL*5F
$PTAK,FFD1,0.4*51
$HCHDG,273.6,0.0,E,,*29
$GPRMC,220042.6,A,4741.19682,N,12224.24034,W,000.05,135.6,271013,016.6,E,D*25
$PGRME,2.4,M,2.4,M,3.4,M*29
$HCHDG,273.4,0.0,E,,*2B
$HCHDG,273.4,0.0,E,,*2B
$GPRMC,220042.8,A,4741.19682,N,12224.24034,W,000.02,135.6,271013,016.6,E,D*2C
$PGRME,2.4,M,2.4,M,3.4,M*29
$HCHDG,273.3,0.0,E,,*2C
$HCHDG,273.2,0.0,E,,*2D
$GPRMC,220043.0,A,4741.19682,N,12224.24034,W,000.01,135.6,271013,016.6,E,D*26
$GPRMB,A,0.00,L,Shil,Shil,4741.0830,N,12224.5670,W,0.2,243,-0.00,V*2E
$PGRME,2.4,M,2.4,M,3.4,M*29
$YXXDR,A,5.4,D,PTCH,A,1.7,D,ROLL*5A
$HCHDG,273.2,0.0,E,,*2D
$HCHDG,273.1,0.0,E,,*2E
$GPRMC,220043.2,A,4741.19682,N,12224.24034,W,000.02,135.6,271013,016.6,E,D*27
$PGRME,2.4,M,2.4,M,3.4,M*29
$HCHDG,273.2,0.0,E,,*2D
$HCHDG,273.1,0.0,E,,*2E
$GPRMC,220043.4,A,4741.19682,N,12224.24034,W,000.01,135.6,271013,016.6,E,D*22
$PGRME,2.4,M,2.4,M,3.4,M*29
$HCHDG,273.1,0.0,E,,*2E
$YXXDR,A,5.5,D,PTCH,A,2.7,D,ROLL*58
$HCHDG,273.0,0.0,E,,*2F
$GPRMC,220043.6,A,4741.19681,N,12224.24034,W,000.01,135.6,271013,016.6,E,D*23
$PGRME,2.4,M,2.4,M,3.4,M*29
$HCHDG,273.2,0.0,E,,*2D
$HCHDG,273.3,0.0,E,,*2C
$GPRMC,220043.8,A,4741.19681,N,12224.24034,W,000.02,135.6,271013,016.6,E,D*2E
$PGRME,2.4,M,2.4,M,3.4,M*29
$HCHDG,273.4,0.0,E,,*2B
$HCHDG,273.4,0.0,E,,*2B
$GPRMC,220044.0,A,4741.19682,N,12224.24034,W,000.01,135.6,271013,016.6,E,D*21
$PGRME,2.4,M,2.4,M,3.4,M*29
$PGRMT,GPS 18x-5Hz software ver. 3.20,,,,,,,,*30
$YXXDR,A,5.5,D,PTCH,A,2.3,D,ROLL*5C
$PTAK,FFD1,2.3*54
$HCHDG,273.5,0.0,E,,*2A
$HCHDG,273.6,0.0,E,,*29
$GPRMC,220044.2,A,4741.19682,N,12224.24034,W,000.01,135.6,271013,016.6,E,D*23
$GPRMB,A,0.00,L,Shil,Shil,4741.0830,N,12224.5670,W,0.2,243,-0.00,V*2E
$PGRME,2.4,M,2.4,M,3.4,M*29
$HCHDG,273.7,0.0,E,,*28
$HCHDG,273.8,0.0,E,,*27
$GPRMC,220044.4,A,4741.19682,N,12224.24034,W,000.00,135.6,271013,016.6,E,D*24
$PGRME,2.4,M,2.4,M,3.4,M*29
$HCHDG,273.7,0.0,E,,*28
$YXXDR,A,5.2,D,PTCH,A,1.7,D,ROLL*5C
$HCHDG,273.7,0.0,E,,*28
$GPRMC,220044.6,A,4741.19682,N,12224.24034,W,000.02,135.6,271013,016.6,E,D*24
$PGRME,2.4,M,2.4,M,3.4,M*29
$HCHDG,273.8,0.0,E,,*27
$HCHDG,273.9,0.0,E,,*26
$GPRMC,220044.8,A,4741.19682,N,12224.24034,W,000.02,135.6,271013,016.6,E,D*2A
$PGRME,2.4,M,2.4,M,3.4,M*29
$HCHDG,273.9,0.0,E,,*26
$HCHDG,273.9,0.0,E,,*26
$GPRMC,220045.0,A,4741.19682,N,12224.24034,W,000.01,135.6,271013,016.6,E,D*20
$PGRME,2.4,M,2.4,M,3.4,M*29
$YXXDR,A,5.4,D,PTCH,A,1.2,D,ROLL*5F
$HCHDG,274.0,0.0,E,,*28
$HCHDG,273.9,0.0,E,,*26
$GPRMC,220045.2,A,4741.19682,N,12224.24034,W,000.01,135.6,271013,016.6,E,D*22
$PGRME,2.4,M,2.4,M,3.4,M*29
$HCHDG,274.2,0.0,E,,*2A
$HCHDG,274.1,0.0,E,,*29
$GPRMC,220045.4,A,4741.19682,N,12224.24034,W,000.01,135.6,271013,016.6,E,D*24
$GPRMB,A,0.00,L,Shil,Shil,4741.0830,N,12224.5670,W,0.2,243,-0.00,V*2E
$PGRME,2.4,M,2.4,M,3.4,M*29
$HCHDG,274.0,0.0,E,,*28
$PTAK,FFP1,HEEL,@*07
$YXXDR,A,5.7,D,PTCH,A,1.0,D,ROLL*5E
$PTAK,FFD1,1.0*54
$HCHDG,274.0,0.0,E,,*28
$GPRMC,220045.6,A,4741.19682,N,12224.24034,W,000.01,135.6,271013,016.6,E,D*26
$PGRME,2.4,M,2.4,M,3.4,M*29
$HCHDG,273.9,0.0,E,,*26
$HCHDG,273.9,0.0,E,,*26
$GPRMC,220045.8,A,4741.19682,N,12224.24034,W,000.01,135.6,271013,016.6,E,D*28
$PGRME,2.4,M,2.4,M,3.4,M*29
$HCHDG,273.9,0.0,E,,*26
$HCHDG,273.9,0.0,E,,*26
$GPRMC,220046.0,A,4741.19682,N,12224.24034,W,000.01,135.6,271013,016.6,E,D*23
$PGRME,2.4,M,2.4,M,3.4,M*29
$YXXDR,A,5.5,D,PTCH,A,0.9,D,ROLL*54
$HCHDG,273.8,0.0,E,,*27
$HCHDG,273.8,0.0,E,,*27
$GPRMC,220046.2,A,4741.19682,N,12224.24034,W,000.01,135.6,271013,016.6,E,D*21
$PGRME,2.4,M,2.4,M,3.4,M*29
$HCHDG,273.8,0.0,E,,*27
$HCHDG,273.7,0.0,E,,*28
$GPRMC,220046.4,A,4741.19682,N,12224.24034,W,000.01,135.6,271013,016.6,E,D*27
$GPRMB,A,0.00,L,Shil,Shil,4741.0830,N,12224.5670,W,0.2,243,-0.00,V*2E
$PGRME,2.4,M,2.4,M,3.4,M*29
$HCHDG,273.7,0.0,E,,*28
$YXXDR,A,5.4,D,PTCH,A,1.0,D,ROLL*5D
$HCHDG,273.8,0.0,E,,*27
$GPRMC,220046.6,A,4741.19682,N,12224.24034,W,000.01,135.6,271013,016.6,E,D*25
$PGRME,2.4,M,2.4,M,3.4,M*29
$HCHDG,273.5,0.0,E,,*2A
$HCHDG,273.5,0.0,E,,*2A
$GPRMC,220046.8,A,4741.19682,N,12224.24034,W,000.01,135.6,271013,016.6,E,D*2B
$PGRME,2.4,M,2.4,M,3.4,M*29
$HCHDG,273.6,0.0,E,,*29
$HCHDG,273.6,0.0,E,,*29
$GPRMC,220047.0,A,4741.19682,N,12224.24034,W,000.02,135.6,271013,016.6,E,D*21
$PGRME,2.4,M,2.4,M,3.4,M*29
$YXXDR,A,5.4,D,PTCH,A,2.9,D,ROLL*57
$PTAK,FFD1,2.9*5E
$HCHDG,273.6,0.0,E,,*29
$HCHDG,273.7,0.0,E,,*28
$GPRMC,220047.2,A,4741.19682,N,12224.24034,W,000.01,135.6,271013,016.6,E,D*20
$PGRME,2.4,M,2.4,M,3.4,M*29
$HCHDG,273.7,0.0,E,,*28
$HCHDG,273.8,0.0,E,,*27
$GPRMC,220047.4,A,4741.19682,N,12224.24034,W,000.01,135.6,271013,016.6,E,D*26
$GPRMB,A,0.00,L,Shil,Shil,4741.0830,N,12224.5670,W,0.2,243,-0.00,V*2E
$PGRME,2.4,M,2.4,M,3.4,M*29
$HCHDG,273.7,0.0,E,,*28
$YXXDR,A,5.4,D,PTCH,A,3.5,D,ROLL*5A
$HCHDG,273.7,0.0,E,,*28
$GPRMC,220047.6,A,4741.19682,N,12224.24034,W,000.02,135.6,271013,016.6,E,D*27
$PGRME,2.4,M,2.4,M,3.4,M*29
$HCHDG,273.6,0.0,E,,*29
$HCHDG,273.7,0.0,E,,*28
$GPRMC,220047.8,A,4741.19682,N,12224.24034,W,000.00,135.6,271013,016.6,E,D*2B
$PGRME,2.4,M,2.4,M,3.4,M*29
$HCHDG,273.6,0.0,E,,*29
$HCHDG,273.8,0.0,E,,*27
$GPRMC,220048.0,A,4741.19682,N,12224.24034,W,000.02,135.6,271013,016.6,E,D*2E
$PGRME,2.4,M,2.4,M,3.4,M*29
$YXXDR,A,5.4,D,PTCH,A,3.0,D,ROLL*5F
$PTAK,FFD1,3.0*56
$HCHDG,273.7,0.0,E,,*28
$HCHDG,273.7,0.0,E,,*28
$GPRMC,220048.2,A,4741.19682,N,12224.24034,W,000.02,135.6,271013,016.6,E,D*2C
$PGRME,2.4,M,2.4,M,3.4,M*29
$HCHDG,273.7,0.0,E,,*28
$HCHDG,273.7,0.0,E,,*28
$GPRMC,220048.4,A,4741.19682,N,12224.24034,W,000.03,135.6,271013,016.6,E,D*2B
$PGRME,2.4,M,2.4,M,3.4,M*29
$HCHDG,273.8,0.0,E,,*27
$YXXDR,A,5.6,D,PTCH,A,2.7,D,ROLL*5B
$HCHDG,273.9,0.0,E,,*26
$GPRMC,220048.6,A,4741.19682,N,12224.24034,W,000.01,135.6,271013,016.6,E,D*2B
$GPRMB,A,0.00,L,Shil,Shil,4741.0830,N,12224.5670,W,0.2,243,-0.00,V*2E
$PGRME,2.4,M,2.4,M,3.4,M*29
$HCHDG,273.8,0.0,E,,*27
$HCHDG,274.0,0.0,E,,*28
$GPRMC,220048.8,A,4741.19681,N,12224.24034,W,000.01,135.6,271013,016.6,E,D*26
$PGRME,2.4,M,2.4,M,3.4,M*29
$HCHDG,274.1,0.0,E,,*29
$HCHDG,274.4,0.0,E,,*2C
$GPRMC,220049.0,A,4741.19681,N,12224.24034,W,000.01,135.6,271013,016.6,E,D*2F
$PGRME,2.4,M,2.4,M,3.4,M*29
$YXXDR,A,5.1,D,PTCH,A,2.1,D,ROLL*5A
$HCHDG,274.3,0.0,E,,*2B
$HCHDG,274.6,0.0,E,,*2E
$GPRMC,220049.2,A,4741.19682,N,12224.24034,W,000.01,135.6,271013,016.6,E,D*2E
$PGRME,2.4,M,2.4,M,3.4,M*29
$HCHDG,274.8,0.0,E,,*20
$HCHDG,275.1,0.0,E,,*28
$GPRMC,220049.4,A,4741.19682,N,12224.24034,W,000.01,135.6,271013,016.6,E,D*28
$PGRME,2.4,M,2.4,M,3.4,M*29
$HCHDG,275.3,0.0,E,,*2A
$YXXDR,A,5.1,D,PTCH,A,1.5,D,ROLL*5D
$PTAK,FFD1,1.5*51
$HCHDG,275.5,0.0,E,,*2C
$GPRMC,220049.6,A,4741.19682,N,12224.24034,W,000.03,135.6,271013,016.6,E,D*28
$PTAK,FFP1,HEEL,@*07
$PGRME,2.4,M,2.4,M,3.4,M*29
$HCHDG,275.3,0.0,E,,*2A
$HCHDG,275.5,0.0,E,,*2C
$GPRMC,220049.8,A,4741.19682,N,12224.24034,W,000.01,135.6,271013,016.6,E,D*24
$GPRMB,A,0.00,L,Shil,Shil,4741.0830,N,12224.5670,W,0.2,243,-0.00,V*2E
$PGRME,2.4,M,2.4,M,3.4,M*29
$HCHDG,275.5,0.0,E,,*2C
$HCHDG,275.5,0.0,E,,*2C
$GPRMC,220050.0,A,4741.19682,N,12224.24034,W,000.05,135.6,271013,016.6,E,D*20
$PGRME,2.4,M,2.4,M,3.4,M*29
$YXXDR,A,5.5,D,PTCH,A,1.7,D,ROLL*5B
$HCHDG,275.6,0.0,E,,*2F
$HCHDG,275.6,0.0,E,,*2F
$GPRMC,220050.2,A,4741.19682,N,12224.24034,W,000.02,135.6,271013,016.6,E,D*25
$PGRME,2.4,M,2.4,M,3.4,M*29
$HCHDG,275.5,0.0,E,,*2C
$HCHDG,275.4,0.0,E,,*2D
$GPRMC,220050.4,A,4741.19682,N,12224.24034,W,000.00,135.6,271013,016.6,E,D*21
$PGRME,2.4,M,2.4,M,3.4,M*29
$HCHDG,275.4,0.0,E,,*2D
$YXXDR,A,5.7,D,PTCH,A,3.1,D,ROLL*5D
$PTAK,FFD1,3.1*57
$HCHDG,275.4,0.0,E,,*2D
$GPRMC,220050.6,A,4741.19682,N,12224.24035,W,000.01,135.6,271013,016.6,E,D*23
$PGRME,2.4,M,2.4,M,3.4,M*29
$HCHDG,275.3,0.0,E,,*2A
$HCHDG,275.3,0.0,E,,*2A
$GPRMC,220050.8,A,4741.19682,N,12224.24035,W,000.02,135.6,271013,016.6,E,D*2E
$PGRME,2.4,M,2.4,M,3.4,M*29
$HCHDG,275.2,0.0,E,,*2B
$HCHDG,275.0,0.0,E,,*29
$GPRMC,220051.0,A,4741.19682,N,12224.24034,W,000.04,135.6,271013,016.6,E,D*20
$GPRMB,A,0.00,L,Shil,Shil,4741.0830,N,12224.5670,W,0.2,243,-0.01,V*2F
$PGRME,2.4,M,2.4,M,3.4,M*29
$YXXDR,A,6.1,D,PTCH,A,3.2,D,ROLL*5B
$HCHDG,274.9,0.0,E,,*21
$HCHDG,274.9,0.0,E,,*21
$GPRMC,220051.2,A,4741.19682,N,12224.24034,W,000.03,135.6,271013,016.6,E,D*25
$PGRME,2.4,M,2.4,M,3.4,M*29
$HCHDG,274.8,0.0,E,,*20
$HCHDG,274.5,0.0,E,,*2D
$GPRMC,220051.4,A,4741.19682,N,12224.24034,W,000.01,135.6,271013,016.6,E,D*21
$PGRME,2.4,M,2.4,M,3.4,M*29
$HCHDG,274.3,0.0,E,,*2B
$YXXDR,A,5.2,D,PTCH,A,1.3,D,ROLL*58
$HCHDG,274.2,0.0,E,,*2A
$GPRMC,220051.6,A,4741.19682,N,12224.24034,W,000.04,135.6,271013,016.6,E,D*26
$PGRME,2.4,M,2.4,M,3.4,M*29
$HCHDG,274.1,0.0,E,,*29
$HCHDG,274.2,0.0,E,,*2A
$GPRMC,220051.8,A,4741.19682,N,12224.24034,W,000.03,135.6,271013,016.6,E,D*2F
$PGRME,2.4,M,2.4,M,3.4,M*29
$HCHDG,273.7,0.0,E,,*28
$HCHDG,273.7,0.0,E,,*28
$GPRMC,220052.0,A,4741.19682,N,12224.24034,W,000.03,135.6,271013,016.6,E,D*24
$PGRME,2.4,M,2.4,M,3.4,M*29
$YXXDR,A,5.1,D,PTCH,A,0.5,D,ROLL*5C
$PTAK,FFD1,0.5*50
$HCHDG,273.7,0.0,E,,*28
$HCHDG,273.8,0.0,E,,*27
$GPRMC,220052.2,A,4741.19682,N,12224.24034,W,000.01,135.6,271013,016.6,E,D*24
$GPRMB,A,0.00,L,Shil,Shil,4741.0830,N,12224.5670,W,0.2,243,-0.00,V*2E
$PGRME,2.4,M,2.4,M,3.4,M*29
$HCHDG,273.7,0.0,E,,*28
$HCHDG,273.7,0.0,E,,*28
$GPRMC,220052.4,A,4741.19682,N,12224.24034,W,000.01,135.6,271013,016.6,E,D*22
$PGRME,2.4,M,2.4,M,3.4,M*29
$HCHDG,273.7,0.0,E,,*28
$YXXDR,A,5.1,D,PTCH,A,0.1,D,ROLL*58
$HCHDG,273.7,0.0,E,,*28
$GPRMC,220052.6,A,4741.19682,N,12224.24034,W,000.01,135.6,271013,016.6,E,D*20
$PGRME,2.4,M,2.4,M,3.4,M*29
$HCHDG,273.8,0.0,E,,*27
$HCHDG,273.8,0.0,E,,*27
$GPRMC,220052.8,A,4741.19682,N,12224.24034,W,000.01,135.6,271013,016.6,E,D*2E
$PGRME,2.4,M,2.4,M,3.4,M*29
$HCHDG,273.9,0.0,E,,*26
$HCHDG,274.0,0.0,E,,*28
$GPRMC,220053.0,A,4741.19682,N,12224.24034,W,000.01,135.6,271013,016.6,E,D*27
$PGRME,2.4,M,2.4,M,3.4,M*29
$YXXDR,A,5.4,D,PTCH,A,0.4,D,ROLL*58
$PTAK,FFD1,0.4*51
$HCHDG,274.0,0.0,E,,*28
$HCHDG,274.1,0.0,E,,*29
$GPRMC,220053.2,A,4741.19682,N,12224.24034,W,000.05,135.6,271013,016.6,E,D*21
$PGRME,2.4,M,2.4,M,3.4,M*29
$HCHDG,274.1,0.0,E,,*29
$HCHDG,274.1,0.0,E,,*29
$GPRMC,220053.4,A,4741.19682,N,12224.24034,W,000.04,135.6,271013,016.6,E,D*26
$GPRMB,A,0.00,L,Shil,Shil,4741.0830,N,12224.5670,W,0.2,243,-0.01,V*2F
$PGRME,2.4,M,2.4,M,3.4,M*29
$HCHDG,274.1,0.0,E,,*29
$YXXDR,A,5.4,D,PTCH,A,0.4,D,ROLL*58
$PTAK,FFP1,HEEL,@*07
$HCHDG,273.8,0.0,E,,*27
$GPRMC,220053.6,A,4741.19682,N,12224.24034,W,000.06,135.6,271013,016.6,E,D*26
$PGRME,2.4,M,2.4,M,3.4,M*29
$HCHDG,273.6,0.0,E,,*29
$HCHDG,273.5,0.0,E,,*2A
$GPRMC,220053.8,A,4741.19682,N,12224.24034,W,000.05,135.6,271013,016.6,E,D*2B
$PGRME,2.4,M,2.4,M,3.4,M*29
$HCHDG,273.3,0.0,E,,*2C
$HCHDG,273.2,0.0,E,,*2D
$GPRMC,220054.0,A,4741.19682,N,12224.24034,W,000.03,135.6,271013,016.6,E,D*22
$PGRME,2.4,M,2.4,M,3.4,M*29
$YXXDR,A,5.4,D,PTCH,A,0.5,D,ROLL*59
$HCHDG,273.0,0.0,E,,*2F
$HCHDG,273.1,0.0,E,,*2E
$GPRMC,220054.2,A,4741.19682,N,12224.24034,W,000.03,135.6,271013,016.6,E,D*20
$PGRME,2.4,M,2.4,M,3.4,M*29
$HCHDG,272.9,0.0,E,,*27
$HCHDG,272.8,0.0,E,,*26
$GPRMC,220054.4,A,4741.19682,N,12224.24034,W,000.01,135.6,271013,016.6,E,D*24
$GPRMB,A,0.00,L,Shil,Shil,4741.0830,N,12224.5670,W,0.2,243,-0.00,V*2E
$PGRME,2.4,M,2.4,M,3.4,M*29
$HCHDG,272.8,0.0,E,,*26
$YXXDR,A,5.7,D,PTCH,A,1.4,D,ROLL*5A
$PTAK,FFD1,1.4*50
$HCHDG,272.7,0.0,E,,*29
$GPRMC,220054.6,A,4741.19682,N,12224.24034,W,000.04,135.6,271013,016.6,E,D*23
$PGRME,2.4,M,2.4,M,3.4,M*29
$HCHDG,272.5,0.0,E,,*2B
$HCHDG,272.6,0.0,E,,*28
$GPRMC,220054.8,A,4741.19682,N,12224.24034,W,000.03,135.6,271013,016.6,E,D*2A
$PGRME,2.4,M,2.4,M,3.4,M*29
$HCHDG,272.5,0.0,E,,*2B
$HCHDG,272.6,0.0,E,,*28
$GPRMC,220055.0,A,4741.19682,N,12224.24034,W,000.02,135.6,271013,016.6,E,D*22
$PGRME,2.4,M,2.4,M,3.4,M*29
$YXXDR,A,5.4,D,PTCH,A,1.4,D,ROLL*59
$HCHDG,272.5,0.0,E,,*2B
$HCHDG,272.7,0.0,E,,*29
$GPRMC,220055.2,A,4741.19682,N,12224.24034,W,000.02,135.6,271013,016.6,E,D*20
$PGRME,2.4,M,2.4,M,3.4,M*29
$HCHDG,272.8,0.0,E,,*26
$HCHDG,272.8,0.0,E,,*26
$GPRMC,220055.4,A,4741.19682,N,12224.24034,W,000.01,135.6,271013,016.6,E,D*25
$GPRMB,A,0.00,L,Shil,Shil,4741.0830,N,12224.5670,W,0.2,243,-0.00,V*2E
$PGRME,2.4,M,2.4,M,3.4,M*29
$HCHDG,272.9,0.0,E,,*27
$YXXDR,A,5.1,D,PTCH,A,1.1,D,ROLL*59
$PTAK,FFD1,1.1*55
$HCHDG,272.8,0.0,E,,*26
$GPRMC,220055.6,A,4741.19682,N,12224.24034,W,000.01,135.6,271013,016.6,E,D*27
$PGRME,2.4,M,2.4,M,3.4,M*29
$HCHDG,273.0,0.0,E,,*2F
$HCHDG,273.2,0.0,E,,*2D
$GPRMC,220055.8,A,4741.19682,N,12224.24034,W,000.01,135.6,271013,016.6,E,D*29
$PGRME,2.4,M,2.4,M,3.4,M*29
$HCHDG,273.1,0.0,E,,*2E
$HCHDG,273.1,0.0,E,,*2E
$GPRMC,220056.0,A,4741.19682,N,12224.24034,W,000.01,135.6,271013,016.6,E,D*22
$PGRME,2.4,M,2.4,M,3.4,M*29
$YXXDR,A,5.1,D,PTCH,A,0.6,D,ROLL*5F
$HCHDG,273.2,0.0,E,,*2D
$HCHDG,273.1,0.0,E,,*2E
$GPRMC,220056.2,A,4741.19682,N,12224.24034,W,000.01,135.6,271013,016.6,E,D*20
$PGRME,2.4,M,2.4,M,3.4,M*29
$HCHDG,273.1,0.0,E,,*2E
$HCHDG,273.0,0.0,E,,*2F
$GPRMC,220056.4,A,4741.19682,N,12224.24034,W,000.01,135.6,271013,016.6,E,D*26
$PGRME,2.4,M,2.4,M,3.4,M*29
$HCHDG,273.1,0.0,E,,*2E
$YXXDR,A,5.3,D,PTCH,A,0.8,D,ROLL*53
$HCHDG,273.1,0.0,E,,*2E
$GPRMC,220056.6,A,4741.19682,N,12224.24034,W,000.02,135.6,271013,016.6,E,D*27
$GPRMB,A,0.00,L,Shil,Shil,4741.0830,N,12224.5670,W,0.2,243,-0.01,V*2F
$PGRME,2.4,M,2.4,M,3.4,M*29
$HCHDG,273.1,0.0,E,,*2E
$HCHDG,273.1,0.0,E,,*2E
$GPRMC,220056.8,A,4741.19682,N,12224.24034,W,000.01,135.6,271013,016.6,E,D*2A
$PGRME,2.4,M,2.4,M,3.4,M*29
$HCHDG,273.2,0.0,E,,*2D
$HCHDG,273.1,0.0,E,,*2E
$GPRMC,220057.0,A,4741.19682,N,12224.24034,W,000.01,135.6,271013,016.6,E,D*23
$PGRME,2.4,M,2.4,M,3.4,M*29
$YXXDR,A,5.4,D,PTCH,A,1.8,D,ROLL*55
$PTAK,FFD1,1.8*5C
$HCHDG,273.0,0.0,E,,*2F
$HCHDG,273.0,0.0,E,,*2F
$GPRMC,220057.2,A,4741.19682,N,12224.24034,W,000.01,135.6,271013,016.6,E,D*21
$PGRME,2.4,M,2.4,M,3.4,M*29
$HCHDG,273.0,0.0,E,,*2F
$HCHDG,273.0,0.0,E,,*2F
$GPRMC,220057.4,A,4741.19682,N,12224.24034,W,000.01,135.6,271013,016.6,E,D*27
$PGRME,2.4,M,2.4,M,3.4,M*29
$HCHDG,272.9,0.0,E,,*27
$YXXDR,A,5.4,D,PTCH,A,1.4,D,ROLL*59
$HCHDG,273.0,0.0,E,,*2F
$GPRMC,220057.6,A,4741.19682,N,12224.24034,W,000.01,135.6,271013,016.6,E,D*25
$GPRMB,A,0.00,L,Shil,Shil,4741.0830,N,12224.5670,W,0.2,243,-0.00,V*2E
$PTAK,FFP1,HEEL,@*07
$PGRME,2.4,M,2.4,M,3.4,M*29
$HCHDG,272.9,0.0,E,,*27
$HCHDG,272.9,0.0,E,,*27
$GPRMC,220057.8,A,4741.19682,N,12224.24034,W,000.02,135.6,271013,016.6,E,D*28
$PGRME,2.4,M,2.4,M,3.4,M*29
$HCHDG,273.1,0.0,E,,*2E
$HCHDG,273.1,0.0,E,,*2E
$GPRMC,220058.0,A,4741.19682,N,12224.24034,W,000.00,135.6,271013,016.6,E,D*2D
$PGRME,2.4,M,2.4,M,3.4,M*29
$YXXDR,A,5.4,D,PTCH,A,2.0,D,ROLL*5E
$HCHDG,273.1,0.0,E,,*2E
$HCHDG,273.2,0.0,E,,*2D
$GPRMC,220058.2,A,4741.19682,N,12224.24034,W,000.02,135.6,271013,016.6,E,D*2D
$PGRME,2.4,M,2.4,M,3.4,M*29
$HCHDG,273.3,0.0,E,,*2C
$HCHDG,273.5,0.0,E,,*2A
$GPRMC,220058.4,A,4741.19682,N,12224.24034,W,000.01,135.6,271013,016.6,E,D*28
$PGRME,2.4,M,2.4,M,3.4,M*29
$HCHDG,273.5,0.0,E,,*2A
$YXXDR,A,5.5,D,PTCH,A,2.1,D,ROLL*5E
$PTAK,FFD1,2.1*56
$HCHDG,273.4,0.0,E,,*2B
$GPRMC,220058.6,A,4741.19682,N,12224.24034,W,000.01,135.6,271013,016.6,E,D*2A
$PGRME,2.4,M,2.4,M,3.4,M*29
$HCHDG,273.5,0.0,E,,*2A
$HCHDG,273.5,0.0,E,,*2A
$GPRMC,220058.8,A,4741.19682,N,12224.24034,W,000.01,135.6,271013,016.6,E,D*24
$GPRMB,A,0.00,L,Shil,Shil,4741.0830,N,12224.5670,W,0.2,243,-0.00,V*2E
$PGRME,2.4,M,2.4,M,3.4,M*29
$HCHDG,273.7,0.0,E,,*28
$HCHDG,273.6,0.0,E,,*29
$GPRMC,220059.0,A,4741.19682,N,12224.24034,W,000.01,135.6,271013,016.6,E,D*2D
$PGRME,2.4,M,2.4,M,3.4,M*29
$YXXDR,A,5.5,D,PTCH,A,0.9,D,ROLL*54
$HCHDG,273.5,0.0,E,,*2A
$HCHDG,273.6,0.0,E,,*29
$GPRMC,220059.2,A,4741.19682,N,12224.24034,W,000.00,135.6,271013,016.6,E,D*2E
$PGRME,2.4,M,2.4,M,3.4,M*29
$HCHDG,273.6,0.0,E,,*29
$HCHDG,273.5,0.0,E,,*2A
$GPRMC,220059.4,A,4741.19682,N,12224.24034,W,000.02,135.6,271013,016.6,E,D*2A
$PGRME,2.4,M,2.4,M,3.4,M*29
$HCHDG,273.3,0.0,E,,*2C
$YXXDR,A,5.3,D,PTCH,A,0.3,D,ROLL*58
$HCHDG,273.4,0.0,E,,*2B
$GPRMC,220059.6,A,4741.19682,N,12224.24034,W,000.01,135.6,271013,016.6,E,D*2B
$PGRME,2.4,M,2.4,M,3.4,M*29
$HCHDG,273.4,0.0,E,,*2B
$HCHDG,273.5,0.0,E,,*2A
$GPRMC,220059.8,A,4741.19682,N,12224.24034,W,000.00,135.6,271013,016.6,E,D*24
$PGRME,2.4,M,2.4,M,3.4,M*29
$HCHDG,273.3,0.0,E,,*2C
$HCHDG,273.4,0.0,E,,*2B
$GPRMC,220100.0,A,4741.19682,N,12224.24034,W,000.00,135.6,271013,016.6,E,D*21
$GPRMB,A,0.00,L,Shil,Shil,4741.0830,N,12224.5670,W,0.2,243,-0.00,V*2E
$PGRME,2.4,M,2.4,M,3.4,M*29
$YXXDR,A,5.2,D,PTCH,A,1.1,D,ROLL*5A
$PTAK,FFD1,1.1*55
$HCHDG,273.4,0.0,E,,*2B
$HCHDG,273.5,0.0,E,,*2A
$GPRMC,220100.2,A,4741.19681,N,12224.24034,W,000.01,135.6,271013,016.6,E,D*21
$PGRME,2.4,M,2.4,M,3.4,M*29
$HCHDG,273.5,0.0,E,,*2A
$HCHDG,273.6,0.0,E,,*29
$GPRMC,220100.4,A,4741.19681,N,12224.24034,W,000.01,135.6,271013,016.6,E,D*27
$PGRME,2.4,M,2.4,M,3.4,M*29
$HCHDG,273.6,0.0,E,,*29
$YXXDR,A,5.5,D,PTCH,A,2.0,D,ROLL*5F
$HCHDG,273.6,0.0,E,,*29
$GPRMC,220100.6,A,4741.19681,N,12224.24034,W,000.00,135.6,271013,016.6,E,D*24
$PGRME,2.4,M,2.4,M,3.4,M*29
$HCHDG,273.6,0.0,E,,*29
$HCHDG,273.5,0.0,E,,*2A
$GPRMC,220100.8,A,4741.19681,N,12224.24034,W,000.01,135.6,271013,016.6,E,D*2B
$PGRME,2.4,M,2.4,M,3.4,M*29
$HCHDG,273.5,0.0,E,,*2A
$HCHDG,273.4,0.0,E,,*2B
$GPRMC,220101.0,A,4741.19681,N,12224.24034,W,000.01,135.6,271013,016.6,E,D*22
$GPRMB,A,0.00,L,Shil,Shil,4741.0830,N,12224.5670,W,0.2,243,-0.00,V*2E
$PGRME,2.4,M,2.4,M,3.4,M*29
$YXXDR,A,5.4,D,PTCH,A,2.2,D,ROLL*5C
$HCHDG,273.3,0.0,E,,*2C
$HCHDG,273.3,0.0,E,,*2C
$GPRMC,220101.2,A,4741.19681,N,12224.24034,W,000.01,135.6,271013,016.6,E,D*20
$PGRME,2.4,M,2.4,M,3.4,M*29
$HCHDG,273.5,0.0,E,,*2A
$HCHDG,273.4,0.0,E,,*2B
$GPRMC,220101.4,A,4741.19681,N,12224.24034,W,000.01,135.6,271013,016.6,E,D*26
$PGRME,2.4,M,2.4,M,3.4,M*29
$HCHDG,273.3,0.0,E,,*2C
$YXXDR,A,5.5,D,PTCH,A,3.4,D,ROLL*5A
$PTAK,FFD1,3.4*52
$HCHDG,273.3,0.0,E,,*2C
$GPRMC,220101.6,A,4741.19681,N,12224.24034,W,000.01,135.6,271013,016.6,E,D*24
$PTAK,FFP1,HEEL,@*07
$PGRME,2.4,M,2.4,M,3.4,M*29
$HCHDG,273.3,0.0,E,,*2C
$HCHDG,273.3,0.0,E,,*2C
$GPRMC,220101.8,A,4741.19681,N,12224.24034,W,000.02,135.6,271013,016.6,E,D*29
$PGRME,2.4,M,2.4,M,3.4,M*29
$HCHDG,273.3,0.0,E,,*2C
$HCHDG,273.3,0.0,E,,*2C
$GPRMC,220102.0,A,4741.19681,N,12224.24034,W,000.01,135.6,271013,016.6,E,D*21
$GPRMB,A,0.00,L,Shil,Shil,4741.0830,N,12224.5670,W,0.2,243,-0.00,V*2E
$PGRME,2.4,M,2.4,M,3.4,M*29
$YXXDR,A,5.4,D,PTCH,A,2.8,D,ROLL*56
$HCHDG,273.3,0.0,E,,*2C
$HCHDG,273.3,0.0,E,,*2C
$GPRMC,220102.2,A,4741.19681,N,12224.24033,W,000.01,135.6,271013,016.6,E,D*24
$PGRME,2.4,M,2.4,M,3.4,M*29
$HCHDG,273.3,0.0,E,,*2C
$HCHDG,273.3,0.0,E,,*2C
$GPRMC,220102.4,A,4741.19681,N,12224.24033,W,000.00,135.6,271013,016.6,E,D*23
$PGRME,2.4,M,2.4,M,3.4,M*29
$HCHDG,273.3,0.0,E,,*2C
$YXXDR,A,5.4,D,PTCH,A,2.0,D,ROLL*5E
$PTAK,FFD1,2.0*57
$HCHDG,273.4,0.0,E,,*2B
$GPRMC,220102.6,A,4741.19681,N,12224.24033,W,000.01,135.6,271013,016.6,E,D*20
$PGRME,2.4,M,2.4,M,3.4,M*29
$HCHDG,273.4,0.0,E,,*2B
$HCHDG,273.3,0.0,E,,*2C
$GPRMC,220102.8,A,4741.19681,N,12224.24033,W,000.02,135.6,271013,016.6,E,D*2D
$PGRME,2.4,M,2.4,M,3.4,M*29
$HCHDG,273.4,0.0,E,,*2B
$HCHDG,273.4,0.0,E,,*2B
$GPRMC,220103.0,A,4741.19681,N,12224.24033,W,000.01,135.6,271013,016.6,E,D*27
$PGRME,2.4,M,2.4,M,3.4,M*29
$YXXDR,A,5.4,D,PTCH,A,1.2,D,ROLL*5F
$HCHDG,273.2,0.0,E,,*2D
$HCHDG,273.2,0.0,E,,*2D
$GPRMC,220103.2,A,4741.19681,N,12224.24033,W,000.01,135.6,271013,016.6,E,D*25
$GPRMB,A,0.00,L,Shil,Shil,4741.0830,N,12224.5670,W,0.2,243,-0.00,V*2E
$PGRME,2.4,M,2.4,M,3.4,M*29
$HCHDG,273.2,0.0,E,,*2D
$HCHDG,273.2,0.0,E,,*2D
$GPRMC,220103.4,A,4741.19681,N,12224.24033,W,000.01,135.6,271013,016.6,E,D*23
$PGRME,2.4,M,2.4,M,3.4,M*29
$HCHDG,273.2,0.0,E,,*2D
$YXXDR,A,5.2,D,PTCH,A,1.1,D,ROLL*5A
$HCHDG,273.2,0.0,E,,*2D
$GPRMC,220103.6,A,4741.19681,N,12224.24033,W,000.01,135.6,271013,016.6,E,D*21
$PGRME,2.4,M,2.4,M,3.4,M*29
$HCHDG,273.2,0.0,E,,*2D
$HCHDG,273.5,0.0,E,,*2A
