$GPRMB,A,0.00,L,Shil,Shil,4741.0830,N,12224.5670,W,0.2,240,0.00,V*00
$PGRME,2.4,M,2.4,M,3.5,M*28
$YXXDR,A,6.0,D,PTCH,A,3.5,D,ROLL*5D
$HCHDG,270.4,0.0,E,,*28
$HCHDG,270.5,0.0,E,,*29
$GPRMC,200000.4,A,4741.20150,N,12224.26376,W,000.01,296.6,061013,016.6,E,D*2B
$PGRME,2.4,M,2.4,M,3.5,M*28
$HCHDG,270.6,0.0,E,,*2A
$HCHDG,270.6,0.0,E,,*2A
$GPRMC,200000.6,A,4741.20150,N,12224.26376,W,000.00,296.6,061013,016.6,E,D*28
$PGRME,2.4,M,2.4,M,3.4,M*29
$HCHDG,270.6,0.0,E,,*2A
$YXXDR,A,5.8,D,PTCH,A,3.9,D,ROLL*5A
$HCHDG,270.6,0.0,E,,*2A
$GPRMC,200000.8,A,4741.20150,N,12224.26376,W,000.01,296.6,061013,016.6,E,D*27
$PGRME,2.4,M,2.4,M,3.4,M*29
$HCHDG,270.7,0.0,E,,*2B
$HCHDG,270.7,0.0,E,,*2B
$GPRMC,200001.0,A,4741.20150,N,12224.26376,W,000.01,296.6,061013,016.6,E,D*2E
$PGRME,2.4,M,2.4,M,3.4,M*29
$HCHDG,270.7,0.0,E,,*2B
$HCHDG,270.8,0.0,E,,*24
$GPRMC,200001.2,A,4741.20150,N,12224.26376,W,000.00,296.6,061013,016.6,E,D*2D
$PGRME,2.4,M,2.4,M,3.4,M*29
$YXXDR,A,5.8,D,PTCH,A,4.4,D,ROLL*50
$PTAK,FFD1,4.4*55
$HCHDG,270.7,0.0,E,,*2B
$HCHDG,270.7,0.0,E,,*2B
$GPRMC,200001.4,A,4741.20150,N,12224.26376,W,000.01,296.6,061013,016.6,E,D*2A
$GPRMB,A,0.00,L,Shil,Shil,4741.0830,N,12224.5670,W,0.2,240,0.01,V*01
$PGRME,2.4,M,2.4,M,3.4,M*29
$HCHDG,270.8,0.0,E,,*24
$HCHDG,270.8,0.0,E,,*24
$GPRMC,200001.6,A,4741.20150,N,12224.26377,W,000.00,296.6,061013,016.6,E,D*28
$PGRME,2.4,M,2.4,M,3.4,M*29
$IIMWV,236,R,03.2,N,A*15
$HCHDG,270.9,0.0,E,,*25
$IIMWV,241,T,03.1,N,A*10
$YXXDR,A,5.8,D,PTCH,A,4.6,D,ROLL*52
$GPRMC,200001.8,A,4741.20150,N,12224.26377,W,000.00,296.6,061013,016.6,E,D*26
$HCHDG,270.9,0.0,E,,*25
$PGRME,2.4,M,2.4,M,3.4,M*29
$IIRMB,A,0.00,L,,Shil,,,,,000.2,240,,V,A*7D
$HCHDG,270.8,0.0,E,,*24
$IIRMC,200000,A,4741.201,N,12224.263,W,00.0,296,061013,16,E,A*16
$HCHDG,270.9,0.0,E,,*25
$GPRMC,200002.0,A,4741.20149,N,12224.26377,W,000.00,296.6,061013,016.6,E,D*25
$PGRME,2.4,M,2.4,M,3.4,M*29
$IIVHW,,,,,00.0,N,,*19
$IIVLW,06392,N,010.3,N*5F
$HCHDG,270.9,0.0,E,,*25
$IIVWR,124,L,03.2,N,,,,*79
$HCHDG,270.8,0.0,E,,*24
$IIDPT,006.2,-1.0,*44
$GPRMC,200002.2,A,4741.20149,N,12224.26377,W,000.00,296.6,061013,016.6,E,D*27
$PGRME,2.4,M,2.4,M,3.4,M*29
$YXXDR,A,5.7,D,PTCH,A,4.8,D,ROLL*53
$PTAK,FFD1,4.8*59
$HCHDG,270.8,0.0,E,,*24
$HCHDG,270.9,0.0,E,,*25
$GPRMC,200002.4,A,4741.20149,N,12224.26377,W,000.00,296.6,061013,016.6,E,D*21
$PGRME,2.4,M,2.4,M,3.4,M*29
$HCHDG,270.9,0.0,E,,*25
$HCHDG,270.8,0.0,E,,*24
$GPRMC,200002.6,A,4741.20149,N,12224.26377,W,000.00,296.6,061013,016.6,E,D*23
$GPRMB,A,0.00,L,Shil,Shil,4741.0830,N,12224.5670,W,0.2,240,0.00,V*00
$PGRME,2.4,M,2.4,M,3.4,M*29
$HCHDG,270.9,0.0,E,,*25
$PTAK,FFP1,HEEL,@*07
$IIGLL,4741.201,N,12224.263,W,200000,A,A*45
$YXXDR,A,5.8,D,PTCH,A,4.9,D,ROLL*5D
$IIMTW,+10.5,C*3C
$HCHDG,270.9,0.0,E,,*25
$GPRMC,200002.8,A,4741.20149,N,12224.26377,W,000.00,296.6,061013,016.6,E,D*2D
$PGRME,2.4,M,2.4,M,3.4,M*29
$IIMWV,237,R,02.9,N,A*1E
$IIMWV,228,T,03.0,N,A*1E
$HCHDG,270.8,0.0,E,,*24
$IIRMB,A,0.00,L,,Shil,,,,,000.2,240,,V,A*7D
$HCHDG,270.9,0.0,E,,*25
$GPRMC,200003.0,A,4741.20150,N,12224.26377,W,000.00,296.6,061013,016.6,E,D*2C
$PGRME,2.4,M,2.4,M,3.4,M*29
$HCHDG,270.8,0.0,E,,*24
$IIRMC,200000,A,4741.201,N,12224.263,W,00.0,296,061013,16,E,A*16
$IIVHW,,,,,00.0,N,,*19
$HCHDG,270.8,0.0,E,,*24
$GPRMC,200003.2,A,4741.20150,N,12224.26377,W,000.00,296.6,061013,016.6,E,D*2E
$IIVLW,06392,N,010.3,N*5F
$PGRME,2.4,M,2.4,M,3.4,M*29
$YXXDR,A,5.8,D,PTCH,A,4.3,D,ROLL*57
$PTAK,FFD1,4.3*52
$HCHDG,270.8,0.0,E,,*24
$HCHDG,270.7,0.0,E,,*2B
$GPRMC,200003.4,A,4741.20150,N,12224.26377,W,000.01,296.6,061013,016.6,E,D*29
$PGRME,2.4,M,2.4,M,3.4,M*29
$HCHDG,270.7,0.0,E,,*2B
$HCHDG,270.7,0.0,E,,*2B
$GPRMC,200003.6,A,4741.20150,N,12224.26377,W,000.01,296.6,061013,016.6,E,D*2B
$PGRME,2.4,M,2.4,M,3.4,M*29
$HCHDG,270.7,0.0,E,,*2B
$IIVWR,111,L,03.0,N,,,,*7D
$IIDPT,006.2,-1.0,*44
$YXXDR,A,5.8,D,PTCH,A,3.5,D,ROLL*56
$HCHDG,270.6,0.0,E,,*2A
$GPRMC,200003.8,A,4741.20150,N,12224.26376,W,000.00,296.6,061013,016.6,E,D*25
$GPRMB,A,0.00,L,Shil,Shil,4741.0830,N,12224.5670,W,0.2,240,0.00,V*00
$PGRME,2.4,M,2.4,M,3.4,M*29
$IIGLL,4741.201,N,12224.263,W,200000,A,A*45
$IIMTW,+10.5,C*3C
$HCHDG,270.6,0.0,E,,*2A
$IIMWV,249,R,03.0,N,A*1F
$HCHDG,270.6,0.0,E,,*2A
$IIMWV,237,T,02.9,N,A*18
$GPRMC,200004.0,A,4741.20149,N,12224.26376,W,000.00,296.6,061013,016.6,E,D*22
$PGRME,2.4,M,2.4,M,3.4,M*29
$IIRMB,A,0.00,L,,Shil,,,,,000.2,240,,V,A*7D
$HCHDG,270.5,0.0,E,,*29
$HCHDG,270.6,0.0,E,,*2A
$GPRMC,200004.2,A,4741.20149,N,12224.26376,W,000.01,296.6,061013,016.6,E,D*21
$IIRMC,200000,A,4741.201,N,12224.263,W,00.0,296,061013,16,E,A*16
$PGRME,2.4,M,2.4,M,3.4,M*29
$YXXDR,A,5.7,D,PTCH,A,3.3,D,ROLL*5F
$PTAK,FFD1,3.3*55
$HCHDG,270.6,0.0,E,,*2A
$HCHDG,270.6,0.0,E,,*2A
$GPRMC,200004.4,A,4741.20149,N,12224.26376,W,000.01,296.6,061013,016.6,E,D*27
$PGRME,2.4,M,2.4,M,3.4,M*29
$HCHDG,270.6,0.0,E,,*2A
$HCHDG,270.6,0.0,E,,*2A
$GPRMC,200004.6,A,4741.20149,N,12224.26376,W,000.00,296.6,061013,016.6,E,D*24
$PGRME,2.4,M,2.4,M,3.4,M*29
$HCHDG,270.6,0.0,E,,*2A
$IIVHW,,,,,00.0,N,,*19
$IIVLW,06392,N,010.3,N*5F
$YXXDR,A,5.7,D,PTCH,A,3.5,D,ROLL*59
$IIVWR,102,L,02.9,N,,,,*77
$HCHDG,270.6,0.0,E,,*2A
$GPRMC,200004.8,A,4741.20149,N,12224.26376,W,000.00,296.6,061013,016.6,E,D*2A
$GPRMB,A,0.00,L,Shil,Shil,4741.0830,N,12224.5670,W,0.2,240,0.00,V*00
$PGRME,2.4,M,2.4,M,3.4,M*29
$IIDPT,006.2,-1.0,*44
$HCHDG,270.6,0.0,E,,*2A
$IIGLL,4741.201,N,12224.263,W,200000,A,A*45
$HCHDG,270.6,0.0,E,,*2A
$IIMTW,+10.5,C*3C
$GPRMC,200005.0,A,4741.20149,N,12224.26376,W,000.00,296.6,061013,016.6,E,D*23
$PGRME,2.4,M,2.4,M,3.4,M*29
$IIMWV,258,R,02.9,N,A*17
$HCHDG,270.6,0.0,E,,*2A
$IIMWV,249,T,03.0,N,A*19
$HCHDG,270.6,0.0,E,,*2A
$IIRMB,A,0.00,L,,Shil,,,,,000.2,240,,V,A*7D
$GPRMC,200005.2,A,4741.20149,N,12224.26376,W,000.00,296.6,061013,016.6,E,D*21
$PGRME,2.4,M,2.4,M,3.4,M*29
$YXXDR,A,5.8,D,PTCH,A,4.1,D,ROLL*55
$HCHDG,270.6,0.0,E,,*2A
$HCHDG,270.6,0.0,E,,*2A
$GPRMC,200005.4,A,4741.20149,N,12224.26376,W,000.01,296.6,061013,016.6,E,D*26
$PGRME,2.4,M,2.4,M,3.4,M*29
$HCHDG,270.6,0.0,E,,*2A
$HCHDG,270.6,0.0,E,,*2A
$GPRMC,200005.6,A,4741.20149,N,12224.26375,W,000.01,296.6,061013,016.6,E,D*27
$PGRME,2.4,M,2.4,M,3.4,M*29
$HCHDG,270.6,0.0,E,,*2A
$YXXDR,A,5.7,D,PTCH,A,4.8,D,ROLL*53
$PTAK,FFD1,4.8*59
$IIRMC,200000,A,4741.201,N,12224.263,W,00.0,296,061013,16,E,A*16
$HCHDG,270.7,0.0,E,,*2B
$GPRMC,200005.8,A,4741.20149,N,12224.26375,W,000.00,296.6,061013,016.6,E,D*28
$PGRME,2.4,M,2.4,M,3.4,M*29
$IIVHW,,,,,00.0,N,,*19
$HCHDG,270.7,0.0,E,,*2B
$IIVLW,06392,N,010.3,N*5F
$IIVWR,087,L,02.7,N,,,,*75
$HCHDG,270.7,0.0,E,,*2B
$IIDPT,006.2,-1.0,*44
$GPRMC,200006.0,A,4741.20149,N,12224.26375,W,000.01,296.6,061013,016.6,E,D*22
$GPRMB,A,0.00,L,Shil,Shil,4741.0830,N,12224.5670,W,0.2,240,0.01,V*01
$PGRME,2.4,M,2.4,M,3.4,M*29
$HCHDG,270.7,0.0,E,,*2B
$IIGLL,4741.201,N,12224.263,W,200000,A,A*45
$IIMTW,+10.5,C*3C
$IIMWV,273,R,02.7,N,A*10
$HCHDG,270.7,0.0,E,,*2B
$GPRMC,200006.2,A,4741.20149,N,12224.26376,W,000.00,296.6,061013,016.6,E,D*22
$PGRME,2.4,M,2.4,M,3.4,M*29
$IIMWV,258,T,02.9,N,A*11
$YXXDR,A,5.8,D,PTCH,A,4.5,D,ROLL*51
$HCHDG,270.7,0.0,E,,*2B
$HCHDG,270.7,0.0,E,,*2B
$GPRMC,200006.4,A,4741.20149,N,12224.26375,W,000.01,296.6,061013,016.6,E,D*26
$PGRME,2.4,M,2.4,M,3.4,M*29
$HCHDG,270.7,0.0,E,,*2B
$HCHDG,270.9,0.0,E,,*25
$GPRMC,200006.6,A,4741.20149,N,12224.26375,W,000.00,296.6,061013,016.6,E,D*25
$PGRME,2.4,M,2.4,M,3.5,M*28
$HCHDG,270.9,0.0,E,,*25
$IIRMB,A,0.00,L,,Shil,,,,,000.2,240,,V,A*7D
$YXXDR,A,5.7,D,PTCH,A,4.1,D,ROLL*5A
$PTAK,FFD1,4.1*50
$HCHDG,270.9,0.0,E,,*25
$GPRMC,200006.8,A,4741.20149,N,12224.26376,W,000.01,296.6,061013,016.6,E,D*29
$PTAK,FFP1,HEEL,@*07
$PGRME,2.5,M,2.4,M,3.5,M*29
$IIRMC,200000,A,4741.201,N,12224.263,W,00.0,296,061013,16,E,A*16
$HCHDG,270.9,0.0,E,,*25
$IIVHW,,,,,00.0,N,,*19
$IIVLW,06392,N,010.3,N*5F
$HCHDG,270.8,0.0,E,,*24
$GPRMC,200007.0,A,4741.20148,N,12224.26376,W,000.02,296.6,061013,016.6,E,D*22
$PGRME,2.5,M,2.4,M,3.5,M*29
$IIVWR,087,L,02.6,N,,,,*74
$IIDPT,006.2,-1.0,*44
$HCHDG,270.8,0.0,E,,*24
$IIGLL,4741.201,N,12224.263,W,200000,A,A*45
$HCHDG,270.8,0.0,E,,*24
$IIMTW,+10.5,C*3C
$GPRMC,200007.2,A,4741.20149,N,12224.26376,W,000.01,296.6,061013,016.6,E,D*22
$GPRMB,A,0.00,L,Shil,Shil,4741.0830,N,12224.5670,W,0.2,240,0.01,V*01
$PGRME,2.5,M,2.4,M,3.5,M*29
$YXXDR,A,5.8,D,PTCH,A,3.4,D,ROLL*57
$HCHDG,270.8,0.0,E,,*24
$HCHDG,270.9,0.0,E,,*25
$GPRMC,200007.4,A,4741.20149,N,12224.26375,W,000.01,296.6,061013,016.6,E,D*27
$PGRME,2.5,M,2.4,M,3.5,M*29
$HCHDG,270.9,0.0,E,,*25
$HCHDG,270.7,0.0,E,,*2B
$GPRMC,200007.6,A,4741.20149,N,12224.26375,W,000.01,296.6,061013,016.6,E,D*25
$PGRME,2.5,M,2.4,M,3.5,M*29
$HCHDG,270.7,0.0,E,,*2B
$IIMWV,275,R,02.7,N,A*16
$IIMWV,273,T,02.6,N,A*17
$YXXDR,A,5.8,D,PTCH,A,3.0,D,ROLL*53
$PTAK,FFD1,3.0*56
$HCHDG,270.7,0.0,E,,*2B
$GPRMC,200007.8,A,4741.20150,N,12224.26375,W,000.01,296.6,061013,016.6,E,D*23
$PGRME,2.5,M,2.4,M,3.5,M*29
$IIRMB,A,0.00,L,,Shil,,,,,000.2,240,,V,A*7D
$HCHDG,270.7,0.0,E,,*2B
$IIRMC,200000,A,4741.201,N,12224.263,W,00.0,296,061013,16,E,A*16
$HCHDG,270.7,0.0,E,,*2B
$GPRMC,200008.0,A,4741.20150,N,12224.26375,W,000.01,296.6,061013,016.6,E,D*24
$PGRME,2.5,M,2.4,M,3.5,M*29
$IIVHW,,,,,00.0,N,,*19
$HCHDG,270.7,0.0,E,,*2B
$IIVLW,06392,N,010.3,N*5F
$IIVWR,085,L,02.7,N,,,,*77
$HCHDG,270.7,0.0,E,,*2B
$IIDPT,006.2,-1.0,*44
$GPRMC,200008.2,A,4741.20149,N,12224.26374,W,000.00,296.6,061013,016.6,E,D*2E
$PGRME,2.4,M,2.4,M,3.4,M*29
$YXXDR,A,5.8,D,PTCH,A,3.0,D,ROLL*53
$HCHDG,270.7,0.0,E,,*2B
$HCHDG,270.7,0.0,E,,*2B
$GPRMC,200008.4,A,4741.20149,N,12224.26374,W,000.01,296.6,061013,016.6,E,D*29
$GPRMB,A,0.00,L,Shil,Shil,4741.0830,N,12224.5670,W,0.2,240,0.01,V*01
$PGRME,2.4,M,2.4,M,3.4,M*29
$HCHDG,270.7,0.0,E,,*2B
$HCHDG,270.7,0.0,E,,*2B
$GPRMC,200008.6,A,4741.20149,N,12224.26374,W,000.01,296.6,061013,016.6,E,D*2B
$PGRME,2.4,M,2.4,M,3.4,M*29
$HCHDG,270.7,0.0,E,,*2B
$IIGLL,4741.201,N,12224.263,W,200000,A,A*45
$YXXDR,A,5.7,D,PTCH,A,3.3,D,ROLL*5F
$IIMTW,+10.5,C*3C
$HCHDG,270.7,0.0,E,,*2B
$GPRMC,200008.8,A,4741.20149,N,12224.26374,W,000.00,296.6,061013,016.6,E,D*24
$PGRME,2.4,M,2.4,M,3.4,M*29
$IIMWV,276,R,02.7,N,A*15
$IIMWV,275,T,02.7,N,A*10
$HCHDG,270.7,0.0,E,,*2B
$IIRMB,A,0.00,L,,Shil,,,,,000.2,240,,V,A*7D
$HCHDG,270.8,0.0,E,,*24
$GPRMC,200009.0,A,4741.20148,N,12224.26375,W,000.01,296.6,061013,016.6,E,D*2C
$PGRME,2.4,M,2.4,M,3.4,M*29
$HCHDG,270.8,0.0,E,,*24
$IIRMC,200000,A,4741.201,N,12224.263,W,00.0,296,061013,16,E,A*16
$IIVHW,,,,,00.0,N,,*19
$HCHDG,270.8,0.0,E,,*24
$GPRMC,200009.2,A,4741.20148,N,12224.26374,W,000.01,296.6,061013,016.6,E,D*2F
$IIVLW,06392,N,010.3,N*5F
$PGRME,2.4,M,2.4,M,3.4,M*29
$YXXDR,A,5.7,D,PTCH,A,3.8,D,ROLL*54
$PTAK,FFD1,3.8*5E
$HCHDG,270.8,0.0,E,,*24
$HCHDG,270.9,0.0,E,,*25
$GPRMC,200009.4,A,4741.20149,N,12224.26374,W,000.01,296.6,061013,016.6,E,D*28
$PGRME,2.4,M,2.4,M,3.4,M*29
$HCHDG,270.9,0.0,E,,*25
$HCHDG,270.9,0.0,E,,*25
$GPRMC,200009.6,A,4741.20149,N,12224.26374,W,000.01,296.6,061013,016.6,E,D*2A
$GPRMB,A,0.00,L,Shil,Shil,4741.0830,N,12224.5670,W,0.2,240,0.01,V*01
$PGRME,2.4,M,2.4,M,3.4,M*29
$HCHDG,270.9,0.0,E,,*25
$IIVWR,099,L,02.6,N,,,,*7B
$IIDPT,006.2,-1.0,*44
$YXXDR,A,5.8,D,PTCH,A,3.9,D,ROLL*5A
$HCHDG,270.9,0.0,E,,*25
$GPRMC,200009.8,A,4741.20149,N,12224.26374,W,000.01,296.6,061013,016.6,E,D*24
$PGRME,2.4,M,2.4,M,3.4,M*29
$IIGLL,4741.201,N,12224.263,W,200000,A,A*45
$IIMTW,+10.5,C*3C
$HCHDG,270.9,0.0,E,,*25
$IIMWV,261,R,02.6,N,A*12
$HCHDG,270.9,0.0,E,,*25
$IIMWV,276,T,02.7,N,A*13
$GPRMC,200010.0,A,4741.20149,N,12224.26374,W,000.01,296.6,061013,016.6,E,D*24
$PGRME,2.4,M,2.4,M,3.4,M*29
$IIRMB,A,0.00,L,,Shil,,,,,000.2,240,,V,A*7D
$HCHDG,270.9,0.0,E,,*25
$HCHDG,270.9,0.0,E,,*25
$GPRMC,200010.2,A,4741.20150,N,12224.26374,W,000.01,296.6,061013,016.6,E,D*2E
$IIRMC,200000,A,4741.201,N,12224.263,W,00.0,296,061013,16,E,A*16
$PGRME,2.4,M,2.4,M,3.4,M*29
$YXXDR,A,5.8,D,PTCH,A,4.3,D,ROLL*57
$PTAK,FFD1,4.3*52
$HCHDG,270.9,0.0,E,,*25
$HCHDG,270.9,0.0,E,,*25
$GPRMC,200010.4,A,4741.20150,N,12224.26374,W,000.01,296.6,061013,016.6,E,D*28
$PGRME,2.4,M,2.4,M,3.4,M*29
$HCHDG,270.9,0.0,E,,*25
$HCHDG,270.9,0.0,E,,*25
$GPRMC,200010.6,A,4741.20150,N,12224.26374,W,000.01,296.6,061013,016.6,E,D*2A
$PGRME,2.4,M,2.4,M,3.4,M*29
$HCHDG,270.9,0.0,E,,*25
$IIVHW,,,,,00.0,N,,*19
$IIVLW,06392,N,010.3,N*5F
$YXXDR,A,5.8,D,PTCH,A,4.0,D,ROLL*54
$IIVWR,104,L,02.5,N,,,,*7D
$HCHDG,271.0,0.0,E,,*2D
$GPRMC,200010.8,A,4741.20150,N,12224.26374,W,000.01,296.6,061013,016.6,E,D*24
$GPRMB,A,0.00,L,Shil,Shil,4741.0830,N,12224.5670,W,0.2,240,0.01,V*01
$PTAK,FFP1,HEEL,@*07
$PGRME,2.4,M,2.4,M,3.4,M*29
$IIDPT,006.2,-1.0,*44
$HCHDG,271.0,0.0,E,,*2D
$IIGLL,4741.201,N,12224.263,W,200000,A,A*45
$IIMTW,+10.5,C*3C
$HCHDG,271.0,0.0,E,,*2D
$GPRMC,200011.0,A,4741.20150,N,12224.26374,W,000.01,296.6,061013,016.6,E,D*2D
$PGRME,2.4,M,2.4,M,3.4,M*29
$IIMWV,256,R,02.5,N,A*15
$HCHDG,270.9,0.0,E,,*25
$IIMWV,261,T,02.6,N,A*14
$HCHDG,270.9,0.0,E,,*25
$IIRMB,A,0.00,L,,Shil,,,,,000.2,240,,V,A*7D
$GPRMC,200011.2,A,4741.20150,N,12224.26374,W,000.01,296.6,061013,016.6,E,D*2F
$PGRME,2.4,M,2.4,M,3.4,M*29
$YXXDR,A,5.7,D,PTCH,A,3.5,D,ROLL*59
$HCHDG,270.9,0.0,E,,*25
$HCHDG,270.8,0.0,E,,*24
$GPRMC,200011.4,A,4741.20149,N,12224.26374,W,000.00,296.6,061013,016.6,E,D*20
$PGRME,2.4,M,2.4,M,3.4,M*29
$HCHDG,270.8,0.0,E,,*24
$HCHDG,270.8,0.0,E,,*24
$GPRMC,200011.6,A,4741.20150,N,12224.26374,W,000.00,296.6,061013,016.6,E,D*2A
$PGRME,2.4,M,2.4,M,3.4,M*29
$HCHDG,270.7,0.0,E,,*2B
$YXXDR,A,5.8,D,PTCH,A,3.2,D,ROLL*51
$PTAK,FFD1,3.2*54
$IIRMC,200000,A,4741.201,N,12224.263,W,00.0,296,061013,16,E,A*16
$HCHDG,270.7,0.0,E,,*2B
$GPRMC,200011.8,A,4741.20150,N,12224.26374,W,000.00,296.6,061013,016.6,E,D*24
$PGRME,2.4,M,2.4,M,3.4,M*29
$IIVHW,,,,,00.0,N,,*19
$IIVLW,06392,N,010.3,N*5F
$HCHDG,270.7,0.0,E,,*2B
$IIVWR,096,L,02.7,N,,,,*75
$HCHDG,270.7,0.0,E,,*2B
$IIDPT,006.2,-1.0,*44
$GPRMC,200012.0,A,4741.20150,N,12224.26374,W,000.01,296.6,061013,016.6,E,D*2E
$GPRMB,A,0.00,L,Shil,Shil,4741.0830,N,12224.5670,W,0.2,240,0.01,V*01
$PGRME,2.4,M,2.4,M,3.4,M*29
$HCHDG,270.7,0.0,E,,*2B
$IIGLL,4741.201,N,12224.263,W,200000,A,A*45
$IIMTW,+10.5,C*3C
$IIMWV,264,R,02.7,N,A*16
$HCHDG,270.7,0.0,E,,*2B
$GPRMC,200012.2,A,4741.20150,N,12224.26373,W,000.00,296.6,061013,016.6,E,D*2A
$PGRME,2.4,M,2.4,M,3.4,M*29
$IIMWV,256,T,02.5,N,A*13
$YXXDR,A,5.8,D,PTCH,A,2.9,D,ROLL*5B
$HCHDG,270.7,0.0,E,,*2B
$HCHDG,270.7,0.0,E,,*2B
$GPRMC,200012.4,A,4741.20150,N,12224.26373,W,000.01,296.6,061013,016.6,E,D*2D
$PGRME,2.4,M,2.4,M,3.4,M*29
$HCHDG,270.7,0.0,E,,*2B
$HCHDG,270.7,0.0,E,,*2B
$GPRMC,200012.6,A,4741.20150,N,12224.26373,W,000.01,296.6,061013,016.6,E,D*2F
$PGRME,2.4,M,2.4,M,3.4,M*29
$HCHDG,270.7,0.0,E,,*2B
$IIRMB,A,0.00,L,,Shil,,,,,000.2,240,,V,A*7D
$YXXDR,A,5.8,D,PTCH,A,3.2,D,ROLL*51
$PTAK,FFD1,3.2*54
$HCHDG,270.7,0.0,E,,*2B
$GPRMC,200012.8,A,4741.20150,N,12224.26373,W,000.01,296.6,061013,016.6,E,D*21
$PGRME,2.4,M,2.4,M,3.4,M*29
$IIRMC,200000,A,4741.201,N,12224.263,W,00.0,296,061013,16,E,A*16
$HCHDG,270.7,0.0,E,,*2B
$IIVHW,,,,,00.0,N,,*19
$IIVLW,06392,N,010.3,N*5F
$HCHDG,270.7,0.0,E,,*2B
$GPRMC,200013.0,A,4741.20150,N,12224.26373,W,000.01,296.6,061013,016.6,E,D*28
$PGRME,2.4,M,2.4,M,3.4,M*29
$IIVWR,095,L,02.6,N,,,,*77
$IIDPT,006.2,-1.0,*44
$HCHDG,270.7,0.0,E,,*2B
$IIGLL,4741.201,N,12224.263,W,200000,A,A*45
$HCHDG,270.9,0.0,E,,*25
$IIMTW,+10.5,C*3C
$GPRMC,200013.2,A,4741.20149,N,12224.26373,W,000.01,296.6,061013,016.6,E,D*22
$GPRMB,A,0.00,L,Shil,Shil,4741.0830,N,12224.5670,W,0.2,240,0.01,V*01
$PGRME,2.4,M,2.4,M,3.4,M*29
$YXXDR,A,5.8,D,PTCH,A,3.6,D,ROLL*55
$HCHDG,270.9,0.0,E,,*25
$HCHDG,270.9,0.0,E,,*25
$GPRMC,200013.4,A,4741.20149,N,12224.26373,W,000.01,296.6,061013,016.6,E,D*24
$PGRME,2.4,M,2.4,M,3.4,M*29
$HCHDG,270.9,0.0,E,,*25
$HCHDG,270.8,0.0,E,,*24
$GPRMC,200013.6,A,4741.20149,N,12224.26373,W,000.00,296.6,061013,016.6,E,D*27
$PGRME,2.4,M,2.4,M,3.4,M*29
$HCHDG,270.8,0.0,E,,*24
$IIMWV,263,R,02.6,N,A*10
$IIMWV,265,T,02.6,N,A*10
$YXXDR,A,5.8,D,PTCH,A,2.9,D,ROLL*5B
$PTAK,FFD1,2.9*5E
$HCHDG,270.8,0.0,E,,*24
$GPRMC,200013.8,A,4741.20149,N,12224.26373,W,000.01,296.6,061013,016.6,E,D*28
$PGRME,2.4,M,2.4,M,3.4,M*29
$IIRMB,A,0.00,L,,Shil,,,,,000.2,240,,V,A*7D
$HCHDG,270.6,0.0,E,,*2A
$IIRMC,200000,A,4741.201,N,12224.263,W,00.0,296,061013,16,E,A*16
$HCHDG,270.6,0.0,E,,*2A
$GPRMC,200014.0,A,4741.20149,N,12224.26373,W,000.00,296.6,061013,016.6,E,D*26
$PGRME,2.4,M,2.4,M,3.4,M*29
$IIVHW,,,,,00.0,N,,*19
$HCHDG,270.6,0.0,E,,*2A
$IIVLW,06392,N,010.3,N*5F
$IIVWR,097,L,02.6,N,,,,*75
$HCHDG,270.6,0.0,E,,*2A
$IIDPT,006.2,-1.0,*44
$GPRMC,200014.2,A,4741.20149,N,12224.26373,W,000.00,296.6,061013,016.6,E,D*24
$PGRME,2.4,M,2.4,M,3.4,M*29
$YXXDR,A,5.6,D,PTCH,A,2.4,D,ROLL*58
$HCHDG,270.6,0.0,E,,*2A
$HCHDG,270.6,0.0,E,,*2A
$GPRMC,200014.4,A,4741.20149,N,12224.26373,W,000.01,296.6,061013,016.6,E,D*23
$GPRMB,A,0.00,L,Shil,Shil,4741.0830,N,12224.5670,W,0.2,240,0.01,V*01
$PGRME,2.4,M,2.4,M,3.4,M*29
$HCHDG,270.6,0.0,E,,*2A
$HCHDG,270.6,0.0,E,,*2A
$GPRMC,200014.6,A,4741.20149,N,12224.26372,W,000.01,296.6,061013,016.6,E,D*20
$PGRME,2.4,M,2.4,M,3.4,M*29
$HCHDG,270.6,0.0,E,,*2A
$IIGLL,4741.201,N,12224.263,W,200000,A,A*45
$YXXDR,A,5.9,D,PTCH,A,1.7,D,ROLL*57
$IIMTW,+10.5,C*3C
$HCHDG,270.6,0.0,E,,*2A
$GPRMC,200014.8,A,4741.20149,N,12224.26372,W,000.00,296.6,061013,016.6,E,D*2F
$PGRME,2.4,M,2.4,M,3.4,M*29
$IIMWV,270,R,02.5,N,A*11
$PTAK,FFP1,HEEL,@*07
$IIMWV,263,T,02.6,N,A*16
$HCHDG,270.6,0.0,E,,*2A
$IIRMB,A,0.00,L,,Shil,,,,,000.2,240,,V,A*7D
$HCHDG,270.6,0.0,E,,*2A
$GPRMC,200015.0,A,4741.20149,N,12224.26373,W,000.00,296.6,061013,016.6,E,D*27
$PGRME,2.4,M,2.4,M,3.4,M*29
$HCHDG,270.6,0.0,E,,*2A
$IIRMC,200000,A,4741.201,N,12224.263,W,00.0,296,061013,16,E,A*16
$IIVHW,,,,,00.0,N,,*19
$HCHDG,270.6,0.0,E,,*2A
$IIVLW,06392,N,010.3,N*5F
$GPRMC,200015.2,A,4741.20149,N,12224.26373,W,000.00,296.6,061013,016.6,E,D*25
$PGRME,2.4,M,2.4,M,3.4,M*29
$YXXDR,A,5.7,D,PTCH,A,1.0,D,ROLL*5E
$PTAK,FFD1,1.0*54
$HCHDG,270.6,0.0,E,,*2A
$HCHDG,270.6,0.0,E,,*2A
$GPRMC,200015.4,A,4741.20149,N,12224.26373,W,000.00,296.6,061013,016.6,E,D*23
$PGRME,2.4,M,2.4,M,3.4,M*29
$HCHDG,270.5,0.0,E,,*29
$HCHDG,270.5,0.0,E,,*29
$GPRMC,200015.6,A,4741.20149,N,12224.26373,W,000.01,296.6,061013,016.6,E,D*20
$GPRMB,A,0.00,L,Shil,Shil,4741.0830,N,12224.5670,W,0.2,240,0.01,V*01
$PGRME,2.4,M,2.4,M,3.4,M*29
$HCHDG,270.5,0.0,E,,*29
$IIVWR,087,L,02.5,N,,,,*77
$IIDPT,006.2,-1.0,*44
$YXXDR,A,5.5,D,PTCH,A,1.2,D,ROLL*5E
$HCHDG,270.5,0.0,E,,*29
$GPRMC,200015.8,A,4741.20149,N,12224.26373,W,000.01,296.6,061013,016.6,E,D*2E
$PGRME,2.4,M,2.4,M,3.4,M*29
$IIGLL,4741.201,N,12224.263,W,200000,A,A*45
$IIMTW,+10.5,C*3C
$HCHDG,270.4,0.0,E,,*28
$IIMWV,273,R,02.5,N,A*12
$HCHDG,270.6,0.0,E,,*2A
$IIMWV,270,T,02.5,N,A*17
$GPRMC,200016.0,A,4741.20149,N,12224.26373,W,000.01,296.6,061013,016.6,E,D*25
$PGRME,2.4,M,2.4,M,3.4,M*29
$IIRMB,A,0.00,L,,Shil,,,,,000.2,240,,V,A*7D
$HCHDG,270.6,0.0,E,,*2A
$HCHDG,270.5,0.0,E,,*29
$GPRMC,200016.2,A,4741.20149,N,12224.26373,W,000.00,296.6,061013,016.6,E,D*26
$IIRMC,200000,A,4741.201,N,12224.263,W,00.0,296,061013,16,E,A*16
$PGRME,2.4,M,2.4,M,3.4,M*29
$YXXDR,A,5.8,D,PTCH,A,1.6,D,ROLL*57
$PTAK,FFD1,1.6*52
$HCHDG,270.5,0.0,E,,*29
$HCHDG,270.5,0.0,E,,*29
$GPRMC,200016.4,A,4741.20149,N,12224.26372,W,000.00,296.6,061013,016.6,E,D*21
$PGRME,2.4,M,2.4,M,3.4,M*29
$HCHDG,270.6,0.0,E,,*2A
$HCHDG,270.6,0.0,E,,*2A
$GPRMC,200016.6,A,4741.20149,N,12224.26372,W,000.00,296.6,061013,016.6,E,D*23
$PGRME,2.4,M,2.4,M,3.4,M*29
$HCHDG,270.6,0.0,E,,*2A
$IIVHW,,,,,00.0,N,,*19
$IIVLW,06392,N,010.3,N*5F
$YXXDR,A,5.6,D,PTCH,A,1.7,D,ROLL*58
$IIVWR,085,L,02.4,N,,,,*74
$GPRMC,200016.8,A,4741.20148,N,12224.26372,W,000.00,296.6,061013,016.6,E,D*2C
$GPRMB,A,0.00,L,Shil,Shil,4741.0830,N,12224.5670,W,0.2,240,0.00,V*00
$HCHDG,270.6,0.0,E,,*2A
$PGRME,2.4,M,2.4,M,3.4,M*29
$IIDPT,006.2,-1.0,*44
$HCHDG,270.6,0.0,E,,*2A
$IIGLL,4741.201,N,12224.263,W,200000,A,A*45
$IIMTW,+10.5,C*3C
$HCHDG,270.7,0.0,E,,*2B
$GPRMC,200017.0,A,4741.20148,N,12224.26372,W,000.00,296.6,061013,016.6,E,D*25
$PGRME,2.4,M,2.4,M,3.4,M*29
$IIMWV,275,R,02.4,N,A*15
$HCHDG,270.7,0.0,E,,*2B
$IIMWV,273,T,02.5,N,A*14
$HCHDG,270.7,0.0,E,,*2B
$IIRMB,A,0.00,L,,Shil,,,,,000.2,240,,V,A*7D
$GPRMC,200017.2,A,4741.20148,N,12224.26372,W,000.00,296.6,061013,016.6,E,D*27
$PGRME,2.4,M,2.4,M,3.4,M*29
$YXXDR,A,5.7,D,PTCH,A,2.1,D,ROLL*5C
$HCHDG,270.7,0.0,E,,*2B
$HCHDG,270.7,0.0,E,,*2B
$GPRMC,200017.4,A,4741.20148,N,12224.26372,W,000.00,296.6,061013,016.6,E,D*21
$PGRME,2.4,M,2.4,M,3.4,M*29
$HCHDG,270.6,0.0,E,,*2A
$HCHDG,270.6,0.0,E,,*2A
$GPRMC,200017.6,A,4741.20148,N,12224.26372,W,000.00,296.6,061013,016.6,E,D*23
$PGRME,2.4,M,2.4,M,3.4,M*29
$HCHDG,270.5,0.0,E,,*29
$YXXDR,A,5.8,D,PTCH,A,1.9,D,ROLL*58
$PTAK,FFD1,1.9*5D
$IIRMC,200000,A,4741.201,N,12224.263,W,00.0,296,061013,16,E,A*16
$HCHDG,270.5,0.0,E,,*29
$GPRMC,200017.8,A,4741.20148,N,12224.26372,W,000.00,296.6,061013,016.6,E,D*2D
$GPRMB,A,0.00,L,Shil,Shil,4741.0830,N,12224.5670,W,0.2,240,0.00,V*00
$PGRME,2.4,M,2.4,M,3.4,M*29
$IIVHW,,,,,00.0,N,,*19
$IIVLW,06392,N,010.3,N*5F
$HCHDG,270.5,0.0,E,,*29
$IIVWR,085,L,02.4,N,,,,*74
$HCHDG,270.5,0.0,E,,*29
$IIDPT,006.2,-1.0,*44
$GPRMC,200018.0,A,4741.20148,N,12224.26372,W,000.00,296.6,061013,016.6,E,D*2A
$PGRME,2.4,M,2.4,M,3.4,M*29
$IIGLL,4741.201,N,12224.263,W,200000,A,A*45
$HCHDG,270.6,0.0,E,,*2A
$IIMTW,+10.5,C*3C
$IIMWV,275,R,02.4,N,A*15
$HCHDG,270.5,0.0,E,,*29
$GPRMC,200018.2,A,4741.20147,N,12224.26372,W,000.01,296.6,061013,016.6,E,D*26
$PGRME,2.4,M,2.4,M,3.4,M*29
$IIMWV,275,T,02.4,N,A*13
$YXXDR,A,5.8,D,PTCH,A,1.3,D,ROLL*52
$HCHDG,270.5,0.0,E,,*29
$HCHDG,270.4,0.0,E,,*28
$GPRMC,200018.4,A,4741.20147,N,12224.26372,W,000.01,296.6,061013,016.6,E,D*20
$PGRME,2.4,M,2.4,M,3.4,M*29
$HCHDG,270.4,0.0,E,,*28
$HCHDG,270.4,0.0,E,,*28
$GPRMC,200018.6,A,4741.20148,N,12224.26371,W,000.00,296.6,061013,016.6,E,D*2F
$PGRME,2.4,M,2.4,M,3.4,M*29
$HCHDG,270.4,0.0,E,,*28
$IIRMB,A,0.00,L,,Shil,,,,,000.2,240,,V,A*7D
$YXXDR,A,5.7,D,PTCH,A,1.0,D,ROLL*5E
$PTAK,FFD1,1.0*54
$HCHDG,270.4,0.0,E,,*28
$GPRMC,200018.8,A,4741.20148,N,12224.26371,W,000.00,296.6,061013,016.6,E,D*21
$GPRMB,A,0.00,L,Shil,Shil,4741.0830,N,12224.5670,W,0.2,240,0.00,V*00
$PGRME,2.4,M,2.4,M,3.4,M*29
$IIRMC,200000,A,4741.201,N,12224.263,W,00.0,296,061013,16,E,A*16
$HCHDG,270.4,0.0,E,,*28
$PTAK,FFP1,HEEL,@*07
$IIVHW,,,,,00.0,N,,*19
$IIVLW,06392,N,010.3,N*5F
$HCHDG,270.4,0.0,E,,*28
$GPRMC,200019.0,A,4741.20148,N,12224.26371,W,000.01,296.6,061013,016.6,E,D*29
$PGRME,2.4,M,2.4,M,3.4,M*29
$IIVWR,083,L,02.5,N,,,,*73
$IIDPT,006.2,-1.0,*44
$HCHDG,270.3,0.0,E,,*2F
$IIGLL,4741.201,N,12224.263,W,200000,A,A*45
$HCHDG,270.3,0.0,E,,*2F
$IIMTW,+10.5,C*3C
$GPRMC,200019.2,A,4741.20148,N,12224.26371,W,000.01,296.6,061013,016.6,E,D*2B
$PGRME,2.4,M,2.4,M,3.4,M*29
$YXXDR,A,5.8,D,PTCH,A,0.9,D,ROLL*59
$HCHDG,270.3,0.0,E,,*2F
$HCHDG,270.3,0.0,E,,*2F
$GPRMC,200019.4,A,4741.20148,N,12224.26371,W,000.01,296.6,061013,016.6,E,D*2D
$PGRME,2.4,M,2.4,M,3.4,M*29
$HCHDG,270.3,0.0,E,,*2F
$HCHDG,270.2,0.0,E,,*2E
$GPRMC,200019.6,A,4741.20148,N,12224.26371,W,000.01,296.6,061013,016.6,E,D*2F
$PGRME,2.4,M,2.4,M,3.4,M*29
$HCHDG,270.2,0.0,E,,*2E
$IIMWV,276,R,02.6,N,A*14
$IIMWV,277,T,02.5,N,A*10
$YXXDR,A,5.8,D,PTCH,A,1.1,D,ROLL*50
$PTAK,FFD1,1.1*55
$GPRMC,200019.8,A,4741.20148,N,12224.26371,W,000.01,296.6,061013,016.6,E,D*21
$HCHDG,270.2,0.0,E,,*2E
$PGRME,2.4,M,2.4,M,3.4,M*29
$IIRMB,A,0.00,L,,Shil,,,,,000.2,240,,V,A*7D
$HCHDG,270.3,0.0,E,,*2F
$IIRMC,200000,A,4741.201,N,12224.263,W,00.0,296,061013,16,E,A*16
$HCHDG,270.3,0.0,E,,*2F
$GPRMC,200020.0,A,4741.20147,N,12224.26371,W,000.01,296.6,061013,016.6,E,D*2C
$GPRMB,A,0.00,L,Shil,Shil,4741.0830,N,12224.5670,W,0.2,240,0.01,V*01
$PGRME,2.4,M,2.4,M,3.4,M*29
$IIVHW,,,,,00.0,N,,*19
$HCHDG,270.3,0.0,E,,*2F
$IIVLW,06392,N,010.3,N*5F
$IIVWR,084,L,02.6,N,,,,*77
$HCHDG,270.3,0.0,E,,*2F
$IIDPT,006.2,-1.0,*44
$GPRMC,200020.2,A,4741.20147,N,12224.26371,W,000.01,296.6,061013,016.6,E,D*2E
$PGRME,2.4,M,2.4,M,3.4,M*29
$YXXDR,A,5.8,D,PTCH,A,1.5,D,ROLL*54
$HCHDG,270.4,0.0,E,,*28
$HCHDG,270.3,0.0,E,,*2F
$GPRMC,200020.4,A,4741.20147,N,12224.26371,W,000.00,296.6,061013,016.6,E,D*29
$PGRME,2.4,M,2.4,M,3.4,M*29
$HCHDG,270.3,0.0,E,,*2F
$HCHDG,270.3,0.0,E,,*2F
$GPRMC,200020.6,A,4741.20147,N,12224.26371,W,000.01,296.6,061013,016.6,E,D*2A
$PGRME,2.4,M,2.4,M,3.4,M*29
$HCHDG,270.3,0.0,E,,*2F
$IIGLL,4741.201,N,12224.263,W,200000,A,A*45
$YXXDR,A,5.7,D,PTCH,A,2.2,D,ROLL*5F
$IIMTW,+10.5,C*3C
$HCHDG,270.3,0.0,E,,*2F
$GPRMC,200020.8,A,4741.20147,N,12224.26371,W,000.00,296.6,061013,016.6,E,D*25
$PGRME,2.4,M,2.4,M,3.4,M*29
$IIMWV,276,R,02.5,N,A*17
$IIMWV,276,T,02.6,N,A*12
$HCHDG,270.4,0.0,E,,*28
$IIRMB,A,0.00,L,,Shil,,,,,000.2,240,,V,A*7D
$HCHDG,270.4,0.0,E,,*28
$GPRMC,200021.0,A,4741.20147,N,12224.26370,W,000.01,296.6,061013,016.6,E,D*2C
$PGRME,2.4,M,2.4,M,3.4,M*29
$HCHDG,270.4,0.0,E,,*28
$IIRMC,200000,A,4741.201,N,12224.263,W,00.0,296,061013,16,E,A*16
$IIVHW,,,,,00.0,N,,*19
$HCHDG,270.4,0.0,E,,*28
$GPRMC,200021.2,A,4741.20147,N,12224.26370,W,000.01,296.6,061013,016.6,E,D*2E
$GPRMB,A,0.00,L,Shil,Shil,4741.0830,N,12224.5670,W,0.2,240,0.01,V*01
$IIVLW,06392,N,010.3,N*5F
$PGRME,2.4,M,2.4,M,3.4,M*29
$YXXDR,A,5.7,D,PTCH,A,2.2,D,ROLL*5F
$PTAK,FFD1,2.2*55
$HCHDG,270.4,0.0,E,,*28
$HCHDG,270.4,0.0,E,,*28
$GPRMC,200021.4,A,4741.20147,N,12224.26370,W,000.01,296.6,061013,016.6,E,D*28
$PGRME,2.4,M,2.4,M,3.4,M*29
$HCHDG,270.4,0.0,E,,*28
$HCHDG,270.4,0.0,E,,*28
$GPRMC,200021.6,A,4741.20147,N,12224.26370,W,000.01,296.6,061013,016.6,E,D*2A
$PGRME,2.4,M,2.4,M,3.4,M*29
$HCHDG,270.4,0.0,E,,*28
$IIVWR,083,L,02.6,N,,,,*70
$IIDPT,006.2,-1.0,*44
$YXXDR,A,5.8,D,PTCH,A,1.9,D,ROLL*58
$HCHDG,270.4,0.0,E,,*28
$GPRMC,200021.8,A,4741.20147,N,12224.26370,W,000.01,296.6,061013,016.6,E,D*24
$PGRME,2.4,M,2.4,M,3.4,M*29
$IIGLL,4741.201,N,12224.263,W,200000,A,A*45
$IIMTW,+10.5,C*3C
$HCHDG,270.4,0.0,E,,*28
$IIMWV,277,R,02.6,N,A*15
$HCHDG,270.3,0.0,E,,*2F
$IIMWV,276,T,02.5,N,A*11
$GPRMC,200022.0,A,4741.20147,N,12224.26370,W,000.00,296.6,061013,016.6,E,D*2E
$PGRME,2.4,M,2.4,M,3.4,M*29
$IIRMB,A,0.00,L,,Shil,,,,,000.2,240,,V,A*7D
$HCHDG,270.3,0.0,E,,*2F
$HCHDG,270.3,0.0,E,,*2F
$GPRMC,200022.2,A,4741.20147,N,12224.26369,W,000.01,296.6,061013,016.6,E,D*25
$IIRMC,200000,A,4741.201,N,12224.263,W,00.0,296,061013,16,E,A*16
$PGRME,2.4,M,2.4,M,3.4,M*29
$YXXDR,A,5.8,D,PTCH,A,1.4,D,ROLL*55
$HCHDG,270.3,0.0,E,,*2F
$HCHDG,270.3,0.0,E,,*2F
$GPRMC,200022.4,A,4741.20147,N,12224.26369,W,000.01,296.6,061013,016.6,E,D*23
$GPRMB,A,0.00,L,Shil,Shil,4741.0830,N,12224.5670,W,0.2,240,0.01,V*01
$PGRME,2.4,M,2.4,M,3.4,M*29
$HCHDG,270.4,0.0,E,,*28
$HCHDG,270.3,0.0,E,,*2F
$GPRMC,200022.6,A,4741.20147,N,12224.26369,W,000.01,296.6,061013,016.6,E,D*21
$PGRME,2.4,M,2.4,M,3.4,M*29
$HCHDG,270.3,0.0,E,,*2F
$IIVHW,,,,,00.0,N,,*19
$IIVLW,06392,N,010.3,N*5F
$YXXDR,A,5.7,D,PTCH,A,1.0,D,ROLL*5E
$PTAK,FFD1,1.0*54
$IIVWR,080,L,02.6,N,,,,*73
$GPRMC,200022.8,A,4741.20147,N,12224.26369,W,000.01,296.6,061013,016.6,E,D*2F
$HCHDG,270.4,0.0,E,,*28
$PGRME,2.4,M,2.4,M,3.4,M*29
$IIDPT,006.2,-1.0,*44
$HCHDG,270.4,0.0,E,,*28
$IIGLL,4741.201,N,12224.263,W,200000,A,A*45
$IIMTW,+10.5,C*3C
$HCHDG,270.4,0.0,E,,*28
$GPRMC,200023.0,A,4741.20147,N,12224.26369,W,000.01,296.6,061013,016.6,E,D*26
$PGRME,2.4,M,2.4,M,3.4,M*29
$IIMWV,280,R,02.6,N,A*1D
$PTAK,FFP1,HEEL,@*07
$HCHDG,270.4,0.0,E,,*28
$IIMWV,277,T,02.6,N,A*13
$HCHDG,270.4,0.0,E,,*28
$IIRMB,A,0.00,L,,Shil,,,,,000.2,240,,V,A*7D
$GPRMC,200023.2,A,4741.20147,N,12224.26369,W,000.01,296.6,061013,016.6,E,D*24
$PGRME,2.4,M,2.4,M,3.4,M*29
$YXXDR,A,5.8,D,PTCH,A,1.1,D,ROLL*50
$HCHDG,270.4,0.0,E,,*28
$HCHDG,270.4,0.0,E,,*28
$GPRMC,200023.4,A,4741.20147,N,12224.26369,W,000.01,296.6,061013,016.6,E,D*22
$PGRME,2.4,M,2.4,M,3.4,M*29
$HCHDG,270.4,0.0,E,,*28
$HCHDG,270.4,0.0,E,,*28
$GPRMC,200023.6,A,4741.20147,N,12224.26369,W,000.01,296.6,061013,016.6,E,D*20
$GPRMB,A,0.00,L,Shil,Shil,4741.0830,N,12224.5670,W,0.2,240,0.01,V*01
$PGRME,2.4,M,2.4,M,3.4,M*29
$HCHDG,270.4,0.0,E,,*28
$YXXDR,A,5.8,D,PTCH,A,1.2,D,ROLL*53
$PTAK,FFD1,1.2*56
$IIRMC,200000,A,4741.201,N,12224.263,W,00.0,296,061013,16,E,A*16
$HCHDG,270.4,0.0,E,,*28
$GPRMC,200023.8,A,4741.20147,N,12224.26369,W,000.01,296.6,061013,016.6,E,D*2E
$PGRME,2.4,M,2.4,M,3.4,M*29
$IIVHW,,,,,00.0,N,,*19
$IIVLW,06392,N,010.3,N*5F
$HCHDG,270.4,0.0,E,,*28
$IIVWR,081,L,02.7,N,,,,*73
$HCHDG,270.2,0.0,E,,*2E
$IIDPT,006.2,-1.0,*44
$GPRMC,200024.0,A,4741.20147,N,12224.26368,W,000.00,296.6,061013,016.6,E,D*21
$PGRME,2.4,M,2.4,M,3.4,M*29
$IIGLL,4741.201,N,12224.263,W,200000,A,A*45
$HCHDG,270.2,0.0,E,,*2E
$IIMTW,+10.5,C*3C
$IIMWV,279,R,02.7,N,A*1A
$HCHDG,270.2,0.0,E,,*2E
$GPRMC,200024.2,A,4741.20147,N,12224.26368,W,000.01,296.6,061013,016.6,E,D*22
$PGRME,2.4,M,2.4,M,3.4,M*29
$IIMWV,280,T,02.6,N,A*1B
$YXXDR,A,5.7,D,PTCH,A,1.4,D,ROLL*5A
$HCHDG,270.2,0.0,E,,*2E
$HCHDG,270.2,0.0,E,,*2E
$GPRMC,200024.4,A,4741.20147,N,12224.26368,W,000.01,296.6,061013,016.6,E,D*24
$PGRME,2.4,M,2.4,M,3.4,M*29
$HCHDG,270.2,0.0,E,,*2E
$HCHDG,270.2,0.0,E,,*2E
$GPRMC,200024.6,A,4741.20147,N,12224.26368,W,000.00,296.6,061013,016.6,E,D*27
$PGRME,2.4,M,2.4,M,3.4,M*29
$HCHDG,270.2,0.0,E,,*2E
$IIRMB,A,0.00,L,,Shil,,,,,000.2,240,,V,A*7D
$YXXDR,A,5.8,D,PTCH,A,1.7,D,ROLL*56
$HCHDG,270.2,0.0,E,,*2E
$GPRMC,200024.8,A,4741.20147,N,12224.26369,W,000.00,296.6,061013,016.6,E,D*28
$GPRMB,A,0.00,L,Shil,Shil,4741.0830,N,12224.5670,W,0.2,240,0.00,V*00
$PGRME,2.4,M,2.4,M,3.4,M*29
$IIRMC,200000,A,4741.201,N,12224.263,W,00.0,296,061013,16,E,A*16
$HCHDG,270.2,0.0,E,,*2E
$IIVHW,,,,,00.0,N,,*19
$IIVLW,06392,N,010.3,N*5F
$HCHDG,270.4,0.0,E,,*28
$GPRMC,200025.0,A,4741.20147,N,12224.26368,W,000.01,296.6,061013,016.6,E,D*21
$PGRME,2.4,M,2.4,M,3.4,M*29
$IIVWR,080,L,03.1,N,,,,*75
$IIDPT,006.2,-1.0,*44
$HCHDG,270.4,0.0,E,,*28
$IIGLL,4741.201,N,12224.263,W,200000,A,A*45
$HCHDG,270.4,0.0,E,,*28
$GPRMC,200025.2,A,4741.20147,N,12224.26368,W,000.00,296.6,061013,016.6,E,D*22
$IIMTW,+10.5,C*3C
$PGRME,2.4,M,2.4,M,3.4,M*29
$YXXDR,A,5.9,D,PTCH,A,2.0,D,ROLL*53
$PTAK,FFD1,2.0*57
$HCHDG,270.4,0.0,E,,*28
$HCHDG,270.4,0.0,E,,*28
$GPRMC,200025.4,A,4741.20147,N,12224.26368,W,000.01,296.6,061013,016.6,E,D*25
$PGRME,2.4,M,2.4,M,3.4,M*29
$HCHDG,270.4,0.0,E,,*28
$HCHDG,270.4,0.0,E,,*28
$GPRMC,200025.6,A,4741.20147,N,12224.26368,W,000.00,296.6,061013,016.6,E,D*26
$PGRME,2.4,M,2.4,M,3.4,M*29
$HCHDG,270.4,0.0,E,,*28
$IIMWV,281,R,03.2,N,A*19
$IIMWV,280,T,03.1,N,A*1D
$YXXDR,A,5.7,D,PTCH,A,2.1,D,ROLL*5C
$GPRMC,200025.8,A,4741.20147,N,12224.26368,W,000.01,296.6,061013,016.6,E,D*29
$HCHDG,270.5,0.0,E,,*29
$PGRME,2.4,M,2.4,M,3.4,M*29
$IIRMB,A,0.00,L,,Shil,,,,,000.2,240,,V,A*7D
$HCHDG,270.5,0.0,E,,*29
$IIRMC,200000,A,4741.201,N,12224.263,W,00.0,296,061013,16,E,A*16
$HCHDG,270.5,0.0,E,,*29
$GPRMC,200026.0,A,4741.20147,N,12224.26368,W,000.00,296.6,061013,016.6,E,D*23
$GPRMB,A,0.00,L,Shil,Shil,4741.0830,N,12224.5670,W,0.2,240,0.00,V*00
$PGRME,2.4,M,2.4,M,3.4,M*29
$IIVHW,,,,,00.0,N,,*19
$HCHDG,270.5,0.0,E,,*29
$IIVLW,06392,N,010.3,N*5F
$IIVWR,079,L,03.2,N,,,,*70
$HCHDG,270.5,0.0,E,,*29
$IIDPT,006.2,-1.0,*44
$GPRMC,200026.2,A,4741.20147,N,12224.26368,W,000.01,296.6,061013,016.6,E,D*20
$PGRME,2.4,M,2.4,M,3.4,M*29
$YXXDR,A,5.7,D,PTCH,A,1.4,D,ROLL*5A
$PTAK,FFD1,1.4*50
$HCHDG,270.5,0.0,E,,*29
$HCHDG,270.6,0.0,E,,*2A
$GPRMC,200026.4,A,4741.20147,N,12224.26368,W,000.00,296.6,061013,016.6,E,D*27
$PGRME,2.4,M,2.4,M,3.4,M*29
$HCHDG,270.6,0.0,E,,*2A
$HCHDG,270.6,0.0,E,,*2A
$GPRMC,200026.6,A,4741.20147,N,12224.26368,W,000.00,296.6,061013,016.6,E,D*25
$PGRME,2.4,M,2.4,M,3.4,M*29
$HCHDG,270.6,0.0,E,,*2A
$IIGLL,4741.201,N,12224.263,W,200000,A,A*45
$YXXDR,A,5.8,D,PTCH,A,1.1,D,ROLL*50
$IIMTW,+10.5,C*3C
$HCHDG,270.5,0.0,E,,*29
$GPRMC,200026.8,A,4741.20147,N,12224.26368,W,000.00,296.6,061013,016.6,E,D*2B
$PGRME,2.4,M,2.4,M,3.4,M*29
$IIMWV,282,R,03.5,N,A*1D
$IIMWV,281,T,03.2,N,A*1F
$HCHDG,270.5,0.0,E,,*29
$IIRMB,A,0.00,L,,Shil,,,,,000.2,240,,V,A*7D
$HCHDG,270.5,0.0,E,,*29
$GPRMC,200027.0,A,4741.20147,N,12224.26368,W,000.00,296.6,061013,016.6,E,D*22
$PGRME,2.4,M,2.4,M,3.4,M*29
$HCHDG,270.5,0.0,E,,*29
$PTAK,FFP1,HEEL,@*07
$IIRMC,200000,A,4741.201,N,12224.263,W,00.0,296,061013,16,E,A*16
$IIVHW,,,,,00.0,N,,*19
$HCHDG,270.5,0.0,E,,*29
$GPRMC,200027.2,A,4741.20147,N,12224.26368,W,000.00,296.6,061013,016.6,E,D*20
$GPRMB,A,0.00,L,Shil,Shil,4741.0830,N,12224.5670,W,0.2,240,0.00,V*00
$IIVLW,06392,N,010.3,N*5F
$PGRME,2.4,M,2.4,M,3.4,M*29
$YXXDR,A,5.8,D,PTCH,A,1.1,D,ROLL*50
$PTAK,FFD1,1.1*55
$HCHDG,270.5,0.0,E,,*29
$HCHDG,270.6,0.0,E,,*2A
$GPRMC,200027.4,A,4741.20147,N,12224.26368,W,000.01,296.6,061013,016.6,E,D*27
$PGRME,2.4,M,2.4,M,3.4,M*29
$HCHDG,270.6,0.0,E,,*2A
$HCHDG,270.6,0.0,E,,*2A
$GPRMC,200027.6,A,4741.20147,N,12224.26368,W,000.00,296.6,061013,016.6,E,D*24
$PGRME,2.4,M,2.4,M,3.4,M*29
$HCHDG,270.6,0.0,E,,*2A
$IIVWR,077,L,03.7,N,,,,*7B
$IIDPT,006.2,-1.0,*44
$YXXDR,A,5.9,D,PTCH,A,1.9,D,ROLL*59
$HCHDG,270.6,0.0,E,,*2A
$GPRMC,200027.8,A,4741.20147,N,12224.26368,W,000.01,296.6,061013,016.6,E,D*2B
$PGRME,2.4,M,2.4,M,3.4,M*29
$IIGLL,4741.201,N,12224.263,W,200000,A,A*45
$IIMTW,+10.5,C*3C
$HCHDG,270.7,0.0,E,,*2B
$IIMWV,283,R,03.7,N,A*1E
$HCHDG,270.6,0.0,E,,*2A
$IIMWV,282,T,03.5,N,A*1B
$GPRMC,200028.0,A,4741.20147,N,12224.26368,W,000.00,296.6,061013,016.6,E,D*2D
$PGRME,2.4,M,2.4,M,3.4,M*29
$IIRMB,A,0.00,L,,Shil,,,,,000.2,240,,V,A*7D
$HCHDG,270.6,0.0,E,,*2A
$HCHDG,270.6,0.0,E,,*2A
$GPRMC,200028.2,A,4741.20147,N,12224.26368,W,000.00,296.6,061013,016.6,E,D*2F
$IIRMC,200000,A,4741.201,N,12224.263,W,00.0,296,061013,16,E,A*16
$PGRME,2.4,M,2.4,M,3.4,M*29
$YXXDR,A,5.8,D,PTCH,A,1.7,D,ROLL*56
$HCHDG,270.6,0.0,E,,*2A
$HCHDG,270.6,0.0,E,,*2A
$GPRMC,200028.4,A,4741.20147,N,12224.26367,W,000.00,296.6,061013,016.6,E,D*26
$GPRMB,A,0.00,L,Shil,Shil,4741.0830,N,12224.5670,W,0.2,240,0.00,V*00
$PGRME,2.4,M,2.4,M,3.4,M*29
$HCHDG,270.6,0.0,E,,*2A
$HCHDG,270.6,0.0,E,,*2A
$GPRMC,200028.6,A,4741.20147,N,12224.26368,W,000.00,296.6,061013,016.6,E,D*2B
$PGRME,2.4,M,2.4,M,3.4,M*29
$HCHDG,270.6,0.0,E,,*2A
$IIVHW,,,,,00.0,N,,*19
$IIVLW,06392,N,010.3,N*5F
$YXXDR,A,5.8,D,PTCH,A,1.6,D,ROLL*57
$PTAK,FFD1,1.6*52
$IIVWR,075,L,03.9,N,,,,*77
$GPRMC,200028.8,A,4741.20147,N,12224.26368,W,000.00,296.6,061013,016.6,E,D*25
$HCHDG,270.7,0.0,E,,*2B
$PGRME,2.4,M,2.4,M,3.4,M*29
$IIDPT,006.2,-1.0,*44
$HCHDG,270.7,0.0,E,,*2B
$IIGLL,4741.201,N,12224.263,W,200000,A,A*45
$IIMTW,+10.5,C*3C
$HCHDG,270.7,0.0,E,,*2B
$GPRMC,200029.0,A,4741.20147,N,12224.26368,W,000.01,296.6,061013,016.6,E,D*2D
$PGRME,2.4,M,2.4,M,3.4,M*29
$IIMWV,285,R,03.9,N,A*16
$HCHDG,270.7,0.0,E,,*2B
$IIMWV,283,T,03.7,N,A*18
$HCHDG,270.7,0.0,E,,*2B
$IIRMB,A,0.00,L,,Shil,,,,,000.2,240,,V,A*7D
$GPRMC,200029.2,A,4741.20147,N,12224.26367,W,000.00,296.6,061013,016.6,E,D*21
$PGRME,2.4,M,2.4,M,3.4,M*29
$YXXDR,A,5.8,D,PTCH,A,2.2,D,ROLL*50
$HCHDG,270.7,0.0,E,,*2B
$HCHDG,270.8,0.0,E,,*24
$GPRMC,200029.4,A,4741.20147,N,12224.26367,W,000.01,296.6,061013,016.6,E,D*26
$PGRME,2.4,M,2.4,M,3.4,M*29
$HCHDG,270.8,0.0,E,,*24
$HCHDG,270.8,0.0,E,,*24
$GPRMC,200029.6,A,4741.20147,N,12224.26367,W,000.00,296.6,061013,016.6,E,D*25
$GPRMB,A,0.00,L,Shil,Shil,4741.0830,N,12224.5670,W,0.2,240,0.00,V*00
$PGRME,2.4,M,2.4,M,3.4,M*29
$HCHDG,270.8,0.0,E,,*24
$YXXDR,A,5.8,D,PTCH,A,1.9,D,ROLL*58
$PTAK,FFD1,1.9*5D
$IIRMC,200000,A,4741.201,N,12224.263,W,00.0,296,061013,16,E,A*16
$HCHDG,270.8,0.0,E,,*24
$GPRMC,200029.8,A,4741.20147,N,12224.26367,W,000.00,296.6,061013,016.6,E,D*2B
$PGRME,2.4,M,2.4,M,3.4,M*29
$IIVHW,,,,,00.0,N,,*19
$IIVLW,06392,N,010.3,N*5F
$HCHDG,270.8,0.0,E,,*24
$IIVWR,075,L,04.0,N,,,,*79
$HCHDG,270.8,0.0,E,,*24
$IIDPT,006.2,-1.0,*44
$GPRMC,200030.0,A,4741.20147,N,12224.26367,W,000.01,296.6,061013,016.6,E,D*2A
$PGRME,2.4,M,2.4,M,3.4,M*29
$IIGLL,4741.201,N,12224.263,W,200000,A,A*45
$HCHDG,270.9,0.0,E,,*25
$IIMTW,+10.5,C*3C
$IIMWV,285,R,04.0,N,A*18
$HCHDG,270.9,0.0,E,,*25
$GPRMC,200030.2,A,4741.20147,N,12224.26367,W,000.01,296.6,061013,016.6,E,D*28
$PGRME,2.4,M,2.4,M,3.4,M*29
$IIMWV,285,T,03.9,N,A*10
$YXXDR,A,5.7,D,PTCH,A,2.1,D,ROLL*5C
$HCHDG,270.9,0.0,E,,*25
$HCHDG,271.0,0.0,E,,*2D
$GPRMC,200030.4,A,4741.20147,N,12224.26367,W,000.01,296.6,061013,016.6,E,D*2E
$PGRME,2.4,M,2.4,M,3.4,M*29
$HCHDG,271.0,0.0,E,,*2D
$HCHDG,270.9,0.0,E,,*25
$GPRMC,200030.6,A,4741.20147,N,12224.26367,W,000.01,296.6,061013,016.6,E,D*2C
$PGRME,2.4,M,2.4,M,3.4,M*29
$HCHDG,270.9,0.0,E,,*25
$IIRMB,A,0.00,L,,Shil,,,,,000.2,240,,V,A*7D
$YXXDR,A,5.8,D,PTCH,A,1.9,D,ROLL*58
$HCHDG,270.9,0.0,E,,*25
$GPRMC,200030.8,A,4741.20147,N,12224.26366,W,000.01,296.6,061013,016.6,E,D*23
$GPRMB,A,0.00,L,Shil,Shil,4741.0830,N,12224.5670,W,0.2,240,0.01,V*01
$PGRME,2.4,M,2.4,M,3.4,M*29
$IIRMC,200000,A,4741.201,N,12224.263,W,00.0,296,061013,16,E,A*16
$HCHDG,270.9,0.0,E,,*25
$IIVHW,,,,,00.0,N,,*19
$IIVLW,06392,N,010.3,N*5F
$HCHDG,271.0,0.0,E,,*2D
$GPRMC,200031.0,A,4741.20146,N,12224.26366,W,000.01,296.6,061013,016.6,E,D*2B
$PGRME,2.4,M,2.4,M,3.4,M*29
$IIVWR,077,L,04.4,N,,,,*7F
$IIDPT,006.2,-1.0,*44
$HCHDG,271.0,0.0,E,,*2D
$PTAK,FFP1,HEEL,@*07
$IIGLL,4741.201,N,12224.263,W,200000,A,A*45
$HCHDG,271.0,0.0,E,,*2D
$IIMTW,+10.5,C*3C
$GPRMC,200031.2,A,4741.20146,N,12224.26366,W,000.01,296.6,061013,016.6,E,D*29
$PGRME,2.4,M,2.4,M,3.4,M*29
$YXXDR,A,5.6,D,PTCH,A,1.7,D,ROLL*58
$PTAK,FFD1,1.7*53
$HCHDG,271.1,0.0,E,,*2C
$HCHDG,271.0,0.0,E,,*2D
$GPRMC,200031.4,A,4741.20146,N,12224.26366,W,000.01,296.6,061013,016.6,E,D*2F
$PGRME,2.4,M,2.4,M,3.4,M*29
$HCHDG,271.1,0.0,E,,*2C
$HCHDG,271.1,0.0,E,,*2C
$GPRMC,200031.6,A,4741.20146,N,12224.26366,W,000.01,296.6,061013,016.6,E,D*2D
$PGRME,2.4,M,2.4,M,3.4,M*29
$HCHDG,271.1,0.0,E,,*2C
$IIMWV,283,R,04.6,N,A*18
$IIMWV,283,T,04.4,N,A*1C
$YXXDR,A,5.8,D,PTCH,A,1.7,D,ROLL*56
$GPRMC,200031.8,A,4741.20146,N,12224.26366,W,000.01,296.6,061013,016.6,E,D*23
$HCHDG,271.2,0.0,E,,*2F
$PGRME,2.4,M,2.4,M,3.4,M*29
$IIRMB,A,0.00,L,,Shil,,,,,000.2,240,,V,A*7D
$HCHDG,271.2,0.0,E,,*2F
$IIRMC,200000,A,4741.201,N,12224.263,W,00.0,296,061013,16,E,A*16
$HCHDG,271.2,0.0,E,,*2F
$GPRMC,200032.0,A,4741.20146,N,12224.26366,W,000.00,296.6,061013,016.6,E,D*29
$GPRMB,A,0.00,L,Shil,Shil,4741.0830,N,12224.5670,W,0.2,240,0.00,V*00
$PGRME,2.4,M,2.4,M,3.4,M*29
$IIVHW,,,,,00.0,N,,*19
$HCHDG,271.2,0.0,E,,*2F
$IIVLW,06392,N,010.3,N*5F
$IIVWR,077,L,04.6,N,,,,*7D
$HCHDG,271.2,0.0,E,,*2F
$IIDPT,006.2,-1.0,*44
$GPRMC,200032.2,A,4741.20146,N,12224.26366,W,000.02,296.6,061013,016.6,E,D*29
$PGRME,2.4,M,2.4,M,3.4,M*29
$YXXDR,A,5.7,D,PTCH,A,2.0,D,ROLL*5D
$PTAK,FFD1,2.0*57
$HCHDG,271.2,0.0,E,,*2F
$HCHDG,271.2,0.0,E,,*2F
$GPRMC,200032.4,A,4741.20146,N,12224.26366,W,000.01,296.6,061013,016.6,E,D*2C
$PGRME,2.4,M,2.4,M,3.4,M*29
$HCHDG,271.2,0.0,E,,*2F
$HCHDG,271.1,0.0,E,,*2C
$GPRMC,200032.6,A,4741.20146,N,12224.26366,W,000.01,296.6,061013,016.6,E,D*2E
$PGRME,2.4,M,2.4,M,3.4,M*29
$HCHDG,271.1,0.0,E,,*2C
$IIGLL,4741.201,N,12224.263,W,200000,A,A*45
$YXXDR,A,5.7,D,PTCH,A,2.5,D,ROLL*58
$IIMTW,+10.5,C*3C
$HCHDG,271.2,0.0,E,,*2F
$GPRMC,200032.8,A,4741.20146,N,12224.26366,W,000.01,296.6,061013,016.6,E,D*20
$PGRME,2.4,M,2.4,M,3.4,M*29
$IIMWV,286,R,05.0,N,A*1A
$IIMWV,283,T,04.6,N,A*1E
$HCHDG,271.2,0.0,E,,*2F
$IIRMB,A,0.00,L,,Shil,,,,,000.2,240,,V,A*7D
$HCHDG,270.8,0.0,E,,*24
$GPRMC,200033.0,A,4741.20146,N,12224.26366,W,000.01,296.6,061013,016.6,E,D*29
$PGRME,2.4,M,2.4,M,3.4,M*29
$HCHDG,270.9,0.0,E,,*25
$IIRMC,200000,A,4741.201,N,12224.263,W,00.0,296,061013,16,E,A*16
$IIVHW,,,,,00.0,N,,*19
$HCHDG,270.9,0.0,E,,*25
$GPRMC,200033.2,A,4741.20146,N,12224.26366,W,000.01,296.6,061013,016.6,E,D*2B
$GPRMB,A,0.00,L,Shil,Shil,4741.0830,N,12224.5670,W,0.2,240,0.01,V*01
$IIVLW,06392,N,010.3,N*5F
$PGRME,2.4,M,2.4,M,3.4,M*29
$YXXDR,A,5.6,D,PTCH,A,2.9,D,ROLL*55
$PTAK,FFD1,2.9*5E
$HCHDG,270.9,0.0,E,,*25
$HCHDG,270.9,0.0,E,,*25
$GPRMC,200033.4,A,4741.20146,N,12224.26366,W,000.01,296.6,061013,016.6,E,D*2D
$PGRME,2.4,M,2.4,M,3.4,M*29
$HCHDG,270.9,0.0,E,,*25
$HCHDG,271.0,0.0,E,,*2D
$GPRMC,200033.6,A,4741.20146,N,12224.26366,W,000.02,296.6,061013,016.6,E,D*2C
$PGRME,2.4,M,2.4,M,3.4,M*29
$HCHDG,271.2,0.0,E,,*2F
$IIVWR,073,L,05.2,N,,,,*7C
$IIDPT,006.2,-1.0,*44
$YXXDR,A,5.9,D,PTCH,A,2.6,D,ROLL*55
$HCHDG,271.2,0.0,E,,*2F
$GPRMC,200033.8,A,4741.20146,N,12224.26365,W,000.01,296.6,061013,016.6,E,D*22
$PGRME,2.4,M,2.4,M,3.4,M*29
$IIGLL,4741.201,N,12224.263,W,200000,A,A*45
$IIMTW,+10.5,C*3C
$HCHDG,271.2,0.0,E,,*2F
$IIMWV,287,R,05.2,N,A*19
$HCHDG,271.3,0.0,E,,*2E
$IIMWV,286,T,05.0,N,A*1C
$GPRMC,200034.0,A,4741.20146,N,12224.26366,W,000.01,296.6,061013,016.6,E,D*2E
$PGRME,2.4,M,2.4,M,3.4,M*29
$IIRMB,A,0.00,L,,Shil,,,,,000.2,240,,V,A*7D
$HCHDG,271.3,0.0,E,,*2E
$HCHDG,271.3,0.0,E,,*2E
$GPRMC,200034.2,A,4741.20145,N,12224.26365,W,000.01,296.6,061013,016.6,E,D*2C
$IIRMC,200000,A,4741.201,N,12224.263,W,00.0,296,061013,16,E,A*16
$PGRME,2.4,M,2.4,M,3.4,M*29
$YXXDR,A,5.8,D,PTCH,A,2.1,D,ROLL*53
$HCHDG,271.4,0.0,E,,*29
$HCHDG,271.4,0.0,E,,*29
$GPRMC,200034.4,A,4741.20145,N,12224.26365,W,000.01,296.6,061013,016.6,E,D*2A
$GPRMB,A,0.00,L,Shil,Shil,4741.0830,N,12224.5670,W,0.2,240,0.01,V*01
$PGRME,2.4,M,2.4,M,3.4,M*29
$HCHDG,271.4,0.0,E,,*29
$HCHDG,271.5,0.0,E,,*28
$GPRMC,200034.6,A,4741.20145,N,12224.26365,W,000.01,296.6,061013,016.6,E,D*28
$PGRME,2.4,M,2.4,M,3.4,M*29
$HCHDG,271.6,0.0,E,,*2B
$IIVHW,,,,,00.0,N,,*19
$IIVLW,06392,N,010.3,N*5F
$YXXDR,A,5.6,D,PTCH,A,1.5,D,ROLL*5A
$PTAK,FFD1,1.5*51
$IIVWR,073,L,05.7,N,,,,*79
$GPRMC,200034.8,A,4741.20145,N,12224.26365,W,000.01,296.6,061013,016.6,E,D*26
$HCHDG,271.6,0.0,E,,*2B
$PGRME,2.4,M,2.4,M,3.4,M*29
$IIDPT,006.2,-1.0,*44
$HCHDG,271.4,0.0,E,,*29
$IIGLL,4741.201,N,12224.263,W,200000,A,A*45
$IIMTW,+10.5,C*3C
$HCHDG,271.5,0.0,E,,*28
$GPRMC,200035.0,A,4741.20145,N,12224.26365,W,000.01,296.6,061013,016.6,E,D*2F
$PGRME,2.4,M,2.4,M,3.4,M*29
$IIMWV,287,R,05.7,N,A*1C
$HCHDG,271.6,0.0,E,,*2B
$IIMWV,287,T,05.2,N,A*1F
$HCHDG,271.6,0.0,E,,*2B
$IIRMB,A,0.00,L,,Shil,,,,,000.2,240,,V,A*7D
$GPRMC,200035.2,A,4741.20145,N,12224.26364,W,000.01,296.6,061013,016.6,E,D*2C
$PTAK,FFP1,HEEL,@*07
$PGRME,2.4,M,2.4,M,3.4,M*29
$YXXDR,A,5.5,D,PTCH,A,1.5,D,ROLL*59
$HCHDG,271.6,0.0,E,,*2B
$HCHDG,271.7,0.0,E,,*2A
$GPRMC,200035.4,A,4741.20145,N,12224.26364,W,000.00,296.6,061013,016.6,E,D*2B
$PGRME,2.4,M,2.4,M,3.4,M*29
$HCHDG,271.7,0.0,E,,*2A
$HCHDG,271.7,0.0,E,,*2A
$GPRMC,200035.6,A,4741.20145,N,12224.26364,W,000.00,296.6,061013,016.6,E,D*29
$GPRMB,A,0.00,L,Shil,Shil,4741.0830,N,12224.5670,W,0.2,240,0.00,V*00
$PGRME,2.4,M,2.4,M,3.4,M*29
$HCHDG,271.8,0.0,E,,*25
$YXXDR,A,5.5,D,PTCH,A,1.7,D,ROLL*5B
$PTAK,FFD1,1.7*53
$IIRMC,200000,A,4741.201,N,12224.263,W,00.0,296,061013,16,E,A*16
$HCHDG,271.8,0.0,E,,*25
$GPRMC,200035.8,A,4741.20145,N,12224.26364,W,000.00,296.6,061013,016.6,E,D*27
$PGRME,2.4,M,2.4,M,3.4,M*29
$IIVHW,,,,,00.0,N,,*19
$IIVLW,06392,N,010.3,N*5F
$HCHDG,271.8,0.0,E,,*25
$IIVWR,073,L,05.9,N,,,,*77
$HCHDG,271.9,0.0,E,,*24
$IIDPT,006.2,-1.0,*44
$GPRMC,200036.0,A,4741.20144,N,12224.26364,W,000.00,296.6,061013,016.6,E,D*2D
$PGRME,2.4,M,2.4,M,3.4,M*29
$IIGLL,4741.201,N,12224.263,W,200000,A,A*45
$HCHDG,271.8,0.0,E,,*25
$IIMTW,+10.5,C*3C
$IIMWV,287,R,05.9,N,A*12
$HCHDG,271.8,0.0,E,,*25
$GPRMC,200036.2,A,4741.20144,N,12224.26364,W,000.00,296.6,061013,016.6,E,D*2F
$PGRME,2.4,M,2.4,M,3.4,M*29
$IIMWV,287,T,05.7,N,A*1A
$YXXDR,A,5.6,D,PTCH,A,1.9,D,ROLL*56
$HCHDG,271.9,0.0,E,,*24
$HCHDG,271.9,0.0,E,,*24
$GPRMC,200036.4,A,4741.20144,N,12224.26364,W,000.01,296.6,061013,016.6,E,D*28
$PGRME,2.4,M,2.4,M,3.4,M*29
$HCHDG,271.9,0.0,E,,*24
$HCHDG,272.0,0.0,E,,*2E
$GPRMC,200036.6,A,4741.20144,N,12224.26364,W,000.01,296.6,061013,016.6,E,D*2A
$PGRME,2.4,M,2.4,M,3.4,M*29
$HCHDG,272.0,0.0,E,,*2E
$IIRMB,A,0.00,L,,Shil,,,,,000.2,240,,V,A*7D
$YXXDR,A,5.6,D,PTCH,A,2.3,D,ROLL*5F
$HCHDG,272.0,0.0,E,,*2E
$GPRMC,200036.8,A,4741.20144,N,12224.26364,W,000.00,296.6,061013,016.6,E,D*25
$GPRMB,A,0.00,L,Shil,Shil,4741.0830,N,12224.5670,W,0.2,240,0.00,V*00
$PGRME,2.4,M,2.4,M,3.4,M*29
$IIRMC,200000,A,4741.201,N,12224.263,W,00.0,296,061013,16,E,A*16
$HCHDG,272.0,0.0,E,,*2E
$IIVHW,,,,,00.0,N,,*19
$IIVLW,06392,N,010.3,N*5F
$HCHDG,272.0,0.0,E,,*2E
$GPRMC,200037.0,A,4741.20144,N,12224.26364,W,000.00,296.6,061013,016.6,E,D*2C
$PGRME,2.4,M,2.4,M,3.4,M*29
$IIVWR,073,L,06.1,N,,,,*7C
$IIDPT,006.2,-1.0,*44
$HCHDG,272.0,0.0,E,,*2E
$IIGLL,4741.201,N,12224.263,W,200000,A,A*45
$HCHDG,271.9,0.0,E,,*24
$IIMTW,+10.5,C*3C
$GPRMC,200037.2,A,4741.20144,N,12224.26363,W,000.01,296.6,061013,016.6,E,D*28
$PGRME,2.4,M,2.4,M,3.4,M*29
$YXXDR,A,5.6,D,PTCH,A,2.2,D,ROLL*5E
$PTAK,FFD1,2.2*55
$HCHDG,271.9,0.0,E,,*24
$HCHDG,271.9,0.0,E,,*24
$GPRMC,200037.4,A,4741.20144,N,12224.26363,W,000.00,296.6,061013,016.6,E,D*2F
$PGRME,2.4,M,2.4,M,3.4,M*29
$HCHDG,271.9,0.0,E,,*24
$HCHDG,271.9,0.0,E,,*24
$GPRMC,200037.6,A,4741.20144,N,12224.26363,W,000.00,296.6,061013,016.6,E,D*2D
$PGRME,2.4,M,2.4,M,3.4,M*29
$HCHDG,271.9,0.0,E,,*24
$IIMWV,287,R,06.2,N,A*1A
$IIMWV,287,T,06.1,N,A*1F
$YXXDR,A,5.8,D,PTCH,A,1.9,D,ROLL*58
$GPRMC,200037.8,A,4741.20144,N,12224.26363,W,000.00,296.6,061013,016.6,E,D*23
$HCHDG,271.9,0.0,E,,*24
$PGRME,2.4,M,2.4,M,3.4,M*29
$IIRMB,A,0.00,L,,Shil,,,,,000.2,240,,V,A*7D
$HCHDG,271.9,0.0,E,,*24
$IIRMC,200000,A,4741.201,N,12224.263,W,00.0,296,061013,16,E,A*16
$HCHDG,271.9,0.0,E,,*24
$GPRMC,200038.0,A,4741.20144,N,12224.26363,W,000.00,296.6,061013,016.6,E,D*24
$GPRMB,A,0.00,L,Shil,Shil,4741.0830,N,12224.5670,W,0.2,240,0.00,V*00
$PGRME,2.4,M,2.4,M,3.4,M*29
$IIVHW,,,,,00.0,N,,*19
$IIVLW,06392,N,010.3,N*5F
$HCHDG,271.9,0.0,E,,*24
$IIVWR,073,L,06.2,N,,,,*7F
$HCHDG,271.9,0.0,E,,*24
$IIDPT,006.2,-1.0,*44
$GPRMC,200038.2,A,4741.20144,N,12224.26363,W,000.00,296.6,061013,016.6,E,D*26
$PGRME,2.4,M,2.4,M,3.4,M*29
$YXXDR,A,5.6,D,PTCH,A,2.2,D,ROLL*5E
$PTAK,FFD1,2.2*55
$HCHDG,271.9,0.0,E,,*24
$HCHDG,271.9,0.0,E,,*24
$GPRMC,200038.4,A,4741.20143,N,12224.26363,W,000.01,296.6,061013,016.6,E,D*26
$PGRME,2.4,M,2.4,M,3.4,M*29
$HCHDG,271.9,0.0,E,,*24
$HCHDG,271.9,0.0,E,,*24
$GPRMC,200038.6,A,4741.20143,N,12224.26362,W,000.00,296.6,061013,016.6,E,D*24
$PGRME,2.4,M,2.4,M,3.4,M*29
$HCHDG,271.9,0.0,E,,*24
$IIGLL,4741.201,N,12224.263,W,200000,A,A*45
$YXXDR,A,5.6,D,PTCH,A,2.4,D,ROLL*58
$IIMTW,+10.5,C*3C
$HCHDG,271.9,0.0,E,,*24
$GPRMC,200038.8,A,4741.20143,N,12224.26362,W,000.01,296.6,061013,016.6,E,D*2B
$PGRME,2.4,M,2.4,M,3.4,M*29
$IIMWV,288,R,06.2,N,A*15
$IIMWV,287,T,06.2,N,A*1C
$HCHDG,271.9,0.0,E,,*24
$IIRMB,A,0.00,L,,Shil,,,,,000.2,240,,V,A*7D
$HCHDG,271.9,0.0,E,,*24
$GPRMC,200039.0,A,4741.20143,N,12224.26362,W,000.00,296.6,061013,016.6,E,D*23
$PGRME,2.4,M,2.4,M,3.4,M*29
$HCHDG,271.9,0.0,E,,*24
$IIRMC,200000,A,4741.201,N,12224.263,W,00.0,296,061013,16,E,A*16
$IIVHW,,,,,00.0,N,,*19
$HCHDG,271.9,0.0,E,,*24
$GPRMC,200039.2,A,4741.20143,N,12224.26362,W,000.00,296.6,061013,016.6,E,D*21
$GPRMB,A,0.00,L,Shil,Shil,4741.0830,N,12224.5670,W,0.2,240,0.00,V*00
$IIVLW,06392,N,010.3,N*5F
$PGRME,2.4,M,2.4,M,3.4,M*29
$YXXDR,A,5.4,D,PTCH,A,2.4,D,ROLL*5A
$PTAK,FFD1,2.4*53
$PTAK,FFP1,HEEL,@*07
$HCHDG,271.9,0.0,E,,*24
$HCHDG,271.9,0.0,E,,*24
$GPRMC,200039.4,A,4741.20143,N,12224.26362,W,000.01,296.6,061013,016.6,E,D*26
$PGRME,2.4,M,2.4,M,3.4,M*29
$HCHDG,271.9,0.0,E,,*24
$HCHDG,271.9,0.0,E,,*24
$GPRMC,200039.6,A,4741.20143,N,12224.26362,W,000.01,296.6,061013,016.6,E,D*24
$PGRME,2.4,M,2.4,M,3.4,M*29
$HCHDG,271.9,0.0,E,,*24
$IIVWR,071,L,06.2,N,,,,*7D
$IIDPT,006.2,-1.0,*44
$YXXDR,A,5.4,D,PTCH,A,2.8,D,ROLL*56
$HCHDG,271.9,0.0,E,,*24
$GPRMC,200039.8,A,4741.20143,N,12224.26361,W,000.01,296.6,061013,016.6,E,D*29
$PGRME,2.4,M,2.4,M,3.4,M*29
$IIGLL,4741.201,N,12224.263,W,200000,A,A*45
$IIMTW,+10.5,C*3C
$HCHDG,271.9,0.0,E,,*24
$IIMWV,289,R,06.2,N,A*14
$HCHDG,271.9,0.0,E,,*24
$IIMWV,288,T,06.2,N,A*13
$GPRMC,200040.0,A,4741.20143,N,12224.26361,W,000.01,296.6,061013,016.6,E,D*2F
$PGRME,2.4,M,2.4,M,3.4,M*29
$IIRMB,A,0.00,L,,Shil,,,,,000.2,240,,V,A*7D
$HCHDG,271.9,0.0,E,,*24
$HCHDG,271.9,0.0,E,,*24
$GPRMC,200040.2,A,4741.20143,N,12224.26361,W,000.00,296.6,061013,016.6,E,D*2C
$IIRMC,200000,A,4741.201,N,12224.263,W,00.0,296,061013,16,E,A*16
$PGRME,2.4,M,2.4,M,3.4,M*29
$YXXDR,A,5.8,D,PTCH,A,3.5,D,ROLL*56
$HCHDG,271.9,0.0,E,,*24
$HCHDG,271.9,0.0,E,,*24
$GPRMC,200040.4,A,4741.20142,N,12224.26362,W,000.01,296.6,061013,016.6,E,D*29
$GPRMB,A,0.00,L,Shil,Shil,4741.0830,N,12224.5670,W,0.2,240,0.01,V*01
$PGRME,2.4,M,2.4,M,3.4,M*29
$HCHDG,271.9,0.0,E,,*24
$HCHDG,271.8,0.0,E,,*25
$GPRMC,200040.6,A,4741.20142,N,12224.26362,W,000.00,296.6,061013,016.6,E,D*2A
$PGRME,2.4,M,2.4,M,3.4,M*29
$HCHDG,271.8,0.0,E,,*25
$IIVHW,,,,,00.0,N,,*19
$IIVLW,06392,N,010.3,N*5F
$YXXDR,A,5.7,D,PTCH,A,3.2,D,ROLL*5E
$PTAK,FFD1,3.2*54
$IIVWR,071,L,06.0,N,,,,*7F
$GPRMC,200040.8,A,4741.20142,N,12224.26362,W,000.01,296.6,061013,016.6,E,D*25
$HCHDG,271.8,0.0,E,,*25
$PGRME,2.4,M,2.4,M,3.4,M*29
$IIDPT,006.2,-1.0,*44
$HCHDG,271.7,0.0,E,,*2A
$IIGLL,4741.201,N,12224.263,W,200000,A,A*45
$IIMTW,+10.5,C*3C
$HCHDG,271.7,0.0,E,,*2A
$GPRMC,200041.0,A,4741.20142,N,12224.26361,W,000.00,296.6,061013,016.6,E,D*2E
$PGRME,2.4,M,2.4,M,3.4,M*29
$IIMWV,289,R,06.0,N,A*16
$HCHDG,271.7,0.0,E,,*2A
$IIMWV,289,T,06.2,N,A*12
$HCHDG,271.5,0.0,E,,*28
$IIRMB,A,0.00,L,,Shil,,,,,000.2,240,,V,A*7D
$GPRMC,200041.2,A,4741.20143,N,12224.26362,W,000.00,296.6,061013,016.6,E,D*2E
$PGRME,2.4,M,2.4,M,3.4,M*29
$YXXDR,A,5.7,D,PTCH,A,2.7,D,ROLL*5A
$HCHDG,271.5,0.0,E,,*28
$HCHDG,271.5,0.0,E,,*28
$GPRMC,200041.4,A,4741.20143,N,12224.26362,W,000.00,296.6,061013,016.6,E,D*28
$PGRME,2.4,M,2.4,M,3.4,M*29
$HCHDG,271.5,0.0,E,,*28
$HCHDG,271.5,0.0,E,,*28
$GPRMC,200041.6,A,4741.20143,N,12224.26362,W,000.00,296.6,061013,016.6,E,D*2A
$GPRMB,A,0.00,L,Shil,Shil,4741.0830,N,12224.5670,W,0.2,240,0.00,V*00
$PGRME,2.4,M,2.4,M,3.4,M*29
$HCHDG,271.5,0.0,E,,*28
$YXXDR,A,5.6,D,PTCH,A,2.3,D,ROLL*5F
$PTAK,FFD1,2.3*54
$IIRMC,200000,A,4741.201,N,12224.263,W,00.0,296,061013,16,E,A*16
$HCHDG,271.5,0.0,E,,*28
$GPRMC,200041.8,A,4741.20143,N,12224.26362,W,000.01,296.6,061013,016.6,E,D*25
$PGRME,2.4,M,2.4,M,3.4,M*29
$IIVHW,,,,,00.0,N,,*19
$IIVLW,06392,N,010.3,N*5F
$HCHDG,271.5,0.0,E,,*28
$IIVWR,070,L,06.1,N,,,,*7F
$HCHDG,271.5,0.0,E,,*28
$IIDPT,006.2,-1.0,*44
$GPRMC,200042.0,A,4741.20143,N,12224.26362,W,000.00,296.6,061013,016.6,E,D*2F
$PGRME,2.4,M,2.4,M,3.4,M*29
$IIGLL,4741.201,N,12224.263,W,200000,A,A*45
$HCHDG,271.5,0.0,E,,*28
$IIMTW,+10.5,C*3C
$IIMWV,290,R,06.1,N,A*1F
$HCHDG,271.5,0.0,E,,*28
$GPRMC,200042.2,A,4741.20143,N,12224.26362,W,000.00,296.6,061013,016.6,E,D*2D
$PGRME,2.4,M,2.4,M,3.4,M*29
$IIMWV,289,T,06.0,N,A*10
$YXXDR,A,5.6,D,PTCH,A,2.0,D,ROLL*5C
$HCHDG,271.5,0.0,E,,*28
$HCHDG,271.5,0.0,E,,*28
$GPRMC,200042.4,A,4741.20143,N,12224.26362,W,000.00,296.6,061013,016.6,E,D*2B
$PGRME,2.4,M,2.4,M,3.4,M*29
$HCHDG,271.5,0.0,E,,*28
$HCHDG,271.5,0.0,E,,*28
$GPRMC,200042.6,A,4741.20143,N,12224.26362,W,000.00,296.6,061013,016.6,E,D*29
$PGRME,2.4,M,2.4,M,3.4,M*29
$HCHDG,271.4,0.0,E,,*29
$IIRMB,A,0.00,L,,Shil,,,,,000.2,240,,V,A*7D
$YXXDR,A,5.6,D,PTCH,A,2.0,D,ROLL*5C
$HCHDG,271.5,0.0,E,,*28
$GPRMC,200042.8,A,4741.20142,N,12224.26362,W,000.00,296.6,061013,016.6,E,D*26
$GPRMB,A,0.00,L,Shil,Shil,4741.0830,N,12224.5670,W,0.2,240,0.00,V*00
$PGRME,2.4,M,2.4,M,3.4,M*29
$IIRMC,200000,A,4741.201,N,12224.263,W,00.0,296,061013,16,E,A*16
$HCHDG,271.5,0.0,E,,*28
$IIVHW,,,,,00.0,N,,*19
$IIVLW,06392,N,010.3,N*5F
$HCHDG,271.5,0.0,E,,*28
$GPRMC,200043.0,A,4741.20142,N,12224.26362,W,000.01,296.6,061013,016.6,E,D*2E
$PGRME,2.4,M,2.4,M,3.4,M*29
$IIVWR,070,L,06.2,N,,,,*7C
$IIDPT,006.2,-1.0,*44
$HCHDG,271.5,0.0,E,,*28
$IIGLL,4741.201,N,12224.263,W,200000,A,A*45
$HCHDG,271.5,0.0,E,,*28
$IIMTW,+10.5,C*3C
$GPRMC,200043.2,A,4741.20142,N,12224.26361,W,000.02,296.6,061013,016.6,E,D*2C
$PGRME,2.4,M,2.4,M,3.4,M*29
$YXXDR,A,5.6,D,PTCH,A,2.3,D,ROLL*5F
$PTAK,FFD1,2.3*54
$HCHDG,271.6,0.0,E,,*2B
$HCHDG,271.6,0.0,E,,*2B
$GPRMC,200043.4,A,4741.20142,N,12224.26361,W,000.01,296.6,061013,016.6,E,D*29
$PTAK,FFP1,HEEL,@*07
$PGRME,2.4,M,2.4,M,3.4,M*29
$HCHDG,271.6,0.0,E,,*2B
$HCHDG,271.6,0.0,E,,*2B
$GPRMC,200043.6,A,4741.20142,N,12224.26361,W,000.01,296.6,061013,016.6,E,D*2B
$PGRME,2.4,M,2.4,M,3.4,M*29
$HCHDG,271.6,0.0,E,,*2B
$IIMWV,290,R,06.2,N,A*1C
$IIMWV,290,T,06.2,N,A*1A
$YXXDR,A,5.6,D,PTCH,A,2.6,D,ROLL*5A
$GPRMC,200043.8,A,4741.20142,N,12224.26361,W,000.00,296.6,061013,016.6,E,D*24
$HCHDG,271.6,0.0,E,,*2B
$PGRME,2.4,M,2.4,M,3.4,M*29
$IIRMB,A,0.00,L,,Shil,,,,,000.2,240,,V,A*7D
$HCHDG,271.6,0.0,E,,*2B
$IIRMC,200000,A,4741.201,N,12224.263,W,00.0,296,061013,16,E,A*16
$HCHDG,271.6,0.0,E,,*2B
$GPRMC,200044.0,A,4741.20143,N,12224.26361,W,000.01,296.6,061013,016.6,E,D*2B
$GPRMB,A,0.00,L,Shil,Shil,4741.0830,N,12224.5670,W,0.2,240,0.01,V*01
$PGRME,2.4,M,2.4,M,3.4,M*29
$IIVHW,,,,,00.0,N,,*19
$PGRMT,GPS 18x-5Hz software ver. 3.20,,,,,,,,*30
$IIVLW,06392,N,010.3,N*5F
$HCHDG,271.5,0.0,E,,*28
$IIVWR,070,L,06.2,N,,,,*7C
$HCHDG,271.6,0.0,E,,*2B
$IIDPT,006.2,-1.0,*44
$GPRMC,200044.2,A,4741.20143,N,12224.26361,W,000.00,296.6,061013,016.6,E,D*28
$PGRME,2.4,M,2.4,M,3.4,M*29
$YXXDR,A,5.7,D,PTCH,A,3.1,D,ROLL*5D
$PTAK,FFD1,3.1*57
$HCHDG,271.6,0.0,E,,*2B
$HCHDG,271.4,0.0,E,,*29
$GPRMC,200044.4,A,4741.20143,N,12224.26360,W,000.01,296.6,061013,016.6,E,D*2E
$PGRME,2.4,M,2.4,M,3.4,M*29
$HCHDG,271.4,0.0,E,,*29
$HCHDG,271.4,0.0,E,,*29
$GPRMC,200044.6,A,4741.20142,N,12224.26361,W,000.00,296.6,061013,016.6,E,D*2D
$PGRME,2.4,M,2.4,M,3.4,M*29
$HCHDG,271.4,0.0,E,,*29
$IIGLL,4741.201,N,12224.263,W,200000,A,A*45
$YXXDR,A,5.5,D,PTCH,A,3.1,D,ROLL*5F
$IIMTW,+10.5,C*3C
$HCHDG,271.3,0.0,E,,*2E
$GPRMC,200044.8,A,4741.20142,N,12224.26361,W,000.00,296.6,061013,016.6,E,D*23
$PGRME,2.4,M,2.4,M,3.4,M*29
$IIMWV,290,R,06.2,N,A*1C
$IIMWV,290,T,06.2,N,A*1A
$HCHDG,271.3,0.0,E,,*2E
$IIRMB,A,0.00,L,,Shil,,,,,000.2,240,,V,A*7D
$HCHDG,271.2,0.0,E,,*2F
$GPRMC,200045.0,A,4741.20142,N,12224.26361,W,000.00,296.6,061013,016.6,E,D*2A
$PGRME,2.4,M,2.4,M,3.4,M*29
$HCHDG,271.3,0.0,E,,*2E
$IIRMC,200000,A,4741.201,N,12224.263,W,00.0,296,061013,16,E,A*16
$IIVHW,,,,,00.0,N,,*19
$HCHDG,271.3,0.0,E,,*2E
$GPRMC,200045.2,A,4741.20142,N,12224.26360,W,000.00,296.6,061013,016.6,E,D*29
$GPRMB,A,0.00,L,Shil,Shil,4741.0830,N,12224.5670,W,0.2,240,0.00,V*00
$IIVLW,06392,N,010.3,N*5F
$PGRME,2.4,M,2.4,M,3.4,M*29
$YXXDR,A,5.9,D,PTCH,A,3.1,D,ROLL*53
$PTAK,FFD1,3.1*57
$HCHDG,271.2,0.0,E,,*2F
$HCHDG,271.1,0.0,E,,*2C
$GPRMC,200045.4,A,4741.20142,N,12224.26360,W,000.00,296.6,061013,016.6,E,D*2F
$PGRME,2.4,M,2.4,M,3.4,M*29
$HCHDG,271.1,0.0,E,,*2C
$HCHDG,271.1,0.0,E,,*2C
$GPRMC,200045.6,A,4741.20142,N,12224.26360,W,000.01,296.6,061013,016.6,E,D*2C
$PGRME,2.4,M,2.4,M,3.4,M*29
$HCHDG,271.1,0.0,E,,*2C
$IIVWR,071,L,06.2,N,,,,*7D
$IIDPT,006.2,-1.0,*44
$YXXDR,A,5.6,D,PTCH,A,2.9,D,ROLL*55
$HCHDG,271.1,0.0,E,,*2C
$GPRMC,200045.8,A,4741.20142,N,12224.26360,W,000.01,296.6,061013,016.6,E,D*22
$PGRME,2.4,M,2.4,M,3.4,M*29
$IIGLL,4741.201,N,12224.263,W,200000,A,A*45
$IIMTW,+10.5,C*3C
$HCHDG,271.1,0.0,E,,*2C
$IIMWV,289,R,06.2,N,A*14
$HCHDG,271.1,0.0,E,,*2C
$IIMWV,290,T,06.2,N,A*1A
$GPRMC,200046.0,A,4741.20142,N,12224.26360,W,000.01,296.6,061013,016.6,E,D*29
$PGRME,2.4,M,2.4,M,3.4,M*29
$IIRMB,A,0.00,L,,Shil,,,,,000.2,240,,V,A*7D
$HCHDG,271.1,0.0,E,,*2C
$HCHDG,271.1,0.0,E,,*2C
$IIRMC,200000,A,4741.201,N,12224.263,W,00.0,296,061013,16,E,A*16
$GPRMC,200046.2,A,4741.20142,N,12224.26360,W,000.00,296.6,061013,016.6,E,D*2A
$GPRMB,A,0.00,L,Shil,Shil,4741.0830,N,12224.5670,W,0.2,240,0.00,V*00
$PGRME,2.4,M,2.4,M,3.4,M*29
$YXXDR,A,5.6,D,PTCH,A,2.9,D,ROLL*55
$PTAK,FFD1,2.9*5E
$HCHDG,271.1,0.0,E,,*2C
$HCHDG,271.1,0.0,E,,*2C
$GPRMC,200046.4,A,4741.20142,N,12224.26360,W,000.01,296.6,061013,016.6,E,D*2D
$PGRME,2.4,M,2.4,M,3.4,M*29
$HCHDG,271.1,0.0,E,,*2C
$HCHDG,271.1,0.0,E,,*2C
$GPRMC,200046.6,A,4741.20142,N,12224.26360,W,000.00,296.6,061013,016.6,E,D*2E
$PGRME,2.4,M,2.4,M,3.4,M*29
$HCHDG,271.1,0.0,E,,*2C
$IIVHW,,,,,00.0,N,,*19
$IIVLW,06392,N,010.3,N*5F
$YXXDR,A,5.6,D,PTCH,A,3.0,D,ROLL*5D
$IIVWR,070,L,06.1,N,,,,*7F
$GPRMC,200046.8,A,4741.20142,N,12224.26360,W,000.01,296.6,061013,016.6,E,D*21
$HCHDG,271.2,0.0,E,,*2F
$PGRME,2.4,M,2.4,M,3.4,M*29
$IIDPT,006.2,-1.0,*44
$HCHDG,271.3,0.0,E,,*2E
$IIGLL,4741.201,N,12224.263,W,200000,A,A*45
$IIMTW,+10.5,C*3C
$HCHDG,271.3,0.0,E,,*2E
$GPRMC,200047.0,A,4741.20142,N,12224.26360,W,000.01,296.6,061013,016.6,E,D*28
$PGRME,2.4,M,2.4,M,3.4,M*29
$IIMWV,290,R,06.1,N,A*1F
$HCHDG,271.3,0.0,E,,*2E
$IIMWV,289,T,06.2,N,A*12
$IIRMB,A,0.00,L,,Shil,,,,,000.2,240,,V,A*7D
$HCHDG,271.3,0.0,E,,*2E
$GPRMC,200047.2,A,4741.20142,N,12224.26359,W,000.00,296.6,061013,016.6,E,D*21
$PGRME,2.4,M,2.4,M,3.4,M*29
$YXXDR,A,5.5,D,PTCH,A,2.9,D,ROLL*56
$HCHDG,271.3,0.0,E,,*2E
$HCHDG,271.1,0.0,E,,*2C
$GPRMC,200047.4,A,4741.20142,N,12224.26359,W,000.01,296.6,061013,016.6,E,D*26
$GPRMB,A,0.00,L,Shil,Shil,4741.0830,N,12224.5670,W,0.2,240,0.01,V*01
$PGRME,2.4,M,2.4,M,3.4,M*29
$HCHDG,271.1,0.0,E,,*2C
$PTAK,FFP1,HEEL,@*07
$HCHDG,271.2,0.0,E,,*2F
$GPRMC,200047.6,A,4741.20141,N,12224.26359,W,000.00,296.6,061013,016.6,E,D*26
$PGRME,2.4,M,2.4,M,3.4,M*29
$HCHDG,271.2,0.0,E,,*2F
$YXXDR,A,5.4,D,PTCH,A,2.8,D,ROLL*56
$PTAK,FFD1,2.8*5F
$IIRMC,200000,A,4741.201,N,12224.263,W,00.0,296,061013,16,E,A*16
$GPRMC,200047.8,A,4741.20141,N,12224.26359,W,000.00,296.6,061013,016.6,E,D*28
$HCHDG,271.2,0.0,E,,*2F
$PGRME,2.4,M,2.4,M,3.4,M*29
$IIVHW,,,,,00.0,N,,*19
$IIVLW,06392,N,010.3,N*5F
$HCHDG,271.2,0.0,E,,*2F
$IIVWR,071,L,05.8,N,,,,*74
$HCHDG,271.2,0.0,E,,*2F
$IIDPT,006.2,-1.0,*44
$GPRMC,200048.0,A,4741.20141,N,12224.26359,W,000.01,296.6,061013,016.6,E,D*2E
$PGRME,2.4,M,2.4,M,3.4,M*29
$IIGLL,4741.201,N,12224.263,W,200000,A,A*45
$HCHDG,271.2,0.0,E,,*2F
$IIMTW,+10.5,C*3C
$IIMWV,289,R,05.8,N,A*1D
$HCHDG,271.3,0.0,E,,*2E
$GPRMC,200048.2,A,4741.20141,N,12224.26358,W,000.01,296.6,061013,016.6,E,D*2D
$PGRME,2.4,M,2.4,M,3.4,M*29
$IIMWV,290,T,06.1,N,A*19
$YXXDR,A,5.5,D,PTCH,A,3.4,D,ROLL*5A
$HCHDG,271.3,0.0,E,,*2E
$HCHDG,271.3,0.0,E,,*2E
$GPRMC,200048.4,A,4741.20141,N,12224.26358,W,000.00,296.6,061013,016.6,E,D*2A
$GPRMB,A,0.00,L,Shil,Shil,4741.0830,N,12224.5670,W,0.2,240,0.00,V*00
$PGRME,2.4,M,2.4,M,3.4,M*29
$HCHDG,271.3,0.0,E,,*2E
$HCHDG,271.3,0.0,E,,*2E
$GPRMC,200048.6,A,4741.20141,N,12224.26358,W,000.00,296.6,061013,016.6,E,D*28
$PGRME,2.4,M,2.4,M,3.4,M*29
$HCHDG,271.3,0.0,E,,*2E
$IIRMB,A,0.00,L,,Shil,,,,,000.2,240,,V,A*7D
$YXXDR,A,5.6,D,PTCH,A,3.8,D,ROLL*55
$PTAK,FFD1,3.8*5E
$GPRMC,200048.8,A,4741.20141,N,12224.26358,W,000.00,296.6,061013,016.6,E,D*26
$HCHDG,271.3,0.0,E,,*2E
$PGRME,2.4,M,2.4,M,3.4,M*29
$IIRMC,200000,A,4741.201,N,12224.263,W,00.0,296,061013,16,E,A*16
$HCHDG,271.3,0.0,E,,*2E
$IIVHW,,,,,00.0,N,,*19
$IIVLW,06392,N,010.3,N*5F
$HCHDG,271.3,0.0,E,,*2E
$GPRMC,200049.0,A,4741.20141,N,12224.26357,W,000.00,296.6,061013,016.6,E,D*20
$PGRME,2.4,M,2.4,M,3.4,M*29
$IIVWR,071,L,05.8,N,,,,*74
$IIDPT,006.2,-1.0,*44
$HCHDG,271.3,0.0,E,,*2E
$IIGLL,4741.201,N,12224.263,W,200000,A,A*45
$HCHDG,271.3,0.0,E,,*2E
$IIMTW,+10.5,C*3C
$GPRMC,200049.2,A,4741.20141,N,12224.26357,W,000.00,296.6,061013,016.6,E,D*22
$PGRME,2.4,M,2.4,M,3.4,M*29
$YXXDR,A,5.6,D,PTCH,A,3.8,D,ROLL*55
$HCHDG,271.3,0.0,E,,*2E
$HCHDG,271.3,0.0,E,,*2E
$GPRMC,200049.4,A,4741.20141,N,12224.26357,W,000.00,296.6,061013,016.6,E,D*24
$GPRMB,A,0.00,L,Shil,Shil,4741.0830,N,12224.5670,W,0.2,240,0.00,V*00
$PGRME,2.4,M,2.4,M,3.4,M*29
$HCHDG,271.3,0.0,E,,*2E
$HCHDG,271.5,0.0,E,,*28
$GPRMC,200049.6,A,4741.20141,N,12224.26357,W,000.00,296.6,061013,016.6,E,D*26
$PGRME,2.4,M,2.4,M,3.4,M*29
