$PGRME,2.4,M,2.4,M,3.4,M*29
$HCHDG,314.7,0.0,E,,*28
$HCHDG,314.7,0.0,E,,*28
$GPRMC,220001.0,A,4743.43306,N,12225.06752,W,002.32,344.8,251013,016.6,E,D*28
$PGRME,2.4,M,2.4,M,3.4,M*29
$IIMTW,+09.5,C*34
$YXXDR,A,5.9,D,PTCH,A,4.9,D,ROLL*5C
$PTAK,FFD1,4.9*58
$IIMWV,323,R,04.4,N,A*11
$HCHDG,314.8,0.0,E,,*27
$IIMWV,303,T,02.9,N,A*1E
$HCHDG,314.8,0.0,E,,*27
$GPRMC,220001.2,A,4743.43319,N,12225.06770,W,002.31,345.0,251013,016.6,E,D*2E
$IIRMB,A,,,,Shil,,,,,002.4,172,,V,A*29
$PGRME,2.4,M,2.4,M,3.4,M*29
$HCHDG,315.0,0.0,E,,*2E
$IIRMC,215900,A,4743.432,N,12225.067,W,02.2,342,251013,16,E,A*11
$HCHDG,314.9,0.0,E,,*26
$IIVHW,,,,,01.8,N,,*10
$GPRMC,220001.4,A,4743.43325,N,12225.06784,W,002.30,345.7,251013,016.6,E,D*2A
$PGRME,2.4,M,2.4,M,3.4,M*29
$IIVLW,06409,N,005.4,N*59
$HCHDG,314.9,0.0,E,,*26
$IIVWR,037,L,04.4,N,,,,*7B
$YXXDR,A,6.1,D,PTCH,A,5.0,D,ROLL*5F
$PTAK,FFP1,HEEL,@*07
$HCHDG,315.0,0.0,E,,*2E
$GPRMC,220001.6,A,4743.43334,N,12225.06794,W,002.27,345.0,251013,016.6,E,D*28
$GPRMB,A,-0.34,L,,Shil,4741.0830,N,12224.5670,W,2.4,172,-2.25,V*3A
$PGRME,2.4,M,2.4,M,3.4,M*29
$HCHDG,315.0,0.0,E,,*2E
$HCHDG,315.2,0.0,E,,*2C
$GPRMC,220001.8,A,4743.43339,N,12225.06803,W,002.24,345.2,251013,016.6,E,D*2B
$PGRME,2.4,M,2.4,M,3.4,M*29
$HCHDG,315.2,0.0,E,,*2C
$HCHDG,315.2,0.0,E,,*2C
$GPRMC,220002.0,A,4743.43339,N,12225.06799,W,002.22,344.8,251013,016.6,E,D*21
$PGRME,2.4,M,2.4,M,3.4,M*29
$YXXDR,A,5.8,D,PTCH,A,5.1,D,ROLL*54
$PTAK,FFD1,5.1*51
$IIGLL,4743.432,N,12225.067,W,215900,A,A*4B
$HCHDG,315.4,0.0,E,,*2A
$IIMTW,+09.5,C*34
$HCHDG,315.5,0.0,E,,*2B
$IIMWV,323,R,04.5,N,A*10
$GPRMC,220002.2,A,4743.43339,N,12225.06801,W,002.22,345.6,251013,016.6,E,D*22
$IIMWV,303,T,03.1,N,A*17
$PGRME,2.4,M,2.4,M,3.4,M*29
$HCHDG,315.5,0.0,E,,*2B
$IIRMB,A,,,,Shil,,,,,002.4,172,,V,A*29
$HCHDG,315.5,0.0,E,,*2B
$GPRMC,220002.4,A,4743.43352,N,12225.06802,W,002.24,346.0,251013,016.6,E,D*29
$PGRME,2.4,M,2.4,M,3.4,M*29
$IIRMC,215900,A,4743.432,N,12225.067,W,02.2,342,251013,16,E,A*11
$HCHDG,315.6,0.0,E,,*28
$IIVHW,,,,,01.8,N,,*10
$YXXDR,A,6.0,D,PTCH,A,4.8,D,ROLL*57
$IIVLW,06409,N,005.4,N*59
$HCHDG,315.7,0.0,E,,*29
$GPRMC,220002.6,A,4743.43359,N,12225.06807,W,002.26,346.0,251013,016.6,E,D*27
$PGRME,2.4,M,2.4,M,3.4,M*29
$HCHDG,315.7,0.0,E,,*29
$HCHDG,315.7,0.0,E,,*29
$GPRMC,220002.8,A,4743.43373,N,12225.06813,W,002.30,346.8,251013,016.6,E,D*2B
$GPRMB,A,-0.34,L,,Shil,4741.0830,N,12224.5670,W,2.4,172,-2.29,V*36
$PGRME,2.4,M,2.4,M,3.4,M*29
$HCHDG,315.8,0.0,E,,*26
$HCHDG,315.8,0.0,E,,*26
$GPRMC,220003.0,A,4743.43387,N,12225.06829,W,002.33,348.2,251013,016.6,E,D*27
$PGRME,2.4,M,2.4,M,3.4,M*29
$IIVWR,038,L,04.5,N,,,,*75
$YXXDR,A,6.1,D,PTCH,A,4.6,D,ROLL*58
$HCHDG,315.8,0.0,E,,*26
$IIGLL,4743.433,N,12225.067,W,220000,A,A*45
$HCHDG,315.9,0.0,E,,*27
$IIMTW,+09.5,C*34
$GPRMC,220003.2,A,4743.43398,N,12225.06842,W,002.35,348.1,251013,016.6,E,D*23
$PGRME,2.4,M,2.4,M,3.4,M*29
$IIMWV,322,R,04.5,N,A*11
$HCHDG,315.9,0.0,E,,*27
$IIMWV,302,T,03.1,N,A*16
$HCHDG,316.0,0.0,E,,*2D
$IIRMB,A,,,,Shil,,,,,002.4,172,,V,A*29
$GPRMC,220003.4,A,4743.43408,N,12225.06850,W,002.35,348.2,251013,016.6,E,D*2B
$PGRME,2.4,M,2.4,M,3.4,M*29
$HCHDG,316.2,0.0,E,,*2F
$IIRMC,220000,A,4743.433,N,12225.067,W,02.2,344,251013,16,E,A*19
$YXXDR,A,6.0,D,PTCH,A,4.9,D,ROLL*56
$PTAK,FFD1,4.9*58
$IIVHW,,,,,01.8,N,,*10
$HCHDG,316.2,0.0,E,,*2F
$GPRMC,220003.6,A,4743.43423,N,12225.06860,W,002.36,348.1,251013,016.6,E,D*23
$PGRME,2.4,M,2.4,M,3.4,M*29
$HCHDG,316.2,0.0,E,,*2F
$HCHDG,316.2,0.0,E,,*2F
$GPRMC,220003.8,A,4743.43429,N,12225.06869,W,002.35,347.7,251013,016.6,E,D*24
$GPRMB,A,-0.34,L,,Shil,4741.0830,N,12224.5670,W,2.4,172,-2.34,V*3A
$PGRME,2.4,M,2.4,M,3.4,M*29
$HCHDG,316.2,0.0,E,,*2F
$HCHDG,316.4,0.0,E,,*29
$GPRMC,220004.0,A,4743.43432,N,12225.06875,W,002.35,347.2,251013,016.6,E,D*29
$PGRME,2.4,M,2.4,M,3.4,M*29
$IIVLW,06409,N,005.4,N*59
$YXXDR,A,6.0,D,PTCH,A,5.8,D,ROLL*56
$HCHDG,316.5,0.0,E,,*28
$IIVWR,038,L,04.5,N,,,,*75
$HCHDG,316.6,0.0,E,,*2B
$IIGLL,4743.433,N,12225.068,W,220000,A,A*4A
$GPRMC,220004.2,A,4743.43451,N,12225.06875,W,002.36,347.4,251013,016.6,E,D*2B
$PGRME,2.4,M,2.4,M,3.4,M*29
$IIMTW,+09.5,C*34
$HCHDG,316.6,0.0,E,,*2B
$IIMWV,322,R,04.5,N,A*11
$IIMWV,301,T,03.1,N,A*15
$HCHDG,316.9,0.0,E,,*24
$GPRMC,220004.4,A,4743.43467,N,12225.06884,W,002.35,346.8,251013,016.6,E,D*28
$IIRMB,A,,,,Shil,,,,,002.4,172,,V,A*29
$PGRME,2.4,M,2.4,M,3.4,M*29
$HCHDG,316.9,0.0,E,,*24
$YXXDR,A,5.8,D,PTCH,A,5.8,D,ROLL*5D
$IIRMC,220000,A,4743.433,N,12225.068,W,02.3,348,251013,16,E,A*1B
$HCHDG,316.9,0.0,E,,*24
$GPRMC,220004.6,A,4743.43490,N,12225.06892,W,002.36,348.8,251013,016.6,E,D*28
$PGRME,2.4,M,2.4,M,3.4,M*29
$HCHDG,316.9,0.0,E,,*24
$HCHDG,317.0,0.0,E,,*2C
$GPRMC,220004.8,A,4743.43508,N,12225.06900,W,002.37,349.5,251013,016.6,E,D*21
$GPRMB,A,-0.34,L,,Shil,4741.0830,N,12224.5670,W,2.4,172,-2.37,V*39
$PGRME,2.4,M,2.4,M,3.4,M*29
$HCHDG,317.0,0.0,E,,*2C
$HCHDG,317.0,0.0,E,,*2C
$GPRMC,220005.0,A,4743.43529,N,12225.06903,W,002.40,350.2,251013,016.6,E,D*27
$PGRME,2.4,M,2.4,M,3.4,M*29
$IIVHW,,,,,01.8,N,,*10
$YXXDR,A,6.1,D,PTCH,A,5.2,D,ROLL*5D
$PTAK,FFD1,5.2*52
$IIVLW,06409,N,005.4,N*59
$HCHDG,317.0,0.0,E,,*2C
$IIVWR,040,L,04.6,N,,,,*79
$HCHDG,316.9,0.0,E,,*24
$GPRMC,220005.2,A,4743.43536,N,12225.06914,W,002.43,350.4,251013,016.6,E,D*28
$PGRME,2.4,M,2.4,M,3.4,M*29
$IIGLL,4743.434,N,12225.068,W,220000,A,A*4D
$HCHDG,316.9,0.0,E,,*24
$IIMTW,+09.5,C*34
$IIMWV,320,R,04.6,N,A*10
$HCHDG,317.0,0.0,E,,*2C
$IIMWV,301,T,03.1,N,A*15
$GPRMC,220005.4,A,4743.43550,N,12225.06920,W,002.47,350.2,251013,016.6,E,D*2B
$PGRME,2.4,M,2.4,M,3.4,M*29
$HCHDG,317.1,0.0,E,,*2D
$IIRMB,A,,,,Shil,,,,,002.4,172,,V,A*29
$YXXDR,A,6.1,D,PTCH,A,5.2,D,ROLL*5D
$HCHDG,317.0,0.0,E,,*2C
$PTAK,FFP1,HEEL,@*07
$GPRMC,220005.6,A,4743.43563,N,12225.06934,W,002.48,350.1,251013,016.6,E,D*20
$PGRME,2.4,M,2.4,M,3.4,M*29
$HCHDG,317.0,0.0,E,,*2C
$HCHDG,316.9,0.0,E,,*24
$GPRMC,220005.8,A,4743.43581,N,12225.06968,W,002.51,348.8,251013,016.6,E,D*23
$PGRME,2.4,M,2.4,M,3.4,M*29
$HCHDG,317.0,0.0,E,,*2C
$HCHDG,316.9,0.0,E,,*24
$GPRMC,220006.0,A,4743.43588,N,12225.06994,W,002.49,348.6,251013,016.6,E,D*25
$GPRMB,A,-0.34,L,,Shil,4741.0830,N,12224.5670,W,2.4,172,-2.49,V*30
$PGRME,2.4,M,2.4,M,3.4,M*29
$YXXDR,A,6.3,D,PTCH,A,5.8,D,ROLL*55
$PTAK,FFD1,5.8*58
$HCHDG,317.0,0.0,E,,*2C
$IIRMC,220000,A,4743.435,N,12225.069,W,02.4,350,251013,16,E,A*12
$IIVHW,,,,,01.9,N,,*11
$HCHDG,317.0,0.0,E,,*2C
$GPRMC,220006.2,A,4743.43599,N,12225.07007,W,002.47,348.9,251013,016.6,E,D*24
$PGRME,2.4,M,2.4,M,3.4,M*29
$IIVLW,06409,N,005.5,N*58
$HCHDG,317.2,0.0,E,,*2E
$IIVWR,041,L,04.9,N,,,,*77
$HCHDG,317.2,0.0,E,,*2E
$IIGLL,4743.435,N,12225.069,W,220000,A,A*4D
$GPRMC,220006.4,A,4743.43613,N,12225.07023,W,002.47,348.5,251013,016.6,E,D*29
$IIMTW,+09.0,C*31
$PGRME,2.4,M,2.4,M,3.4,M*29
$IIMWV,319,R,04.9,N,A*15
$HCHDG,317.2,0.0,E,,*2E
$IIMWV,299,T,03.3,N,A*17
$YXXDR,A,6.0,D,PTCH,A,5.6,D,ROLL*58
$HCHDG,317.1,0.0,E,,*2D
$GPRMC,220006.6,A,4743.43620,N,12225.07035,W,002.46,348.8,251013,016.6,E,D*20
$PGRME,2.4,M,2.4,M,3.4,M*29
$HCHDG,317.1,0.0,E,,*2D
$HCHDG,317.2,0.0,E,,*2E
$GPRMC,220006.8,A,4743.43632,N,12225.07027,W,002.47,348.5,251013,016.6,E,D*22
$PGRME,2.4,M,2.4,M,3.4,M*29
$HCHDG,317.1,0.0,E,,*2D
$HCHDG,317.1,0.0,E,,*2D
$GPRMC,220007.0,A,4743.43655,N,12225.07034,W,002.48,349.0,251013,016.6,E,D*23
$PGRME,2.4,M,2.4,M,3.4,M*29
$YXXDR,A,5.9,D,PTCH,A,4.9,D,ROLL*5C
$IIRMB,A,,,,Shil,,,,,002.4,172,,V,A*29
$HCHDG,317.3,0.0,E,,*2F
$HCHDG,317.3,0.0,E,,*2F
$IIRMC,220000,A,4743.435,N,12225.069,W,02.4,348,251013,16,E,A*1B
$GPRMC,220007.2,A,4743.43674,N,12225.07037,W,002.49,349.6,251013,016.6,E,D*26
$GPRMB,A,-0.34,L,,Shil,4741.0830,N,12224.5670,W,2.4,172,-2.49,V*30
$PGRME,2.4,M,2.4,M,3.4,M*29
$IIVHW,,,,,01.9,N,,*11
$HCHDG,317.3,0.0,E,,*2F
$IIVLW,06409,N,005.5,N*58
$IIVWR,039,L,04.8,N,,,,*79
$HCHDG,317.3,0.0,E,,*2F
$GPRMC,220007.4,A,4743.43682,N,12225.07046,W,002.52,348.8,251013,016.6,E,D*2A
$PGRME,2.4,M,2.4,M,3.4,M*29
$IIGLL,4743.435,N,12225.069,W,220000,A,A*4D
$HCHDG,317.1,0.0,E,,*2D
$IIMTW,+09.0,C*31
$YXXDR,A,6.1,D,PTCH,A,5.2,D,ROLL*5D
$PTAK,FFD1,5.2*52
$IIMWV,321,R,04.8,N,A*1F
$HCHDG,317.2,0.0,E,,*2E
$GPRMC,220007.6,A,4743.43689,N,12225.07054,W,002.54,351.4,251013,016.6,E,D*22
$PGRME,2.4,M,2.4,M,3.4,M*29
$HCHDG,317.1,0.0,E,,*2D
$HCHDG,317.3,0.0,E,,*2F
$GPRMC,220007.8,A,4743.43702,N,12225.07066,W,002.56,349.6,251013,016.6,E,D*26
$PGRME,2.4,M,2.4,M,3.4,M*29
$HCHDG,317.1,0.0,E,,*2D
$HCHDG,317.1,0.0,E,,*2D
$GPRMC,220008.0,A,4743.43717,N,12225.07071,W,002.57,349.6,251013,016.6,E,D*22
$PGRME,2.4,M,2.4,M,3.4,M*29
$IIMWV,301,T,03.4,N,A*10
$YXXDR,A,6.0,D,PTCH,A,5.2,D,ROLL*5C
$HCHDG,317.1,0.0,E,,*2D
$IIRMB,A,,,,Shil,,,,,002.4,172,,V,A*29
$HCHDG,317.1,0.0,E,,*2D
$GPRMC,220008.2,A,4743.43730,N,12225.07074,W,002.56,350.6,251013,016.6,E,D*29
$PGRME,2.4,M,2.4,M,3.4,M*29
$IIRMC,220000,A,4743.436,N,12225.070,W,02.4,349,251013,16,E,A*11
$HCHDG,317.2,0.0,E,,*2E
$IIVHW,,,,,01.9,N,,*11
$IIVLW,06409,N,005.5,N*58
$HCHDG,317.2,0.0,E,,*2E
$GPRMC,220008.4,A,4743.43746,N,12225.07071,W,002.56,349.1,251013,016.6,E,D*24
$GPRMB,A,-0.34,L,,Shil,4741.0830,N,12224.5670,W,2.4,172,-2.56,V*3E
$PGRME,2.4,M,2.4,M,3.4,M*29
$IIVWR,038,L,05.0,N,,,,*71
$HCHDG,317.0,0.0,E,,*2C
$IIGLL,4743.436,N,12225.070,W,220000,A,A*46
$YXXDR,A,6.2,D,PTCH,A,5.9,D,ROLL*55
$PTAK,FFD1,5.9*59
$IIMTW,+09.0,C*31
$HCHDG,317.2,0.0,E,,*2E
$GPRMC,220008.6,A,4743.43760,N,12225.07073,W,002.57,348.7,251013,016.6,E,D*26
$PGRME,2.4,M,2.4,M,3.4,M*29
$HCHDG,317.1,0.0,E,,*2D
$HCHDG,317.0,0.0,E,,*2C
$GPRMC,220008.8,A,4743.43775,N,12225.07079,W,002.57,348.2,251013,016.6,E,D*23
$PGRME,2.4,M,2.4,M,3.4,M*29
$HCHDG,317.1,0.0,E,,*2D
$HCHDG,317.1,0.0,E,,*2D
$GPRMC,220009.0,A,4743.43786,N,12225.07065,W,002.57,347.9,251013,016.6,E,D*2F
$PGRME,2.4,M,2.4,M,3.4,M*29
$IIMWV,322,R,04.9,N,A*1D
$YXXDR,A,6.0,D,PTCH,A,5.9,D,ROLL*57
$IIMWV,302,T,03.6,N,A*11
$HCHDG,317.0,0.0,E,,*2C
$IIRMB,A,,,,Shil,,,,,002.4,172,,V,A*29
$HCHDG,317.1,0.0,E,,*2D
$GPRMC,220009.2,A,4743.43799,N,12225.07075,W,002.58,348.3,251013,016.6,E,D*28
$PGRME,2.4,M,2.4,M,3.4,M*29
$HCHDG,317.4,0.0,E,,*28
$IIRMC,220000,A,4743.437,N,12225.070,W,02.5,349,251013,16,E,A*11
$IIVHW,,,,,02.0,N,,*1B
$HCHDG,317.3,0.0,E,,*2F
$GPRMC,220009.4,A,4743.43818,N,12225.07069,W,002.58,348.1,251013,016.6,E,D*27
$IIVLW,06409,N,005.5,N*58
$PGRME,2.4,M,2.4,M,3.4,M*29
$HCHDG,317.3,0.0,E,,*2F
$IIVWR,038,L,04.9,N,,,,*79
$YXXDR,A,6.1,D,PTCH,A,5.8,D,ROLL*57
$IIGLL,4743.437,N,12225.070,W,220000,A,A*47
$HCHDG,317.3,0.0,E,,*2F
$PTAK,FFP1,HEEL,@*07
$GPRMC,220009.6,A,4743.43833,N,12225.07064,W,002.60,348.1,251013,016.6,E,D*2A
$GPRMB,A,-0.34,L,,Shil,4741.0830,N,12224.5670,W,2.4,172,-2.59,V*31
$PGRME,2.4,M,2.4,M,3.4,M*29
$HCHDG,317.3,0.0,E,,*2F
$HCHDG,317.3,0.0,E,,*2F
$GPRMC,220009.8,A,4743.43850,N,12225.07062,W,002.61,348.5,251013,016.6,E,D*22
$PGRME,2.4,M,2.4,M,3.4,M*29
$HCHDG,317.4,0.0,E,,*28
$HCHDG,317.4,0.0,E,,*28
$GPRMC,220010.0,A,4743.43867,N,12225.07065,W,002.64,348.4,251013,016.6,E,D*25
$PGRME,2.4,M,2.4,M,3.4,M*29
$IIMTW,+09.0,C*31
$YXXDR,A,6.1,D,PTCH,A,5.6,D,ROLL*59
$PTAK,FFD1,5.6*56
$IIMWV,321,R,05.1,N,A*17
$HCHDG,317.4,0.0,E,,*28
$IIMWV,301,T,03.4,N,A*10
$HCHDG,317.2,0.0,E,,*2E
$GPRMC,220010.2,A,4743.43880,N,12225.07046,W,002.66,349.1,251013,016.6,E,D*29
$IIRMB,A,,,,Shil,,,,,002.4,172,,V,A*29
$PGRME,2.4,M,2.4,M,3.4,M*29
$HCHDG,317.1,0.0,E,,*2D
$IIRMC,220000,A,4743.437,N,12225.070,W,02.5,347,251013,16,E,A*1F
$HCHDG,317.3,0.0,E,,*2F
$IIVHW,,,,,02.0,N,,*1B
$GPRMC,220010.4,A,4743.43894,N,12225.07040,W,002.68,348.9,251013,016.6,E,D*2B
$PGRME,2.4,M,2.4,M,3.4,M*29
$IIVLW,06409,N,005.5,N*58
$HCHDG,317.2,0.0,E,,*2E
$IIVWR,039,L,05.1,N,,,,*71
$YXXDR,A,6.3,D,PTCH,A,5.8,D,ROLL*55
$HCHDG,317.1,0.0,E,,*2D
$GPRMC,220010.6,A,4743.43906,N,12225.07040,W,002.69,349.5,251013,016.6,E,D*2F
$PGRME,2.4,M,2.4,M,3.4,M*29
$HCHDG,317.0,0.0,E,,*2C
$HCHDG,316.9,0.0,E,,*24
$GPRMC,220010.8,A,4743.43923,N,12225.07043,W,002.70,350.2,251013,016.6,E,D*22
$GPRMB,A,-0.34,L,,Shil,4741.0830,N,12224.5670,W,2.4,172,-2.70,V*3A
$PGRME,2.4,M,2.4,M,3.4,M*29
$HCHDG,316.8,0.0,E,,*25
$HCHDG,317.0,0.0,E,,*2C
$GPRMC,220011.0,A,4743.43938,N,12225.07057,W,002.66,349.6,251013,016.6,E,D*2F
$PGRME,2.4,M,2.4,M,3.4,M*29
$YXXDR,A,6.2,D,PTCH,A,6.0,D,ROLL*5F
$IIGLL,4743.438,N,12225.070,W,220000,A,A*48
$HCHDG,316.9,0.0,E,,*24
$IIMTW,+09.0,C*31
$IIMWV,321,R,05.2,N,A*14
$HCHDG,317.0,0.0,E,,*2C
$GPRMC,220011.2,A,4743.43954,N,12225.07062,W,002.65,348.2,251013,016.6,E,D*27
$PGRME,2.4,M,2.4,M,3.4,M*29
$IIMWV,301,T,03.7,N,A*13
$HCHDG,316.9,0.0,E,,*24
$IIRMB,A,,,,Shil,,,,,002.4,172,,V,A*29
$HCHDG,316.8,0.0,E,,*25
$GPRMC,220011.4,A,4743.43967,N,12225.07056,W,002.64,346.3,251013,016.6,E,D*28
$PGRME,2.4,M,2.4,M,3.4,M*29
$IIRMC,220000,A,4743.438,N,12225.070,W,02.6,348,251013,16,E,A*1C
$HCHDG,316.9,0.0,E,,*24
$IIVHW,,,,,02.0,N,,*1B
$IIVLW,06409,N,005.5,N*58
$YXXDR,A,6.1,D,PTCH,A,6.5,D,ROLL*59
$PTAK,FFD1,6.5*56
$HCHDG,316.9,0.0,E,,*24
$GPRMC,220011.6,A,4743.43973,N,12225.07053,W,002.64,346.9,251013,016.6,E,D*20
$PGRME,2.4,M,2.4,M,3.4,M*29
$HCHDG,317.0,0.0,E,,*2C
$HCHDG,317.0,0.0,E,,*2C
$GPRMC,220011.8,A,4743.43977,N,12225.07061,W,002.65,347.2,251013,016.6,E,D*20
$PGRME,2.4,M,2.4,M,3.4,M*29
$HCHDG,316.8,0.0,E,,*25
$HCHDG,316.8,0.0,E,,*25
$GPRMC,220012.0,A,4743.43991,N,12225.07068,W,002.66,346.7,251013,016.6,E,D*2D
$GPRMB,A,-0.34,L,,Shil,4741.0830,N,12224.5670,W,2.4,172,-2.65,V*3E
$PGRME,2.4,M,2.4,M,3.4,M*29
$IIVWR,039,L,05.1,N,,,,*71
$YXXDR,A,6.1,D,PTCH,A,5.6,D,ROLL*59
$HCHDG,316.9,0.0,E,,*24
$IIGLL,4743.439,N,12225.070,W,220000,A,A*49
$IIMTW,+09.0,C*31
$HCHDG,316.9,0.0,E,,*24
$GPRMC,220012.2,A,4743.44007,N,12225.07073,W,002.68,345.9,251013,016.6,E,D*27
$PGRME,2.4,M,2.4,M,3.4,M*29
$IIMWV,321,R,05.1,N,A*17
$HCHDG,317.1,0.0,E,,*2D
$IIMWV,302,T,03.7,N,A*10
$IIRMB,A,,,,Shil,,,,,002.4,172,,V,A*29
$HCHDG,317.3,0.0,E,,*2F
$GPRMC,220012.4,A,4743.44016,N,12225.07076,W,002.69,346.0,251013,016.6,E,D*2F
$PGRME,2.4,M,2.4,M,3.4,M*29
$HCHDG,317.3,0.0,E,,*2F
$IIRMC,220000,A,4743.439,N,12225.070,W,02.6,349,251013,16,E,A*1C
$IIVHW,,,,,02.0,N,,*1B
$YXXDR,A,6.3,D,PTCH,A,5.5,D,ROLL*58
$PTAK,FFD1,5.5*55
$HCHDG,317.2,0.0,E,,*2E
$GPRMC,220012.6,A,4743.44032,N,12225.07075,W,002.69,346.4,251013,016.6,E,D*2C
$PGRME,2.4,M,2.4,M,3.4,M*29
$HCHDG,317.1,0.0,E,,*2D
$HCHDG,317.2,0.0,E,,*2E
$GPRMC,220012.8,A,4743.44045,N,12225.07082,W,002.67,346.6,251013,016.6,E,D*26
$PGRME,2.4,M,2.4,M,3.4,M*29
$HCHDG,317.1,0.0,E,,*2D
$HCHDG,317.2,0.0,E,,*2E
$GPRMC,220013.0,A,4743.44059,N,12225.07082,W,002.66,348.8,251013,016.6,E,D*23
$PGRME,2.4,M,2.4,M,3.4,M*29
$IIVLW,06409,N,005.5,N*58
$YXXDR,A,6.3,D,PTCH,A,5.1,D,ROLL*5C
$IIVWR,039,L,05.2,N,,,,*72
$HCHDG,317.0,0.0,E,,*2C
$HCHDG,316.8,0.0,E,,*25
$IIGLL,4743.439,N,12225.070,W,220000,A,A*49
$GPRMC,220013.2,A,4743.44072,N,12225.07091,W,002.67,347.6,251013,016.6,E,D*2A
$GPRMB,A,-0.34,L,,Shil,4741.0830,N,12224.5670,W,2.4,172,-2.66,V*3D
$PGRME,2.4,M,2.4,M,3.4,M*29
$IIMTW,+09.0,C*31
$HCHDG,316.7,0.0,E,,*2A
$IIMWV,321,R,05.2,N,A*14
$IIMWV,299,T,03.6,N,A*12
$HCHDG,316.8,0.0,E,,*25
$GPRMC,220013.4,A,4743.44093,N,12225.07101,W,002.68,347.5,251013,016.6,E,D*27
$IIRMB,A,,,,Shil,,,,,002.4,172,,V,A*29
$PGRME,2.4,M,2.4,M,3.4,M*29
$HCHDG,316.6,0.0,E,,*2B
$YXXDR,A,6.4,D,PTCH,A,4.5,D,ROLL*5E
$IIRMC,220000,A,4743.439,N,12225.070,W,02.6,346,251013,16,E,A*13
$HCHDG,316.6,0.0,E,,*2B
$PTAK,FFP1,HEEL,@*07
$GPRMC,220013.6,A,4743.44106,N,12225.07103,W,002.67,348.4,251013,016.6,E,D*2B
$PGRME,2.4,M,2.4,M,3.4,M*29
$HCHDG,316.5,0.0,E,,*28
$HCHDG,316.6,0.0,E,,*2B
$GPRMC,220013.8,A,4743.44118,N,12225.07108,W,002.65,347.2,251013,016.6,E,D*2A
$PGRME,2.4,M,2.4,M,3.4,M*29
$HCHDG,316.7,0.0,E,,*2A
$HCHDG,316.7,0.0,E,,*2A
$GPRMC,220014.0,A,4743.44139,N,12225.07127,W,002.65,348.2,251013,016.6,E,D*24
$PGRME,2.4,M,2.4,M,3.4,M*29
$IIVHW,,,,,02.1,N,,*1A
$YXXDR,A,6.2,D,PTCH,A,4.8,D,ROLL*55
$PTAK,FFD1,4.8*59
$IIVLW,06409,N,005.5,N*58
$HCHDG,316.8,0.0,E,,*25
$IIVWR,038,L,05.5,N,,,,*74
$HCHDG,316.6,0.0,E,,*2B
$GPRMC,220014.2,A,4743.44155,N,12225.07140,W,002.64,347.9,251013,016.6,E,D*28
$PGRME,2.4,M,2.4,M,3.4,M*29
$IIGLL,4743.440,N,12225.070,W,220000,A,A*47
$HCHDG,316.7,0.0,E,,*2A
$IIMTW,+09.0,C*31
$IIMWV,322,R,05.5,N,A*10
$HCHDG,316.7,0.0,E,,*2A
$IIMWV,301,T,03.7,N,A*13
$GPRMC,220014.4,A,4743.44170,N,12225.07147,W,002.63,349.5,251013,016.6,E,D*2B
$GPRMB,A,-0.34,L,,Shil,4741.0830,N,12224.5670,W,2.4,172,-2.63,V*38
$PGRME,2.4,M,2.4,M,3.4,M*29
$IIRMB,A,,,,Shil,,,,,002.4,172,,V,A*29
$HCHDG,316.6,0.0,E,,*2B
$YXXDR,A,6.3,D,PTCH,A,4.7,D,ROLL*5B
$HCHDG,316.7,0.0,E,,*2A
$GPRMC,220014.6,A,4743.44192,N,12225.07146,W,002.64,348.4,251013,016.6,E,D*23
$PGRME,2.4,M,2.4,M,3.4,M*29
$HCHDG,316.5,0.0,E,,*28
$HCHDG,316.5,0.0,E,,*28
$GPRMC,220014.8,A,4743.44213,N,12225.07138,W,002.62,348.0,251013,016.6,E,D*2C
$PGRME,2.4,M,2.4,M,3.4,M*29
$HCHDG,316.4,0.0,E,,*29
$HCHDG,316.5,0.0,E,,*28
$GPRMC,220015.0,A,4743.44226,N,12225.07135,W,002.61,348.4,251013,016.6,E,D*29
$PGRME,2.4,M,2.4,M,3.4,M*29
$YXXDR,A,6.3,D,PTCH,A,4.7,D,ROLL*5B
$HCHDG,316.6,0.0,E,,*2B
$IIRMC,220000,A,4743.441,N,12225.071,W,02.6,348,251013,16,E,A*13
$IIVHW,,,,,02.1,N,,*1A
$HCHDG,316.6,0.0,E,,*2B
$GPRMC,220015.2,A,4743.44244,N,12225.07139,W,002.63,348.5,251013,016.6,E,D*20
$PGRME,2.4,M,2.4,M,3.4,M*29
$IIVLW,06409,N,005.5,N*58
$HCHDG,316.4,0.0,E,,*29
$IIVWR,039,L,05.6,N,,,,*76
$HCHDG,316.4,0.0,E,,*29
$IIGLL,4743.441,N,12225.071,W,220000,A,A*47
$GPRMC,220015.4,A,4743.44261,N,12225.07134,W,002.64,348.3,251013,016.6,E,D*2D
$GPRMB,A,-0.34,L,,Shil,4741.0830,N,12224.5670,W,2.4,172,-2.64,V*3F
$IIMTW,+09.0,C*31
$PGRME,2.4,M,2.4,M,3.4,M*29
$IIMWV,321,R,05.6,N,A*10
$HCHDG,316.5,0.0,E,,*28
$IIMWV,303,T,04.0,N,A*11
$YXXDR,A,6.1,D,PTCH,A,4.5,D,ROLL*5B
$PTAK,FFD1,4.5*54
$HCHDG,316.2,0.0,E,,*2F
$GPRMC,220015.6,A,4743.44294,N,12225.07127,W,002.64,349.0,251013,016.6,E,D*25
$PGRME,2.4,M,2.4,M,3.4,M*29
$HCHDG,316.4,0.0,E,,*29
$HCHDG,316.4,0.0,E,,*29
$GPRMC,220015.8,A,4743.44322,N,12225.07123,W,002.68,348.7,251013,016.6,E,D*29
$PGRME,2.4,M,2.4,M,3.4,M*29
$HCHDG,316.2,0.0,E,,*2F
$HCHDG,316.3,0.0,E,,*2E
$GPRMC,220016.0,A,4743.44342,N,12225.07137,W,002.70,349.4,251013,016.6,E,D*2A
$PGRME,2.4,M,2.4,M,3.4,M*29
$YXXDR,A,6.3,D,PTCH,A,4.2,D,ROLL*5E
$IIRMB,A,,,,Shil,,,,,002.4,172,,V,A*29
$HCHDG,316.1,0.0,E,,*2C
$HCHDG,316.0,0.0,E,,*2D
$IIRMC,220000,A,4743.442,N,12225.071,W,02.6,348,251013,16,E,A*10
$GPRMC,220016.2,A,4743.44346,N,12225.07148,W,002.71,347.8,251013,016.6,E,D*27
$PGRME,2.4,M,2.4,M,3.4,M*29
$IIVHW,,,,,02.1,N,,*1A
$HCHDG,316.1,0.0,E,,*2C
$IIVLW,06409,N,005.5,N*58
$IIVWR,037,L,05.8,N,,,,*76
$HCHDG,316.0,0.0,E,,*2D
$GPRMC,220016.4,A,4743.44349,N,12225.07152,W,002.72,347.6,251013,016.6,E,D*28
$PGRME,2.4,M,2.4,M,3.4,M*29
$IIGLL,4743.442,N,12225.071,W,220000,A,A*44
$HCHDG,315.9,0.0,E,,*27
$IIMTW,+09.0,C*31
$YXXDR,A,6.4,D,PTCH,A,5.1,D,ROLL*5B
$IIMWV,323,R,05.8,N,A*1C
$HCHDG,316.2,0.0,E,,*2F
$GPRMC,220016.6,A,4743.44361,N,12225.07153,W,002.72,347.3,251013,016.6,E,D*24
$GPRMB,A,-0.34,L,,Shil,4741.0830,N,12224.5670,W,2.4,172,-2.71,V*3B
$PGRME,2.4,M,2.4,M,3.4,M*29
$HCHDG,316.2,0.0,E,,*2F
$HCHDG,316.3,0.0,E,,*2E
$GPRMC,220016.8,A,4743.44378,N,12225.07168,W,002.70,344.9,251013,016.6,E,D*21
$PGRME,2.4,M,2.4,M,3.4,M*29
$HCHDG,316.4,0.0,E,,*29
$HCHDG,316.3,0.0,E,,*2E
$GPRMC,220017.0,A,4743.44388,N,12225.07187,W,002.69,346.1,251013,016.6,E,D*24
$PGRME,2.4,M,2.4,M,3.4,M*29
$IIMWV,305,T,04.1,N,A*16
$YXXDR,A,6.3,D,PTCH,A,5.2,D,ROLL*5F
$PTAK,FFD1,5.2*52
$HCHDG,316.3,0.0,E,,*2E
$IIRMB,A,,,,Shil,,,,,002.4,172,,V,A*29
$HCHDG,316.3,0.0,E,,*2E
$GPRMC,220017.2,A,4743.44393,N,12225.07202,W,002.67,345.7,251013,016.6,E,D*29
$PGRME,2.4,M,2.4,M,3.4,M*29
$IIRMC,220000,A,4743.443,N,12225.071,W,02.7,349,251013,16,E,A*11
$HCHDG,316.2,0.0,E,,*2F
$IIVHW,,,,,02.2,N,,*19
$IIVLW,06409,N,005.5,N*58
$HCHDG,316.2,0.0,E,,*2F
$GPRMC,220017.4,A,4743.44406,N,12225.07207,W,002.67,347.5,251013,016.6,E,D*21
$IIVWR,037,L,05.8,N,,,,*76
$PGRME,2.4,M,2.4,M,3.4,M*29
$HCHDG,316.2,0.0,E,,*2F
$IIGLL,4743.443,N,12225.071,W,220000,A,A*45
$YXXDR,A,6.3,D,PTCH,A,4.7,D,ROLL*5B
$IIMTW,+09.0,C*31
$HCHDG,316.3,0.0,E,,*2E
$GPRMC,220017.6,A,4743.44413,N,12225.07205,W,002.66,348.0,251013,016.6,E,D*2E
$PTAK,FFP1,HEEL,@*07
$PGRME,2.4,M,2.4,M,3.4,M*29
$HCHDG,316.3,0.0,E,,*2E
$HCHDG,316.1,0.0,E,,*2C
$GPRMC,220017.8,A,4743.44423,N,12225.07202,W,002.66,348.8,251013,016.6,E,D*2C
$GPRMB,A,-0.34,L,,Shil,4741.0830,N,12224.5670,W,2.4,172,-2.66,V*3D
$PGRME,2.4,M,2.4,M,3.4,M*29
$HCHDG,316.1,0.0,E,,*2C
$HCHDG,315.9,0.0,E,,*27
$GPRMC,220018.0,A,4743.44446,N,12225.07206,W,002.66,349.3,251013,016.6,E,D*26
$PGRME,2.4,M,2.4,M,3.4,M*29
$IIMWV,323,R,05.8,N,A*1C
$YXXDR,A,6.2,D,PTCH,A,4.3,D,ROLL*5E
$IIMWV,305,T,04.1,N,A*16
$HCHDG,315.7,0.0,E,,*29
$HCHDG,315.7,0.0,E,,*29
$IIRMB,A,,,,Shil,,,,,002.4,172,,V,A*29
$GPRMC,220018.2,A,4743.44463,N,12225.07219,W,002.69,349.3,251013,016.6,E,D*22
$PGRME,2.4,M,2.4,M,3.4,M*29
$HCHDG,315.7,0.0,E,,*29
$IIRMC,220000,A,4743.443,N,12225.071,W,02.6,346,251013,16,E,A*1F
$IIVHW,,,,,02.2,N,,*19
$HCHDG,315.6,0.0,E,,*28
$GPRMC,220018.4,A,4743.44467,N,12225.07225,W,002.70,349.5,251013,016.6,E,D*21
$IIVLW,06409,N,005.5,N*58
$PGRME,2.4,M,2.4,M,3.4,M*29
$IIVWR,037,L,05.8,N,,,,*76
$HCHDG,315.7,0.0,E,,*29
$YXXDR,A,6.5,D,PTCH,A,4.5,D,ROLL*5F
$PTAK,FFD1,4.5*54
$IIGLL,4743.443,N,12225.071,W,220000,A,A*45
$HCHDG,315.5,0.0,E,,*2B
$GPRMC,220018.6,A,4743.44472,N,12225.07234,W,002.72,349.0,251013,016.6,E,D*20
$PGRME,2.4,M,2.4,M,3.4,M*29
$HCHDG,315.7,0.0,E,,*29
$HCHDG,315.6,0.0,E,,*28
$GPRMC,220018.8,A,4743.44479,N,12225.07242,W,002.72,346.4,251013,016.6,E,D*2F
$PGRME,2.4,M,2.4,M,3.4,M*29
$HCHDG,315.5,0.0,E,,*2B
$HCHDG,315.5,0.0,E,,*2B
$GPRMC,220019.0,A,4743.44487,N,12225.07245,W,002.72,347.1,251013,016.6,E,D*24
$GPRMB,A,-0.34,L,,Shil,4741.0830,N,12224.5670,W,2.4,172,-2.71,V*3B
$IIMTW,+09.0,C*31
$PGRME,2.4,M,2.4,M,3.4,M*29
$YXXDR,A,6.4,D,PTCH,A,4.8,D,ROLL*53
$IIMWV,324,R,05.8,N,A*1B
$HCHDG,315.7,0.0,E,,*29
$IIMWV,305,T,04.1,N,A*16
$HCHDG,315.6,0.0,E,,*28
$IIRMB,A,,,,Shil,,,,,002.4,172,,V,A*29
$GPRMC,220019.2,A,4743.44501,N,12225.07248,W,002.72,345.8,251013,016.6,E,D*2F
$PGRME,2.4,M,2.4,M,3.4,M*29
$HCHDG,315.5,0.0,E,,*2B
$IIRMC,220000,A,4743.444,N,12225.072,W,02.6,349,251013,16,E,A*14
$HCHDG,315.5,0.0,E,,*2B
$IIVHW,,,,,02.2,N,,*19
$GPRMC,220019.4,A,4743.44521,N,12225.07258,W,002.73,346.1,251013,016.6,E,D*21
$PGRME,2.4,M,2.4,M,3.4,M*29
$IIVLW,06409,N,005.5,N*58
$HCHDG,315.5,0.0,E,,*2B
$IIVWR,036,L,05.8,N,,,,*77
$YXXDR,A,6.4,D,PTCH,A,4.8,D,ROLL*53
$PTAK,FFD1,4.8*59
$HCHDG,315.5,0.0,E,,*2B
$GPRMC,220019.6,A,4743.44536,N,12225.07267,W,002.74,345.6,251013,016.6,E,D*2A
$PGRME,2.4,M,2.4,M,3.4,M*29
$HCHDG,315.5,0.0,E,,*2B
$HCHDG,315.5,0.0,E,,*2B
$GPRMC,220019.8,A,4743.44543,N,12225.07272,W,002.76,346.0,251013,016.6,E,D*25
$PGRME,2.4,M,2.4,M,3.4,M*29
$HCHDG,315.6,0.0,E,,*28
$HCHDG,315.6,0.0,E,,*28
$GPRMC,220020.0,A,4743.44564,N,12225.07275,W,002.77,346.3,251013,016.6,E,D*27
$PGRME,2.4,M,2.4,M,3.4,M*29
$YXXDR,A,6.3,D,PTCH,A,4.8,D,ROLL*54
$IIGLL,4743.445,N,12225.072,W,220000,A,A*40
$HCHDG,315.6,0.0,E,,*28
$IIMTW,+09.0,C*31
$IIMWV,325,R,05.7,N,A*15
$HCHDG,315.6,0.0,E,,*28
$GPRMC,220020.2,A,4743.44582,N,12225.07287,W,002.78,347.3,251013,016.6,E,D*2E
$GPRMB,A,-0.34,L,,Shil,4741.0830,N,12224.5670,W,2.4,172,-2.77,V*3D
$PGRME,2.4,M,2.4,M,3.4,M*29
$IIMWV,305,T,04.1,N,A*16
$HCHDG,315.5,0.0,E,,*2B
$IIRMB,A,,,,Shil,,,,,002.4,172,,V,A*29
$HCHDG,315.5,0.0,E,,*2B
$GPRMC,220020.4,A,4743.44597,N,12225.07304,W,002.79,347.3,251013,016.6,E,D*27
$PGRME,2.4,M,2.4,M,3.4,M*29
$IIRMC,220000,A,4743.445,N,12225.072,W,02.7,345,251013,16,E,A*18
$HCHDG,315.3,0.0,E,,*2D
$IIVHW,,,,,02.2,N,,*19
$IIVLW,06409,N,005.5,N*58
$YXXDR,A,6.4,D,PTCH,A,4.5,D,ROLL*5E
$PTAK,FFD1,4.5*54
$HCHDG,315.3,0.0,E,,*2D
$GPRMC,220020.6,A,4743.44614,N,12225.07320,W,002.80,347.4,251013,016.6,E,D*2A
$PGRME,2.4,M,2.4,M,3.4,M*29
$HCHDG,315.2,0.0,E,,*2C
$HCHDG,315.1,0.0,E,,*2F
$GPRMC,220020.8,A,4743.44626,N,12225.07335,W,002.81,347.2,251013,016.6,E,D*26
$PGRME,2.4,M,2.4,M,3.4,M*29
$HCHDG,314.9,0.0,E,,*26
$HCHDG,315.0,0.0,E,,*2E
$GPRMC,220021.0,A,4743.44639,N,12225.07343,W,002.82,347.0,251013,016.6,E,D*21
$PGRME,2.4,M,2.4,M,3.4,M*29
$IIVWR,033,L,05.9,N,,,,*73
$YXXDR,A,6.3,D,PTCH,A,4.8,D,ROLL*54
$HCHDG,314.8,0.0,E,,*27
$IIGLL,4743.445,N,12225.072,W,220000,A,A*40
$IIMTW,+09.0,C*31
$HCHDG,314.8,0.0,E,,*27
$GPRMC,220021.2,A,4743.44656,N,12225.07357,W,002.82,347.6,251013,016.6,E,D*29
$GPRMB,A,-0.34,L,,Shil,4741.0830,N,12224.5670,W,2.4,172,-2.81,V*34
$PGRME,2.4,M,2.4,M,3.4,M*29
$IIMWV,327,R,05.9,N,A*19
$HCHDG,315.0,0.0,E,,*2E
$IIMWV,307,T,04.0,N,A*15
$IIRMB,A,,,,Shil,,,,,002.4,172,,V,A*29
$HCHDG,315.0,0.0,E,,*2E
$GPRMC,220021.4,A,4743.44680,N,12225.07381,W,002.82,346.7,251013,016.6,E,D*2F
$PGRME,2.4,M,2.4,M,3.4,M*29
$HCHDG,314.8,0.0,E,,*27
$IIRMC,220000,A,4743.445,N,12225.072,W,02.7,345,251013,16,E,A*18
$IIVHW,,,,,02.3,N,,*18
$YXXDR,A,6.3,D,PTCH,A,4.8,D,ROLL*54
$PTAK,FFD1,4.8*59
$HCHDG,314.8,0.0,E,,*27
$GPRMC,220021.6,A,4743.44696,N,12225.07407,W,002.82,345.6,251013,016.6,E,D*21
$PTAK,FFP1,HEEL,@*07
$PGRME,2.4,M,2.4,M,3.4,M*29
$HCHDG,314.9,0.0,E,,*26
$HCHDG,314.8,0.0,E,,*27
$GPRMC,220021.8,A,4743.44713,N,12225.07418,W,002.81,344.3,251013,016.6,E,D*2A
$PGRME,2.4,M,2.4,M,3.4,M*29
$HCHDG,314.8,0.0,E,,*27
$HCHDG,315.0,0.0,E,,*2E
$GPRMC,220022.0,A,4743.44735,N,12225.07420,W,002.82,343.4,251013,016.6,E,D*2D
$PGRME,2.4,M,2.4,M,3.4,M*29
$IIVLW,06409,N,005.5,N*58
$YXXDR,A,6.5,D,PTCH,A,5.1,D,ROLL*5A
$IIVWR,032,L,05.9,N,,,,*72
$HCHDG,315.0,0.0,E,,*2E
$HCHDG,314.7,0.0,E,,*28
$IIGLL,4743.446,N,12225.073,W,220000,A,A*42
$GPRMC,220022.2,A,4743.44753,N,12225.07422,W,002.81,344.8,251013,016.6,E,D*25
$GPRMB,A,-0.34,L,,Shil,4741.0830,N,12224.5670,W,2.4,172,-2.79,V*33
$PGRME,2.4,M,2.4,M,3.4,M*29
$IIMTW,+09.0,C*31
$HCHDG,314.7,0.0,E,,*28
$IIMWV,328,R,05.9,N,A*16
$IIMWV,310,T,04.0,N,A*13
$HCHDG,314.7,0.0,E,,*28
$GPRMC,220022.4,A,4743.44760,N,12225.07425,W,002.79,344.1,251013,016.6,E,D*2A
$IIRMB,A,,,,Shil,,,,,002.4,172,,V,A*29
$PGRME,2.4,M,2.4,M,3.4,M*29
$HCHDG,314.7,0.0,E,,*28
$YXXDR,A,6.3,D,PTCH,A,4.3,D,ROLL*5F
$IIRMC,220000,A,4743.446,N,12225.073,W,02.8,347,251013,16,E,A*17
$HCHDG,314.6,0.0,E,,*29
$GPRMC,220022.6,A,4743.44772,N,12225.07430,W,002.78,344.5,251013,016.6,E,D*2A
$PGRME,2.4,M,2.4,M,3.4,M*29
$HCHDG,314.6,0.0,E,,*29
$HCHDG,314.5,0.0,E,,*2A
$GPRMC,220022.8,A,4743.44791,N,12225.07445,W,002.76,346.4,251013,016.6,E,D*26
$PGRME,2.4,M,2.4,M,3.4,M*29
$HCHDG,314.4,0.0,E,,*2B
$HCHDG,314.4,0.0,E,,*2B
$GPRMC,220023.0,A,4743.44814,N,12225.07448,W,002.76,345.6,251013,016.6,E,D*21
$PGRME,2.4,M,2.4,M,3.4,M*29
$IIVHW,,,,,02.3,N,,*18
$YXXDR,A,6.3,D,PTCH,A,4.1,D,ROLL*5D
$PTAK,FFD1,4.1*50
$IIVLW,06409,N,005.5,N*58
$HCHDG,314.3,0.0,E,,*2C
$IIVWR,031,L,06.0,N,,,,*7B
$HCHDG,314.2,0.0,E,,*2D
$GPRMC,220023.2,A,4743.44835,N,12225.07445,W,002.76,345.4,251013,016.6,E,D*2F
$PGRME,2.4,M,2.4,M,3.4,M*29
$IIGLL,4743.447,N,12225.074,W,220000,A,A*44
$HCHDG,314.1,0.0,E,,*2E
$IIMTW,+09.0,C*31
$IIMWV,329,R,06.0,N,A*1D
$HCHDG,313.9,0.0,E,,*21
$IIMWV,310,T,04.0,N,A*13
$GPRMC,220023.4,A,4743.44849,N,12225.07452,W,002.75,344.9,251013,016.6,E,D*2B
$GPRMB,A,-0.34,L,,Shil,4741.0830,N,12224.5670,W,2.4,172,-2.73,V*39
$PGRME,2.4,M,2.4,M,3.4,M*29
$IIRMB,A,,,,Shil,,,,,002.4,172,,V,A*29
$HCHDG,314.0,0.0,E,,*2F
$YXXDR,A,6.1,D,PTCH,A,4.1,D,ROLL*5F
$HCHDG,313.9,0.0,E,,*21
$GPRMC,220023.6,A,4743.44868,N,12225.07462,W,002.75,344.4,251013,016.6,E,D*24
$PGRME,2.4,M,2.4,M,3.4,M*29
$HCHDG,313.9,0.0,E,,*21
$HCHDG,313.9,0.0,E,,*21
$GPRMC,220023.8,A,4743.44880,N,12225.07471,W,002.76,345.5,251013,016.6,E,D*2D
$PGRME,2.4,M,2.4,M,3.4,M*29
$HCHDG,314.0,0.0,E,,*2F
$HCHDG,313.7,0.0,E,,*2F
$GPRMC,220024.0,A,4743.44898,N,12225.07479,W,002.76,344.2,251013,016.6,E,D*25
$PGRME,2.4,M,2.4,M,3.4,M*29
$YXXDR,A,6.2,D,PTCH,A,4.1,D,ROLL*5C
$HCHDG,313.8,0.0,E,,*20
$IIRMC,220000,A,4743.448,N,12225.074,W,02.7,345,251013,16,E,A*13
$IIVHW,,,,,02.3,N,,*18
$HCHDG,313.9,0.0,E,,*21
$GPRMC,220024.2,A,4743.44908,N,12225.07494,W,002.77,343.2,251013,016.6,E,D*2A
$PGRME,2.4,M,2.4,M,3.4,M*29
$IIVLW,06409,N,005.5,N*58
$HCHDG,314.0,0.0,E,,*2F
$IIVWR,031,L,06.2,N,,,,*79
$HCHDG,314.1,0.0,E,,*2E
$IIGLL,4743.448,N,12225.074,W,220000,A,A*4B
$GPRMC,220024.4,A,4743.44924,N,12225.07510,W,002.79,342.5,251013,016.6,E,D*27
$GPRMB,A,-0.34,L,,Shil,4741.0830,N,12224.5670,W,2.4,172,-2.75,V*3F
$IIMTW,+09.0,C*31
$PGRME,2.4,M,2.4,M,3.4,M*29
$IIMWV,329,R,06.2,N,A*1F
$HCHDG,314.1,0.0,E,,*2E
$IIMWV,312,T,04.1,N,A*10
$YXXDR,A,6.2,D,PTCH,A,4.1,D,ROLL*5C
$PTAK,FFD1,4.1*50
$HCHDG,314.0,0.0,E,,*2F
$GPRMC,220024.6,A,4743.44933,N,12225.07511,W,002.79,343.6,251013,016.6,E,D*20
$PGRME,2.4,M,2.4,M,3.4,M*29
$HCHDG,314.0,0.0,E,,*2F
$HCHDG,314.1,0.0,E,,*2E
$GPRMC,220024.8,A,4743.44944,N,12225.07508,W,002.77,343.4,251013,016.6,E,D*2A
$PGRME,2.4,M,2.4,M,3.4,M*29
$HCHDG,313.9,0.0,E,,*21
$HCHDG,313.9,0.0,E,,*21
$GPRMC,220025.0,A,4743.44966,N,12225.07506,W,002.76,343.5,251013,016.6,E,D*2D
$PGRME,2.4,M,2.4,M,3.4,M*29
$YXXDR,A,6.3,D,PTCH,A,3.7,D,ROLL*5C
$IIRMB,A,,,,Shil,,,,,002.4,172,,V,A*29
$HCHDG,314.0,0.0,E,,*2F
$HCHDG,313.9,0.0,E,,*21
$IIRMC,220000,A,4743.449,N,12225.074,W,02.7,343,251013,16,E,A*14
$GPRMC,220025.2,A,4743.44986,N,12225.07497,W,002.73,341.6,251013,016.6,E,D*2C
$PGRME,2.4,M,2.4,M,3.4,M*29
$IIVHW,,,,,02.3,N,,*18
$HCHDG,313.9,0.0,E,,*21
$IIVLW,06409,N,005.5,N*58
$IIVWR,029,L,06.3,N,,,,*71
$HCHDG,314.0,0.0,E,,*2F
$GPRMC,220025.4,A,4743.45003,N,12225.07492,W,002.71,342.5,251013,016.6,E,D*28
$PGRME,2.4,M,2.4,M,3.4,M*29
$IIGLL,4743.449,N,12225.074,W,220000,A,A*4A
$HCHDG,314.0,0.0,E,,*2F
$IIMTW,+09.0,C*31
$YXXDR,A,6.3,D,PTCH,A,4.2,D,ROLL*5E
$IIMWV,331,R,06.3,N,A*17
$HCHDG,313.9,0.0,E,,*21
$GPRMC,220025.6,A,4743.45020,N,12225.07485,W,002.69,343.2,251013,016.6,E,D*22
$GPRMB,A,-0.34,L,,Shil,4741.0830,N,12224.5670,W,2.4,172,-2.66,V*3D
$PTAK,FFP1,HEEL,@*07
$PGRME,2.4,M,2.4,M,3.4,M*29
$HCHDG,313.9,0.0,E,,*21
$HCHDG,313.8,0.0,E,,*20
$GPRMC,220025.8,A,4743.45035,N,12225.07468,W,002.66,343.7,251013,016.6,E,D*21
$PGRME,2.4,M,2.4,M,3.4,M*29
$HCHDG,313.8,0.0,E,,*20
$HCHDG,313.5,0.0,E,,*2D
$GPRMC,220026.0,A,4743.45047,N,12225.07455,W,002.66,344.3,251013,016.6,E,D*22
$PGRME,2.4,M,2.4,M,3.4,M*29
$IIMWV,316,T,04.3,N,A*16
$YXXDR,A,6.1,D,PTCH,A,3.9,D,ROLL*50
$PTAK,FFD1,3.9*5F
$HCHDG,313.5,0.0,E,,*2D
$IIRMB,A,,,,Shil,,,,,002.4,172,,V,A*29
$HCHDG,313.5,0.0,E,,*2D
$GPRMC,220026.2,A,4743.45061,N,12225.07448,W,002.66,343.9,251013,016.6,E,D*25
$PGRME,2.4,M,2.4,M,3.4,M*29
$IIRMC,220000,A,4743.449,N,12225.074,W,02.7,341,251013,16,E,A*16
$HCHDG,313.4,0.0,E,,*2C
$IIVHW,,,,,02.3,N,,*18
$IIVLW,06409,N,005.5,N*58
$HCHDG,313.4,0.0,E,,*2C
$GPRMC,220026.4,A,4743.45080,N,12225.07454,W,002.67,345.1,251013,016.6,E,D*2E
$IIVWR,029,L,06.1,N,,,,*73
$PGRME,2.4,M,2.4,M,3.4,M*29
$HCHDG,313.4,0.0,E,,*2C
$IIGLL,4743.449,N,12225.074,W,220000,A,A*4A
$YXXDR,A,6.0,D,PTCH,A,3.8,D,ROLL*50
$IIMTW,+09.0,C*31
$HCHDG,313.4,0.0,E,,*2C
$GPRMC,220026.6,A,4743.45101,N,12225.07452,W,002.65,342.6,251013,016.6,E,D*20
$PGRME,2.4,M,2.4,M,3.4,M*29
$HCHDG,313.6,0.0,E,,*2E
$HCHDG,313.7,0.0,E,,*2F
$GPRMC,220026.8,A,4743.45121,N,12225.07449,W,002.66,343.9,251013,016.6,E,D*2B
$GPRMB,A,-0.34,L,,Shil,4741.0830,N,12224.5670,W,2.4,172,-2.63,V*38
$PGRME,2.4,M,2.4,M,3.4,M*29
$HCHDG,313.5,0.0,E,,*2D
$HCHDG,313.6,0.0,E,,*2E
$GPRMC,220027.0,A,4743.45138,N,12225.07452,W,002.65,344.5,251013,016.6,E,D*28
$PGRME,2.4,M,2.4,M,3.4,M*29
$IIMWV,333,R,06.2,N,A*14
$YXXDR,A,6.3,D,PTCH,A,3.9,D,ROLL*52
$PTAK,FFD1,3.9*5F
$IIMWV,315,T,04.1,N,A*17
$HCHDG,313.6,0.0,E,,*2E
$IIRMB,A,,,,Shil,,,,,002.4,172,,V,A*29
$HCHDG,313.7,0.0,E,,*2F
$GPRMC,220027.2,A,4743.45148,N,12225.07443,W,002.64,343.4,251013,016.6,E,D*2A
$PGRME,2.4,M,2.4,M,3.4,M*29
$HCHDG,313.8,0.0,E,,*20
$IIRMC,220000,A,4743.450,N,12225.074,W,02.6,343,251013,16,E,A*1D
$IIVHW,,,,,02.3,N,,*18
$HCHDG,313.9,0.0,E,,*21
$GPRMC,220027.4,A,4743.45150,N,12225.07443,W,002.64,341.7,251013,016.6,E,D*24
$IIVLW,06409,N,005.5,N*58
$PGRME,2.4,M,2.4,M,3.4,M*29
$IIVWR,027,L,06.2,N,,,,*7E
$HCHDG,314.0,0.0,E,,*2F
$YXXDR,A,6.5,D,PTCH,A,4.0,D,ROLL*5A
$IIGLL,4743.450,N,12225.074,W,220000,A,A*42
$HCHDG,314.2,0.0,E,,*2D
$GPRMC,220027.6,A,4743.45158,N,12225.07451,W,002.66,341.3,251013,016.6,E,D*2B
$PGRME,2.4,M,2.4,M,3.4,M*29
$HCHDG,314.2,0.0,E,,*2D
$HCHDG,314.4,0.0,E,,*2B
$GPRMC,220027.8,A,4743.45173,N,12225.07452,W,002.64,339.5,251013,016.6,E,D*24
$GPRMB,A,-0.34,L,,Shil,4741.0830,N,12224.5670,W,2.4,172,-2.58,V*30
$PGRME,2.4,M,2.4,M,3.4,M*29
$HCHDG,314.3,0.0,E,,*2C
$HCHDG,314.5,0.0,E,,*2A
$GPRMC,220028.0,A,4743.45189,N,12225.07448,W,002.64,340.4,251013,016.6,E,D*22
$PGRME,2.4,M,2.4,M,3.4,M*29
$IIMTW,+09.5,C*34
$YXXDR,A,6.2,D,PTCH,A,4.8,D,ROLL*55
$IIMWV,332,R,06.0,N,A*17
$HCHDG,314.6,0.0,E,,*29
$IIMWV,320,T,04.1,N,A*11
$HCHDG,314.6,0.0,E,,*29
$IIRMB,A,,,,Shil,,,,,002.4,172,,V,A*29
$GPRMC,220028.2,A,4743.45206,N,12225.07453,W,002.64,341.1,251013,016.6,E,D*2A
$PGRME,2.4,M,2.4,M,3.4,M*29
$HCHDG,314.5,0.0,E,,*2A
$IIRMC,220000,A,4743.450,N,12225.074,W,02.6,343,251013,16,E,A*1D
$HCHDG,314.4,0.0,E,,*2B
$IIVHW,,,,,02.3,N,,*18
$GPRMC,220028.4,A,4743.45214,N,12225.07459,W,002.62,341.6,251013,016.6,E,D*24
$PGRME,2.4,M,2.4,M,3.4,M*29
$IIVLW,06409,N,005.5,N*58
$HCHDG,314.4,0.0,E,,*2B
$IIVWR,028,L,06.0,N,,,,*73
$YXXDR,A,6.1,D,PTCH,A,4.0,D,ROLL*5E
$PTAK,FFD1,4.0*51
$HCHDG,314.3,0.0,E,,*2C
$GPRMC,220028.6,A,4743.45226,N,12225.07465,W,002.61,342.3,251013,016.6,E,D*2D
$PGRME,2.4,M,2.4,M,3.4,M*29
$HCHDG,314.5,0.0,E,,*2A
$HCHDG,314.3,0.0,E,,*2C
$GPRMC,220028.8,A,4743.45237,N,12225.07477,W,002.61,341.1,251013,016.6,E,D*21
$PGRME,2.4,M,2.4,M,3.4,M*29
$HCHDG,314.4,0.0,E,,*2B
$HCHDG,314.7,0.0,E,,*28
$GPRMC,220029.0,A,4743.45254,N,12225.07492,W,002.62,342.9,251013,016.6,E,D*2E
$GPRMB,A,-0.34,L,,Shil,4741.0830,N,12224.5670,W,2.4,172,-2.59,V*31
$PGRME,2.4,M,2.4,M,3.4,M*29
$YXXDR,A,6.1,D,PTCH,A,3.6,D,ROLL*5F
$IIGLL,4743.452,N,12225.074,W,220000,A,A*40
$HCHDG,314.6,0.0,E,,*29
$IIMTW,+09.5,C*34
$IIMWV,331,R,05.9,N,A*1E
$HCHDG,314.6,0.0,E,,*29
$GPRMC,220029.2,A,4743.45276,N,12225.07508,W,002.66,343.0,251013,016.6,E,D*22
$PGRME,2.4,M,2.4,M,3.4,M*29
$IIMWV,316,T,04.0,N,A*15
$HCHDG,314.8,0.0,E,,*27
$IIRMB,A,,,,Shil,,,,,002.4,172,,V,A*29
$HCHDG,314.9,0.0,E,,*26
$GPRMC,220029.4,A,4743.45290,N,12225.07515,W,002.66,343.9,251013,016.6,E,D*29
$PGRME,2.4,M,2.4,M,3.4,M*29
$IIRMC,220000,A,4743.452,N,12225.074,W,02.6,341,251013,16,E,A*1D
$HCHDG,314.8,0.0,E,,*27
$IIVHW,,,,,02.2,N,,*19
$IIVLW,06409,N,005.5,N*58
$YXXDR,A,6.3,D,PTCH,A,3.5,D,ROLL*5E
$PTAK,FFD1,3.5*53
$HCHDG,314.7,0.0,E,,*28
$GPRMC,220029.6,A,4743.45309,N,12225.07527,W,002.67,343.3,251013,016.6,E,D*20
$PTAK,FFP1,HEEL,@*07
$PGRME,2.4,M,2.4,M,3.4,M*29
$HCHDG,314.7,0.0,E,,*28
$HCHDG,314.8,0.0,E,,*27
$GPRMC,220029.8,A,4743.45322,N,12225.07547,W,002.67,343.7,251013,016.6,E,D*25
$PGRME,2.4,M,2.4,M,3.4,M*29
$HCHDG,314.7,0.0,E,,*28
$HCHDG,314.9,0.0,E,,*26
$GPRMC,220030.0,A,4743.45333,N,12225.07567,W,002.66,343.2,251013,016.6,E,D*23
$GPRMB,A,-0.34,L,,Shil,4741.0830,N,12224.5670,W,2.4,172,-2.63,V*38
$PGRME,2.4,M,2.4,M,3.4,M*29
$IIVWR,028,L,06.0,N,,,,*73
$YXXDR,A,6.2,D,PTCH,A,3.8,D,ROLL*52
$HCHDG,315.0,0.0,E,,*2E
$IIGLL,4743.452,N,12225.075,W,220000,A,A*41
$IIMTW,+09.5,C*34
$HCHDG,314.9,0.0,E,,*26
$GPRMC,220030.2,A,4743.45343,N,12225.07582,W,002.66,344.3,251013,016.6,E,D*2B
$PGRME,2.4,M,2.4,M,3.4,M*29
$IIMWV,332,R,06.0,N,A*17
$HCHDG,315.0,0.0,E,,*2E
$IIMWV,315,T,03.9,N,A*18
$IIRMB,A,,,,Shil,,,,,002.4,172,,V,A*29
$HCHDG,315.2,0.0,E,,*2C
$GPRMC,220030.4,A,4743.45364,N,12225.07585,W,002.67,344.2,251013,016.6,E,D*2F
$PGRME,2.4,M,2.4,M,3.4,M*29
$HCHDG,315.2,0.0,E,,*2C
$IIRMC,220000,A,4743.452,N,12225.075,W,02.6,343,251013,16,E,A*1E
$YXXDR,A,6.3,D,PTCH,A,4.1,D,ROLL*5D
$IIVHW,,,,,02.3,N,,*18
$HCHDG,315.1,0.0,E,,*2F
$GPRMC,220030.6,A,4743.45392,N,12225.07573,W,002.69,344.2,251013,016.6,E,D*23
$PGRME,2.4,M,2.4,M,3.4,M*29
$HCHDG,315.3,0.0,E,,*2D
$HCHDG,315.3,0.0,E,,*2D
$GPRMC,220030.8,A,4743.45411,N,12225.07576,W,002.70,345.3,251013,016.6,E,D*2C
$PGRME,2.4,M,2.4,M,3.4,M*29
$HCHDG,315.3,0.0,E,,*2D
$HCHDG,315.4,0.0,E,,*2A
$GPRMC,220031.0,A,4743.45434,N,12225.07591,W,002.70,345.4,251013,016.6,E,D*2C
$PGRME,2.4,M,2.4,M,3.4,M*29
$IIVLW,06409,N,005.5,N*58
$YXXDR,A,6.3,D,PTCH,A,4.0,D,ROLL*5C
$PTAK,FFD1,4.0*51
$IIVWR,029,L,06.0,N,,,,*72
$HCHDG,315.4,0.0,E,,*2A
$HCHDG,315.4,0.0,E,,*2A
$IIGLL,4743.453,N,12225.075,W,220000,A,A*40
$GPRMC,220031.2,A,4743.45460,N,12225.07610,W,002.71,345.8,251013,016.6,E,D*28
$GPRMB,A,-0.34,L,,Shil,4741.0830,N,12224.5670,W,2.4,172,-2.70,V*3A
$PGRME,2.4,M,2.4,M,3.4,M*29
$IIMTW,+09.5,C*34
$HCHDG,315.5,0.0,E,,*2B
$IIMWV,331,R,06.0,N,A*14
$IIMWV,316,T,04.0,N,A*15
$HCHDG,315.5,0.0,E,,*2B
$GPRMC,220031.4,A,4743.45484,N,12225.07618,W,002.71,344.4,251013,016.6,E,D*21
$IIRMB,A,,,,Shil,,,,,002.4,172,,V,A*29
$PGRME,2.4,M,2.4,M,3.4,M*29
$HCHDG,315.6,0.0,E,,*28
$YXXDR,A,6.3,D,PTCH,A,4.3,D,ROLL*5F
$IIRMC,220000,A,4743.453,N,12225.075,W,02.6,344,251013,16,E,A*18
$HCHDG,315.6,0.0,E,,*28
$GPRMC,220031.6,A,4743.45506,N,12225.07629,W,002.70,345.4,251013,016.6,E,D*2A
$PGRME,2.4,M,2.4,M,3.4,M*29
$HCHDG,315.5,0.0,E,,*2B
$HCHDG,315.5,0.0,E,,*2B
$GPRMC,220031.8,A,4743.45514,N,12225.07637,W,002.70,345.9,251013,016.6,E,D*25
$PGRME,2.4,M,2.4,M,3.4,M*29
$HCHDG,315.5,0.0,E,,*2B
$HCHDG,315.5,0.0,E,,*2B
$GPRMC,220032.0,A,4743.45524,N,12225.07643,W,002.71,345.0,251013,016.6,E,D*26
$PGRME,2.4,M,2.4,M,3.4,M*29
$IIVHW,,,,,02.3,N,,*18
$YXXDR,A,6.1,D,PTCH,A,4.1,D,ROLL*5F
$PTAK,FFD1,4.1*50
$IIVLW,06409,N,005.5,N*58
$HCHDG,315.6,0.0,E,,*28
$IIVWR,029,L,05.9,N,,,,*78
$HCHDG,315.6,0.0,E,,*28
$GPRMC,220032.2,A,4743.45540,N,12225.07653,W,002.72,345.8,251013,016.6,E,D*2C
$PGRME,2.4,M,2.4,M,3.4,M*29
$IIGLL,4743.454,N,12225.076,W,220000,A,A*44
$HCHDG,315.7,0.0,E,,*29
$IIMTW,+09.5,C*34
$IIMWV,331,R,05.9,N,A*1E
$HCHDG,315.7,0.0,E,,*29
$IIMWV,316,T,04.0,N,A*15
$GPRMC,220032.4,A,4743.45560,N,12225.07670,W,002.72,345.4,251013,016.6,E,D*25
$GPRMB,A,-0.34,L,,Shil,4741.0830,N,12224.5670,W,2.4,172,-2.70,V*3A
$PGRME,2.4,M,2.4,M,3.4,M*29
$IIRMB,A,,,,Shil,,,,,002.4,172,,V,A*29
$HCHDG,315.6,0.0,E,,*28
$YXXDR,A,6.3,D,PTCH,A,4.1,D,ROLL*5D
$HCHDG,315.7,0.0,E,,*29
$GPRMC,220032.6,A,4743.45579,N,12225.07706,W,002.73,345.9,251013,016.6,E,D*23
$PGRME,2.4,M,2.4,M,3.4,M*29
$HCHDG,315.7,0.0,E,,*29
$HCHDG,315.8,0.0,E,,*26
$GPRMC,220032.8,A,4743.45599,N,12225.07724,W,002.76,346.7,251013,016.6,E,D*2B
$PGRME,2.4,M,2.4,M,3.4,M*29
$HCHDG,315.6,0.0,E,,*28
$HCHDG,315.7,0.0,E,,*29
$GPRMC,220033.0,A,4743.45616,N,12225.07716,W,002.77,348.2,251013,016.6,E,D*2D
$PGRME,2.4,M,2.4,M,3.4,M*29
$YXXDR,A,6.2,D,PTCH,A,3.6,D,ROLL*5C
$HCHDG,315.6,0.0,E,,*28
$IIRMC,220000,A,4743.455,N,12225.076,W,02.7,345,251013,16,E,A*1D
$IIVHW,,,,,02.3,N,,*18
$HCHDG,315.5,0.0,E,,*2B
$GPRMC,220033.2,A,4743.45629,N,12225.07698,W,002.79,346.9,251013,016.6,E,D*2F
$PGRME,2.4,M,2.4,M,3.4,M*29
$IIVLW,06409,N,005.5,N*58
$HCHDG,315.5,0.0,E,,*2B
$IIVWR,029,L,05.8,N,,,,*79
$HCHDG,315.5,0.0,E,,*2B
$IIGLL,4743.455,N,12225.076,W,220000,A,A*45
$GPRMC,220033.4,A,4743.45629,N,12225.07704,W,002.82,346.1,251013,016.6,E,D*21
$GPRMB,A,-0.34,L,,Shil,4741.0830,N,12224.5670,W,2.4,172,-2.81,V*34
$IIMTW,+09.5,C*34
$PGRME,2.4,M,2.4,M,3.4,M*29
$IIMWV,331,R,05.8,N,A*1F
$HCHDG,315.7,0.0,E,,*29
$PTAK,FFP1,HEEL,@*07
$IIMWV,314,T,03.8,N,A*18
$YXXDR,A,6.1,D,PTCH,A,3.9,D,ROLL*50
$PTAK,FFD1,3.9*5F
$HCHDG,315.8,0.0,E,,*26
$GPRMC,220033.6,A,4743.45635,N,12225.07721,W,002.82,346.4,251013,016.6,E,D*2C
$PGRME,2.4,M,2.4,M,3.4,M*29
$HCHDG,315.7,0.0,E,,*29
$HCHDG,315.8,0.0,E,,*26
$GPRMC,220033.8,A,4743.45647,N,12225.07731,W,002.82,346.7,251013,016.6,E,D*25
$PGRME,2.4,M,2.4,M,3.4,M*29
$HCHDG,315.8,0.0,E,,*26
$HCHDG,315.8,0.0,E,,*26
$GPRMC,220034.0,A,4743.45655,N,12225.07732,W,002.82,347.7,251013,016.6,E,D*2B
$PGRME,2.4,M,2.4,M,3.4,M*29
$YXXDR,A,6.3,D,PTCH,A,4.1,D,ROLL*5D
$IIRMB,A,,,,Shil,,,,,002.4,172,,V,A*29
$HCHDG,315.8,0.0,E,,*26
$HCHDG,315.7,0.0,E,,*29
$IIRMC,220000,A,4743.456,N,12225.077,W,02.8,346,251013,16,E,A*13
$GPRMC,220034.2,A,4743.45670,N,12225.07726,W,002.81,347.7,251013,016.6,E,D*28
$PGRME,2.4,M,2.4,M,3.4,M*29
$IIVHW,,,,,02.3,N,,*18
$HCHDG,315.6,0.0,E,,*28
$IIVLW,06409,N,005.5,N*58
$IIVWR,029,L,05.8,N,,,,*79
$HCHDG,315.5,0.0,E,,*2B
$GPRMC,220034.4,A,4743.45681,N,12225.07723,W,002.79,347.7,251013,016.6,E,D*22
$PGRME,2.4,M,2.4,M,3.4,M*29
$IIGLL,4743.456,N,12225.077,W,220000,A,A*47
$HCHDG,315.6,0.0,E,,*28
$IIMTW,+09.5,C*34
$YXXDR,A,6.2,D,PTCH,A,4.3,D,ROLL*5E
$IIMWV,331,R,05.8,N,A*1F
$HCHDG,315.5,0.0,E,,*2B
$GPRMC,220034.6,A,4743.45684,N,12225.07731,W,002.78,348.2,251013,016.6,E,D*2D
$GPRMB,A,-0.34,L,,Shil,4741.0830,N,12224.5670,W,2.4,172,-2.77,V*3D
$PGRME,2.4,M,2.4,M,3.4,M*29
$HCHDG,315.3,0.0,E,,*2D
$HCHDG,315.3,0.0,E,,*2D
$GPRMC,220034.8,A,4743.45686,N,12225.07734,W,002.75,347.4,251013,016.6,E,D*20
$PGRME,2.4,M,2.4,M,3.4,M*29
$HCHDG,315.2,0.0,E,,*2C
$HCHDG,315.4,0.0,E,,*2A
$GPRMC,220035.0,A,4743.45692,N,12225.07744,W,002.73,346.8,251013,016.6,E,D*20
$PGRME,2.4,M,2.4,M,3.4,M*29
$IIMWV,315,T,03.8,N,A*19
$YXXDR,A,6.3,D,PTCH,A,4.8,D,ROLL*54
$PTAK,FFD1,4.8*59
$HCHDG,315.2,0.0,E,,*2C
$IIRMB,A,,,,Shil,,,,,002.4,172,,V,A*29
$HCHDG,315.1,0.0,E,,*2F
$GPRMC,220035.2,A,4743.45698,N,12225.07754,W,002.72,347.6,251013,016.6,E,D*27
$PGRME,2.4,M,2.4,M,3.4,M*29
$IIRMC,220000,A,4743.456,N,12225.077,W,02.7,347,251013,16,E,A*1D
$HCHDG,315.0,0.0,E,,*2E
$IIVHW,,,,,02.3,N,,*18
$IIVLW,06409,N,005.5,N*58
$HCHDG,315.0,0.0,E,,*2E
$GPRMC,220035.4,A,4743.45704,N,12225.07764,W,002.72,347.0,251013,016.6,E,D*20
$IIVWR,029,L,05.7,N,,,,*76
$PGRME,2.4,M,2.4,M,3.4,M*29
$HCHDG,314.8,0.0,E,,*27
$IIGLL,4743.456,N,12225.077,W,220000,A,A*47
$YXXDR,A,6.2,D,PTCH,A,4.7,D,ROLL*5A
$IIMTW,+09.5,C*34
$HCHDG,314.8,0.0,E,,*27
$GPRMC,220035.6,A,4743.45713,N,12225.07775,W,002.73,346.2,251013,016.6,E,D*26
$GPRMB,A,-0.34,L,,Shil,4741.0830,N,12224.5670,W,2.4,172,-2.72,V*38
$PGRME,2.4,M,2.4,M,3.4,M*29
$HCHDG,314.7,0.0,E,,*28
$HCHDG,314.8,0.0,E,,*27
$GPRMC,220035.8,A,4743.45732,N,12225.07785,W,002.76,346.0,251013,016.6,E,D*23
$PGRME,2.4,M,2.4,M,3.4,M*29
$HCHDG,314.8,0.0,E,,*27
$HCHDG,314.8,0.0,E,,*27
$GPRMC,220036.0,A,4743.45753,N,12225.07792,W,002.79,345.5,251013,016.6,E,D*20
$PGRME,2.4,M,2.4,M,3.4,M*29
$IIMWV,332,R,05.7,N,A*13
$YXXDR,A,6.2,D,PTCH,A,4.3,D,ROLL*5E
$IIMWV,314,T,03.7,N,A*17
$HCHDG,314.8,0.0,E,,*27
$IIRMB,A,,,,Shil,,,,,002.4,172,,V,A*29
$HCHDG,314.9,0.0,E,,*26
$GPRMC,220036.2,A,4743.45776,N,12225.07807,W,002.82,344.6,251013,016.6,E,D*20
$PGRME,2.4,M,2.4,M,3.4,M*29
$HCHDG,314.8,0.0,E,,*27
$IIRMC,220000,A,4743.457,N,12225.077,W,02.7,347,251013,16,E,A*1C
$IIVHW,,,,,02.3,N,,*18
$HCHDG,314.9,0.0,E,,*26
$GPRMC,220036.4,A,4743.45795,N,12225.07812,W,002.83,345.5,251013,016.6,E,D*2C
$IIVLW,06409,N,005.5,N*58
$PGRME,2.4,M,2.4,M,3.4,M*29
$IIVWR,028,L,05.7,N,,,,*77
$HCHDG,315.0,0.0,E,,*2E
$YXXDR,A,6.3,D,PTCH,A,4.3,D,ROLL*5F
$PTAK,FFD1,4.3*52
$IIGLL,4743.457,N,12225.077,W,220000,A,A*46
$HCHDG,314.8,0.0,E,,*27
$GPRMC,220036.6,A,4743.45811,N,12225.07817,W,002.83,346.3,251013,016.6,E,D*2D
$GPRMB,A,-0.34,L,,Shil,4741.0830,N,12224.5670,W,2.4,172,-2.82,V*37
$PGRME,2.4,M,2.4,M,3.4,M*29
$HCHDG,314.7,0.0,E,,*28
$HCHDG,314.6,0.0,E,,*29
$GPRMC,220036.8,A,4743.45824,N,12225.07810,W,002.81,345.8,251013,016.6,E,D*28
$PGRME,2.4,M,2.4,M,3.4,M*29
$HCHDG,314.6,0.0,E,,*29
$HCHDG,314.7,0.0,E,,*28
$GPRMC,220037.0,A,4743.45831,N,12225.07811,W,002.79,344.4,251013,016.6,E,D*2E
$PGRME,2.4,M,2.4,M,3.4,M*29
$IIMTW,+09.5,C*34
$YXXDR,A,6.2,D,PTCH,A,4.3,D,ROLL*5E
$IIMWV,332,R,05.6,N,A*12
$HCHDG,314.7,0.0,E,,*28
$IIMWV,315,T,03.6,N,A*17
$HCHDG,314.6,0.0,E,,*29
$IIRMB,A,,,,Shil,,,,,002.4,172,,V,A*29
$GPRMC,220037.2,A,4743.45849,N,12225.07818,W,002.77,342.7,251013,016.6,E,D*21
$PGRME,2.4,M,2.4,M,3.4,M*29
$HCHDG,314.7,0.0,E,,*28
$IIRMC,220000,A,4743.457,N,12225.078,W,02.8,345,251013,16,E,A*1E
$HCHDG,314.9,0.0,E,,*26
$IIVHW,,,,,02.3,N,,*18
$GPRMC,220037.4,A,4743.45863,N,12225.07834,W,002.73,343.3,251013,016.6,E,D*20
$PGRME,2.4,M,2.4,M,3.4,M*29
$IIVLW,06409,N,005.5,N*58
$HCHDG,314.8,0.0,E,,*27
$IIVWR,028,L,05.6,N,,,,*76
$YXXDR,A,6.2,D,PTCH,A,5.0,D,ROLL*5C
$PTAK,FFD1,5.0*50
$HCHDG,314.9,0.0,E,,*26
$GPRMC,220037.6,A,4743.45873,N,12225.07841,W,002.70,343.2,251013,016.6,E,D*23
$PTAK,FFP1,HEEL,@*07
$PGRME,2.4,M,2.4,M,3.4,M*29
$HCHDG,314.9,0.0,E,,*26
$HCHDG,314.6,0.0,E,,*29
$GPRMC,220037.8,A,4743.45886,N,12225.07848,W,002.67,344.6,251013,016.6,E,D*2B
$GPRMB,A,-0.34,L,,Shil,4741.0830,N,12224.5670,W,2.4,172,-2.65,V*3E
$PGRME,2.4,M,2.4,M,3.4,M*29
$HCHDG,314.6,0.0,E,,*29
$HCHDG,314.4,0.0,E,,*2B
$GPRMC,220038.0,A,4743.45902,N,12225.07854,W,002.66,345.0,251013,016.6,E,D*2A
$PGRME,2.4,M,2.4,M,3.4,M*29
$YXXDR,A,6.3,D,PTCH,A,3.9,D,ROLL*52
$IIGLL,4743.458,N,12225.078,W,220000,A,A*46
$HCHDG,314.4,0.0,E,,*2B
$IIMTW,+09.5,C*34
$IIMWV,333,R,05.8,N,A*1D
$HCHDG,314.4,0.0,E,,*2B
$GPRMC,220038.2,A,4743.45912,N,12225.07864,W,002.66,345.4,251013,016.6,E,D*2E
$PGRME,2.4,M,2.4,M,3.4,M*29
$IIMWV,314,T,03.6,N,A*16
$HCHDG,314.5,0.0,E,,*2A
$IIRMB,A,,,,Shil,,,,,002.4,172,,V,A*29
$HCHDG,314.1,0.0,E,,*2E
$GPRMC,220038.4,A,4743.45930,N,12225.07874,W,002.66,344.4,251013,016.6,E,D*28
$PGRME,2.4,M,2.4,M,3.4,M*29
$IIRMC,220000,A,4743.458,N,12225.078,W,02.7,343,251013,16,E,A*18
$HCHDG,314.2,0.0,E,,*2D
$IIVHW,,,,,02.4,N,,*1F
$IIVLW,06409,N,005.5,N*58
$YXXDR,A,6.1,D,PTCH,A,4.0,D,ROLL*5E
$PTAK,FFD1,4.0*51
$HCHDG,314.3,0.0,E,,*2C
$GPRMC,220038.6,A,4743.45943,N,12225.07884,W,002.68,344.8,251013,016.6,E,D*23
$PGRME,2.4,M,2.4,M,3.4,M*29
$HCHDG,314.3,0.0,E,,*2C
$HCHDG,314.3,0.0,E,,*2C
$GPRMC,220038.8,A,4743.45957,N,12225.07895,W,002.69,344.6,251013,016.6,E,D*27
$GPRMB,A,-0.34,L,,Shil,4741.0830,N,12224.5670,W,2.4,172,-2.67,V*3C
$PGRME,2.4,M,2.4,M,3.4,M*29
$HCHDG,314.2,0.0,E,,*2D
$HCHDG,314.3,0.0,E,,*2C
$GPRMC,220039.0,A,4743.45968,N,12225.07903,W,002.69,344.2,251013,016.6,E,D*28
$PGRME,2.4,M,2.4,M,3.4,M*29
$IIVWR,029,L,05.8,N,,,,*79
$YXXDR,A,6.2,D,PTCH,A,3.9,D,ROLL*53
$HCHDG,314.3,0.0,E,,*2C
$IIGLL,4743.459,N,12225.078,W,220000,A,A*47
$IIMTW,+09.5,C*34
$HCHDG,314.3,0.0,E,,*2C
$GPRMC,220039.2,A,4743.45981,N,12225.07912,W,002.69,344.3,251013,016.6,E,D*2C
$PGRME,2.4,M,2.4,M,3.4,M*29
$IIMWV,331,R,05.8,N,A*1F
$HCHDG,314.1,0.0,E,,*2E
$IIMWV,316,T,03.7,N,A*15
$IIRMB,A,,,,Shil,,,,,002.4,172,,V,A*29
$HCHDG,314.1,0.0,E,,*2E
$GPRMC,220039.4,A,4743.45994,N,12225.07916,W,002.69,343.9,251013,016.6,E,D*27
$PGRME,2.4,M,2.4,M,3.4,M*29
$HCHDG,314.1,0.0,E,,*2E
$IIRMC,220000,A,4743.459,N,12225.078,W,02.6,344,251013,16,E,A*1F
$IIVHW,,,,,02.4,N,,*1F
$YXXDR,A,6.3,D,PTCH,A,3.9,D,ROLL*52
$PTAK,FFD1,3.9*5F
$HCHDG,314.1,0.0,E,,*2E
$GPRMC,220039.6,A,4743.46014,N,12225.07928,W,002.67,344.1,251013,016.6,E,D*2B
$PGRME,2.4,M,2.4,M,3.4,M*29
$HCHDG,314.1,0.0,E,,*2E
$HCHDG,314.1,0.0,E,,*2E
$GPRMC,220039.8,A,4743.46024,N,12225.07953,W,002.67,343.4,251013,016.6,E,D*28
$GPRMB,A,-0.35,L,,Shil,4741.0830,N,12224.5670,W,2.4,172,-2.64,V*3E
$PGRME,2.4,M,2.4,M,3.4,M*29
$HCHDG,314.0,0.0,E,,*2F
$HCHDG,314.0,0.0,E,,*2F
$GPRMC,220040.0,A,4743.46033,N,12225.07964,W,002.67,344.1,251013,016.6,E,D*2E
$PGRME,2.4,M,2.4,M,3.4,M*29
$IIVLW,06409,N,005.5,N*58
$YXXDR,A,6.2,D,PTCH,A,4.3,D,ROLL*5E
$IIVWR,028,L,05.8,N,,,,*78
$HCHDG,314.0,0.0,E,,*2F
$HCHDG,314.1,0.0,E,,*2E
$IIGLL,4743.460,N,12225.079,W,220000,A,A*4C
$GPRMC,220040.2,A,4743.46041,N,12225.07968,W,002.66,342.5,251013,016.6,E,D*26
$PGRME,2.4,M,2.4,M,3.4,M*29
$IIMTW,+09.5,C*34
$HCHDG,314.3,0.0,E,,*2C
$IIMWV,332,R,05.8,N,A*1C
$IIMWV,314,T,03.7,N,A*17
$HCHDG,314.2,0.0,E,,*2D
$GPRMC,220040.4,A,4743.46057,N,12225.07961,W,002.64,343.2,251013,016.6,E,D*2A
$IIRMB,A,,,,Shil,,,,,002.4,172,,V,A*29
$PGRME,2.4,M,2.4,M,3.4,M*29
$HCHDG,314.5,0.0,E,,*2A
$YXXDR,A,6.4,D,PTCH,A,4.3,D,ROLL*58
$IIRMC,220000,A,4743.460,N,12225.079,W,02.6,344,251013,16,E,A*14
$HCHDG,314.5,0.0,E,,*2A
$GPRMC,220040.6,A,4743.46080,N,12225.07962,W,002.64,344.4,251013,016.6,E,D*20
$PGRME,2.4,M,2.4,M,3.4,M*29
$HCHDG,314.6,0.0,E,,*29
$HCHDG,314.3,0.0,E,,*2C
$GPRMC,220040.8,A,4743.46098,N,12225.07971,W,002.65,345.0,251013,016.6,E,D*21
$PGRME,2.4,M,2.4,M,3.4,M*29
$HCHDG,314.3,0.0,E,,*2C
$HCHDG,314.3,0.0,E,,*2C
$GPRMC,220041.0,A,4743.46112,N,12225.07980,W,002.66,345.7,251013,016.6,E,D*21
$GPRMB,A,-0.35,L,,Shil,4741.0830,N,12224.5670,W,2.4,172,-2.65,V*3F
$PGRME,2.4,M,2.4,M,3.4,M*29
$IIVHW,,,,,02.4,N,,*1F
$YXXDR,A,6.1,D,PTCH,A,3.6,D,ROLL*5F
$PTAK,FFD1,3.6*50
$IIVLW,06409,N,005.5,N*58
$HCHDG,314.1,0.0,E,,*2E
$IIVWR,029,L,05.7,N,,,,*76
$HCHDG,314.1,0.0,E,,*2E
$GPRMC,220041.2,A,4743.46118,N,12225.07982,W,002.68,347.2,251013,016.6,E,D*22
$PGRME,2.4,M,2.4,M,3.4,M*29
$IIGLL,4743.460,N,12225.079,W,220000,A,A*4C
$HCHDG,314.1,0.0,E,,*2E
$IIMTW,+09.5,C*34
$IIMWV,331,R,05.7,N,A*10
$HCHDG,314.0,0.0,E,,*2F
$IIMWV,315,T,03.8,N,A*19
$GPRMC,220041.4,A,4743.46132,N,12225.07966,W,002.69,346.9,251013,016.6,E,D*2D
$PGRME,2.4,M,2.4,M,3.4,M*29
$IIRMB,A,,,,Shil,,,,,002.4,172,,V,A*29
$HCHDG,314.0,0.0,E,,*2F
$YXXDR,A,6.2,D,PTCH,A,4.5,D,ROLL*58
$HCHDG,314.1,0.0,E,,*2E
$GPRMC,220041.6,A,4743.46148,N,12225.07931,W,002.67,346.2,251013,016.6,E,D*25
$PTAK,FFP1,HEEL,@*07
$PGRME,2.4,M,2.4,M,3.4,M*29
$HCHDG,314.0,0.0,E,,*2F
$HCHDG,314.0,0.0,E,,*2F
$GPRMC,220041.8,A,4743.46161,N,12225.07910,W,002.67,345.7,251013,016.6,E,D*25
$PGRME,2.4,M,2.4,M,3.4,M*29
$HCHDG,314.2,0.0,E,,*2D
$HCHDG,314.1,0.0,E,,*2E
$GPRMC,220042.0,A,4743.46172,N,12225.07904,W,002.65,344.5,251013,016.6,E,D*28
$PGRME,2.4,M,2.4,M,3.4,M*29
$YXXDR,A,6.1,D,PTCH,A,4.5,D,ROLL*5B
$HCHDG,314.1,0.0,E,,*2E
$IIRMC,220000,A,4743.461,N,12225.079,W,02.6,346,251013,16,E,A*17
$IIVHW,,,,,02.4,N,,*1F
$HCHDG,314.2,0.0,E,,*2D
$GPRMC,220042.2,A,4743.46188,N,12225.07900,W,002.63,343.6,251013,016.6,E,D*29
$GPRMB,A,-0.34,L,,Shil,4741.0830,N,12224.5670,W,2.4,172,-2.60,V*3B
$PGRME,2.4,M,2.4,M,3.4,M*29
$IIVLW,06409,N,005.5,N*58
$HCHDG,314.2,0.0,E,,*2D
$IIVWR,029,L,05.7,N,,,,*76
$HCHDG,314.1,0.0,E,,*2E
$IIGLL,4743.461,N,12225.079,W,220000,A,A*4D
$GPRMC,220042.4,A,4743.46210,N,12225.07895,W,002.62,343.2,251013,016.6,E,D*25
$IIMTW,+09.5,C*34
$PGRME,2.4,M,2.4,M,3.4,M*29
$IIMWV,331,R,05.7,N,A*10
$HCHDG,314.1,0.0,E,,*2E
$IIMWV,312,T,03.6,N,A*10
$YXXDR,A,6.1,D,PTCH,A,4.5,D,ROLL*5B
$PTAK,FFD1,4.5*54
$HCHDG,314.1,0.0,E,,*2E
$GPRMC,220042.6,A,4743.46231,N,12225.07890,W,002.61,342.0,251013,016.6,E,D*21
$PGRME,2.4,M,2.4,M,3.4,M*29
$HCHDG,314.0,0.0,E,,*2F
$HCHDG,314.2,0.0,E,,*2D
$GPRMC,220042.8,A,4743.46246,N,12225.07875,W,002.60,342.2,251013,016.6,E,D*27
$PGRME,2.4,M,2.4,M,3.4,M*29
$HCHDG,314.1,0.0,E,,*2E
$HCHDG,314.2,0.0,E,,*2D
$GPRMC,220043.0,A,4743.46252,N,12225.07870,W,002.60,342.4,251013,016.6,E,D*28
$PGRME,2.4,M,2.4,M,3.4,M*29
$YXXDR,A,6.0,D,PTCH,A,4.3,D,ROLL*5C
$IIRMB,A,,,,Shil,,,,,002.4,172,,V,A*29
$HCHDG,314.2,0.0,E,,*2D
$HCHDG,314.3,0.0,E,,*2C
$IIRMC,220000,A,4743.462,N,12225.078,W,02.6,342,251013,16,E,A*11
$GPRMC,220043.2,A,4743.46255,N,12225.07874,W,002.61,343.3,251013,016.6,E,D*2E
$GPRMB,A,-0.34,L,,Shil,4741.0830,N,12224.5670,W,2.4,172,-2.58,V*30
$PGRME,2.4,M,2.4,M,3.4,M*29
$IIVHW,,,,,02.3,N,,*18
$HCHDG,314.4,0.0,E,,*2B
$IIVLW,06409,N,005.5,N*58
$IIVWR,030,L,05.7,N,,,,*7E
$HCHDG,314.5,0.0,E,,*2A
$GPRMC,220043.4,A,4743.46268,N,12225.07873,W,002.61,344.6,251013,016.6,E,D*23
$PGRME,2.4,M,2.4,M,3.4,M*29
$IIGLL,4743.462,N,12225.078,W,220000,A,A*4F
$HCHDG,314.4,0.0,E,,*2B
$IIMTW,+09.5,C*34
$IIMWV,330,R,05.7,N,A*11
$YXXDR,A,6.0,D,PTCH,A,3.8,D,ROLL*50
$PTAK,FFD1,3.8*5E
$HCHDG,314.3,0.0,E,,*2C
$GPRMC,220043.6,A,4743.46297,N,12225.07878,W,002.64,344.3,251013,016.6,E,D*2A
$PGRME,2.4,M,2.4,M,3.4,M*29
$HCHDG,314.4,0.0,E,,*2B
$HCHDG,314.5,0.0,E,,*2A
$GPRMC,220043.8,A,4743.46322,N,12225.07889,W,002.67,345.1,251013,016.6,E,D*25
$PGRME,2.4,M,2.4,M,3.4,M*29
$HCHDG,314.3,0.0,E,,*2C
$HCHDG,314.4,0.0,E,,*2B
$GPRMC,220044.0,A,4743.46339,N,12225.07901,W,002.71,344.6,251013,016.6,E,D*20
$PGRME,2.4,M,2.4,M,3.4,M*29
$PGRMT,GPS 18x-5Hz software ver. 3.20,,,,,,,,*30
$IIMWV,312,T,03.7,N,A*11
$YXXDR,A,6.2,D,PTCH,A,3.8,D,ROLL*52
$HCHDG,314.4,0.0,E,,*2B
$IIRMB,A,,,,Shil,,,,,002.4,172,,V,A*29
$HCHDG,314.4,0.0,E,,*2B
$GPRMC,220044.2,A,4743.46350,N,12225.07898,W,002.73,347.8,251013,016.6,E,D*23
$PGRME,2.4,M,2.4,M,3.4,M*29
$IIRMC,220000,A,4743.462,N,12225.078,W,02.6,344,251013,16,E,A*17
$HCHDG,314.2,0.0,E,,*2D
$IIVHW,,,,,02.2,N,,*19
$IIVLW,06409,N,005.5,N*58
$HCHDG,314.1,0.0,E,,*2E
$GPRMC,220044.4,A,4743.46356,N,12225.07878,W,002.75,346.9,251013,016.6,E,D*2B
$GPRMB,A,-0.34,L,,Shil,4741.0830,N,12224.5670,W,2.4,172,-2.74,V*3E
$PGRME,2.4,M,2.4,M,3.4,M*29
$IIVWR,031,L,05.6,N,,,,*7E
$HCHDG,314.1,0.0,E,,*2E
$IIGLL,4743.462,N,12225.078,W,220000,A,A*4F
$IIMTW,+09.5,C*34
$YXXDR,A,6.2,D,PTCH,A,3.6,D,ROLL*5C
$PTAK,FFD1,3.6*50
$HCHDG,314.2,0.0,E,,*2D
$GPRMC,220044.6,A,4743.46365,N,12225.07875,W,002.76,346.8,251013,016.6,E,D*26
$PGRME,2.4,M,2.4,M,3.4,M*29
$HCHDG,314.1,0.0,E,,*2E
$HCHDG,314.2,0.0,E,,*2D
$GPRMC,220044.8,A,4743.46379,N,12225.07878,W,002.75,345.6,251013,016.6,E,D*26
$PGRME,2.4,M,2.4,M,3.4,M*29
$HCHDG,314.2,0.0,E,,*2D
$HCHDG,314.1,0.0,E,,*2E
$GPRMC,220045.0,A,4743.46395,N,12225.07886,W,002.74,345.3,251013,016.6,E,D*28
$PGRME,2.4,M,2.4,M,3.4,M*29
$IIMWV,330,R,05.6,N,A*10
$YXXDR,A,6.2,D,PTCH,A,4.3,D,ROLL*5E
$IIMWV,311,T,03.8,N,A*1D
$HCHDG,314.1,0.0,E,,*2E
$IIRMB,A,,,,Shil,,,,,002.4,172,,V,A*29
$HCHDG,314.2,0.0,E,,*2D
$GPRMC,220045.2,A,4743.46407,N,12225.07889,W,002.73,344.7,251013,016.6,E,D*2B
$PGRME,2.4,M,2.4,M,3.4,M*29
$HCHDG,314.3,0.0,E,,*2C
$IIRMC,220000,A,4743.463,N,12225.078,W,02.7,346,251013,16,E,A*15
$IIVHW,,,,,02.3,N,,*18
$HCHDG,314.2,0.0,E,,*2D
$GPRMC,220045.4,A,4743.46423,N,12225.07893,W,002.73,345.4,251013,016.6,E,D*22
$IIVLW,06409,N,005.5,N*58
$PGRME,2.4,M,2.4,M,3.4,M*29
$IIVWR,030,L,05.6,N,,,,*7F
$HCHDG,314.0,0.0,E,,*2F
$YXXDR,A,6.1,D,PTCH,A,4.5,D,ROLL*5B
$IIGLL,4743.463,N,12225.078,W,220000,A,A*4E
$HCHDG,314.2,0.0,E,,*2D
$GPRMC,220045.6,A,4743.46437,N,12225.07894,W,002.74,346.0,251013,016.6,E,D*22
$GPRMB,A,-0.34,L,,Shil,4741.0830,N,12224.5670,W,2.4,172,-2.73,V*39
$PTAK,FFP1,HEEL,@*07
$PGRME,2.4,M,2.4,M,3.4,M*29
$HCHDG,314.1,0.0,E,,*2E
$HCHDG,314.1,0.0,E,,*2E
$GPRMC,220045.8,A,4743.46450,N,12225.07903,W,002.73,345.5,251013,016.6,E,D*23
$PGRME,2.4,M,2.4,M,3.4,M*29
$HCHDG,314.4,0.0,E,,*2B
$HCHDG,314.2,0.0,E,,*2D
$GPRMC,220046.0,A,4743.46464,N,12225.07913,W,002.72,344.3,251013,016.6,E,D*28
$PGRME,2.4,M,2.4,M,3.4,M*29
$IIMTW,+09.5,C*34
$YXXDR,A,6.3,D,PTCH,A,5.0,D,ROLL*5D
$PTAK,FFD1,5.0*50
$IIMWV,328,R,05.6,N,A*19
$HCHDG,314.3,0.0,E,,*2C
$IIMWV,312,T,03.7,N,A*11
$HCHDG,314.3,0.0,E,,*2C
$GPRMC,220046.2,A,4743.46484,N,12225.07923,W,002.73,343.4,251013,016.6,E,D*26
$IIRMB,A,,,,Shil,,,,,002.4,172,,V,A*29
$PGRME,2.4,M,2.4,M,3.4,M*29
$HCHDG,314.2,0.0,E,,*2D
$IIRMC,220000,A,4743.464,N,12225.078,W,02.7,346,251013,16,E,A*12
$HCHDG,314.2,0.0,E,,*2D
$IIVHW,,,,,02.3,N,,*18
$GPRMC,220046.4,A,4743.46492,N,12225.07925,W,002.73,345.2,251013,016.6,E,D*21
$PGRME,2.4,M,2.4,M,3.4,M*29
$IIVLW,06409,N,005.5,N*58
$HCHDG,314.1,0.0,E,,*2E
$IIVWR,032,L,05.6,N,,,,*7D
$YXXDR,A,6.2,D,PTCH,A,4.7,D,ROLL*5A
$HCHDG,314.1,0.0,E,,*2E
$GPRMC,220046.6,A,4743.46497,N,12225.07928,W,002.74,345.5,251013,016.6,E,D*2B
$PGRME,2.4,M,2.4,M,3.4,M*29
$HCHDG,314.0,0.0,E,,*2F
$HCHDG,314.1,0.0,E,,*2E
$GPRMC,220046.8,A,4743.46507,N,12225.07935,W,002.75,345.1,251013,016.6,E,D*24
$GPRMB,A,-0.35,L,,Shil,4741.0830,N,12224.5670,W,2.4,172,-2.73,V*38
$PGRME,2.4,M,2.4,M,3.4,M*29
$HCHDG,314.1,0.0,E,,*2E
$HCHDG,314.1,0.0,E,,*2E
$GPRMC,220047.0,A,4743.46530,N,12225.07941,W,002.76,345.2,251013,016.6,E,D*2A
$PGRME,2.4,M,2.4,M,3.4,M*29
$YXXDR,A,6.1,D,PTCH,A,4.5,D,ROLL*5B
$PTAK,FFD1,4.5*54
$IIGLL,4743.464,N,12225.079,W,220000,A,A*48
$HCHDG,314.1,0.0,E,,*2E
$IIMTW,+09.5,C*34
$IIMWV,328,R,05.6,N,A*19
$HCHDG,314.1,0.0,E,,*2E
$GPRMC,220047.2,A,4743.46547,N,12225.07955,W,002.77,345.1,251013,016.6,E,D*2F
$PGRME,2.4,M,2.4,M,3.4,M*29
$IIMWV,310,T,03.7,N,A*13
$HCHDG,314.1,0.0,E,,*2E
$IIRMB,A,,,,Shil,,,,,002.4,172,,V,A*29
$HCHDG,314.1,0.0,E,,*2E
$GPRMC,220047.4,A,4743.46561,N,12225.07971,W,002.76,344.2,251013,016.6,E,D*28
$PGRME,2.4,M,2.4,M,3.4,M*29
$IIRMC,220000,A,4743.464,N,12225.079,W,02.7,345,251013,16,E,A*10
$HCHDG,314.2,0.0,E,,*2D
$IIVHW,,,,,02.2,N,,*19
$IIVLW,06409,N,005.5,N*58
$YXXDR,A,6.3,D,PTCH,A,4.8,D,ROLL*54
$HCHDG,314.3,0.0,E,,*2C
$GPRMC,220047.6,A,4743.46574,N,12225.07982,W,002.76,343.9,251013,016.6,E,D*2E
$PGRME,2.4,M,2.4,M,3.4,M*29
$HCHDG,314.2,0.0,E,,*2D
$HCHDG,314.2,0.0,E,,*2D
$GPRMC,220047.8,A,4743.46586,N,12225.07980,W,002.76,343.9,251013,016.6,E,D*2F
$PGRME,2.4,M,2.4,M,3.4,M*29
$HCHDG,314.1,0.0,E,,*2E
$HCHDG,314.1,0.0,E,,*2E
$GPRMC,220048.0,A,4743.46603,N,12225.07984,W,002.74,344.0,251013,016.6,E,D*2E
$GPRMB,A,-0.35,L,,Shil,4741.0830,N,12224.5670,W,2.4,172,-2.71,V*3A
$PGRME,2.4,M,2.4,M,3.4,M*29
$IIVWR,033,L,05.6,N,,,,*7C
$YXXDR,A,6.4,D,PTCH,A,4.8,D,ROLL*53
$PTAK,FFD1,4.8*59
$HCHDG,314.0,0.0,E,,*2F
$IIGLL,4743.465,N,12225.079,W,220000,A,A*49
$IIMTW,+09.5,C*34
$HCHDG,314.1,0.0,E,,*2E
$GPRMC,220048.2,A,4743.46618,N,12225.08008,W,002.72,343.3,251013,016.6,E,D*26
$PGRME,2.4,M,2.4,M,3.4,M*29
$IIMWV,327,R,05.6,N,A*16
$HCHDG,314.1,0.0,E,,*2E
$IIMWV,311,T,03.8,N,A*1D
$IIRMB,A,,,,Shil,,,,,002.4,172,,V,A*29
$HCHDG,314.1,0.0,E,,*2E
$GPRMC,220048.4,A,4743.46629,N,12225.08040,W,002.71,344.1,251013,016.6,E,D*28
$PGRME,2.4,M,2.4,M,3.4,M*29
$HCHDG,314.1,0.0,E,,*2E
$IIRMC,220000,A,4743.465,N,12225.079,W,02.7,343,251013,16,E,A*17
$IIVHW,,,,,02.2,N,,*19
$YXXDR,A,6.2,D,PTCH,A,4.7,D,ROLL*5A
$HCHDG,314.1,0.0,E,,*2E
$GPRMC,220048.6,A,4743.46642,N,12225.08071,W,002.70,344.5,251013,016.6,E,D*20
$PGRME,2.4,M,2.4,M,3.4,M*29
$HCHDG,314.1,0.0,E,,*2E
$HCHDG,314.0,0.0,E,,*2F
$GPRMC,220048.8,A,4743.46659,N,12225.08083,W,002.69,344.6,251013,016.6,E,D*22
$PGRME,2.4,M,2.4,M,3.4,M*29
$HCHDG,314.0,0.0,E,,*2F
$HCHDG,314.0,0.0,E,,*2F
$GPRMC,220049.0,A,4743.46668,N,12225.08086,W,002.68,345.8,251013,016.6,E,D*22
$GPRMB,A,-0.35,L,,Shil,4741.0830,N,12224.5670,W,2.4,172,-2.67,V*3D
$PGRME,2.4,M,2.4,M,3.4,M*29
$IIVLW,06409,N,005.5,N*58
$YXXDR,A,6.2,D,PTCH,A,4.3,D,ROLL*5E
$PTAK,FFD1,4.3*52
$IIVWR,034,L,05.6,N,,,,*7B
$HCHDG,314.1,0.0,E,,*2E
$HCHDG,314.1,0.0,E,,*2E
$IIGLL,4743.466,N,12225.080,W,220000,A,A*4C
$GPRMC,220049.2,A,4743.46666,N,12225.08086,W,002.70,344.5,251013,016.6,E,D*2B
$PGRME,2.4,M,2.4,M,3.4,M*29
$IIMTW,+09.5,C*34
$HCHDG,313.8,0.0,E,,*20
$IIMWV,326,R,05.6,N,A*17
$IIMWV,310,T,03.9,N,A*1D
$HCHDG,313.8,0.0,E,,*20
$GPRMC,220049.4,A,4743.46678,N,12225.08095,W,002.71,344.6,251013,016.6,E,D*22
$IIRMB,A,,,,Shil,,,,,002.4,172,,V,A*29
$PGRME,2.4,M,2.4,M,3.4,M*29
$HCHDG,313.8,0.0,E,,*20
$YXXDR,A,6.2,D,PTCH,A,4.3,D,ROLL*5E
$IIRMC,220000,A,4743.466,N,12225.080,W,02.7,344,251013,16,E,A*15
$HCHDG,314.0,0.0,E,,*2F
$GPRMC,220049.6,A,4743.46693,N,12225.08116,W,002.73,344.9,251013,016.6,E,D*22
$PTAK,FFP1,HEEL,@*07
$PGRME,2.4,M,2.4,M,3.4,M*29
$HCHDG,314.0,0.0,E,,*2F
$HCHDG,314.0,0.0,E,,*2F
$GPRMC,220049.8,A,4743.46711,N,12225.08134,W,002.73,344.4,251013,016.6,E,D*2A
$PGRME,2.4,M,2.4,M,3.4,M*29
$HCHDG,313.8,0.0,E,,*20
$HCHDG,313.9,0.0,E,,*21
$GPRMC,220050.0,A,4743.46722,N,12225.08152,W,002.74,345.3,251013,016.6,E,D*2B
$PGRME,2.4,M,2.4,M,3.4,M*29
$IIVHW,,,,,02.2,N,,*19
$YXXDR,A,6.2,D,PTCH,A,4.3,D,ROLL*5E
$IIVLW,06409,N,005.5,N*58
$HCHDG,313.9,0.0,E,,*21
$IIVWR,034,L,05.6,N,,,,*7B
$HCHDG,313.9,0.0,E,,*21
$GPRMC,220050.2,A,4743.46735,N,12225.08157,W,002.75,345.3,251013,016.6,E,D*2B
$GPRMB,A,-0.35,L,,Shil,4741.0830,N,12224.5670,W,2.4,172,-2.73,V*38
$PGRME,2.4,M,2.4,M,3.4,M*29
