$GPRMB,A,0.06,L,,Shil,4741.0830,N,12224.5670,W,0.3,192,-0.25,V*1F
$PTAK,FFP1,HEEL,@*07
$PGRME,3.0,M,5.1,M,5.9,M*25
$HCHDG,270.6,0.0,E,,*2A
$PTAK,FFP1,HEEL,@*07
$HCHDG,270.5,0.0,E,,*29
$GPRMC,164602.0,A,4741.35140,N,12224.48394,W,002.43,292.7,271013,016.6,E,A*2C
$GPRMB,A,0.06,L,,Shil,4741.0830,N,12224.5670,W,0.3,192,-0.46,V*1A
$PGRME,3.0,M,5.0,M,5.8,M*25
$YXXDR,A,6.0,D,PTCH,A,2.8,D,ROLL*51
$PTAK,FFD1,2.8*5F
$HCHDG,270.5,0.0,E,,*29
$HCHDG,270.4,0.0,E,,*28
$GPRMC,164602.2,A,4741.35154,N,12224.48408,W,002.53,293.2,271013,016.6,E,A*2C
$GPRMB,A,0.06,L,,Shil,4741.0830,N,12224.5670,W,0.3,192,-0.50,V*1D
$PGRME,3.0,M,4.8,M,5.7,M*23
$HCHDG,270.2,0.0,E,,*2E
$HCHDG,270.1,0.0,E,,*2D
$GPRMC,164602.4,A,4741.35178,N,12224.48425,W,002.46,291.8,271013,016.6,E,A*27
$PGRME,3.0,M,4.7,M,5.6,M*2D
$HCHDG,270.0,0.0,E,,*2C
$YXXDR,A,5.9,D,PTCH,A,2.6,D,ROLL*55
$HCHDG,270.0,0.0,E,,*2C
$GPRMC,164602.6,A,4741.35195,N,12224.48438,W,002.53,286.8,271013,016.6,E,A*28
$PGRME,3.0,M,4.6,M,5.6,M*2C
$HCHDG,270.1,0.0,E,,*2D
$HCHDG,270.1,0.0,E,,*2D
$GPRMC,164602.8,A,4741.35200,N,12224.48456,W,002.43,281.3,271013,016.6,E,A*2C
$PGRME,3.0,M,4.5,M,5.5,M*2C
$HCHDG,270.1,0.0,E,,*2D
$HCHDG,270.1,0.0,E,,*2D
$GPRMC,164603.0,A,4741.35206,N,12224.48479,W,002.42,286.0,271013,016.6,E,A*2B
$PGRME,3.0,M,4.4,M,5.3,M*2B
$YXXDR,A,5.8,D,PTCH,A,4.9,D,ROLL*5D
$HCHDG,270.1,0.0,E,,*2D
$HCHDG,270.1,0.0,E,,*2D
$GPRMC,164603.2,A,4741.35210,N,12224.48501,W,002.43,283.3,271013,016.6,E,A*27
$PGRME,3.0,M,4.3,M,5.2,M*2D
$HCHDG,270.2,0.0,E,,*2E
$HCHDG,270.2,0.0,E,,*2E
$GPRMC,164603.4,A,4741.35211,N,12224.48525,W,002.46,284.6,271013,016.6,E,A*21
$GPRMB,A,0.06,L,,Shil,4741.0830,N,12224.5670,W,0.3,192,-0.13,V*1A
$PGRME,3.0,M,4.1,M,5.1,M*2C
$HCHDG,270.1,0.0,E,,*2D
$YXXDR,A,6.2,D,PTCH,A,4.4,D,ROLL*59
$PTAK,FFD1,4.4*55
$HCHDG,270.1,0.0,E,,*2D
$GPRMC,164603.6,A,4741.35213,N,12224.48544,W,002.41,285.5,271013,016.6,E,A*23
$PGRME,3.0,M,4.0,M,5.0,M*2C
$HCHDG,270.0,0.0,E,,*2C
$HCHDG,270.0,0.0,E,,*2C
$GPRMC,164603.8,A,4741.35202,N,12224.48561,W,002.44,284.9,271013,016.6,E,A*22
$PGRME,3.0,M,3.9,M,4.9,M*2A
$HCHDG,270.0,0.0,E,,*2C
$HCHDG,270.0,0.0,E,,*2C
$GPRMC,164604.0,A,4741.35205,N,12224.48583,W,002.48,285.2,271013,016.6,E,A*20
$PGRME,3.0,M,3.8,M,4.9,M*2B
$YXXDR,A,5.9,D,PTCH,A,3.6,D,ROLL*54
$HCHDG,269.9,0.0,E,,*2D
$HCHDG,269.9,0.0,E,,*2D
$GPRMC,164604.2,A,4741.35217,N,12224.48609,W,002.34,286.7,271013,016.6,E,A*2D
$GPRMB,A,0.05,L,,Shil,4741.0830,N,12224.5670,W,0.3,191,-0.21,V*1B
$PGRME,3.0,M,3.7,M,4.8,M*25
$HCHDG,269.9,0.0,E,,*2D
$HCHDG,269.6,0.0,E,,*22
$GPRMC,164604.4,A,4741.35227,N,12224.48631,W,002.38,289.0,271013,016.6,E,A*27
$PGRME,3.0,M,3.7,M,4.8,M*25
$HCHDG,269.6,0.0,E,,*22
$YXXDR,A,6.0,D,PTCH,A,3.1,D,ROLL*59
$PTAK,FFD1,3.1*57
$HCHDG,269.9,0.0,E,,*2D
$GPRMC,164604.6,A,4741.35230,N,12224.48657,W,002.37,284.9,271013,016.6,E,A*28
$PGRME,3.0,M,3.6,M,4.7,M*2B
$HCHDG,269.8,0.0,E,,*2C
$HCHDG,269.8,0.0,E,,*2C
$GPRMC,164604.8,A,4741.35240,N,12224.48671,W,002.35,285.4,271013,016.6,E,A*2B
$PGRME,3.0,M,3.6,M,4.7,M*2B
$HCHDG,269.8,0.0,E,,*2C
$PTAK,FFP1,HEEL,@*07
$HCHDG,269.7,0.0,E,,*23
$GPRMC,164605.0,A,4741.35245,N,12224.48682,W,002.40,286.2,271013,016.6,E,A*2C
$PGRME,3.0,M,3.5,M,4.7,M*28
$YXXDR,A,5.8,D,PTCH,A,3.0,D,ROLL*53
$HCHDG,269.7,0.0,E,,*23
$HCHDG,269.7,0.0,E,,*23
$GPRMC,164605.2,A,4741.35245,N,12224.48701,W,002.40,289.7,271013,016.6,E,A*2E
$PGRME,3.0,M,3.5,M,4.6,M*29
$HCHDG,269.6,0.0,E,,*22
$HCHDG,269.6,0.0,E,,*22
$GPRMC,164605.4,A,4741.35243,N,12224.48711,W,002.40,287.0,271013,016.6,E,A*26
$GPRMB,A,0.05,L,,Shil,4741.0830,N,12224.5670,W,0.3,191,-0.24,V*1E
$PGRME,3.0,M,3.4,M,4.6,M*28
$HCHDG,269.6,0.0,E,,*22
$YXXDR,A,5.7,D,PTCH,A,3.3,D,ROLL*5F
$HCHDG,269.7,0.0,E,,*23
$GPRMC,164605.6,A,4741.35242,N,12224.48732,W,002.38,285.8,271013,016.6,E,A*21
$PGRME,3.0,M,3.3,M,4.5,M*2C
$HCHDG,269.7,0.0,E,,*23
$HCHDG,269.7,0.0,E,,*23
$GPRMC,164605.8,A,4741.35246,N,12224.48754,W,002.38,288.1,271013,016.6,E,A*2F
$PGRME,3.0,M,3.2,M,4.4,M*2C
$HCHDG,269.8,0.0,E,,*2C
$HCHDG,269.9,0.0,E,,*2D
$GPRMC,164606.0,A,4741.35250,N,12224.48778,W,002.42,283.8,271013,016.6,E,A*22
$PGRME,3.0,M,3.2,M,4.4,M*2C
$YXXDR,A,6.0,D,PTCH,A,4.3,D,ROLL*5C
$PTAK,FFD1,4.3*52
$HCHDG,269.9,0.0,E,,*2D
$HCHDG,269.9,0.0,E,,*2D
$GPRMC,164606.2,A,4741.35253,N,12224.48801,W,002.46,285.2,271013,016.6,E,A*2A
$PGRME,3.0,M,3.1,M,4.3,M*28
$HCHDG,270.0,0.0,E,,*2C
$HCHDG,270.0,0.0,E,,*2C
$GPRMC,164606.4,A,4741.35262,N,12224.48820,W,002.40,286.8,271013,016.6,E,A*22
$PGRME,3.0,M,3.0,M,4.3,M*29
$HCHDG,269.9,0.0,E,,*2D
$YXXDR,A,6.0,D,PTCH,A,4.2,D,ROLL*5D
$HCHDG,269.9,0.0,E,,*2D
$GPRMC,164606.6,A,4741.35261,N,12224.48839,W,002.48,285.1,271013,016.6,E,A*29
$PGRME,3.0,M,3.0,M,4.3,M*29
$HCHDG,269.8,0.0,E,,*2C
$HCHDG,269.8,0.0,E,,*2C
$GPRMC,164606.8,A,4741.35258,N,12224.48851,W,002.46,284.9,271013,016.6,E,A*24
$GPRMB,A,0.05,L,,Shil,4741.0830,N,12224.5670,W,0.3,191,-0.16,V*1F
$PGRME,3.0,M,3.0,M,4.3,M*29
$HCHDG,269.8,0.0,E,,*2C
$HCHDG,269.8,0.0,E,,*2C
$GPRMC,164607.0,A,4741.35262,N,12224.48856,W,002.42,285.5,271013,016.6,E,A*2A
$PGRME,3.0,M,3.0,M,4.3,M*29
$YXXDR,A,6.1,D,PTCH,A,3.9,D,ROLL*50
$PTAK,FFD1,3.9*5F
$HCHDG,269.8,0.0,E,,*2C
$HCHDG,269.8,0.0,E,,*2C
$GPRMC,164607.2,A,4741.35268,N,12224.48869,W,002.40,284.5,271013,016.6,E,A*2D
$PGRME,3.0,M,3.0,M,4.3,M*29
$HCHDG,269.8,0.0,E,,*2C
$HCHDG,269.8,0.0,E,,*2C
$GPRMC,164607.4,A,4741.35275,N,12224.48886,W,002.47,284.1,271013,016.6,E,A*25
$PGRME,3.0,M,3.0,M,4.3,M*29
$HCHDG,269.8,0.0,E,,*2C
$YXXDR,A,6.0,D,PTCH,A,3.4,D,ROLL*5C
$HCHDG,269.8,0.0,E,,*2C
$GPRMC,164607.6,A,4741.35283,N,12224.48903,W,002.48,288.9,271013,016.6,E,A*29
$PGRME,3.0,M,3.0,M,4.3,M*29
$HCHDG,269.7,0.0,E,,*23
$HCHDG,269.7,0.0,E,,*23
$GPRMC,164607.8,A,4741.35300,N,12224.48921,W,002.49,289.7,271013,016.6,E,A*23
$GPRMB,A,0.05,L,,Shil,4741.0830,N,12224.5670,W,0.3,191,-0.38,V*13
$PGRME,3.0,M,3.0,M,4.3,M*29
$HCHDG,269.7,0.0,E,,*23
$HCHDG,269.8,0.0,E,,*2C
$GPRMC,164608.0,A,4741.35311,N,12224.48934,W,002.47,288.5,271013,016.6,E,A*2D
$PGRME,3.0,M,3.0,M,4.3,M*29
$YXXDR,A,5.8,D,PTCH,A,3.4,D,ROLL*57
$HCHDG,269.7,0.0,E,,*23
$HCHDG,269.7,0.0,E,,*23
$GPRMC,164608.2,A,4741.35321,N,12224.48945,W,002.42,285.8,271013,016.6,E,A*2F
$PGRME,3.0,M,3.0,M,4.3,M*29
$HCHDG,269.7,0.0,E,,*23
$HCHDG,269.6,0.0,E,,*22
$GPRMC,164608.4,A,4741.35324,N,12224.48968,W,002.50,283.6,271013,016.6,E,A*28
$PGRME,3.0,M,3.0,M,4.3,M*29
$HCHDG,269.7,0.0,E,,*23
$YXXDR,A,5.9,D,PTCH,A,4.2,D,ROLL*57
$PTAK,FFD1,4.2*53
$HCHDG,269.4,0.0,E,,*20
$GPRMC,164608.6,A,4741.35326,N,12224.48987,W,002.41,281.7,271013,016.6,E,A*2A
$PGRME,3.0,M,3.0,M,4.3,M*29
$HCHDG,269.4,0.0,E,,*20
$HCHDG,269.5,0.0,E,,*21
$GPRMC,164608.8,A,4741.35323,N,12224.49009,W,002.38,280.8,271013,016.6,E,A*2F
$GPRMB,A,0.05,L,,Shil,4741.0830,N,12224.5670,W,0.3,191,0.00,V*35
$PGRME,3.0,M,3.0,M,4.3,M*29
$HCHDG,269.5,0.0,E,,*21
$PTAK,FFP1,HEEL,@*07
$HCHDG,269.6,0.0,E,,*22
$GPRMC,164609.0,A,4741.35319,N,12224.49036,W,002.45,281.7,271013,016.6,E,A*27
$PGRME,3.0,M,3.0,M,4.3,M*29
$YXXDR,A,6.2,D,PTCH,A,4.8,D,ROLL*55
$HCHDG,269.6,0.0,E,,*22
$HCHDG,269.7,0.0,E,,*23
$GPRMC,164609.2,A,4741.35314,N,12224.49061,W,002.47,281.4,271013,016.6,E,A*2B
$PGRME,3.0,M,3.0,M,4.3,M*29
$HCHDG,269.8,0.0,E,,*2C
$HCHDG,269.9,0.0,E,,*2D
$GPRMC,164609.4,A,4741.35316,N,12224.49086,W,002.45,284.1,271013,016.6,E,A*24
$PGRME,3.0,M,3.0,M,4.3,M*29
$HCHDG,269.8,0.0,E,,*2C
$YXXDR,A,6.0,D,PTCH,A,3.6,D,ROLL*5E
$PTAK,FFD1,3.6*50
$HCHDG,269.7,0.0,E,,*23
$GPRMC,164609.6,A,4741.35324,N,12224.49104,W,002.38,289.4,271013,016.6,E,A*2E
$PGRME,3.0,M,3.0,M,4.3,M*29
$HCHDG,269.8,0.0,E,,*2C
$HCHDG,269.8,0.0,E,,*2C
$GPRMC,164609.8,A,4741.35334,N,12224.49119,W,002.50,286.7,271013,016.6,E,A*2F
$PGRME,3.0,M,3.0,M,4.3,M*29
$HCHDG,269.7,0.0,E,,*23
$HCHDG,269.6,0.0,E,,*22
$GPRMC,164610.0,A,4741.35341,N,12224.49132,W,002.53,285.0,271013,016.6,E,A*23
$GPRMB,A,0.05,L,,Shil,4741.0830,N,12224.5670,W,0.3,191,-0.19,V*10
$PGRME,3.0,M,3.0,M,4.3,M*29
$YXXDR,A,6.0,D,PTCH,A,3.0,D,ROLL*58
$HCHDG,269.6,0.0,E,,*22
$HCHDG,269.7,0.0,E,,*23
$GPRMC,164610.2,A,4741.35345,N,12224.49138,W,002.41,287.0,271013,016.6,E,A*2E
$PGRME,3.0,M,3.0,M,4.3,M*29
$HCHDG,269.7,0.0,E,,*23
$HCHDG,269.7,0.0,E,,*23
$GPRMC,164610.4,A,4741.35357,N,12224.49143,W,002.43,287.8,271013,016.6,E,A*2D
$PGRME,3.0,M,3.0,M,4.3,M*29
$HCHDG,269.7,0.0,E,,*23
$YXXDR,A,6.0,D,PTCH,A,3.2,D,ROLL*5A
$HCHDG,269.5,0.0,E,,*21
$GPRMC,164610.6,A,4741.35357,N,12224.49153,W,002.46,285.0,271013,016.6,E,A*21
$PGRME,3.0,M,3.0,M,4.3,M*29
$HCHDG,269.5,0.0,E,,*21
$HCHDG,269.5,0.0,E,,*21
$GPRMC,164610.8,A,4741.35357,N,12224.49177,W,002.47,283.5,271013,016.6,E,A*2B
$PGRME,3.0,M,3.0,M,4.3,M*29
$HCHDG,269.4,0.0,E,,*20
$HCHDG,269.4,0.0,E,,*20
$GPRMC,164611.0,A,4741.35365,N,12224.49201,W,002.40,284.6,271013,016.6,E,A*22
$PGRME,3.0,M,3.0,M,4.3,M*29
$YXXDR,A,5.8,D,PTCH,A,4.1,D,ROLL*55
$PTAK,FFD1,4.1*50
$HCHDG,269.5,0.0,E,,*21
$HCHDG,269.4,0.0,E,,*20
$GPRMC,164611.2,A,4741.35372,N,12224.49220,W,002.46,280.7,271013,016.6,E,A*26
$GPRMB,A,0.05,L,,Shil,4741.0830,N,12224.5670,W,0.3,191,-0.01,V*19
$PGRME,3.0,M,3.0,M,4.3,M*29
$HCHDG,269.5,0.0,E,,*21
$HCHDG,269.5,0.0,E,,*21
$GPRMC,164611.4,A,4741.35373,N,12224.49250,W,002.44,281.1,271013,016.6,E,A*23
$PGRME,3.0,M,3.0,M,4.3,M*29
$HCHDG,269.6,0.0,E,,*22
$YXXDR,A,5.8,D,PTCH,A,4.3,D,ROLL*57
$HCHDG,269.8,0.0,E,,*2C
$GPRMC,164611.6,A,4741.35372,N,12224.49287,W,002.43,285.2,271013,016.6,E,A*2A
$PGRME,3.0,M,3.0,M,4.3,M*29
$HCHDG,269.7,0.0,E,,*23
$HCHDG,269.8,0.0,E,,*2C
$GPRMC,164611.8,A,4741.35371,N,12224.49320,W,002.37,286.0,271013,016.6,E,A*29
$PGRME,3.0,M,3.0,M,4.3,M*29
$HCHDG,269.8,0.0,E,,*2C
$HCHDG,269.8,0.0,E,,*2C
$GPRMC,164612.0,A,4741.35368,N,12224.49348,W,002.44,286.3,271013,016.6,E,A*23
$PGRME,3.0,M,3.0,M,4.3,M*29
$YXXDR,A,5.7,D,PTCH,A,3.4,D,ROLL*58
$HCHDG,269.9,0.0,E,,*2D
$HCHDG,269.8,0.0,E,,*2C
$GPRMC,164612.2,A,4741.35372,N,12224.49371,W,002.47,286.5,271013,016.6,E,A*25
$GPRMB,A,0.05,L,,Shil,4741.0830,N,12224.5670,W,0.3,190,-0.27,V*1C
$PGRME,3.0,M,3.0,M,4.3,M*29
$HCHDG,269.8,0.0,E,,*2C
$HCHDG,269.7,0.0,E,,*23
$GPRMC,164612.4,A,4741.35374,N,12224.49384,W,002.47,282.5,271013,016.6,E,A*2B
$PGRME,3.0,M,3.0,M,4.3,M*29
$HCHDG,269.8,0.0,E,,*2C
$YXXDR,A,5.8,D,PTCH,A,3.3,D,ROLL*50
$PTAK,FFD1,3.3*55
$HCHDG,269.8,0.0,E,,*2C
$GPRMC,164612.6,A,4741.35380,N,12224.49400,W,002.50,281.8,271013,016.6,E,A*21
$PGRME,3.0,M,3.0,M,4.3,M*29
$HCHDG,269.8,0.0,E,,*2C
$HCHDG,269.9,0.0,E,,*2D
$GPRMC,164612.8,A,4741.35388,N,12224.49413,W,002.43,282.4,271013,016.6,E,A*28
$PGRME,3.0,M,3.0,M,4.3,M*29
$HCHDG,269.9,0.0,E,,*2D
$HCHDG,269.6,0.0,E,,*22
$GPRMC,164613.0,A,4741.35402,N,12224.49426,W,002.42,281.9,271013,016.6,E,A*2D
$PGRME,3.0,M,3.0,M,4.3,M*29
$YXXDR,A,5.8,D,PTCH,A,3.9,D,ROLL*5A
$HCHDG,269.7,0.0,E,,*23
$HCHDG,269.7,0.0,E,,*23
$GPRMC,164613.2,A,4741.35417,N,12224.49443,W,002.41,281.1,271013,016.6,E,A*23
$PGRME,3.0,M,3.0,M,4.3,M*29
$HCHDG,270.0,0.0,E,,*2C
$HCHDG,269.8,0.0,E,,*2C
$GPRMC,164613.4,A,4741.35426,N,12224.49463,W,002.41,283.2,271013,016.6,E,A*24
$GPRMB,A,0.05,L,,Shil,4741.0830,N,12224.5670,W,0.3,190,-0.13,V*1B
$PGRME,3.0,M,3.0,M,4.3,M*29
$HCHDG,269.9,0.0,E,,*2D
$PTAK,FFP1,HEEL,@*07
$YXXDR,A,5.7,D,PTCH,A,4.1,D,ROLL*5A
$PTAK,FFD1,4.1*50
$HCHDG,270.0,0.0,E,,*2C
$GPRMC,164613.6,A,4741.35428,N,12224.49487,W,002.37,284.2,271013,016.6,E,A*24
$PGRME,3.0,M,3.0,M,4.3,M*29
$HCHDG,269.9,0.0,E,,*2D
$HCHDG,270.0,0.0,E,,*2C
$GPRMC,164613.8,A,4741.35434,N,12224.49502,W,002.41,284.5,271013,016.6,E,A*2D
$PGRME,3.0,M,3.0,M,4.3,M*29
$HCHDG,270.0,0.0,E,,*2C
$HCHDG,270.1,0.0,E,,*2D
$GPRMC,164614.0,A,4741.35433,N,12224.49516,W,002.37,281.3,271013,016.6,E,A*22
$PGRME,3.0,M,3.0,M,4.3,M*29
$YXXDR,A,5.6,D,PTCH,A,4.0,D,ROLL*5A
$HCHDG,270.0,0.0,E,,*2C
$HCHDG,270.2,0.0,E,,*2E
$GPRMC,164614.2,A,4741.35429,N,12224.49545,W,002.41,282.2,271013,016.6,E,A*2E
$PGRME,3.0,M,3.0,M,4.3,M*29
$HCHDG,270.3,0.0,E,,*2F
$HCHDG,270.4,0.0,E,,*28
$GPRMC,164614.4,A,4741.35426,N,12224.49579,W,002.42,283.5,271013,016.6,E,A*2D
$GPRMB,A,0.05,L,,Shil,4741.0830,N,12224.5670,W,0.3,190,-0.15,V*1D
$PGRME,3.0,M,3.0,M,4.3,M*29
$HCHDG,270.6,0.0,E,,*2A
$YXXDR,A,6.0,D,PTCH,A,3.8,D,ROLL*50
$PTAK,FFD1,3.8*5E
$HCHDG,270.7,0.0,E,,*2B
$GPRMC,164614.6,A,4741.35416,N,12224.49610,W,002.40,285.1,271013,016.6,E,A*20
$PGRME,3.0,M,3.0,M,4.3,M*29
$HCHDG,270.8,0.0,E,,*24
$HCHDG,270.8,0.0,E,,*24
$GPRMC,164614.8,A,4741.35417,N,12224.49647,W,002.47,282.5,271013,016.6,E,A*29
$PGRME,3.0,M,3.0,M,4.3,M*29
$HCHDG,270.8,0.0,E,,*24
$HCHDG,271.1,0.0,E,,*2C
$GPRMC,164615.0,A,4741.35423,N,12224.49667,W,002.46,284.0,271013,016.6,E,A*27
$PGRME,3.0,M,3.0,M,4.3,M*29
$YXXDR,A,6.1,D,PTCH,A,3.2,D,ROLL*5B
$HCHDG,271.1,0.0,E,,*2C
$HCHDG,271.1,0.0,E,,*2C
$GPRMC,164615.2,A,4741.35426,N,12224.49687,W,002.37,286.1,271013,016.6,E,A*2B
$PGRME,3.0,M,3.0,M,4.3,M*29
$HCHDG,271.0,0.0,E,,*2D
$HCHDG,271.0,0.0,E,,*2D
$GPRMC,164615.4,A,4741.35435,N,12224.49691,W,002.41,287.9,271013,016.6,E,A*20
$PGRME,3.0,M,3.0,M,4.3,M*29
$HCHDG,271.0,0.0,E,,*2D
$YXXDR,A,5.7,D,PTCH,A,3.3,D,ROLL*5F
$HCHDG,271.2,0.0,E,,*2F
$GPRMC,164615.6,A,4741.35447,N,12224.49698,W,002.32,288.8,271013,016.6,E,A*24
$GPRMB,A,0.05,L,,Shil,4741.0830,N,12224.5670,W,0.3,190,-0.36,V*1C
$PGRME,3.0,M,3.0,M,4.3,M*29
$HCHDG,271.1,0.0,E,,*2C
$HCHDG,271.1,0.0,E,,*2C
$GPRMC,164615.8,A,4741.35456,N,12224.49701,W,002.40,279.8,271013,016.6,E,A*20
$PGRME,3.0,M,3.0,M,4.3,M*29
$HCHDG,271.2,0.0,E,,*2F
$HCHDG,271.3,0.0,E,,*2E
$GPRMC,164616.0,A,4741.35460,N,12224.49705,W,002.55,279.0,271013,016.6,E,A*26
$PGRME,3.0,M,3.0,M,4.3,M*29
$YXXDR,A,5.6,D,PTCH,A,3.8,D,ROLL*55
$PTAK,FFD1,3.8*5E
$HCHDG,271.4,0.0,E,,*29
$HCHDG,271.8,0.0,E,,*25
$GPRMC,164616.2,A,4741.35460,N,12224.49722,W,002.34,277.6,271013,016.6,E,A*2E
$PGRME,3.0,M,3.0,M,4.3,M*29
$HCHDG,272.1,0.0,E,,*2F
$HCHDG,272.1,0.0,E,,*2F
$GPRMC,164616.4,A,4741.35459,N,12224.49741,W,002.31,276.3,271013,016.6,E,A*26
$PGRME,3.0,M,3.0,M,4.3,M*29
$HCHDG,272.5,0.0,E,,*2B
$YXXDR,A,6.0,D,PTCH,A,4.3,D,ROLL*5C
$HCHDG,272.8,0.0,E,,*26
$GPRMC,164616.6,A,4741.35459,N,12224.49759,W,002.45,281.6,271013,016.6,E,A*23
$PGRME,3.0,M,3.0,M,4.3,M*29
$HCHDG,273.1,0.0,E,,*2E
$HCHDG,273.4,0.0,E,,*2B
$GPRMC,164616.8,A,4741.35460,N,12224.49782,W,002.59,286.0,271013,016.6,E,A*2D
$GPRMB,A,0.05,L,,Shil,4741.0830,N,12224.5670,W,0.3,190,-0.28,V*13
$PGRME,3.0,M,3.0,M,4.3,M*29
$HCHDG,273.4,0.0,E,,*2B
$HCHDG,273.4,0.0,E,,*2B
$GPRMC,164617.0,A,4741.35462,N,12224.49806,W,002.62,288.1,271013,016.6,E,A*22
$PGRME,3.0,M,3.0,M,4.3,M*29
$YXXDR,A,6.2,D,PTCH,A,2.9,D,ROLL*52
$PTAK,FFD1,2.9*5E
$HCHDG,273.4,0.0,E,,*2B
$HCHDG,273.7,0.0,E,,*28
$GPRMC,164617.2,A,4741.35468,N,12224.49834,W,002.52,289.4,271013,016.6,E,A*2C
$PGRME,3.0,M,3.0,M,4.3,M*29
$HCHDG,273.5,0.0,E,,*2A
$HCHDG,273.5,0.0,E,,*2A
$GPRMC,164617.4,A,4741.35470,N,12224.49860,W,002.45,291.5,271013,016.6,E,A*2C
$PGRME,3.0,M,3.0,M,4.3,M*29
$HCHDG,273.4,0.0,E,,*2B
$YXXDR,A,5.7,D,PTCH,A,2.2,D,ROLL*5F
$HCHDG,273.4,0.0,E,,*2B
$GPRMC,164617.6,A,4741.35470,N,12224.49887,W,002.48,287.4,271013,016.6,E,A*2C
$PTAK,FFP1,HEEL,@*07
$PGRME,3.0,M,3.0,M,4.3,M*29
$HCHDG,273.2,0.0,E,,*2D
$HCHDG,273.3,0.0,E,,*2C
$GPRMC,164617.8,A,4741.35469,N,12224.49915,W,002.44,287.0,271013,016.6,E,A*28
$PGRME,3.0,M,3.0,M,4.3,M*29
$HCHDG,273.4,0.0,E,,*2B
$HCHDG,273.6,0.0,E,,*29
$GPRMC,164618.0,A,4741.35471,N,12224.49933,W,002.38,286.4,271013,016.6,E,A*2C
$GPRMB,A,0.05,L,,Shil,4741.0830,N,12224.5670,W,0.3,190,-0.29,V*12
$PGRME,3.0,M,3.0,M,4.3,M*29
$YXXDR,A,5.9,D,PTCH,A,3.1,D,ROLL*53
$PTAK,FFD1,3.1*57
$HCHDG,273.8,0.0,E,,*27
$HCHDG,273.6,0.0,E,,*29
$GPRMC,164618.2,A,4741.35476,N,12224.49948,W,002.41,283.9,271013,016.6,E,A*23
$PGRME,3.0,M,3.0,M,4.3,M*29
$HCHDG,273.7,0.0,E,,*28
$HCHDG,274.0,0.0,E,,*28
$GPRMC,164618.4,A,4741.35482,N,12224.49961,W,002.43,283.5,271013,016.6,E,A*2B
$PGRME,3.0,M,3.0,M,4.3,M*29
$HCHDG,274.3,0.0,E,,*2B
$YXXDR,A,5.8,D,PTCH,A,3.9,D,ROLL*5A
$HCHDG,274.4,0.0,E,,*2C
$GPRMC,164618.6,A,4741.35494,N,12224.49974,W,002.50,286.5,271013,016.6,E,A*2D
$PGRME,3.0,M,3.0,M,4.3,M*29
$HCHDG,274.6,0.0,E,,*2E
$HCHDG,274.7,0.0,E,,*2F
$GPRMC,164618.8,A,4741.35500,N,12224.49986,W,002.41,287.4,271013,016.6,E,A*22
$PGRME,3.0,M,3.0,M,4.3,M*29
$HCHDG,274.6,0.0,E,,*2E
$HCHDG,274.7,0.0,E,,*2F
$GPRMC,164619.0,A,4741.35504,N,12224.49994,W,002.44,290.0,271013,016.6,E,A*2B
$GPRMB,A,0.05,L,,Shil,4741.0830,N,12224.5670,W,0.3,189,-0.45,V*10
$PGRME,3.0,M,3.0,M,4.3,M*29
$YXXDR,A,6.0,D,PTCH,A,3.1,D,ROLL*59
$PTAK,FFD1,3.1*57
$HCHDG,274.6,0.0,E,,*2E
$HCHDG,274.6,0.0,E,,*2E
$GPRMC,164619.2,A,4741.35512,N,12224.50004,W,002.41,291.4,271013,016.6,E,A*26
$PGRME,3.0,M,3.0,M,4.3,M*29
$HCHDG,274.6,0.0,E,,*2E
$HCHDG,274.7,0.0,E,,*2F
$GPRMC,164619.4,A,4741.35522,N,12224.50018,W,002.43,294.0,271013,016.6,E,A*2D
$PGRME,3.0,M,3.0,M,4.3,M*29
$HCHDG,274.6,0.0,E,,*2E
$YXXDR,A,5.7,D,PTCH,A,2.4,D,ROLL*59
$HCHDG,274.7,0.0,E,,*2F
$GPRMC,164619.6,A,4741.35526,N,12224.50034,W,002.50,290.6,271013,016.6,E,A*25
$PGRME,3.0,M,3.0,M,4.3,M*29
$HCHDG,274.7,0.0,E,,*2F
$HCHDG,274.7,0.0,E,,*2F
$GPRMC,164619.8,A,4741.35532,N,12224.50050,W,002.35,292.5,271013,016.6,E,A*2E
$PGRME,3.0,M,3.0,M,4.3,M*29
$HCHDG,274.6,0.0,E,,*2E
$HCHDG,274.7,0.0,E,,*2F
$GPRMC,164620.0,A,4741.35540,N,12224.50067,W,002.47,295.1,271013,016.6,E,A*2B
$PGRME,3.0,M,3.0,M,4.3,M*29
$YXXDR,A,5.8,D,PTCH,A,2.6,D,ROLL*54
$HCHDG,274.8,0.0,E,,*20
$HCHDG,274.7,0.0,E,,*2F
$GPRMC,164620.2,A,4741.35552,N,12224.50094,W,002.50,296.1,271013,016.6,E,A*23
$PGRME,3.0,M,3.0,M,4.3,M*29
$HCHDG,274.6,0.0,E,,*2E
$HCHDG,274.7,0.0,E,,*2F
$GPRMC,164620.4,A,4741.35559,N,12224.50121,W,002.50,293.2,271013,016.6,E,A*27
$GPRMB,A,0.04,L,,Shil,4741.0830,N,12224.5670,W,0.3,189,-0.60,V*16
$PGRME,3.0,M,3.0,M,4.3,M*29
$HCHDG,274.7,0.0,E,,*2F
$YXXDR,A,5.8,D,PTCH,A,3.0,D,ROLL*53
$PTAK,FFD1,3.0*56
$HCHDG,274.7,0.0,E,,*2F
$GPRMC,164620.6,A,4741.35564,N,12224.50144,W,002.47,292.9,271013,016.6,E,A*24
$PGRME,3.0,M,3.0,M,4.3,M*29
$HCHDG,274.8,0.0,E,,*20
$HCHDG,274.7,0.0,E,,*2F
$GPRMC,164620.8,A,4741.35571,N,12224.50163,W,002.55,295.6,271013,016.6,E,A*20
$PGRME,3.0,M,3.0,M,4.3,M*29
$HCHDG,274.7,0.0,E,,*2F
$HCHDG,274.8,0.0,E,,*20
$GPRMC,164621.0,A,4741.35578,N,12224.50178,W,002.43,294.1,271013,016.6,E,A*2B
$PGRME,3.0,M,3.0,M,4.3,M*29
$YXXDR,A,5.8,D,PTCH,A,3.6,D,ROLL*55
$HCHDG,274.8,0.0,E,,*20
$HCHDG,274.9,0.0,E,,*21
$GPRMC,164621.2,A,4741.35587,N,12224.50189,W,002.45,291.1,271013,016.6,E,A*24
$PGRME,3.0,M,3.0,M,4.3,M*29
$HCHDG,275.0,0.0,E,,*29
$HCHDG,274.9,0.0,E,,*21
$GPRMC,164621.4,A,4741.35595,N,12224.50204,W,002.43,291.8,271013,016.6,E,A*28
$PGRME,3.0,M,3.0,M,4.3,M*29
$HCHDG,274.9,0.0,E,,*21
$YXXDR,A,6.1,D,PTCH,A,4.0,D,ROLL*5E
$HCHDG,275.0,0.0,E,,*29
$GPRMC,164621.6,A,4741.35603,N,12224.50219,W,002.41,292.2,271013,016.6,E,A*21
$GPRMB,A,0.04,L,,Shil,4741.0830,N,12224.5670,W,0.3,189,-0.55,V*10
$PTAK,FFP1,HEEL,@*07
$PGRME,3.0,M,3.0,M,4.3,M*29
$HCHDG,275.0,0.0,E,,*29
$HCHDG,274.9,0.0,E,,*21
$GPRMC,164621.8,A,4741.35614,N,12224.50234,W,002.50,292.1,271013,016.6,E,A*25
$PGRME,3.0,M,3.0,M,4.3,M*29
$HCHDG,274.8,0.0,E,,*20
$HCHDG,274.8,0.0,E,,*20
$GPRMC,164622.0,A,4741.35618,N,12224.50254,W,002.50,289.9,271013,016.6,E,A*26
$PGRME,3.0,M,3.0,M,4.3,M*29
$YXXDR,A,6.2,D,PTCH,A,3.6,D,ROLL*5C
$PTAK,FFD1,3.6*50
$HCHDG,274.8,0.0,E,,*20
$HCHDG,274.7,0.0,E,,*2F
$GPRMC,164622.2,A,4741.35618,N,12224.50280,W,002.48,289.0,271013,016.6,E,A*2D
$PGRME,3.0,M,3.0,M,4.3,M*29
$HCHDG,274.6,0.0,E,,*2E
$HCHDG,274.6,0.0,E,,*2E
$GPRMC,164622.4,A,4741.35617,N,12224.50306,W,002.45,288.7,271013,016.6,E,A*20
$PGRME,3.0,M,3.0,M,4.3,M*29
$HCHDG,274.5,0.0,E,,*2D
$YXXDR,A,5.9,D,PTCH,A,3.7,D,ROLL*55
$HCHDG,274.5,0.0,E,,*2D
$GPRMC,164622.6,A,4741.35621,N,12224.50325,W,002.41,285.9,271013,016.6,E,A*21
$PGRME,3.0,M,3.0,M,4.3,M*29
$HCHDG,274.5,0.0,E,,*2D
$HCHDG,274.5,0.0,E,,*2D
$GPRMC,164622.8,A,4741.35629,N,12224.50340,W,002.39,287.9,271013,016.6,E,A*29
$GPRMB,A,0.04,L,,Shil,4741.0830,N,12224.5670,W,0.3,189,-0.37,V*14
$PGRME,3.0,M,3.0,M,4.3,M*29
$HCHDG,274.7,0.0,E,,*2F
$HCHDG,274.7,0.0,E,,*2F
$GPRMC,164623.0,A,4741.35638,N,12224.50343,W,002.39,288.5,271013,016.6,E,A*20
$PGRME,3.0,M,3.0,M,4.3,M*29
$YXXDR,A,5.6,D,PTCH,A,4.1,D,ROLL*5B
$HCHDG,274.8,0.0,E,,*20
$HCHDG,274.9,0.0,E,,*21
$GPRMC,164623.2,A,4741.35647,N,12224.50360,W,002.42,291.1,271013,016.6,E,A*2B
$PGRME,3.0,M,3.0,M,4.3,M*29
$HCHDG,274.9,0.0,E,,*21
$HCHDG,274.9,0.0,E,,*21
$GPRMC,164623.4,A,4741.35657,N,12224.50386,W,002.43,292.9,271013,016.6,E,A*2E
$PGRME,3.0,M,3.0,M,4.3,M*29
$HCHDG,275.0,0.0,E,,*29
$YXXDR,A,6.0,D,PTCH,A,3.4,D,ROLL*5C
$PTAK,FFD1,3.4*52
$HCHDG,275.1,0.0,E,,*28
$GPRMC,164623.6,A,4741.35660,N,12224.50410,W,002.37,292.4,271013,016.6,E,A*2E
$PGRME,3.0,M,3.0,M,4.3,M*29
$HCHDG,275.2,0.0,E,,*2B
$HCHDG,275.1,0.0,E,,*28
$GPRMC,164623.8,A,4741.35667,N,12224.50428,W,002.34,290.9,271013,016.6,E,A*20
$PGRME,3.0,M,3.0,M,4.3,M*29
$HCHDG,275.2,0.0,E,,*2B
$HCHDG,275.2,0.0,E,,*2B
$GPRMC,164624.0,A,4741.35677,N,12224.50437,W,002.44,292.5,271013,016.6,E,A*29
$GPRMB,A,0.04,L,,Shil,4741.0830,N,12224.5670,W,0.3,189,-0.58,V*1D
$PGRME,3.0,M,3.0,M,4.3,M*29
$YXXDR,A,6.1,D,PTCH,A,2.9,D,ROLL*51
$HCHDG,275.3,0.0,E,,*2A
$HCHDG,275.2,0.0,E,,*2B
$GPRMC,164624.2,A,4741.35683,N,12224.50456,W,002.49,292.0,271013,016.6,E,A*2F
$PGRME,3.0,M,3.0,M,4.3,M*29
$HCHDG,275.2,0.0,E,,*2B
$HCHDG,275.3,0.0,E,,*2A
$GPRMC,164624.4,A,4741.35695,N,12224.50472,W,002.51,289.7,271013,016.6,E,A*2C
$PGRME,3.0,M,3.0,M,4.3,M*29
$HCHDG,275.3,0.0,E,,*2A
$YXXDR,A,6.1,D,PTCH,A,3.3,D,ROLL*5A
$PTAK,FFD1,3.3*55
$HCHDG,275.2,0.0,E,,*2B
$GPRMC,164624.6,A,4741.35701,N,12224.50481,W,002.49,290.7,271013,016.6,E,A*2F
$PGRME,3.0,M,3.0,M,4.3,M*29
$HCHDG,275.2,0.0,E,,*2B
$HCHDG,275.2,0.0,E,,*2B
$GPRMC,164624.8,A,4741.35706,N,12224.50492,W,002.43,290.4,271013,016.6,E,A*2D
$PGRME,3.0,M,3.0,M,4.3,M*29
$HCHDG,275.2,0.0,E,,*2B
$HCHDG,275.3,0.0,E,,*2A
$GPRMC,164625.0,A,4741.35710,N,12224.50504,W,002.44,289.8,271013,016.6,E,A*2E
$PGRME,3.0,M,3.0,M,4.3,M*29
$YXXDR,A,5.8,D,PTCH,A,3.4,D,ROLL*57
$HCHDG,275.3,0.0,E,,*2A
$HCHDG,275.3,0.0,E,,*2A
$GPRMC,164625.2,A,4741.35711,N,12224.50523,W,002.44,289.5,271013,016.6,E,A*25
$GPRMB,A,0.04,L,,Shil,4741.0830,N,12224.5670,W,0.3,189,-0.46,V*12
$PGRME,3.0,M,3.0,M,4.3,M*29
$HCHDG,275.4,0.0,E,,*2D
$HCHDG,275.4,0.0,E,,*2D
$GPRMC,164625.4,A,4741.35720,N,12224.50543,W,002.48,292.1,271013,016.6,E,A*25
$PGRME,3.0,M,3.0,M,4.3,M*29
$HCHDG,275.4,0.0,E,,*2D
$YXXDR,A,6.0,D,PTCH,A,3.0,D,ROLL*58
$HCHDG,275.3,0.0,E,,*2A
$GPRMC,164625.6,A,4741.35730,N,12224.50561,W,002.43,294.6,271013,016.6,E,A*2C
$PTAK,FFP1,HEEL,@*07
$PGRME,3.0,M,3.0,M,4.3,M*29
$HCHDG,275.3,0.0,E,,*2A
$HCHDG,275.3,0.0,E,,*2A
$GPRMC,164625.8,A,4741.35741,N,12224.50575,W,002.45,299.4,271013,016.6,E,A*28
$PGRME,3.0,M,3.0,M,4.3,M*29
$HCHDG,275.2,0.0,E,,*2B
$HCHDG,275.0,0.0,E,,*29
$GPRMC,164626.0,A,4741.35756,N,12224.50588,W,002.55,298.8,271013,016.6,E,A*2B
$PGRME,3.0,M,3.0,M,4.3,M*29
$YXXDR,A,5.8,D,PTCH,A,2.6,D,ROLL*54
$PTAK,FFD1,2.6*51
$HCHDG,274.9,0.0,E,,*21
$HCHDG,275.0,0.0,E,,*29
$GPRMC,164626.2,A,4741.35765,N,12224.50604,W,002.53,296.4,271013,016.6,E,A*2A
$PGRME,3.0,M,3.0,M,4.3,M*29
$HCHDG,275.0,0.0,E,,*29
$HCHDG,274.8,0.0,E,,*20
$GPRMC,164626.4,A,4741.35771,N,12224.50615,W,002.54,294.9,271013,016.6,E,A*21
$GPRMB,A,0.04,L,,Shil,4741.0830,N,12224.5670,W,0.3,188,-0.72,V*14
$PGRME,3.0,M,3.0,M,4.3,M*29
$HCHDG,274.8,0.0,E,,*20
$YXXDR,A,5.8,D,PTCH,A,3.0,D,ROLL*53
$HCHDG,274.8,0.0,E,,*20
$GPRMC,164626.6,A,4741.35774,N,12224.50634,W,002.50,293.9,271013,016.6,E,A*26
$PGRME,3.0,M,3.0,M,4.3,M*29
$HCHDG,274.6,0.0,E,,*2E
$HCHDG,274.7,0.0,E,,*2F
$GPRMC,164626.8,A,4741.35775,N,12224.50660,W,002.48,290.3,271013,016.6,E,A*28
$PGRME,3.0,M,3.0,M,4.3,M*29
$HCHDG,274.8,0.0,E,,*20
$HCHDG,274.9,0.0,E,,*21
$GPRMC,164627.0,A,4741.35777,N,12224.50681,W,002.49,288.0,271013,016.6,E,A*27
$PGRME,3.0,M,3.0,M,4.3,M*29
$YXXDR,A,5.8,D,PTCH,A,5.0,D,ROLL*55
$HCHDG,275.1,0.0,E,,*28
$HCHDG,275.1,0.0,E,,*28
$GPRMC,164627.2,A,4741.35782,N,12224.50703,W,002.51,289.3,271013,016.6,E,A*2F
$PGRME,3.0,M,3.0,M,4.3,M*29
$HCHDG,275.1,0.0,E,,*28
$HCHDG,275.1,0.0,E,,*28
$GPRMC,164627.4,A,4741.35784,N,12224.50728,W,002.55,289.2,271013,016.6,E,A*23
$GPRMB,A,0.04,L,,Shil,4741.0830,N,12224.5670,W,0.3,188,-0.48,V*1D
$PGRME,3.0,M,3.0,M,4.3,M*29
$HCHDG,275.1,0.0,E,,*28
$YXXDR,A,6.1,D,PTCH,A,3.7,D,ROLL*5E
$PTAK,FFD1,3.7*51
$HCHDG,275.0,0.0,E,,*29
$GPRMC,164627.6,A,4741.35787,N,12224.50748,W,002.53,289.9,271013,016.6,E,A*29
$PGRME,3.0,M,3.0,M,4.3,M*29
$HCHDG,274.9,0.0,E,,*21
$HCHDG,274.9,0.0,E,,*21
$GPRMC,164627.8,A,4741.35792,N,12224.50774,W,002.53,293.8,271013,016.6,E,A*26
$PGRME,3.0,M,3.0,M,4.3,M*29
$HCHDG,274.7,0.0,E,,*2F
$HCHDG,274.6,0.0,E,,*2E
$GPRMC,164628.0,A,4741.35794,N,12224.50794,W,002.52,297.4,271013,016.6,E,A*20
$PGRME,3.0,M,3.0,M,4.3,M*29
$YXXDR,A,6.0,D,PTCH,A,2.9,D,ROLL*50
$HCHDG,274.4,0.0,E,,*2C
$HCHDG,274.3,0.0,E,,*2B
$GPRMC,164628.2,A,4741.35796,N,12224.50813,W,002.52,296.3,271013,016.6,E,A*26
$PGRME,3.0,M,3.0,M,4.3,M*29
$HCHDG,274.0,0.0,E,,*28
$HCHDG,273.8,0.0,E,,*27
$GPRMC,164628.4,A,4741.35806,N,12224.50833,W,002.50,295.2,271013,016.6,E,A*24
$GPRMB,A,0.04,L,,Shil,4741.0830,N,12224.5670,W,0.3,188,-0.73,V*15
$PGRME,3.0,M,3.0,M,4.3,M*29
$HCHDG,273.8,0.0,E,,*27
$YXXDR,A,5.7,D,PTCH,A,2.6,D,ROLL*5B
$HCHDG,273.7,0.0,E,,*28
$GPRMC,164628.6,A,4741.35816,N,12224.50843,W,002.46,293.0,271013,016.6,E,A*23
$PGRME,3.0,M,3.0,M,4.3,M*29
$HCHDG,273.7,0.0,E,,*28
$HCHDG,273.6,0.0,E,,*29
$GPRMC,164628.8,A,4741.35819,N,12224.50852,W,002.44,291.7,271013,016.6,E,A*25
$PGRME,3.0,M,3.0,M,4.3,M*29
$HCHDG,273.6,0.0,E,,*29
$HCHDG,273.7,0.0,E,,*28
$GPRMC,164629.0,A,4741.35825,N,12224.50871,W,002.43,288.5,271013,016.6,E,A*2F
$PGRME,3.0,M,3.0,M,4.3,M*29
$YXXDR,A,5.6,D,PTCH,A,4.0,D,ROLL*5A
$PTAK,FFD1,4.0*51
$HCHDG,273.7,0.0,E,,*28
$HCHDG,273.8,0.0,E,,*27
$GPRMC,164629.2,A,4741.35828,N,12224.50888,W,002.41,288.8,271013,016.6,E,A*29
$PGRME,3.0,M,3.0,M,4.3,M*29
$HCHDG,273.8,0.0,E,,*27
$HCHDG,274.0,0.0,E,,*28
$GPRMC,164629.4,A,4741.35826,N,12224.50905,W,002.42,286.9,271013,016.6,E,A*29
$PGRME,3.0,M,3.0,M,4.3,M*29
$HCHDG,274.0,0.0,E,,*28
$YXXDR,A,6.0,D,PTCH,A,4.8,D,ROLL*57
$HCHDG,274.1,0.0,E,,*29
$GPRMC,164629.6,A,4741.35831,N,12224.50930,W,002.43,288.9,271013,016.6,E,A*24
$GPRMB,A,0.04,L,,Shil,4741.0830,N,12224.5670,W,0.3,188,-0.46,V*13
$PTAK,FFP1,HEEL,@*07
$PGRME,3.0,M,3.0,M,4.3,M*29
$HCHDG,274.1,0.0,E,,*29
$HCHDG,274.2,0.0,E,,*2A
$GPRMC,164629.8,A,4741.35834,N,12224.50949,W,002.44,288.6,271013,016.6,E,A*29
$PGRME,3.0,M,3.0,M,4.3,M*29
$HCHDG,274.2,0.0,E,,*2A
$HCHDG,274.3,0.0,E,,*2B
$GPRMC,164630.0,A,4741.35836,N,12224.50968,W,002.45,291.7,271013,016.6,E,A*20
$PGRME,3.0,M,3.0,M,4.3,M*29
$YXXDR,A,6.0,D,PTCH,A,3.5,D,ROLL*5D
$HCHDG,274.0,0.0,E,,*28
$HCHDG,273.9,0.0,E,,*26
$GPRMC,164630.2,A,4741.35841,N,12224.50994,W,002.45,291.4,271013,016.6,E,A*22
$PGRME,3.0,M,3.0,M,4.3,M*29
$HCHDG,273.8,0.0,E,,*27
$HCHDG,273.8,0.0,E,,*27
$GPRMC,164630.4,A,4741.35844,N,12224.51016,W,002.47,294.4,271013,016.6,E,A*24
$PGRME,3.0,M,3.0,M,4.3,M*29
$HCHDG,274.0,0.0,E,,*28
$YXXDR,A,5.8,D,PTCH,A,3.3,D,ROLL*50
$PTAK,FFD1,3.3*55
$HCHDG,273.9,0.0,E,,*26
$GPRMC,164630.6,A,4741.35845,N,12224.51048,W,002.48,294.0,271013,016.6,E,A*27
$GPRMB,A,0.04,L,,Shil,4741.0830,N,12224.5670,W,0.3,188,-0.69,V*1E
$PGRME,3.0,M,3.0,M,4.3,M*29
$HCHDG,273.7,0.0,E,,*28
$HCHDG,273.9,0.0,E,,*26
$GPRMC,164630.8,A,4741.35847,N,12224.51079,W,002.50,292.5,271013,016.6,E,A*23
$PGRME,3.0,M,3.0,M,4.3,M*29
$HCHDG,273.8,0.0,E,,*27
$HCHDG,273.7,0.0,E,,*28
$GPRMC,164631.0,A,4741.35848,N,12224.51103,W,002.49,291.0,271013,016.6,E,A*27
$PGRME,3.0,M,3.0,M,4.3,M*29
$YXXDR,A,5.4,D,PTCH,A,3.8,D,ROLL*57
$HCHDG,273.7,0.0,E,,*28
$HCHDG,273.7,0.0,E,,*28
$GPRMC,164631.2,A,4741.35855,N,12224.51118,W,002.50,286.6,271013,016.6,E,A*2B
$PGRME,3.0,M,3.0,M,4.3,M*29
$HCHDG,273.9,0.0,E,,*26
$HCHDG,274.0,0.0,E,,*28
$GPRMC,164631.4,A,4741.35864,N,12224.51139,W,002.50,285.8,271013,016.6,E,A*21
$PGRME,3.0,M,3.0,M,4.3,M*29
$HCHDG,273.9,0.0,E,,*26
$YXXDR,A,6.0,D,PTCH,A,5.0,D,ROLL*5E
$HCHDG,274.1,0.0,E,,*29
$GPRMC,164631.6,A,4741.35871,N,12224.51148,W,002.49,285.4,271013,016.6,E,A*25
$PGRME,3.0,M,3.0,M,4.3,M*29
$HCHDG,274.2,0.0,E,,*2A
$HCHDG,274.3,0.0,E,,*2B
$GPRMC,164631.8,A,4741.35880,N,12224.51161,W,002.49,288.2,271013,016.6,E,A*25
$GPRMB,A,0.04,L,,Shil,4741.0830,N,12224.5670,W,0.3,188,-0.45,V*10
$PGRME,3.0,M,3.0,M,4.3,M*29
$HCHDG,274.0,0.0,E,,*28
$HCHDG,274.4,0.0,E,,*2C
$GPRMC,164632.0,A,4741.35890,N,12224.51180,W,002.51,290.6,271013,016.6,E,A*24
$PGRME,3.0,M,3.0,M,4.3,M*29
$YXXDR,A,6.4,D,PTCH,A,4.3,D,ROLL*58
$PTAK,FFD1,4.3*52
$HCHDG,274.3,0.0,E,,*2B
$HCHDG,274.2,0.0,E,,*2A
$GPRMC,164632.2,A,4741.35900,N,12224.51196,W,002.51,292.0,271013,016.6,E,A*2D
$PGRME,3.0,M,3.0,M,4.3,M*29
$HCHDG,274.1,0.0,E,,*29
$HCHDG,273.9,0.0,E,,*26
$GPRMC,164632.4,A,4741.35907,N,12224.51216,W,002.50,291.9,271013,016.6,E,A*2C
$PGRME,3.0,M,3.0,M,4.3,M*29
$HCHDG,273.7,0.0,E,,*28
$YXXDR,A,5.8,D,PTCH,A,3.5,D,ROLL*56
$HCHDG,273.5,0.0,E,,*2A
$GPRMC,164632.6,A,4741.35908,N,12224.51239,W,002.48,290.2,271013,016.6,E,A*2F
$PGRME,3.0,M,3.0,M,4.3,M*29
$HCHDG,273.8,0.0,E,,*27
$HCHDG,273.6,0.0,E,,*29
$GPRMC,164632.8,A,4741.35906,N,12224.51257,W,002.47,290.1,271013,016.6,E,A*2B
$PGRME,3.0,M,3.0,M,4.3,M*29
$HCHDG,273.5,0.0,E,,*2A
$HCHDG,273.5,0.0,E,,*2A
$GPRMC,164633.0,A,4741.35909,N,12224.51285,W,002.44,288.7,271013,016.6,E,A*2E
$GPRMB,A,0.04,L,,Shil,4741.0830,N,12224.5670,W,0.3,188,-0.47,V*12
$PGRME,3.0,M,3.0,M,4.3,M*29
$YXXDR,A,5.3,D,PTCH,A,3.9,D,ROLL*51
$PTAK,FFD1,3.9*5F
$HCHDG,273.6,0.0,E,,*29
$HCHDG,273.7,0.0,E,,*28
$GPRMC,164633.2,A,4741.35906,N,12224.51311,W,002.43,289.2,271013,016.6,E,A*2C
$PGRME,3.0,M,3.0,M,4.3,M*29
$HCHDG,273.9,0.0,E,,*26
$HCHDG,273.7,0.0,E,,*28
$GPRMC,164633.4,A,4741.35909,N,12224.51332,W,002.43,287.7,271013,016.6,E,A*2F
$PGRME,3.0,M,3.0,M,4.3,M*29
$HCHDG,273.9,0.0,E,,*26
$YXXDR,A,5.8,D,PTCH,A,4.3,D,ROLL*57
$HCHDG,274.1,0.0,E,,*29
$GPRMC,164633.6,A,4741.35904,N,12224.51358,W,002.46,290.2,271013,016.6,E,A*2A
$PTAK,FFP1,HEEL,@*07
$PGRME,3.0,M,3.0,M,4.3,M*29
$HCHDG,274.3,0.0,E,,*2B
$HCHDG,274.4,0.0,E,,*2C
$GPRMC,164633.8,A,4741.35903,N,12224.51382,W,002.62,291.4,271013,016.6,E,A*25
$PGRME,3.0,M,3.0,M,4.3,M*29
$HCHDG,274.4,0.0,E,,*2C
$HCHDG,274.5,0.0,E,,*2D
$GPRMC,164634.0,A,4741.35905,N,12224.51405,W,002.61,290.7,271013,016.6,E,A*25
$PGRME,3.0,M,3.0,M,4.3,M*29
$YXXDR,A,6.1,D,PTCH,A,3.7,D,ROLL*5E
$HCHDG,274.4,0.0,E,,*2C
$HCHDG,274.5,0.0,E,,*2D
$GPRMC,164634.2,A,4741.35911,N,12224.51430,W,002.41,287.0,271013,016.6,E,A*27
$GPRMB,A,0.04,L,,Shil,4741.0830,N,12224.5670,W,0.3,187,-0.41,V*1B
$PGRME,3.0,M,3.0,M,4.3,M*29
$HCHDG,274.4,0.0,E,,*2C
$HCHDG,274.4,0.0,E,,*2C
$GPRMC,164634.4,A,4741.35920,N,12224.51449,W,002.65,289.7,271013,016.6,E,A*22
$PGRME,3.0,M,3.0,M,4.3,M*29
$HCHDG,274.4,0.0,E,,*2C
$YXXDR,A,6.0,D,PTCH,A,3.6,D,ROLL*5E
$PTAK,FFD1,3.6*50
$HCHDG,274.2,0.0,E,,*2A
$GPRMC,164634.6,A,4741.35930,N,12224.51463,W,002.59,288.5,271013,016.6,E,A*25
$PGRME,3.0,M,3.0,M,4.3,M*29
$HCHDG,274.2,0.0,E,,*2A
$HCHDG,274.0,0.0,E,,*28
$GPRMC,164634.8,A,4741.35934,N,12224.51482,W,002.52,286.9,271013,016.6,E,A*29
$PGRME,3.0,M,3.0,M,4.3,M*29
$HCHDG,274.0,0.0,E,,*28
$HCHDG,274.1,0.0,E,,*29
$GPRMC,164635.0,A,4741.35935,N,12224.51498,W,002.48,286.7,271013,016.6,E,A*2F
$PGRME,3.0,M,3.0,M,4.3,M*29
$YXXDR,A,5.6,D,PTCH,A,3.9,D,ROLL*54
$HCHDG,274.0,0.0,E,,*28
$HCHDG,274.1,0.0,E,,*29
$GPRMC,164635.2,A,4741.35939,N,12224.51511,W,002.41,287.3,271013,016.6,E,A*2D
$GPRMB,A,0.03,L,,Shil,4741.0830,N,12224.5670,W,0.3,187,-0.42,V*1F
$PGRME,3.0,M,3.0,M,4.3,M*29
$HCHDG,274.2,0.0,E,,*2A
$HCHDG,274.3,0.0,E,,*2B
$GPRMC,164635.4,A,4741.35944,N,12224.51520,W,002.43,288.1,271013,016.6,E,A*2C
$PGRME,3.0,M,3.0,M,4.3,M*29
$HCHDG,274.3,0.0,E,,*2B
$YXXDR,A,5.6,D,PTCH,A,3.5,D,ROLL*58
$PTAK,FFD1,3.5*53
$HCHDG,274.6,0.0,E,,*2E
$GPRMC,164635.6,A,4741.35944,N,12224.51536,W,002.42,291.4,271013,016.6,E,A*25
$PGRME,3.0,M,3.0,M,4.3,M*29
$HCHDG,274.6,0.0,E,,*2E
$HCHDG,274.7,0.0,E,,*2F
$GPRMC,164635.8,A,4741.35943,N,12224.51558,W,002.59,289.7,271013,016.6,E,A*24
$PGRME,3.0,M,3.0,M,4.3,M*29
$HCHDG,274.7,0.0,E,,*2F
$HCHDG,274.9,0.0,E,,*21
$GPRMC,164636.0,A,4741.35942,N,12224.51576,W,002.42,288.2,271013,016.6,E,A*2C
$PGRME,3.0,M,3.0,M,4.3,M*29
$YXXDR,A,6.0,D,PTCH,A,3.0,D,ROLL*58
$HCHDG,275.0,0.0,E,,*29
$HCHDG,275.0,0.0,E,,*29
$GPRMC,164636.2,A,4741.35941,N,12224.51607,W,002.47,289.8,271013,016.6,E,A*26
$PGRME,3.0,M,3.0,M,4.3,M*29
$HCHDG,275.0,0.0,E,,*29
$HCHDG,275.1,0.0,E,,*28
$GPRMC,164636.4,A,4741.35943,N,12224.51631,W,002.50,286.2,271013,016.6,E,A*24
$PGRME,3.0,M,3.0,M,4.3,M*29
$HCHDG,275.1,0.0,E,,*28
$YXXDR,A,6.0,D,PTCH,A,4.3,D,ROLL*5C
$HCHDG,275.2,0.0,E,,*2B
$GPRMC,164636.6,A,4741.35947,N,12224.51654,W,002.49,284.4,271013,016.6,E,A*2D
$GPRMB,A,0.03,L,,Shil,4741.0830,N,12224.5670,W,0.3,187,-0.32,V*18
$PGRME,3.0,M,3.0,M,4.3,M*29
$HCHDG,275.2,0.0,E,,*2B
$HCHDG,275.3,0.0,E,,*2A
$GPRMC,164636.8,A,4741.35949,N,12224.51683,W,002.51,286.8,271013,016.6,E,A*20
$PGRME,3.0,M,3.0,M,4.3,M*29
$HCHDG,275.3,0.0,E,,*2A
$HCHDG,275.3,0.0,E,,*2A
$GPRMC,164637.0,A,4741.35951,N,12224.51713,W,002.52,285.4,271013,016.6,E,A*24
$PGRME,3.0,M,3.0,M,4.3,M*29
$YXXDR,A,5.9,D,PTCH,A,4.3,D,ROLL*56
$PTAK,FFD1,4.3*52
$HCHDG,275.3,0.0,E,,*2A
$HCHDG,275.6,0.0,E,,*2F
$GPRMC,164637.2,A,4741.35960,N,12224.51736,W,002.52,284.9,271013,016.6,E,A*2F
$PGRME,3.0,M,3.0,M,4.3,M*29
$HCHDG,275.6,0.0,E,,*2F
$HCHDG,275.8,0.0,E,,*21
$GPRMC,164637.4,A,4741.35962,N,12224.51751,W,002.50,289.8,271013,016.6,E,A*24
$PGRME,3.0,M,3.0,M,4.3,M*29
$HCHDG,275.9,0.0,E,,*20
$YXXDR,A,6.0,D,PTCH,A,2.7,D,ROLL*5E
$HCHDG,276.1,0.0,E,,*2B
$GPRMC,164637.6,A,4741.35967,N,12224.51764,W,002.49,291.4,271013,016.6,E,A*28
$GPRMB,A,0.03,L,,Shil,4741.0830,N,12224.5670,W,0.3,187,-0.63,V*1C
$PGRME,3.0,M,3.0,M,4.3,M*29
$HCHDG,276.0,0.0,E,,*2A
$PTAK,FFP1,HEEL,@*07
$HCHDG,276.0,0.0,E,,*2A
$GPRMC,164637.8,A,4741.35975,N,12224.51786,W,002.49,293.7,271013,016.6,E,A*28
$PGRME,3.0,M,3.0,M,4.3,M*29
$HCHDG,276.1,0.0,E,,*2B
$HCHDG,276.1,0.0,E,,*2B
$GPRMC,164638.0,A,4741.35986,N,12224.51808,W,002.52,292.1,271013,016.6,E,A*27
$PGRME,3.0,M,3.0,M,4.3,M*29
$YXXDR,A,6.0,D,PTCH,A,2.2,D,ROLL*5B
$PTAK,FFD1,2.2*55
$HCHDG,276.1,0.0,E,,*2B
$HCHDG,276.1,0.0,E,,*2B
$GPRMC,164638.2,A,4741.35992,N,12224.51835,W,002.52,293.4,271013,016.6,E,A*2A
$PGRME,3.0,M,3.0,M,4.3,M*29
$HCHDG,276.0,0.0,E,,*2A
$HCHDG,276.0,0.0,E,,*2A
$GPRMC,164638.4,A,4741.36003,N,12224.51857,W,002.51,293.3,271013,016.6,E,A*2E
$PGRME,3.0,M,3.0,M,4.3,M*29
$HCHDG,276.0,0.0,E,,*2A
$YXXDR,A,5.7,D,PTCH,A,2.6,D,ROLL*5B
$HCHDG,276.1,0.0,E,,*2B
$GPRMC,164638.6,A,4741.36007,N,12224.51871,W,002.51,292.7,271013,016.6,E,A*29
$GPRMB,A,0.03,L,,Shil,4741.0830,N,12224.5670,W,0.3,187,-0.69,V*16
$PGRME,3.0,M,3.0,M,4.3,M*29
$HCHDG,276.0,0.0,E,,*2A
$HCHDG,276.5,0.0,E,,*2F
$GPRMC,164638.8,A,4741.36004,N,12224.51876,W,002.53,292.7,271013,016.6,E,A*21
$PGRME,3.0,M,3.0,M,4.3,M*29
$HCHDG,276.6,0.0,E,,*2C
$HCHDG,276.4,0.0,E,,*2E
$GPRMC,164639.0,A,4741.36005,N,12224.51902,W,002.55,291.9,271013,016.6,E,A*20
$PGRME,3.0,M,3.0,M,4.3,M*29
$YXXDR,A,5.9,D,PTCH,A,3.7,D,ROLL*55
$HCHDG,276.5,0.0,E,,*2F
$HCHDG,276.6,0.0,E,,*2C
$GPRMC,164639.2,A,4741.36011,N,12224.51922,W,002.56,290.3,271013,016.6,E,A*2D
$PGRME,3.0,M,3.0,M,4.3,M*29
$HCHDG,276.8,0.0,E,,*22
$HCHDG,276.7,0.0,E,,*2D
$GPRMC,164639.4,A,4741.36015,N,12224.51939,W,002.55,290.1,271013,016.6,E,A*24
$PGRME,3.0,M,3.0,M,4.3,M*29
$HCHDG,276.9,0.0,E,,*23
$YXXDR,A,6.0,D,PTCH,A,3.6,D,ROLL*5E
$PTAK,FFD1,3.6*50
$HCHDG,276.6,0.0,E,,*2C
$GPRMC,164639.6,A,4741.36020,N,12224.51960,W,002.54,296.0,271013,016.6,E,A*2A
$PGRME,3.0,M,3.0,M,4.3,M*29
$HCHDG,276.5,0.0,E,,*2F
$HCHDG,276.5,0.0,E,,*2F
$GPRMC,164639.8,A,4741.36024,N,12224.51977,W,002.54,297.3,271013,016.6,E,A*24
$GPRMB,A,0.03,L,,Shil,4741.0830,N,12224.5670,W,0.3,187,-0.90,V*10
$PGRME,3.0,M,3.0,M,4.3,M*29
$HCHDG,276.6,0.0,E,,*2C
$HCHDG,276.4,0.0,E,,*2E
$GPRMC,164640.0,A,4741.36030,N,12224.51995,W,002.55,295.1,271013,016.6,E,A*2A
$PGRME,3.0,M,3.0,M,4.3,M*29
$YXXDR,A,6.0,D,PTCH,A,2.4,D,ROLL*5D
$HCHDG,276.2,0.0,E,,*28
$HCHDG,276.1,0.0,E,,*2B
$GPRMC,164640.2,A,4741.36034,N,12224.52016,W,002.55,296.8,271013,016.6,E,A*27
$PGRME,3.0,M,3.0,M,4.3,M*29
$HCHDG,275.9,0.0,E,,*20
$HCHDG,275.8,0.0,E,,*21
$GPRMC,164640.4,A,4741.36038,N,12224.52038,W,002.52,295.6,271013,016.6,E,A*2B
$PGRME,3.0,M,3.0,M,4.3,M*29
$HCHDG,275.7,0.0,E,,*2E
$YXXDR,A,5.5,D,PTCH,A,3.1,D,ROLL*5F
$HCHDG,275.6,0.0,E,,*2F
$GPRMC,164640.6,A,4741.36043,N,12224.52060,W,002.51,296.5,271013,016.6,E,A*2B
$PGRME,3.0,M,3.0,M,4.3,M*29
$HCHDG,275.5,0.0,E,,*2C
$HCHDG,275.4,0.0,E,,*2D
$GPRMC,164640.8,A,4741.36043,N,12224.52087,W,002.48,293.4,271013,016.6,E,A*20
$PGRME,3.0,M,3.0,M,4.3,M*29
$HCHDG,275.6,0.0,E,,*2F
$HCHDG,275.6,0.0,E,,*2F
$GPRMC,164641.0,A,4741.36041,N,12224.52112,W,002.46,293.6,271013,016.6,E,A*2A
$GPRMB,A,0.03,L,,Shil,4741.0830,N,12224.5670,W,0.3,186,-0.73,V*1C
$PGRME,3.0,M,3.0,M,4.3,M*29
$YXXDR,A,5.8,D,PTCH,A,4.5,D,ROLL*51
$PTAK,FFD1,4.5*54
$HCHDG,275.5,0.0,E,,*2C
$HCHDG,275.2,0.0,E,,*2B
$GPRMC,164641.2,A,4741.36045,N,12224.52135,W,002.47,295.3,271013,016.6,E,A*2B
$PGRME,3.0,M,3.0,M,4.3,M*29
$HCHDG,275.3,0.0,E,,*2A
$HCHDG,275.1,0.0,E,,*28
$GPRMC,164641.4,A,4741.36048,N,12224.52157,W,002.49,293.4,271013,016.6,E,A*2B
$PGRME,3.0,M,3.0,M,4.3,M*29
$HCHDG,275.1,0.0,E,,*28
$YXXDR,A,5.9,D,PTCH,A,4.2,D,ROLL*57
$HCHDG,275.0,0.0,E,,*29
$GPRMC,164641.6,A,4741.36054,N,12224.52173,W,002.49,292.3,271013,016.6,E,A*24
$PGRME,3.0,M,3.0,M,4.3,M*29
$HCHDG,274.9,0.0,E,,*21
$HCHDG,274.8,0.0,E,,*20
$GPRMC,164641.8,A,4741.36058,N,12224.52186,W,002.49,292.6,271013,016.6,E,A*29
$PGRME,3.0,M,3.0,M,4.3,M*29
$HCHDG,274.7,0.0,E,,*2F
$PTAK,FFP1,HEEL,@*07
$HCHDG,274.6,0.0,E,,*2E
$GPRMC,164642.0,A,4741.36061,N,12224.52203,W,002.47,288.6,271013,016.6,E,A*23
$GPRMB,A,0.03,L,,Shil,4741.0830,N,12224.5670,W,0.3,186,-0.53,V*1E
$PGRME,3.0,M,3.0,M,4.3,M*29
$YXXDR,A,5.8,D,PTCH,A,3.9,D,ROLL*5A
$HCHDG,274.5,0.0,E,,*2D
$HCHDG,274.5,0.0,E,,*2D
$GPRMC,164642.2,A,4741.36063,N,12224.52222,W,002.46,287.1,271013,016.6,E,A*29
$PGRME,3.0,M,3.0,M,4.3,M*29
$HCHDG,274.5,0.0,E,,*2D
$HCHDG,274.6,0.0,E,,*2E
$GPRMC,164642.4,A,4741.36068,N,12224.52234,W,002.43,286.7,271013,016.6,E,A*21
$PGRME,3.0,M,3.0,M,4.3,M*29
$HCHDG,274.7,0.0,E,,*2F
$YXXDR,A,5.8,D,PTCH,A,4.4,D,ROLL*50
$PTAK,FFD1,4.4*55
$HCHDG,274.9,0.0,E,,*21
$GPRMC,164642.6,A,4741.36071,N,12224.52243,W,002.43,285.7,271013,016.6,E,A*28
$PGRME,3.0,M,3.0,M,4.3,M*29
$HCHDG,275.0,0.0,E,,*29
$HCHDG,275.1,0.0,E,,*28
$GPRMC,164642.8,A,4741.36078,N,12224.52260,W,002.43,288.0,271013,016.6,E,A*24
$PGRME,3.0,M,3.0,M,4.3,M*29
$HCHDG,275.2,0.0,E,,*2B
$HCHDG,275.3,0.0,E,,*2A
$GPRMC,164643.0,A,4741.36084,N,12224.52279,W,002.45,291.0,271013,016.6,E,A*28
$PGRME,3.0,M,3.0,M,4.3,M*29
$YXXDR,A,6.1,D,PTCH,A,2.9,D,ROLL*51
$HCHDG,275.3,0.0,E,,*2A
$HCHDG,275.3,0.0,E,,*2A
$GPRMC,164643.2,A,4741.36080,N,12224.52296,W,002.47,295.1,271013,016.6,E,A*28
$GPRMB,A,0.03,L,,Shil,4741.0830,N,12224.5670,W,0.3,186,-0.80,V*10
$PGRME,3.0,M,3.0,M,4.3,M*29
$HCHDG,275.3,0.0,E,,*2A
$HCHDG,275.0,0.0,E,,*29
$GPRMC,164643.4,A,4741.36084,N,12224.52313,W,002.52,292.4,271013,016.6,E,A*20
$PGRME,3.0,M,3.0,M,4.3,M*29
$HCHDG,275.0,0.0,E,,*29
$YXXDR,A,6.0,D,PTCH,A,2.1,D,ROLL*58
$PTAK,FFD1,2.1*56
$HCHDG,275.0,0.0,E,,*29
$GPRMC,164643.6,A,4741.36090,N,12224.52340,W,002.53,294.0,271013,016.6,E,A*22
$PGRME,3.0,M,3.0,M,4.3,M*29
$HCHDG,275.0,0.0,E,,*29
$HCHDG,275.0,0.0,E,,*29
$GPRMC,164643.8,A,4741.36097,N,12224.52371,W,002.51,291.9,271013,016.6,E,A*27
$PGRME,3.0,M,3.0,M,4.3,M*29
$HCHDG,274.8,0.0,E,,*20
$HCHDG,274.8,0.0,E,,*20
$GPRMC,164644.0,A,4741.36096,N,12224.52396,W,002.48,287.7,271013,016.6,E,A*21
$PGRME,3.0,M,3.0,M,4.3,M*29
$PGRMT,GPS 18x-5Hz software ver. 3.20,,,,,,,,*30
$YXXDR,A,6.0,D,PTCH,A,3.1,D,ROLL*59
$HCHDG,274.8,0.0,E,,*20
$HCHDG,274.9,0.0,E,,*21
$GPRMC,164644.2,A,4741.36101,N,12224.52418,W,002.48,285.3,271013,016.6,E,A*2B
$GPRMB,A,0.03,L,,Shil,4741.0830,N,12224.5670,W,0.3,186,-0.40,V*1C
$PGRME,3.0,M,3.0,M,4.3,M*29
$HCHDG,274.9,0.0,E,,*21
$HCHDG,274.9,0.0,E,,*21
$GPRMC,164644.4,A,4741.36104,N,12224.52431,W,002.48,286.7,271013,016.6,E,A*24
$PGRME,3.0,M,3.0,M,4.3,M*29
$HCHDG,275.0,0.0,E,,*29
$YXXDR,A,5.6,D,PTCH,A,4.4,D,ROLL*5E
$HCHDG,275.3,0.0,E,,*2A
$GPRMC,164644.6,A,4741.36111,N,12224.52439,W,002.48,279.3,271013,016.6,E,A*2E
$PGRME,3.0,M,3.0,M,4.3,M*29
$HCHDG,275.4,0.0,E,,*2D
$HCHDG,275.4,0.0,E,,*2D
$GPRMC,164644.8,A,4741.36117,N,12224.52444,W,002.48,287.7,271013,016.6,E,A*29
$PGRME,3.0,M,3.0,M,4.3,M*29
$HCHDG,275.6,0.0,E,,*2F
$HCHDG,275.8,0.0,E,,*21
$GPRMC,164645.0,A,4741.36127,N,12224.52456,W,002.48,292.1,271013,016.6,E,A*22
$PGRME,3.0,M,3.0,M,4.3,M*29
$YXXDR,A,6.0,D,PTCH,A,3.6,D,ROLL*5E
$PTAK,FFD1,3.6*50
$HCHDG,275.6,0.0,E,,*2F
$HCHDG,275.6,0.0,E,,*2F
$GPRMC,164645.2,A,4741.36137,N,12224.52475,W,002.51,293.0,271013,016.6,E,A*28
$PGRME,3.0,M,3.0,M,4.3,M*29
$HCHDG,275.8,0.0,E,,*21
$HCHDG,275.6,0.0,E,,*2F
$GPRMC,164645.4,A,4741.36153,N,12224.52493,W,002.51,294.0,271013,016.6,E,A*23
$GPRMB,A,0.03,L,,Shil,4741.0830,N,12224.5670,W,0.3,186,-0.78,V*17
$PGRME,3.0,M,3.0,M,4.3,M*29
$HCHDG,275.6,0.0,E,,*2F
$YXXDR,A,6.1,D,PTCH,A,2.3,D,ROLL*5B
$HCHDG,275.6,0.0,E,,*2F
$GPRMC,164645.6,A,4741.36156,N,12224.52509,W,002.50,294.8,271013,016.6,E,A*2F
$PGRME,3.0,M,3.0,M,4.3,M*29
$HCHDG,275.7,0.0,E,,*2E
$HCHDG,275.6,0.0,E,,*2F
$GPRMC,164645.8,A,4741.36156,N,12224.52535,W,002.50,292.0,271013,016.6,E,A*20
$PGRME,3.0,M,3.0,M,4.3,M*29
$HCHDG,275.6,0.0,E,,*2F
$PTAK,FFP1,HEEL,@*07
$HCHDG,275.4,0.0,E,,*2D
$GPRMC,164646.0,A,4741.36156,N,12224.52560,W,002.50,290.3,271013,016.6,E,A*2A
$PGRME,3.0,M,3.0,M,4.3,M*29
$YXXDR,A,5.4,D,PTCH,A,3.5,D,ROLL*5A
$PTAK,FFD1,3.5*53
$HCHDG,275.6,0.0,E,,*2F
$HCHDG,275.6,0.0,E,,*2F
$GPRMC,164646.2,A,4741.36162,N,12224.52580,W,002.50,286.1,271013,016.6,E,A*24
$PGRME,3.0,M,3.0,M,4.3,M*29
$HCHDG,275.6,0.0,E,,*2F
$HCHDG,275.5,0.0,E,,*2C
$GPRMC,164646.4,A,4741.36154,N,12224.52596,W,002.53,286.5,271013,016.6,E,A*27
$PGRME,3.0,M,3.0,M,4.3,M*29
$HCHDG,275.8,0.0,E,,*21
$YXXDR,A,6.0,D,PTCH,A,4.6,D,ROLL*59
$HCHDG,276.0,0.0,E,,*2A
$GPRMC,164646.6,A,4741.36157,N,12224.52620,W,002.54,290.1,271013,016.6,E,A*2C
$GPRMB,A,0.03,L,,Shil,4741.0830,N,12224.5670,W,0.3,186,-0.63,V*1D
$PGRME,3.0,M,3.0,M,4.3,M*29
$HCHDG,276.2,0.0,E,,*28
$HCHDG,276.2,0.0,E,,*28
$GPRMC,164646.8,A,4741.36151,N,12224.52644,W,002.56,290.9,271013,016.6,E,A*2C
$PGRME,3.0,M,3.0,M,4.3,M*29
$HCHDG,275.9,0.0,E,,*20
$HCHDG,276.0,0.0,E,,*2A
$GPRMC,164647.0,A,4741.36156,N,12224.52678,W,002.57,291.1,271013,016.6,E,A*25
$PGRME,3.0,M,3.0,M,4.3,M*29
$YXXDR,A,6.3,D,PTCH,A,3.4,D,ROLL*5F
$HCHDG,276.1,0.0,E,,*2B
$HCHDG,276.0,0.0,E,,*2A
$GPRMC,164647.2,A,4741.36163,N,12224.52703,W,002.40,292.8,271013,016.6,E,A*20
$PGRME,3.0,M,3.0,M,4.3,M*29
$HCHDG,275.9,0.0,E,,*20
$HCHDG,275.7,0.0,E,,*2E
$GPRMC,164647.4,A,4741.36170,N,12224.52720,W,002.44,291.5,271013,016.6,E,A*2F
$PGRME,3.0,M,3.0,M,4.3,M*29
$HCHDG,275.7,0.0,E,,*2E
$YXXDR,A,5.5,D,PTCH,A,2.5,D,ROLL*5A
$PTAK,FFD1,2.5*52
$HCHDG,275.5,0.0,E,,*2C
$GPRMC,164647.6,A,4741.36181,N,12224.52736,W,002.44,295.7,271013,016.6,E,A*22
$PGRME,3.0,M,3.0,M,4.3,M*29
$HCHDG,275.3,0.0,E,,*2A
$HCHDG,275.5,0.0,E,,*2C
$GPRMC,164647.8,A,4741.36192,N,12224.52748,W,002.41,289.9,271013,016.6,E,A*21
$GPRMB,A,0.03,L,,Shil,4741.0830,N,12224.5670,W,0.3,185,-0.60,V*1D
$PGRME,3.0,M,3.0,M,4.3,M*29
$HCHDG,275.2,0.0,E,,*2B
$HCHDG,275.3,0.0,E,,*2A
$GPRMC,164648.0,A,4741.36197,N,12224.52765,W,002.42,290.0,271013,016.6,E,A*2E
$PGRME,3.0,M,3.0,M,4.3,M*29
$YXXDR,A,5.1,D,PTCH,A,3.6,D,ROLL*5C
$HCHDG,275.3,0.0,E,,*2A
$HCHDG,275.6,0.0,E,,*2F
$GPRMC,164648.2,A,4741.36205,N,12224.52789,W,002.43,290.2,271013,016.6,E,A*25
$PGRME,3.0,M,3.0,M,4.3,M*29
$HCHDG,275.6,0.0,E,,*2F
$HCHDG,275.9,0.0,E,,*20
$GPRMC,164648.4,A,4741.36209,N,12224.52816,W,002.45,292.1,271013,016.6,E,A*21
$PGRME,3.0,M,3.0,M,4.3,M*29
$HCHDG,275.9,0.0,E,,*20
$YXXDR,A,6.0,D,PTCH,A,4.0,D,ROLL*5F
$PTAK,FFD1,4.0*51
$HCHDG,276.1,0.0,E,,*2B
$GPRMC,164648.6,A,4741.36213,N,12224.52829,W,002.49,292.6,271013,016.6,E,A*2F
$PGRME,3.0,M,3.0,M,4.3,M*29
$HCHDG,276.3,0.0,E,,*29
$HCHDG,276.4,0.0,E,,*2E
$GPRMC,164648.8,A,4741.36218,N,12224.52845,W,002.54,290.7,271013,016.6,E,A*2F
$GPRMB,A,0.03,L,,Shil,4741.0830,N,12224.5670,W,0.3,185,-0.67,V*1A
$PGRME,3.0,M,3.0,M,4.3,M*29
$HCHDG,276.4,0.0,E,,*2E
$HCHDG,276.5,0.0,E,,*2F
$GPRMC,164649.0,A,4741.36220,N,12224.52865,W,002.58,292.9,271013,016.6,E,A*2F
$PGRME,3.0,M,3.0,M,4.3,M*29
$YXXDR,A,6.0,D,PTCH,A,3.4,D,ROLL*5C
$HCHDG,276.5,0.0,E,,*2F
$HCHDG,276.5,0.0,E,,*2F
$GPRMC,164649.2,A,4741.36221,N,12224.52882,W,002.59,290.0,271013,016.6,E,A*2F
$PGRME,3.0,M,3.0,M,4.3,M*29
$HCHDG,276.4,0.0,E,,*2E
$HCHDG,276.3,0.0,E,,*29
$GPRMC,164649.4,A,4741.36224,N,12224.52901,W,002.60,293.0,271013,016.6,E,A*2F
$PGRME,3.0,M,3.0,M,4.3,M*29
$HCHDG,276.3,0.0,E,,*29
$YXXDR,A,5.8,D,PTCH,A,3.9,D,ROLL*5A
$HCHDG,276.1,0.0,E,,*2B
$GPRMC,164649.6,A,4741.36223,N,12224.52931,W,002.58,290.1,271013,016.6,E,A*20
$PGRME,3.0,M,3.0,M,4.3,M*29
$HCHDG,276.1,0.0,E,,*2B
$HCHDG,276.0,0.0,E,,*2A
$GPRMC,164649.8,A,4741.36221,N,12224.52954,W,002.55,290.1,271013,016.6,E,A*22
$PGRME,3.0,M,3.0,M,4.3,M*29
$HCHDG,275.9,0.0,E,,*20
$PTAK,FFP1,HEEL,@*07
$HCHDG,275.9,0.0,E,,*20
$GPRMC,164650.0,A,4741.36217,N,12224.52974,W,002.52,292.6,271013,016.6,E,A*27
$GPRMB,A,0.03,L,,Shil,4741.0830,N,12224.5670,W,0.3,185,-0.76,V*1A
$PGRME,3.0,M,3.0,M,4.3,M*29
$YXXDR,A,5.3,D,PTCH,A,4.0,D,ROLL*5F
$PTAK,FFD1,4.0*51
$HCHDG,276.0,0.0,E,,*2A
$HCHDG,276.0,0.0,E,,*2A
$GPRMC,164650.2,A,4741.36218,N,12224.52999,W,002.50,294.9,271013,016.6,E,A*22
$PGRME,3.0,M,3.0,M,4.3,M*29
$HCHDG,276.1,0.0,E,,*2B
$HCHDG,276.1,0.0,E,,*2B
$GPRMC,164650.4,A,4741.36227,N,12224.53014,W,002.50,296.7,271013,016.6,E,A*29
$PGRME,3.0,M,3.0,M,4.3,M*29
$HCHDG,275.8,0.0,E,,*21
$YXXDR,A,6.0,D,PTCH,A,3.1,D,ROLL*59
$HCHDG,275.8,0.0,E,,*21
$GPRMC,164650.6,A,4741.36234,N,12224.53030,W,002.34,293.4,271013,016.6,E,A*2B
$PGRME,3.0,M,3.0,M,4.3,M*29
$HCHDG,275.8,0.0,E,,*21
$HCHDG,275.7,0.0,E,,*2E
$GPRMC,164650.8,A,4741.36238,N,12224.53049,W,002.37,297.2,271013,016.6,E,A*26
$PGRME,3.0,M,3.0,M,4.3,M*29
$HCHDG,275.5,0.0,E,,*2C
$HCHDG,275.7,0.0,E,,*2E
$GPRMC,164651.0,A,4741.36246,N,12224.53066,W,002.42,294.0,271013,016.6,E,A*28
$PGRME,3.0,M,3.0,M,4.3,M*29
$YXXDR,A,6.1,D,PTCH,A,3.2,D,ROLL*5B
$HCHDG,275.6,0.0,E,,*2F
$HCHDG,275.3,0.0,E,,*2A
$GPRMC,164651.2,A,4741.36254,N,12224.53077,W,002.43,288.6,271013,016.6,E,A*23
$GPRMB,A,0.02,L,,Shil,4741.0830,N,12224.5670,W,0.3,185,-0.57,V*18
$PGRME,3.0,M,3.0,M,4.3,M*29
$HCHDG,275.3,0.0,E,,*2A
$HCHDG,275.2,0.0,E,,*2B
$GPRMC,164651.4,A,4741.36258,N,12224.53096,W,002.44,292.4,271013,016.6,E,A*28
$PGRME,3.0,M,3.0,M,4.3,M*29
$HCHDG,275.4,0.0,E,,*2D
$YXXDR,A,5.4,D,PTCH,A,4.3,D,ROLL*5B
$PTAK,FFD1,4.3*52
$HCHDG,275.5,0.0,E,,*2C
$GPRMC,164651.6,A,4741.36265,N,12224.53112,W,002.42,285.3,271013,016.6,E,A*2E
$PGRME,3.0,M,3.0,M,4.3,M*29
$HCHDG,275.5,0.0,E,,*2C
$HCHDG,275.7,0.0,E,,*2E
$GPRMC,164651.8,A,4741.36273,N,12224.53119,W,002.43,289.4,271013,016.6,E,A*26
$PGRME,3.0,M,3.0,M,4.3,M*29
$HCHDG,275.6,0.0,E,,*2F
$HCHDG,275.7,0.0,E,,*2E
$GPRMC,164652.0,A,4741.36281,N,12224.53132,W,002.43,294.0,271013,016.6,E,A*21
$PGRME,3.0,M,3.0,M,4.3,M*29
$YXXDR,A,6.0,D,PTCH,A,4.1,D,ROLL*5E
$HCHDG,275.8,0.0,E,,*21
$HCHDG,275.6,0.0,E,,*2F
$GPRMC,164652.2,A,4741.36288,N,12224.53147,W,002.45,293.1,271013,016.6,E,A*28
$PGRME,3.0,M,3.0,M,4.3,M*29
$HCHDG,275.8,0.0,E,,*21
$HCHDG,275.8,0.0,E,,*21
$GPRMC,164652.4,A,4741.36296,N,12224.53163,W,002.47,298.6,271013,016.6,E,A*29
$GPRMB,A,0.02,L,,Shil,4741.0830,N,12224.5670,W,0.3,185,-0.99,V*1A
$PGRME,3.0,M,3.0,M,4.3,M*29
$HCHDG,275.9,0.0,E,,*20
$YXXDR,A,6.0,D,PTCH,A,1.8,D,ROLL*52
$PTAK,FFD1,1.8*5C
$HCHDG,275.9,0.0,E,,*20
$GPRMC,164652.6,A,4741.36306,N,12224.53175,W,002.49,296.1,271013,016.6,E,A*23
$PGRME,3.0,M,3.0,M,4.3,M*29
$HCHDG,275.7,0.0,E,,*2E
$HCHDG,275.6,0.0,E,,*2F
$GPRMC,164652.8,A,4741.36309,N,12224.53183,W,002.51,292.4,271013,016.6,E,A*23
$PGRME,3.0,M,3.0,M,4.3,M*29
$HCHDG,275.8,0.0,E,,*21
$HCHDG,275.7,0.0,E,,*2E
$GPRMC,164653.0,A,4741.36304,N,12224.53205,W,002.50,293.3,271013,016.6,E,A*2D
$PGRME,3.0,M,3.0,M,4.3,M*29
$YXXDR,A,5.4,D,PTCH,A,3.3,D,ROLL*5C
$HCHDG,275.6,0.0,E,,*2F
$HCHDG,275.5,0.0,E,,*2C
$GPRMC,164653.2,A,4741.36300,N,12224.53224,W,002.50,291.0,271013,016.6,E,A*29
$PGRME,3.0,M,3.0,M,4.3,M*29
$HCHDG,275.7,0.0,E,,*2E
$HCHDG,275.7,0.0,E,,*2E
$GPRMC,164653.4,A,4741.36299,N,12224.53245,W,002.52,290.1,271013,016.6,E,A*2B
$GPRMB,A,0.02,L,,Shil,4741.0830,N,12224.5670,W,0.3,185,-0.67,V*1B
$PGRME,3.0,M,3.0,M,4.3,M*29
$HCHDG,275.8,0.0,E,,*21
$YXXDR,A,5.9,D,PTCH,A,4.3,D,ROLL*56
$PTAK,FFD1,4.3*52
$HCHDG,276.0,0.0,E,,*2A
$GPRMC,164653.6,A,4741.36293,N,12224.53259,W,002.53,292.0,271013,016.6,E,A*2C
$PGRME,3.0,M,3.0,M,4.3,M*29
$HCHDG,275.9,0.0,E,,*20
$HCHDG,276.0,0.0,E,,*2A
$GPRMC,164653.8,A,4741.36295,N,12224.53278,W,002.56,291.9,271013,016.6,E,A*28
$PGRME,3.0,M,3.0,M,4.3,M*29
$HCHDG,276.0,0.0,E,,*2A
$PTAK,FFP1,HEEL,@*07
$HCHDG,276.0,0.0,E,,*2A
$GPRMC,164654.0,A,4741.36299,N,12224.53298,W,002.57,293.2,271013,016.6,E,A*2D
$PGRME,3.0,M,3.0,M,4.3,M*29
$YXXDR,A,6.7,D,PTCH,A,3.4,D,ROLL*5B
$HCHDG,275.9,0.0,E,,*20
$HCHDG,275.8,0.0,E,,*21
$GPRMC,164654.2,A,4741.36311,N,12224.53318,W,002.57,298.7,271013,016.6,E,A*29
$PGRME,3.0,M,3.0,M,4.3,M*29
$HCHDG,275.6,0.0,E,,*2F
$HCHDG,275.3,0.0,E,,*2A
$GPRMC,164654.4,A,4741.36323,N,12224.53330,W,002.55,297.8,271013,016.6,E,A*26
$GPRMB,A,0.02,L,,Shil,4741.0830,N,12224.5670,W,0.3,185,-1.00,V*1B
$PGRME,3.0,M,3.0,M,4.3,M*29
$HCHDG,275.3,0.0,E,,*2A
$YXXDR,A,6.0,D,PTCH,A,3.0,D,ROLL*58
$HCHDG,274.9,0.0,E,,*21
$GPRMC,164654.6,A,4741.36331,N,12224.53353,W,002.39,295.9,271013,016.6,E,A*2B
$PGRME,3.0,M,3.0,M,4.3,M*29
$HCHDG,274.6,0.0,E,,*2E
$HCHDG,274.7,0.0,E,,*2F
$GPRMC,164654.8,A,4741.36333,N,12224.53378,W,002.39,297.2,271013,016.6,E,A*27
$PGRME,3.0,M,3.0,M,4.3,M*29
$HCHDG,274.4,0.0,E,,*2C
$HCHDG,274.5,0.0,E,,*2D
$GPRMC,164655.0,A,4741.36348,N,12224.53398,W,002.40,290.3,271013,016.6,E,A*24
$PGRME,3.0,M,3.0,M,4.3,M*29
$YXXDR,A,5.4,D,PTCH,A,4.0,D,ROLL*58
$PTAK,FFD1,4.0*51
$HCHDG,274.6,0.0,E,,*2E
$HCHDG,274.6,0.0,E,,*2E
$GPRMC,164655.2,A,4741.36359,N,12224.53414,W,002.41,291.2,271013,016.6,E,A*24
$PGRME,3.0,M,3.0,M,4.3,M*29
$HCHDG,274.5,0.0,E,,*2D
$HCHDG,274.7,0.0,E,,*2F
$GPRMC,164655.4,A,4741.36365,N,12224.53430,W,002.43,292.1,271013,016.6,E,A*29
$GPRMB,A,0.02,L,,Shil,4741.0830,N,12224.5670,W,0.3,184,-0.74,V*18
$PGRME,3.0,M,3.0,M,4.3,M*29
$HCHDG,274.8,0.0,E,,*20
$YXXDR,A,6.1,D,PTCH,A,5.0,D,ROLL*5F
$HCHDG,274.7,0.0,E,,*2F
$GPRMC,164655.6,A,4741.36374,N,12224.53448,W,002.48,290.6,271013,016.6,E,A*2A
$PGRME,3.0,M,3.0,M,4.3,M*29
$HCHDG,274.8,0.0,E,,*20
$HCHDG,275.0,0.0,E,,*29
$GPRMC,164655.8,A,4741.36379,N,12224.53474,W,002.48,294.3,271013,016.6,E,A*27
$PGRME,3.0,M,3.0,M,4.3,M*29
$HCHDG,275.0,0.0,E,,*29
$HCHDG,275.0,0.0,E,,*29
$GPRMC,164656.0,A,4741.36380,N,12224.53494,W,002.49,292.8,271013,016.6,E,A*28
$PGRME,3.0,M,3.0,M,4.3,M*29
$YXXDR,A,6.0,D,PTCH,A,3.5,D,ROLL*5D
$PTAK,FFD1,3.5*53
$HCHDG,274.8,0.0,E,,*20
$HCHDG,274.6,0.0,E,,*2E
$GPRMC,164656.2,A,4741.36387,N,12224.53516,W,002.50,291.6,271013,016.6,E,A*23
$PGRME,3.0,M,3.0,M,4.3,M*29
$HCHDG,274.7,0.0,E,,*2F
$HCHDG,274.6,0.0,E,,*2E
$GPRMC,164656.4,A,4741.36388,N,12224.53544,W,002.51,291.9,271013,016.6,E,A*23
$PGRME,3.0,M,3.0,M,4.3,M*29
$HCHDG,274.6,0.0,E,,*2E
$YXXDR,A,5.6,D,PTCH,A,3.8,D,ROLL*55
$HCHDG,274.5,0.0,E,,*2D
$GPRMC,164656.6,A,4741.36393,N,12224.53567,W,002.51,288.6,271013,016.6,E,A*2D
$GPRMB,A,0.02,L,,Shil,4741.0830,N,12224.5670,W,0.3,184,-0.62,V*1F
$PGRME,3.0,M,3.0,M,4.3,M*29
$HCHDG,274.6,0.0,E,,*2E
$HCHDG,274.8,0.0,E,,*20
$GPRMC,164656.8,A,4741.36391,N,12224.53589,W,002.50,287.9,271013,016.6,E,A*20
$PGRME,3.0,M,3.0,M,4.3,M*29
$HCHDG,274.6,0.0,E,,*2E
$HCHDG,274.7,0.0,E,,*2F
$GPRMC,164657.0,A,4741.36392,N,12224.53610,W,002.48,289.6,271013,016.6,E,A*21
$PGRME,3.0,M,3.0,M,4.3,M*29
$YXXDR,A,6.2,D,PTCH,A,4.3,D,ROLL*5E
$HCHDG,274.7,0.0,E,,*2F
$HCHDG,274.8,0.0,E,,*20
$GPRMC,164657.2,A,4741.36397,N,12224.53631,W,002.47,291.8,271013,016.6,E,A*2D
$PGRME,3.0,M,3.0,M,4.3,M*29
$HCHDG,274.9,0.0,E,,*21
$HCHDG,274.9,0.0,E,,*21
$GPRMC,164657.4,A,4741.36398,N,12224.53655,W,002.46,288.4,271013,016.6,E,A*23
$PGRME,3.0,M,3.0,M,4.3,M*29
$HCHDG,275.0,0.0,E,,*29
$YXXDR,A,6.0,D,PTCH,A,2.9,D,ROLL*50
$PTAK,FFD1,2.9*5E
$HCHDG,275.0,0.0,E,,*29
$GPRMC,164657.6,A,4741.36401,N,12224.53688,W,002.45,291.3,271013,016.6,E,A*2A
$GPRMB,A,0.02,L,,Shil,4741.0830,N,12224.5670,W,0.3,184,-0.72,V*1E
$PGRME,3.0,M,3.0,M,4.3,M*29
$HCHDG,274.9,0.0,E,,*21
$HCHDG,274.8,0.0,E,,*20
$GPRMC,164657.8,A,4741.36410,N,12224.53710,W,002.43,287.9,271013,016.6,E,A*2F
$PGRME,3.0,M,3.0,M,4.3,M*29
$HCHDG,275.0,0.0,E,,*29
$PTAK,FFP1,HEEL,@*07
$HCHDG,274.9,0.0,E,,*21
$GPRMC,164658.0,A,4741.36416,N,12224.53724,W,002.43,290.1,271013,016.6,E,A*27
$PGRME,3.0,M,3.0,M,4.3,M*29
$YXXDR,A,5.5,D,PTCH,A,3.7,D,ROLL*59
$HCHDG,274.8,0.0,E,,*20
$HCHDG,275.2,0.0,E,,*2B
$GPRMC,164658.2,A,4741.36429,N,12224.53738,W,002.40,287.4,271013,016.6,E,A*24
$PGRME,3.0,M,3.0,M,4.3,M*29
$HCHDG,275.3,0.0,E,,*2A
$HCHDG,275.4,0.0,E,,*2D
$GPRMC,164658.4,A,4741.36439,N,12224.53752,W,002.39,284.7,271013,016.6,E,A*21
$PGRME,3.0,M,3.0,M,4.3,M*29
$HCHDG,275.6,0.0,E,,*2F
$YXXDR,A,6.1,D,PTCH,A,5.1,D,ROLL*5E
$PTAK,FFD1,5.1*51
$HCHDG,275.6,0.0,E,,*2F
$GPRMC,164658.6,A,4741.36443,N,12224.53772,W,002.40,284.1,271013,016.6,E,A*24
$PGRME,3.0,M,3.0,M,4.3,M*29
$HCHDG,275.6,0.0,E,,*2F
$HCHDG,276.1,0.0,E,,*2B
$GPRMC,164658.8,A,4741.36444,N,12224.53789,W,002.42,285.5,271013,016.6,E,A*2E
$GPRMB,A,0.02,L,,Shil,4741.0830,N,12224.5670,W,0.3,184,-0.48,V*17
$PGRME,3.0,M,3.0,M,4.3,M*29
$HCHDG,276.5,0.0,E,,*2F
$HCHDG,276.4,0.0,E,,*2E
$GPRMC,164659.0,A,4741.36447,N,12224.53813,W,002.43,286.4,271013,016.6,E,A*2B
$PGRME,3.0,M,3.0,M,4.3,M*29
$YXXDR,A,6.3,D,PTCH,A,4.3,D,ROLL*5F
$HCHDG,276.7,0.0,E,,*2D
$HCHDG,276.8,0.0,E,,*22
$GPRMC,164659.2,A,4741.36451,N,12224.53834,W,002.44,287.2,271013,016.6,E,A*2B
$PGRME,3.0,M,3.0,M,4.3,M*29
$HCHDG,277.0,0.0,E,,*2B
$HCHDG,277.3,0.0,E,,*28
$GPRMC,164659.4,A,4741.36458,N,12224.53847,W,002.45,289.2,271013,016.6,E,A*2F
$PGRME,3.0,M,3.0,M,4.3,M*29
$HCHDG,277.3,0.0,E,,*28
$YXXDR,A,6.1,D,PTCH,A,3.3,D,ROLL*5A
$PTAK,FFD1,3.3*55
$HCHDG,277.4,0.0,E,,*2F
$GPRMC,164659.6,A,4741.36458,N,12224.53861,W,002.46,291.3,271013,016.6,E,A*22
$PGRME,3.0,M,3.0,M,4.3,M*29
$HCHDG,277.6,0.0,E,,*2D
$HCHDG,277.5,0.0,E,,*2E
$GPRMC,164659.8,A,4741.36456,N,12224.53884,W,002.48,286.9,271013,016.6,E,A*2B
$PGRME,3.0,M,3.0,M,4.3,M*29
$HCHDG,277.6,0.0,E,,*2D
$HCHDG,277.7,0.0,E,,*2C
$GPRMC,164700.0,A,4741.36451,N,12224.53915,W,002.48,287.9,271013,016.6,E,A*21
$GPRMB,A,0.02,L,,Shil,4741.0830,N,12224.5670,W,0.3,184,-0.60,V*1D
$PGRME,3.0,M,3.0,M,4.3,M*29
$YXXDR,A,5.7,D,PTCH,A,3.3,D,ROLL*5F
$HCHDG,277.8,0.0,E,,*23
$HCHDG,278.0,0.0,E,,*24
$GPRMC,164700.2,A,4741.36451,N,12224.53937,W,002.46,288.6,271013,016.6,E,A*2D
$PGRME,3.0,M,3.0,M,4.3,M*29
$HCHDG,278.3,0.0,E,,*27
$HCHDG,278.4,0.0,E,,*20
$GPRMC,164700.4,A,4741.36455,N,12224.53955,W,002.45,293.7,271013,016.6,E,A*23
$PGRME,3.0,M,3.0,M,4.3,M*29
$HCHDG,278.4,0.0,E,,*20
$YXXDR,A,6.0,D,PTCH,A,2.4,D,ROLL*5D
$PTAK,FFD1,2.4*53
$HCHDG,278.6,0.0,E,,*22
$GPRMC,164700.6,A,4741.36458,N,12224.53966,W,002.48,292.5,271013,016.6,E,A*22
$PGRME,3.0,M,3.0,M,4.3,M*29
$HCHDG,278.7,0.0,E,,*23
$HCHDG,278.8,0.0,E,,*2C
$GPRMC,164700.8,A,4741.36466,N,12224.53981,W,002.49,294.6,271013,016.6,E,A*2C
$PGRME,3.0,M,3.0,M,4.3,M*29
$HCHDG,278.8,0.0,E,,*2C
$HCHDG,279.0,0.0,E,,*25
$GPRMC,164701.0,A,4741.36479,N,12224.53997,W,002.50,294.9,271013,016.6,E,A*2B
$PGRME,3.0,M,3.0,M,4.3,M*29
$YXXDR,A,6.2,D,PTCH,A,2.1,D,ROLL*5A
$HCHDG,279.1,0.0,E,,*24
$HCHDG,279.2,0.0,E,,*27
$GPRMC,164701.2,A,4741.36489,N,12224.54013,W,002.51,291.9,271013,016.6,E,A*20
$GPRMB,A,0.02,L,,Shil,4741.0830,N,12224.5670,W,0.3,184,-0.79,V*15
$PGRME,3.0,M,3.0,M,4.3,M*29
$HCHDG,279.4,0.0,E,,*21
$HCHDG,279.5,0.0,E,,*20
$GPRMC,164701.4,A,4741.36492,N,12224.54034,W,002.49,289.8,271013,016.6,E,A*28
$PGRME,3.0,M,3.0,M,4.3,M*29
$HCHDG,279.5,0.0,E,,*20
$YXXDR,A,5.8,D,PTCH,A,3.6,D,ROLL*55
$HCHDG,279.6,0.0,E,,*23
$GPRMC,164701.6,A,4741.36499,N,12224.54048,W,002.46,292.5,271013,016.6,E,A*22
$PGRME,3.0,M,3.0,M,4.3,M*29
$HCHDG,279.7,0.0,E,,*22
$HCHDG,279.4,0.0,E,,*21
$GPRMC,164701.8,A,4741.36505,N,12224.54064,W,002.46,289.6,271013,016.6,E,A*2F
$PGRME,3.0,M,3.0,M,4.3,M*29
$HCHDG,279.7,0.0,E,,*22
$HCHDG,279.7,0.0,E,,*22
$PTAK,FFP1,HEEL,@*07
$GPRMC,164702.0,A,4741.36506,N,12224.54081,W,002.44,294.6,271013,016.6,E,A*22
$PGRME,3.0,M,3.0,M,4.3,M*29
$YXXDR,A,5.9,D,PTCH,A,3.4,D,ROLL*56
$PTAK,FFD1,3.4*52
$HCHDG,279.7,0.0,E,,*22
$HCHDG,279.7,0.0,E,,*22
$GPRMC,164702.2,A,4741.36514,N,12224.54094,W,002.44,296.8,271013,016.6,E,A*2B
$PGRME,3.0,M,3.0,M,4.3,M*29
$HCHDG,279.7,0.0,E,,*22
$HCHDG,279.7,0.0,E,,*22
$GPRMC,164702.4,A,4741.36522,N,12224.54113,W,002.45,297.8,271013,016.6,E,A*26
$GPRMB,A,0.02,L,,Shil,4741.0830,N,12224.5670,W,0.3,184,-1.01,V*1B
$PGRME,3.0,M,3.0,M,4.3,M*29
$HCHDG,279.7,0.0,E,,*22
$YXXDR,A,6.0,D,PTCH,A,2.6,D,ROLL*5F
$HCHDG,279.8,0.0,E,,*2D
$GPRMC,164702.6,A,4741.36521,N,12224.54137,W,002.45,296.3,271013,016.6,E,A*2B
$PGRME,3.0,M,3.0,M,4.3,M*29
$HCHDG,279.8,0.0,E,,*2D
$HCHDG,279.8,0.0,E,,*2D
$GPRMC,164702.8,A,4741.36524,N,12224.54160,W,002.45,294.9,271013,016.6,E,A*2A
$PGRME,3.0,M,3.0,M,4.3,M*29
$HCHDG,279.8,0.0,E,,*2D
$HCHDG,279.9,0.0,E,,*2C
$GPRMC,164703.0,A,4741.36526,N,12224.54177,W,002.43,296.0,271013,016.6,E,A*2A
$PGRME,3.0,M,3.0,M,4.3,M*29
$YXXDR,A,5.8,D,PTCH,A,3.5,D,ROLL*56
$HCHDG,280.0,0.0,E,,*23
$HCHDG,280.1,0.0,E,,*22
$GPRMC,164703.2,A,4741.36536,N,12224.54184,W,002.42,294.5,271013,016.6,E,A*23
$PGRME,3.0,M,3.0,M,4.3,M*29
$HCHDG,280.2,0.0,E,,*21
$HCHDG,280.3,0.0,E,,*20
$GPRMC,164703.4,A,4741.36545,N,12224.54191,W,002.42,296.6,271013,016.6,E,A*24
$GPRMB,A,0.02,L,,Shil,4741.0830,N,12224.5670,W,0.3,183,-0.95,V*10
$PGRME,3.0,M,3.0,M,4.3,M*29
$HCHDG,280.4,0.0,E,,*27
$YXXDR,A,6.0,D,PTCH,A,3.5,D,ROLL*5D
$PTAK,FFD1,3.5*53
$HCHDG,280.4,0.0,E,,*27
$GPRMC,164703.6,A,4741.36554,N,12224.54203,W,002.43,298.6,271013,016.6,E,A*21
$PGRME,3.0,M,3.0,M,4.3,M*29
$HCHDG,280.6,0.0,E,,*25
$HCHDG,280.6,0.0,E,,*25
$GPRMC,164703.8,A,4741.36565,N,12224.54215,W,002.44,297.7,271013,016.6,E,A*23
$PGRME,3.0,M,3.0,M,4.3,M*29
$HCHDG,280.7,0.0,E,,*24
$HCHDG,280.8,0.0,E,,*2B
$GPRMC,164704.0,A,4741.36576,N,12224.54228,W,002.47,295.9,271013,016.6,E,A*2F
$PGRME,3.0,M,3.0,M,4.3,M*29
$YXXDR,A,6.1,D,PTCH,A,3.3,D,ROLL*5A
$HCHDG,280.8,0.0,E,,*2B
$HCHDG,280.9,0.0,E,,*2A
$GPRMC,164704.2,A,4741.36582,N,12224.54243,W,002.47,295.8,271013,016.6,E,A*2A
$PGRME,3.0,M,3.0,M,4.3,M*29
$HCHDG,280.9,0.0,E,,*2A
$HCHDG,281.0,0.0,E,,*22
$GPRMC,164704.4,A,4741.36584,N,12224.54262,W,002.47,295.4,271013,016.6,E,A*25
$PGRME,3.0,M,3.0,M,4.3,M*29
$HCHDG,281.1,0.0,E,,*23
$YXXDR,A,6.1,D,PTCH,A,3.7,D,ROLL*5E
$HCHDG,281.2,0.0,E,,*20
$GPRMC,164704.6,A,4741.36589,N,12224.54278,W,002.47,294.6,271013,016.6,E,A*22
$GPRMB,A,0.02,L,,Shil,4741.0830,N,12224.5670,W,0.3,183,-0.90,V*15
$PGRME,3.0,M,3.0,M,4.3,M*29
$HCHDG,281.2,0.0,E,,*20
$HCHDG,281.3,0.0,E,,*21
$GPRMC,164704.8,A,4741.36595,N,12224.54294,W,002.44,297.2,271013,016.6,E,A*27
$PGRME,3.0,M,3.0,M,4.3,M*29
$HCHDG,281.3,0.0,E,,*21
$HCHDG,281.3,0.0,E,,*21
$GPRMC,164705.0,A,4741.36602,N,12224.54303,W,002.42,299.7,271013,016.6,E,A*21
$PGRME,3.0,M,3.0,M,4.3,M*29
$YXXDR,A,6.1,D,PTCH,A,3.7,D,ROLL*5E
$PTAK,FFD1,3.7*51
$HCHDG,281.4,0.0,E,,*26
$HCHDG,281.3,0.0,E,,*21
