$GPRMC,230000.2,A,4740.75607,N,12224.33748,W,000.01,068.2,271013,016.6,E,D*23
$GPRMB,A,0.00,L,Shil,Shil,4741.0830,N,12224.5670,W,0.4,335,-0.00,V*28
$PGRME,2.4,M,2.4,M,3.4,M*29
$HCHDG,49.1,0.0,E,,*15
$YXXDR,A,5.1,D,PTCH,A,4.7,D,ROLL*5A
$HCHDG,49.1,0.0,E,,*15
$GPRMC,230000.4,A,4740.75607,N,12224.33748,W,000.01,068.2,271013,016.6,E,D*25
$PGRME,2.4,M,2.4,M,3.4,M*29
$HCHDG,49.1,0.0,E,,*15
$HCHDG,49.2,0.0,E,,*16
$GPRMC,230000.6,A,4740.75607,N,12224.33748,W,000.00,068.2,271013,016.6,E,D*26
$PGRME,2.4,M,2.4,M,3.4,M*29
$HCHDG,49.1,0.0,E,,*15
$HCHDG,49.1,0.0,E,,*15
$GPRMC,230000.8,A,4740.75607,N,12224.33748,W,000.01,068.2,271013,016.6,E,D*29
$YXXDR,A,5.0,D,PTCH,A,4.8,D,ROLL*54
$PTAK,FFD1,4.8*59
$PGRME,2.4,M,2.4,M,3.4,M*29
$HCHDG,49.1,0.0,E,,*15
$HCHDG,49.1,0.0,E,,*15
$GPRMC,230001.0,A,4740.75606,N,12224.33748,W,000.00,068.2,271013,016.6,E,D*20
$PGRME,2.4,M,2.4,M,3.4,M*29
$HCHDG,49.0,0.0,E,,*14
$HCHDG,49.0,0.0,E,,*14
$GPRMC,230001.2,A,4740.75606,N,12224.33748,W,000.01,068.2,271013,016.6,E,D*23
$PTAK,FFP1,HEEL,@*07
$PGRME,2.4,M,2.4,M,3.4,M*29
$HCHDG,49.0,0.0,E,,*14
$YXXDR,A,5.1,D,PTCH,A,4.9,D,ROLL*54
$HCHDG,49.0,0.0,E,,*14
$GPRMC,230001.4,A,4740.75606,N,12224.33748,W,000.00,068.2,271013,016.6,E,D*24
$GPRMB,A,0.00,L,Shil,Shil,4741.0830,N,12224.5670,W,0.4,335,-0.00,V*28
$PGRME,2.4,M,2.4,M,3.4,M*29
$HCHDG,49.1,0.0,E,,*15
$HCHDG,49.1,0.0,E,,*15
$GPRMC,230001.6,A,4740.75606,N,12224.33748,W,000.00,068.2,271013,016.6,E,D*26
$PGRME,2.4,M,2.4,M,3.4,M*29
$HCHDG,49.1,0.0,E,,*15
$HCHDG,49.1,0.0,E,,*15
$GPRMC,230001.8,A,4740.75606,N,12224.33748,W,000.00,068.2,271013,016.6,E,D*28
$YXXDR,A,5.0,D,PTCH,A,4.8,D,ROLL*54
$PTAK,FFD1,4.8*59
$PGRME,2.4,M,2.4,M,3.4,M*29
$HCHDG,49.0,0.0,E,,*14
$HCHDG,49.0,0.0,E,,*14
$GPRMC,230002.0,A,4740.75606,N,12224.33748,W,000.00,068.2,271013,016.6,E,D*23
$PGRME,2.4,M,2.4,M,3.4,M*29
$HCHDG,49.0,0.0,E,,*14
$HCHDG,49.0,0.0,E,,*14
$GPRMC,230002.2,A,4740.75606,N,12224.33748,W,000.00,068.2,271013,016.6,E,D*21
$PGRME,2.4,M,2.4,M,3.4,M*29
$HCHDG,49.0,0.0,E,,*14
$YXXDR,A,5.0,D,PTCH,A,4.8,D,ROLL*54
$HCHDG,49.0,0.0,E,,*14
$GPRMC,230002.4,A,4740.75606,N,12224.33748,W,000.00,068.2,271013,016.6,E,D*27
$GPRMB,A,0.00,L,Shil,Shil,4741.0830,N,12224.5670,W,0.4,335,-0.00,V*28
$PGRME,2.4,M,2.4,M,3.4,M*29
$HCHDG,49.0,0.0,E,,*14
$HCHDG,49.0,0.0,E,,*14
$GPRMC,230002.6,A,4740.75606,N,12224.33748,W,000.00,068.2,271013,016.6,E,D*25
$PGRME,2.4,M,2.4,M,3.4,M*29
$HCHDG,49.0,0.0,E,,*14
$HCHDG,49.0,0.0,E,,*14
$GPRMC,230002.8,A,4740.75606,N,12224.33748,W,000.00,068.2,271013,016.6,E,D*2B
$YXXDR,A,5.1,D,PTCH,A,4.7,D,ROLL*5A
$PGRME,2.4,M,2.4,M,3.4,M*29
$HCHDG,49.0,0.0,E,,*14
$HCHDG,49.0,0.0,E,,*14
$GPRMC,230003.0,A,4740.75606,N,12224.33747,W,000.01,068.2,271013,016.6,E,D*2C
$PGRME,2.4,M,2.4,M,3.4,M*29
$HCHDG,49.0,0.0,E,,*14
$HCHDG,49.0,0.0,E,,*14
$GPRMC,230003.2,A,4740.75606,N,12224.33747,W,000.01,068.2,271013,016.6,E,D*2E
$PGRME,2.4,M,2.4,M,3.4,M*29
$HCHDG,49.0,0.0,E,,*14
$YXXDR,A,5.1,D,PTCH,A,4.9,D,ROLL*54
$PTAK,FFD1,4.9*58
$HCHDG,49.0,0.0,E,,*14
$GPRMC,230003.4,A,4740.75606,N,12224.33748,W,000.00,068.2,271013,016.6,E,D*26
$GPRMB,A,0.00,L,Shil,Shil,4741.0830,N,12224.5670,W,0.4,335,-0.00,V*28
$PGRME,2.4,M,2.4,M,3.4,M*29
$HCHDG,49.0,0.0,E,,*14
$HCHDG,49.0,0.0,E,,*14
$GPRMC,230003.6,A,4740.75605,N,12224.33748,W,000.00,068.2,271013,016.6,E,D*27
$PGRME,2.4,M,2.4,M,3.4,M*29
$HCHDG,49.0,0.0,E,,*14
$HCHDG,49.0,0.0,E,,*14
$GPRMC,230003.8,A,4740.75605,N,12224.33748,W,000.00,068.2,271013,016.6,E,D*29
$YXXDR,A,5.1,D,PTCH,A,4.9,D,ROLL*54
$PGRME,2.4,M,2.4,M,3.4,M*29
$HCHDG,49.0,0.0,E,,*14
$HCHDG,49.0,0.0,E,,*14
$GPRMC,230004.0,A,4740.75605,N,12224.33748,W,000.01,068.2,271013,016.6,E,D*27
$PGRME,2.4,M,2.4,M,3.4,M*29
$HCHDG,49.0,0.0,E,,*14
$HCHDG,49.0,0.0,E,,*14
$GPRMC,230004.2,A,4740.75605,N,12224.33748,W,000.01,068.2,271013,016.6,E,D*25
$PGRME,2.4,M,2.4,M,3.4,M*29
$HCHDG,49.0,0.0,E,,*14
$YXXDR,A,5.1,D,PTCH,A,4.7,D,ROLL*5A
$HCHDG,49.0,0.0,E,,*14
$GPRMC,230004.4,A,4740.75605,N,12224.33748,W,000.00,068.2,271013,016.6,E,D*22
$GPRMB,A,0.00,L,Shil,Shil,4741.0830,N,12224.5670,W,0.4,335,-0.00,V*28
$PGRME,2.4,M,2.4,M,3.4,M*29
$HCHDG,49.0,0.0,E,,*14
$HCHDG,49.0,0.0,E,,*14
$GPRMC,230004.6,A,4740.75605,N,12224.33748,W,000.00,068.2,271013,016.6,E,D*20
$PGRME,2.4,M,2.4,M,3.4,M*29
$HCHDG,49.0,0.0,E,,*14
$HCHDG,49.1,0.0,E,,*15
$GPRMC,230004.8,A,4740.75605,N,12224.33748,W,000.01,068.2,271013,016.6,E,D*2F
$YXXDR,A,5.1,D,PTCH,A,5.0,D,ROLL*5C
$PTAK,FFD1,5.0*50
$PGRME,2.4,M,2.4,M,3.4,M*29
$HCHDG,49.1,0.0,E,,*15
$HCHDG,49.0,0.0,E,,*14
$GPRMC,230005.0,A,4740.75605,N,12224.33748,W,000.00,068.2,271013,016.6,E,D*27
$PGRME,2.4,M,2.4,M,3.4,M*29
$HCHDG,48.9,0.0,E,,*1C
$HCHDG,48.9,0.0,E,,*1C
$GPRMC,230005.2,A,4740.75605,N,12224.33748,W,000.00,068.2,271013,016.6,E,D*25
$PTAK,FFP1,HEEL,@*07
$PGRME,2.4,M,2.4,M,3.4,M*29
$HCHDG,48.9,0.0,E,,*1C
$YXXDR,A,5.1,D,PTCH,A,4.9,D,ROLL*54
$HCHDG,48.9,0.0,E,,*1C
$GPRMC,230005.4,A,4740.75605,N,12224.33748,W,000.01,068.2,271013,016.6,E,D*22
$GPRMB,A,0.00,L,Shil,Shil,4741.0830,N,12224.5670,W,0.4,335,-0.00,V*28
$PGRME,2.4,M,2.4,M,3.4,M*29
$HCHDG,49.1,0.0,E,,*15
$HCHDG,49.1,0.0,E,,*15
$GPRMC,230005.6,A,4740.75605,N,12224.33748,W,000.01,068.2,271013,016.6,E,D*20
$PGRME,2.4,M,2.4,M,3.4,M*29
$HCHDG,49.1,0.0,E,,*15
$HCHDG,49.1,0.0,E,,*15
$GPRMC,230005.8,A,4740.75605,N,12224.33748,W,000.01,068.2,271013,016.6,E,D*2E
$YXXDR,A,5.1,D,PTCH,A,5.0,D,ROLL*5C
$PGRME,2.4,M,2.4,M,3.4,M*29
$HCHDG,49.1,0.0,E,,*15
$HCHDG,48.9,0.0,E,,*1C
$GPRMC,230006.0,A,4740.75605,N,12224.33748,W,000.00,068.2,271013,016.6,E,D*24
$PGRME,2.4,M,2.4,M,3.4,M*29
$HCHDG,48.9,0.0,E,,*1C
$HCHDG,48.9,0.0,E,,*1C
$GPRMC,230006.2,A,4740.75605,N,12224.33748,W,000.01,068.2,271013,016.6,E,D*27
$PGRME,2.4,M,2.4,M,3.4,M*29
$HCHDG,49.1,0.0,E,,*15
$YXXDR,A,5.1,D,PTCH,A,5.0,D,ROLL*5C
$PTAK,FFD1,5.0*50
$HCHDG,49.1,0.0,E,,*15
$GPRMC,230006.4,A,4740.75605,N,12224.33748,W,000.00,068.2,271013,016.6,E,D*20
$GPRMB,A,0.00,L,Shil,Shil,4741.0830,N,12224.5670,W,0.4,335,-0.00,V*28
$PGRME,2.4,M,2.4,M,3.4,M*29
$HCHDG,49.1,0.0,E,,*15
$HCHDG,49.1,0.0,E,,*15
$GPRMC,230006.6,A,4740.75605,N,12224.33748,W,000.01,068.2,271013,016.6,E,D*23
$PGRME,2.4,M,2.4,M,3.4,M*29
$HCHDG,49.0,0.0,E,,*14
$HCHDG,49.0,0.0,E,,*14
$GPRMC,230006.8,A,4740.75605,N,12224.33748,W,000.01,068.2,271013,016.6,E,D*2D
$YXXDR,A,5.0,D,PTCH,A,4.7,D,ROLL*5B
$PGRME,2.4,M,2.4,M,3.4,M*29
$HCHDG,49.0,0.0,E,,*14
$HCHDG,49.0,0.0,E,,*14
$GPRMC,230007.0,A,4740.75605,N,12224.33748,W,000.01,068.2,271013,016.6,E,D*24
$PGRME,2.4,M,2.4,M,3.4,M*29
$HCHDG,49.0,0.0,E,,*14
$HCHDG,49.1,0.0,E,,*15
$GPRMC,230007.2,A,4740.75605,N,12224.33747,W,000.00,068.2,271013,016.6,E,D*28
$PGRME,2.4,M,2.4,M,3.4,M*29
$HCHDG,49.1,0.0,E,,*15
$YXXDR,A,5.0,D,PTCH,A,4.8,D,ROLL*54
$HCHDG,49.1,0.0,E,,*15
$GPRMC,230007.4,A,4740.75605,N,12224.33747,W,000.01,068.2,271013,016.6,E,D*2F
$PGRME,2.4,M,2.4,M,3.4,M*29
$HCHDG,49.0,0.0,E,,*14
$HCHDG,49.0,0.0,E,,*14
$GPRMC,230007.6,A,4740.75605,N,12224.33747,W,000.00,068.2,271013,016.6,E,D*2C
$GPRMB,A,0.00,L,Shil,Shil,4741.0830,N,12224.5670,W,0.4,335,-0.00,V*28
$PGRME,2.4,M,2.4,M,3.4,M*29
$HCHDG,49.0,0.0,E,,*14
$HCHDG,49.0,0.0,E,,*14
$GPRMC,230007.8,A,4740.75605,N,12224.33747,W,000.00,068.2,271013,016.6,E,D*22
$YXXDR,A,5.0,D,PTCH,A,4.8,D,ROLL*54
$PTAK,FFD1,4.8*59
$PGRME,2.4,M,2.4,M,3.4,M*29
$HCHDG,49.0,0.0,E,,*14
$HCHDG,49.0,0.0,E,,*14
$GPRMC,230008.0,A,4740.75605,N,12224.33747,W,000.00,068.2,271013,016.6,E,D*25
$PGRME,2.4,M,2.4,M,3.4,M*29
$HCHDG,49.1,0.0,E,,*15
$HCHDG,49.0,0.0,E,,*14
$GPRMC,230008.2,A,4740.75605,N,12224.33747,W,000.00,068.2,271013,016.6,E,D*27
$PGRME,2.4,M,2.4,M,3.4,M*29
$HCHDG,49.0,0.0,E,,*14
$YXXDR,A,5.0,D,PTCH,A,4.7,D,ROLL*5B
$HCHDG,49.0,0.0,E,,*14
$GPRMC,230008.4,A,4740.75605,N,12224.33747,W,000.01,068.2,271013,016.6,E,D*20
$PGRME,2.4,M,2.4,M,3.4,M*29
$HCHDG,49.0,0.0,E,,*14
$HCHDG,48.9,0.0,E,,*1C
$GPRMC,230008.6,A,4740.75605,N,12224.33747,W,000.00,068.2,271013,016.6,E,D*23
$PGRME,2.4,M,2.4,M,3.4,M*29
$HCHDG,48.9,0.0,E,,*1C
$HCHDG,48.9,0.0,E,,*1C
$GPRMC,230008.8,A,4740.75605,N,12224.33747,W,000.01,068.2,271013,016.6,E,D*2C
$GPRMB,A,0.00,L,Shil,Shil,4741.0830,N,12224.5670,W,0.4,335,-0.00,V*28
$PGRME,2.4,M,2.4,M,3.4,M*29
$YXXDR,A,5.1,D,PTCH,A,5.0,D,ROLL*5C
$PTAK,FFD1,5.0*50
$HCHDG,48.9,0.0,E,,*1C
$HCHDG,48.9,0.0,E,,*1C
$GPRMC,230009.0,A,4740.75605,N,12224.33747,W,000.01,068.2,271013,016.6,E,D*25
$PGRME,2.4,M,2.4,M,3.4,M*29
$HCHDG,48.9,0.0,E,,*1C
$HCHDG,48.9,0.0,E,,*1C
$GPRMC,230009.2,A,4740.75605,N,12224.33747,W,000.00,068.2,271013,016.6,E,D*26
$PTAK,FFP1,HEEL,@*07
$PGRME,2.4,M,2.4,M,3.4,M*29
$HCHDG,48.9,0.0,E,,*1C
$YXXDR,A,5.0,D,PTCH,A,4.7,D,ROLL*5B
$HCHDG,49.0,0.0,E,,*14
$GPRMC,230009.4,A,4740.75606,N,12224.33747,W,000.00,068.2,271013,016.6,E,D*23
$PGRME,2.4,M,2.4,M,3.4,M*29
$HCHDG,49.0,0.0,E,,*14
$HCHDG,49.0,0.0,E,,*14
$GPRMC,230009.6,A,4740.75605,N,12224.33746,W,000.00,068.2,271013,016.6,E,D*23
$PGRME,2.4,M,2.4,M,3.4,M*29
$HCHDG,49.0,0.0,E,,*14
$HCHDG,49.0,0.0,E,,*14
$GPRMC,230009.8,A,4740.75605,N,12224.33746,W,000.00,068.2,271013,016.6,E,D*2D
$GPRMB,A,0.00,L,Shil,Shil,4741.0830,N,12224.5670,W,0.4,335,-0.00,V*28
$YXXDR,A,5.0,D,PTCH,A,4.8,D,ROLL*54
$PGRME,2.4,M,2.4,M,3.4,M*29
$HCHDG,49.0,0.0,E,,*14
$HCHDG,49.0,0.0,E,,*14
$GPRMC,230010.0,A,4740.75606,N,12224.33746,W,000.00,068.2,271013,016.6,E,D*2E
$PGRME,2.4,M,2.4,M,3.4,M*29
$HCHDG,49.0,0.0,E,,*14
$HCHDG,49.0,0.0,E,,*14
$GPRMC,230010.2,A,4740.75606,N,12224.33746,W,000.00,068.2,271013,016.6,E,D*2C
$PGRME,2.4,M,2.4,M,3.4,M*29
$HCHDG,49.0,0.0,E,,*14
$YXXDR,A,5.0,D,PTCH,A,4.7,D,ROLL*5B
$PTAK,FFD1,4.7*56
$HCHDG,49.0,0.0,E,,*14
$GPRMC,230010.4,A,4740.75606,N,12224.33747,W,000.00,068.2,271013,016.6,E,D*2B
$PGRME,2.4,M,2.4,M,3.4,M*29
$HCHDG,49.0,0.0,E,,*14
$HCHDG,49.0,0.0,E,,*14
$GPRMC,230010.6,A,4740.75606,N,12224.33747,W,000.00,068.2,271013,016.6,E,D*29
$PGRME,2.4,M,2.4,M,3.4,M*29
$HCHDG,49.0,0.0,E,,*14
$HCHDG,49.0,0.0,E,,*14
$GPRMC,230010.8,A,4740.75606,N,12224.33746,W,000.00,068.2,271013,016.6,E,D*26
$YXXDR,A,5.0,D,PTCH,A,4.8,D,ROLL*54
$PGRME,2.4,M,2.4,M,3.4,M*29
$HCHDG,49.0,0.0,E,,*14
$HCHDG,49.0,0.0,E,,*14
$GPRMC,230011.0,A,4740.75606,N,12224.33746,W,000.01,068.2,271013,016.6,E,D*2E
$GPRMB,A,0.00,L,Shil,Shil,4741.0830,N,12224.5670,W,0.4,335,-0.00,V*28
$PGRME,2.4,M,2.4,M,3.4,M*29
$HCHDG,49.0,0.0,E,,*14
$HCHDG,49.0,0.0,E,,*14
$GPRMC,230011.2,A,4740.75606,N,12224.33746,W,000.00,068.2,271013,016.6,E,D*2D
$PGRME,2.4,M,2.4,M,3.4,M*29
$HCHDG,49.0,0.0,E,,*14
$YXXDR,A,5.0,D,PTCH,A,4.8,D,ROLL*54
$PTAK,FFD1,4.8*59
$HCHDG,49.0,0.0,E,,*14
$GPRMC,230011.4,A,4740.75606,N,12224.33747,W,000.01,068.2,271013,016.6,E,D*2B
$PGRME,2.4,M,2.4,M,3.4,M*29
$HCHDG,49.0,0.0,E,,*14
$HCHDG,49.0,0.0,E,,*14
$GPRMC,230011.6,A,4740.75606,N,12224.33746,W,000.00,068.2,271013,016.6,E,D*29
$PGRME,2.4,M,2.4,M,3.4,M*29
$HCHDG,49.0,0.0,E,,*14
$HCHDG,49.0,0.0,E,,*14
$GPRMC,230011.8,A,4740.75606,N,12224.33746,W,000.00,068.2,271013,016.6,E,D*27
$YXXDR,A,5.1,D,PTCH,A,4.9,D,ROLL*54
$PGRME,2.4,M,2.4,M,3.4,M*29
$HCHDG,49.0,0.0,E,,*14
$HCHDG,49.0,0.0,E,,*14
$GPRMC,230012.0,A,4740.75606,N,12224.33746,W,000.01,068.2,271013,016.6,E,D*2D
$PGRME,2.4,M,2.4,M,3.4,M*29
$HCHDG,49.0,0.0,E,,*14
$HCHDG,49.0,0.0,E,,*14
$GPRMC,230012.2,A,4740.75606,N,12224.33746,W,000.00,068.2,271013,016.6,E,D*2E
$GPRMB,A,0.00,L,Shil,Shil,4741.0830,N,12224.5670,W,0.4,335,-0.00,V*28
$PGRME,2.4,M,2.4,M,3.4,M*29
$HCHDG,49.0,0.0,E,,*14
$YXXDR,A,5.0,D,PTCH,A,4.8,D,ROLL*54
$PTAK,FFD1,4.8*59
$HCHDG,49.0,0.0,E,,*14
$GPRMC,230012.4,A,4740.75606,N,12224.33746,W,000.00,068.2,271013,016.6,E,D*28
$PGRME,2.4,M,2.4,M,3.4,M*29
$HCHDG,49.0,0.0,E,,*14
$HCHDG,49.0,0.0,E,,*14
$GPRMC,230012.6,A,4740.75606,N,12224.33746,W,000.01,068.2,271013,016.6,E,D*2B
$PGRME,2.4,M,2.4,M,3.4,M*29
$HCHDG,49.1,0.0,E,,*15
$HCHDG,49.1,0.0,E,,*15
$GPRMC,230012.8,A,4740.75606,N,12224.33746,W,000.00,068.2,271013,016.6,E,D*24
$YXXDR,A,5.0,D,PTCH,A,4.8,D,ROLL*54
$PGRME,2.4,M,2.4,M,3.4,M*29
$HCHDG,49.1,0.0,E,,*15
$HCHDG,49.0,0.0,E,,*14
$GPRMC,230013.0,A,4740.75606,N,12224.33746,W,000.00,068.2,271013,016.6,E,D*2D
$PGRME,2.4,M,2.4,M,3.4,M*29
$HCHDG,49.0,0.0,E,,*14
$HCHDG,49.0,0.0,E,,*14
$GPRMC,230013.2,A,4740.75606,N,12224.33746,W,000.01,068.2,271013,016.6,E,D*2E
$PGRME,2.4,M,2.4,M,3.4,M*29
$HCHDG,49.0,0.0,E,,*14
$PTAK,FFP1,HEEL,@*07
$YXXDR,A,5.0,D,PTCH,A,4.7,D,ROLL*5B
$HCHDG,49.0,0.0,E,,*14
$GPRMC,230013.4,A,4740.75605,N,12224.33746,W,000.01,068.2,271013,016.6,E,D*2B
$GPRMB,A,0.00,L,Shil,Shil,4741.0830,N,12224.5670,W,0.4,335,-0.00,V*28
$PGRME,2.4,M,2.4,M,3.4,M*29
$HCHDG,49.2,0.0,E,,*16
$HCHDG,49.1,0.0,E,,*15
$GPRMC,230013.6,A,4740.75605,N,12224.33746,W,000.00,068.2,271013,016.6,E,D*28
$PGRME,2.4,M,2.4,M,3.4,M*29
$HCHDG,49.0,0.0,E,,*14
$HCHDG,49.0,0.0,E,,*14
$GPRMC,230013.8,A,4740.75606,N,12224.33746,W,000.01,068.2,271013,016.6,E,D*24
$YXXDR,A,5.0,D,PTCH,A,4.8,D,ROLL*54
$PTAK,FFD1,4.8*59
$PGRME,2.4,M,2.4,M,3.4,M*29
$HCHDG,49.0,0.0,E,,*14
$HCHDG,49.0,0.0,E,,*14
$GPRMC,230014.0,A,4740.75606,N,12224.33746,W,000.00,068.2,271013,016.6,E,D*2A
$PGRME,2.4,M,2.4,M,3.4,M*29
$HCHDG,49.0,0.0,E,,*14
$HCHDG,49.0,0.0,E,,*14
$GPRMC,230014.2,A,4740.75606,N,12224.33746,W,000.00,068.2,271013,016.6,E,D*28
$PGRME,2.4,M,2.4,M,3.4,M*29
$HCHDG,49.0,0.0,E,,*14
$YXXDR,A,5.1,D,PTCH,A,5.0,D,ROLL*5C
$HCHDG,49.1,0.0,E,,*15
$GPRMC,230014.4,A,4740.75606,N,12224.33745,W,000.00,068.2,271013,016.6,E,D*2D
$GPRMB,A,0.00,L,Shil,Shil,4741.0830,N,12224.5670,W,0.4,335,-0.00,V*28
$PGRME,2.4,M,2.4,M,3.4,M*29
$HCHDG,49.1,0.0,E,,*15
$HCHDG,49.0,0.0,E,,*14
$GPRMC,230014.6,A,4740.75606,N,12224.33745,W,000.00,068.2,271013,016.6,E,D*2F
$PGRME,2.4,M,2.4,M,3.4,M*29
$HCHDG,49.0,0.0,E,,*14
$HCHDG,49.0,0.0,E,,*14
$GPRMC,230014.8,A,4740.75606,N,12224.33745,W,000.00,068.2,271013,016.6,E,D*21
$YXXDR,A,5.0,D,PTCH,A,4.7,D,ROLL*5B
$PTAK,FFD1,4.7*56
$PGRME,2.4,M,2.4,M,3.4,M*29
$HCHDG,49.0,0.0,E,,*14
$HCHDG,49.0,0.0,E,,*14
$GPRMC,230015.0,A,4740.75606,N,12224.33745,W,000.00,068.2,271013,016.6,E,D*28
$PGRME,2.4,M,2.4,M,3.4,M*29
$HCHDG,49.0,0.0,E,,*14
$HCHDG,49.0,0.0,E,,*14
$GPRMC,230015.2,A,4740.75606,N,12224.33745,W,000.00,068.2,271013,016.6,E,D*2A
$PGRME,2.4,M,2.4,M,3.4,M*29
$HCHDG,49.1,0.0,E,,*15
$YXXDR,A,5.1,D,PTCH,A,5.0,D,ROLL*5C
$HCHDG,49.0,0.0,E,,*14
$GPRMC,230015.4,A,4740.75606,N,12224.33745,W,000.01,068.2,271013,016.6,E,D*2D
$PGRME,2.4,M,2.4,M,3.4,M*29
$HCHDG,49.0,0.0,E,,*14
$HCHDG,49.0,0.0,E,,*14
$GPRMC,230015.6,A,4740.75605,N,12224.33745,W,000.00,068.2,271013,016.6,E,D*2D
$GPRMB,A,0.00,L,Shil,Shil,4741.0830,N,12224.5670,W,0.4,335,-0.00,V*28
$PGRME,2.4,M,2.4,M,3.4,M*29
$HCHDG,49.0,0.0,E,,*14
$HCHDG,49.0,0.0,E,,*14
$GPRMC,230015.8,A,4740.75605,N,12224.33745,W,000.00,068.2,271013,016.6,E,D*23
$YXXDR,A,5.1,D,PTCH,A,4.7,D,ROLL*5A
$PGRME,2.4,M,2.4,M,3.4,M*29
$HCHDG,49.0,0.0,E,,*14
$HCHDG,49.0,0.0,E,,*14
$GPRMC,230016.0,A,4740.75605,N,12224.33745,W,000.01,068.2,271013,016.6,E,D*29
$PGRME,2.4,M,2.4,M,3.4,M*29
$HCHDG,49.0,0.0,E,,*14
$HCHDG,49.0,0.0,E,,*14
$GPRMC,230016.2,A,4740.75605,N,12224.33745,W,000.01,068.2,271013,016.6,E,D*2B
$PGRME,2.4,M,2.4,M,3.4,M*29
$HCHDG,49.0,0.0,E,,*14
$YXXDR,A,5.1,D,PTCH,A,4.7,D,ROLL*5A
$PTAK,FFD1,4.7*56
$HCHDG,49.0,0.0,E,,*14
$GPRMC,230016.4,A,4740.75605,N,12224.33745,W,000.00,068.2,271013,016.6,E,D*2C
$PGRME,2.4,M,2.4,M,3.4,M*29
$HCHDG,49.0,0.0,E,,*14
$HCHDG,49.0,0.0,E,,*14
$GPRMC,230016.6,A,4740.75605,N,12224.33745,W,000.00,068.2,271013,016.6,E,D*2E
$PGRME,2.4,M,2.4,M,3.4,M*29
$HCHDG,49.0,0.0,E,,*14
$HCHDG,49.0,0.0,E,,*14
$GPRMC,230016.8,A,4740.75605,N,12224.33745,W,000.00,068.2,271013,016.6,E,D*20
$GPRMB,A,0.00,L,Shil,Shil,4741.0830,N,12224.5670,W,0.4,335,-0.00,V*28
$YXXDR,A,5.1,D,PTCH,A,4.9,D,ROLL*54
$PGRME,2.4,M,2.4,M,3.4,M*29
$HCHDG,49.0,0.0,E,,*14
$HCHDG,49.0,0.0,E,,*14
$GPRMC,230017.0,A,4740.75605,N,12224.33745,W,000.01,068.2,271013,016.6,E,D*28
$PGRME,2.4,M,2.4,M,3.4,M*29
$HCHDG,49.0,0.0,E,,*14
$HCHDG,49.0,0.0,E,,*14
$GPRMC,230017.2,A,4740.75605,N,12224.33745,W,000.00,068.2,271013,016.6,E,D*2B
$PGRME,2.4,M,2.4,M,3.4,M*29
$HCHDG,49.0,0.0,E,,*14
$PTAK,FFP1,HEEL,@*07
$YXXDR,A,5.0,D,PTCH,A,4.7,D,ROLL*5B
$PTAK,FFD1,4.7*56
$HCHDG,49.0,0.0,E,,*14
$GPRMC,230017.4,A,4740.75605,N,12224.33745,W,000.00,068.2,271013,016.6,E,D*2D
$PGRME,2.4,M,2.4,M,3.4,M*29
$HCHDG,49.0,0.0,E,,*14
$HCHDG,49.0,0.0,E,,*14
$GPRMC,230017.6,A,4740.75605,N,12224.33745,W,000.00,068.2,271013,016.6,E,D*2F
$PGRME,2.4,M,2.4,M,3.4,M*29
$HCHDG,49.0,0.0,E,,*14
$HCHDG,49.0,0.0,E,,*14
$GPRMC,230017.8,A,4740.75605,N,12224.33745,W,000.01,068.2,271013,016.6,E,D*20
$GPRMB,A,0.00,L,Shil,Shil,4741.0830,N,12224.5670,W,0.4,335,-0.00,V*28
$YXXDR,A,5.1,D,PTCH,A,4.9,D,ROLL*54
$PGRME,2.4,M,2.4,M,3.4,M*29
$HCHDG,49.0,0.0,E,,*14
$HCHDG,49.0,0.0,E,,*14
$GPRMC,230018.0,A,4740.75605,N,12224.33745,W,000.00,068.2,271013,016.6,E,D*26
$PGRME,2.4,M,2.4,M,3.4,M*29
$HCHDG,49.0,0.0,E,,*14
$HCHDG,48.9,0.0,E,,*1C
$GPRMC,230018.2,A,4740.75605,N,12224.33745,W,000.01,068.2,271013,016.6,E,D*25
$PGRME,2.4,M,2.4,M,3.4,M*29
$HCHDG,48.9,0.0,E,,*1C
$YXXDR,A,5.1,D,PTCH,A,4.7,D,ROLL*5A
$HCHDG,48.9,0.0,E,,*1C
$GPRMC,230018.4,A,4740.75605,N,12224.33744,W,000.00,068.2,271013,016.6,E,D*23
$PGRME,2.4,M,2.4,M,3.4,M*29
$HCHDG,48.9,0.0,E,,*1C
$HCHDG,48.9,0.0,E,,*1C
$GPRMC,230018.6,A,4740.75605,N,12224.33744,W,000.00,068.2,271013,016.6,E,D*21
$PGRME,2.4,M,2.4,M,3.4,M*29
$HCHDG,48.9,0.0,E,,*1C
$HCHDG,48.9,0.0,E,,*1C
$GPRMC,230018.8,A,4740.75605,N,12224.33744,W,000.00,068.2,271013,016.6,E,D*2F
$GPRMB,A,0.00,L,Shil,Shil,4741.0830,N,12224.5670,W,0.4,335,-0.00,V*28
$PGRME,2.4,M,2.4,M,3.4,M*29
$YXXDR,A,5.1,D,PTCH,A,4.7,D,ROLL*5A
$PTAK,FFD1,4.7*56
$HCHDG,48.9,0.0,E,,*1C
$HCHDG,48.9,0.0,E,,*1C
$GPRMC,230019.0,A,4740.75605,N,12224.33744,W,000.01,068.2,271013,016.6,E,D*27
$PGRME,2.4,M,2.4,M,3.4,M*29
$HCHDG,48.9,0.0,E,,*1C
$HCHDG,48.9,0.0,E,,*1C
$GPRMC,230019.2,A,4740.75605,N,12224.33744,W,000.00,068.2,271013,016.6,E,D*24
$PGRME,2.4,M,2.4,M,3.4,M*29
$HCHDG,48.9,0.0,E,,*1C
$YXXDR,A,5.0,D,PTCH,A,5.0,D,ROLL*5D
$HCHDG,48.9,0.0,E,,*1C
$GPRMC,230019.4,A,4740.75606,N,12224.33744,W,000.00,068.2,271013,016.6,E,D*21
$PGRME,2.4,M,2.4,M,3.4,M*29
$HCHDG,48.9,0.0,E,,*1C
$HCHDG,48.9,0.0,E,,*1C
$GPRMC,230019.6,A,4740.75606,N,12224.33744,W,000.01,068.2,271013,016.6,E,D*22
$PGRME,2.4,M,2.4,M,3.4,M*29
$HCHDG,48.9,0.0,E,,*1C
$HCHDG,48.9,0.0,E,,*1C
$GPRMC,230019.8,A,4740.75606,N,12224.33744,W,000.01,068.2,271013,016.6,E,D*2C
$YXXDR,A,5.1,D,PTCH,A,4.9,D,ROLL*54
$PGRME,2.4,M,2.4,M,3.4,M*29
$HCHDG,48.9,0.0,E,,*1C
$HCHDG,48.9,0.0,E,,*1C
$GPRMC,230020.0,A,4740.75605,N,12224.33743,W,000.00,068.2,271013,016.6,E,D*2B
$GPRMB,A,0.00,L,Shil,Shil,4741.0830,N,12224.5670,W,0.4,335,-0.00,V*28
$PGRME,2.4,M,2.4,M,3.4,M*29
$HCHDG,49.1,0.0,E,,*15
$HCHDG,49.1,0.0,E,,*15
$GPRMC,230020.2,A,4740.75606,N,12224.33743,W,000.00,068.2,271013,016.6,E,D*2A
$PGRME,2.4,M,2.4,M,3.4,M*29
$HCHDG,48.9,0.0,E,,*1C
$YXXDR,A,5.0,D,PTCH,A,4.7,D,ROLL*5B
$PTAK,FFD1,4.7*56
$HCHDG,48.9,0.0,E,,*1C
$GPRMC,230020.4,A,4740.75606,N,12224.33743,W,000.01,068.2,271013,016.6,E,D*2D
$PGRME,2.4,M,2.4,M,3.4,M*29
$HCHDG,48.9,0.0,E,,*1C
$HCHDG,48.9,0.0,E,,*1C
$GPRMC,230020.6,A,4740.75606,N,12224.33743,W,000.00,068.2,271013,016.6,E,D*2E
$PGRME,2.4,M,2.4,M,3.4,M*29
$HCHDG,48.9,0.0,E,,*1C
$HCHDG,48.9,0.0,E,,*1C
$GPRMC,230020.8,A,4740.75606,N,12224.33743,W,000.00,068.2,271013,016.6,E,D*20
$YXXDR,A,5.1,D,PTCH,A,4.9,D,ROLL*54
$PGRME,2.4,M,2.4,M,3.4,M*29
$HCHDG,49.1,0.0,E,,*15
$HCHDG,49.1,0.0,E,,*15
$GPRMC,230021.0,A,4740.75606,N,12224.33743,W,000.00,068.2,271013,016.6,E,D*29
$GPRMB,A,0.00,L,Shil,Shil,4741.0830,N,12224.5670,W,0.4,335,-0.00,V*28
$PGRME,2.4,M,2.4,M,3.4,M*29
$HCHDG,49.1,0.0,E,,*15
$PTAK,FFP1,HEEL,@*07
$HCHDG,49.1,0.0,E,,*15
$GPRMC,230021.2,A,4740.75606,N,12224.33743,W,000.00,068.2,271013,016.6,E,D*2B
$PGRME,2.4,M,2.4,M,3.4,M*29
$HCHDG,48.9,0.0,E,,*1C
$YXXDR,A,5.0,D,PTCH,A,4.7,D,ROLL*5B
$HCHDG,48.9,0.0,E,,*1C
$GPRMC,230021.4,A,4740.75606,N,12224.33743,W,000.01,068.2,271013,016.6,E,D*2C
$PGRME,2.4,M,2.4,M,3.4,M*29
$HCHDG,48.9,0.0,E,,*1C
$HCHDG,48.9,0.0,E,,*1C
$GPRMC,230021.6,A,4740.75606,N,12224.33743,W,000.01,068.2,271013,016.6,E,D*2E
$PGRME,2.4,M,2.4,M,3.4,M*29
$HCHDG,49.0,0.0,E,,*14
$HCHDG,49.2,0.0,E,,*16
$GPRMC,230021.8,A,4740.75606,N,12224.33743,W,000.00,068.2,271013,016.6,E,D*21
$PGRME,2.4,M,2.4,M,3.4,M*29
$YXXDR,A,5.0,D,PTCH,A,5.0,D,ROLL*5D
$PTAK,FFD1,5.0*50
$HCHDG,49.2,0.0,E,,*16
$HCHDG,49.1,0.0,E,,*15
$GPRMC,230022.0,A,4740.75606,N,12224.33743,W,000.00,068.2,271013,016.6,E,D*2A
$PGRME,2.4,M,2.4,M,3.4,M*29
$HCHDG,49.1,0.0,E,,*15
$HCHDG,49.1,0.0,E,,*15
$GPRMC,230022.2,A,4740.75606,N,12224.33743,W,000.00,068.2,271013,016.6,E,D*28
$GPRMB,A,0.00,L,Shil,Shil,4741.0830,N,12224.5670,W,0.4,335,-0.00,V*28
$PGRME,2.4,M,2.4,M,3.4,M*29
$HCHDG,49.1,0.0,E,,*15
$YXXDR,A,5.1,D,PTCH,A,4.9,D,ROLL*54
$HCHDG,49.0,0.0,E,,*14
$GPRMC,230022.4,A,4740.75606,N,12224.33743,W,000.01,068.2,271013,016.6,E,D*2F
$PGRME,2.4,M,2.4,M,3.4,M*29
$HCHDG,49.0,0.0,E,,*14
$HCHDG,49.0,0.0,E,,*14
$GPRMC,230022.6,A,4740.75606,N,12224.33742,W,000.01,068.2,271013,016.6,E,D*2C
$PGRME,2.4,M,2.4,M,3.4,M*29
$HCHDG,49.0,0.0,E,,*14
$HCHDG,49.0,0.0,E,,*14
$GPRMC,230022.8,A,4740.75606,N,12224.33742,W,000.00,068.2,271013,016.6,E,D*23
$PGRME,2.4,M,2.4,M,3.4,M*29
$YXXDR,A,5.1,D,PTCH,A,4.9,D,ROLL*54
$HCHDG,49.0,0.0,E,,*14
$HCHDG,49.0,0.0,E,,*14
$GPRMC,230023.0,A,4740.75605,N,12224.33742,W,000.01,068.2,271013,016.6,E,D*28
$PGRME,2.4,M,2.4,M,3.4,M*29
$HCHDG,49.0,0.0,E,,*14
$HCHDG,49.0,0.0,E,,*14
$GPRMC,230023.2,A,4740.75605,N,12224.33742,W,000.00,068.2,271013,016.6,E,D*2B
$PGRME,2.4,M,2.4,M,3.4,M*29
$HCHDG,49.0,0.0,E,,*14
$YXXDR,A,5.0,D,PTCH,A,5.0,D,ROLL*5D
$PTAK,FFD1,5.0*50
$HCHDG,49.2,0.0,E,,*16
$GPRMC,230023.4,A,4740.75605,N,12224.33742,W,000.00,068.2,271013,016.6,E,D*2D
$GPRMB,A,0.00,L,Shil,Shil,4741.0830,N,12224.5670,W,0.4,335,-0.00,V*28
$PGRME,2.4,M,2.4,M,3.4,M*29
$HCHDG,49.2,0.0,E,,*16
$HCHDG,49.1,0.0,E,,*15
$GPRMC,230023.6,A,4740.75605,N,12224.33741,W,000.00,068.2,271013,016.6,E,D*2C
$PGRME,2.4,M,2.4,M,3.4,M*29
$HCHDG,49.0,0.0,E,,*14
$HCHDG,49.0,0.0,E,,*14
$GPRMC,230023.8,A,4740.75605,N,12224.33741,W,000.01,068.2,271013,016.6,E,D*23
$YXXDR,A,5.0,D,PTCH,A,4.7,D,ROLL*5B
$PGRME,2.4,M,2.4,M,3.4,M*29
$HCHDG,49.0,0.0,E,,*14
$HCHDG,49.0,0.0,E,,*14
$GPRMC,230024.0,A,4740.75605,N,12224.33741,W,000.01,068.2,271013,016.6,E,D*2C
$PGRME,2.4,M,2.4,M,3.4,M*29
$HCHDG,49.1,0.0,E,,*15
$HCHDG,49.1,0.0,E,,*15
$GPRMC,230024.2,A,4740.75605,N,12224.33740,W,000.01,068.2,271013,016.6,E,D*2F
$PGRME,2.4,M,2.4,M,3.4,M*29
$HCHDG,49.1,0.0,E,,*15
$YXXDR,A,5.1,D,PTCH,A,4.9,D,ROLL*54
$PTAK,FFD1,4.9*58
$HCHDG,49.1,0.0,E,,*15
$GPRMC,230024.4,A,4740.75605,N,12224.33740,W,000.01,068.2,271013,016.6,E,D*29
$GPRMB,A,0.00,L,Shil,Shil,4741.0830,N,12224.5670,W,0.4,335,-0.00,V*28
$PGRME,2.4,M,2.4,M,3.4,M*29
$HCHDG,49.1,0.0,E,,*15
$HCHDG,49.1,0.0,E,,*15
$GPRMC,230024.6,A,4740.75605,N,12224.33740,W,000.01,068.2,271013,016.6,E,D*2B
$PGRME,2.4,M,2.4,M,3.4,M*29
$HCHDG,49.1,0.0,E,,*15
$HCHDG,49.1,0.0,E,,*15
$GPRMC,230024.8,A,4740.75605,N,12224.33740,W,000.00,068.2,271013,016.6,E,D*24
$YXXDR,A,5.1,D,PTCH,A,4.9,D,ROLL*54
$PGRME,2.4,M,2.4,M,3.4,M*29
$HCHDG,49.1,0.0,E,,*15
$HCHDG,49.1,0.0,E,,*15
$GPRMC,230025.0,A,4740.75605,N,12224.33740,W,000.00,068.2,271013,016.6,E,D*2D
$PGRME,2.4,M,2.4,M,3.4,M*29
$HCHDG,49.1,0.0,E,,*15
$HCHDG,49.1,0.0,E,,*15
$GPRMC,230025.2,A,4740.75605,N,12224.33739,W,000.00,068.2,271013,016.6,E,D*21
$PGRME,2.4,M,2.4,M,3.4,M*29
$HCHDG,49.0,0.0,E,,*14
$PTAK,FFP1,HEEL,@*07
$YXXDR,A,5.0,D,PTCH,A,4.7,D,ROLL*5B
$PTAK,FFD1,4.7*56
$HCHDG,49.0,0.0,E,,*14
$GPRMC,230025.4,A,4740.75605,N,12224.33739,W,000.01,068.2,271013,016.6,E,D*26
$GPRMB,A,0.00,L,Shil,Shil,4741.0830,N,12224.5670,W,0.4,335,-0.00,V*28
$PGRME,2.4,M,2.4,M,3.4,M*29
$HCHDG,49.0,0.0,E,,*14
$HCHDG,49.0,0.0,E,,*14
$GPRMC,230025.6,A,4740.75605,N,12224.33739,W,000.00,068.2,271013,016.6,E,D*25
$PGRME,2.4,M,2.4,M,3.4,M*29
$HCHDG,49.0,0.0,E,,*14
$HCHDG,49.0,0.0,E,,*14
$GPRMC,230025.8,A,4740.75606,N,12224.33739,W,000.00,068.2,271013,016.6,E,D*28
$YXXDR,A,5.0,D,PTCH,A,4.8,D,ROLL*54
$PGRME,2.4,M,2.4,M,3.4,M*29
$HCHDG,49.0,0.0,E,,*14
$HCHDG,49.0,0.0,E,,*14
$GPRMC,230026.0,A,4740.75606,N,12224.33739,W,000.01,068.2,271013,016.6,E,D*22
$PGRME,2.4,M,2.4,M,3.4,M*29
$HCHDG,49.0,0.0,E,,*14
$HCHDG,49.0,0.0,E,,*14
$GPRMC,230026.2,A,4740.75606,N,12224.33739,W,000.01,068.2,271013,016.6,E,D*20
$PGRME,2.4,M,2.4,M,3.4,M*29
$HCHDG,49.0,0.0,E,,*14
$YXXDR,A,5.1,D,PTCH,A,4.7,D,ROLL*5A
$PTAK,FFD1,4.7*56
$HCHDG,49.0,0.0,E,,*14
$GPRMC,230026.4,A,4740.75606,N,12224.33739,W,000.01,068.2,271013,016.6,E,D*26
$PGRME,2.4,M,2.4,M,3.4,M*29
$HCHDG,49.0,0.0,E,,*14
$HCHDG,49.0,0.0,E,,*14
$GPRMC,230026.6,A,4740.75606,N,12224.33739,W,000.01,068.2,271013,016.6,E,D*24
$GPRMB,A,0.00,L,Shil,Shil,4741.0830,N,12224.5670,W,0.4,335,-0.00,V*28
$PGRME,2.4,M,2.4,M,3.4,M*29
$HCHDG,49.0,0.0,E,,*14
$HCHDG,49.0,0.0,E,,*14
$GPRMC,230026.8,A,4740.75606,N,12224.33739,W,000.00,068.2,271013,016.6,E,D*2B
$YXXDR,A,5.1,D,PTCH,A,4.9,D,ROLL*54
$PGRME,2.4,M,2.4,M,3.4,M*29
$HCHDG,49.0,0.0,E,,*14
$HCHDG,49.0,0.0,E,,*14
$GPRMC,230027.0,A,4740.75606,N,12224.33738,W,000.00,068.2,271013,016.6,E,D*23
$PGRME,2.4,M,2.4,M,3.4,M*29
$HCHDG,49.0,0.0,E,,*14
$HCHDG,49.0,0.0,E,,*14
$GPRMC,230027.2,A,4740.75606,N,12224.33738,W,000.00,068.2,271013,016.6,E,D*21
$PGRME,2.4,M,2.4,M,3.4,M*29
$HCHDG,49.0,0.0,E,,*14
$YXXDR,A,5.0,D,PTCH,A,4.7,D,ROLL*5B
$HCHDG,49.0,0.0,E,,*14
$GPRMC,230027.4,A,4740.75606,N,12224.33738,W,000.01,068.2,271013,016.6,E,D*26
$PGRME,2.4,M,2.4,M,3.4,M*29
$HCHDG,49.0,0.0,E,,*14
$HCHDG,49.0,0.0,E,,*14
$GPRMC,230027.6,A,4740.75606,N,12224.33738,W,000.00,068.2,271013,016.6,E,D*25
$PGRME,2.4,M,2.4,M,3.4,M*29
$HCHDG,49.0,0.0,E,,*14
$HCHDG,49.0,0.0,E,,*14
$GPRMC,230027.8,A,4740.75606,N,12224.33738,W,000.00,068.2,271013,016.6,E,D*2B
$GPRMB,A,0.00,L,Shil,Shil,4741.0830,N,12224.5670,W,0.4,335,-0.00,V*28
$YXXDR,A,5.1,D,PTCH,A,4.9,D,ROLL*54
$PTAK,FFD1,4.9*58
$PGRME,2.4,M,2.4,M,3.4,M*29
$HCHDG,49.0,0.0,E,,*14
$HCHDG,49.0,0.0,E,,*14
$GPRMC,230028.0,A,4740.75606,N,12224.33738,W,000.01,068.2,271013,016.6,E,D*2D
$PGRME,2.4,M,2.4,M,3.4,M*29
$HCHDG,48.9,0.0,E,,*1C
$HCHDG,48.9,0.0,E,,*1C
$GPRMC,230028.2,A,4740.75606,N,12224.33738,W,000.01,068.2,271013,016.6,E,D*2F
$PGRME,2.4,M,2.4,M,3.4,M*29
$HCHDG,48.9,0.0,E,,*1C
$YXXDR,A,5.0,D,PTCH,A,4.7,D,ROLL*5B
$HCHDG,48.9,0.0,E,,*1C
$GPRMC,230028.4,A,4740.75606,N,12224.33738,W,000.01,068.2,271013,016.6,E,D*29
$PGRME,2.4,M,2.4,M,3.4,M*29
$HCHDG,48.9,0.0,E,,*1C
$HCHDG,48.9,0.0,E,,*1C
$GPRMC,230028.6,A,4740.75606,N,12224.33738,W,000.01,068.2,271013,016.6,E,D*2B
$PGRME,2.4,M,2.4,M,3.4,M*29
$HCHDG,48.9,0.0,E,,*1C
$HCHDG,48.9,0.0,E,,*1C
$GPRMC,230028.8,A,4740.75606,N,12224.33738,W,000.01,068.2,271013,016.6,E,D*25
$YXXDR,A,5.1,D,PTCH,A,4.9,D,ROLL*54
$PGRME,2.4,M,2.4,M,3.4,M*29
$HCHDG,49.0,0.0,E,,*14
$HCHDG,49.0,0.0,E,,*14
$GPRMC,230029.0,A,4740.75606,N,12224.33738,W,000.00,068.2,271013,016.6,E,D*2D
$GPRMB,A,0.00,L,Shil,Shil,4741.0830,N,12224.5670,W,0.4,335,-0.00,V*28
$PGRME,2.4,M,2.4,M,3.4,M*29
$HCHDG,49.0,0.0,E,,*14
$HCHDG,49.0,0.0,E,,*14
$GPRMC,230029.2,A,4740.75606,N,12224.33738,W,000.00,068.2,271013,016.6,E,D*2F
$PGRME,2.4,M,2.4,M,3.4,M*29
$HCHDG,49.0,0.0,E,,*14
$PTAK,FFP1,HEEL,@*07
$YXXDR,A,5.1,D,PTCH,A,4.9,D,ROLL*54
$PTAK,FFD1,4.9*58
$HCHDG,49.0,0.0,E,,*14
$GPRMC,230029.4,A,4740.75606,N,12224.33738,W,000.00,068.2,271013,016.6,E,D*29
$PGRME,2.4,M,2.4,M,3.4,M*29
$HCHDG,49.0,0.0,E,,*14
$HCHDG,49.0,0.0,E,,*14
$GPRMC,230029.6,A,4740.75606,N,12224.33738,W,000.00,068.2,271013,016.6,E,D*2B
$PGRME,2.4,M,2.4,M,3.4,M*29
$HCHDG,49.0,0.0,E,,*14
$HCHDG,49.1,0.0,E,,*15
$GPRMC,230029.8,A,4740.75606,N,12224.33738,W,000.01,068.2,271013,016.6,E,D*24
$YXXDR,A,5.0,D,PTCH,A,4.7,D,ROLL*5B
$PGRME,2.4,M,2.4,M,3.4,M*29
$HCHDG,49.1,0.0,E,,*15
$HCHDG,49.1,0.0,E,,*15
$GPRMC,230030.0,A,4740.75606,N,12224.33738,W,000.00,068.2,271013,016.6,E,D*25
$PGRME,2.4,M,2.4,M,3.4,M*29
$HCHDG,49.1,0.0,E,,*15
$HCHDG,49.1,0.0,E,,*15
$GPRMC,230030.2,A,4740.75606,N,12224.33737,W,000.01,068.2,271013,016.6,E,D*29
$GPRMB,A,0.00,L,Shil,Shil,4741.0830,N,12224.5670,W,0.4,335,-0.00,V*28
$PGRME,2.4,M,2.4,M,3.4,M*29
$HCHDG,49.1,0.0,E,,*15
$YXXDR,A,5.1,D,PTCH,A,4.9,D,ROLL*54
$PTAK,FFD1,4.9*58
$HCHDG,49.1,0.0,E,,*15
$GPRMC,230030.4,A,4740.75606,N,12224.33737,W,000.00,068.2,271013,016.6,E,D*2E
$PGRME,2.4,M,2.4,M,3.4,M*29
$HCHDG,49.1,0.0,E,,*15
$HCHDG,49.1,0.0,E,,*15
$GPRMC,230030.6,A,4740.75606,N,12224.33737,W,000.00,068.2,271013,016.6,E,D*2C
$PGRME,2.4,M,2.4,M,3.4,M*29
$HCHDG,49.1,0.0,E,,*15
$HCHDG,49.1,0.0,E,,*15
$GPRMC,230030.8,A,4740.75606,N,12224.33737,W,000.00,068.2,271013,016.6,E,D*22
$YXXDR,A,5.0,D,PTCH,A,4.7,D,ROLL*5B
$PGRME,2.4,M,2.4,M,3.4,M*29
$HCHDG,49.1,0.0,E,,*15
$HCHDG,49.1,0.0,E,,*15
$GPRMC,230031.0,A,4740.75606,N,12224.33737,W,000.00,068.2,271013,016.6,E,D*2B
$PGRME,2.4,M,2.4,M,3.4,M*29
$HCHDG,49.1,0.0,E,,*15
$HCHDG,49.0,0.0,E,,*14
$GPRMC,230031.2,A,4740.75606,N,12224.33737,W,000.01,068.2,271013,016.6,E,D*28
$PGRME,2.4,M,2.4,M,3.4,M*29
$HCHDG,49.0,0.0,E,,*14
$YXXDR,A,5.1,D,PTCH,A,4.9,D,ROLL*54
$HCHDG,49.0,0.0,E,,*14
$GPRMC,230031.4,A,4740.75606,N,12224.33737,W,000.00,068.2,271013,016.6,E,D*2F
$GPRMB,A,0.00,L,Shil,Shil,4741.0830,N,12224.5670,W,0.4,335,-0.00,V*28
$PGRME,2.4,M,2.4,M,3.4,M*29
$HCHDG,49.0,0.0,E,,*14
$HCHDG,49.0,0.0,E,,*14
$GPRMC,230031.6,A,4740.75606,N,12224.33737,W,000.00,068.2,271013,016.6,E,D*2D
$PGRME,2.4,M,2.4,M,3.4,M*29
$HCHDG,49.0,0.0,E,,*14
$HCHDG,49.0,0.0,E,,*14
$GPRMC,230031.8,A,4740.75606,N,12224.33737,W,000.00,068.2,271013,016.6,E,D*23
$YXXDR,A,5.1,D,PTCH,A,4.9,D,ROLL*54
$PTAK,FFD1,4.9*58
$PGRME,2.4,M,2.4,M,3.4,M*29
$HCHDG,49.0,0.0,E,,*14
$HCHDG,49.0,0.0,E,,*14
$GPRMC,230032.0,A,4740.75606,N,12224.33737,W,000.00,068.2,271013,016.6,E,D*28
$PGRME,2.4,M,2.4,M,3.4,M*29
$HCHDG,49.1,0.0,E,,*15
$HCHDG,49.1,0.0,E,,*15
$GPRMC,230032.2,A,4740.75606,N,12224.33737,W,000.00,068.2,271013,016.6,E,D*2A
$PGRME,2.4,M,2.4,M,3.4,M*29
$HCHDG,49.1,0.0,E,,*15
$YXXDR,A,5.0,D,PTCH,A,4.8,D,ROLL*54
$HCHDG,49.1,0.0,E,,*15
$GPRMC,230032.4,A,4740.75606,N,12224.33737,W,000.00,068.2,271013,016.6,E,D*2C
$PGRME,2.4,M,2.4,M,3.4,M*29
$HCHDG,49.0,0.0,E,,*14
$HCHDG,49.0,0.0,E,,*14
$GPRMC,230032.6,A,4740.75606,N,12224.33736,W,000.00,068.2,271013,016.6,E,D*2F
$GPRMB,A,0.00,L,Shil,Shil,4741.0830,N,12224.5670,W,0.4,335,-0.00,V*28
$PGRME,2.4,M,2.4,M,3.4,M*29
$HCHDG,49.0,0.0,E,,*14
$HCHDG,49.0,0.0,E,,*14
$GPRMC,230032.8,A,4740.75606,N,12224.33736,W,000.00,068.2,271013,016.6,E,D*21
$PGRME,2.4,M,2.4,M,3.4,M*29
$YXXDR,A,5.1,D,PTCH,A,5.0,D,ROLL*5C
$HCHDG,49.0,0.0,E,,*14
$HCHDG,49.0,0.0,E,,*14
$GPRMC,230033.0,A,4740.75606,N,12224.33736,W,000.00,068.2,271013,016.6,E,D*28
$PGRME,2.4,M,2.4,M,3.4,M*29
$HCHDG,49.0,0.0,E,,*14
$HCHDG,49.0,0.0,E,,*14
$GPRMC,230033.2,A,4740.75606,N,12224.33736,W,000.00,068.2,271013,016.6,E,D*2A
$PGRME,2.4,M,2.4,M,3.4,M*29
$HCHDG,49.0,0.0,E,,*14
$YXXDR,A,5.0,D,PTCH,A,4.7,D,ROLL*5B
$PTAK,FFD1,4.7*56
$PTAK,FFP1,HEEL,@*07
$HCHDG,49.1,0.0,E,,*15
$GPRMC,230033.4,A,4740.75606,N,12224.33736,W,000.01,068.2,271013,016.6,E,D*2D
$PGRME,2.4,M,2.4,M,3.4,M*29
$HCHDG,49.1,0.0,E,,*15
$HCHDG,49.1,0.0,E,,*15
$GPRMC,230033.6,A,4740.75607,N,12224.33736,W,000.00,068.2,271013,016.6,E,D*2F
$PGRME,2.4,M,2.4,M,3.4,M*29
$HCHDG,49.1,0.0,E,,*15
$HCHDG,49.1,0.0,E,,*15
$GPRMC,230033.8,A,4740.75607,N,12224.33737,W,000.00,068.2,271013,016.6,E,D*20
$GPRMB,A,0.00,L,Shil,Shil,4741.0830,N,12224.5670,W,0.4,335,-0.00,V*28
$YXXDR,A,5.0,D,PTCH,A,5.0,D,ROLL*5D
$PGRME,2.4,M,2.4,M,3.4,M*29
$HCHDG,49.2,0.0,E,,*16
$HCHDG,49.2,0.0,E,,*16
$GPRMC,230034.0,A,4740.75607,N,12224.33737,W,000.00,068.2,271013,016.6,E,D*2F
$PGRME,2.4,M,2.4,M,3.4,M*29
$HCHDG,49.1,0.0,E,,*15
$HCHDG,49.1,0.0,E,,*15
$GPRMC,230034.2,A,4740.75607,N,12224.33737,W,000.00,068.2,271013,016.6,E,D*2D
$PGRME,2.4,M,2.4,M,3.4,M*29
$HCHDG,49.1,0.0,E,,*15
$YXXDR,A,5.0,D,PTCH,A,4.8,D,ROLL*54
$HCHDG,49.1,0.0,E,,*15
$GPRMC,230034.4,A,4740.75607,N,12224.33737,W,000.00,068.2,271013,016.6,E,D*2B
$PGRME,2.4,M,2.4,M,3.4,M*29
$HCHDG,49.1,0.0,E,,*15
$HCHDG,49.2,0.0,E,,*16
$GPRMC,230034.6,A,4740.75607,N,12224.33737,W,000.00,068.2,271013,016.6,E,D*29
$PGRME,2.4,M,2.4,M,3.4,M*29
$HCHDG,49.2,0.0,E,,*16
$HCHDG,49.2,0.0,E,,*16
$GPRMC,230034.8,A,4740.75607,N,12224.33737,W,000.00,068.2,271013,016.6,E,D*27
$GPRMB,A,0.00,L,Shil,Shil,4741.0830,N,12224.5670,W,0.4,335,-0.00,V*28
$YXXDR,A,5.0,D,PTCH,A,4.7,D,ROLL*5B
$PTAK,FFD1,4.7*56
$PGRME,2.4,M,2.4,M,3.4,M*29
$HCHDG,49.1,0.0,E,,*15
$HCHDG,49.1,0.0,E,,*15
$GPRMC,230035.0,A,4740.75607,N,12224.33737,W,000.00,068.2,271013,016.6,E,D*2E
$PGRME,2.4,M,2.4,M,3.4,M*29
$HCHDG,49.1,0.0,E,,*15
$HCHDG,49.1,0.0,E,,*15
$GPRMC,230035.2,A,4740.75607,N,12224.33737,W,000.00,068.2,271013,016.6,E,D*2C
$PGRME,2.4,M,2.4,M,3.4,M*29
$HCHDG,49.1,0.0,E,,*15
$YXXDR,A,5.0,D,PTCH,A,5.0,D,ROLL*5D
$HCHDG,49.1,0.0,E,,*15
$GPRMC,230035.4,A,4740.75607,N,12224.33737,W,000.00,068.2,271013,016.6,E,D*2A
$PGRME,2.4,M,2.4,M,3.4,M*29
$HCHDG,49.2,0.0,E,,*16
$HCHDG,49.2,0.0,E,,*16
$GPRMC,230035.6,A,4740.75607,N,12224.33737,W,000.00,068.2,271013,016.6,E,D*28
$PGRME,2.4,M,2.4,M,3.4,M*29
$HCHDG,49.1,0.0,E,,*15
$HCHDG,49.1,0.0,E,,*15
$GPRMC,230035.8,A,4740.75607,N,12224.33737,W,000.01,068.2,271013,016.6,E,D*27
$GPRMB,A,0.00,L,Shil,Shil,4741.0830,N,12224.5670,W,0.4,335,-0.00,V*28
$PGRME,2.4,M,2.4,M,3.4,M*29
$YXXDR,A,5.0,D,PTCH,A,4.7,D,ROLL*5B
$PTAK,FFD1,4.7*56
$HCHDG,49.1,0.0,E,,*15
$HCHDG,49.1,0.0,E,,*15
$GPRMC,230036.0,A,4740.75607,N,12224.33737,W,000.00,068.2,271013,016.6,E,D*2D
$PGRME,2.4,M,2.4,M,3.4,M*29
$HCHDG,49.1,0.0,E,,*15
$HCHDG,49.2,0.0,E,,*16
$GPRMC,230036.2,A,4740.75607,N,12224.33737,W,000.00,068.2,271013,016.6,E,D*2F
$PGRME,2.4,M,2.4,M,3.4,M*29
$HCHDG,49.2,0.0,E,,*16
$YXXDR,A,5.1,D,PTCH,A,4.9,D,ROLL*54
$HCHDG,49.2,0.0,E,,*16
$GPRMC,230036.4,A,4740.75607,N,12224.33736,W,000.00,068.2,271013,016.6,E,D*28
$PGRME,2.4,M,2.4,M,3.4,M*29
$HCHDG,49.0,0.0,E,,*14
$HCHDG,49.0,0.0,E,,*14
$GPRMC,230036.6,A,4740.75607,N,12224.33736,W,000.00,068.2,271013,016.6,E,D*2A
$PGRME,2.4,M,2.4,M,3.4,M*29
$HCHDG,49.0,0.0,E,,*14
$HCHDG,49.0,0.0,E,,*14
$GPRMC,230036.8,A,4740.75606,N,12224.33736,W,000.01,068.2,271013,016.6,E,D*24
$GPRMB,A,0.00,L,Shil,Shil,4741.0830,N,12224.5670,W,0.4,335,-0.00,V*28
$PGRME,2.4,M,2.4,M,3.4,M*29
$YXXDR,A,5.1,D,PTCH,A,4.9,D,ROLL*54
$PTAK,FFD1,4.9*58
$HCHDG,49.0,0.0,E,,*14
$HCHDG,49.0,0.0,E,,*14
$GPRMC,230037.0,A,4740.75606,N,12224.33736,W,000.00,068.2,271013,016.6,E,D*2C
$PGRME,2.4,M,2.4,M,3.4,M*29
$HCHDG,49.0,0.0,E,,*14
$HCHDG,49.0,0.0,E,,*14
$GPRMC,230037.2,A,4740.75606,N,12224.33736,W,000.01,068.2,271013,016.6,E,D*2F
$PGRME,2.4,M,2.4,M,3.4,M*29
$HCHDG,49.0,0.0,E,,*14
$YXXDR,A,5.1,D,PTCH,A,4.7,D,ROLL*5A
$PTAK,FFP1,HEEL,@*07
$HCHDG,49.0,0.0,E,,*14
$GPRMC,230037.4,A,4740.75606,N,12224.33736,W,000.00,068.2,271013,016.6,E,D*28
$PGRME,2.4,M,2.4,M,3.4,M*29
$HCHDG,49.1,0.0,E,,*15
$HCHDG,49.1,0.0,E,,*15
$GPRMC,230037.6,A,4740.75606,N,12224.33736,W,000.01,068.2,271013,016.6,E,D*2B
$PGRME,2.4,M,2.4,M,3.4,M*29
$HCHDG,49.1,0.0,E,,*15
$HCHDG,49.1,0.0,E,,*15
$GPRMC,230037.8,A,4740.75606,N,12224.33736,W,000.00,068.2,271013,016.6,E,D*24
$YXXDR,A,5.1,D,PTCH,A,4.9,D,ROLL*54
$PGRME,2.4,M,2.4,M,3.4,M*29
$HCHDG,49.1,0.0,E,,*15
$HCHDG,49.1,0.0,E,,*15
$GPRMC,230038.0,A,4740.75607,N,12224.33736,W,000.01,068.2,271013,016.6,E,D*23
$GPRMB,A,0.00,L,Shil,Shil,4741.0830,N,12224.5670,W,0.4,335,-0.00,V*28
$PGRME,2.4,M,2.4,M,3.4,M*29
$HCHDG,49.1,0.0,E,,*15
$HCHDG,49.1,0.0,E,,*15
$GPRMC,230038.2,A,4740.75607,N,12224.33736,W,000.00,068.2,271013,016.6,E,D*20
$PGRME,2.4,M,2.4,M,3.4,M*29
$HCHDG,49.1,0.0,E,,*15
$YXXDR,A,5.1,D,PTCH,A,4.9,D,ROLL*54
$PTAK,FFD1,4.9*58
$HCHDG,49.1,0.0,E,,*15
$GPRMC,230038.4,A,4740.75607,N,12224.33736,W,000.00,068.2,271013,016.6,E,D*26
$PGRME,2.4,M,2.4,M,3.4,M*29
$HCHDG,49.1,0.0,E,,*15
$HCHDG,49.1,0.0,E,,*15
$GPRMC,230038.6,A,4740.75607,N,12224.33736,W,000.00,068.2,271013,016.6,E,D*24
$PGRME,2.4,M,2.4,M,3.4,M*29
$HCHDG,49.1,0.0,E,,*15
$HCHDG,49.1,0.0,E,,*15
$GPRMC,230038.8,A,4740.75607,N,12224.33736,W,000.00,068.2,271013,016.6,E,D*2A
$PGRME,2.4,M,2.4,M,3.4,M*29
$YXXDR,A,5.1,D,PTCH,A,4.9,D,ROLL*54
$HCHDG,49.1,0.0,E,,*15
$HCHDG,49.1,0.0,E,,*15
$GPRMC,230039.0,A,4740.75607,N,12224.33736,W,000.01,068.2,271013,016.6,E,D*22
$GPRMB,A,0.00,L,Shil,Shil,4741.0830,N,12224.5670,W,0.4,335,-0.00,V*28
$PGRME,2.4,M,2.4,M,3.4,M*29
$HCHDG,49.1,0.0,E,,*15
$HCHDG,49.1,0.0,E,,*15
$GPRMC,230039.2,A,4740.75607,N,12224.33736,W,000.00,068.2,271013,016.6,E,D*21
$PGRME,2.4,M,2.4,M,3.4,M*29
$HCHDG,49.1,0.0,E,,*15
$YXXDR,A,5.1,D,PTCH,A,4.7,D,ROLL*5A
$HCHDG,49.1,0.0,E,,*15
$GPRMC,230039.4,A,4740.75607,N,12224.33736,W,000.00,068.2,271013,016.6,E,D*27
$PGRME,2.4,M,2.4,M,3.4,M*29
$HCHDG,49.1,0.0,E,,*15
$HCHDG,49.2,0.0,E,,*16
$GPRMC,230039.6,A,4740.75607,N,12224.33736,W,000.00,068.2,271013,016.6,E,D*25
$PGRME,2.4,M,2.4,M,3.4,M*29
$HCHDG,49.1,0.0,E,,*15
$HCHDG,49.1,0.0,E,,*15
$GPRMC,230039.8,A,4740.75607,N,12224.33736,W,000.01,068.2,271013,016.6,E,D*2A
$PGRME,2.4,M,2.4,M,3.4,M*29
$YXXDR,A,5.0,D,PTCH,A,4.7,D,ROLL*5B
$PTAK,FFD1,4.7*56
$HCHDG,49.1,0.0,E,,*15
$HCHDG,49.1,0.0,E,,*15
$GPRMC,230040.0,A,4740.75607,N,12224.33736,W,000.00,068.2,271013,016.6,E,D*2D
$GPRMB,A,0.00,L,Shil,Shil,4741.0830,N,12224.5670,W,0.4,335,-0.00,V*28
$PGRME,2.4,M,2.4,M,3.4,M*29
$HCHDG,49.1,0.0,E,,*15
$HCHDG,49.1,0.0,E,,*15
$GPRMC,230040.2,A,4740.75607,N,12224.33736,W,000.01,068.2,271013,016.6,E,D*2E
$PGRME,2.4,M,2.4,M,3.4,M*29
$HCHDG,49.1,0.0,E,,*15
$YXXDR,A,5.1,D,PTCH,A,5.0,D,ROLL*5C
$HCHDG,49.1,0.0,E,,*15
$GPRMC,230040.4,A,4740.75607,N,12224.33736,W,000.01,068.2,271013,016.6,E,D*28
$PGRME,2.4,M,2.4,M,3.4,M*29
$HCHDG,49.1,0.0,E,,*15
$HCHDG,49.1,0.0,E,,*15
$GPRMC,230040.6,A,4740.75606,N,12224.33736,W,000.00,068.2,271013,016.6,E,D*2A
$PGRME,2.4,M,2.4,M,3.4,M*29
$HCHDG,49.1,0.0,E,,*15
$HCHDG,49.1,0.0,E,,*15
$GPRMC,230040.8,A,4740.75606,N,12224.33736,W,000.00,068.2,271013,016.6,E,D*24
$PGRME,2.4,M,2.4,M,3.4,M*29
$YXXDR,A,5.0,D,PTCH,A,4.8,D,ROLL*54
$HCHDG,49.1,0.0,E,,*15
$HCHDG,49.1,0.0,E,,*15
$GPRMC,230041.0,A,4740.75606,N,12224.33736,W,000.01,068.2,271013,016.6,E,D*2C
$PGRME,2.4,M,2.4,M,3.4,M*29
$HCHDG,49.1,0.0,E,,*15
$HCHDG,49.2,0.0,E,,*16
$GPRMC,230041.2,A,4740.75606,N,12224.33736,W,000.00,068.2,271013,016.6,E,D*2F
$GPRMB,A,0.00,L,Shil,Shil,4741.0830,N,12224.5670,W,0.4,335,-0.00,V*28
$PGRME,2.4,M,2.4,M,3.4,M*29
$HCHDG,49.2,0.0,E,,*16
$PTAK,FFP1,HEEL,@*07
$YXXDR,A,5.0,D,PTCH,A,5.0,D,ROLL*5D
$PTAK,FFD1,5.0*50
$HCHDG,49.2,0.0,E,,*16
$GPRMC,230041.4,A,4740.75606,N,12224.33736,W,000.00,068.2,271013,016.6,E,D*29
$PGRME,2.4,M,2.4,M,3.4,M*29
$HCHDG,49.2,0.0,E,,*16
$HCHDG,49.2,0.0,E,,*16
$GPRMC,230041.6,A,4740.75606,N,12224.33736,W,000.00,068.2,271013,016.6,E,D*2B
$PGRME,2.4,M,2.4,M,3.4,M*29
$HCHDG,49.2,0.0,E,,*16
$HCHDG,49.2,0.0,E,,*16
$GPRMC,230041.8,A,4740.75606,N,12224.33736,W,000.01,068.2,271013,016.6,E,D*24
$PGRME,2.4,M,2.4,M,3.4,M*29
$YXXDR,A,5.0,D,PTCH,A,4.7,D,ROLL*5B
$HCHDG,49.2,0.0,E,,*16
$HCHDG,49.2,0.0,E,,*16
$GPRMC,230042.0,A,4740.75606,N,12224.33736,W,000.00,068.2,271013,016.6,E,D*2E
$PGRME,2.4,M,2.4,M,3.4,M*29
$HCHDG,49.2,0.0,E,,*16
$HCHDG,49.2,0.0,E,,*16
$GPRMC,230042.2,A,4740.75606,N,12224.33736,W,000.01,068.2,271013,016.6,E,D*2D
$GPRMB,A,0.00,L,Shil,Shil,4741.0830,N,12224.5670,W,0.4,335,-0.00,V*28
$PGRME,2.4,M,2.4,M,3.4,M*29
$HCHDG,49.2,0.0,E,,*16
$YXXDR,A,5.0,D,PTCH,A,4.8,D,ROLL*54
$PTAK,FFD1,4.8*59
$HCHDG,49.2,0.0,E,,*16
$GPRMC,230042.4,A,4740.75606,N,12224.33736,W,000.00,068.2,271013,016.6,E,D*2A
$PGRME,2.4,M,2.4,M,3.4,M*29
$HCHDG,49.2,0.0,E,,*16
$HCHDG,49.2,0.0,E,,*16
$GPRMC,230042.6,A,4740.75606,N,12224.33735,W,000.01,068.2,271013,016.6,E,D*2A
$PGRME,2.4,M,2.4,M,3.4,M*29
$HCHDG,49.2,0.0,E,,*16
$HCHDG,49.2,0.0,E,,*16
$GPRMC,230042.8,A,4740.75606,N,12224.33736,W,000.01,068.2,271013,016.6,E,D*27
$PGRME,2.4,M,2.4,M,3.4,M*29
$YXXDR,A,5.0,D,PTCH,A,4.8,D,ROLL*54
$HCHDG,49.1,0.0,E,,*15
$HCHDG,49.0,0.0,E,,*14
$GPRMC,230043.0,A,4740.75606,N,12224.33736,W,000.00,068.2,271013,016.6,E,D*2F
$PGRME,2.4,M,2.4,M,3.4,M*29
$HCHDG,48.9,0.0,E,,*1C
$HCHDG,48.9,0.0,E,,*1C
$GPRMC,230043.2,A,4740.75606,N,12224.33736,W,000.00,068.2,271013,016.6,E,D*2D
$PGRME,2.4,M,2.4,M,3.4,M*29
$HCHDG,48.9,0.0,E,,*1C
$YXXDR,A,5.1,D,PTCH,A,4.9,D,ROLL*54
$HCHDG,49.1,0.0,E,,*15
$GPRMC,230043.4,A,4740.75606,N,12224.33736,W,000.00,068.2,271013,016.6,E,D*2B
$GPRMB,A,0.00,L,Shil,Shil,4741.0830,N,12224.5670,W,0.4,335,-0.00,V*28
$PGRME,2.4,M,2.4,M,3.4,M*29
$HCHDG,49.1,0.0,E,,*15
$HCHDG,49.1,0.0,E,,*15
$GPRMC,230043.6,A,4740.75606,N,12224.33736,W,000.00,068.2,271013,016.6,E,D*29
$PGRME,2.4,M,2.4,M,3.4,M*29
$HCHDG,49.1,0.0,E,,*15
$HCHDG,49.1,0.0,E,,*15
$GPRMC,230043.8,A,4740.75606,N,12224.33736,W,000.00,068.2,271013,016.6,E,D*27
$PGRME,2.4,M,2.4,M,3.4,M*29
$YXXDR,A,5.0,D,PTCH,A,4.8,D,ROLL*54
$PTAK,FFD1,4.8*59
$HCHDG,49.1,0.0,E,,*15
$HCHDG,49.1,0.0,E,,*15
$GPRMC,230044.0,A,4740.75606,N,12224.33736,W,000.00,068.2,271013,016.6,E,D*28
$PGRME,2.4,M,2.4,M,3.4,M*29
$PGRMT,GPS 18x-5Hz software ver. 3.20,,,,,,,,*30
$HCHDG,49.1,0.0,E,,*15
$HCHDG,49.1,0.0,E,,*15
$GPRMC,230044.2,A,4740.75606,N,12224.33736,W,000.00,068.2,271013,016.6,E,D*2A
$PGRME,2.4,M,2.4,M,3.4,M*29
$HCHDG,49.1,0.0,E,,*15
$YXXDR,A,5.0,D,PTCH,A,4.8,D,ROLL*54
$HCHDG,49.1,0.0,E,,*15
$GPRMC,230044.4,A,4740.75606,N,12224.33736,W,000.01,068.2,271013,016.6,E,D*2D
$PGRME,2.4,M,2.4,M,3.4,M*29
$HCHDG,49.1,0.0,E,,*15
$HCHDG,49.1,0.0,E,,*15
$GPRMC,230044.6,A,4740.75606,N,12224.33737,W,000.00,068.2,271013,016.6,E,D*2F
$GPRMB,A,0.00,L,Shil,Shil,4741.0830,N,12224.5670,W,0.4,335,-0.00,V*28
$PGRME,2.4,M,2.4,M,3.4,M*29
$HCHDG,49.1,0.0,E,,*15
$HCHDG,49.1,0.0,E,,*15
$GPRMC,230044.8,A,4740.75606,N,12224.33737,W,000.01,068.2,271013,016.6,E,D*20
$PGRME,2.4,M,2.4,M,3.4,M*29
$YXXDR,A,5.0,D,PTCH,A,4.8,D,ROLL*54
$HCHDG,49.1,0.0,E,,*15
$HCHDG,49.1,0.0,E,,*15
$GPRMC,230045.0,A,4740.75606,N,12224.33737,W,000.00,068.2,271013,016.6,E,D*28
$PGRME,2.4,M,2.4,M,3.4,M*29
$HCHDG,49.1,0.0,E,,*15
$HCHDG,49.1,0.0,E,,*15
$GPRMC,230045.2,A,4740.75606,N,12224.33737,W,000.00,068.2,271013,016.6,E,D*2A
$PGRME,2.4,M,2.4,M,3.4,M*29
$HCHDG,49.1,0.0,E,,*15
$YXXDR,A,5.1,D,PTCH,A,4.9,D,ROLL*54
$PTAK,FFD1,4.9*58
$HCHDG,49.1,0.0,E,,*15
$GPRMC,230045.4,A,4740.75606,N,12224.33737,W,000.01,068.2,271013,016.6,E,D*2D
$PGRME,2.4,M,2.4,M,3.4,M*29
$HCHDG,49.1,0.0,E,,*15
$PTAK,FFP1,HEEL,@*07
$HCHDG,49.1,0.0,E,,*15
$GPRMC,230045.6,A,4740.75606,N,12224.33737,W,000.00,068.2,271013,016.6,E,D*2E
$PGRME,2.4,M,2.4,M,3.4,M*29
$HCHDG,49.1,0.0,E,,*15
$HCHDG,49.0,0.0,E,,*14
$GPRMC,230045.8,A,4740.75606,N,12224.33737,W,000.01,068.2,271013,016.6,E,D*21
$GPRMB,A,0.00,L,Shil,Shil,4741.0830,N,12224.5670,W,0.4,335,-0.00,V*28
$YXXDR,A,5.0,D,PTCH,A,4.7,D,ROLL*5B
$PGRME,2.4,M,2.4,M,3.4,M*29
$HCHDG,49.0,0.0,E,,*14
$HCHDG,49.0,0.0,E,,*14
$GPRMC,230046.0,A,4740.75606,N,12224.33737,W,000.01,068.2,271013,016.6,E,D*2A
$PGRME,2.4,M,2.4,M,3.4,M*29
$HCHDG,49.0,0.0,E,,*14
$HCHDG,49.0,0.0,E,,*14
$GPRMC,230046.2,A,4740.75606,N,12224.33737,W,000.00,068.2,271013,016.6,E,D*29
$PGRME,2.4,M,2.4,M,3.4,M*29
$HCHDG,49.0,0.0,E,,*14
$YXXDR,A,5.1,D,PTCH,A,4.9,D,ROLL*54
$HCHDG,49.0,0.0,E,,*14
$GPRMC,230046.4,A,4740.75606,N,12224.33737,W,000.00,068.2,271013,016.6,E,D*2F
$PGRME,2.4,M,2.4,M,3.4,M*29
$HCHDG,49.0,0.0,E,,*14
$HCHDG,49.0,0.0,E,,*14
$GPRMC,230046.6,A,4740.75606,N,12224.33737,W,000.00,068.2,271013,016.6,E,D*2D
$PGRME,2.4,M,2.4,M,3.4,M*29
$HCHDG,49.0,0.0,E,,*14
$HCHDG,49.0,0.0,E,,*14
$GPRMC,230046.8,A,4740.75606,N,12224.33737,W,000.00,068.2,271013,016.6,E,D*23
$GPRMB,A,0.00,L,Shil,Shil,4741.0830,N,12224.5670,W,0.4,335,-0.00,V*28
$PGRME,2.4,M,2.4,M,3.4,M*29
$YXXDR,A,5.1,D,PTCH,A,4.7,D,ROLL*5A
$PTAK,FFD1,4.7*56
$HCHDG,49.0,0.0,E,,*14
$HCHDG,49.0,0.0,E,,*14
$GPRMC,230047.0,A,4740.75606,N,12224.33737,W,000.01,068.2,271013,016.6,E,D*2B
$PGRME,2.4,M,2.4,M,3.4,M*29
$HCHDG,49.0,0.0,E,,*14
$HCHDG,49.0,0.0,E,,*14
$GPRMC,230047.2,A,4740.75606,N,12224.33736,W,000.01,068.2,271013,016.6,E,D*28
$PGRME,2.4,M,2.4,M,3.4,M*29
$HCHDG,49.0,0.0,E,,*14
$YXXDR,A,5.1,D,PTCH,A,5.0,D,ROLL*5C
$HCHDG,49.0,0.0,E,,*14
$GPRMC,230047.4,A,4740.75606,N,12224.33736,W,000.01,068.2,271013,016.6,E,D*2E
$PGRME,2.4,M,2.4,M,3.4,M*29
$HCHDG,49.0,0.0,E,,*14
$HCHDG,49.0,0.0,E,,*14
$GPRMC,230047.6,A,4740.75606,N,12224.33737,W,000.00,068.2,271013,016.6,E,D*2C
$PGRME,2.4,M,2.4,M,3.4,M*29
$HCHDG,49.0,0.0,E,,*14
$HCHDG,49.0,0.0,E,,*14
$GPRMC,230047.8,A,4740.75606,N,12224.33737,W,000.01,068.2,271013,016.6,E,D*23
$GPRMB,A,0.00,L,Shil,Shil,4741.0830,N,12224.5670,W,0.4,335,-0.00,V*28
$PGRME,2.4,M,2.4,M,3.4,M*29
$YXXDR,A,5.0,D,PTCH,A,4.7,D,ROLL*5B
$HCHDG,49.0,0.0,E,,*14
$HCHDG,49.0,0.0,E,,*14
$GPRMC,230048.0,A,4740.75607,N,12224.33737,W,000.00,068.2,271013,016.6,E,D*24
$PGRME,2.4,M,2.4,M,3.4,M*29
$HCHDG,49.0,0.0,E,,*14
$HCHDG,49.0,0.0,E,,*14
$GPRMC,230048.2,A,4740.75607,N,12224.33737,W,000.00,068.2,271013,016.6,E,D*26
$PGRME,2.4,M,2.4,M,3.4,M*29
$HCHDG,49.0,0.0,E,,*14
$YXXDR,A,5.1,D,PTCH,A,4.9,D,ROLL*54
$PTAK,FFD1,4.9*58
$HCHDG,49.0,0.0,E,,*14
$GPRMC,230048.4,A,4740.75607,N,12224.33737,W,000.00,068.2,271013,016.6,E,D*20
$PGRME,2.4,M,2.4,M,3.4,M*29
$HCHDG,49.0,0.0,E,,*14
$HCHDG,49.0,0.0,E,,*14
$GPRMC,230048.6,A,4740.75607,N,12224.33737,W,000.00,068.2,271013,016.6,E,D*22
$PGRME,2.4,M,2.4,M,3.4,M*29
$HCHDG,49.0,0.0,E,,*14
$HCHDG,49.0,0.0,E,,*14
$GPRMC,230048.8,A,4740.75607,N,12224.33737,W,000.00,068.2,271013,016.6,E,D*2C
$GPRMB,A,0.00,L,Shil,Shil,4741.0830,N,12224.5670,W,0.4,335,-0.00,V*28
$PGRME,2.4,M,2.4,M,3.4,M*29
$YXXDR,A,5.0,D,PTCH,A,4.8,D,ROLL*54
$HCHDG,49.0,0.0,E,,*14
$HCHDG,49.0,0.0,E,,*14
$GPRMC,230049.0,A,4740.75607,N,12224.33737,W,000.01,068.2,271013,016.6,E,D*24
$PGRME,2.4,M,2.4,M,3.4,M*29
$HCHDG,49.0,0.0,E,,*14
$HCHDG,49.0,0.0,E,,*14
$GPRMC,230049.2,A,4740.75607,N,12224.33737,W,000.00,068.2,271013,016.6,E,D*27
$PGRME,2.4,M,2.4,M,3.4,M*29
$HCHDG,49.0,0.0,E,,*14
$YXXDR,A,5.0,D,PTCH,A,4.8,D,ROLL*54
$PTAK,FFD1,4.8*59
$HCHDG,49.0,0.0,E,,*14
$GPRMC,230049.4,A,4740.75607,N,12224.33737,W,000.00,068.2,271013,016.6,E,D*21
$PGRME,2.4,M,2.4,M,3.4,M*29
$HCHDG,49.0,0.0,E,,*14
$PTAK,FFP1,HEEL,@*07
$HCHDG,49.0,0.0,E,,*14
$GPRMC,230049.6,A,4740.75607,N,12224.33737,W,000.01,068.2,271013,016.6,E,D*22
$PGRME,2.4,M,2.4,M,3.4,M*29
$HCHDG,49.0,0.0,E,,*14
$HCHDG,49.1,0.0,E,,*15
$GPRMC,230049.8,A,4740.75607,N,12224.33737,W,000.01,068.2,271013,016.6,E,D*2C
$GPRMB,A,0.00,L,Shil,Shil,4741.0830,N,12224.5670,W,0.4,335,-0.00,V*28
$PGRME,2.4,M,2.4,M,3.4,M*29
$YXXDR,A,5.0,D,PTCH,A,4.8,D,ROLL*54
$HCHDG,49.1,0.0,E,,*15
$HCHDG,49.1,0.0,E,,*15
$GPRMC,230050.0,A,4740.75607,N,12224.33737,W,000.01,068.2,271013,016.6,E,D*2C
$PGRME,2.4,M,2.4,M,3.4,M*29
$HCHDG,49.1,0.0,E,,*15
$HCHDG,49.1,0.0,E,,*15
$GPRMC,230050.2,A,4740.75607,N,12224.33737,W,000.01,068.2,271013,016.6,E,D*2E
$PGRME,2.4,M,2.4,M,3.4,M*29
$HCHDG,49.1,0.0,E,,*15
$YXXDR,A,5.0,D,PTCH,A,4.8,D,ROLL*54
$PTAK,FFD1,4.8*59
$HCHDG,49.1,0.0,E,,*15
$GPRMC,230050.4,A,4740.75607,N,12224.33737,W,000.00,068.2,271013,016.6,E,D*29
$PGRME,2.4,M,2.4,M,3.4,M*29
$HCHDG,49.1,0.0,E,,*15
$HCHDG,49.1,0.0,E,,*15
$GPRMC,230050.6,A,4740.75607,N,12224.33737,W,000.01,068.2,271013,016.6,E,D*2A
$PGRME,2.4,M,2.4,M,3.4,M*29
$HCHDG,49.1,0.0,E,,*15
$HCHDG,49.1,0.0,E,,*15
$GPRMC,230050.8,A,4740.75607,N,12224.33737,W,000.01,068.2,271013,016.6,E,D*24
$PGRME,2.4,M,2.4,M,3.4,M*29
$YXXDR,A,5.0,D,PTCH,A,4.8,D,ROLL*54
$HCHDG,49.1,0.0,E,,*15
$HCHDG,49.1,0.0,E,,*15
$GPRMC,230051.0,A,4740.75607,N,12224.33737,W,000.00,068.2,271013,016.6,E,D*2C
$GPRMB,A,0.00,L,Shil,Shil,4741.0830,N,12224.5670,W,0.4,335,-0.00,V*28
$PGRME,2.4,M,2.4,M,3.4,M*29
$HCHDG,49.1,0.0,E,,*15
$HCHDG,49.1,0.0,E,,*15
$GPRMC,230051.2,A,4740.75607,N,12224.33737,W,000.01,068.2,271013,016.6,E,D*2F
$PGRME,2.4,M,2.4,M,3.4,M*29
$HCHDG,49.1,0.0,E,,*15
$YXXDR,A,5.0,D,PTCH,A,4.8,D,ROLL*54
$HCHDG,49.1,0.0,E,,*15
$GPRMC,230051.4,A,4740.75607,N,12224.33737,W,000.00,068.2,271013,016.6,E,D*28
$PGRME,2.4,M,2.4,M,3.4,M*29
$HCHDG,49.1,0.0,E,,*15
$HCHDG,49.1,0.0,E,,*15
$GPRMC,230051.6,A,4740.75607,N,12224.33737,W,000.00,068.2,271013,016.6,E,D*2A
$PGRME,2.4,M,2.4,M,3.4,M*29
$HCHDG,49.1,0.0,E,,*15
$HCHDG,49.1,0.0,E,,*15
$GPRMC,230051.8,A,4740.75607,N,12224.33737,W,000.01,068.2,271013,016.6,E,D*25
$PGRME,2.4,M,2.4,M,3.4,M*29
$YXXDR,A,5.0,D,PTCH,A,4.8,D,ROLL*54
$PTAK,FFD1,4.8*59
$HCHDG,49.1,0.0,E,,*15
$HCHDG,49.1,0.0,E,,*15
$GPRMC,230052.0,A,4740.75607,N,12224.33736,W,000.01,068.2,271013,016.6,E,D*2F
$GPRMB,A,0.00,L,Shil,Shil,4741.0830,N,12224.5670,W,0.4,335,-0.00,V*28
$PGRME,2.4,M,2.4,M,3.4,M*29
$HCHDG,49.1,0.0,E,,*15
$HCHDG,49.1,0.0,E,,*15
$GPRMC,230052.2,A,4740.75607,N,12224.33736,W,000.01,068.2,271013,016.6,E,D*2D
$PGRME,2.4,M,2.4,M,3.4,M*29
$HCHDG,49.0,0.0,E,,*14
$YXXDR,A,5.0,D,PTCH,A,4.8,D,ROLL*54
$HCHDG,49.0,0.0,E,,*14
$GPRMC,230052.4,A,4740.75607,N,12224.33736,W,000.01,068.2,271013,016.6,E,D*2B
$PGRME,2.4,M,2.4,M,3.4,M*29
$HCHDG,49.0,0.0,E,,*14
$HCHDG,49.0,0.0,E,,*14
$GPRMC,230052.6,A,4740.75607,N,12224.33736,W,000.00,068.2,271013,016.6,E,D*28
$PGRME,2.4,M,2.4,M,3.4,M*29
$HCHDG,49.1,0.0,E,,*15
$HCHDG,49.1,0.0,E,,*15
$GPRMC,230052.8,A,4740.75607,N,12224.33736,W,000.01,068.2,271013,016.6,E,D*27
$PGRME,2.4,M,2.4,M,3.4,M*29
$YXXDR,A,5.1,D,PTCH,A,4.9,D,ROLL*54
$HCHDG,49.1,0.0,E,,*15
$HCHDG,49.1,0.0,E,,*15
$GPRMC,230053.0,A,4740.75607,N,12224.33736,W,000.00,068.2,271013,016.6,E,D*2F
$PGRME,2.4,M,2.4,M,3.4,M*29
$HCHDG,49.1,0.0,E,,*15
$HCHDG,49.1,0.0,E,,*15
$GPRMC,230053.2,A,4740.75607,N,12224.33736,W,000.01,068.2,271013,016.6,E,D*2C
$GPRMB,A,0.00,L,Shil,Shil,4741.0830,N,12224.5670,W,0.4,335,-0.00,V*28
$PGRME,2.4,M,2.4,M,3.4,M*29
$HCHDG,49.1,0.0,E,,*15
$YXXDR,A,5.1,D,PTCH,A,4.9,D,ROLL*54
$PTAK,FFD1,4.9*58
$HCHDG,49.1,0.0,E,,*15
$GPRMC,230053.4,A,4740.75607,N,12224.33736,W,000.01,068.2,271013,016.6,E,D*2A
$PGRME,2.4,M,2.4,M,3.4,M*29
$HCHDG,49.1,0.0,E,,*15
$PTAK,FFP1,HEEL,@*07
$HCHDG,49.1,0.0,E,,*15
$GPRMC,230053.6,A,4740.75607,N,12224.33736,W,000.01,068.2,271013,016.6,E,D*28
$PGRME,2.4,M,2.4,M,3.4,M*29
$HCHDG,49.1,0.0,E,,*15
$HCHDG,49.1,0.0,E,,*15
$GPRMC,230053.8,A,4740.75607,N,12224.33736,W,000.01,068.2,271013,016.6,E,D*26
$PGRME,2.4,M,2.4,M,3.4,M*29
$YXXDR,A,5.1,D,PTCH,A,4.9,D,ROLL*54
$HCHDG,49.1,0.0,E,,*15
$HCHDG,49.1,0.0,E,,*15
$GPRMC,230054.0,A,4740.75607,N,12224.33736,W,000.00,068.2,271013,016.6,E,D*28
$PGRME,2.4,M,2.4,M,3.4,M*29
$HCHDG,49.1,0.0,E,,*15
$HCHDG,49.0,0.0,E,,*14
$GPRMC,230054.2,A,4740.75607,N,12224.33736,W,000.00,068.2,271013,016.6,E,D*2A
$GPRMB,A,0.00,L,Shil,Shil,4741.0830,N,12224.5670,W,0.4,335,-0.00,V*28
$PGRME,2.4,M,2.4,M,3.4,M*29
$HCHDG,49.0,0.0,E,,*14
$YXXDR,A,5.0,D,PTCH,A,4.8,D,ROLL*54
$PTAK,FFD1,4.8*59
$HCHDG,49.0,0.0,E,,*14
$GPRMC,230054.4,A,4740.75607,N,12224.33736,W,000.01,068.2,271013,016.6,E,D*2D
$PGRME,2.4,M,2.4,M,3.4,M*29
$HCHDG,49.0,0.0,E,,*14
$HCHDG,49.0,0.0,E,,*14
$GPRMC,230054.6,A,4740.75607,N,12224.33736,W,000.01,068.2,271013,016.6,E,D*2F
$PGRME,2.4,M,2.4,M,3.4,M*29
$HCHDG,49.0,0.0,E,,*14
$HCHDG,49.0,0.0,E,,*14
$GPRMC,230054.8,A,4740.75607,N,12224.33735,W,000.01,068.2,271013,016.6,E,D*22
$PGRME,2.4,M,2.4,M,3.4,M*29
$YXXDR,A,5.0,D,PTCH,A,4.8,D,ROLL*54
$HCHDG,49.0,0.0,E,,*14
$HCHDG,49.0,0.0,E,,*14
$GPRMC,230055.0,A,4740.75607,N,12224.33735,W,000.01,068.2,271013,016.6,E,D*2B
$PGRME,2.4,M,2.4,M,3.4,M*29
$HCHDG,49.0,0.0,E,,*14
$HCHDG,49.0,0.0,E,,*14
$GPRMC,230055.2,A,4740.75607,N,12224.33735,W,000.00,068.2,271013,016.6,E,D*28
$GPRMB,A,0.00,L,Shil,Shil,4741.0830,N,12224.5670,W,0.4,335,-0.00,V*28
$PGRME,2.4,M,2.4,M,3.4,M*29
$HCHDG,49.0,0.0,E,,*14
$YXXDR,A,5.1,D,PTCH,A,5.0,D,ROLL*5C
$HCHDG,49.0,0.0,E,,*14
$GPRMC,230055.4,A,4740.75607,N,12224.33735,W,000.00,068.2,271013,016.6,E,D*2E
$PGRME,2.4,M,2.4,M,3.4,M*29
$HCHDG,49.0,0.0,E,,*14
$HCHDG,49.0,0.0,E,,*14
$GPRMC,230055.6,A,4740.75607,N,12224.33735,W,000.01,068.2,271013,016.6,E,D*2D
$PGRME,2.4,M,2.4,M,3.4,M*29
$HCHDG,49.1,0.0,E,,*15
$HCHDG,49.1,0.0,E,,*15
$GPRMC,230055.8,A,4740.75607,N,12224.33735,W,000.00,068.2,271013,016.6,E,D*22
$PGRME,2.4,M,2.4,M,3.4,M*29
$YXXDR,A,5.0,D,PTCH,A,4.7,D,ROLL*5B
$PTAK,FFD1,4.7*56
$HCHDG,49.1,0.0,E,,*15
$HCHDG,49.1,0.0,E,,*15
$GPRMC,230056.0,A,4740.75607,N,12224.33735,W,000.00,068.2,271013,016.6,E,D*29
$PGRME,2.4,M,2.4,M,3.4,M*29
$HCHDG,49.1,0.0,E,,*15
$HCHDG,49.1,0.0,E,,*15
$GPRMC,230056.2,A,4740.75606,N,12224.33735,W,000.00,068.2,271013,016.6,E,D*2A
$GPRMB,A,0.00,L,Shil,Shil,4741.0830,N,12224.5670,W,0.4,335,-0.00,V*28
$PGRME,2.4,M,2.4,M,3.4,M*29
$HCHDG,49.1,0.0,E,,*15
$YXXDR,A,5.1,D,PTCH,A,4.9,D,ROLL*54
$HCHDG,49.1,0.0,E,,*15
$GPRMC,230056.4,A,4740.75606,N,12224.33735,W,000.00,068.2,271013,016.6,E,D*2C
$PGRME,2.4,M,2.4,M,3.4,M*29
$HCHDG,49.1,0.0,E,,*15
$HCHDG,49.1,0.0,E,,*15
$GPRMC,230056.6,A,4740.75606,N,12224.33735,W,000.00,068.2,271013,016.6,E,D*2E
$PGRME,2.4,M,2.4,M,3.4,M*29
$HCHDG,49.1,0.0,E,,*15
$HCHDG,49.1,0.0,E,,*15
$GPRMC,230056.8,A,4740.75606,N,12224.33735,W,000.00,068.2,271013,016.6,E,D*20
$PGRME,2.4,M,2.4,M,3.4,M*29
$YXXDR,A,5.1,D,PTCH,A,4.7,D,ROLL*5A
$PTAK,FFD1,4.7*56
$HCHDG,49.1,0.0,E,,*15
$HCHDG,49.1,0.0,E,,*15
$GPRMC,230057.0,A,4740.75607,N,12224.33735,W,000.00,068.2,271013,016.6,E,D*28
$PGRME,2.4,M,2.4,M,3.4,M*29
$HCHDG,49.0,0.0,E,,*14
$HCHDG,49.0,0.0,E,,*14
$GPRMC,230057.2,A,4740.75607,N,12224.33735,W,000.00,068.2,271013,016.6,E,D*2A
$GPRMB,A,0.00,L,Shil,Shil,4741.0830,N,12224.5670,W,0.4,335,-0.00,V*28
$PGRME,2.4,M,2.4,M,3.4,M*29
$HCHDG,49.0,0.0,E,,*14
$YXXDR,A,5.0,D,PTCH,A,4.7,D,ROLL*5B
$HCHDG,49.0,0.0,E,,*14
$GPRMC,230057.4,A,4740.75607,N,12224.33735,W,000.01,068.2,271013,016.6,E,D*2D
$PGRME,2.4,M,2.4,M,3.4,M*29
$HCHDG,49.0,0.0,E,,*14
$HCHDG,49.0,0.0,E,,*14
$PTAK,FFP1,HEEL,@*07
$GPRMC,230057.6,A,4740.75607,N,12224.33735,W,000.00,068.2,271013,016.6,E,D*2E
$PGRME,2.4,M,2.4,M,3.4,M*29
$HCHDG,49.0,0.0,E,,*14
$HCHDG,49.0,0.0,E,,*14
$GPRMC,230057.8,A,4740.75607,N,12224.33734,W,000.00,068.2,271013,016.6,E,D*21
$PGRME,2.4,M,2.4,M,3.4,M*29
$YXXDR,A,5.0,D,PTCH,A,4.8,D,ROLL*54
$HCHDG,49.0,0.0,E,,*14
$HCHDG,49.0,0.0,E,,*14
$GPRMC,230058.0,A,4740.75606,N,12224.33734,W,000.00,068.2,271013,016.6,E,D*27
$PGRME,2.4,M,2.4,M,3.4,M*29
$HCHDG,49.0,0.0,E,,*14
$HCHDG,49.0,0.0,E,,*14
$GPRMC,230058.2,A,4740.75606,N,12224.33734,W,000.00,068.2,271013,016.6,E,D*25
$PGRME,2.4,M,2.4,M,3.4,M*29
$HCHDG,49.0,0.0,E,,*14
$YXXDR,A,5.1,D,PTCH,A,4.9,D,ROLL*54
$PTAK,FFD1,4.9*58
$HCHDG,49.0,0.0,E,,*14
$GPRMC,230058.4,A,4740.75606,N,12224.33734,W,000.00,068.2,271013,016.6,E,D*23
$GPRMB,A,0.00,L,Shil,Shil,4741.0830,N,12224.5670,W,0.4,335,-0.00,V*28
$PGRME,2.4,M,2.4,M,3.4,M*29
$HCHDG,49.0,0.0,E,,*14
$HCHDG,49.0,0.0,E,,*14
$GPRMC,230058.6,A,4740.75606,N,12224.33734,W,000.00,068.2,271013,016.6,E,D*21
$PGRME,2.4,M,2.4,M,3.4,M*29
$HCHDG,49.0,0.0,E,,*14
$HCHDG,49.0,0.0,E,,*14
$GPRMC,230058.8,A,4740.75607,N,12224.33734,W,000.01,068.2,271013,016.6,E,D*2F
$PGRME,2.4,M,2.4,M,3.4,M*29
$YXXDR,A,5.0,D,PTCH,A,4.8,D,ROLL*54
$HCHDG,49.0,0.0,E,,*14
$HCHDG,49.0,0.0,E,,*14
$GPRMC,230059.0,A,4740.75607,N,12224.33734,W,000.01,068.2,271013,016.6,E,D*26
$PGRME,2.4,M,2.4,M,3.4,M*29
$HCHDG,49.0,0.0,E,,*14
$HCHDG,49.0,0.0,E,,*14
$GPRMC,230059.2,A,4740.75606,N,12224.33734,W,000.00,068.2,271013,016.6,E,D*24
$PGRME,2.4,M,2.4,M,3.4,M*29
$HCHDG,49.0,0.0,E,,*14
$YXXDR,A,5.0,D,PTCH,A,4.8,D,ROLL*54
$PTAK,FFD1,4.8*59
$HCHDG,49.0,0.0,E,,*14
$GPRMC,230059.4,A,4740.75606,N,12224.33734,W,000.00,068.2,271013,016.6,E,D*22
$GPRMB,A,0.00,L,Shil,Shil,4741.0830,N,12224.5670,W,0.4,335,-0.00,V*28
$PGRME,2.4,M,2.4,M,3.4,M*29
$HCHDG,49.0,0.0,E,,*14
$HCHDG,49.0,0.0,E,,*14
$GPRMC,230059.6,A,4740.75606,N,12224.33734,W,000.01,068.2,271013,016.6,E,D*21
$PGRME,2.4,M,2.4,M,3.4,M*29
$HCHDG,49.0,0.0,E,,*14
$HCHDG,49.0,0.0,E,,*14
$GPRMC,230059.8,A,4740.75606,N,12224.33734,W,000.00,068.2,271013,016.6,E,D*2E
$PGRME,2.4,M,2.4,M,3.4,M*29
$YXXDR,A,5.0,D,PTCH,A,4.8,D,ROLL*54
$HCHDG,49.0,0.0,E,,*14
$HCHDG,49.0,0.0,E,,*14
$GPRMC,230100.0,A,4740.75606,N,12224.33734,W,000.00,068.2,271013,016.6,E,D*2B
$PGRME,2.4,M,2.4,M,3.4,M*29
$HCHDG,49.0,0.0,E,,*14
$HCHDG,48.9,0.0,E,,*1C
$GPRMC,230100.2,A,4740.75606,N,12224.33734,W,000.00,068.2,271013,016.6,E,D*29
$PGRME,2.4,M,2.4,M,3.4,M*29
$HCHDG,48.9,0.0,E,,*1C
$YXXDR,A,5.0,D,PTCH,A,4.8,D,ROLL*54
$HCHDG,48.9,0.0,E,,*1C
$GPRMC,230100.4,A,4740.75606,N,12224.33734,W,000.00,068.2,271013,016.6,E,D*2F
$GPRMB,A,0.00,L,Shil,Shil,4741.0830,N,12224.5670,W,0.4,335,-0.00,V*28
$PGRME,2.4,M,2.4,M,3.4,M*29
$HCHDG,48.9,0.0,E,,*1C
$HCHDG,48.9,0.0,E,,*1C
$GPRMC,230100.6,A,4740.75606,N,12224.33734,W,000.01,068.2,271013,016.6,E,D*2C
$PGRME,2.4,M,2.4,M,3.4,M*29
$HCHDG,48.9,0.0,E,,*1C
$HCHDG,48.9,0.0,E,,*1C
$GPRMC,230100.8,A,4740.75606,N,12224.33734,W,000.00,068.2,271013,016.6,E,D*23
$PGRME,2.4,M,2.4,M,3.4,M*29
$YXXDR,A,5.1,D,PTCH,A,4.9,D,ROLL*54
$PTAK,FFD1,4.9*58
$HCHDG,48.9,0.0,E,,*1C
$HCHDG,48.9,0.0,E,,*1C
$GPRMC,230101.0,A,4740.75606,N,12224.33734,W,000.01,068.2,271013,016.6,E,D*2B
$PGRME,2.4,M,2.4,M,3.4,M*29
$HCHDG,48.9,0.0,E,,*1C
$HCHDG,48.9,0.0,E,,*1C
$GPRMC,230101.2,A,4740.75606,N,12224.33733,W,000.00,068.2,271013,016.6,E,D*2F
$PGRME,2.4,M,2.4,M,3.4,M*29
$HCHDG,48.9,0.0,E,,*1C
$YXXDR,A,5.0,D,PTCH,A,4.8,D,ROLL*54
$HCHDG,49.0,0.0,E,,*14
$GPRMC,230101.4,A,4740.75605,N,12224.33733,W,000.01,068.2,271013,016.6,E,D*2B
$PGRME,2.4,M,2.4,M,3.4,M*29
$HCHDG,48.9,0.0,E,,*1C
$HCHDG,48.9,0.0,E,,*1C
$GPRMC,230101.6,A,4740.75605,N,12224.33733,W,000.00,068.2,271013,016.6,E,D*28
$GPRMB,A,0.00,L,Shil,Shil,4741.0830,N,12224.5670,W,0.4,335,-0.00,V*28
$PTAK,FFP1,HEEL,@*07
$PGRME,2.4,M,2.4,M,3.4,M*29
$HCHDG,48.9,0.0,E,,*1C
$HCHDG,48.9,0.0,E,,*1C
$GPRMC,230101.8,A,4740.75605,N,12224.33733,W,000.01,068.2,271013,016.6,E,D*27
$PGRME,2.4,M,2.4,M,3.4,M*29
$YXXDR,A,5.1,D,PTCH,A,4.9,D,ROLL*54
$PTAK,FFD1,4.9*58
$HCHDG,48.9,0.0,E,,*1C
$HCHDG,48.9,0.0,E,,*1C
$GPRMC,230102.0,A,4740.75605,N,12224.33733,W,000.01,068.2,271013,016.6,E,D*2C
$PGRME,2.4,M,2.4,M,3.4,M*29
$HCHDG,48.9,0.0,E,,*1C
$HCHDG,48.9,0.0,E,,*1C
$GPRMC,230102.2,A,4740.75605,N,12224.33733,W,000.01,068.2,271013,016.6,E,D*2E
$PGRME,2.4,M,2.4,M,3.4,M*29
$HCHDG,49.0,0.0,E,,*14
$YXXDR,A,5.0,D,PTCH,A,4.8,D,ROLL*54
$HCHDG,49.0,0.0,E,,*14
$GPRMC,230102.4,A,4740.75605,N,12224.33733,W,000.01,068.2,271013,016.6,E,D*28
$PGRME,2.4,M,2.4,M,3.4,M*29
$HCHDG,49.1,0.0,E,,*15
$HCHDG,49.1,0.0,E,,*15
$GPRMC,230102.6,A,4740.75605,N,12224.33733,W,000.01,068.2,271013,016.6,E,D*2A
$PGRME,2.4,M,2.4,M,3.4,M*29
$HCHDG,49.2,0.0,E,,*16
$HCHDG,49.2,0.0,E,,*16
$GPRMC,230102.8,A,4740.75604,N,12224.33733,W,000.00,068.2,271013,016.6,E,D*24
$GPRMB,A,0.00,L,Shil,Shil,4741.0830,N,12224.5670,W,0.4,335,-0.00,V*28
$PGRME,2.4,M,2.4,M,3.4,M*29
$YXXDR,A,5.1,D,PTCH,A,4.9,D,ROLL*54
$PTAK,FFD1,4.9*58
$HCHDG,49.2,0.0,E,,*16
$HCHDG,49.2,0.0,E,,*16
$GPRMC,230103.0,A,4740.75604,N,12224.33733,W,000.01,068.2,271013,016.6,E,D*2C
$PGRME,2.4,M,2.4,M,3.4,M*29
$HCHDG,49.2,0.0,E,,*16
$HCHDG,49.2,0.0,E,,*16
$GPRMC,230103.2,A,4740.75604,N,12224.33733,W,000.01,068.2,271013,016.6,E,D*2E
$PGRME,2.4,M,2.4,M,3.4,M*29
$HCHDG,49.2,0.0,E,,*16
$YXXDR,A,5.0,D,PTCH,A,4.8,D,ROLL*54
$HCHDG,49.2,0.0,E,,*16
$GPRMC,230103.4,A,4740.75604,N,12224.33733,W,000.01,068.2,271013,016.6,E,D*28
$PGRME,2.4,M,2.4,M,3.4,M*29
$HCHDG,49.2,0.0,E,,*16
$HCHDG,49.2,0.0,E,,*16
$GPRMC,230103.6,A,4740.75604,N,12224.33733,W,000.01,068.2,271013,016.6,E,D*2A
$PGRME,2.4,M,2.4,M,3.4,M*29
$HCHDG,49.2,0.0,E,,*16
$HCHDG,49.2,0.0,E,,*16
$GPRMC,230103.8,A,4740.75604,N,12224.33733,W,000.01,068.2,271013,016.6,E,D*24
$GPRMB,A,0.00,L,Shil,Shil,4741.0830,N,12224.5670,W,0.4,335,-0.00,V*28
$PGRME,2.4,M,2.4,M,3.4,M*29
$YXXDR,A,5.0,D,PTCH,A,4.8,D,ROLL*54
$PTAK,FFD1,4.8*59
