$GPRMC,210000.2,A,4741.17049,N,12225.03851,W,008.86,254.9,271013,016.6,E,D*2C
$PGRME,2.4,M,3.0,M,3.9,M*21
$IIVLW,06477,N,025.2,N*54
$YXXDR,A,5.7,D,PTCH,A,-15.8,D,ROLL*4E
$HCHDG,252.4,0.0,E,,*28
$IIVWR,062,R,28.4,N,,,,*6B
$HCHDG,251.9,0.0,E,,*26
$IIGLL,4741.170,N,12225.037,W,205900,A,A*4E
$GPRMC,210000.4,A,4741.17032,N,12225.03915,W,008.63,252.2,271013,016.6,E,D*21
$GPRMB,A,-0.00,L,Shil,Shil,4741.0830,N,12224.5670,W,0.3,105,-7.22,V*04
$PGRME,2.4,M,3.0,M,3.9,M*21
$IIMTW,+09.0,C*31
$HCHDG,251.6,0.0,E,,*29
$IIMWV,062,R,28.4,N,A*19
$IIMWV,079,T,26.4,N,A*1B
$HCHDG,251.1,0.0,E,,*2E
$GPRMC,210000.6,A,4741.17019,N,12225.03982,W,008.33,250.4,271013,016.6,E,D*25
$PGRME,2.4,M,3.0,M,3.9,M*21
$IIRMB,A,0.00,L,,Shil,,,,,000.3,106,,V,A*7D
$HCHDG,250.8,0.0,E,,*26
$YXXDR,A,3.3,D,PTCH,A,-20.6,D,ROLL*44
$PTAK,FFD1,20.6*61
$IIRMC,205900,A,4741.170,N,12225.037,W,08.7,257,271013,16,E,A*1C
$GPRMC,210000.8,A,4741.17006,N,12225.04047,W,008.04,252.5,271013,016.6,E,D*25
$HCHDG,250.8,0.0,E,,*26
$PGRME,2.4,M,3.0,M,3.9,M*21
$HCHDG,250.7,0.0,E,,*29
$HCHDG,250.9,0.0,E,,*27
$GPRMC,210001.0,A,4741.17000,N,12225.04117,W,008.01,260.5,271013,016.6,E,D*2A
$PGRME,2.4,M,3.0,M,3.9,M*21
$HCHDG,251.7,0.0,E,,*28
$HCHDG,252.2,0.0,E,,*2E
$GPRMC,210001.2,A,4741.16991,N,12225.04186,W,007.76,263.3,271013,016.6,E,D*2A
$PGRME,2.4,M,3.0,M,3.9,M*21
$IIVHW,,,,,07.9,N,,*17
$YXXDR,A,2.3,D,PTCH,A,-25.9,D,ROLL*4F
$IIVLW,06477,N,025.2,N*54
$HCHDG,252.6,0.0,E,,*2A
$IIVWR,060,R,27.6,N,,,,*64
$HCHDG,253.0,0.0,E,,*2D
$GPRMC,210001.4,A,4741.16994,N,12225.04254,W,007.58,269.2,271013,016.6,E,D*22
$PGRME,2.4,M,3.0,M,3.9,M*21
$IIGLL,4741.170,N,12225.040,W,210000,A,A*43
$HCHDG,253.2,0.0,E,,*2F
$IIMTW,+09.0,C*31
$IIMWV,060,R,27.6,N,A*16
$HCHDG,253.4,0.0,E,,*29
$IIMWV,078,T,25.4,N,A*19
$GPRMC,210001.6,A,4741.17014,N,12225.04329,W,007.74,278.0,271013,016.6,E,D*27
$GPRMB,A,-0.00,L,Shil,Shil,4741.0830,N,12224.5670,W,0.3,105,-7.68,V*0A
$PGRME,2.4,M,3.0,M,3.9,M*21
$HCHDG,253.2,0.0,E,,*2F
$IIRMB,A,0.00,L,,Shil,,,,,000.3,105,,V,A*7E
$YXXDR,A,4.3,D,PTCH,A,-28.5,D,ROLL*48
$PTAK,FFD1,28.5*6A
$GPRMC,210001.8,A,4741.17022,N,12225.04398,W,007.69,282.5,271013,016.6,E,D*2A
$PGRME,2.4,M,3.0,M,3.9,M*21
$HCHDG,253.3,0.0,E,,*2E
$HCHDG,253.4,0.0,E,,*29
$HCHDG,253.2,0.0,E,,*2F
$PTAK,FFP1,HEEL,@*07
$GPRMC,210002.0,A,4741.17029,N,12225.04460,W,007.66,278.3,271013,016.6,E,D*26
$PGRME,2.4,M,3.0,M,3.9,M*21
$HCHDG,253.3,0.0,E,,*2E
$HCHDG,253.5,0.0,E,,*28
$GPRMC,210002.2,A,4741.17031,N,12225.04523,W,007.37,273.8,271013,016.6,E,D*2F
$PGRME,2.4,M,3.1,M,3.9,M*20
$YXXDR,A,4.6,D,PTCH,A,-19.8,D,ROLL*42
$HCHDG,253.6,0.0,E,,*2B
$IIRMC,210000,A,4741.170,N,12225.043,W,07.6,282,271013,16,E,A*14
$HCHDG,253.8,0.0,E,,*25
$IIVHW,,,,,07.9,N,,*17
$GPRMC,210002.4,A,4741.17030,N,12225.04586,W,007.40,270.8,271013,016.6,E,D*24
$PGRME,2.4,M,3.1,M,3.9,M*20
$IIVLW,06477,N,025.2,N*54
$HCHDG,253.9,0.0,E,,*24
$IIVWR,061,R,28.0,N,,,,*6C
$IIDPT,001.9,-1.0,*48
$HCHDG,254.2,0.0,E,,*28
$GPRMC,210002.6,A,4741.17026,N,12225.04640,W,007.41,271.8,271013,016.6,E,D*28
$PGRME,2.4,M,3.1,M,4.0,M*2E
$IIGLL,4741.170,N,12225.043,W,210000,A,A*40
$HCHDG,254.4,0.0,E,,*2E
$IIMTW,+09.0,C*31
$IIMWV,061,R,28.0,N,A*1E
$YXXDR,A,3.6,D,PTCH,A,-11.3,D,ROLL*46
$IIMWV,076,T,24.6,N,A*14
$GPRMC,210002.8,A,4741.17025,N,12225.04703,W,007.86,268.8,271013,016.6,E,D*20
$GPRMB,A,-0.00,L,Shil,Shil,4741.0830,N,12224.5670,W,0.3,105,-7.54,V*05
$HCHDG,254.7,0.0,E,,*2D
$PGRME,2.4,M,3.2,M,4.0,M*2D
$HCHDG,255.1,0.0,E,,*2A
$HCHDG,255.6,0.0,E,,*2D
$GPRMC,210003.0,A,4741.17022,N,12225.04762,W,007.88,269.1,271013,016.6,E,D*2F
$PGRME,2.4,M,3.2,M,4.0,M*2D
$HCHDG,256.1,0.0,E,,*29
$HCHDG,256.5,0.0,E,,*2D
$GPRMC,210003.2,A,4741.17023,N,12225.04824,W,007.25,274.9,271013,016.6,E,D*22
$PGRME,2.4,M,3.2,M,4.0,M*2D
$YXXDR,A,6.6,D,PTCH,A,-12.9,D,ROLL*4A
$PTAK,FFD1,12.9*6F
$IIRMB,A,0.00,L,,Shil,,,,,000.3,105,,V,A*7E
$HCHDG,256.7,0.0,E,,*2F
$HCHDG,257.1,0.0,E,,*28
$GPRMC,210003.4,A,4741.17019,N,12225.04885,W,007.43,276.8,271013,016.6,E,D*25
$PGRME,2.4,M,3.2,M,4.0,M*2D
$IIRMC,210000,A,4741.170,N,12225.047,W,07.8,268,271013,16,E,A*1A
$IIVHW,,,,,07.9,N,,*17
$HCHDG,257.0,0.0,E,,*29
$IIVLW,06477,N,025.2,N*54
$HCHDG,257.4,0.0,E,,*2D
$IIVWR,061,R,29.5,N,,,,*68
$GPRMC,210003.6,A,4741.17014,N,12225.04945,W,007.63,276.0,271013,016.6,E,D*2D
$PGRME,2.4,M,3.2,M,4.0,M*2D
$IIDPT,001.4,-1.0,*45
$HCHDG,257.5,0.0,E,,*2C
$IIGLL,4741.170,N,12225.047,W,210000,A,A*44
$YXXDR,A,6.1,D,PTCH,A,-14.6,D,ROLL*44
$IIMTW,+09.0,C*31
$GPRMC,210003.8,A,4741.17017,N,12225.05013,W,007.59,272.7,271013,016.6,E,D*21
$HCHDG,257.4,0.0,E,,*2D
$PGRME,2.4,M,3.2,M,4.0,M*2D
$HCHDG,257.4,0.0,E,,*2D
$HCHDG,257.0,0.0,E,,*29
$GPRMC,210004.0,A,4741.17015,N,12225.05074,W,007.60,268.0,271013,016.6,E,D*2B
$GPRMB,A,-0.00,L,Shil,Shil,4741.0830,N,12224.5670,W,0.3,105,-7.27,V*01
$PGRME,2.4,M,3.2,M,4.0,M*2D
$HCHDG,256.6,0.0,E,,*2E
$HCHDG,256.2,0.0,E,,*2A
$GPRMC,210004.2,A,4741.17013,N,12225.05131,W,007.57,265.3,271013,016.6,E,D*25
$PGRME,2.4,M,3.2,M,4.0,M*2D
$IIMWV,061,R,29.1,N,A*1E
$YXXDR,A,5.1,D,PTCH,A,-9.2,D,ROLL*7F
$PTAK,FFD1,9.2*5E
$IIMWV,077,T,26.3,N,A*12
$HCHDG,256.0,0.0,E,,*28
$HCHDG,255.7,0.0,E,,*2C
$IIRMB,A,0.00,L,,Shil,,,,,000.3,105,,V,A*7E
$GPRMC,210004.4,A,4741.17009,N,12225.05196,W,007.28,261.9,271013,016.6,E,D*23
$PGRME,2.4,M,3.1,M,4.0,M*2E
$HCHDG,255.5,0.0,E,,*2E
$IIRMC,210000,A,4741.170,N,12225.050,W,07.5,272,271013,16,E,A*1A
$HCHDG,255.4,0.0,E,,*2F
$IIVHW,,,,,07.8,N,,*16
$GPRMC,210004.6,A,4741.17005,N,12225.05254,W,007.27,263.0,271013,016.6,E,D*24
$PGRME,2.4,M,3.1,M,4.0,M*2E
$IIVLW,06477,N,025.2,N*54
$HCHDG,255.3,0.0,E,,*28
$IIVWR,061,R,29.1,N,,,,*6C
$IIDPT,001.4,-1.0,*45
$YXXDR,A,5.8,D,PTCH,A,-10.0,D,ROLL*4C
$GPRMC,210004.8,A,4741.17000,N,12225.05308,W,007.10,264.5,271013,016.6,E,D*21
$HCHDG,255.4,0.0,E,,*2F
$PGRME,2.4,M,3.1,M,3.9,M*20
$HCHDG,255.3,0.0,E,,*28
$HCHDG,255.6,0.0,E,,*2D
$GPRMC,210005.0,A,4741.17000,N,12225.05372,W,006.87,266.0,271013,016.6,E,D*2D
$GPRMB,A,-0.00,L,Shil,Shil,4741.0830,N,12224.5670,W,0.3,105,-6.50,V*00
$PGRME,2.4,M,3.1,M,3.9,M*20
$HCHDG,255.6,0.0,E,,*2D
$HCHDG,255.5,0.0,E,,*2E
$GPRMC,210005.2,A,4741.17003,N,12225.05437,W,006.91,270.6,271013,016.6,E,D*2C
$PGRME,2.4,M,3.0,M,3.9,M*21
$YXXDR,A,5.1,D,PTCH,A,-14.6,D,ROLL*47
$IIGLL,4741.170,N,12225.053,W,210000,A,A*41
$HCHDG,255.4,0.0,E,,*2F
$IIMTW,+09.0,C*31
$HCHDG,255.6,0.0,E,,*2D
$IIMWV,061,R,28.7,N,A*19
$GPRMC,210005.4,A,4741.17004,N,12225.05493,W,007.20,270.0,271013,016.6,E,D*2E
$PGRME,2.4,M,3.0,M,3.9,M*21
$IIMWV,076,T,26.0,N,A*10
$HCHDG,255.6,0.0,E,,*2D
$IIRMB,A,0.00,L,,Shil,,,,,000.3,105,,V,A*7E
$HCHDG,255.6,0.0,E,,*2D
$GPRMC,210005.6,A,4741.17018,N,12225.05540,W,007.18,272.2,271013,016.6,E,D*25
$PGRME,2.4,M,3.0,M,3.9,M*21
$IIRMC,210000,A,4741.170,N,12225.053,W,07.1,264,271013,16,E,A*1A
$HCHDG,255.3,0.0,E,,*28
$IIVHW,,,,,07.5,N,,*1B
$YXXDR,A,5.4,D,PTCH,A,-16.1,D,ROLL*47
$PTAK,FFD1,16.1*63
$IIVLW,06477,N,025.2,N*54
$GPRMC,210005.8,A,4741.17020,N,12225.05603,W,006.77,270.9,271013,016.6,E,D*25
$HCHDG,255.1,0.0,E,,*2A
$PGRME,2.4,M,3.0,M,3.9,M*21
$HCHDG,255.1,0.0,E,,*2A
$HCHDG,254.9,0.0,E,,*23
$GPRMC,210006.0,A,4741.17026,N,12225.05664,W,006.79,273.7,271013,016.6,E,D*2A
$PTAK,FFP1,HEEL,@*07
$PGRME,2.4,M,3.0,M,3.8,M*20
$HCHDG,255.0,0.0,E,,*2B
$HCHDG,255.1,0.0,E,,*2A
$GPRMC,210006.2,A,4741.17044,N,12225.05713,W,007.02,280.2,271013,016.6,E,D*29
$GPRMB,A,-0.00,L,Shil,Shil,4741.0830,N,12224.5670,W,0.3,105,-7.00,V*04
$PGRME,2.4,M,2.9,M,3.8,M*28
$IIVWR,062,R,28.5,N,,,,*6A
$YXXDR,A,4.9,D,PTCH,A,-16.3,D,ROLL*49
$IIDPT,001.2,-1.0,*43
$HCHDG,255.2,0.0,E,,*29
$HCHDG,255.1,0.0,E,,*2A
$IIGLL,4741.170,N,12225.056,W,210000,A,A*44
$GPRMC,210006.4,A,4741.17047,N,12225.05769,W,007.29,277.6,271013,016.6,E,D*24
$PGRME,2.4,M,3.0,M,3.8,M*20
$IIMTW,+09.0,C*31
$HCHDG,255.4,0.0,E,,*2F
$IIMWV,062,R,28.5,N,A*18
$IIMWV,076,T,25.6,N,A*15
$HCHDG,255.2,0.0,E,,*29
$GPRMC,210006.6,A,4741.17051,N,12225.05825,W,007.26,281.4,271013,016.6,E,D*22
$PGRME,2.4,M,3.0,M,3.9,M*21
$IIRMB,A,0.00,L,,Shil,,,,,000.3,105,,V,A*7E
$HCHDG,255.4,0.0,E,,*2F
$YXXDR,A,5.1,D,PTCH,A,-15.3,D,ROLL*43
$IIRMC,210000,A,4741.170,N,12225.056,W,06.7,270,271013,16,E,A*1D
$GPRMC,210006.8,A,4741.17058,N,12225.05879,W,007.31,273.5,271013,016.6,E,D*26
$HCHDG,255.3,0.0,E,,*28
$PGRME,2.4,M,3.0,M,3.9,M*21
$HCHDG,255.1,0.0,E,,*2A
$HCHDG,255.1,0.0,E,,*2A
$GPRMC,210007.0,A,4741.17060,N,12225.05935,W,007.07,271.8,271013,016.6,E,D*27
$PGRME,2.4,M,3.0,M,3.9,M*21
$HCHDG,255.1,0.0,E,,*2A
$HCHDG,254.9,0.0,E,,*23
$GPRMC,210007.2,A,4741.17064,N,12225.05999,W,007.12,267.9,271013,016.6,E,D*25
$PGRME,2.4,M,3.1,M,3.9,M*20
$IIVHW,,,,,07.3,N,,*1D
$YXXDR,A,5.5,D,PTCH,A,-10.0,D,ROLL*41
$PTAK,FFD1,10.0*64
$IIVLW,06477,N,025.2,N*54
$HCHDG,254.8,0.0,E,,*22
$IIVWR,061,R,28.7,N,,,,*6B
$HCHDG,254.6,0.0,E,,*2C
$IIDPT,001.9,-1.0,*48
$GPRMC,210007.4,A,4741.17064,N,12225.06057,W,007.50,270.2,271013,016.6,E,D*20
$GPRMB,A,-0.00,L,Shil,Shil,4741.0830,N,12224.5670,W,0.3,105,-7.26,V*00
$PGRME,2.4,M,3.1,M,3.9,M*20
$HCHDG,254.6,0.0,E,,*2C
$IIGLL,4741.170,N,12225.058,W,210000,A,A*4A
$IIMTW,+09.0,C*31
$HCHDG,255.0,0.0,E,,*2B
$IIMWV,061,R,28.7,N,A*19
$GPRMC,210007.6,A,4741.17059,N,12225.06122,W,007.98,264.6,271013,016.6,E,D*2A
$PGRME,2.4,M,3.1,M,4.0,M*2E
$IIMWV,077,T,25.6,N,A*14
$HCHDG,255.2,0.0,E,,*29
$IIRMB,A,0.00,L,,Shil,,,,,000.3,105,,V,A*7E
$YXXDR,A,5.2,D,PTCH,A,-9.3,D,ROLL*7D
$GPRMC,210007.8,A,4741.17049,N,12225.06192,W,007.77,264.4,271013,016.6,E,D*2D
$HCHDG,255.7,0.0,E,,*2C
$PGRME,2.4,M,3.1,M,4.0,M*2E
$HCHDG,256.2,0.0,E,,*2A
$HCHDG,256.7,0.0,E,,*2F
$GPRMC,210008.0,A,4741.17042,N,12225.06262,W,008.05,264.7,271013,016.6,E,D*24
$PGRME,2.4,M,3.1,M,4.0,M*2E
$HCHDG,257.2,0.0,E,,*2B
$HCHDG,257.8,0.0,E,,*21
$GPRMC,210008.2,A,4741.17037,N,12225.06323,W,007.88,264.2,271013,016.6,E,D*2F
$PGRME,2.4,M,3.1,M,4.0,M*2E
$YXXDR,A,5.0,D,PTCH,A,-14.0,D,ROLL*40
$HCHDG,258.4,0.0,E,,*22
$IIRMC,210000,A,4741.170,N,12225.061,W,07.7,264,271013,16,E,A*1D
$HCHDG,258.8,0.0,E,,*2E
$IIVHW,,,,,07.4,N,,*1A
$GPRMC,210008.4,A,4741.17031,N,12225.06399,W,007.72,265.4,271013,016.6,E,D*2C
$PGRME,2.4,M,3.1,M,3.9,M*20
$IIVLW,06477,N,025.2,N*54
$HCHDG,259.0,0.0,E,,*27
$IIVWR,060,R,28.5,N,,,,*68
$IIDPT,002.1,-1.0,*43
$HCHDG,259.2,0.0,E,,*25
$GPRMC,210008.6,A,4741.17032,N,12225.06469,W,007.65,266.1,271013,016.6,E,D*25
$GPRMB,A,-0.00,L,Shil,Shil,4741.0830,N,12224.5670,W,0.3,105,-7.25,V*03
$PGRME,2.4,M,3.1,M,3.9,M*20
$IIGLL,4741.170,N,12225.061,W,210000,A,A*40
$HCHDG,259.3,0.0,E,,*24
$IIMTW,+09.0,C*31
$IIMWV,060,R,28.5,N,A*1A
$YXXDR,A,5.6,D,PTCH,A,-17.6,D,ROLL*43
$PTAK,FFD1,17.6*65
$IIMWV,075,T,25.7,N,A*17
$GPRMC,210008.8,A,4741.17025,N,12225.06526,W,007.65,264.8,271013,016.6,E,D*2C
$HCHDG,259.3,0.0,E,,*24
$PGRME,2.4,M,3.1,M,3.9,M*20
$HCHDG,259.4,0.0,E,,*23
$HCHDG,259.4,0.0,E,,*23
$GPRMC,210009.0,A,4741.17023,N,12225.06590,W,007.91,265.1,271013,016.6,E,D*2D
$PGRME,2.4,M,3.0,M,3.9,M*21
$HCHDG,259.9,0.0,E,,*2E
$HCHDG,259.9,0.0,E,,*2E
$GPRMC,210009.2,A,4741.17020,N,12225.06652,W,007.94,266.4,271013,016.6,E,D*22
$PGRME,2.4,M,3.0,M,3.9,M*21
$YXXDR,A,5.2,D,PTCH,A,-16.0,D,ROLL*40
$IIRMB,A,0.00,L,,Shil,,,,,000.3,105,,V,A*7E
$HCHDG,259.9,0.0,E,,*2E
$HCHDG,259.9,0.0,E,,*2E
$GPRMC,210009.4,A,4741.17018,N,12225.06721,W,007.97,265.3,271013,016.6,E,D*2D
$PGRME,2.4,M,3.0,M,3.9,M*21
$IIRMC,210000,A,4741.170,N,12225.065,W,07.6,264,271013,16,E,A*18
$HCHDG,260.1,0.0,E,,*2C
$IIVHW,,,,,07.5,N,,*1B
$IIVLW,06477,N,025.2,N*54
$HCHDG,259.7,0.0,E,,*20
$IIVWR,061,R,28.1,N,,,,*6D
$GPRMC,210009.6,A,4741.17015,N,12225.06792,W,007.80,265.6,271013,016.6,E,D*29
$GPRMB,A,-0.00,L,Shil,Shil,4741.0830,N,12224.5670,W,0.3,104,-7.38,V*0E
$PGRME,2.4,M,3.0,M,3.9,M*21
$IIDPT,001.9,-1.0,*48
$HCHDG,259.4,0.0,E,,*23
$IIGLL,4741.170,N,12225.065,W,210000,A,A*44
$YXXDR,A,5.2,D,PTCH,A,-17.7,D,ROLL*46
$IIMTW,+09.0,C*31
$GPRMC,210009.8,A,4741.17013,N,12225.06859,W,007.42,265.8,271013,016.6,E,D*29
$HCHDG,259.3,0.0,E,,*24
$PGRME,2.4,M,3.0,M,3.9,M*21
$HCHDG,259.1,0.0,E,,*26
$HCHDG,258.5,0.0,E,,*23
$GPRMC,210010.0,A,4741.17010,N,12225.06920,W,007.19,268.3,271013,016.6,E,D*2D
$PTAK,FFP1,HEEL,@*07
$PGRME,2.4,M,3.0,M,3.9,M*21
$HCHDG,258.0,0.0,E,,*26
$HCHDG,257.8,0.0,E,,*21
$GPRMC,210010.2,A,4741.17015,N,12225.06976,W,006.91,273.0,271013,016.6,E,D*21
$PGRME,2.4,M,3.1,M,3.9,M*20
$IIMWV,060,R,27.8,N,A*18
$YXXDR,A,4.8,D,PTCH,A,-21.3,D,ROLL*4C
$PTAK,FFD1,21.3*65
$IIMWV,076,T,25.1,N,A*12
$HCHDG,257.3,0.0,E,,*2A
$HCHDG,257.1,0.0,E,,*28
$IIRMB,A,0.00,L,,Shil,,,,,000.3,104,,V,A*7F
$GPRMC,210010.4,A,4741.17011,N,12225.07030,W,006.64,274.4,271013,016.6,E,D*20
$PGRME,2.4,M,3.1,M,3.9,M*20
$HCHDG,256.8,0.0,E,,*20
$IIRMC,210000,A,4741.170,N,12225.068,W,07.4,265,271013,16,E,A*16
$HCHDG,256.5,0.0,E,,*2D
$IIVHW,,,,,07.6,N,,*18
$GPRMC,210010.6,A,4741.17015,N,12225.07083,W,006.67,274.1,271013,016.6,E,D*28
$PGRME,2.4,M,3.1,M,3.9,M*20
$IIVLW,06477,N,025.2,N*54
$HCHDG,256.3,0.0,E,,*2B
$IIVWR,060,R,27.8,N,,,,*6A
$IIDPT,002.1,-1.0,*43
$YXXDR,A,4.0,D,PTCH,A,-16.9,D,ROLL*4A
$GPRMC,210010.8,A,4741.17006,N,12225.07141,W,006.68,272.7,271013,016.6,E,D*24
$GPRMB,A,-0.00,L,Shil,Shil,4741.0830,N,12224.5670,W,0.4,104,-6.54,V*02
$HCHDG,256.1,0.0,E,,*29
$PGRME,2.4,M,3.1,M,4.0,M*2E
$HCHDG,255.8,0.0,E,,*23
$HCHDG,255.6,0.0,E,,*2D
$GPRMC,210011.0,A,4741.17004,N,12225.07197,W,006.90,276.4,271013,016.6,E,D*24
$PGRME,2.4,M,3.1,M,4.0,M*2E
$HCHDG,255.3,0.0,E,,*28
$HCHDG,255.2,0.0,E,,*29
$GPRMC,210011.2,A,4741.17007,N,12225.07256,W,007.13,275.2,271013,016.6,E,D*24
$PGRME,2.4,M,3.2,M,4.0,M*2D
$YXXDR,A,4.6,D,PTCH,A,-11.9,D,ROLL*4B
$IIGLL,4741.170,N,12225.071,W,210000,A,A*41
$HCHDG,255.1,0.0,E,,*2A
$IIMTW,+09.0,C*31
$HCHDG,254.9,0.0,E,,*23
$IIMWV,061,R,28.0,N,A*1E
$GPRMC,210011.4,A,4741.17010,N,12225.07316,W,007.07,275.4,271013,016.6,E,D*22
$PGRME,2.4,M,3.1,M,4.0,M*2E
$IIMWV,075,T,24.9,N,A*18
$HCHDG,254.9,0.0,E,,*23
$IIRMB,A,0.00,L,,Shil,,,,,000.3,104,,V,A*7F
$HCHDG,254.9,0.0,E,,*23
$GPRMC,210011.6,A,4741.17011,N,12225.07379,W,007.02,276.8,271013,016.6,E,D*22
$PGRME,2.4,M,3.2,M,4.0,M*2D
$IIRMC,210000,A,4741.170,N,12225.071,W,06.6,272,271013,16,E,A*1B
$HCHDG,254.6,0.0,E,,*2C
$IIVHW,,,,,07.5,N,,*1B
$YXXDR,A,6.5,D,PTCH,A,-12.2,D,ROLL*42
$PTAK,FFD1,12.2*64
$IIVLW,06477,N,025.2,N*54
$GPRMC,210011.8,A,4741.17018,N,12225.07430,W,007.02,276.7,271013,016.6,E,D*20
$GPRMB,A,-0.00,L,Shil,Shil,4741.0830,N,12224.5670,W,0.4,104,-6.96,V*0C
$HCHDG,254.5,0.0,E,,*2F
$PGRME,2.4,M,3.1,M,4.0,M*2E
$HCHDG,254.3,0.0,E,,*29
$HCHDG,254.1,0.0,E,,*2B
$GPRMC,210012.0,A,4741.17020,N,12225.07484,W,007.29,274.1,271013,016.6,E,D*22
$PGRME,2.4,M,3.1,M,4.0,M*2E
$HCHDG,253.8,0.0,E,,*25
$HCHDG,253.3,0.0,E,,*2E
$GPRMC,210012.2,A,4741.17027,N,12225.07545,W,007.61,272.9,271013,016.6,E,D*29
$PGRME,2.4,M,3.1,M,4.0,M*2E
$IIVWR,063,R,28.5,N,,,,*6B
$YXXDR,A,6.5,D,PTCH,A,-9.3,D,ROLL*79
$IIDPT,002.1,-1.0,*43
$HCHDG,252.7,0.0,E,,*2B
$HCHDG,252.3,0.0,E,,*2F
$IIGLL,4741.170,N,12225.074,W,210000,A,A*44
$GPRMC,210012.4,A,4741.17027,N,12225.07600,W,007.55,266.5,271013,016.6,E,D*23
$PGRME,2.4,M,3.1,M,3.9,M*20
$IIMTW,+09.0,C*31
$HCHDG,251.4,0.0,E,,*2B
$IIMWV,063,R,28.5,N,A*19
$IIMWV,076,T,25.0,N,A*13
$HCHDG,250.7,0.0,E,,*29
$GPRMC,210012.6,A,4741.17029,N,12225.07658,W,007.96,270.2,271013,016.6,E,D*2D
$PGRME,2.4,M,3.1,M,3.9,M*20
$IIRMB,A,0.00,L,,Shil,,,,,000.4,104,,V,A*78
$HCHDG,250.2,0.0,E,,*2C
$YXXDR,A,6.0,D,PTCH,A,-7.4,D,ROLL*75
$IIRMC,210000,A,4741.170,N,12225.074,W,07.0,276,271013,16,E,A*1D
$HCHDG,249.6,0.0,E,,*20
$GPRMC,210012.8,A,4741.17025,N,12225.07719,W,007.96,264.1,271013,016.6,E,D*2D
$GPRMB,A,-0.00,L,Shil,Shil,4741.0830,N,12224.5670,W,0.4,104,-7.47,V*01
$PGRME,2.4,M,3.0,M,3.9,M*21
$HCHDG,249.1,0.0,E,,*27
$HCHDG,248.6,0.0,E,,*21
$GPRMC,210013.0,A,4741.17025,N,12225.07785,W,007.92,262.6,271013,016.6,E,D*24
$PGRME,2.4,M,3.0,M,3.9,M*21
$HCHDG,248.1,0.0,E,,*26
$HCHDG,247.8,0.0,E,,*20
$GPRMC,210013.2,A,4741.17021,N,12225.07851,W,007.75,261.3,271013,016.6,E,D*2B
$PGRME,2.4,M,3.0,M,3.9,M*21
$IIVHW,,,,,07.4,N,,*1A
$YXXDR,A,4.9,D,PTCH,A,-13.5,D,ROLL*4A
$PTAK,FFD1,13.5*62
$IIVLW,06477,N,025.2,N*54
$HCHDG,247.7,0.0,E,,*2F
$IIVWR,062,R,27.3,N,,,,*63
$HCHDG,247.5,0.0,E,,*2D
$IIDPT,002.1,-1.0,*43
$GPRMC,210013.4,A,4741.17009,N,12225.07913,W,007.70,256.4,271013,016.6,E,D*26
$PGRME,2.4,M,3.0,M,3.9,M*21
$HCHDG,247.4,0.0,E,,*2C
$IIGLL,4741.170,N,12225.077,W,210000,A,A*47
$IIMTW,+09.0,C*31
$HCHDG,247.3,0.0,E,,*2B
$IIMWV,062,R,27.3,N,A*11
$GPRMC,210013.6,A,4741.16998,N,12225.07965,W,007.50,254.9,271013,016.6,E,D*28
$PGRME,2.4,M,3.0,M,3.9,M*21
$IIMWV,078,T,25.8,N,A*15
$HCHDG,247.4,0.0,E,,*2C
$IIRMB,A,0.00,L,,Shil,,,,,000.4,104,,V,A*78
$YXXDR,A,4.1,D,PTCH,A,-18.2,D,ROLL*4E
$GPRMC,210013.8,A,4741.16988,N,12225.08026,W,007.75,256.6,271013,016.6,E,D*2C
$HCHDG,247.5,0.0,E,,*2D
$PGRME,2.4,M,3.0,M,3.9,M*21
$HCHDG,247.6,0.0,E,,*2E
$HCHDG,247.8,0.0,E,,*20
$GPRMC,210014.0,A,4741.16978,N,12225.08087,W,007.75,256.5,271013,016.6,E,D*24
$GPRMB,A,-0.00,L,Shil,Shil,4741.0830,N,12224.5670,W,0.4,104,-6.87,V*0C
$PTAK,FFP1,HEEL,@*07
$PGRME,2.4,M,3.0,M,3.8,M*20
$HCHDG,248.0,0.0,E,,*27
$HCHDG,248.2,0.0,E,,*25
$GPRMC,210014.2,A,4741.16967,N,12225.08153,W,007.78,260.5,271013,016.6,E,D*28
$PGRME,2.4,M,2.9,M,3.8,M*28
$YXXDR,A,3.7,D,PTCH,A,-22.5,D,ROLL*41
$HCHDG,248.3,0.0,E,,*24
$IIRMC,210000,A,4741.170,N,12225.077,W,07.9,264,271013,16,E,A*14
$HCHDG,248.4,0.0,E,,*23
$IIVHW,,,,,07.5,N,,*1B
$GPRMC,210014.4,A,4741.16953,N,12225.08214,W,007.81,261.5,271013,016.6,E,D*2E
$PGRME,2.4,M,2.9,M,3.8,M*28
$IIVLW,06477,N,025.2,N*54
$HCHDG,248.7,0.0,E,,*20
$IIVWR,062,R,26.7,N,,,,*66
$IIDPT,002.1,-1.0,*43
$HCHDG,249.0,0.0,E,,*26
$GPRMC,210014.6,A,4741.16951,N,12225.08278,W,008.06,259.4,271013,016.6,E,D*2E
$PGRME,2.4,M,2.8,M,3.7,M*26
$IIGLL,4741.170,N,12225.077,W,210000,A,A*47
$HCHDG,249.3,0.0,E,,*25
$IIMTW,+09.0,C*31
$IIMWV,062,R,26.7,N,A*14
$YXXDR,A,3.8,D,PTCH,A,-22.3,D,ROLL*48
$PTAK,FFD1,22.3*66
$IIMWV,078,T,24.5,N,A*19
$GPRMC,210014.8,A,4741.16943,N,12225.08352,W,008.29,256.8,271013,016.6,E,D*24
$HCHDG,249.6,0.0,E,,*20
$PGRME,2.4,M,2.8,M,3.7,M*26
$HCHDG,249.8,0.0,E,,*2E
$HCHDG,250.1,0.0,E,,*2F
$GPRMC,210015.0,A,4741.16931,N,12225.08418,W,007.88,254.9,271013,016.6,E,D*26
$PGRME,2.4,M,2.8,M,3.7,M*26
$HCHDG,250.2,0.0,E,,*2C
$HCHDG,250.5,0.0,E,,*2B
$GPRMC,210015.2,A,4741.16918,N,12225.08485,W,007.60,256.7,271013,016.6,E,D*21
$PGRME,2.4,M,2.8,M,3.7,M*26
$YXXDR,A,4.5,D,PTCH,A,-23.1,D,ROLL*41
$IIRMB,A,0.00,L,,Shil,,,,,000.4,104,,V,A*78
$HCHDG,250.5,0.0,E,,*2B
$HCHDG,250.8,0.0,E,,*26
$GPRMC,210015.4,A,4741.16926,N,12225.08570,W,008.12,266.1,271013,016.6,E,D*2E
$PGRME,2.4,M,2.8,M,3.7,M*26
$IIRMC,210000,A,4741.169,N,12225.080,W,07.7,256,271013,16,E,A*1B
$HCHDG,251.2,0.0,E,,*2D
$IIVHW,,,,,07.5,N,,*1B
$IIVLW,06477,N,025.2,N*54
$HCHDG,251.3,0.0,E,,*2C
$IIVWR,063,R,26.7,N,,,,*67
$GPRMC,210015.6,A,4741.16927,N,12225.08640,W,008.32,271.4,271013,016.6,E,D*2C
$GPRMB,A,-0.00,L,Shil,Shil,4741.0830,N,12224.5670,W,0.4,104,-8.12,V*0E
$PGRME,2.4,M,2.8,M,3.7,M*26
$IIDPT,002.1,-1.0,*43
$HCHDG,251.9,0.0,E,,*26
$IIGLL,4741.169,N,12225.080,W,210000,A,A*47
$YXXDR,A,3.6,D,PTCH,A,-25.3,D,ROLL*41
$PTAK,FFD1,25.3*61
$IIMTW,+09.0,C*31
$GPRMC,210015.8,A,4741.16929,N,12225.08711,W,007.61,271.3,271013,016.6,E,D*27
$HCHDG,252.0,0.0,E,,*2C
$PGRME,2.4,M,2.8,M,3.7,M*26
$HCHDG,252.2,0.0,E,,*2E
$HCHDG,252.2,0.0,E,,*2E
$GPRMC,210016.0,A,4741.16930,N,12225.08767,W,007.64,265.4,271013,016.6,E,D*22
$PGRME,2.4,M,2.7,M,3.7,M*29
$HCHDG,252.0,0.0,E,,*2C
$HCHDG,251.9,0.0,E,,*26
$GPRMC,210016.2,A,4741.16921,N,12225.08821,W,007.28,255.9,271013,016.6,E,D*2B
$PGRME,2.4,M,2.7,M,3.7,M*29
$IIMWV,063,R,26.7,N,A*15
$YXXDR,A,4.0,D,PTCH,A,-25.2,D,ROLL*41
$IIMWV,079,T,24.1,N,A*1C
$HCHDG,251.5,0.0,E,,*2A
$HCHDG,251.3,0.0,E,,*2C
$IIRMB,A,0.00,L,,Shil,,,,,000.4,104,,V,A*78
$GPRMC,210016.4,A,4741.16910,N,12225.08876,W,006.76,262.4,271013,016.6,E,D*2E
$PGRME,2.4,M,2.7,M,3.6,M*28
$HCHDG,251.0,0.0,E,,*2F
$IIRMC,210000,A,4741.169,N,12225.084,W,07.8,254,271013,16,E,A*12
$HCHDG,251.1,0.0,E,,*2E
$IIVHW,,,,,07.6,N,,*18
$GPRMC,210016.6,A,4741.16922,N,12225.08945,W,006.93,265.8,271013,016.6,E,D*2C
$PGRME,2.4,M,2.7,M,3.6,M*28
$IIVLW,06477,N,025.2,N*54
$HCHDG,250.9,0.0,E,,*27
$IIVWR,063,R,26.7,N,,,,*67
$IIDPT,002.1,-1.0,*43
$YXXDR,A,4.3,D,PTCH,A,-25.3,D,ROLL*43
$GPRMC,210016.8,A,4741.16921,N,12225.09010,W,007.51,269.3,271013,016.6,E,D*21
$GPRMB,A,-0.00,L,Shil,Shil,4741.0830,N,12224.5670,W,0.4,104,-7.27,V*07
$HCHDG,250.7,0.0,E,,*29
$PGRME,2.4,M,2.7,M,3.6,M*28
$HCHDG,250.5,0.0,E,,*2B
$HCHDG,250.1,0.0,E,,*2F
$GPRMC,210017.0,A,4741.16933,N,12225.09075,W,007.53,272.5,271013,016.6,E,D*26
$PGRME,2.4,M,2.7,M,3.6,M*28
$HCHDG,249.8,0.0,E,,*2E
$HCHDG,249.4,0.0,E,,*22
$GPRMC,210017.2,A,4741.16937,N,12225.09139,W,007.53,270.3,271013,016.6,E,D*2D
$PGRME,2.4,M,2.7,M,3.7,M*29
$YXXDR,A,4.1,D,PTCH,A,-17.8,D,ROLL*4B
$PTAK,FFD1,17.8*6B
$IIGLL,4741.169,N,12225.087,W,210000,A,A*40
$HCHDG,249.1,0.0,E,,*27
$IIMTW,+09.0,C*31
$HCHDG,248.8,0.0,E,,*2F
$IIMWV,065,R,27.3,N,A*16
$GPRMC,210017.4,A,4741.16934,N,12225.09196,W,007.54,266.4,271013,016.6,E,D*2A
$PGRME,2.4,M,2.7,M,3.7,M*29
$IIMWV,079,T,24.1,N,A*1C
$HCHDG,248.3,0.0,E,,*24
$IIRMB,A,0.00,L,,Shil,,,,,000.4,104,,V,A*78
$HCHDG,248.0,0.0,E,,*27
$GPRMC,210017.6,A,4741.16934,N,12225.09255,W,007.52,265.9,271013,016.6,E,D*2C
$PGRME,2.4,M,2.8,M,3.7,M*26
$IIRMC,210000,A,4741.169,N,12225.087,W,07.6,265,271013,16,E,A*1D
$HCHDG,247.7,0.0,E,,*2F
$IIVHW,,,,,07.7,N,,*19
$YXXDR,A,5.2,D,PTCH,A,-12.3,D,ROLL*47
$IIVLW,06477,N,025.2,N*54
$GPRMC,210017.8,A,4741.16933,N,12225.09319,W,007.56,266.5,271013,016.6,E,D*27
$GPRMB,A,-0.00,L,Shil,Shil,4741.0830,N,12224.5670,W,0.4,104,-7.22,V*02
$HCHDG,247.4,0.0,E,,*2C
$PGRME,2.4,M,2.8,M,3.7,M*26
$HCHDG,247.4,0.0,E,,*2C
$HCHDG,247.1,0.0,E,,*29
$GPRMC,210018.0,A,4741.16934,N,12225.09388,W,007.75,262.1,271013,016.6,E,D*2E
$PGRME,2.4,M,2.8,M,3.7,M*26
$HCHDG,247.1,0.0,E,,*29
$HCHDG,247.1,0.0,E,,*29
$GPRMC,210018.2,A,4741.16928,N,12225.09450,W,007.72,260.7,271013,016.6,E,D*20
$PGRME,2.4,M,2.8,M,3.7,M*26
$IIVWR,067,R,28.2,N,,,,*68
$YXXDR,A,5.2,D,PTCH,A,-13.6,D,ROLL*43
$PTAK,FFD1,13.6*61
$IIDPT,002.1,-1.0,*43
$HCHDG,247.1,0.0,E,,*29
$HCHDG,247.2,0.0,E,,*2A
$IIGLL,4741.169,N,12225.090,W,210000,A,A*46
$GPRMC,210018.4,A,4741.16918,N,12225.09514,W,008.10,256.7,271013,016.6,E,D*2A
$PGRME,2.4,M,2.8,M,3.7,M*26
$IIMTW,+09.0,C*31
$HCHDG,247.1,0.0,E,,*29
$PTAK,FFP1,HEEL,@*07
$IIMWV,067,R,28.2,N,A*1A
$IIMWV,081,T,25.0,N,A*1B
$HCHDG,247.4,0.0,E,,*2C
$GPRMC,210018.6,A,4741.16907,N,12225.09577,W,008.12,254.3,271013,016.6,E,D*27
$PGRME,2.4,M,2.8,M,3.7,M*26
$IIRMB,A,0.00,L,,Shil,,,,,000.4,104,,V,A*78
$HCHDG,247.6,0.0,E,,*2E
$YXXDR,A,5.3,D,PTCH,A,-13.6,D,ROLL*42
$IIRMC,210000,A,4741.169,N,12225.090,W,07.5,272,271013,16,E,A*1E
$GPRMC,210018.8,A,4741.16898,N,12225.09643,W,008.16,253.4,271013,016.6,E,D*2E
$GPRMB,A,-0.00,L,Shil,Shil,4741.0830,N,12224.5670,W,0.4,104,-7.06,V*04
$HCHDG,247.4,0.0,E,,*2C
$PGRME,2.4,M,2.8,M,3.7,M*26
$HCHDG,247.5,0.0,E,,*2D
$HCHDG,247.8,0.0,E,,*20
$GPRMC,210019.0,A,4741.16892,N,12225.09703,W,008.12,255.6,271013,016.6,E,D*28
$PGRME,2.4,M,2.9,M,3.8,M*28
$HCHDG,247.9,0.0,E,,*21
$HCHDG,248.0,0.0,E,,*27
$GPRMC,210019.2,A,4741.16897,N,12225.09771,W,007.79,257.4,271013,016.6,E,D*28
$PGRME,2.4,M,2.8,M,3.7,M*26
$IIVHW,,,,,07.8,N,,*16
$YXXDR,A,4.5,D,PTCH,A,-18.7,D,ROLL*4F
$IIVLW,06477,N,025.2,N*54
$HCHDG,248.5,0.0,E,,*22
$IIVWR,066,R,27.4,N,,,,*60
$HCHDG,249.1,0.0,E,,*27
$GPRMC,210019.4,A,4741.16892,N,12225.09827,W,007.86,261.5,271013,016.6,E,D*23
$IIDPT,002.1,-1.0,*43
$PGRME,2.4,M,2.9,M,3.8,M*28
$HCHDG,249.2,0.0,E,,*24
$IIGLL,4741.169,N,12225.093,W,210000,A,A*45
$IIMTW,+09.0,C*31
$HCHDG,249.9,0.0,E,,*2F
$IIMWV,066,R,27.4,N,A*12
$GPRMC,210019.6,A,4741.16887,N,12225.09887,W,007.92,264.6,271013,016.6,E,D*2C
$PGRME,2.4,M,2.9,M,3.8,M*28
$IIMWV,083,T,26.0,N,A*1A
$HCHDG,250.3,0.0,E,,*2D
$IIRMB,A,0.00,L,,Shil,,,,,000.4,104,,V,A*78
$YXXDR,A,3.2,D,PTCH,A,-24.6,D,ROLL*41
$PTAK,FFD1,24.6*65
$GPRMC,210019.8,A,4741.16886,N,12225.09955,W,008.15,264.6,271013,016.6,E,D*2D
$HCHDG,250.5,0.0,E,,*2B
$PGRME,2.4,M,2.9,M,3.8,M*28
$HCHDG,250.5,0.0,E,,*2B
$HCHDG,250.7,0.0,E,,*29
$GPRMC,210020.0,A,4741.16888,N,12225.10023,W,008.33,265.5,271013,016.6,E,D*27
$GPRMB,A,-0.00,L,Shil,Shil,4741.0830,N,12224.5670,W,0.4,103,-7.92,V*0E
$PGRME,2.4,M,2.8,M,3.7,M*26
$HCHDG,250.5,0.0,E,,*2B
$HCHDG,250.3,0.0,E,,*2D
$GPRMC,210020.2,A,4741.16889,N,12225.10092,W,008.29,266.3,271013,016.6,E,D*20
$PGRME,2.4,M,2.8,M,3.7,M*26
$YXXDR,A,5.0,D,PTCH,A,-21.9,D,ROLL*4F
$HCHDG,250.3,0.0,E,,*2D
$IIRMC,210000,A,4741.168,N,12225.097,W,08.1,255,271013,16,E,A*16
$HCHDG,250.0,0.0,E,,*2E
$IIVHW,,,,,07.8,N,,*16
$GPRMC,210020.4,A,4741.16886,N,12225.10155,W,008.10,264.9,271013,016.6,E,D*21
$PGRME,2.4,M,2.8,M,3.7,M*26
$IIVLW,06477,N,025.2,N*54
$HCHDG,249.8,0.0,E,,*2E
$IIVWR,064,R,26.4,N,,,,*63
$IIDPT,001.9,-1.0,*48
$HCHDG,249.6,0.0,E,,*20
$GPRMC,210020.6,A,4741.16886,N,12225.10220,W,008.15,266.7,271013,016.6,E,D*2B
$PGRME,2.4,M,2.8,M,3.7,M*26
$IIGLL,4741.168,N,12225.097,W,210000,A,A*40
$HCHDG,249.4,0.0,E,,*22
$IIMTW,+09.0,C*31
$IIMWV,064,R,26.4,N,A*11
$YXXDR,A,5.2,D,PTCH,A,-19.2,D,ROLL*4D
$IIMWV,082,T,25.1,N,A*19
$GPRMC,210020.8,A,4741.16886,N,12225.10286,W,008.39,265.8,271013,016.6,E,D*2B
$HCHDG,249.3,0.0,E,,*25
$PGRME,2.4,M,2.9,M,3.8,M*28
$HCHDG,248.9,0.0,E,,*2E
$HCHDG,248.6,0.0,E,,*21
$GPRMC,210021.0,A,4741.16889,N,12225.10368,W,008.54,261.7,271013,016.6,E,D*2C
$PGRME,2.4,M,2.9,M,3.8,M*28
$HCHDG,248.0,0.0,E,,*27
$HCHDG,247.3,0.0,E,,*2B
$GPRMC,210021.2,A,4741.16873,N,12225.10440,W,008.48,259.4,271013,016.6,E,D*23
$GPRMB,A,-0.00,L,Shil,Shil,4741.0830,N,12224.5670,W,0.4,103,-7.75,V*07
$PGRME,2.4,M,2.9,M,3.8,M*28
$YXXDR,A,5.4,D,PTCH,A,-14.8,D,ROLL*4C
$PTAK,FFD1,14.8*68
$IIRMB,A,0.00,L,,Shil,,,,,000.4,103,,V,A*7F
$HCHDG,247.0,0.0,E,,*28
$HCHDG,246.4,0.0,E,,*2D
$GPRMC,210021.4,A,4741.16864,N,12225.10499,W,008.46,257.3,271013,016.6,E,D*20
$PGRME,2.4,M,2.9,M,3.8,M*28
$IIRMC,210000,A,4741.168,N,12225.100,W,08.3,265,271013,16,E,A*18
$IIVHW,,,,,07.9,N,,*17
$HCHDG,245.9,0.0,E,,*23
$IIVLW,06477,N,025.2,N*54
$HCHDG,245.4,0.0,E,,*2E
$IIVWR,063,R,25.4,N,,,,*67
$GPRMC,210021.6,A,4741.16850,N,12225.10556,W,008.19,258.8,271013,016.6,E,D*29
$PGRME,2.4,M,2.9,M,3.8,M*28
$IIDPT,002.1,-1.0,*43
$HCHDG,244.8,0.0,E,,*23
$IIGLL,4741.168,N,12225.100,W,210000,A,A*4F
$YXXDR,A,4.7,D,PTCH,A,-17.8,D,ROLL*4D
$IIMTW,+09.0,C*31
$HCHDG,244.1,0.0,E,,*2A
$GPRMC,210021.8,A,4741.16840,N,12225.10620,W,008.22,257.1,271013,016.6,E,D*2A
$PGRME,2.4,M,2.9,M,3.8,M*28
$HCHDG,243.7,0.0,E,,*2B
$HCHDG,243.3,0.0,E,,*2F
$GPRMC,210022.0,A,4741.16830,N,12225.10681,W,008.04,260.1,271013,016.6,E,D*2D
$PGRME,2.4,M,2.8,M,3.7,M*26
$HCHDG,243.1,0.0,E,,*2D
$HCHDG,243.1,0.0,E,,*2D
$GPRMC,210022.2,A,4741.16818,N,12225.10750,W,008.02,258.2,271013,016.6,E,D*26
$PGRME,2.4,M,2.8,M,3.7,M*26
$IIMWV,065,R,24.5,N,A*13
$YXXDR,A,4.1,D,PTCH,A,-19.1,D,ROLL*4C
$IIMWV,081,T,22.8,N,A*14
$HCHDG,242.8,0.0,E,,*25
$HCHDG,242.5,0.0,E,,*28
$IIRMB,A,0.00,L,,Shil,,,,,000.4,103,,V,A*7F
$GPRMC,210022.4,A,4741.16806,N,12225.10815,W,008.40,256.0,271013,016.6,E,D*2B
$GPRMB,A,-0.00,L,Shil,Shil,4741.0830,N,12224.5670,W,0.4,103,-7.48,V*09
$PGRME,2.4,M,2.7,M,3.7,M*29
$HCHDG,242.4,0.0,E,,*29
$PTAK,FFP1,HEEL,@*07
$IIRMC,210000,A,4741.168,N,12225.103,W,08.5,261,271013,16,E,A*19
$HCHDG,242.0,0.0,E,,*2D
$IIVHW,,,,,07.8,N,,*16
$GPRMC,210022.6,A,4741.16798,N,12225.10882,W,007.78,257.9,271013,016.6,E,D*23
$PGRME,2.4,M,2.7,M,3.7,M*29
$IIVLW,06477,N,025.2,N*54
$HCHDG,241.9,0.0,E,,*27
$IIVWR,065,R,24.5,N,,,,*61
$IIDPT,002.1,-1.0,*43
$YXXDR,A,5.4,D,PTCH,A,-16.7,D,ROLL*41
$PTAK,FFD1,16.7*65
$GPRMC,210022.8,A,4741.16794,N,12225.10947,W,007.71,261.1,271013,016.6,E,D*2D
$HCHDG,241.6,0.0,E,,*28
$PGRME,2.4,M,2.6,M,3.6,M*29
$HCHDG,241.8,0.0,E,,*26
$HCHDG,241.9,0.0,E,,*27
$GPRMC,210023.0,A,4741.16789,N,12225.11006,W,007.74,262.1,271013,016.6,E,D*23
$PGRME,2.4,M,2.6,M,3.6,M*29
$HCHDG,241.8,0.0,E,,*26
$HCHDG,241.6,0.0,E,,*28
$GPRMC,210023.2,A,4741.16783,N,12225.11068,W,007.73,265.7,271013,016.6,E,D*25
$PGRME,2.4,M,2.5,M,3.5,M*29
$YXXDR,A,3.1,D,PTCH,A,-13.6,D,ROLL*46
$IIGLL,4741.168,N,12225.106,W,210000,A,A*49
$HCHDG,241.7,0.0,E,,*29
$IIMTW,+09.0,C*31
$HCHDG,241.9,0.0,E,,*27
$IIMWV,067,R,23.9,N,A*1A
$GPRMC,210023.4,A,4741.16775,N,12225.11128,W,007.76,257.7,271013,016.6,E,D*2B
$PGRME,2.4,M,2.6,M,3.5,M*2A
$IIMWV,084,T,22.3,N,A*1A
$HCHDG,241.9,0.0,E,,*27
$IIRMB,A,0.00,L,,Shil,,,,,000.4,103,,V,A*7F
$HCHDG,242.2,0.0,E,,*2F
$GPRMC,210023.6,A,4741.16761,N,12225.11186,W,007.72,252.6,271013,016.6,E,D*28
$GPRMB,A,-0.00,L,Shil,Shil,4741.0830,N,12224.5670,W,0.4,103,-6.66,V*04
$PGRME,2.4,M,2.6,M,3.6,M*29
$IIRMC,210000,A,4741.168,N,12225.106,W,08.0,260,271013,16,E,A*18
$HCHDG,242.0,0.0,E,,*2D
$IIVHW,,,,,07.9,N,,*17
$YXXDR,A,6.3,D,PTCH,A,-9.9,D,ROLL*75
$PTAK,FFD1,9.9*55
$IIVLW,06477,N,025.2,N*54
$HCHDG,242.2,0.0,E,,*2F
$GPRMC,210023.8,A,4741.16748,N,12225.11242,W,007.69,254.8,271013,016.6,E,D*24
$PGRME,2.4,M,2.6,M,3.6,M*29
$HCHDG,242.3,0.0,E,,*2E
$HCHDG,242.8,0.0,E,,*25
$GPRMC,210024.0,A,4741.16739,N,12225.11311,W,007.92,260.7,271013,016.6,E,D*26
$PGRME,2.4,M,2.7,M,3.6,M*28
$HCHDG,243.2,0.0,E,,*2E
$HCHDG,243.7,0.0,E,,*2B
$GPRMC,210024.2,A,4741.16733,N,12225.11384,W,008.32,262.2,271013,016.6,E,D*20
$PGRME,2.4,M,2.7,M,3.6,M*28
$IIVWR,069,R,24.7,N,,,,*6F
$YXXDR,A,6.0,D,PTCH,A,-10.6,D,ROLL*41
$IIDPT,001.4,-1.0,*45
$HCHDG,243.8,0.0,E,,*24
$HCHDG,243.9,0.0,E,,*25
$IIGLL,4741.167,N,12225.110,W,210000,A,A*41
$GPRMC,210024.4,A,4741.16730,N,12225.11451,W,008.07,264.0,271013,016.6,E,D*28
$PGRME,2.4,M,2.7,M,3.7,M*29
$IIMTW,+08.5,C*35
$HCHDG,243.9,0.0,E,,*25
$IIMWV,069,R,24.7,N,A*1D
$IIMWV,086,T,21.9,N,A*11
$HCHDG,243.6,0.0,E,,*2A
$GPRMC,210024.6,A,4741.16725,N,12225.11524,W,008.13,260.9,271013,016.6,E,D*25
$PGRME,2.4,M,2.8,M,3.7,M*26
$IIRMB,A,0.00,L,,Shil,,,,,000.4,103,,V,A*7F
$HCHDG,243.1,0.0,E,,*2D
$YXXDR,A,5.8,D,PTCH,A,-7.1,D,ROLL*7B
$IIRMC,210000,A,4741.167,N,12225.110,W,07.7,262,271013,16,E,A*1A
$GPRMC,210024.8,A,4741.16713,N,12225.11586,W,008.52,250.9,271013,016.6,E,D*20
$GPRMB,A,-0.00,L,Shil,Shil,4741.0830,N,12224.5670,W,0.4,103,-7.23,V*04
$HCHDG,242.6,0.0,E,,*2B
$PGRME,2.4,M,2.8,M,3.7,M*26
$HCHDG,242.4,0.0,E,,*29
$HCHDG,242.2,0.0,E,,*2F
$GPRMC,210025.0,A,4741.16703,N,12225.11656,W,008.11,248.4,271013,016.6,E,D*25
$PGRME,2.4,M,2.8,M,3.7,M*26
$HCHDG,242.0,0.0,E,,*2D
$HCHDG,242.4,0.0,E,,*29
$GPRMC,210025.2,A,4741.16685,N,12225.11719,W,008.61,248.4,271013,016.6,E,D*25
$PGRME,2.4,M,2.8,M,3.7,M*26
$IIVHW,,,,,08.2,N,,*13
$YXXDR,A,5.5,D,PTCH,A,-9.6,D,ROLL*7F
$PTAK,FFD1,9.6*5A
$IIVLW,06477,N,025.2,N*54
$HCHDG,242.7,0.0,E,,*2A
$IIVWR,068,R,24.3,N,,,,*6A
$HCHDG,242.8,0.0,E,,*25
$IIDPT,001.5,-1.0,*44
$GPRMC,210025.4,A,4741.16659,N,12225.11782,W,008.30,245.9,271013,016.6,E,D*24
$PGRME,2.4,M,2.8,M,3.7,M*26
$HCHDG,243.0,0.0,E,,*2C
$IIGLL,4741.167,N,12225.113,W,210000,A,A*42
$IIMTW,+09.0,C*31
$HCHDG,243.5,0.0,E,,*29
$IIMWV,068,R,24.3,N,A*18
$GPRMC,210025.6,A,4741.16641,N,12225.11844,W,008.55,249.8,271013,016.6,E,D*24
$PGRME,2.4,M,2.8,M,3.7,M*26
$IIMWV,088,T,22.9,N,A*1C
$HCHDG,243.8,0.0,E,,*24
$IIRMB,A,0.00,L,,Shil,,,,,000.4,103,,V,A*7F
$YXXDR,A,5.5,D,PTCH,A,-13.4,D,ROLL*46
$GPRMC,210025.8,A,4741.16621,N,12225.11902,W,008.16,250.8,271013,016.6,E,D*20
$HCHDG,244.4,0.0,E,,*2F
$PGRME,2.4,M,2.8,M,3.7,M*26
$HCHDG,244.9,0.0,E,,*22
$HCHDG,245.4,0.0,E,,*2E
$GPRMC,210026.0,A,4741.16606,N,12225.11970,W,007.98,254.8,271013,016.6,E,D*26
$GPRMB,A,-0.00,L,Shil,Shil,4741.0830,N,12224.5670,W,0.4,103,-7.06,V*03
$PGRME,2.4,M,2.8,M,3.7,M*26
$HCHDG,246.1,0.0,E,,*28
$HCHDG,246.6,0.0,E,,*2F
$GPRMC,210026.2,A,4741.16599,N,12225.12041,W,008.05,256.6,271013,016.6,E,D*2E
$PGRME,2.4,M,2.8,M,3.7,M*26
$YXXDR,A,4.9,D,PTCH,A,-21.4,D,ROLL*4A
$PTAK,FFD1,21.4*62
$HCHDG,246.7,0.0,E,,*2E
$IIRMC,210000,A,4741.167,N,12225.116,W,08.1,248,271013,16,E,A*1D
$HCHDG,246.8,0.0,E,,*21
$IIVHW,,,,,08.1,N,,*10
$GPRMC,210026.4,A,4741.16589,N,12225.12100,W,007.97,258.4,271013,016.6,E,D*25
$PGRME,2.4,M,2.8,M,3.7,M*26
$IIVLW,06477,N,025.2,N*54
$HCHDG,247.0,0.0,E,,*28
$IIVWR,067,R,23.8,N,,,,*69
$IIDPT,001.5,-1.0,*44
$HCHDG,247.1,0.0,E,,*29
$GPRMC,210026.6,A,4741.16582,N,12225.12158,W,007.90,259.7,271013,016.6,E,D*24
$PGRME,2.4,M,2.8,M,3.7,M*26
$IIGLL,4741.167,N,12225.116,W,210000,A,A*47
$HCHDG,247.1,0.0,E,,*29
$PTAK,FFP1,HEEL,@*07
$IIMTW,+09.0,C*31
$IIMWV,067,R,23.8,N,A*1B
$YXXDR,A,4.9,D,PTCH,A,-19.9,D,ROLL*4C
$IIMWV,088,T,22.5,N,A*10
$GPRMC,210026.8,A,4741.16573,N,12225.12233,W,007.93,261.1,271013,016.6,E,D*24
$HCHDG,247.0,0.0,E,,*28
$PGRME,2.4,M,2.8,M,3.7,M*26
$HCHDG,246.9,0.0,E,,*20
$HCHDG,247.1,0.0,E,,*29
$GPRMC,210027.0,A,4741.16569,N,12225.12300,W,007.64,260.9,271013,016.6,E,D*26
$PGRME,2.4,M,2.8,M,3.7,M*26
$HCHDG,246.9,0.0,E,,*20
$HCHDG,246.9,0.0,E,,*20
$GPRMC,210027.2,A,4741.16566,N,12225.12353,W,007.30,260.6,271013,016.6,E,D*23
$GPRMB,A,-0.00,L,Shil,Shil,4741.0830,N,12224.5670,W,0.4,102,-6.78,V*0A
$PGRME,2.4,M,2.8,M,3.7,M*26
$YXXDR,A,5.9,D,PTCH,A,-15.7,D,ROLL*4F
$PTAK,FFD1,15.7*66
$IIRMB,A,0.00,L,,Shil,,,,,000.4,103,,V,A*7F
$HCHDG,246.9,0.0,E,,*20
$HCHDG,247.1,0.0,E,,*29
$GPRMC,210027.4,A,4741.16564,N,12225.12418,W,007.55,264.4,271013,016.6,E,D*2A
$PGRME,2.4,M,2.7,M,3.7,M*29
$IIRMC,210000,A,4741.166,N,12225.119,W,07.9,254,271013,16,E,A*19
$IIVHW,,,,,08.0,N,,*11
$HCHDG,247.3,0.0,E,,*2B
$IIVLW,06477,N,025.3,N*55
$HCHDG,247.6,0.0,E,,*2E
$IIVWR,067,R,24.3,N,,,,*65
$GPRMC,210027.6,A,4741.16559,N,12225.12482,W,007.52,264.5,271013,016.6,E,D*23
$PGRME,2.4,M,2.7,M,3.6,M*28
$IIDPT,001.5,-1.0,*44
$HCHDG,247.8,0.0,E,,*20
$IIGLL,4741.166,N,12225.119,W,210000,A,A*49
$YXXDR,A,5.8,D,PTCH,A,-14.5,D,ROLL*4D
$IIMTW,+09.0,C*31
$GPRMC,210027.8,A,4741.16560,N,12225.12547,W,007.68,265.9,271013,016.6,E,D*2B
$HCHDG,248.0,0.0,E,,*27
$PGRME,2.4,M,2.7,M,3.6,M*28
$HCHDG,248.2,0.0,E,,*25
$HCHDG,248.4,0.0,E,,*23
$GPRMC,210028.0,A,4741.16556,N,12225.12611,W,007.62,266.5,271013,016.6,E,D*2C
$PGRME,2.4,M,2.7,M,3.6,M*28
$HCHDG,248.2,0.0,E,,*25
$HCHDG,248.4,0.0,E,,*23
$GPRMC,210028.2,A,4741.16552,N,12225.12665,W,007.61,265.0,271013,016.6,E,D*2C
$PGRME,2.4,M,2.7,M,3.7,M*29
$IIMWV,066,R,25.0,N,A*14
$YXXDR,A,5.4,D,PTCH,A,-12.0,D,ROLL*42
$IIMWV,087,T,22.3,N,A*19
$HCHDG,248.3,0.0,E,,*24
$HCHDG,248.4,0.0,E,,*23
$IIRMB,A,0.00,L,,Shil,,,,,000.4,102,,V,A*7E
$GPRMC,210028.4,A,4741.16547,N,12225.12721,W,007.61,263.4,271013,016.6,E,D*2D
$GPRMB,A,-0.00,L,Shil,Shil,4741.0830,N,12224.5670,W,0.4,102,-7.20,V*06
$PGRME,2.4,M,2.8,M,3.7,M*26
$HCHDG,248.6,0.0,E,,*21
$IIRMC,210000,A,4741.165,N,12225.123,W,07.3,260,271013,16,E,A*1E
$HCHDG,248.7,0.0,E,,*20
$IIVHW,,,,,07.9,N,,*17
$GPRMC,210028.6,A,4741.16540,N,12225.12780,W,007.62,264.7,271013,016.6,E,D*24
$PGRME,2.4,M,2.8,M,3.7,M*26
$IIVLW,06477,N,025.3,N*55
$HCHDG,249.2,0.0,E,,*24
$IIVWR,066,R,25.0,N,,,,*66
$IIDPT,001.5,-1.0,*44
$YXXDR,A,5.6,D,PTCH,A,-10.7,D,ROLL*45
$PTAK,FFD1,10.7*63
$GPRMC,210028.8,A,4741.16533,N,12225.12842,W,007.66,266.0,271013,016.6,E,D*2E
$HCHDG,249.2,0.0,E,,*24
$PGRME,2.4,M,2.8,M,3.7,M*26
$HCHDG,249.5,0.0,E,,*23
$HCHDG,249.6,0.0,E,,*20
$GPRMC,210029.0,A,4741.16526,N,12225.12905,W,007.89,266.5,271013,016.6,E,D*25
$PGRME,2.4,M,2.8,M,3.7,M*26
$HCHDG,249.7,0.0,E,,*21
$HCHDG,249.8,0.0,E,,*2E
$GPRMC,210029.2,A,4741.16511,N,12225.12960,W,007.91,264.0,271013,016.6,E,D*2E
$PGRME,2.4,M,2.8,M,3.7,M*26
$YXXDR,A,6.4,D,PTCH,A,-10.3,D,ROLL*40
$IIGLL,4741.165,N,12225.126,W,210000,A,A*46
$HCHDG,249.9,0.0,E,,*2F
$IIMTW,+09.0,C*31
$HCHDG,250.1,0.0,E,,*2F
$IIMWV,067,R,25.8,N,A*1D
$GPRMC,210029.4,A,4741.16508,N,12225.13018,W,007.69,265.3,271013,016.6,E,D*22
$PGRME,2.4,M,2.8,M,3.7,M*26
$IIMWV,085,T,22.8,N,A*10
$HCHDG,250.1,0.0,E,,*2F
$IIRMB,A,0.00,L,,Shil,,,,,000.4,102,,V,A*7E
$HCHDG,250.0,0.0,E,,*2E
$GPRMC,210029.6,A,4741.16502,N,12225.13080,W,007.91,263.1,271013,016.6,E,D*28
$GPRMB,A,-0.00,L,Shil,Shil,4741.0830,N,12224.5670,W,0.4,102,-7.47,V*07
$PGRME,2.4,M,2.8,M,3.7,M*26
$IIRMC,210000,A,4741.165,N,12225.126,W,07.6,265,271013,16,E,A*1B
$HCHDG,249.9,0.0,E,,*2F
$IIVHW,,,,,08.0,N,,*11
$YXXDR,A,5.6,D,PTCH,A,-9.5,D,ROLL*7F
$PTAK,FFD1,9.5*59
$IIVLW,06477,N,025.3,N*55
$GPRMC,210029.8,A,4741.16497,N,12225.13152,W,007.90,261.8,271013,016.6,E,D*2F
$HCHDG,250.0,0.0,E,,*2E
$PGRME,2.4,M,2.8,M,3.7,M*26
$HCHDG,249.9,0.0,E,,*2F
$HCHDG,249.7,0.0,E,,*21
$GPRMC,210030.0,A,4741.16488,N,12225.13218,W,007.97,261.4,271013,016.6,E,D*27
$PGRME,2.4,M,2.8,M,3.7,M*26
$HCHDG,249.5,0.0,E,,*23
$HCHDG,249.3,0.0,E,,*25
$GPRMC,210030.2,A,4741.16480,N,12225.13278,W,007.91,259.2,271013,016.6,E,D*20
$PGRME,2.4,M,2.7,M,3.7,M*29
$IIVWR,067,R,25.4,N,,,,*63
$YXXDR,A,5.9,D,PTCH,A,-9.2,D,ROLL*77
$IIDPT,001.5,-1.0,*44
$HCHDG,249.4,0.0,E,,*22
$HCHDG,249.4,0.0,E,,*22
$IIGLL,4741.165,N,12225.129,W,210000,A,A*49
$GPRMC,210030.4,A,4741.16474,N,12225.13347,W,007.89,259.2,271013,016.6,E,D*29
$GPRMB,A,-0.00,L,Shil,Shil,4741.0830,N,12224.5670,W,0.4,102,-7.27,V*01
$PTAK,FFP1,HEEL,@*07
$PGRME,2.4,M,2.7,M,3.6,M*28
$IIMTW,+09.0,C*31
$HCHDG,249.2,0.0,E,,*24
$IIMWV,067,R,25.4,N,A*11
$IIMWV,085,T,23.7,N,A*1E
$HCHDG,249.4,0.0,E,,*22
$GPRMC,210030.6,A,4741.16472,N,12225.13410,W,007.93,261.9,271013,016.6,E,D*23
$PGRME,2.4,M,2.7,M,3.6,M*28
$IIRMB,A,0.00,L,,Shil,,,,,000.4,102,,V,A*7E
$HCHDG,249.6,0.0,E,,*20
$YXXDR,A,6.0,D,PTCH,A,-10.6,D,ROLL*41
$PTAK,FFD1,10.6*62
$IIRMC,210000,A,4741.165,N,12225.129,W,07.9,264,271013,16,E,A*1A
$GPRMC,210030.8,A,4741.16463,N,12225.13471,W,008.10,256.8,271013,016.6,E,D*2B
$HCHDG,249.8,0.0,E,,*2E
$PGRME,2.4,M,2.7,M,3.6,M*28
$HCHDG,249.9,0.0,E,,*2F
$HCHDG,250.3,0.0,E,,*2D
$GPRMC,210031.0,A,4741.16446,N,12225.13535,W,008.03,257.9,271013,016.6,E,D*26
$PGRME,2.4,M,2.6,M,3.6,M*29
$HCHDG,250.3,0.0,E,,*2D
$HCHDG,250.3,0.0,E,,*2D
$GPRMC,210031.2,A,4741.16444,N,12225.13595,W,007.96,260.3,271013,016.6,E,D*21
$PGRME,2.4,M,2.6,M,3.6,M*29
$IIVHW,,,,,07.8,N,,*16
$YXXDR,A,6.1,D,PTCH,A,-12.6,D,ROLL*42
$IIVLW,06477,N,025.3,N*55
$HCHDG,250.6,0.0,E,,*28
$IIVWR,067,R,24.8,N,,,,*6E
$HCHDG,250.6,0.0,E,,*28
$IIDPT,001.5,-1.0,*44
$GPRMC,210031.4,A,4741.16440,N,12225.13662,W,007.90,261.8,271013,016.6,E,D*24
$PGRME,2.4,M,2.6,M,3.6,M*29
$HCHDG,250.8,0.0,E,,*26
$IIGLL,4741.164,N,12225.132,W,210000,A,A*42
$IIMTW,+09.0,C*31
$HCHDG,251.0,0.0,E,,*2F
$IIMWV,067,R,24.8,N,A*1C
$GPRMC,210031.6,A,4741.16434,N,12225.13733,W,007.91,261.0,271013,016.6,E,D*29
$PGRME,2.4,M,2.6,M,3.6,M*29
$IIMWV,085,T,23.3,N,A*1A
$HCHDG,250.9,0.0,E,,*27
$IIRMB,A,0.00,L,,Shil,,,,,000.4,102,,V,A*7E
$YXXDR,A,5.7,D,PTCH,A,-15.6,D,ROLL*40
$GPRMC,210031.8,A,4741.16432,N,12225.13806,W,007.56,266.0,271013,016.6,E,D*24
$GPRMB,A,-0.00,L,Shil,Shil,4741.0830,N,12224.5670,W,0.4,102,-7.27,V*01
$HCHDG,251.0,0.0,E,,*2F
$PGRME,2.4,M,2.6,M,3.5,M*2A
$HCHDG,251.1,0.0,E,,*2E
$HCHDG,250.9,0.0,E,,*27
$GPRMC,210032.0,A,4741.16426,N,12225.13875,W,007.60,264.2,271013,016.6,E,D*2B
$PGRME,2.4,M,2.5,M,3.5,M*29
$HCHDG,250.8,0.0,E,,*26
$HCHDG,250.8,0.0,E,,*26
$GPRMC,210032.2,A,4741.16421,N,12225.13944,W,007.60,265.2,271013,016.6,E,D*2C
$PGRME,2.4,M,2.5,M,3.5,M*29
$YXXDR,A,5.7,D,PTCH,A,-13.1,D,ROLL*41
$PTAK,FFD1,13.1*66
$HCHDG,250.7,0.0,E,,*29
$IIRMC,210000,A,4741.164,N,12225.135,W,07.9,260,271013,16,E,A*12
$HCHDG,250.6,0.0,E,,*28
$IIVHW,,,,,07.8,N,,*16
$GPRMC,210032.4,A,4741.16410,N,12225.14009,W,007.28,263.1,271013,016.6,E,D*26
$PGRME,2.4,M,2.5,M,3.5,M*29
$IIVLW,06477,N,025.3,N*55
$HCHDG,250.5,0.0,E,,*2B
$IIVWR,067,R,24.8,N,,,,*6E
$IIDPT,001.5,-1.0,*44
$HCHDG,250.4,0.0,E,,*2A
$GPRMC,210032.6,A,4741.16410,N,12225.14081,W,007.34,262.6,271013,016.6,E,D*2F
$PGRME,2.4,M,2.5,M,3.5,M*29
$IIGLL,4741.164,N,12225.135,W,210000,A,A*45
$IIMTW,+09.0,C*31
$HCHDG,250.3,0.0,E,,*2D
$IIMWV,067,R,24.8,N,A*1C
$YXXDR,A,5.6,D,PTCH,A,-9.5,D,ROLL*7F
$IIMWV,086,T,22.8,N,A*13
$GPRMC,210032.8,A,4741.16407,N,12225.14144,W,007.35,262.2,271013,016.6,E,D*2A
$GPRMB,A,-0.00,L,Shil,Shil,4741.0830,N,12224.5670,W,0.4,102,-6.92,V*0E
$HCHDG,250.1,0.0,E,,*2F
$PGRME,2.4,M,2.4,M,3.4,M*29
$HCHDG,249.9,0.0,E,,*2F
$HCHDG,250.0,0.0,E,,*2E
$GPRMC,210033.0,A,4741.16402,N,12225.14204,W,007.56,262.6,271013,016.6,E,D*20
$PGRME,2.4,M,2.4,M,3.4,M*29
$HCHDG,250.0,0.0,E,,*2E
$HCHDG,249.9,0.0,E,,*2F
$GPRMC,210033.2,A,4741.16395,N,12225.14270,W,007.55,263.4,271013,016.6,E,D*28
$PGRME,2.4,M,2.4,M,3.4,M*29
$YXXDR,A,4.4,D,PTCH,A,-9.4,D,ROLL*7D
$IIRMB,A,0.00,L,,Shil,,,,,000.4,102,,V,A*7E
$HCHDG,250.0,0.0,E,,*2E
$HCHDG,250.2,0.0,E,,*2C
$GPRMC,210033.4,A,4741.16381,N,12225.14324,W,007.61,259.9,271013,016.6,E,D*28
$PGRME,2.4,M,2.4,M,3.4,M*29
$IIRMC,210000,A,4741.164,N,12225.139,W,07.6,265,271013,16,E,A*14
$IIVHW,,,,,07.8,N,,*16
$HCHDG,250.3,0.0,E,,*2D
$IIVLW,06477,N,025.3,N*55
$HCHDG,250.6,0.0,E,,*28
$IIVWR,067,R,25.1,N,,,,*66
$GPRMC,210033.6,A,4741.16373,N,12225.14387,W,007.39,260.2,271013,016.6,E,D*22
$PGRME,2.4,M,2.4,M,3.4,M*29
$IIDPT,001.5,-1.0,*44
$HCHDG,251.0,0.0,E,,*2F
$IIGLL,4741.164,N,12225.139,W,210000,A,A*49
$YXXDR,A,5.1,D,PTCH,A,-10.4,D,ROLL*41
$PTAK,FFD1,10.4*60
$IIMTW,+09.0,C*31
$GPRMC,210033.8,A,4741.16366,N,12225.14450,W,007.40,259.7,271013,016.6,E,D*24
$HCHDG,251.6,0.0,E,,*29
$PGRME,2.4,M,2.4,M,3.4,M*29
$HCHDG,252.3,0.0,E,,*2F
$HCHDG,253.0,0.0,E,,*2D
$GPRMC,210034.0,A,4741.16342,N,12225.14524,W,007.35,264.6,271013,016.6,E,D*22
$GPRMB,A,-0.00,L,Shil,Shil,4741.0830,N,12224.5670,W,0.4,102,-7.03,V*07
$PGRME,2.4,M,2.4,M,3.4,M*29
$HCHDG,253.8,0.0,E,,*25
$HCHDG,254.4,0.0,E,,*2E
$GPRMC,210034.2,A,4741.16334,N,12225.14582,W,007.35,265.8,271013,016.6,E,D*22
$PGRME,2.4,M,2.4,M,3.4,M*29
$IIMWV,065,R,25.4,N,A*13
$YXXDR,A,5.7,D,PTCH,A,-14.6,D,ROLL*41
$IIMWV,085,T,23.0,N,A*19
$HCHDG,254.9,0.0,E,,*23
$HCHDG,255.6,0.0,E,,*2D
$IIRMB,A,0.00,L,,Shil,,,,,000.4,102,,V,A*7E
$GPRMC,210034.4,A,4741.16314,N,12225.14640,W,007.41,265.8,271013,016.6,E,D*28
$PGRME,2.4,M,2.4,M,3.4,M*29
$HCHDG,256.2,0.0,E,,*2A
$IIRMC,210000,A,4741.163,N,12225.143,W,07.6,259,271013,16,E,A*11
$HCHDG,256.6,0.0,E,,*2E
$IIVHW,,,,,07.8,N,,*16
$GPRMC,210034.6,A,4741.16312,N,12225.14705,W,007.48,270.2,271013,016.6,E,D*2B
$PGRME,2.4,M,2.4,M,3.4,M*29
$IIVLW,06477,N,025.3,N*55
$HCHDG,257.0,0.0,E,,*29
$IIVWR,065,R,25.4,N,,,,*61
$IIDPT,001.5,-1.0,*44
$YXXDR,A,6.0,D,PTCH,A,-13.4,D,ROLL*40
$PTAK,FFD1,13.4*63
$PTAK,FFP1,HEEL,@*07
$GPRMC,210034.8,A,4741.16311,N,12225.14776,W,007.67,273.0,271013,016.6,E,D*2E
$HCHDG,257.3,0.0,E,,*2A
$PGRME,2.4,M,2.4,M,3.4,M*29
$HCHDG,257.2,0.0,E,,*2B
$HCHDG,257.2,0.0,E,,*2B
$GPRMC,210035.0,A,4741.16316,N,12225.14840,W,007.60,272.4,271013,016.6,E,D*28
$GPRMB,A,-0.00,L,Shil,Shil,4741.0830,N,12224.5670,W,0.4,102,-7.50,V*01
$PGRME,2.4,M,2.4,M,3.4,M*29
$HCHDG,257.1,0.0,E,,*28
$HCHDG,256.7,0.0,E,,*2F
$GPRMC,210035.2,A,4741.16321,N,12225.14906,W,007.54,270.8,271013,016.6,E,D*24
$PGRME,2.4,M,2.4,M,3.4,M*29
$YXXDR,A,6.7,D,PTCH,A,-10.3,D,ROLL*43
$IIGLL,4741.163,N,12225.146,W,210000,A,A*46
$HCHDG,256.4,0.0,E,,*2C
$IIMTW,+09.0,C*31
$HCHDG,256.1,0.0,E,,*29
$IIMWV,066,R,26.1,N,A*16
$GPRMC,210035.4,A,4741.16317,N,12225.14975,W,007.53,269.7,271013,016.6,E,D*23
$PGRME,2.4,M,2.4,M,3.4,M*29
$IIMWV,083,T,23.2,N,A*1D
$HCHDG,255.8,0.0,E,,*23
$IIRMB,A,0.00,L,,Shil,,,,,000.4,102,,V,A*7E
$HCHDG,255.5,0.0,E,,*2E
$GPRMC,210035.6,A,4741.16311,N,12225.15042,W,007.53,267.9,271013,016.6,E,D*2B
$PGRME,2.4,M,2.4,M,3.4,M*29
$IIRMC,210000,A,4741.163,N,12225.146,W,07.4,265,271013,16,E,A*19
$HCHDG,254.9,0.0,E,,*23
$IIVHW,,,,,07.6,N,,*18
$YXXDR,A,6.6,D,PTCH,A,-4.5,D,ROLL*71
$IIVLW,06477,N,025.3,N*55
$GPRMC,210035.8,A,4741.16308,N,12225.15103,W,007.54,264.7,271013,016.6,E,D*23
$HCHDG,254.6,0.0,E,,*2C
$PGRME,2.4,M,2.4,M,3.4,M*29
$HCHDG,254.2,0.0,E,,*28
$HCHDG,253.6,0.0,E,,*2B
$GPRMC,210036.0,A,4741.16302,N,12225.15167,W,007.56,260.2,271013,016.6,E,D*23
$GPRMB,A,-0.00,L,Shil,Shil,4741.0830,N,12224.5670,W,0.4,101,-7.04,V*03
$PGRME,2.4,M,2.4,M,3.4,M*29
$HCHDG,253.4,0.0,E,,*29
$HCHDG,253.1,0.0,E,,*2C
$GPRMC,210036.2,A,4741.16301,N,12225.15214,W,007.28,258.2,271013,016.6,E,D*27
$PGRME,2.4,M,2.4,M,3.4,M*29
$IIVWR,065,R,25.8,N,,,,*6D
$YXXDR,A,5.0,D,PTCH,A,-6.5,D,ROLL*76
$PTAK,FFD1,6.5*56
$HCHDG,253.0,0.0,E,,*2D
$IIGLL,4741.163,N,12225.146,W,210000,A,A*46
$HCHDG,253.2,0.0,E,,*2F
$IIMTW,+09.0,C*31
$GPRMC,210036.4,A,4741.16294,N,12225.15276,W,007.31,255.9,271013,016.6,E,D*26
$PGRME,2.4,M,2.4,M,3.4,M*29
$IIMWV,065,R,25.8,N,A*1F
$HCHDG,253.5,0.0,E,,*28
$IIMWV,083,T,23.8,N,A*17
$HCHDG,254.1,0.0,E,,*2B
$IIRMB,A,0.00,L,,Shil,,,,,000.4,102,,V,A*7E
$GPRMC,210036.6,A,4741.16278,N,12225.15341,W,007.60,254.4,271013,016.6,E,D*2B
$PGRME,2.4,M,2.4,M,3.4,M*29
$HCHDG,254.2,0.0,E,,*28
$IIRMC,210000,A,4741.163,N,12225.146,W,07.4,265,271013,16,E,A*19
$YXXDR,A,4.0,D,PTCH,A,-14.0,D,ROLL*41
$IIVHW,,,,,07.6,N,,*18
$HCHDG,255.0,0.0,E,,*2B
$GPRMC,210036.8,A,4741.16261,N,12225.15399,W,007.22,254.0,271013,016.6,E,D*2A
$PGRME,2.4,M,2.4,M,3.4,M*29
$HCHDG,255.8,0.0,E,,*23
$HCHDG,256.2,0.0,E,,*2A
$GPRMC,210037.0,A,4741.16256,N,12225.15462,W,007.19,261.4,271013,016.6,E,D*2E
$GPRMB,A,-0.00,L,Shil,Shil,4741.0830,N,12224.5670,W,0.4,101,-6.76,V*07
$PGRME,2.4,M,2.4,M,3.4,M*29
$HCHDG,256.6,0.0,E,,*2E
$HCHDG,256.9,0.0,E,,*21
$GPRMC,210037.2,A,4741.16246,N,12225.15521,W,006.58,265.4,271013,016.6,E,D*2B
$PGRME,2.4,M,2.4,M,3.4,M*29
$IIVLW,06477,N,025.3,N*55
$YXXDR,A,6.6,D,PTCH,A,-18.7,D,ROLL*4E
$HCHDG,257.1,0.0,E,,*28
$IIVWR,063,R,26.3,N,,,,*63
$HCHDG,257.4,0.0,E,,*2D
$IIGLL,4741.162,N,12225.152,W,210000,A,A*42
$GPRMC,210037.4,A,4741.16235,N,12225.15589,W,006.82,268.9,271013,016.6,E,D*2C
$PGRME,2.4,M,2.4,M,3.4,M*29
$IIMTW,+09.0,C*31
$HCHDG,257.6,0.0,E,,*2F
$IIMWV,063,R,26.3,N,A*11
$IIMWV,082,T,23.6,N,A*18
$HCHDG,257.7,0.0,E,,*2E
$GPRMC,210037.6,A,4741.16233,N,12225.15647,W,006.80,272.4,271013,016.6,E,D*2D
$PGRME,2.4,M,2.4,M,3.4,M*29
$IIRMB,A,0.00,L,,Shil,,,,,000.4,101,,V,A*7D
$HCHDG,257.8,0.0,E,,*21
$YXXDR,A,5.6,D,PTCH,A,-15.3,D,ROLL*44
$PTAK,FFD1,15.3*62
$IIRMC,210000,A,4741.162,N,12225.152,W,07.3,255,271013,16,E,A*19
$GPRMC,210037.8,A,4741.16242,N,12225.15705,W,006.79,280.8,271013,016.6,E,D*25
$HCHDG,258.0,0.0,E,,*26
$PGRME,2.4,M,2.4,M,3.4,M*29
$HCHDG,258.0,0.0,E,,*26
$HCHDG,258.0,0.0,E,,*26
$GPRMC,210038.0,A,4741.16253,N,12225.15763,W,007.18,276.9,271013,016.6,E,D*2C
$PGRME,2.4,M,2.4,M,3.4,M*29
$HCHDG,257.8,0.0,E,,*21
$HCHDG,257.7,0.0,E,,*2E
$GPRMC,210038.2,A,4741.16257,N,12225.15822,W,007.13,274.2,271013,016.6,E,D*22
$GPRMB,A,-0.00,L,Shil,Shil,4741.0830,N,12224.5670,W,0.4,101,-7.08,V*0F
$PGRME,2.4,M,2.4,M,3.4,M*29
$IIVHW,,,,,07.4,N,,*1A
$YXXDR,A,3.9,D,PTCH,A,-12.0,D,ROLL*49
$IIVLW,06477,N,025.3,N*55
$HCHDG,257.4,0.0,E,,*2D
$IIVWR,063,R,26.9,N,,,,*69
$HCHDG,257.2,0.0,E,,*2B
$GPRMC,210038.4,A,4741.16258,N,12225.15880,W,007.18,274.5,271013,016.6,E,D*2F
$PGRME,2.4,M,2.4,M,3.4,M*29
$IIGLL,4741.162,N,12225.155,W,210000,A,A*45
$HCHDG,257.3,0.0,E,,*2A
$IIMTW,+09.0,C*31
$IIMWV,063,R,26.9,N,A*1B
$HCHDG,256.9,0.0,E,,*21
$IIMWV,080,T,23.7,N,A*1B
$GPRMC,210038.6,A,4741.16265,N,12225.15940,W,007.20,276.8,271013,016.6,E,D*2A
$PGRME,2.4,M,2.4,M,3.4,M*29
$HCHDG,256.6,0.0,E,,*2E
$IIRMB,A,0.00,L,,Shil,,,,,000.4,101,,V,A*7D
$YXXDR,A,6.6,D,PTCH,A,-12.4,D,ROLL*47
$PTAK,FFD1,12.4*62
$GPRMC,210038.8,A,4741.16273,N,12225.16002,W,006.85,277.4,271013,016.6,E,D*2C
$PTAK,FFP1,HEEL,@*07
$HCHDG,256.5,0.0,E,,*2D
$PGRME,2.4,M,2.4,M,3.4,M*29
$HCHDG,256.2,0.0,E,,*2A
$HCHDG,256.1,0.0,E,,*29
$GPRMC,210039.0,A,4741.16280,N,12225.16061,W,006.85,276.8,271013,016.6,E,D*21
$PGRME,2.4,M,2.4,M,3.4,M*29
$HCHDG,256.0,0.0,E,,*28
$HCHDG,255.9,0.0,E,,*22
$GPRMC,210039.2,A,4741.16291,N,12225.16111,W,007.13,278.8,271013,016.6,E,D*25
$GPRMB,A,-0.00,L,Shil,Shil,4741.0830,N,12224.5670,W,0.4,101,-7.12,V*04
$PGRME,2.4,M,2.4,M,3.4,M*29
$YXXDR,A,6.0,D,PTCH,A,-12.5,D,ROLL*40
$HCHDG,255.6,0.0,E,,*2D
$IIRMC,210000,A,4741.162,N,12225.159,W,07.2,276,271013,16,E,A*12
$HCHDG,255.7,0.0,E,,*2C
$IIVHW,,,,,07.5,N,,*1B
$GPRMC,210039.4,A,4741.16301,N,12225.16172,W,007.31,278.0,271013,016.6,E,D*26
$PGRME,2.4,M,2.4,M,3.4,M*29
$IIVLW,06477,N,025.3,N*55
$HCHDG,255.6,0.0,E,,*2D
$IIVWR,064,R,27.4,N,,,,*62
$HCHDG,255.2,0.0,E,,*29
$IIGLL,4741.162,N,12225.159,W,210000,A,A*49
$GPRMC,210039.6,A,4741.16307,N,12225.16226,W,007.32,273.0,271013,016.6,E,D*28
$PGRME,2.4,M,2.4,M,3.4,M*29
$IIMTW,+09.0,C*31
$HCHDG,255.0,0.0,E,,*2B
$IIMWV,064,R,27.4,N,A*10
$IIMWV,079,T,24.3,N,A*1E
$YXXDR,A,4.6,D,PTCH,A,-10.6,D,ROLL*45
$PTAK,FFD1,10.6*62
$GPRMC,210039.8,A,4741.16306,N,12225.16282,W,007.26,272.1,271013,016.6,E,D*2C
$PGRME,2.4,M,2.4,M,3.4,M*29
$HCHDG,254.8,0.0,E,,*22
$HCHDG,254.7,0.0,E,,*2D
$HCHDG,254.5,0.0,E,,*2F
$GPRMC,210040.0,A,4741.16305,N,12225.16337,W,007.20,274.2,271013,016.6,E,D*25
$PGRME,2.4,M,2.4,M,3.4,M*29
$HCHDG,254.2,0.0,E,,*28
$HCHDG,253.8,0.0,E,,*25
$GPRMC,210040.2,A,4741.16303,N,12225.16390,W,007.16,273.9,271013,016.6,E,D*25
$PGRME,2.4,M,2.4,M,3.4,M*29
$YXXDR,A,5.6,D,PTCH,A,-11.4,D,ROLL*47
$IIRMB,A,0.00,L,,Shil,,,,,000.4,101,,V,A*7D
$HCHDG,253.6,0.0,E,,*2B
$HCHDG,253.6,0.0,E,,*2B
$GPRMC,210040.4,A,4741.16300,N,12225.16443,W,006.89,274.2,271013,016.6,E,D*22
$GPRMB,A,-0.00,L,Shil,Shil,4741.0830,N,12224.5670,W,0.4,101,-6.84,V*0A
$PGRME,2.4,M,2.4,M,3.4,M*29
$IIRMC,210000,A,4741.163,N,12225.162,W,07.3,273,271013,16,E,A*1F
$IIVHW,,,,,07.3,N,,*1D
$HCHDG,253.3,0.0,E,,*2E
$IIVLW,06477,N,025.3,N*55
$HCHDG,253.0,0.0,E,,*2D
$IIVWR,063,R,27.7,N,,,,*66
$GPRMC,210040.6,A,4741.16315,N,12225.16517,W,007.61,272.7,271013,016.6,E,D*20
$PGRME,2.4,M,2.4,M,3.4,M*29
$IIGLL,4741.163,N,12225.162,W,210000,A,A*40
$HCHDG,252.8,0.0,E,,*24
$IIMTW,+09.0,C*31
$YXXDR,A,5.2,D,PTCH,A,-12.5,D,ROLL*41
$IIMWV,063,R,27.7,N,A*14
$GPRMC,210040.8,A,4741.16325,N,12225.16589,W,007.55,270.7,271013,016.6,E,D*2F
$PGRME,2.4,M,2.4,M,3.4,M*29
$HCHDG,252.7,0.0,E,,*2B
$HCHDG,252.2,0.0,E,,*2E
$HCHDG,252.1,0.0,E,,*2D
$GPRMC,210041.0,A,4741.16320,N,12225.16649,W,007.52,268.8,271013,016.6,E,D*2D
$PGRME,2.4,M,2.4,M,3.4,M*29
$HCHDG,251.7,0.0,E,,*28
$HCHDG,251.3,0.0,E,,*2C
$GPRMC,210041.2,A,4741.16319,N,12225.16712,W,007.51,266.6,271013,016.6,E,D*29
$PGRME,2.4,M,2.4,M,3.4,M*29
$IIMWV,078,T,25.1,N,A*1C
$YXXDR,A,7.2,D,PTCH,A,-7.8,D,ROLL*7A
$PTAK,FFD1,7.8*5A
$HCHDG,250.4,0.0,E,,*2A
$IIRMB,A,0.00,L,,Shil,,,,,000.4,101,,V,A*7D
$HCHDG,249.9,0.0,E,,*2F
$GPRMC,210041.4,A,4741.16322,N,12225.16787,W,007.81,266.0,271013,016.6,E,D*20
$GPRMB,A,-0.00,L,Shil,Shil,4741.0830,N,12224.5670,W,0.4,101,-7.54,V*06
$PGRME,2.4,M,2.4,M,3.4,M*29
$IIRMC,210000,A,4741.163,N,12225.165,W,07.6,272,271013,16,E,A*1C
$HCHDG,249.4,0.0,E,,*22
$IIVHW,,,,,07.2,N,,*1C
$HCHDG,248.8,0.0,E,,*2F
$IIVLW,06477,N,025.3,N*55
$GPRMC,210041.6,A,4741.16317,N,12225.16844,W,007.88,266.3,271013,016.6,E,D*2E
$PGRME,2.4,M,2.4,M,3.4,M*29
$IIVWR,064,R,26.7,N,,,,*60
$HCHDG,248.4,0.0,E,,*23
$IIGLL,4741.163,N,12225.165,W,210000,A,A*47
$YXXDR,A,5.8,D,PTCH,A,-8.3,D,ROLL*76
$IIMTW,+09.0,C*31
$GPRMC,210041.8,A,4741.16314,N,12225.16907,W,007.81,264.4,271013,016.6,E,D*29
$PGRME,2.4,M,2.4,M,3.4,M*29
$HCHDG,248.1,0.0,E,,*26
$HCHDG,247.5,0.0,E,,*2D
$HCHDG,247.1,0.0,E,,*29
$GPRMC,210042.0,A,4741.16306,N,12225.16974,W,008.22,260.3,271013,016.6,E,D*20
$PGRME,2.4,M,2.4,M,3.4,M*29
$HCHDG,247.0,0.0,E,,*28
$HCHDG,246.9,0.0,E,,*20
$GPRMC,210042.2,A,4741.16301,N,12225.17033,W,007.85,262.8,271013,016.6,E,D*25
$PGRME,2.4,M,2.4,M,3.4,M*29
$IIMWV,065,R,26.5,N,A*11
$YXXDR,A,6.1,D,PTCH,A,-8.2,D,ROLL*7D
$PTAK,FFD1,8.2*5F
$IIMWV,080,T,24.4,N,A*1F
$HCHDG,246.7,0.0,E,,*2E
$HCHDG,246.6,0.0,E,,*2F
$IIRMB,A,0.00,L,,Shil,,,,,000.4,101,,V,A*7D
$GPRMC,210042.4,A,4741.16296,N,12225.17102,W,008.07,261.2,271013,016.6,E,D*23
$GPRMB,A,-0.00,L,Shil,Shil,4741.0830,N,12224.5670,W,0.4,101,-7.59,V*0B
$PGRME,2.4,M,2.4,M,3.4,M*29
$HCHDG,246.5,0.0,E,,*2C
$IIRMC,210000,A,4741.163,N,12225.168,W,07.8,266,271013,16,E,A*1A
$IIVHW,,,,,07.4,N,,*1A
$HCHDG,246.4,0.0,E,,*2D
$GPRMC,210042.6,A,4741.16294,N,12225.17166,W,007.67,262.5,271013,016.6,E,D*2C
$PGRME,2.4,M,2.4,M,3.4,M*29
$IIVLW,06477,N,025.3,N*55
$HCHDG,246.5,0.0,E,,*2C
$IIVWR,065,R,26.5,N,,,,*63
$YXXDR,A,5.8,D,PTCH,A,-13.7,D,ROLL*48
$IIGLL,4741.163,N,12225.168,W,210000,A,A*4A
$GPRMC,210042.8,A,4741.16285,N,12225.17233,W,007.92,261.1,271013,016.6,E,D*2C
$PTAK,FFP1,HEEL,@*07
$PGRME,2.4,M,2.4,M,3.4,M*29
$HCHDG,246.4,0.0,E,,*2D
$HCHDG,246.4,0.0,E,,*2D
$HCHDG,246.4,0.0,E,,*2D
$GPRMC,210043.0,A,4741.16284,N,12225.17299,W,007.67,260.2,271013,016.6,E,D*2C
$PGRME,2.4,M,2.4,M,3.4,M*29
$HCHDG,246.4,0.0,E,,*2D
$HCHDG,246.3,0.0,E,,*2A
$GPRMC,210043.2,A,4741.16283,N,12225.17372,W,008.31,258.5,271013,016.6,E,D*2D
$PGRME,2.4,M,2.4,M,3.4,M*29
$IIMTW,+09.0,C*31
$YXXDR,A,6.0,D,PTCH,A,-11.2,D,ROLL*44
$IIMWV,067,R,26.4,N,A*12
$HCHDG,246.1,0.0,E,,*28
$IIMWV,081,T,24.3,N,A*19
$HCHDG,245.7,0.0,E,,*2D
$GPRMC,210043.4,A,4741.16275,N,12225.17436,W,008.04,259.7,271013,016.6,E,D*20
$PGRME,2.4,M,2.4,M,3.4,M*29
$IIRMB,A,0.00,L,,Shil,,,,,000.4,101,,V,A*7D
$HCHDG,245.3,0.0,E,,*29
$IIRMC,210000,A,4741.162,N,12225.172,W,07.9,261,271013,16,E,A*16
$HCHDG,245.1,0.0,E,,*2B
$GPRMC,210043.6,A,4741.16265,N,12225.17503,W,008.56,255.8,271013,016.6,E,D*20
$GPRMB,A,-0.00,L,Shil,Shil,4741.0830,N,12224.5670,W,0.4,101,-7.74,V*04
$PGRME,2.4,M,2.4,M,3.4,M*29
$IIVHW,,,,,07.7,N,,*19
$IIVLW,06477,N,025.3,N*55
$HCHDG,244.5,0.0,E,,*2E
$IIVWR,067,R,26.4,N,,,,*60
$YXXDR,A,5.7,D,PTCH,A,-10.6,D,ROLL*45
$PTAK,FFD1,10.6*62
$GPRMC,210043.8,A,4741.16258,N,12225.17560,W,007.82,258.8,271013,016.6,E,D*2E
$PGRME,2.4,M,2.4,M,3.4,M*29
$HCHDG,244.6,0.0,E,,*2D
$HCHDG,244.5,0.0,E,,*2E
$HCHDG,244.7,0.0,E,,*2C
$GPRMC,210044.0,A,4741.16251,N,12225.17629,W,008.45,257.6,271013,016.6,E,D*23
$PGRME,2.4,M,2.4,M,3.4,M*29
$PGRMT,GPS 18x-5Hz software ver. 3.20,,,,,,,,*30
$HCHDG,245.1,0.0,E,,*2B
$HCHDG,245.1,0.0,E,,*2B
$GPRMC,210044.2,A,4741.16241,N,12225.17696,W,008.26,258.0,271013,016.6,E,D*28
$PGRME,2.4,M,2.4,M,3.4,M*29
$YXXDR,A,4.9,D,PTCH,A,-16.7,D,ROLL*4D
$IIGLL,4741.162,N,12225.175,W,210000,A,A*47
$HCHDG,245.1,0.0,E,,*2B
$IIMTW,+09.0,C*31
$IIMWV,067,R,25.7,N,A*12
$HCHDG,244.8,0.0,E,,*23
$GPRMC,210044.4,A,4741.16231,N,12225.17765,W,008.22,258.8,271013,016.6,E,D*28
$PGRME,2.4,M,2.4,M,3.4,M*29
$IIMWV,084,T,24.3,N,A*1C
$HCHDG,244.9,0.0,E,,*22
$IIRMB,A,0.00,L,,Shil,,,,,000.4,101,,V,A*7D
$HCHDG,244.4,0.0,E,,*2F
$GPRMC,210044.6,A,4741.16222,N,12225.17831,W,008.21,259.9,271013,016.6,E,D*25
$PGRME,2.4,M,2.4,M,3.4,M*29
$IIRMC,210000,A,4741.162,N,12225.175,W,07.8,258,271013,16,E,A*1A
$HCHDG,244.3,0.0,E,,*28
$IIVHW,,,,,08.0,N,,*11
$YXXDR,A,4.3,D,PTCH,A,-17.5,D,ROLL*44
$IIVLW,06477,N,025.3,N*55
$GPRMC,210044.8,A,4741.16211,N,12225.17901,W,008.54,253.7,271013,016.6,E,D*2F
$GPRMB,A,-0.00,L,Shil,Shil,4741.0830,N,12224.5670,W,0.4,101,-7.60,V*01
$PGRME,2.4,M,2.4,M,3.4,M*29
$HCHDG,244.4,0.0,E,,*2F
$HCHDG,244.4,0.0,E,,*2F
$HCHDG,244.7,0.0,E,,*2C
$GPRMC,210045.0,A,4741.16203,N,12225.17980,W,008.91,250.6,271013,016.6,E,D*27
$PGRME,2.4,M,2.4,M,3.4,M*29
$HCHDG,244.9,0.0,E,,*22
$HCHDG,245.3,0.0,E,,*29
$GPRMC,210045.2,A,4741.16188,N,12225.18054,W,008.88,254.3,271013,016.6,E,D*23
$PGRME,2.4,M,2.4,M,3.4,M*29
$IIVWR,067,R,25.2,N,,,,*65
$YXXDR,A,4.4,D,PTCH,A,-16.1,D,ROLL*46
$PTAK,FFD1,16.1*63
$HCHDG,245.6,0.0,E,,*2C
$IIGLL,4741.162,N,12225.179,W,210000,A,A*4B
$HCHDG,246.0,0.0,E,,*29
$IIMTW,+09.0,C*31
$GPRMC,210045.4,A,4741.16177,N,12225.18122,W,008.53,258.5,271013,016.6,E,D*29
$PGRME,2.4,M,2.4,M,3.4,M*29
$IIMWV,067,R,25.2,N,A*17
$HCHDG,246.9,0.0,E,,*20
$IIMWV,085,T,23.6,N,A*1F
$HCHDG,247.3,0.0,E,,*2B
$IIRMB,A,0.00,L,,Shil,,,,,000.4,101,,V,A*7D
$GPRMC,210045.6,A,4741.16166,N,12225.18190,W,008.56,257.4,271013,016.6,E,D*29
$PGRME,2.4,M,2.4,M,3.4,M*29
$HCHDG,247.9,0.0,E,,*21
$IIRMC,210000,A,4741.162,N,12225.179,W,08.5,253,271013,16,E,A*1F
$YXXDR,A,4.7,D,PTCH,A,-20.6,D,ROLL*47
$IIVHW,,,,,08.0,N,,*11
$GPRMC,210045.8,A,4741.16153,N,12225.18260,W,009.41,254.0,271013,016.6,E,D*2D
$GPRMB,A,-0.00,L,Shil,Shil,4741.0830,N,12224.5670,W,0.4,101,-8.40,V*0C
$PGRME,2.4,M,2.4,M,3.4,M*29
$HCHDG,248.2,0.0,E,,*25
$HCHDG,248.6,0.0,E,,*21
$HCHDG,248.8,0.0,E,,*2F
$GPRMC,210046.0,A,4741.16133,N,12225.18324,W,009.05,256.8,271013,016.6,E,D*2B
$PGRME,2.4,M,2.4,M,3.4,M*29
$HCHDG,249.1,0.0,E,,*27
$HCHDG,249.2,0.0,E,,*24
$GPRMC,210046.2,A,4741.16115,N,12225.18393,W,009.67,254.2,271013,016.6,E,D*2D
$PGRME,2.4,M,2.4,M,3.4,M*29
$IIVLW,06477,N,025.3,N*55
$YXXDR,A,4.5,D,PTCH,A,-17.4,D,ROLL*43
$IIVWR,067,R,25.3,N,,,,*64
$HCHDG,249.4,0.0,E,,*22
$HCHDG,249.6,0.0,E,,*20
$IIGLL,4741.161,N,12225.182,W,210000,A,A*4C
$GPRMC,210046.4,A,4741.16101,N,12225.18466,W,009.24,252.8,271013,016.6,E,D*28
$PGRME,2.4,M,2.4,M,3.4,M*29
$IIMTW,+09.0,C*31
$HCHDG,249.6,0.0,E,,*20
$IIMWV,067,R,25.3,N,A*16
$IIMWV,086,T,23.1,N,A*1B
$HCHDG,249.4,0.0,E,,*22
$GPRMC,210046.6,A,4741.16089,N,12225.18537,W,008.99,254.1,271013,016.6,E,D*26
$PGRME,2.4,M,2.4,M,3.4,M*29
$IIRMB,A,0.00,L,,Shil,,,,,000.4,101,,V,A*7D
$HCHDG,249.3,0.0,E,,*25
$YXXDR,A,5.8,D,PTCH,A,-16.3,D,ROLL*49
$PTAK,FFD1,16.3*61
$IIRMC,210000,A,4741.161,N,12225.182,W,09.4,254,271013,16,E,A*1F
$GPRMC,210046.8,A,4741.16083,N,12225.18606,W,008.94,255.6,271013,016.6,E,D*28
$GPRMB,A,-0.00,L,Shil,Shil,4741.0830,N,12224.5670,W,0.4,101,-8.10,V*09
$PGRME,2.4,M,2.4,M,3.4,M*29
$HCHDG,249.1,0.0,E,,*27
$PTAK,FFP1,HEEL,@*07
$HCHDG,249.0,0.0,E,,*26
$HCHDG,249.0,0.0,E,,*26
$GPRMC,210047.0,A,4741.16077,N,12225.18675,W,008.98,256.5,271013,016.6,E,D*22
$PGRME,2.4,M,2.4,M,3.4,M*29
$HCHDG,248.9,0.0,E,,*2E
$HCHDG,248.8,0.0,E,,*2F
$GPRMC,210047.2,A,4741.16072,N,12225.18749,W,009.00,260.6,271013,016.6,E,D*2D
$PGRME,2.4,M,2.4,M,3.4,M*29
$IIVHW,,,,,08.4,N,,*15
$YXXDR,A,5.1,D,PTCH,A,-21.3,D,ROLL*44
$IIVLW,06477,N,025.3,N*55
$HCHDG,248.4,0.0,E,,*23
$IIVWR,067,R,25.3,N,,,,*64
$HCHDG,248.3,0.0,E,,*24
$GPRMC,210047.4,A,4741.16076,N,12225.18832,W,008.98,263.3,271013,016.6,E,D*2A
$PGRME,2.4,M,2.4,M,3.4,M*29
$IIGLL,4741.161,N,12225.182,W,210000,A,A*4C
$HCHDG,247.7,0.0,E,,*2F
$IIMTW,+08.5,C*35
$IIMWV,067,R,25.3,N,A*16
$HCHDG,247.6,0.0,E,,*2E
$IIMWV,086,T,23.2,N,A*18
$GPRMC,210047.6,A,4741.16067,N,12225.18902,W,008.62,259.2,271013,016.6,E,D*27
$PGRME,2.4,M,2.4,M,3.4,M*29
$HCHDG,247.1,0.0,E,,*29
$IIRMB,A,0.00,L,,Shil,,,,,000.4,101,,V,A*7D
$YXXDR,A,4.3,D,PTCH,A,-22.0,D,ROLL*47
$PTAK,FFD1,22.0*65
$GPRMC,210047.8,A,4741.16072,N,12225.18983,W,008.59,264.3,271013,016.6,E,D*23
$PGRME,2.4,M,2.4,M,3.4,M*29
$HCHDG,246.4,0.0,E,,*2D
$HCHDG,246.1,0.0,E,,*28
$HCHDG,245.8,0.0,E,,*22
$GPRMC,210048.0,A,4741.16076,N,12225.19046,W,008.11,265.8,271013,016.6,E,D*27
$GPRMB,A,-0.00,L,Shil,Shil,4741.0830,N,12224.5670,W,0.4,100,-7.84,V*0A
$PGRME,2.4,M,2.4,M,3.4,M*29
$HCHDG,245.5,0.0,E,,*2F
$HCHDG,245.3,0.0,E,,*29
$GPRMC,210048.2,A,4741.16080,N,12225.19111,W,008.18,268.8,271013,016.6,E,D*2B
$PGRME,2.4,M,2.4,M,3.4,M*29
$YXXDR,A,3.0,D,PTCH,A,-25.9,D,ROLL*4D
$HCHDG,245.4,0.0,E,,*2E
$IIRMC,210000,A,4741.160,N,12225.186,W,08.9,256,271013,16,E,A*14
$IIVHW,,,,,08.4,N,,*15
$HCHDG,245.5,0.0,E,,*2F
$GPRMC,210048.4,A,4741.16082,N,12225.19175,W,008.16,267.1,271013,016.6,E,D*25
$PGRME,2.4,M,2.4,M,3.4,M*29
$IIVLW,06477,N,025.3,N*55
$HCHDG,245.7,0.0,E,,*2D
$IIVWR,067,R,25.0,N,,,,*67
$HCHDG,245.5,0.0,E,,*2F
$IIGLL,4741.160,N,12225.186,W,210000,A,A*49
$GPRMC,210048.6,A,4741.16087,N,12225.19240,W,008.37,268.5,271013,016.6,E,D*2F
$PGRME,2.4,M,2.4,M,3.4,M*29
$IIMTW,+08.5,C*35
$IIMWV,067,R,25.0,N,A*15
$HCHDG,245.6,0.0,E,,*2C
$IIMWV,086,T,23.2,N,A*18
$YXXDR,A,3.0,D,PTCH,A,-20.1,D,ROLL*40
$PTAK,FFD1,20.1*66
$GPRMC,210048.8,A,4741.16089,N,12225.19307,W,008.40,265.8,271013,016.6,E,D*2D
$PGRME,2.4,M,2.4,M,3.4,M*29
$HCHDG,245.4,0.0,E,,*2E
$HCHDG,245.5,0.0,E,,*2F
$HCHDG,245.4,0.0,E,,*2E
$GPRMC,210049.0,A,4741.16078,N,12225.19371,W,008.34,263.6,271013,016.6,E,D*20
