$GPRMB,A,0.22,L,,Shil,4741.0830,N,12224.5670,W,0.2,243,-0.00,V*10
$PGRME,2.4,M,2.4,M,3.4,M*29
$HCHDG,273.9,0.0,E,,*26
$HCHDG,273.9,0.0,E,,*26
$YXXDR,A,5.2,D,PTCH,A,2.3,D,ROLL*5B
$GPRMC,200000.6,A,4741.19733,N,12224.24040,W,000.01,111.2,201013,016.6,E,D*28
$PGRME,2.4,M,2.4,M,3.4,M*29
$HCHDG,273.9,0.0,E,,*26
$HCHDG,273.9,0.0,E,,*26
$GPRMC,200000.8,A,4741.19733,N,12224.24040,W,000.00,111.2,201013,016.6,E,D*27
$PGRME,2.4,M,2.4,M,3.4,M*29
$HCHDG,274.0,0.0,E,,*28
$IIVHW,,,,,00.0,N,,*19
$IIVLW,06403,N,010.9,N*5A
$HCHDG,273.8,0.0,E,,*27
$IIVWR,064,R,07.1,N,,,,*65
$IIDPT,004.4,-1.0,*40
$GPRMC,200001.0,A,4741.19733,N,12224.24040,W,000.01,111.2,201013,016.6,E,D*2F
$PGRME,2.4,M,2.4,M,3.4,M*29
$HCHDG,273.8,0.0,E,,*27
$IIGLL,4741.197,N,12224.240,W,195900,A,A*4E
$YXXDR,A,5.1,D,PTCH,A,2.3,D,ROLL*58
$PTAK,FFD1,2.3*54
$IIMTW,+09.0,C*31
$HCHDG,273.8,0.0,E,,*27
$IIMWV,064,R,07.1,N,A*17
$GPRMC,200001.2,A,4741.19733,N,12224.24040,W,000.00,111.2,201013,016.6,E,D*2C
$PGRME,2.4,M,2.4,M,3.4,M*29
$HCHDG,273.8,0.0,E,,*27
$IIMWV,069,T,07.6,N,A*1B
$IIRMB,A,0.22,L,,Shil,,,,,000.2,243,,V,A*7E
$HCHDG,273.8,0.0,E,,*27
$GPRMC,200001.4,A,4741.19733,N,12224.24040,W,000.00,111.2,201013,016.6,E,D*2A
$PGRME,2.4,M,2.4,M,3.4,M*29
$HCHDG,273.9,0.0,E,,*26
$HCHDG,273.8,0.0,E,,*27
$YXXDR,A,5.3,D,PTCH,A,2.4,D,ROLL*5D
$GPRMC,200001.6,A,4741.19733,N,12224.24040,W,000.01,111.2,201013,016.6,E,D*29
$GPRMB,A,0.22,L,,Shil,4741.0830,N,12224.5670,W,0.2,243,-0.01,V*11
$PGRME,2.4,M,2.4,M,3.5,M*28
$HCHDG,273.8,0.0,E,,*27
$HCHDG,273.8,0.0,E,,*27
$GPRMC,200001.8,A,4741.19733,N,12224.24040,W,000.01,111.2,201013,016.6,E,D*27
$PGRME,2.4,M,2.4,M,3.5,M*28
$HCHDG,273.7,0.0,E,,*28
$HCHDG,273.7,0.0,E,,*28
$GPRMC,200002.0,A,4741.19733,N,12224.24040,W,000.00,111.2,201013,016.6,E,D*2D
$PGRME,2.4,M,2.5,M,3.5,M*29
$HCHDG,273.9,0.0,E,,*26
$YXXDR,A,5.4,D,PTCH,A,2.3,D,ROLL*5D
$HCHDG,273.8,0.0,E,,*27
$GPRMC,200002.2,A,4741.19733,N,12224.24040,W,000.00,111.2,201013,016.6,E,D*2F
$PGRME,2.4,M,2.5,M,3.5,M*29
$HCHDG,273.8,0.0,E,,*27
$HCHDG,273.8,0.0,E,,*27
$GPRMC,200002.4,A,4741.19733,N,12224.24040,W,000.00,111.2,201013,016.6,E,D*29
$PGRME,2.4,M,2.5,M,3.5,M*29
$HCHDG,273.9,0.0,E,,*26
$HCHDG,273.9,0.0,E,,*26
$YXXDR,A,5.3,D,PTCH,A,2.4,D,ROLL*5D
$PTAK,FFD1,2.4*53
$GPRMC,200002.6,A,4741.19734,N,12224.24040,W,000.00,111.2,201013,016.6,E,D*2C
$GPRMB,A,0.22,L,,Shil,4741.0830,N,12224.5670,W,0.2,243,-0.00,V*10
$PGRME,2.4,M,2.5,M,3.5,M*29
$HCHDG,273.9,0.0,E,,*26
$HCHDG,273.9,0.0,E,,*26
$GPRMC,200002.8,A,4741.19734,N,12224.24040,W,000.01,111.2,201013,016.6,E,D*23
$PGRME,2.4,M,2.5,M,3.5,M*29
$HCHDG,274.0,0.0,E,,*28
$IIRMC,200000,A,4741.197,N,12224.240,W,00.0,111,201013,16,E,A*13
$HCHDG,273.7,0.0,E,,*28
$IIVHW,,,,,00.0,N,,*19
$GPRMC,200003.0,A,4741.19734,N,12224.24040,W,000.01,111.2,201013,016.6,E,D*2A
$PGRME,2.4,M,2.5,M,3.5,M*29
$IIVLW,06403,N,010.9,N*5A
$HCHDG,273.7,0.0,E,,*28
$IIVWR,056,R,06.8,N,,,,*6C
$YXXDR,A,5.1,D,PTCH,A,2.2,D,ROLL*59
$IIDPT,004.4,-1.0,*40
$HCHDG,273.7,0.0,E,,*28
$GPRMC,200003.2,A,4741.19734,N,12224.24040,W,000.01,111.2,201013,016.6,E,D*28
$IIGLL,4741.197,N,12224.240,W,200000,A,A*48
$PGRME,2.4,M,2.5,M,3.5,M*29
$HCHDG,273.7,0.0,E,,*28
$IIMTW,+09.0,C*31
$IIMWV,056,R,06.8,N,A*1E
$HCHDG,273.7,0.0,E,,*28
$IIMWV,064,T,07.1,N,A*11
$GPRMC,200003.4,A,4741.19734,N,12224.24040,W,000.01,111.2,201013,016.6,E,D*2E
$PGRME,2.4,M,2.5,M,3.5,M*29
$HCHDG,273.5,0.0,E,,*2A
$HCHDG,273.5,0.0,E,,*2A
$YXXDR,A,5.2,D,PTCH,A,2.0,D,ROLL*58
$PTAK,FFD1,2.0*57
$GPRMC,200003.6,A,4741.19734,N,12224.24040,W,000.01,111.2,201013,016.6,E,D*2C
$GPRMB,A,0.22,L,,Shil,4741.0830,N,12224.5670,W,0.2,243,-0.01,V*11
$PGRME,2.4,M,2.5,M,3.5,M*29
$HCHDG,273.5,0.0,E,,*2A
$HCHDG,273.5,0.0,E,,*2A
$GPRMC,200003.8,A,4741.19734,N,12224.24040,W,000.00,111.2,201013,016.6,E,D*23
$PGRME,2.4,M,2.5,M,3.5,M*29
$HCHDG,273.8,0.0,E,,*27
$IIRMB,A,0.22,L,,Shil,,,,,000.2,243,,V,A*7E
$HCHDG,273.8,0.0,E,,*27
$GPRMC,200004.0,A,4741.19734,N,12224.24040,W,000.01,111.2,201013,016.6,E,D*2D
$IIRMC,200000,A,4741.197,N,12224.240,W,00.0,111,201013,16,E,A*13
$PGRME,2.4,M,2.5,M,3.5,M*29
$HCHDG,273.7,0.0,E,,*28
$PTAK,FFP1,HEEL,@*07
$IIVHW,,,,,00.0,N,,*19
$YXXDR,A,5.4,D,PTCH,A,1.7,D,ROLL*5A
$IIVLW,06403,N,010.9,N*5A
$HCHDG,273.7,0.0,E,,*28
$IIVWR,058,R,07.0,N,,,,*6B
$GPRMC,200004.2,A,4741.19734,N,12224.24040,W,000.01,111.2,201013,016.6,E,D*2F
$PGRME,2.4,M,2.5,M,3.5,M*29
$IIDPT,004.4,-1.0,*40
$HCHDG,273.8,0.0,E,,*27
$IIGLL,4741.197,N,12224.240,W,200000,A,A*48
$HCHDG,273.8,0.0,E,,*27
$IIMTW,+09.0,C*31
$GPRMC,200004.4,A,4741.19734,N,12224.24040,W,000.01,111.2,201013,016.6,E,D*29
$PGRME,2.4,M,2.5,M,3.5,M*29
$HCHDG,273.8,0.0,E,,*27
$HCHDG,273.8,0.0,E,,*27
$YXXDR,A,5.4,D,PTCH,A,1.8,D,ROLL*55
$GPRMC,200004.6,A,4741.19734,N,12224.24040,W,000.01,111.2,201013,016.6,E,D*2B
$PGRME,2.4,M,2.5,M,3.5,M*29
$HCHDG,273.8,0.0,E,,*27
$HCHDG,273.8,0.0,E,,*27
$GPRMC,200004.8,A,4741.19734,N,12224.24040,W,000.01,111.2,201013,016.6,E,D*25
$GPRMB,A,0.22,L,,Shil,4741.0830,N,12224.5670,W,0.2,243,-0.01,V*11
$PGRME,2.4,M,2.5,M,3.5,M*29
$HCHDG,273.8,0.0,E,,*27
$IIMWV,061,R,06.8,N,A*1A
$IIMWV,058,T,07.0,N,A*1F
$HCHDG,273.8,0.0,E,,*27
$IIRMB,A,0.22,L,,Shil,,,,,000.2,243,,V,A*7E
$GPRMC,200005.0,A,4741.19734,N,12224.24040,W,000.00,111.2,201013,016.6,E,D*2D
$PGRME,2.4,M,2.5,M,3.5,M*29
$HCHDG,273.7,0.0,E,,*28
$YXXDR,A,5.2,D,PTCH,A,1.8,D,ROLL*53
$PTAK,FFD1,1.8*5C
$IIRMC,200000,A,4741.197,N,12224.240,W,00.0,111,201013,16,E,A*13
$HCHDG,273.7,0.0,E,,*28
$IIVHW,,,,,00.0,N,,*19
$GPRMC,200005.2,A,4741.19734,N,12224.24040,W,000.01,111.2,201013,016.6,E,D*2E
$PGRME,2.4,M,2.5,M,3.5,M*29
$IIVLW,06403,N,010.9,N*5A
$HCHDG,273.7,0.0,E,,*28
$IIVWR,061,R,06.8,N,,,,*68
$HCHDG,273.7,0.0,E,,*28
$IIDPT,004.4,-1.0,*40
$GPRMC,200005.4,A,4741.19734,N,12224.24041,W,000.00,111.2,201013,016.6,E,D*28
$PGRME,2.4,M,2.5,M,3.5,M*29
$HCHDG,273.7,0.0,E,,*28
$HCHDG,273.7,0.0,E,,*28
$YXXDR,A,5.2,D,PTCH,A,1.3,D,ROLL*58
$GPRMC,200005.6,A,4741.19734,N,12224.24041,W,000.00,111.2,201013,016.6,E,D*2A
$PGRME,2.4,M,2.5,M,3.5,M*29
$HCHDG,273.7,0.0,E,,*28
$HCHDG,273.4,0.0,E,,*2B
$GPRMC,200005.8,A,4741.19734,N,12224.24040,W,000.00,111.2,201013,016.6,E,D*25
$GPRMB,A,0.22,L,,Shil,4741.0830,N,12224.5670,W,0.2,243,-0.00,V*10
$PGRME,2.4,M,2.5,M,3.5,M*29
$HCHDG,273.4,0.0,E,,*2B
$IIGLL,4741.197,N,12224.240,W,200000,A,A*48
$IIMTW,+09.0,C*31
$HCHDG,273.4,0.0,E,,*2B
$IIMWV,060,R,06.6,N,A*15
$GPRMC,200006.0,A,4741.19734,N,12224.24040,W,000.00,111.2,201013,016.6,E,D*2E
$PGRME,2.4,M,2.5,M,3.5,M*29
$IIMWV,061,T,06.8,N,A*1C
$HCHDG,273.2,0.0,E,,*2D
$YXXDR,A,4.9,D,PTCH,A,0.7,D,ROLL*57
$PTAK,FFD1,0.7*52
$IIRMB,A,0.22,L,,Shil,,,,,000.2,243,,V,A*7E
$HCHDG,273.1,0.0,E,,*2E
$GPRMC,200006.2,A,4741.19735,N,12224.24040,W,000.01,111.2,201013,016.6,E,D*2C
$PGRME,2.4,M,2.5,M,3.5,M*29
$HCHDG,273.1,0.0,E,,*2E
$IIRMC,200000,A,4741.197,N,12224.240,W,00.0,111,201013,16,E,A*13
$IIVHW,,,,,00.0,N,,*19
$HCHDG,273.0,0.0,E,,*2F
$IIVLW,06403,N,010.9,N*5A
$GPRMC,200006.4,A,4741.19734,N,12224.24040,W,000.00,111.2,201013,016.6,E,D*2A
$PGRME,2.4,M,2.5,M,3.5,M*29
$HCHDG,273.0,0.0,E,,*2F
$HCHDG,273.0,0.0,E,,*2F
$GPRMC,200006.6,A,4741.19735,N,12224.24041,W,000.00,111.2,201013,016.6,E,D*28
$YXXDR,A,5.1,D,PTCH,A,0.0,D,ROLL*59
$PGRME,2.4,M,2.5,M,3.5,M*29
$HCHDG,272.9,0.0,E,,*27
$HCHDG,273.0,0.0,E,,*2F
$GPRMC,200006.8,A,4741.19735,N,12224.24041,W,000.00,111.2,201013,016.6,E,D*26
$PGRME,2.4,M,2.5,M,3.5,M*29
$HCHDG,273.2,0.0,E,,*2D
$IIVWR,064,R,06.5,N,,,,*60
$IIDPT,004.4,-1.0,*40
$HCHDG,273.2,0.0,E,,*2D
$IIGLL,4741.197,N,12224.240,W,200000,A,A*48
$GPRMC,200007.0,A,4741.19735,N,12224.24041,W,000.01,111.2,201013,016.6,E,D*2E
$GPRMB,A,0.22,L,,Shil,4741.0830,N,12224.5670,W,0.2,243,-0.01,V*11
$PGRME,2.4,M,2.5,M,3.5,M*29
$IIMTW,+09.0,C*31
$HCHDG,273.2,0.0,E,,*2D
$IIMWV,064,R,06.5,N,A*12
$YXXDR,A,5.1,D,PTCH,A,0.0,D,ROLL*59
$PTAK,FFD1,0.0*55
$IIMWV,060,T,06.6,N,A*13
$HCHDG,273.2,0.0,E,,*2D
$GPRMC,200007.2,A,4741.19735,N,12224.24041,W,000.01,111.2,201013,016.6,E,D*2C
$PGRME,2.4,M,2.5,M,3.5,M*29
$IIRMB,A,0.22,L,,Shil,,,,,000.2,243,,V,A*7E
$HCHDG,273.1,0.0,E,,*2E
$HCHDG,273.1,0.0,E,,*2E
$IIRMC,200000,A,4741.197,N,12224.240,W,00.0,111,201013,16,E,A*13
$GPRMC,200007.4,A,4741.19735,N,12224.24041,W,000.01,111.2,201013,016.6,E,D*2A
$PGRME,2.4,M,2.5,M,3.5,M*29
$HCHDG,273.1,0.0,E,,*2E
$HCHDG,273.0,0.0,E,,*2F
$GPRMC,200007.6,A,4741.19735,N,12224.24042,W,000.01,111.2,201013,016.6,E,D*2B
$YXXDR,A,5.1,D,PTCH,A,0.1,D,ROLL*58
$PGRME,2.4,M,2.5,M,3.5,M*29
$HCHDG,273.0,0.0,E,,*2F
$HCHDG,273.0,0.0,E,,*2F
$GPRMC,200007.8,A,4741.19735,N,12224.24042,W,000.00,111.2,201013,016.6,E,D*24
$PGRME,2.4,M,2.4,M,3.5,M*28
$IIVHW,,,,,00.0,N,,*19
$HCHDG,273.0,0.0,E,,*2F
$IIVLW,06403,N,010.9,N*5A
$HCHDG,273.0,0.0,E,,*2F
$IIVWR,065,R,07.2,N,,,,*67
$IIDPT,004.4,-1.0,*40
$GPRMC,200008.0,A,4741.19735,N,12224.24042,W,000.00,111.2,201013,016.6,E,D*23
$GPRMB,A,0.22,L,,Shil,4741.0830,N,12224.5670,W,0.2,243,-0.00,V*10
$PGRME,2.4,M,2.4,M,3.4,M*29
$HCHDG,273.0,0.0,E,,*2F
$PTAK,FFP1,HEEL,@*07
$IIGLL,4741.197,N,12224.240,W,200000,A,A*48
$YXXDR,A,5.4,D,PTCH,A,0.5,D,ROLL*59
$IIMTW,+09.0,C*31
$HCHDG,273.1,0.0,E,,*2E
$IIMWV,065,R,07.2,N,A*15
$GPRMC,200008.2,A,4741.19735,N,12224.24042,W,000.01,111.2,201013,016.6,E,D*20
$PGRME,2.4,M,2.4,M,3.4,M*29
$HCHDG,273.1,0.0,E,,*2E
$IIMWV,064,T,06.5,N,A*14
$IIRMB,A,0.22,L,,Shil,,,,,000.2,243,,V,A*7E
$HCHDG,273.1,0.0,E,,*2E
$GPRMC,200008.4,A,4741.19735,N,12224.24043,W,000.00,111.2,201013,016.6,E,D*26
$PGRME,2.4,M,2.4,M,3.4,M*29
$HCHDG,273.1,0.0,E,,*2E
$HCHDG,273.1,0.0,E,,*2E
$YXXDR,A,5.0,D,PTCH,A,0.7,D,ROLL*5F
$PTAK,FFD1,0.7*52
$GPRMC,200008.6,A,4741.19735,N,12224.24043,W,000.00,111.2,201013,016.6,E,D*24
$PGRME,2.4,M,2.4,M,3.4,M*29
$HCHDG,273.1,0.0,E,,*2E
$HCHDG,273.1,0.0,E,,*2E
$GPRMC,200008.8,A,4741.19735,N,12224.24043,W,000.00,111.2,201013,016.6,E,D*2A
$PGRME,2.4,M,2.4,M,3.4,M*29
$HCHDG,273.2,0.0,E,,*2D
$IIRMC,200000,A,4741.197,N,12224.240,W,00.0,111,201013,16,E,A*13
$HCHDG,273.2,0.0,E,,*2D
$IIVHW,,,,,00.0,N,,*19
$GPRMC,200009.0,A,4741.19735,N,12224.24043,W,000.01,111.2,201013,016.6,E,D*22
$PGRME,2.4,M,2.4,M,3.4,M*29
$IIVLW,06403,N,010.9,N*5A
$HCHDG,273.5,0.0,E,,*2A
$IIVWR,063,R,07.4,N,,,,*67
$YXXDR,A,5.3,D,PTCH,A,0.8,D,ROLL*53
$IIDPT,004.4,-1.0,*40
$HCHDG,273.4,0.0,E,,*2B
$GPRMC,200009.2,A,4741.19735,N,12224.24043,W,000.01,111.2,201013,016.6,E,D*20
$GPRMB,A,0.22,L,,Shil,4741.0830,N,12224.5670,W,0.2,243,-0.01,V*11
$PGRME,2.4,M,2.4,M,3.4,M*29
$IIGLL,4741.197,N,12224.240,W,200000,A,A*48
$HCHDG,273.4,0.0,E,,*2B
$IIMTW,+09.0,C*31
$IIMWV,063,R,07.4,N,A*15
$HCHDG,273.4,0.0,E,,*2B
$IIMWV,065,T,07.2,N,A*13
$GPRMC,200009.4,A,4741.19734,N,12224.24043,W,000.01,111.2,201013,016.6,E,D*27
$PGRME,2.4,M,2.4,M,3.4,M*29
$HCHDG,273.3,0.0,E,,*2C
$HCHDG,273.3,0.0,E,,*2C
$GPRMC,200009.6,A,4741.19735,N,12224.24044,W,000.00,111.2,201013,016.6,E,D*22
$YXXDR,A,5.1,D,PTCH,A,0.1,D,ROLL*58
$PTAK,FFD1,0.1*54
$PGRME,2.4,M,2.4,M,3.4,M*29
$HCHDG,273.1,0.0,E,,*2E
$HCHDG,273.1,0.0,E,,*2E
$GPRMC,200009.8,A,4741.19735,N,12224.24044,W,000.00,111.2,201013,016.6,E,D*2C
$PGRME,2.4,M,2.4,M,3.4,M*29
$HCHDG,273.2,0.0,E,,*2D
$IIRMB,A,0.22,L,,Shil,,,,,000.2,243,,V,A*7E
$HCHDG,273.3,0.0,E,,*2C
$GPRMC,200010.0,A,4741.19735,N,12224.24044,W,000.00,111.2,201013,016.6,E,D*2C
$IIRMC,200000,A,4741.197,N,12224.240,W,00.0,111,201013,16,E,A*13
$PGRME,2.4,M,2.4,M,3.4,M*29
$HCHDG,273.3,0.0,E,,*2C
$IIVHW,,,,,00.0,N,,*19
$YXXDR,A,5.3,D,PTCH,A,-0.2,D,ROLL*74
$IIVLW,06403,N,010.9,N*5A
$HCHDG,273.2,0.0,E,,*2D
$IIVWR,060,R,07.6,N,,,,*66
$GPRMC,200010.2,A,4741.19735,N,12224.24044,W,000.01,111.2,201013,016.6,E,D*2F
$GPRMB,A,0.22,L,,Shil,4741.0830,N,12224.5670,W,0.2,243,-0.01,V*11
$PGRME,2.4,M,2.4,M,3.4,M*29
$IIDPT,004.4,-1.0,*40
$HCHDG,273.3,0.0,E,,*2C
$IIGLL,4741.197,N,12224.240,W,200000,A,A*48
$HCHDG,273.4,0.0,E,,*2B
$IIMTW,+09.0,C*31
$GPRMC,200010.4,A,4741.19735,N,12224.24044,W,000.00,111.2,201013,016.6,E,D*28
$PGRME,2.4,M,2.4,M,3.4,M*29
$HCHDG,273.4,0.0,E,,*2B
$HCHDG,273.4,0.0,E,,*2B
$GPRMC,200010.6,A,4741.19735,N,12224.24044,W,000.01,111.2,201013,016.6,E,D*2B
$YXXDR,A,5.1,D,PTCH,A,-0.3,D,ROLL*77
$PGRME,2.4,M,2.4,M,3.4,M*29
$HCHDG,273.5,0.0,E,,*2A
$HCHDG,273.5,0.0,E,,*2A
$GPRMC,200010.8,A,4741.19735,N,12224.24044,W,000.01,111.2,201013,016.6,E,D*25
$PGRME,2.4,M,2.4,M,3.4,M*29
$HCHDG,273.5,0.0,E,,*2A
$IIMWV,063,R,07.2,N,A*13
$IIMWV,060,T,07.6,N,A*12
$HCHDG,273.6,0.0,E,,*29
$IIRMB,A,0.22,L,,Shil,,,,,000.2,243,,V,A*7E
$GPRMC,200011.0,A,4741.19735,N,12224.24044,W,000.01,111.2,201013,016.6,E,D*2C
$PGRME,2.4,M,2.4,M,3.4,M*29
$HCHDG,273.4,0.0,E,,*2B
$YXXDR,A,5.1,D,PTCH,A,-0.3,D,ROLL*77
$PTAK,FFD1,0.3*56
$IIRMC,200000,A,4741.197,N,12224.240,W,00.0,111,201013,16,E,A*13
$HCHDG,273.4,0.0,E,,*2B
$IIVHW,,,,,00.0,N,,*19
$GPRMC,200011.2,A,4741.19735,N,12224.24044,W,000.01,111.2,201013,016.6,E,D*2E
$PGRME,2.4,M,2.4,M,3.4,M*29
$IIVLW,06403,N,010.9,N*5A
$HCHDG,273.4,0.0,E,,*2B
$IIVWR,063,R,07.2,N,,,,*61
$IIDPT,004.4,-1.0,*40
$HCHDG,273.4,0.0,E,,*2B
$GPRMC,200011.4,A,4741.19735,N,12224.24044,W,000.00,111.2,201013,016.6,E,D*29
$GPRMB,A,0.22,L,,Shil,4741.0830,N,12224.5670,W,0.2,243,-0.00,V*10
$PGRME,2.4,M,2.4,M,3.4,M*29
$HCHDG,273.4,0.0,E,,*2B
$HCHDG,273.4,0.0,E,,*2B
$GPRMC,200011.6,A,4741.19735,N,12224.24044,W,000.01,111.2,201013,016.6,E,D*2A
$YXXDR,A,5.0,D,PTCH,A,0.0,D,ROLL*58
$PGRME,2.4,M,2.4,M,3.4,M*29
$HCHDG,273.5,0.0,E,,*2A
$HCHDG,273.5,0.0,E,,*2A
$GPRMC,200011.8,A,4741.19735,N,12224.24044,W,000.01,111.2,201013,016.6,E,D*24
$PGRME,2.4,M,2.4,M,3.4,M*29
$HCHDG,273.5,0.0,E,,*2A
$IIGLL,4741.197,N,12224.240,W,200000,A,A*48
$IIMTW,+09.0,C*31
$HCHDG,273.5,0.0,E,,*2A
$IIMWV,070,R,08.2,N,A*1E
$GPRMC,200012.0,A,4741.19735,N,12224.24044,W,000.01,111.2,201013,016.6,E,D*2F
$PGRME,2.4,M,2.4,M,3.4,M*29
$IIMWV,063,T,07.2,N,A*15
$HCHDG,273.5,0.0,E,,*2A
$YXXDR,A,5.1,D,PTCH,A,0.3,D,ROLL*5A
$PTAK,FFD1,0.3*56
$IIRMB,A,0.22,L,,Shil,,,,,000.2,243,,V,A*7E
$HCHDG,273.5,0.0,E,,*2A
$GPRMC,200012.2,A,4741.19735,N,12224.24044,W,000.00,111.2,201013,016.6,E,D*2C
$PGRME,2.4,M,2.4,M,3.4,M*29
$HCHDG,273.5,0.0,E,,*2A
$PTAK,FFP1,HEEL,@*07
$IIRMC,200000,A,4741.197,N,12224.240,W,00.0,111,201013,16,E,A*13
$IIVHW,,,,,00.0,N,,*19
$HCHDG,273.5,0.0,E,,*2A
$IIVLW,06403,N,010.9,N*5A
$GPRMC,200012.4,A,4741.19735,N,12224.24044,W,000.01,111.2,201013,016.6,E,D*2B
$GPRMB,A,0.22,L,,Shil,4741.0830,N,12224.5670,W,0.2,243,-0.01,V*11
$PGRME,2.4,M,2.4,M,3.4,M*29
$HCHDG,273.5,0.0,E,,*2A
$HCHDG,273.5,0.0,E,,*2A
$GPRMC,200012.6,A,4741.19736,N,12224.24044,W,000.00,111.2,201013,016.6,E,D*2B
$YXXDR,A,5.1,D,PTCH,A,0.4,D,ROLL*5D
$PGRME,2.4,M,2.4,M,3.4,M*29
$HCHDG,273.5,0.0,E,,*2A
$HCHDG,273.6,0.0,E,,*29
$GPRMC,200012.8,A,4741.19736,N,12224.24044,W,000.00,111.2,201013,016.6,E,D*25
$PGRME,2.4,M,2.4,M,3.4,M*29
$HCHDG,273.6,0.0,E,,*29
$IIVWR,078,R,08.4,N,,,,*62
$IIDPT,004.4,-1.0,*40
$HCHDG,273.6,0.0,E,,*29
$IIGLL,4741.197,N,12224.240,W,200000,A,A*48
$GPRMC,200013.0,A,4741.19736,N,12224.24044,W,000.00,111.2,201013,016.6,E,D*2C
$PGRME,2.4,M,2.4,M,3.4,M*29
$IIMTW,+09.0,C*31
$HCHDG,273.6,0.0,E,,*29
$IIMWV,078,R,08.4,N,A*10
$YXXDR,A,5.1,D,PTCH,A,0.1,D,ROLL*58
$PTAK,FFD1,0.1*54
$IIMWV,070,T,08.2,N,A*18
$HCHDG,273.7,0.0,E,,*28
$GPRMC,200013.2,A,4741.19736,N,12224.24044,W,000.01,111.2,201013,016.6,E,D*2F
$PGRME,2.4,M,2.4,M,3.4,M*29
$IIRMB,A,0.22,L,,Shil,,,,,000.2,243,,V,A*7E
$HCHDG,273.7,0.0,E,,*28
$HCHDG,273.7,0.0,E,,*28
$IIRMC,200000,A,4741.197,N,12224.240,W,00.0,111,201013,16,E,A*13
$GPRMC,200013.4,A,4741.19736,N,12224.24044,W,000.01,111.2,201013,016.6,E,D*29
$GPRMB,A,0.22,L,,Shil,4741.0830,N,12224.5670,W,0.2,243,-0.01,V*11
$PGRME,2.4,M,2.4,M,3.4,M*29
$HCHDG,273.7,0.0,E,,*28
$HCHDG,273.8,0.0,E,,*27
$GPRMC,200013.6,A,4741.19736,N,12224.24044,W,000.01,111.2,201013,016.6,E,D*2B
$YXXDR,A,5.1,D,PTCH,A,0.0,D,ROLL*59
$PGRME,2.4,M,2.4,M,3.4,M*29
$HCHDG,273.7,0.0,E,,*28
$HCHDG,273.7,0.0,E,,*28
$GPRMC,200013.8,A,4741.19736,N,12224.24044,W,000.01,111.2,201013,016.6,E,D*25
$PGRME,2.4,M,2.4,M,3.4,M*29
$IIVHW,,,,,00.0,N,,*19
$HCHDG,273.8,0.0,E,,*27
$IIVLW,06403,N,010.9,N*5A
$HCHDG,273.8,0.0,E,,*27
$IIVWR,077,R,08.1,N,,,,*68
$IIDPT,004.4,-1.0,*40
$GPRMC,200014.0,A,4741.19736,N,12224.24044,W,000.01,111.2,201013,016.6,E,D*2A
$PGRME,2.4,M,2.4,M,3.4,M*29
$HCHDG,273.8,0.0,E,,*27
$IIGLL,4741.197,N,12224.240,W,200000,A,A*48
$YXXDR,A,5.1,D,PTCH,A,-0.4,D,ROLL*70
$PTAK,FFD1,0.4*51
$IIMTW,+09.0,C*31
$HCHDG,273.6,0.0,E,,*29
$IIMWV,077,R,08.1,N,A*1A
$GPRMC,200014.2,A,4741.19736,N,12224.24044,W,000.01,111.2,201013,016.6,E,D*28
$PGRME,2.4,M,2.4,M,3.4,M*29
$HCHDG,273.7,0.0,E,,*28
$IIMWV,078,T,08.4,N,A*16
$IIRMB,A,0.22,L,,Shil,,,,,000.2,243,,V,A*7E
$HCHDG,273.6,0.0,E,,*29
$GPRMC,200014.4,A,4741.19735,N,12224.24044,W,000.00,111.2,201013,016.6,E,D*2C
$PGRME,2.4,M,2.4,M,3.4,M*29
$HCHDG,273.5,0.0,E,,*2A
$HCHDG,273.5,0.0,E,,*2A
$GPRMC,200014.6,A,4741.19735,N,12224.24044,W,000.00,111.2,201013,016.6,E,D*2E
$GPRMB,A,0.22,L,,Shil,4741.0830,N,12224.5670,W,0.2,243,-0.00,V*10
$YXXDR,A,5.1,D,PTCH,A,0.0,D,ROLL*59
$PGRME,2.4,M,2.4,M,3.4,M*29
$HCHDG,273.5,0.0,E,,*2A
$HCHDG,273.5,0.0,E,,*2A
$GPRMC,200014.8,A,4741.19735,N,12224.24044,W,000.00,111.2,201013,016.6,E,D*20
$PGRME,2.4,M,2.4,M,3.4,M*29
$HCHDG,273.5,0.0,E,,*2A
$IIRMC,200000,A,4741.197,N,12224.240,W,00.0,111,201013,16,E,A*13
$HCHDG,273.3,0.0,E,,*2C
$IIVHW,,,,,00.0,N,,*19
$GPRMC,200015.0,A,4741.19736,N,12224.24044,W,000.00,111.2,201013,016.6,E,D*2A
$PGRME,2.4,M,2.4,M,3.4,M*29
$IIVLW,06403,N,010.9,N*5A
$HCHDG,273.6,0.0,E,,*29
$IIVWR,075,R,07.9,N,,,,*6D
$YXXDR,A,5.2,D,PTCH,A,0.0,D,ROLL*5A
$IIDPT,004.4,-1.0,*40
$HCHDG,273.5,0.0,E,,*2A
$GPRMC,200015.2,A,4741.19736,N,12224.24044,W,000.01,111.2,201013,016.6,E,D*29
$PGRME,2.4,M,2.4,M,3.4,M*29
$IIGLL,4741.197,N,12224.240,W,200000,A,A*48
$HCHDG,273.6,0.0,E,,*29
$IIMTW,+09.0,C*31
$IIMWV,075,R,07.9,N,A*1F
$HCHDG,273.6,0.0,E,,*29
$IIMWV,077,T,08.1,N,A*1C
$GPRMC,200015.4,A,4741.19736,N,12224.24044,W,000.00,111.2,201013,016.6,E,D*2E
$PGRME,2.4,M,2.4,M,3.4,M*29
$HCHDG,273.6,0.0,E,,*29
$HCHDG,273.5,0.0,E,,*2A
$GPRMC,200015.6,A,4741.19736,N,12224.24044,W,000.00,111.2,201013,016.6,E,D*2C
$YXXDR,A,5.2,D,PTCH,A,0.0,D,ROLL*5A
$PTAK,FFD1,0.0*55
$PGRME,2.4,M,2.4,M,3.4,M*29
$HCHDG,273.5,0.0,E,,*2A
$HCHDG,273.5,0.0,E,,*2A
$GPRMC,200015.8,A,4741.19736,N,12224.24045,W,000.00,111.2,201013,016.6,E,D*23
$GPRMB,A,0.22,L,,Shil,4741.0830,N,12224.5670,W,0.2,243,-0.00,V*10
$PGRME,2.4,M,2.4,M,3.4,M*29
$HCHDG,273.4,0.0,E,,*2B
$IIRMB,A,0.22,L,,Shil,,,,,000.2,243,,V,A*7E
$HCHDG,273.4,0.0,E,,*2B
$IIRMC,200000,A,4741.197,N,12224.240,W,00.0,111,201013,16,E,A*13
$GPRMC,200016.0,A,4741.19736,N,12224.24045,W,000.00,111.2,201013,016.6,E,D*28
$PGRME,2.4,M,2.4,M,3.4,M*29
$HCHDG,273.4,0.0,E,,*2B
$IIVHW,,,,,00.0,N,,*19
$YXXDR,A,5.1,D,PTCH,A,0.6,D,ROLL*5F
$IIVLW,06403,N,010.9,N*5A
$HCHDG,273.3,0.0,E,,*2C
$IIVWR,075,R,07.8,N,,,,*6C
$GPRMC,200016.2,A,4741.19736,N,12224.24045,W,000.00,111.2,201013,016.6,E,D*2A
$PGRME,2.4,M,2.4,M,3.4,M*29
$IIDPT,004.4,-1.0,*40
$HCHDG,273.3,0.0,E,,*2C
$PTAK,FFP1,HEEL,@*07
$IIGLL,4741.197,N,12224.240,W,200000,A,A*48
$HCHDG,273.3,0.0,E,,*2C
$IIMTW,+09.0,C*31
$GPRMC,200016.4,A,4741.19736,N,12224.24044,W,000.00,111.2,201013,016.6,E,D*2D
$PGRME,2.4,M,2.4,M,3.4,M*29
$HCHDG,273.3,0.0,E,,*2C
$HCHDG,273.2,0.0,E,,*2D
$YXXDR,A,5.4,D,PTCH,A,0.8,D,ROLL*54
$GPRMC,200016.6,A,4741.19736,N,12224.24044,W,000.00,111.2,201013,016.6,E,D*2F
$PGRME,2.4,M,2.4,M,3.4,M*29
$HCHDG,273.2,0.0,E,,*2D
$HCHDG,273.2,0.0,E,,*2D
$GPRMC,200016.8,A,4741.19736,N,12224.24044,W,000.00,111.2,201013,016.6,E,D*21
$GPRMB,A,0.22,L,,Shil,4741.0830,N,12224.5670,W,0.2,243,-0.00,V*10
$PGRME,2.4,M,2.4,M,3.4,M*29
$HCHDG,273.2,0.0,E,,*2D
$IIMWV,076,R,07.7,N,A*12
$IIMWV,075,T,07.8,N,A*18
$HCHDG,273.2,0.0,E,,*2D
$IIRMB,A,0.22,L,,Shil,,,,,000.2,243,,V,A*7E
$GPRMC,200017.0,A,4741.19737,N,12224.24044,W,000.01,111.2,201013,016.6,E,D*28
$PGRME,2.4,M,2.4,M,3.4,M*29
$HCHDG,273.2,0.0,E,,*2D
$YXXDR,A,5.0,D,PTCH,A,0.1,D,ROLL*59
$PTAK,FFD1,0.1*54
$IIRMC,200000,A,4741.197,N,12224.240,W,00.0,111,201013,16,E,A*13
$HCHDG,273.2,0.0,E,,*2D
$IIVHW,,,,,00.0,N,,*19
$GPRMC,200017.2,A,4741.19737,N,12224.24045,W,000.01,111.2,201013,016.6,E,D*2B
$PGRME,2.4,M,2.4,M,3.4,M*29
$IIVLW,06403,N,010.9,N*5A
$HCHDG,273.3,0.0,E,,*2C
$IIVWR,076,R,07.7,N,,,,*60
$IIDPT,004.4,-1.0,*40
$HCHDG,273.2,0.0,E,,*2D
$GPRMC,200017.4,A,4741.19737,N,12224.24045,W,000.01,111.2,201013,016.6,E,D*2D
$PGRME,2.4,M,2.4,M,3.4,M*29
$HCHDG,273.2,0.0,E,,*2D
$HCHDG,273.2,0.0,E,,*2D
$GPRMC,200017.6,A,4741.19737,N,12224.24045,W,000.00,111.2,201013,016.6,E,D*2E
$YXXDR,A,5.4,D,PTCH,A,0.5,D,ROLL*59
$PGRME,2.4,M,2.4,M,3.4,M*29
$HCHDG,273.5,0.0,E,,*2A
$HCHDG,273.5,0.0,E,,*2A
$GPRMC,200017.8,A,4741.19737,N,12224.24044,W,000.01,111.2,201013,016.6,E,D*20
$PGRME,2.4,M,2.4,M,3.4,M*29
$HCHDG,273.5,0.0,E,,*2A
$IIGLL,4741.197,N,12224.240,W,200000,A,A*48
$IIMTW,+09.0,C*31
$HCHDG,273.5,0.0,E,,*2A
$IIMWV,077,R,07.2,N,A*16
$GPRMC,200018.0,A,4741.19737,N,12224.24044,W,000.00,111.2,201013,016.6,E,D*26
$PGRME,2.4,M,2.4,M,3.4,M*29
$IIMWV,076,T,07.7,N,A*14
$HCHDG,273.5,0.0,E,,*2A
$YXXDR,A,5.4,D,PTCH,A,0.7,D,ROLL*5B
$IIRMB,A,0.22,L,,Shil,,,,,000.2,243,,V,A*7E
$HCHDG,273.5,0.0,E,,*2A
$GPRMC,200018.2,A,4741.19737,N,12224.24044,W,000.01,111.2,201013,016.6,E,D*25
$GPRMB,A,0.22,L,,Shil,4741.0830,N,12224.5670,W,0.2,243,-0.01,V*11
$PGRME,2.4,M,2.4,M,3.4,M*29
$HCHDG,273.5,0.0,E,,*2A
$IIRMC,200000,A,4741.197,N,12224.240,W,00.0,111,201013,16,E,A*13
$IIVHW,,,,,00.0,N,,*19
$HCHDG,273.5,0.0,E,,*2A
$IIVLW,06403,N,010.9,N*5A
$GPRMC,200018.4,A,4741.19737,N,12224.24045,W,000.01,111.2,201013,016.6,E,D*22
$PGRME,2.4,M,2.4,M,3.4,M*29
$HCHDG,273.5,0.0,E,,*2A
$HCHDG,273.6,0.0,E,,*29
$GPRMC,200018.6,A,4741.19737,N,12224.24045,W,000.01,111.2,201013,016.6,E,D*20
$YXXDR,A,5.4,D,PTCH,A,1.0,D,ROLL*5D
$PTAK,FFD1,1.0*54
$PGRME,2.4,M,2.4,M,3.4,M*29
$HCHDG,273.5,0.0,E,,*2A
$HCHDG,273.5,0.0,E,,*2A
$GPRMC,200018.8,A,4741.19737,N,12224.24045,W,000.00,111.2,201013,016.6,E,D*2F
$PGRME,2.4,M,2.4,M,3.4,M*29
$HCHDG,273.5,0.0,E,,*2A
$IIVWR,073,R,08.0,N,,,,*6D
$IIDPT,004.4,-1.0,*40
$HCHDG,273.6,0.0,E,,*29
$IIGLL,4741.197,N,12224.240,W,200000,A,A*48
$GPRMC,200019.0,A,4741.19737,N,12224.24044,W,000.01,111.2,201013,016.6,E,D*26
$PGRME,2.4,M,2.4,M,3.4,M*29
$IIMTW,+09.0,C*31
$HCHDG,273.8,0.0,E,,*27
$IIMWV,073,R,08.0,N,A*1F
$YXXDR,A,5.4,D,PTCH,A,2.2,D,ROLL*5C
$IIMWV,077,T,07.2,N,A*10
$HCHDG,273.8,0.0,E,,*27
$GPRMC,200019.2,A,4741.19737,N,12224.24044,W,000.00,111.2,201013,016.6,E,D*25
$PGRME,2.4,M,2.4,M,3.4,M*29
$IIRMB,A,0.22,L,,Shil,,,,,000.2,243,,V,A*7E
$HCHDG,273.8,0.0,E,,*27
$HCHDG,274.0,0.0,E,,*28
$IIRMC,200000,A,4741.197,N,12224.240,W,00.0,111,201013,16,E,A*13
$GPRMC,200019.4,A,4741.19737,N,12224.24044,W,000.01,111.2,201013,016.6,E,D*22
$GPRMB,A,0.22,L,,Shil,4741.0830,N,12224.5670,W,0.2,243,-0.01,V*11
$PGRME,2.4,M,2.4,M,3.4,M*29
$HCHDG,273.9,0.0,E,,*26
$HCHDG,273.9,0.0,E,,*26
$YXXDR,A,5.8,D,PTCH,A,3.0,D,ROLL*53
$GPRMC,200019.6,A,4741.19737,N,12224.24044,W,000.01,111.2,201013,016.6,E,D*20
$PGRME,2.4,M,2.4,M,3.4,M*29
$HCHDG,273.9,0.0,E,,*26
$HCHDG,273.9,0.0,E,,*26
$GPRMC,200019.8,A,4741.19737,N,12224.24044,W,000.00,111.2,201013,016.6,E,D*2F
$PGRME,2.4,M,2.4,M,3.4,M*29
$IIVHW,,,,,00.0,N,,*19
$HCHDG,273.9,0.0,E,,*26
$IIVLW,06403,N,010.9,N*5A
$HCHDG,273.9,0.0,E,,*26
$IIVWR,072,R,08.3,N,,,,*6F
$IIDPT,004.4,-1.0,*40
$GPRMC,200020.0,A,4741.19737,N,12224.24044,W,000.00,111.2,201013,016.6,E,D*2D
$PGRME,2.4,M,2.4,M,3.4,M*29
$HCHDG,273.9,0.0,E,,*26
$IIGLL,4741.197,N,12224.240,W,200000,A,A*48
$YXXDR,A,5.6,D,PTCH,A,4.0,D,ROLL*5A
$PTAK,FFD1,4.0*51
$IIMTW,+09.0,C*31
$HCHDG,274.0,0.0,E,,*28
$IIMWV,072,R,08.3,N,A*1D
$GPRMC,200020.2,A,4741.19737,N,12224.24044,W,000.00,111.2,201013,016.6,E,D*2F
$PGRME,2.4,M,2.4,M,3.4,M*29
$HCHDG,273.9,0.0,E,,*26
$IIMWV,073,T,08.0,N,A*19
$IIRMB,A,0.22,L,,Shil,,,,,000.2,243,,V,A*7E
$HCHDG,273.9,0.0,E,,*26
$GPRMC,200020.4,A,4741.19737,N,12224.24044,W,000.01,111.2,201013,016.6,E,D*28
$PGRME,2.4,M,2.4,M,3.4,M*29
$HCHDG,273.9,0.0,E,,*26
$HCHDG,274.1,0.0,E,,*29
$YXXDR,A,5.6,D,PTCH,A,3.6,D,ROLL*5B
$GPRMC,200020.6,A,4741.19737,N,12224.24044,W,000.01,111.2,201013,016.6,E,D*2A
$GPRMB,A,0.22,L,,Shil,4741.0830,N,12224.5670,W,0.2,243,-0.01,V*11
$PGRME,2.4,M,2.4,M,3.4,M*29
$HCHDG,274.1,0.0,E,,*29
$PTAK,FFP1,HEEL,@*07
$HCHDG,274.1,0.0,E,,*29
$GPRMC,200020.8,A,4741.19737,N,12224.24044,W,000.00,111.2,201013,016.6,E,D*25
$PGRME,2.4,M,2.4,M,3.4,M*29
$HCHDG,274.1,0.0,E,,*29
$IIRMC,200000,A,4741.197,N,12224.240,W,00.0,111,201013,16,E,A*13
$HCHDG,274.1,0.0,E,,*29
$IIVHW,,,,,00.0,N,,*19
$GPRMC,200021.0,A,4741.19737,N,12224.24044,W,000.00,111.2,201013,016.6,E,D*2C
$PGRME,2.4,M,2.4,M,3.4,M*29
$IIVLW,06403,N,010.9,N*5A
$HCHDG,274.1,0.0,E,,*29
$IIVWR,070,R,08.5,N,,,,*6B
$YXXDR,A,5.6,D,PTCH,A,3.0,D,ROLL*5D
$IIDPT,004.4,-1.0,*40
$HCHDG,274.1,0.0,E,,*29
$GPRMC,200021.2,A,4741.19738,N,12224.24045,W,000.00,111.2,201013,016.6,E,D*20
$PGRME,2.4,M,2.4,M,3.4,M*29
$IIGLL,4741.197,N,12224.240,W,200000,A,A*48
$HCHDG,274.1,0.0,E,,*29
$IIMTW,+09.0,C*31
$IIMWV,070,R,08.5,N,A*19
$HCHDG,274.1,0.0,E,,*29
$IIMWV,072,T,08.3,N,A*1B
$GPRMC,200021.4,A,4741.19738,N,12224.24045,W,000.00,111.2,201013,016.6,E,D*26
$PGRME,2.4,M,2.4,M,3.4,M*29
$HCHDG,274.1,0.0,E,,*29
$HCHDG,274.1,0.0,E,,*29
$GPRMC,200021.6,A,4741.19738,N,12224.24044,W,000.00,111.2,201013,016.6,E,D*25
$YXXDR,A,5.4,D,PTCH,A,2.3,D,ROLL*5D
$PTAK,FFD1,2.3*54
$PGRME,2.4,M,2.4,M,3.4,M*29
$HCHDG,273.9,0.0,E,,*26
$HCHDG,273.9,0.0,E,,*26
$GPRMC,200021.8,A,4741.19738,N,12224.24044,W,000.00,111.2,201013,016.6,E,D*2B
$GPRMB,A,0.22,L,,Shil,4741.0830,N,12224.5670,W,0.2,243,-0.00,V*10
$PGRME,2.4,M,2.4,M,3.4,M*29
$HCHDG,273.9,0.0,E,,*26
$IIRMB,A,0.22,L,,Shil,,,,,000.2,243,,V,A*7E
$HCHDG,274.0,0.0,E,,*28
$GPRMC,200022.0,A,4741.19737,N,12224.24044,W,000.00,111.2,201013,016.6,E,D*2F
$IIRMC,200000,A,4741.197,N,12224.240,W,00.0,111,201013,16,E,A*13
$PGRME,2.4,M,2.4,M,3.4,M*29
$HCHDG,274.0,0.0,E,,*28
$IIVHW,,,,,00.0,N,,*19
$YXXDR,A,5.4,D,PTCH,A,1.3,D,ROLL*5E
$IIVLW,06403,N,010.9,N*5A
$HCHDG,274.0,0.0,E,,*28
$IIVWR,069,R,08.0,N,,,,*66
$GPRMC,200022.2,A,4741.19738,N,12224.24044,W,000.00,111.2,201013,016.6,E,D*22
$PGRME,2.4,M,2.4,M,3.4,M*29
$IIDPT,004.4,-1.0,*40
$HCHDG,274.1,0.0,E,,*29
$IIGLL,4741.197,N,12224.240,W,200000,A,A*48
$HCHDG,274.1,0.0,E,,*29
$IIMTW,+09.0,C*31
$GPRMC,200022.4,A,4741.19738,N,12224.24044,W,000.00,111.2,201013,016.6,E,D*24
$PGRME,2.4,M,2.4,M,3.4,M*29
$HCHDG,274.1,0.0,E,,*29
$HCHDG,274.1,0.0,E,,*29
$GPRMC,200022.6,A,4741.19738,N,12224.24043,W,000.01,111.2,201013,016.6,E,D*20
$YXXDR,A,5.5,D,PTCH,A,1.4,D,ROLL*58
$PTAK,FFD1,1.4*50
$PGRME,2.4,M,2.4,M,3.4,M*29
$HCHDG,274.2,0.0,E,,*2A
$HCHDG,274.2,0.0,E,,*2A
$GPRMC,200022.8,A,4741.19738,N,12224.24043,W,000.01,111.2,201013,016.6,E,D*2E
$PGRME,2.4,M,2.4,M,3.4,M*29
$HCHDG,274.3,0.0,E,,*2B
$IIMWV,067,R,07.3,N,A*16
$IIMWV,069,T,08.0,N,A*12
$HCHDG,274.4,0.0,E,,*2C
$IIRMB,A,0.22,L,,Shil,,,,,000.2,243,,V,A*7E
$GPRMC,200023.0,A,4741.19738,N,12224.24043,W,000.00,111.2,201013,016.6,E,D*26
$GPRMB,A,0.22,L,,Shil,4741.0830,N,12224.5670,W,0.2,243,-0.00,V*10
$PGRME,2.4,M,2.4,M,3.4,M*29
$HCHDG,274.4,0.0,E,,*2C
$YXXDR,A,5.4,D,PTCH,A,2.0,D,ROLL*5E
$IIRMC,200000,A,4741.197,N,12224.240,W,00.0,111,201013,16,E,A*13
$HCHDG,274.5,0.0,E,,*2D
$IIVHW,,,,,00.0,N,,*19
$GPRMC,200023.2,A,4741.19738,N,12224.24043,W,000.00,111.2,201013,016.6,E,D*24
$PGRME,2.4,M,2.4,M,3.4,M*29
$IIVLW,06403,N,010.9,N*5A
$HCHDG,274.5,0.0,E,,*2D
$IIVWR,067,R,07.3,N,,,,*64
$HCHDG,274.6,0.0,E,,*2E
$IIDPT,004.4,-1.0,*40
$GPRMC,200023.4,A,4741.19738,N,12224.24043,W,000.00,111.2,201013,016.6,E,D*22
$PGRME,2.4,M,2.4,M,3.4,M*29
$HCHDG,274.6,0.0,E,,*2E
$HCHDG,274.6,0.0,E,,*2E
$YXXDR,A,5.4,D,PTCH,A,3.3,D,ROLL*5C
$GPRMC,200023.6,A,4741.19738,N,12224.24043,W,000.00,111.2,201013,016.6,E,D*20
$PGRME,2.4,M,2.4,M,3.4,M*29
$HCHDG,274.7,0.0,E,,*2F
$HCHDG,274.7,0.0,E,,*2F
$GPRMC,200023.8,A,4741.19738,N,12224.24043,W,000.01,111.2,201013,016.6,E,D*2F
$PGRME,2.4,M,2.4,M,3.4,M*29
$HCHDG,274.7,0.0,E,,*2F
$IIGLL,4741.197,N,12224.240,W,200000,A,A*48
$IIMTW,+09.0,C*31
$HCHDG,274.7,0.0,E,,*2F
$IIMWV,064,R,07.9,N,A*1F
$GPRMC,200024.0,A,4741.19737,N,12224.24043,W,000.00,111.2,201013,016.6,E,D*2E
$PGRME,2.4,M,2.4,M,3.4,M*29
$IIMWV,067,T,07.3,N,A*10
$HCHDG,274.8,0.0,E,,*20
$YXXDR,A,5.5,D,PTCH,A,3.1,D,ROLL*5F
$PTAK,FFD1,3.1*57
$IIRMB,A,0.22,L,,Shil,,,,,000.2,243,,V,A*7E
$HCHDG,274.7,0.0,E,,*2F
$GPRMC,200024.2,A,4741.19737,N,12224.24043,W,000.01,111.2,201013,016.6,E,D*2D
$GPRMB,A,0.22,L,,Shil,4741.0830,N,12224.5670,W,0.2,243,-0.01,V*11
$PGRME,2.4,M,2.4,M,3.4,M*29
$HCHDG,274.7,0.0,E,,*2F
$IIRMC,200000,A,4741.197,N,12224.240,W,00.0,111,201013,16,E,A*13
$IIVHW,,,,,00.0,N,,*19
$HCHDG,274.8,0.0,E,,*20
$IIVLW,06403,N,010.9,N*5A
$GPRMC,200024.4,A,4741.19737,N,12224.24043,W,000.00,111.2,201013,016.6,E,D*2A
$PGRME,2.4,M,2.4,M,3.4,M*29
$HCHDG,274.8,0.0,E,,*20
$HCHDG,274.8,0.0,E,,*20
$YXXDR,A,5.5,D,PTCH,A,2.8,D,ROLL*57
$GPRMC,200024.6,A,4741.19737,N,12224.24043,W,000.01,111.2,201013,016.6,E,D*29
$PGRME,2.4,M,2.4,M,3.4,M*29
$HCHDG,274.9,0.0,E,,*21
$HCHDG,274.9,0.0,E,,*21
$GPRMC,200024.8,A,4741.19737,N,12224.24044,W,000.01,111.2,201013,016.6,E,D*20
$PGRME,2.4,M,2.4,M,3.5,M*28
$HCHDG,274.9,0.0,E,,*21
$PTAK,FFP1,HEEL,@*07
$IIVWR,059,R,07.8,N,,,,*62
$IIDPT,004.4,-1.0,*40
$HCHDG,274.9,0.0,E,,*21
$IIGLL,4741.197,N,12224.240,W,200000,A,A*48
$GPRMC,200025.0,A,4741.19738,N,12224.24045,W,000.01,111.2,201013,016.6,E,D*27
$PGRME,2.5,M,2.4,M,3.5,M*29
$IIMTW,+09.0,C*31
$HCHDG,275.0,0.0,E,,*29
$IIMWV,059,R,07.8,N,A*10
$YXXDR,A,5.4,D,PTCH,A,2.4,D,ROLL*5A
$PTAK,FFD1,2.4*53
$IIMWV,064,T,07.9,N,A*19
$HCHDG,275.0,0.0,E,,*29
$GPRMC,200025.2,A,4741.19738,N,12224.24045,W,000.01,111.2,201013,016.6,E,D*25
$PGRME,2.5,M,2.4,M,3.5,M*29
$IIRMB,A,0.22,L,,Shil,,,,,000.2,243,,V,A*7E
$HCHDG,275.0,0.0,E,,*29
$HCHDG,274.8,0.0,E,,*20
$IIRMC,200000,A,4741.197,N,12224.240,W,00.0,111,201013,16,E,A*13
$GPRMC,200025.4,A,4741.19738,N,12224.24046,W,000.00,111.2,201013,016.6,E,D*21
$GPRMB,A,0.22,L,,Shil,4741.0830,N,12224.5670,W,0.2,243,-0.00,V*10
$PGRME,2.5,M,2.4,M,3.5,M*29
$HCHDG,274.8,0.0,E,,*20
$HCHDG,274.8,0.0,E,,*20
$YXXDR,A,5.4,D,PTCH,A,1.7,D,ROLL*5A
$GPRMC,200025.6,A,4741.19738,N,12224.24046,W,000.00,111.2,201013,016.6,E,D*23
$PGRME,2.5,M,2.4,M,3.5,M*29
$HCHDG,274.9,0.0,E,,*21
$HCHDG,274.9,0.0,E,,*21
$GPRMC,200025.8,A,4741.19738,N,12224.24045,W,000.00,111.2,201013,016.6,E,D*2E
$PGRME,2.5,M,2.4,M,3.5,M*29
$IIVHW,,,,,00.0,N,,*19
$HCHDG,274.9,0.0,E,,*21
$IIVLW,06403,N,010.9,N*5A
$HCHDG,275.0,0.0,E,,*29
$IIVWR,056,R,07.2,N,,,,*67
$IIDPT,004.4,-1.0,*40
$GPRMC,200026.0,A,4741.19738,N,12224.24045,W,000.00,111.2,201013,016.6,E,D*25
$PGRME,2.5,M,2.4,M,3.5,M*29
$HCHDG,275.0,0.0,E,,*29
$IIGLL,4741.197,N,12224.240,W,200000,A,A*48
$YXXDR,A,5.4,D,PTCH,A,1.4,D,ROLL*59
$PTAK,FFD1,1.4*50
$IIMTW,+09.0,C*31
$HCHDG,275.0,0.0,E,,*29
$IIMWV,056,R,07.2,N,A*15
$GPRMC,200026.2,A,4741.19738,N,12224.24045,W,000.01,111.2,201013,016.6,E,D*26
$PGRME,2.5,M,2.4,M,3.5,M*29
$HCHDG,275.0,0.0,E,,*29
$IIMWV,059,T,07.8,N,A*16
$IIRMB,A,0.22,L,,Shil,,,,,000.2,243,,V,A*7E
$HCHDG,275.1,0.0,E,,*28
$GPRMC,200026.4,A,4741.19738,N,12224.24046,W,000.00,111.2,201013,016.6,E,D*22
$PGRME,2.5,M,2.4,M,3.5,M*29
$HCHDG,275.0,0.0,E,,*29
$HCHDG,275.0,0.0,E,,*29
$YXXDR,A,5.2,D,PTCH,A,1.8,D,ROLL*53
$GPRMC,200026.6,A,4741.19738,N,12224.24046,W,000.00,111.2,201013,016.6,E,D*20
$GPRMB,A,0.22,L,,Shil,4741.0830,N,12224.5670,W,0.2,243,-0.00,V*10
$PGRME,2.5,M,2.4,M,3.5,M*29
$HCHDG,275.1,0.0,E,,*28
$HCHDG,275.1,0.0,E,,*28
$GPRMC,200026.8,A,4741.19738,N,12224.24045,W,000.00,111.2,201013,016.6,E,D*2D
$PGRME,2.5,M,2.4,M,3.5,M*29
$HCHDG,275.1,0.0,E,,*28
$IIRMC,200000,A,4741.197,N,12224.240,W,00.0,111,201013,16,E,A*13
$HCHDG,275.1,0.0,E,,*28
$IIVHW,,,,,00.0,N,,*19
$GPRMC,200027.0,A,4741.19737,N,12224.24045,W,000.01,111.2,201013,016.6,E,D*2A
$PGRME,2.5,M,2.4,M,3.5,M*29
$IIVLW,06403,N,010.9,N*5A
$HCHDG,275.1,0.0,E,,*28
$IIVWR,059,R,07.5,N,,,,*6F
$YXXDR,A,5.3,D,PTCH,A,2.4,D,ROLL*5D
$IIDPT,004.4,-1.0,*40
$HCHDG,275.1,0.0,E,,*28
$GPRMC,200027.2,A,4741.19738,N,12224.24045,W,000.01,111.2,201013,016.6,E,D*27
$PGRME,2.5,M,2.4,M,3.5,M*29
$IIGLL,4741.197,N,12224.240,W,200000,A,A*48
$HCHDG,275.1,0.0,E,,*28
$IIMTW,+09.0,C*31
$IIMWV,059,R,07.5,N,A*1D
$HCHDG,275.1,0.0,E,,*28
$IIMWV,056,T,07.2,N,A*13
$GPRMC,200027.4,A,4741.19737,N,12224.24045,W,000.00,111.2,201013,016.6,E,D*2F
$PGRME,2.5,M,2.4,M,3.5,M*29
$HCHDG,275.1,0.0,E,,*28
$HCHDG,275.2,0.0,E,,*2B
$YXXDR,A,5.4,D,PTCH,A,3.1,D,ROLL*5E
$PTAK,FFD1,3.1*57
$GPRMC,200027.6,A,4741.19737,N,12224.24045,W,000.01,111.2,201013,016.6,E,D*2C
$GPRMB,A,0.22,L,,Shil,4741.0830,N,12224.5670,W,0.2,243,-0.01,V*11
$PGRME,2.5,M,2.4,M,3.5,M*29
$HCHDG,275.1,0.0,E,,*28
$HCHDG,275.1,0.0,E,,*28
$GPRMC,200027.8,A,4741.19737,N,12224.24045,W,000.01,111.2,201013,016.6,E,D*22
$PGRME,2.5,M,2.4,M,3.5,M*29
$HCHDG,275.1,0.0,E,,*28
$IIRMB,A,0.22,L,,Shil,,,,,000.2,243,,V,A*7E
$HCHDG,275.1,0.0,E,,*28
$GPRMC,200028.0,A,4741.19737,N,12224.24045,W,000.01,111.2,201013,016.6,E,D*25
$IIRMC,200000,A,4741.197,N,12224.240,W,00.0,111,201013,16,E,A*13
$PGRME,2.5,M,2.4,M,3.5,M*29
$HCHDG,275.1,0.0,E,,*28
$IIVHW,,,,,00.0,N,,*19
$YXXDR,A,5.3,D,PTCH,A,2.7,D,ROLL*5E
$IIVLW,06403,N,010.9,N*5A
$HCHDG,275.1,0.0,E,,*28
$IIVWR,058,R,07.0,N,,,,*6B
$GPRMC,200028.2,A,4741.19736,N,12224.24045,W,000.01,111.2,201013,016.6,E,D*26
$PGRME,2.5,M,2.4,M,3.5,M*29
$IIDPT,004.4,-1.0,*40
$HCHDG,275.1,0.0,E,,*28
$IIGLL,4741.197,N,12224.240,W,200000,A,A*48
$HCHDG,274.9,0.0,E,,*21
$IIMTW,+09.0,C*31
$GPRMC,200028.4,A,4741.19736,N,12224.24045,W,000.01,111.2,201013,016.6,E,D*20
$PGRME,2.4,M,2.4,M,3.4,M*29
$HCHDG,274.9,0.0,E,,*21
$HCHDG,274.9,0.0,E,,*21
$GPRMC,200028.6,A,4741.19736,N,12224.24045,W,000.00,111.2,201013,016.6,E,D*23
$YXXDR,A,5.1,D,PTCH,A,2.2,D,ROLL*59
$PTAK,FFD1,2.2*55
$PGRME,2.4,M,2.4,M,3.4,M*29
$HCHDG,274.9,0.0,E,,*21
$HCHDG,274.9,0.0,E,,*21
$GPRMC,200028.8,A,4741.19736,N,12224.24045,W,000.00,111.2,201013,016.6,E,D*2D
$GPRMB,A,0.22,L,,Shil,4741.0830,N,12224.5670,W,0.2,243,-0.00,V*10
$PGRME,2.4,M,2.4,M,3.4,M*29
$HCHDG,274.9,0.0,E,,*21
$PTAK,FFP1,HEEL,@*07
$IIMWV,048,R,06.6,N,A*1F
$IIMWV,058,T,07.0,N,A*1F
$HCHDG,275.1,0.0,E,,*28
$IIRMB,A,0.22,L,,Shil,,,,,000.2,243,,V,A*7E
$GPRMC,200029.0,A,4741.19736,N,12224.24045,W,000.00,111.2,201013,016.6,E,D*24
$PGRME,2.4,M,2.4,M,3.4,M*29
$HCHDG,275.1,0.0,E,,*28
$YXXDR,A,5.5,D,PTCH,A,2.1,D,ROLL*5E
$IIRMC,200000,A,4741.197,N,12224.240,W,00.0,111,201013,16,E,A*13
$HCHDG,275.2,0.0,E,,*2B
$IIVHW,,,,,00.0,N,,*19
$GPRMC,200029.2,A,4741.19735,N,12224.24045,W,000.00,111.2,201013,016.6,E,D*25
$PGRME,2.4,M,2.4,M,3.4,M*29
$IIVLW,06403,N,010.9,N*5A
$HCHDG,275.2,0.0,E,,*2B
$IIVWR,048,R,06.6,N,,,,*6D
$IIDPT,004.4,-1.0,*40
$HCHDG,275.2,0.0,E,,*2B
$GPRMC,200029.4,A,4741.19735,N,12224.24045,W,000.00,111.2,201013,016.6,E,D*23
$PGRME,2.4,M,2.4,M,3.4,M*29
$HCHDG,275.3,0.0,E,,*2A
$HCHDG,275.3,0.0,E,,*2A
$GPRMC,200029.6,A,4741.19735,N,12224.24046,W,000.00,111.2,201013,016.6,E,D*22
$YXXDR,A,5.2,D,PTCH,A,1.7,D,ROLL*5C
$PTAK,FFD1,1.7*53
$PGRME,2.4,M,2.4,M,3.4,M*29
$HCHDG,275.1,0.0,E,,*28
$HCHDG,275.1,0.0,E,,*28
$GPRMC,200029.8,A,4741.19735,N,12224.24046,W,000.00,111.2,201013,016.6,E,D*2C
$PGRME,2.4,M,2.4,M,3.4,M*29
$HCHDG,275.1,0.0,E,,*28
$IIGLL,4741.197,N,12224.240,W,200000,A,A*48
$IIMTW,+09.0,C*31
$HCHDG,275.1,0.0,E,,*28
$IIMWV,048,R,06.2,N,A*1B
$GPRMC,200030.0,A,4741.19735,N,12224.24046,W,000.01,111.2,201013,016.6,E,D*2D
$GPRMB,A,0.22,L,,Shil,4741.0830,N,12224.5670,W,0.2,243,-0.01,V*11
$PGRME,2.4,M,2.4,M,3.4,M*29
$IIMWV,048,T,06.6,N,A*19
$HCHDG,275.1,0.0,E,,*28
$YXXDR,A,5.4,D,PTCH,A,1.7,D,ROLL*5A
$IIRMB,A,0.22,L,,Shil,,,,,000.2,243,,V,A*7E
$HCHDG,275.1,0.0,E,,*28
$GPRMC,200030.2,A,4741.19735,N,12224.24046,W,000.01,111.2,201013,016.6,E,D*2F
$PGRME,2.4,M,2.4,M,3.4,M*29
$HCHDG,275.1,0.0,E,,*28
$IIRMC,200000,A,4741.197,N,12224.240,W,00.0,111,201013,16,E,A*13
$IIVHW,,,,,00.0,N,,*19
$HCHDG,275.1,0.0,E,,*28
$IIVLW,06403,N,010.9,N*5A
$GPRMC,200030.4,A,4741.19736,N,12224.24047,W,000.01,111.2,201013,016.6,E,D*2B
$PGRME,2.5,M,2.4,M,3.5,M*29
$HCHDG,275.1,0.0,E,,*28
$HCHDG,275.2,0.0,E,,*2B
$YXXDR,A,5.4,D,PTCH,A,1.7,D,ROLL*5A
$GPRMC,200030.6,A,4741.19736,N,12224.24048,W,000.01,111.2,201013,016.6,E,D*26
$PGRME,2.5,M,2.4,M,3.5,M*29
$HCHDG,275.4,0.0,E,,*2D
$HCHDG,275.4,0.0,E,,*2D
$GPRMC,200030.8,A,4741.19736,N,12224.24048,W,000.00,111.2,201013,016.6,E,D*29
$PGRME,2.5,M,2.5,M,3.5,M*28
$HCHDG,275.4,0.0,E,,*2D
$IIVWR,061,R,05.4,N,,,,*67
$IIDPT,004.4,-1.0,*40
$HCHDG,275.4,0.0,E,,*2D
$IIGLL,4741.197,N,12224.240,W,200000,A,A*48
$GPRMC,200031.0,A,4741.19736,N,12224.24048,W,000.01,111.2,201013,016.6,E,D*21
$GPRMB,A,0.22,L,,Shil,4741.0830,N,12224.5670,W,0.2,243,-0.01,V*11
$PGRME,2.5,M,2.5,M,3.5,M*28
$IIMTW,+09.0,C*31
$HCHDG,275.3,0.0,E,,*2A
$IIMWV,061,R,05.4,N,A*15
$YXXDR,A,5.4,D,PTCH,A,1.7,D,ROLL*5A
$PTAK,FFD1,1.7*53
$IIMWV,048,T,06.2,N,A*1D
$HCHDG,275.4,0.0,E,,*2D
$GPRMC,200031.2,A,4741.19737,N,12224.24048,W,000.00,111.2,201013,016.6,E,D*23
$PGRME,2.5,M,2.5,M,3.5,M*28
$IIRMB,A,0.22,L,,Shil,,,,,000.2,243,,V,A*7E
$HCHDG,275.2,0.0,E,,*2B
$HCHDG,275.4,0.0,E,,*2D
$IIRMC,200000,A,4741.197,N,12224.240,W,00.0,111,201013,16,E,A*13
$GPRMC,200031.4,A,4741.19738,N,12224.24048,W,000.01,111.2,201013,016.6,E,D*2B
$PGRME,2.5,M,2.5,M,3.5,M*28
$HCHDG,275.4,0.0,E,,*2D
$HCHDG,275.4,0.0,E,,*2D
$YXXDR,A,5.4,D,PTCH,A,1.8,D,ROLL*55
$GPRMC,200031.6,A,4741.19738,N,12224.24048,W,000.00,111.2,201013,016.6,E,D*28
$PGRME,2.5,M,2.5,M,3.5,M*28
$HCHDG,275.5,0.0,E,,*2C
$HCHDG,275.5,0.0,E,,*2C
$GPRMC,200031.8,A,4741.19738,N,12224.24049,W,000.01,111.2,201013,016.6,E,D*26
$PGRME,2.5,M,2.5,M,3.5,M*28
$IIVHW,,,,,00.0,N,,*19
$HCHDG,275.4,0.0,E,,*2D
$IIVLW,06403,N,010.9,N*5A
$HCHDG,275.5,0.0,E,,*2C
$IIVWR,064,R,05.0,N,,,,*66
$IIDPT,004.4,-1.0,*40
$GPRMC,200032.0,A,4741.19738,N,12224.24049,W,000.00,111.2,201013,016.6,E,D*2C
$GPRMB,A,0.22,L,,Shil,4741.0830,N,12224.5670,W,0.2,243,-0.00,V*10
$PGRME,2.5,M,2.5,M,3.6,M*2B
$HCHDG,275.5,0.0,E,,*2C
$IIGLL,4741.197,N,12224.240,W,200000,A,A*48
$YXXDR,A,5.4,D,PTCH,A,2.2,D,ROLL*5C
$IIMTW,+09.0,C*31
$HCHDG,275.5,0.0,E,,*2C
$IIMWV,064,R,05.0,N,A*14
$GPRMC,200032.2,A,4741.19738,N,12224.24049,W,000.01,111.2,201013,016.6,E,D*2F
$PGRME,2.5,M,2.5,M,3.6,M*2B
$HCHDG,275.5,0.0,E,,*2C
$IIMWV,061,T,05.4,N,A*13
$IIRMB,A,0.22,L,,Shil,,,,,000.2,243,,V,A*7E
$HCHDG,275.3,0.0,E,,*2A
$GPRMC,200032.4,A,4741.19738,N,12224.24048,W,000.01,111.2,201013,016.6,E,D*28
$PGRME,2.5,M,2.5,M,3.6,M*2B
$HCHDG,275.3,0.0,E,,*2A
$HCHDG,275.3,0.0,E,,*2A
$YXXDR,A,5.1,D,PTCH,A,2.9,D,ROLL*52
$PTAK,FFD1,2.9*5E
$GPRMC,200032.6,A,4741.19738,N,12224.24048,W,000.01,111.2,201013,016.6,E,D*2A
$PGRME,2.5,M,2.5,M,3.6,M*2B
$HCHDG,275.3,0.0,E,,*2A
$HCHDG,275.3,0.0,E,,*2A
$GPRMC,200032.8,A,4741.19738,N,12224.24049,W,000.01,111.2,201013,016.6,E,D*25
$PGRME,2.6,M,2.5,M,3.6,M*28
$HCHDG,275.5,0.0,E,,*2C
$IIRMC,200000,A,4741.197,N,12224.240,W,00.0,111,201013,16,E,A*13
$HCHDG,275.5,0.0,E,,*2C
$IIVHW,,,,,00.0,N,,*19
$GPRMC,200033.0,A,4741.19737,N,12224.24049,W,000.01,111.2,201013,016.6,E,D*23
$PGRME,2.6,M,2.5,M,3.6,M*28
$IIVLW,06403,N,010.9,N*5A
$HCHDG,275.5,0.0,E,,*2C
$PTAK,FFP1,HEEL,@*07
$IIVWR,070,R,05.3,N,,,,*60
$YXXDR,A,5.7,D,PTCH,A,3.1,D,ROLL*5D
$IIDPT,004.4,-1.0,*40
$HCHDG,275.5,0.0,E,,*2C
$GPRMC,200033.2,A,4741.19737,N,12224.24049,W,000.01,111.2,201013,016.6,E,D*21
$GPRMB,A,0.22,L,,Shil,4741.0830,N,12224.5670,W,0.2,243,-0.01,V*11
$PGRME,2.6,M,2.5,M,3.6,M*28
$IIGLL,4741.197,N,12224.240,W,200000,A,A*48
$HCHDG,275.4,0.0,E,,*2D
$IIMTW,+09.0,C*31
$IIMWV,070,R,05.3,N,A*12
$HCHDG,275.4,0.0,E,,*2D
$IIMWV,064,T,05.0,N,A*12
$GPRMC,200033.4,A,4741.19737,N,12224.24049,W,000.00,111.2,201013,016.6,E,D*26
$PGRME,2.6,M,2.5,M,3.6,M*28
$HCHDG,275.4,0.0,E,,*2D
$HCHDG,275.4,0.0,E,,*2D
$YXXDR,A,5.3,D,PTCH,A,2.6,D,ROLL*5F
$GPRMC,200033.6,A,4741.19736,N,12224.24049,W,000.00,111.2,201013,016.6,E,D*25
$PGRME,2.6,M,2.5,M,3.6,M*28
$HCHDG,275.5,0.0,E,,*2C
$HCHDG,275.5,0.0,E,,*2C
$GPRMC,200033.8,A,4741.19736,N,12224.24048,W,000.00,111.2,201013,016.6,E,D*2A
$PGRME,2.6,M,2.6,M,3.6,M*2B
$HCHDG,275.5,0.0,E,,*2C
$IIRMB,A,0.22,L,,Shil,,,,,000.2,243,,V,A*7E
$HCHDG,275.5,0.0,E,,*2C
$GPRMC,200034.0,A,4741.19736,N,12224.24048,W,000.00,111.2,201013,016.6,E,D*25
$IIRMC,200000,A,4741.197,N,12224.240,W,00.0,111,201013,16,E,A*13
$PGRME,2.6,M,2.6,M,3.6,M*2B
$HCHDG,275.5,0.0,E,,*2C
$IIVHW,,,,,00.0,N,,*19
$YXXDR,A,5.4,D,PTCH,A,2.2,D,ROLL*5C
$PTAK,FFD1,2.2*55
$IIVLW,06403,N,010.9,N*5A
$HCHDG,275.5,0.0,E,,*2C
$IIVWR,071,R,05.5,N,,,,*67
$GPRMC,200034.2,A,4741.19736,N,12224.24048,W,000.00,111.2,201013,016.6,E,D*27
$GPRMB,A,0.22,L,,Shil,4741.0830,N,12224.5670,W,0.2,243,-0.00,V*10
$PGRME,2.6,M,2.6,M,3.6,M*2B
$IIDPT,004.4,-1.0,*40
$HCHDG,275.5,0.0,E,,*2C
$IIGLL,4741.197,N,12224.240,W,200000,A,A*48
$HCHDG,275.5,0.0,E,,*2C
$IIMTW,+09.0,C*31
$GPRMC,200034.4,A,4741.19736,N,12224.24049,W,000.00,111.2,201013,016.6,E,D*20
$PGRME,2.6,M,2.6,M,3.6,M*2B
$HCHDG,275.5,0.0,E,,*2C
$HCHDG,275.5,0.0,E,,*2C
$YXXDR,A,5.4,D,PTCH,A,1.6,D,ROLL*5B
$GPRMC,200034.6,A,4741.19737,N,12224.24049,W,000.00,111.2,201013,016.6,E,D*23
$PGRME,2.6,M,2.6,M,3.6,M*2B
$HCHDG,275.5,0.0,E,,*2C
$HCHDG,275.5,0.0,E,,*2C
$GPRMC,200034.8,A,4741.19737,N,12224.24049,W,000.00,111.2,201013,016.6,E,D*2D
$PGRME,2.6,M,2.6,M,3.6,M*2B
$HCHDG,275.5,0.0,E,,*2C
$IIMWV,085,R,05.1,N,A*1A
$IIMWV,071,T,05.5,N,A*13
$HCHDG,275.5,0.0,E,,*2C
$IIRMB,A,0.22,L,,Shil,,,,,000.2,243,,V,A*7E
$GPRMC,200035.0,A,4741.19737,N,12224.24049,W,000.01,111.2,201013,016.6,E,D*25
$PGRME,2.5,M,2.6,M,3.6,M*28
$HCHDG,275.5,0.0,E,,*2C
$YXXDR,A,5.3,D,PTCH,A,1.5,D,ROLL*5F
$IIRMC,200000,A,4741.197,N,12224.240,W,00.0,111,201013,16,E,A*13
$HCHDG,275.5,0.0,E,,*2C
$IIVHW,,,,,00.0,N,,*19
$GPRMC,200035.2,A,4741.19737,N,12224.24049,W,000.01,111.2,201013,016.6,E,D*27
$PGRME,2.5,M,2.6,M,3.6,M*28
$IIVLW,06403,N,010.9,N*5A
$HCHDG,275.3,0.0,E,,*2A
$IIVWR,085,R,05.1,N,,,,*68
$IIDPT,004.4,-1.0,*40
$HCHDG,275.3,0.0,E,,*2A
$GPRMC,200035.4,A,4741.19737,N,12224.24049,W,000.01,111.2,201013,016.6,E,D*21
$GPRMB,A,0.22,L,,Shil,4741.0830,N,12224.5670,W,0.2,243,-0.01,V*11
$PGRME,2.5,M,2.6,M,3.6,M*28
$HCHDG,275.3,0.0,E,,*2A
$HCHDG,275.2,0.0,E,,*2B
$YXXDR,A,5.2,D,PTCH,A,1.3,D,ROLL*58
$PTAK,FFD1,1.3*57
$GPRMC,200035.6,A,4741.19737,N,12224.24049,W,000.00,111.2,201013,016.6,E,D*22
$PGRME,2.5,M,2.6,M,3.6,M*28
$HCHDG,275.5,0.0,E,,*2C
$HCHDG,275.5,0.0,E,,*2C
$GPRMC,200035.8,A,4741.19737,N,12224.24049,W,000.00,111.2,201013,016.6,E,D*2C
$PGRME,2.4,M,2.6,M,3.6,M*29
$HCHDG,275.5,0.0,E,,*2C
$IIGLL,4741.197,N,12224.240,W,200000,A,A*48
$IIMTW,+09.5,C*34
$HCHDG,275.5,0.0,E,,*2C
$IIMWV,079,R,04.9,N,A*10
$GPRMC,200036.0,A,4741.19737,N,12224.24049,W,000.00,111.2,201013,016.6,E,D*27
$PGRME,2.4,M,2.6,M,3.6,M*29
$IIMWV,085,T,05.1,N,A*1C
$HCHDG,275.5,0.0,E,,*2C
$YXXDR,A,5.5,D,PTCH,A,1.9,D,ROLL*55
$IIRMB,A,0.22,L,,Shil,,,,,000.2,243,,V,A*7E
$HCHDG,275.5,0.0,E,,*2C
$GPRMC,200036.2,A,4741.19738,N,12224.24050,W,000.00,111.2,201013,016.6,E,D*22
$PGRME,2.4,M,2.6,M,3.6,M*29
$HCHDG,275.6,0.0,E,,*2F
$IIRMC,200000,A,4741.197,N,12224.240,W,00.0,111,201013,16,E,A*13
$IIVHW,,,,,00.0,N,,*19
$HCHDG,275.6,0.0,E,,*2F
$IIVLW,06403,N,010.9,N*5A
$GPRMC,200036.4,A,4741.19738,N,12224.24050,W,000.00,111.2,201013,016.6,E,D*24
$GPRMB,A,0.22,L,,Shil,4741.0830,N,12224.5670,W,0.2,243,-0.00,V*10
$PGRME,2.4,M,2.7,M,3.6,M*28
$HCHDG,275.5,0.0,E,,*2C
$HCHDG,275.5,0.0,E,,*2C
$YXXDR,A,5.4,D,PTCH,A,2.2,D,ROLL*5C
$PTAK,FFD1,2.2*55
$GPRMC,200036.6,A,4741.19738,N,12224.24050,W,000.01,111.2,201013,016.6,E,D*27
$PGRME,2.4,M,2.7,M,3.6,M*28
$HCHDG,275.5,0.0,E,,*2C
$HCHDG,275.5,0.0,E,,*2C
$GPRMC,200036.8,A,4741.19738,N,12224.24050,W,000.02,111.2,201013,016.6,E,D*2A
$PGRME,2.4,M,2.7,M,3.6,M*28
$HCHDG,275.4,0.0,E,,*2D
$IIVWR,074,R,04.7,N,,,,*61
$IIDPT,004.4,-1.0,*40
$HCHDG,275.4,0.0,E,,*2D
$IIGLL,4741.197,N,12224.240,W,200000,A,A*48
$GPRMC,200037.0,A,4741.19738,N,12224.24050,W,000.00,111.2,201013,016.6,E,D*21
$PGRME,2.4,M,2.7,M,3.6,M*28
$IIMTW,+09.0,C*31
$HCHDG,275.6,0.0,E,,*2F
$IIMWV,074,R,04.7,N,A*13
$PTAK,FFP1,HEEL,@*07
$YXXDR,A,5.7,D,PTCH,A,2.6,D,ROLL*5B
$IIMWV,079,T,04.9,N,A*16
$HCHDG,275.7,0.0,E,,*2E
$GPRMC,200037.2,A,4741.19738,N,12224.24050,W,000.01,111.2,201013,016.6,E,D*22
$PGRME,2.4,M,2.7,M,3.6,M*28
$IIRMB,A,0.22,L,,Shil,,,,,000.2,243,,V,A*7E
$HCHDG,275.6,0.0,E,,*2F
$HCHDG,275.5,0.0,E,,*2C
$IIRMC,200000,A,4741.197,N,12224.240,W,00.0,111,201013,16,E,A*13
$GPRMC,200037.4,A,4741.19737,N,12224.24050,W,000.01,111.2,201013,016.6,E,D*2B
$GPRMB,A,0.22,L,,Shil,4741.0830,N,12224.5670,W,0.2,243,-0.01,V*11
$PGRME,2.4,M,2.7,M,3.6,M*28
$HCHDG,275.3,0.0,E,,*2A
$HCHDG,275.3,0.0,E,,*2A
$YXXDR,A,5.4,D,PTCH,A,3.1,D,ROLL*5E
$PTAK,FFD1,3.1*57
$GPRMC,200037.6,A,4741.19737,N,12224.24050,W,000.00,111.2,201013,016.6,E,D*28
$PGRME,2.4,M,2.7,M,3.6,M*28
$HCHDG,275.3,0.0,E,,*2A
$HCHDG,275.2,0.0,E,,*2B
$GPRMC,200037.8,A,4741.19737,N,12224.24050,W,000.01,111.2,201013,016.6,E,D*27
$PGRME,2.4,M,2.7,M,3.6,M*28
$IIVHW,,,,,00.0,N,,*19
$HCHDG,275.2,0.0,E,,*2B
$IIVLW,06403,N,010.9,N*5A
$HCHDG,275.3,0.0,E,,*2A
$IIVWR,073,R,06.2,N,,,,*61
$IIDPT,004.4,-1.0,*40
$GPRMC,200038.0,A,4741.19737,N,12224.24050,W,000.00,111.2,201013,016.6,E,D*21
$PGRME,2.4,M,2.7,M,3.6,M*28
$HCHDG,275.2,0.0,E,,*2B
$IIGLL,4741.197,N,12224.240,W,200000,A,A*48
$YXXDR,A,5.5,D,PTCH,A,3.1,D,ROLL*5F
$IIMTW,+09.0,C*31
$HCHDG,275.2,0.0,E,,*2B
$IIMWV,073,R,06.2,N,A*13
$GPRMC,200038.2,A,4741.19736,N,12224.24051,W,000.00,111.2,201013,016.6,E,D*23
$PGRME,2.4,M,2.7,M,3.6,M*28
$IIMWV,074,T,04.7,N,A*15
$HCHDG,275.3,0.0,E,,*2A
$IIRMB,A,0.22,L,,Shil,,,,,000.2,243,,V,A*7E
$HCHDG,275.2,0.0,E,,*2B
$GPRMC,200038.4,A,4741.19736,N,12224.24051,W,000.01,111.2,201013,016.6,E,D*24
$PGRME,2.4,M,2.7,M,3.6,M*28
$HCHDG,275.0,0.0,E,,*29
$HCHDG,275.0,0.0,E,,*29
$YXXDR,A,5.3,D,PTCH,A,2.4,D,ROLL*5D
$GPRMC,200038.6,A,4741.19736,N,12224.24051,W,000.01,111.2,201013,016.6,E,D*26
$GPRMB,A,0.22,L,,Shil,4741.0830,N,12224.5670,W,0.2,243,-0.01,V*11
$PGRME,2.4,M,2.7,M,3.6,M*28
$HCHDG,275.0,0.0,E,,*29
$HCHDG,275.0,0.0,E,,*29
$GPRMC,200038.8,A,4741.19736,N,12224.24051,W,000.01,111.2,201013,016.6,E,D*28
$PGRME,2.4,M,2.7,M,3.6,M*28
$HCHDG,275.2,0.0,E,,*2B
$IIRMC,200000,A,4741.197,N,12224.240,W,00.0,111,201013,16,E,A*13
$HCHDG,275.2,0.0,E,,*2B
$IIVHW,,,,,00.0,N,,*19
$GPRMC,200039.0,A,4741.19736,N,12224.24051,W,000.00,111.2,201013,016.6,E,D*20
$PGRME,2.4,M,2.7,M,3.7,M*29
$IIVLW,06403,N,010.9,N*5A
$HCHDG,274.9,0.0,E,,*21
$IIVWR,076,R,06.5,N,,,,*63
$YXXDR,A,5.4,D,PTCH,A,2.8,D,ROLL*56
$PTAK,FFD1,2.8*5F
$IIDPT,004.4,-1.0,*40
$HCHDG,274.9,0.0,E,,*21
$GPRMC,200039.2,A,4741.19736,N,12224.24051,W,000.01,111.2,201013,016.6,E,D*23
$PGRME,2.4,M,2.7,M,3.7,M*29
$IIGLL,4741.197,N,12224.240,W,200000,A,A*48
$HCHDG,274.9,0.0,E,,*21
$IIMTW,+09.0,C*31
$IIMWV,076,R,06.5,N,A*11
$HCHDG,274.9,0.0,E,,*21
$IIMWV,073,T,06.2,N,A*15
$GPRMC,200039.4,A,4741.19736,N,12224.24051,W,000.01,111.2,201013,016.6,E,D*25
$PGRME,2.4,M,2.7,M,3.7,M*29
$HCHDG,274.8,0.0,E,,*20
$HCHDG,274.8,0.0,E,,*20
$YXXDR,A,5.3,D,PTCH,A,2.4,D,ROLL*5D
$GPRMC,200039.6,A,4741.19735,N,12224.24051,W,000.01,111.2,201013,016.6,E,D*24
$PGRME,2.4,M,2.7,M,3.7,M*29
$HCHDG,274.8,0.0,E,,*20
$HCHDG,274.8,0.0,E,,*20
$GPRMC,200039.8,A,4741.19735,N,12224.24051,W,000.01,111.2,201013,016.6,E,D*2A
$GPRMB,A,0.22,L,,Shil,4741.0830,N,12224.5670,W,0.2,243,-0.01,V*11
$PGRME,2.4,M,2.7,M,3.7,M*29
$HCHDG,274.9,0.0,E,,*21
$IIRMB,A,0.22,L,,Shil,,,,,000.2,243,,V,A*7E
$HCHDG,275.1,0.0,E,,*28
$IIRMC,200000,A,4741.197,N,12224.240,W,00.0,111,201013,16,E,A*13
$GPRMC,200040.0,A,4741.19735,N,12224.24051,W,000.01,111.2,201013,016.6,E,D*2C
$PGRME,2.4,M,2.7,M,3.7,M*29
$HCHDG,275.1,0.0,E,,*28
$IIVHW,,,,,00.0,N,,*19
$YXXDR,A,5.7,D,PTCH,A,3.5,D,ROLL*59
$PTAK,FFD1,3.5*53
$IIVLW,06403,N,010.9,N*5A
$HCHDG,275.1,0.0,E,,*28
$IIVWR,078,R,06.5,N,,,,*6D
$GPRMC,200040.2,A,4741.19735,N,12224.24051,W,000.01,111.2,201013,016.6,E,D*2E
$PGRME,2.4,M,2.7,M,3.7,M*29
$IIDPT,004.4,-1.0,*40
$HCHDG,275.0,0.0,E,,*29
$IIGLL,4741.197,N,12224.240,W,200000,A,A*48
$HCHDG,275.0,0.0,E,,*29
$IIMTW,+09.0,C*31
$GPRMC,200040.4,A,4741.19735,N,12224.24051,W,000.01,111.2,201013,016.6,E,D*28
$PGRME,2.4,M,2.7,M,3.7,M*29
$HCHDG,275.0,0.0,E,,*29
$HCHDG,275.0,0.0,E,,*29
$GPRMC,200040.6,A,4741.19735,N,12224.24051,W,000.01,111.2,201013,016.6,E,D*2A
$YXXDR,A,5.5,D,PTCH,A,3.1,D,ROLL*5F
$PGRME,2.4,M,2.7,M,3.7,M*29
$HCHDG,275.0,0.0,E,,*29
$HCHDG,275.0,0.0,E,,*29
$GPRMC,200040.8,A,4741.19735,N,12224.24051,W,000.01,111.2,201013,016.6,E,D*24
$PGRME,2.4,M,2.7,M,3.7,M*29
$HCHDG,275.0,0.0,E,,*29
$IIMWV,073,R,06.9,N,A*18
$IIMWV,078,T,06.5,N,A*19
$HCHDG,275.1,0.0,E,,*28
$IIRMB,A,0.22,L,,Shil,,,,,000.2,243,,V,A*7E
$GPRMC,200041.0,A,4741.19735,N,12224.24051,W,000.01,111.2,201013,016.6,E,D*2D
$GPRMB,A,0.22,L,,Shil,4741.0830,N,12224.5670,W,0.2,243,-0.01,V*11
$PGRME,2.4,M,2.7,M,3.7,M*29
$HCHDG,275.2,0.0,E,,*2B
$PTAK,FFP1,HEEL,@*07
$YXXDR,A,5.7,D,PTCH,A,2.7,D,ROLL*5A
$PTAK,FFD1,2.7*50
$IIRMC,200000,A,4741.197,N,12224.240,W,00.0,111,201013,16,E,A*13
$HCHDG,275.2,0.0,E,,*2B
$IIVHW,,,,,00.0,N,,*19
$GPRMC,200041.2,A,4741.19735,N,12224.24051,W,000.00,111.2,201013,016.6,E,D*2E
$PGRME,2.4,M,2.7,M,3.7,M*29
$IIVLW,06403,N,010.9,N*5A
$HCHDG,275.2,0.0,E,,*2B
$IIVWR,073,R,06.9,N,,,,*6A
$IIDPT,004.4,-1.0,*40
$HCHDG,275.2,0.0,E,,*2B
$GPRMC,200041.4,A,4741.19735,N,12224.24051,W,000.01,111.2,201013,016.6,E,D*29
$PGRME,2.4,M,2.7,M,3.7,M*29
$HCHDG,275.2,0.0,E,,*2B
$HCHDG,275.2,0.0,E,,*2B
$GPRMC,200041.6,A,4741.19735,N,12224.24051,W,000.01,111.2,201013,016.6,E,D*2B
$YXXDR,A,5.6,D,PTCH,A,2.9,D,ROLL*55
$PGRME,2.4,M,2.7,M,3.6,M*28
$HCHDG,275.2,0.0,E,,*2B
$HCHDG,275.2,0.0,E,,*2B
$GPRMC,200041.8,A,4741.19735,N,12224.24051,W,000.01,111.2,201013,016.6,E,D*25
$PGRME,2.4,M,2.7,M,3.6,M*28
$HCHDG,275.1,0.0,E,,*28
$IIGLL,4741.197,N,12224.240,W,200000,A,A*48
$IIMTW,+09.0,C*31
$HCHDG,275.1,0.0,E,,*28
$IIMWV,070,R,06.8,N,A*1A
$GPRMC,200042.0,A,4741.19735,N,12224.24051,W,000.00,111.2,201013,016.6,E,D*2F
$PGRME,2.4,M,2.7,M,3.6,M*28
$IIMWV,073,T,06.9,N,A*1E
$HCHDG,275.3,0.0,E,,*2A
$YXXDR,A,5.7,D,PTCH,A,2.6,D,ROLL*5B
$IIRMB,A,0.22,L,,Shil,,,,,000.2,243,,V,A*7E
$HCHDG,275.2,0.0,E,,*2B
$GPRMC,200042.2,A,4741.19735,N,12224.24051,W,000.01,111.2,201013,016.6,E,D*2C
$GPRMB,A,0.22,L,,Shil,4741.0830,N,12224.5670,W,0.2,243,-0.01,V*11
$PGRME,2.4,M,2.7,M,3.6,M*28
$HCHDG,275.2,0.0,E,,*2B
$IIRMC,200000,A,4741.197,N,12224.240,W,00.0,111,201013,16,E,A*13
$IIVHW,,,,,00.0,N,,*19
$HCHDG,275.2,0.0,E,,*2B
$IIVLW,06403,N,010.9,N*5A
$GPRMC,200042.4,A,4741.19735,N,12224.24051,W,000.00,111.2,201013,016.6,E,D*2B
$PGRME,2.4,M,2.7,M,3.6,M*28
$HCHDG,275.3,0.0,E,,*2A
$HCHDG,275.2,0.0,E,,*2B
$GPRMC,200042.6,A,4741.19735,N,12224.24051,W,000.01,111.2,201013,016.6,E,D*28
$YXXDR,A,5.7,D,PTCH,A,3.1,D,ROLL*5D
$PTAK,FFD1,3.1*57
$PGRME,2.4,M,2.7,M,3.6,M*28
$HCHDG,275.2,0.0,E,,*2B
$HCHDG,275.0,0.0,E,,*29
$GPRMC,200042.8,A,4741.19735,N,12224.24051,W,000.01,111.2,201013,016.6,E,D*26
$PGRME,2.4,M,2.7,M,3.6,M*28
$HCHDG,275.1,0.0,E,,*28
$HCHDG,275.1,0.0,E,,*28
$GPRMC,200043.0,A,4741.19735,N,12224.24051,W,000.00,111.2,201013,016.6,E,D*2E
$PGRME,2.4,M,2.7,M,3.6,M*28
$HCHDG,275.0,0.0,E,,*29
$YXXDR,A,5.7,D,PTCH,A,3.2,D,ROLL*5E
$HCHDG,275.0,0.0,E,,*29
$GPRMC,200043.2,A,4741.19735,N,12224.24051,W,000.01,111.2,201013,016.6,E,D*2D
$PGRME,2.4,M,2.6,M,3.6,M*29
$HCHDG,275.0,0.0,E,,*29
$HCHDG,275.0,0.0,E,,*29
$GPRMC,200043.4,A,4741.19734,N,12224.24051,W,000.00,111.2,201013,016.6,E,D*2B
$GPRMB,A,0.22,L,,Shil,4741.0830,N,12224.5670,W,0.2,243,-0.00,V*10
$PGRME,2.4,M,2.6,M,3.6,M*29
$HCHDG,275.0,0.0,E,,*29
$HCHDG,274.9,0.0,E,,*21
$GPRMC,200043.6,A,4741.19734,N,12224.24051,W,000.00,111.2,201013,016.6,E,D*29
$YXXDR,A,5.6,D,PTCH,A,3.7,D,ROLL*5A
$PTAK,FFD1,3.7*51
$PGRME,2.4,M,2.6,M,3.6,M*29
$HCHDG,274.9,0.0,E,,*21
$HCHDG,274.9,0.0,E,,*21
$GPRMC,200043.8,A,4741.19734,N,12224.24051,W,000.01,111.2,201013,016.6,E,D*26
$PGRME,2.4,M,2.6,M,3.6,M*29
$HCHDG,274.9,0.0,E,,*21
$IIVWR,067,R,07.1,N,,,,*66
$IIDPT,004.4,-1.0,*40
$HCHDG,274.8,0.0,E,,*20
$IIGLL,4741.197,N,12224.240,W,200000,A,A*48
$GPRMC,200044.0,A,4741.19734,N,12224.24050,W,000.00,111.2,201013,016.6,E,D*29
$IIMTW,+09.0,C*31
$PGRME,2.4,M,2.6,M,3.6,M*29
$PGRMT,GPS 18x-5Hz software ver. 3.20,,,,,,,,*30
$HCHDG,274.7,0.0,E,,*2F
$IIMWV,067,R,07.1,N,A*14
$YXXDR,A,5.8,D,PTCH,A,3.0,D,ROLL*53
$IIMWV,070,T,06.8,N,A*1C
$HCHDG,274.7,0.0,E,,*2F
$GPRMC,200044.2,A,4741.19735,N,12224.24050,W,000.01,111.2,201013,016.6,E,D*2B
$IIRMB,A,0.22,L,,Shil,,,,,000.2,243,,V,A*7E
$PGRME,2.4,M,2.6,M,3.6,M*29
$HCHDG,274.5,0.0,E,,*2D
$HCHDG,274.5,0.0,E,,*2D
$IIRMC,200000,A,4741.197,N,12224.240,W,00.0,111,201013,16,E,A*13
$GPRMC,200044.4,A,4741.19735,N,12224.24050,W,000.01,111.2,201013,016.6,E,D*2D
$GPRMB,A,0.22,L,,Shil,4741.0830,N,12224.5670,W,0.2,243,-0.01,V*11
$PGRME,2.4,M,2.6,M,3.6,M*29
$HCHDG,274.6,0.0,E,,*2E
$HCHDG,274.6,0.0,E,,*2E
$GPRMC,200044.6,A,4741.19735,N,12224.24050,W,000.01,111.2,201013,016.6,E,D*2F
$YXXDR,A,5.5,D,PTCH,A,2.7,D,ROLL*58
$PTAK,FFD1,2.7*50
$PGRME,2.4,M,2.6,M,3.5,M*2A
$HCHDG,274.5,0.0,E,,*2D
$HCHDG,274.5,0.0,E,,*2D
$GPRMC,200044.8,A,4741.19735,N,12224.24050,W,000.00,111.2,201013,016.6,E,D*20
$PGRME,2.4,M,2.6,M,3.5,M*2A
$IIVHW,,,,,00.0,N,,*19
$HCHDG,274.5,0.0,E,,*2D
$IIVLW,06403,N,010.9,N*5A
$HCHDG,274.4,0.0,E,,*2C
$IIVWR,063,R,07.4,N,,,,*67
$IIDPT,004.4,-1.0,*40
$GPRMC,200045.0,A,4741.19735,N,12224.24050,W,000.01,111.2,201013,016.6,E,D*28
$PGRME,2.4,M,2.6,M,3.5,M*2A
$HCHDG,274.3,0.0,E,,*2B
$IIGLL,4741.197,N,12224.240,W,200000,A,A*48
$YXXDR,A,5.7,D,PTCH,A,2.5,D,ROLL*58
$IIMTW,+09.0,C*31
$HCHDG,274.3,0.0,E,,*2B
$IIMWV,063,R,07.4,N,A*15
$GPRMC,200045.2,A,4741.19735,N,12224.24050,W,000.00,111.2,201013,016.6,E,D*2B
$PGRME,2.4,M,2.6,M,3.5,M*2A
$HCHDG,274.3,0.0,E,,*2B
$PTAK,FFP1,HEEL,@*07
$IIMWV,064,T,07.3,N,A*13
$IIRMB,A,0.22,L,,Shil,,,,,000.2,243,,V,A*7E
$HCHDG,274.2,0.0,E,,*2A
$GPRMC,200045.4,A,4741.19735,N,12224.24050,W,000.00,111.2,201013,016.6,E,D*2D
$PGRME,2.4,M,2.6,M,3.5,M*2A
$HCHDG,274.2,0.0,E,,*2A
$HCHDG,274.2,0.0,E,,*2A
$GPRMC,200045.6,A,4741.19735,N,12224.24050,W,000.00,111.2,201013,016.6,E,D*2F
$GPRMB,A,0.22,L,,Shil,4741.0830,N,12224.5670,W,0.2,243,-0.00,V*10
$YXXDR,A,5.6,D,PTCH,A,1.9,D,ROLL*56
$PTAK,FFD1,1.9*5D
$PGRME,2.4,M,2.6,M,3.5,M*2A
$HCHDG,274.0,0.0,E,,*28
$HCHDG,274.0,0.0,E,,*28
$GPRMC,200045.8,A,4741.19736,N,12224.24050,W,000.00,111.2,201013,016.6,E,D*22
$PGRME,2.4,M,2.5,M,3.5,M*29
$HCHDG,274.0,0.0,E,,*28
$IIRMC,200000,A,4741.197,N,12224.240,W,00.0,111,201013,16,E,A*13
$HCHDG,273.9,0.0,E,,*26
$IIVHW,,,,,00.0,N,,*19
$GPRMC,200046.0,A,4741.19736,N,12224.24050,W,000.00,111.2,201013,016.6,E,D*29
$PGRME,2.4,M,2.6,M,3.5,M*2A
$IIVLW,06403,N,010.9,N*5A
$HCHDG,273.9,0.0,E,,*26
$IIVWR,062,R,07.2,N,,,,*60
$YXXDR,A,5.5,D,PTCH,A,2.1,D,ROLL*5E
$IIDPT,004.4,-1.0,*40
$HCHDG,273.9,0.0,E,,*26
$GPRMC,200046.2,A,4741.19736,N,12224.24050,W,000.00,111.2,201013,016.6,E,D*2B
$PGRME,2.4,M,2.6,M,3.5,M*2A
$IIGLL,4741.197,N,12224.240,W,200000,A,A*48
$HCHDG,273.9,0.0,E,,*26
$IIMTW,+09.0,C*31
$IIMWV,062,R,07.2,N,A*12
$HCHDG,273.9,0.0,E,,*26
$IIMWV,063,T,07.4,N,A*13
$GPRMC,200046.4,A,4741.19736,N,12224.24050,W,000.01,111.2,201013,016.6,E,D*2C
$PGRME,2.4,M,2.6,M,3.5,M*2A
$HCHDG,273.9,0.0,E,,*26
$HCHDG,273.9,0.0,E,,*26
$GPRMC,200046.6,A,4741.19736,N,12224.24050,W,000.00,111.2,201013,016.6,E,D*2F
$GPRMB,A,0.22,L,,Shil,4741.0830,N,12224.5670,W,0.2,243,-0.00,V*10
$YXXDR,A,5.5,D,PTCH,A,2.5,D,ROLL*5A
$PTAK,FFD1,2.5*52
$PGRME,2.4,M,2.6,M,3.5,M*2A
$HCHDG,273.9,0.0,E,,*26
$HCHDG,273.9,0.0,E,,*26
$GPRMC,200046.8,A,4741.19736,N,12224.24050,W,000.00,111.2,201013,016.6,E,D*21
$PGRME,2.4,M,2.6,M,3.5,M*2A
$HCHDG,274.0,0.0,E,,*28
$IIRMB,A,0.22,L,,Shil,,,,,000.2,243,,V,A*7E
$HCHDG,274.0,0.0,E,,*28
$IIRMC,200000,A,4741.197,N,12224.240,W,00.0,111,201013,16,E,A*13
$GPRMC,200047.0,A,4741.19736,N,12224.24051,W,000.00,111.2,201013,016.6,E,D*29
$PGRME,2.4,M,2.5,M,3.5,M*29
$HCHDG,274.0,0.0,E,,*28
$IIVHW,,,,,00.0,N,,*19
$YXXDR,A,5.5,D,PTCH,A,2.9,D,ROLL*56
$IIVLW,06403,N,010.9,N*5A
$HCHDG,274.0,0.0,E,,*28
$IIVWR,063,R,07.5,N,,,,*66
$GPRMC,200047.2,A,4741.19736,N,12224.24051,W,000.01,111.2,201013,016.6,E,D*2A
$PGRME,2.4,M,2.5,M,3.5,M*29
$IIDPT,004.4,-1.0,*40
$HCHDG,274.0,0.0,E,,*28
$IIGLL,4741.197,N,12224.240,W,200000,A,A*48
$HCHDG,274.2,0.0,E,,*2A
$IIMTW,+09.0,C*31
$GPRMC,200047.4,A,4741.19736,N,12224.24051,W,000.00,111.2,201013,016.6,E,D*2D
$PGRME,2.4,M,2.5,M,3.5,M*29
$HCHDG,274.2,0.0,E,,*2A
$HCHDG,274.1,0.0,E,,*29
$GPRMC,200047.6,A,4741.19736,N,12224.24051,W,000.01,111.2,201013,016.6,E,D*2E
$GPRMB,A,0.22,L,,Shil,4741.0830,N,12224.5670,W,0.2,243,-0.01,V*11
$YXXDR,A,5.6,D,PTCH,A,3.0,D,ROLL*5D
$PTAK,FFD1,3.0*56
$PGRME,2.4,M,2.5,M,3.5,M*29
$HCHDG,274.0,0.0,E,,*28
$HCHDG,274.1,0.0,E,,*29
$GPRMC,200047.8,A,4741.19736,N,12224.24051,W,000.01,111.2,201013,016.6,E,D*20
$PGRME,2.4,M,2.5,M,3.5,M*29
$HCHDG,274.1,0.0,E,,*29
$IIMWV,063,R,07.1,N,A*10
$IIMWV,063,T,07.5,N,A*12
$HCHDG,274.2,0.0,E,,*2A
$IIRMB,A,0.22,L,,Shil,,,,,000.2,243,,V,A*7E
$GPRMC,200048.0,A,4741.19736,N,12224.24051,W,000.01,111.2,201013,016.6,E,D*27
$PGRME,2.4,M,2.5,M,3.5,M*29
$HCHDG,274.2,0.0,E,,*2A
$YXXDR,A,5.6,D,PTCH,A,3.0,D,ROLL*5D
$IIRMC,200000,A,4741.197,N,12224.240,W,00.0,111,201013,16,E,A*13
$HCHDG,274.2,0.0,E,,*2A
$IIVHW,,,,,00.0,N,,*19
$GPRMC,200048.2,A,4741.19736,N,12224.24051,W,000.01,111.2,201013,016.6,E,D*25
$PGRME,2.4,M,2.5,M,3.5,M*29
$IIVLW,06403,N,010.9,N*5A
$HCHDG,274.2,0.0,E,,*2A
$IIVWR,063,R,07.1,N,,,,*62
$HCHDG,274.2,0.0,E,,*2A
$IIDPT,004.4,-1.0,*40
$GPRMC,200048.4,A,4741.19736,N,12224.24051,W,000.01,111.2,201013,016.6,E,D*23
$PGRME,2.4,M,2.5,M,3.5,M*29
$HCHDG,274.3,0.0,E,,*2B
$HCHDG,274.3,0.0,E,,*2B
$GPRMC,200048.6,A,4741.19736,N,12224.24052,W,000.00,111.2,201013,016.6,E,D*23
$GPRMB,A,0.22,L,,Shil,4741.0830,N,12224.5670,W,0.2,243,-0.00,V*10
$YXXDR,A,5.4,D,PTCH,A,2.4,D,ROLL*5A
$PTAK,FFD1,2.4*53
$PGRME,2.4,M,2.5,M,3.5,M*29
$HCHDG,274.3,0.0,E,,*2B
$HCHDG,274.3,0.0,E,,*2B
$GPRMC,200048.8,A,4741.19736,N,12224.24052,W,000.00,111.2,201013,016.6,E,D*2D
$PGRME,2.4,M,2.5,M,3.5,M*29
$HCHDG,274.4,0.0,E,,*2C
$IIGLL,4741.197,N,12224.240,W,200000,A,A*48
$IIMTW,+09.0,C*31
$HCHDG,274.4,0.0,E,,*2C
$IIMWV,061,R,06.8,N,A*1A
$GPRMC,200049.0,A,4741.19736,N,12224.24052,W,000.01,111.2,201013,016.6,E,D*25
$PGRME,2.4,M,2.5,M,3.5,M*29
$IIMWV,063,T,07.1,N,A*16
$HCHDG,274.4,0.0,E,,*2C
$YXXDR,A,5.5,D,PTCH,A,2.5,D,ROLL*5A
$IIRMB,A,0.22,L,,Shil,,,,,000.2,243,,V,A*7E
$HCHDG,274.5,0.0,E,,*2D
$GPRMC,200049.2,A,4741.19736,N,12224.24052,W,000.01,111.2,201013,016.6,E,D*27
$PGRME,2.4,M,2.5,M,3.5,M*29
$HCHDG,274.4,0.0,E,,*2C
$PTAK,FFP1,HEEL,@*07
$IIRMC,200000,A,4741.197,N,12224.240,W,00.0,111,201013,16,E,A*13
$IIVHW,,,,,00.0,N,,*19
$HCHDG,274.3,0.0,E,,*2B
$IIVLW,06403,N,010.9,N*5A
$GPRMC,200049.4,A,4741.19736,N,12224.24052,W,000.01,111.2,201013,016.6,E,D*21
$PGRME,2.4,M,2.5,M,3.5,M*29
$HCHDG,274.3,0.0,E,,*2B
$HCHDG,274.4,0.0,E,,*2C
$GPRMC,200049.6,A,4741.19736,N,12224.24052,W,000.01,111.2,201013,016.6,E,D*23
$YXXDR,A,5.8,D,PTCH,A,2.2,D,ROLL*50
$PGRME,2.4,M,2.5,M,3.5,M*29
$HCHDG,274.4,0.0,E,,*2C
$HCHDG,274.3,0.0,E,,*2B
$GPRMC,200049.8,A,4741.19736,N,12224.24052,W,000.00,111.2,201013,016.6,E,D*2C
$GPRMB,A,0.22,L,,Shil,4741.0830,N,12224.5670,W,0.2,243,-0.00,V*10
$PGRME,2.4,M,2.5,M,3.5,M*29
$HCHDG,274.3,0.0,E,,*2B
$IIVWR,061,R,06.3,N,,,,*63
$IIDPT,004.4,-1.0,*40
$HCHDG,274.4,0.0,E,,*2C
$IIGLL,4741.197,N,12224.240,W,200000,A,A*48
$GPRMC,200050.0,A,4741.19736,N,12224.24052,W,000.01,111.2,201013,016.6,E,D*2D
$PGRME,2.4,M,2.5,M,3.5,M*29
$IIMTW,+09.0,C*31
$HCHDG,274.4,0.0,E,,*2C
