$GPRMB,A,0.22,L,,Shil,4741.0830,N,12224.5670,W,0.2,240,-0.02,V*11
$PTAK,FFP1,HEEL,@*07
$PGRME,6.3,M,385.3,M,385.4,M*2C
$YXXDR,A,5.1,D,PTCH,A,6.4,D,ROLL*5B
$PTAK,FFD1,6.4*57
$PTAK,FFP1,HEEL,@*07
$HCHDG,265.2,0.0,E,,*2A
$HCHDG,265.2,0.0,E,,*2A
$GPRMC,174509.8,A,4741.20516,N,12224.24710,W,000.03,000.0,061013,016.6,E,A*27
$GPRMB,A,0.22,L,,Shil,4741.0830,N,12224.5670,W,0.2,240,-0.01,V*12
$PGRME,6.2,M,376.4,M,376.4,M*2A
$HCHDG,265.2,0.0,E,,*2A
$HCHDG,265.2,0.0,E,,*2A
$IIRMC,174500,A,4741.205,N,12224.246,W,00.0,000,061013,16,E,A*1D
$GPRMC,174510.0,A,4741.20511,N,12224.24717,W,000.03,000.0,061013,016.6,E,A*27
$PGRME,6.2,M,367.9,M,367.9,M*2A
$IIVHW,,,,,00.0,N,,*19
$HCHDG,264.9,0.0,E,,*20
$IIVLW,06382,N,000.0,N*5C
$YXXDR,A,5.1,D,PTCH,A,6.4,D,ROLL*5B
$IIVWR,128,L,06.0,N,,,,*72
$HCHDG,264.9,0.0,E,,*20
$IIDPT,005.3,-1.0,*46
$GPRMC,174510.2,A,4741.20523,N,12224.24705,W,000.03,000.0,061013,016.6,E,A*27
$PGRME,6.0,M,356.6,M,356.6,M*28
$HCHDG,265.0,0.0,E,,*28
$IIGLL,4741.205,N,12224.246,W,174500,A,A*43
$IIMTW,+10.5,C*3C
$HCHDG,265.2,0.0,E,,*2A
$IIMWV,232,R,06.0,N,A*16
$GPRMC,174510.4,A,4741.20516,N,12224.24696,W,000.05,000.0,061013,016.6,E,A*2A
$PGRME,5.9,M,346.5,M,346.5,M*22
$IIMWV,231,T,06.2,N,A*11
$HCHDG,265.2,0.0,E,,*2A
$HCHDG,265.2,0.0,E,,*2A
$GPRMC,174510.6,A,4741.20512,N,12224.24698,W,000.04,000.0,061013,016.6,E,A*23
$PGRME,5.9,M,339.7,M,339.8,M*2D
$YXXDR,A,5.1,D,PTCH,A,6.4,D,ROLL*5B
$HCHDG,265.2,0.0,E,,*2A
$HCHDG,265.2,0.0,E,,*2A
$GPRMC,174510.8,A,4741.20502,N,12224.24706,W,000.06,000.0,061013,016.6,E,A*28
$PGRME,5.8,M,333.3,M,333.4,M*24
$HCHDG,264.9,0.0,E,,*20
$HCHDG,265.0,0.0,E,,*28
$IIRMC,174500,A,4741.205,N,12224.246,W,00.0,000,061013,16,E,A*1D
$GPRMC,174511.0,A,4741.20508,N,12224.24693,W,000.09,000.0,061013,016.6,E,A*29
$PGRME,5.8,M,328.0,M,328.1,M*22
$IIVHW,,,,,00.0,N,,*19
$HCHDG,265.0,0.0,E,,*28
$IIVLW,06382,N,000.0,N*5C
$YXXDR,A,5.0,D,PTCH,A,6.5,D,ROLL*5B
$PTAK,FFD1,6.5*56
$IIVWR,130,L,06.1,N,,,,*7A
$HCHDG,265.0,0.0,E,,*28
$IIDPT,005.1,-1.0,*44
$GPRMC,174511.2,A,4741.20515,N,12224.24685,W,000.09,000.0,061013,016.6,E,A*20
$GPRMB,A,0.22,L,,Shil,4741.0830,N,12224.5670,W,0.2,240,-0.04,V*17
$PGRME,5.7,M,320.3,M,320.3,M*2C
$HCHDG,265.2,0.0,E,,*2A
$IIGLL,4741.205,N,12224.246,W,174500,A,A*43
$IIMTW,+10.5,C*3C
$HCHDG,265.3,0.0,E,,*2B
$IIMWV,230,R,06.1,N,A*15
$GPRMC,174511.4,A,4741.20515,N,12224.24690,W,000.07,000.0,061013,016.6,E,A*2C
$PGRME,5.6,M,310.5,M,310.5,M*2D
$IIMWV,232,T,06.0,N,A*10
$HCHDG,265.3,0.0,E,,*2B
$HCHDG,265.2,0.0,E,,*2A
$GPRMC,174511.6,A,4741.20499,N,12224.24688,W,000.05,000.0,061013,016.6,E,A*20
$PGRME,5.5,M,301.3,M,301.3,M*2E
$YXXDR,A,5.2,D,PTCH,A,6.4,D,ROLL*58
$HCHDG,265.2,0.0,E,,*2A
$HCHDG,265.4,0.0,E,,*2C
$GPRMC,174511.8,A,4741.20495,N,12224.24687,W,000.03,000.0,061013,016.6,E,A*2B
$PGRME,5.5,M,293.9,M,293.9,M*2E
$HCHDG,265.3,0.0,E,,*2B
$IIRMB,A,0.22,L,,Shil,,,,,000.2,240,,V,A*7D
$HCHDG,265.1,0.0,E,,*29
$GPRMC,174512.0,A,4741.20507,N,12224.24691,W,000.05,000.0,061013,016.6,E,A*2B
$PGRME,5.4,M,288.0,M,288.0,M*2F
$HCHDG,265.1,0.0,E,,*29
$IIRMC,174500,A,4741.205,N,12224.246,W,00.0,000,061013,16,E,A*1D
$IIVHW,,,,,00.0,N,,*19
$YXXDR,A,4.8,D,PTCH,A,6.1,D,ROLL*56
$PTAK,FFD1,6.1*52
$HCHDG,265.1,0.0,E,,*29
$IIVLW,06382,N,000.0,N*5C
$GPRMC,174512.2,A,4741.20514,N,12224.24698,W,000.03,000.0,061013,016.6,E,A*24
$PGRME,5.3,M,282.5,M,282.6,M*2B
$IIVWR,131,L,06.0,N,,,,*7A
$HCHDG,265.1,0.0,E,,*29
$IIDPT,005.1,-1.0,*44
$HCHDG,265.1,0.0,E,,*29
$IIGLL,4741.205,N,12224.246,W,174500,A,A*43
$GPRMC,174512.4,A,4741.20515,N,12224.24708,W,000.05,000.0,061013,016.6,E,A*2D
$GPRMB,A,0.22,L,,Shil,4741.0830,N,12224.5670,W,0.2,240,-0.02,V*11
$IIMTW,+10.5,C*3C
$PGRME,5.2,M,273.1,M,273.2,M*2A
$HCHDG,265.1,0.0,E,,*29
$HCHDG,265.1,0.0,E,,*29
$GPRMC,174512.6,A,4741.20509,N,12224.24713,W,000.04,000.0,061013,016.6,E,A*29
$PGRME,5.1,M,264.1,M,264.1,M*2A
$YXXDR,A,4.8,D,PTCH,A,6.2,D,ROLL*55
$HCHDG,265.0,0.0,E,,*28
$HCHDG,265.0,0.0,E,,*28
$GPRMC,174512.8,A,4741.20514,N,12224.24716,W,000.03,000.0,061013,016.6,E,A*29
$PGRME,5.0,M,259.1,M,259.1,M*2B
$HCHDG,265.0,0.0,E,,*28
$IIMWV,230,R,05.6,N,A*11
$HCHDG,265.0,0.0,E,,*28
$IIMWV,229,T,06.0,N,A*1A
$GPRMC,174513.0,A,4741.20512,N,12224.24734,W,000.04,000.0,061013,016.6,E,A*21
$PGRME,5.0,M,255.7,M,255.8,M*24
$IIRMB,A,0.22,L,,Shil,,,,,000.2,240,,V,A*7D
$HCHDG,265.0,0.0,E,,*28
$YXXDR,A,5.0,D,PTCH,A,6.3,D,ROLL*5D
$HCHDG,265.0,0.0,E,,*28
$IIRMC,174500,A,4741.205,N,12224.247,W,00.0,000,061013,16,E,A*1C
$GPRMC,174513.2,A,4741.20502,N,12224.24756,W,000.04,000.0,061013,016.6,E,A*26
$PGRME,5.0,M,252.5,M,252.5,M*2B
$IIVHW,,,,,00.0,N,,*19
$HCHDG,265.0,0.0,E,,*28
$IIVLW,06382,N,000.0,N*5C
$IIVWR,130,L,05.6,N,,,,*7E
$HCHDG,265.0,0.0,E,,*28
$IIDPT,005.1,-1.0,*44
$GPRMC,174513.4,A,4741.20498,N,12224.24759,W,000.04,000.0,061013,016.6,E,A*2D
$GPRMB,A,0.22,L,,Shil,4741.0830,N,12224.5670,W,0.2,240,-0.02,V*11
$PGRME,4.9,M,248.0,M,248.1,M*22
$HCHDG,265.0,0.0,E,,*28
$HCHDG,265.0,0.0,E,,*28
$GPRMC,174513.6,A,4741.20496,N,12224.24751,W,000.06,000.0,061013,016.6,E,A*2B
$PGRME,4.8,M,240.9,M,240.9,M*22
$YXXDR,A,5.0,D,PTCH,A,6.3,D,ROLL*5D
$PTAK,FFD1,6.3*50
$HCHDG,265.0,0.0,E,,*28
$HCHDG,265.0,0.0,E,,*28
$GPRMC,174513.8,A,4741.20529,N,12224.24755,W,000.04,000.0,061013,016.6,E,A*26
$PGRME,4.6,M,225.1,M,225.1,M*2C
$HCHDG,265.0,0.0,E,,*28
$PTAK,FFP1,HEEL,@*07
$IIGLL,4741.204,N,12224.247,W,174500,A,A*43
$HCHDG,265.3,0.0,E,,*2B
$IIMTW,+10.5,C*3C
$GPRMC,174514.0,A,4741.20527,N,12224.24774,W,000.07,000.0,061013,016.6,E,A*27
$PGRME,4.6,M,221.7,M,221.7,M*2C
$IIMWV,227,R,05.3,N,A*12
$HCHDG,265.3,0.0,E,,*2B
$IIMWV,230,T,05.6,N,A*17
$YXXDR,A,5.0,D,PTCH,A,6.3,D,ROLL*5D
$HCHDG,265.3,0.0,E,,*2B
$IIRMB,A,0.22,L,,Shil,,,,,000.2,240,,V,A*7D
$GPRMC,174514.2,A,4741.20521,N,12224.24779,W,000.06,000.0,061013,016.6,E,A*2F
$PGRME,4.5,M,216.5,M,216.6,M*2C
$HCHDG,265.3,0.0,E,,*2B
$IIRMC,174500,A,4741.204,N,12224.247,W,00.0,000,061013,16,E,A*1D
$HCHDG,265.2,0.0,E,,*2A
$IIVHW,,,,,00.0,N,,*19
$GPRMC,174514.4,A,4741.20518,N,12224.24775,W,000.05,000.0,061013,016.6,E,A*2C
$GPRMB,A,0.22,L,,Shil,4741.0830,N,12224.5670,W,0.2,240,-0.02,V*11
$PGRME,4.4,M,211.7,M,211.7,M*2E
$IIVLW,06382,N,000.0,N*5C
$HCHDG,265.2,0.0,E,,*2A
$HCHDG,265.2,0.0,E,,*2A
$GPRMC,174514.6,A,4741.20527,N,12224.24770,W,000.08,000.0,061013,016.6,E,A*2A
$PGRME,4.4,M,206.8,M,206.9,M*2F
$YXXDR,A,5.2,D,PTCH,A,5.9,D,ROLL*56
$HCHDG,265.2,0.0,E,,*2A
$HCHDG,265.3,0.0,E,,*2B
$GPRMC,174514.8,A,4741.20557,N,12224.24781,W,000.07,000.0,061013,016.6,E,A*22
$PGRME,4.2,M,196.7,M,196.7,M*28
$HCHDG,265.3,0.0,E,,*2B
$IIVWR,134,L,05.1,N,,,,*7D
$HCHDG,265.3,0.0,E,,*2B
$IIDPT,005.1,-1.0,*44
$GPRMC,174515.0,A,4741.20555,N,12224.24785,W,000.05,000.0,061013,016.6,E,A*2F
$PGRME,4.2,M,194.7,M,194.7,M*28
$IIGLL,4741.205,N,12224.247,W,174500,A,A*42
$HCHDG,265.1,0.0,E,,*29
$IIMTW,+10.5,C*3C
$YXXDR,A,5.1,D,PTCH,A,5.8,D,ROLL*54
$PTAK,FFD1,5.8*58
$IIMWV,226,R,05.1,N,A*11
$HCHDG,265.1,0.0,E,,*29
$IIMWV,227,T,05.3,N,A*14
$GPRMC,174515.2,A,4741.20550,N,12224.24786,W,000.03,000.0,061013,016.6,E,A*2D
$PGRME,4.2,M,193.0,M,193.1,M*29
$HCHDG,265.1,0.0,E,,*29
$IIRMB,A,0.22,L,,Shil,,,,,000.2,240,,V,A*7D
$HCHDG,265.0,0.0,E,,*28
$GPRMC,174515.4,A,4741.20542,N,12224.24785,W,000.04,000.0,061013,016.6,E,A*2C
$IIRMC,174500,A,4741.205,N,12224.247,W,00.0,000,061013,16,E,A*1C
$PGRME,4.1,M,190.3,M,190.3,M*2B
$HCHDG,265.0,0.0,E,,*28
$HCHDG,265.0,0.0,E,,*28
$GPRMC,174515.6,A,4741.20540,N,12224.24807,W,000.05,000.0,061013,016.6,E,A*28
$PGRME,4.0,M,182.6,M,182.7,M*2B
$YXXDR,A,4.7,D,PTCH,A,5.5,D,ROLL*5E
$HCHDG,265.0,0.0,E,,*28
$HCHDG,265.0,0.0,E,,*28
$GPRMC,174515.8,A,4741.20552,N,12224.24816,W,000.03,000.0,061013,016.6,E,A*23
$GPRMB,A,0.21,L,,Shil,4741.0830,N,12224.5670,W,0.2,240,-0.01,V*11
$PGRME,3.9,M,175.0,M,175.0,M*24
$HCHDG,265.0,0.0,E,,*28
$IIVHW,,,,,00.0,N,,*19
$HCHDG,265.2,0.0,E,,*2A
$IIVLW,06382,N,000.0,N*5C
$IIVWR,140,L,04.6,N,,,,*78
$GPRMC,174516.0,A,4741.20545,N,12224.24821,W,000.02,000.0,061013,016.6,E,A*2B
$PGRME,3.8,M,168.2,M,168.3,M*24
$HCHDG,265.1,0.0,E,,*29
$IIDPT,005.1,-1.0,*44
$YXXDR,A,4.8,D,PTCH,A,5.8,D,ROLL*5C
$PTAK,FFD1,5.8*58
$IIGLL,4741.205,N,12224.247,W,174500,A,A*42
$HCHDG,264.9,0.0,E,,*20
$IIMTW,+10.5,C*3C
$GPRMC,174516.2,A,4741.20516,N,12224.24831,W,000.05,000.0,061013,016.6,E,A*29
$PGRME,3.7,M,162.2,M,162.3,M*2B
$IIMWV,220,R,04.6,N,A*11
$HCHDG,265.0,0.0,E,,*28
$IIMWV,226,T,05.1,N,A*17
$HCHDG,265.0,0.0,E,,*28
$IIRMB,A,0.22,L,,Shil,,,,,000.2,240,,V,A*7D
$GPRMC,174516.4,A,4741.20496,N,12224.24849,W,000.09,000.0,061013,016.6,E,A*25
$PGRME,3.7,M,158.9,M,158.9,M*2A
$HCHDG,265.0,0.0,E,,*28
$HCHDG,265.0,0.0,E,,*28
$GPRMC,174516.6,A,4741.20489,N,12224.24861,W,000.05,000.0,061013,016.6,E,A*2F
$PGRME,3.7,M,157.3,M,157.3,M*2A
$YXXDR,A,4.8,D,PTCH,A,6.3,D,ROLL*54
$HCHDG,265.1,0.0,E,,*29
$HCHDG,265.0,0.0,E,,*28
$GPRMC,174516.8,A,4741.20496,N,12224.24856,W,000.06,000.0,061013,016.6,E,A*28
$PGRME,3.7,M,155.8,M,155.8,M*2A
$HCHDG,265.0,0.0,E,,*28
$HCHDG,265.0,0.0,E,,*28
$IIRMC,174500,A,4741.204,N,12224.248,W,00.0,000,061013,16,E,A*12
$GPRMC,174517.0,A,4741.20493,N,12224.24856,W,000.07,000.0,061013,016.6,E,A*25
$GPRMB,A,0.21,L,,Shil,4741.0830,N,12224.5670,W,0.2,240,-0.03,V*13
$PGRME,3.6,M,153.7,M,153.8,M*24
$IIVHW,,,,,00.0,N,,*19
$HCHDG,265.1,0.0,E,,*29
$IIVLW,06382,N,000.0,N*5C
$YXXDR,A,5.0,D,PTCH,A,6.1,D,ROLL*5F
$PTAK,FFD1,6.1*52
$IIVWR,143,L,04.2,N,,,,*7F
$HCHDG,265.1,0.0,E,,*29
$IIDPT,005.1,-1.0,*44
$GPRMC,174517.2,A,4741.20478,N,12224.24868,W,000.08,000.0,061013,016.6,E,A*20
$PGRME,3.6,M,152.0,M,152.1,M*2A
$HCHDG,265.2,0.0,E,,*2A
$IIGLL,4741.204,N,12224.248,W,174500,A,A*4C
$IIMTW,+10.5,C*3C
$HCHDG,265.4,0.0,E,,*2C
$IIMWV,217,R,04.2,N,A*11
$GPRMC,174517.4,A,4741.20467,N,12224.24881,W,000.14,000.0,061013,016.6,E,A*22
$PGRME,3.6,M,150.8,M,150.8,M*2B
$IIMWV,220,T,04.6,N,A*17
$HCHDG,265.4,0.0,E,,*2C
$HCHDG,265.1,0.0,E,,*29
$GPRMC,174517.6,A,4741.20470,N,12224.24880,W,000.07,000.0,061013,016.6,E,A*25
$PGRME,3.6,M,150.1,M,150.1,M*2B
$YXXDR,A,5.1,D,PTCH,A,6.4,D,ROLL*5B
$HCHDG,265.1,0.0,E,,*29
$HCHDG,265.1,0.0,E,,*29
$GPRMC,174517.8,A,4741.20479,N,12224.24875,W,000.07,000.0,061013,016.6,E,A*28
$PGRME,3.6,M,148.8,M,148.8,M*2B
$HCHDG,265.1,0.0,E,,*29
$IIRMB,A,0.21,L,,Shil,,,,,000.2,240,,V,A*7E
$HCHDG,265.1,0.0,E,,*29
$GPRMC,174518.0,A,4741.20473,N,12224.24880,W,000.04,000.0,061013,016.6,E,A*2C
$PGRME,3.6,M,147.6,M,147.6,M*2B
$HCHDG,265.1,0.0,E,,*29
$IIRMC,174500,A,4741.204,N,12224.248,W,00.1,000,061013,16,E,A*13
$IIVHW,,,,,00.0,N,,*19
$PTAK,FFP1,HEEL,@*07
$YXXDR,A,5.0,D,PTCH,A,6.3,D,ROLL*5D
$HCHDG,265.1,0.0,E,,*29
$IIVLW,06382,N,000.0,N*5C
$GPRMC,174518.2,A,4741.20453,N,12224.24886,W,000.03,000.0,061013,016.6,E,A*2D
$GPRMB,A,0.21,L,,Shil,4741.0830,N,12224.5670,W,0.2,240,-0.01,V*11
$PGRME,3.5,M,145.9,M,146.0,M*22
$IIVWR,142,L,04.3,N,,,,*7F
$HCHDG,265.0,0.0,E,,*28
$IIDPT,005.1,-1.0,*44
$HCHDG,265.1,0.0,E,,*29
$IIGLL,4741.204,N,12224.248,W,174500,A,A*4C
$GPRMC,174518.4,A,4741.20455,N,12224.24878,W,000.03,000.0,061013,016.6,E,A*2C
$IIMTW,+10.5,C*3C
$PGRME,3.5,M,144.3,M,144.3,M*28
$HCHDG,265.1,0.0,E,,*29
$HCHDG,265.0,0.0,E,,*28
$GPRMC,174518.6,A,4741.20461,N,12224.24862,W,000.12,000.0,061013,016.6,E,A*22
$PGRME,3.5,M,142.1,M,142.2,M*2B
$YXXDR,A,5.1,D,PTCH,A,5.5,D,ROLL*59
$PTAK,FFD1,5.5*55
$HCHDG,264.9,0.0,E,,*20
$HCHDG,265.1,0.0,E,,*29
$GPRMC,174518.8,A,4741.20462,N,12224.24861,W,000.12,000.0,061013,016.6,E,A*2C
$PGRME,3.5,M,140.4,M,140.4,M*28
$HCHDG,265.1,0.0,E,,*29
$HCHDG,265.1,0.0,E,,*29
$GPRMC,174519.0,A,4741.20462,N,12224.24863,W,000.09,000.0,061013,016.6,E,A*2D
$PGRME,3.5,M,140.1,M,140.1,M*28
$HCHDG,265.1,0.0,E,,*29
$YXXDR,A,5.3,D,PTCH,A,6.1,D,ROLL*5C
$HCHDG,265.0,0.0,E,,*28
$GPRMC,174519.2,A,4741.20463,N,12224.24859,W,000.06,000.0,061013,016.6,E,A*28
$PGRME,3.5,M,139.8,M,139.9,M*29
$HCHDG,265.0,0.0,E,,*28
$HCHDG,264.9,0.0,E,,*20
$GPRMC,174519.4,A,4741.20480,N,12224.24855,W,000.09,000.0,061013,016.6,E,A*20
$GPRMB,A,0.21,L,,Shil,4741.0830,N,12224.5670,W,0.2,240,-0.04,V*14
$PGRME,3.4,M,136.8,M,136.8,M*29
$HCHDG,264.7,0.0,E,,*2E
$HCHDG,264.7,0.0,E,,*2E
$GPRMC,174519.6,A,4741.20479,N,12224.24858,W,000.09,000.0,061013,016.6,E,A*29
$PGRME,3.4,M,133.8,M,133.9,M*28
$YXXDR,A,4.8,D,PTCH,A,4.8,D,ROLL*5D
$PTAK,FFD1,4.8*59
$HCHDG,264.7,0.0,E,,*2E
$HCHDG,264.7,0.0,E,,*2E
$GPRMC,174519.8,A,4741.20474,N,12224.24859,W,000.13,000.0,061013,016.6,E,A*20
$PGRME,3.4,M,131.5,M,131.6,M*2A
$HCHDG,264.7,0.0,E,,*2E
$IIMWV,221,R,04.4,N,A*12
$HCHDG,264.7,0.0,E,,*2E
$IIMWV,218,T,04.3,N,A*19
$GPRMC,174520.0,A,4741.20449,N,12224.24854,W,000.08,000.0,061013,016.6,E,A*2B
$PGRME,3.3,M,128.0,M,128.1,M*2F
$IIRMB,A,0.21,L,,Shil,,,,,000.2,240,,V,A*7E
$HCHDG,264.6,0.0,E,,*2F
$YXXDR,A,5.0,D,PTCH,A,4.5,D,ROLL*59
$HCHDG,264.6,0.0,E,,*2F
$IIRMC,174500,A,4741.204,N,12224.248,W,00.0,000,061013,16,E,A*12
$GPRMC,174520.2,A,4741.20448,N,12224.24840,W,000.05,000.0,061013,016.6,E,A*20
$PGRME,3.3,M,124.7,M,124.8,M*21
$IIVHW,,,,,00.0,N,,*19
$HCHDG,264.4,0.0,E,,*2D
$IIVLW,06382,N,000.0,N*5C
$IIVWR,139,L,04.4,N,,,,*74
$HCHDG,264.4,0.0,E,,*2D
$IIDPT,005.1,-1.0,*44
$GPRMC,174520.4,A,4741.20455,N,12224.24848,W,000.03,000.0,061013,016.6,E,A*24
$GPRMB,A,0.21,L,,Shil,4741.0830,N,12224.5670,W,0.2,240,-0.01,V*11
$PGRME,3.2,M,122.0,M,122.1,M*2E
$HCHDG,264.4,0.0,E,,*2D
$HCHDG,264.3,0.0,E,,*2A
$GPRMC,174520.6,A,4741.20461,N,12224.24857,W,000.06,000.0,061013,016.6,E,A*2A
$PGRME,3.2,M,119.2,M,119.3,M*2E
$YXXDR,A,4.8,D,PTCH,A,3.4,D,ROLL*56
$PTAK,FFD1,3.4*52
$HCHDG,264.3,0.0,E,,*2A
$HCHDG,264.3,0.0,E,,*2A
$GPRMC,174520.8,A,4741.20447,N,12224.24856,W,000.04,000.0,061013,016.6,E,A*23
$PGRME,3.1,M,116.6,M,116.7,M*2D
$HCHDG,264.3,0.0,E,,*2A
$IIGLL,4741.204,N,12224.248,W,174500,A,A*4C
$HCHDG,264.2,0.0,E,,*2B
$IIMTW,+10.5,C*3C
$GPRMC,174521.0,A,4741.20439,N,12224.24849,W,000.04,000.0,061013,016.6,E,A*2D
$PGRME,3.1,M,114.1,M,114.2,M*2F
$IIMWV,225,R,04.8,N,A*1A
$HCHDG,264.2,0.0,E,,*2B
$IIMWV,225,T,04.5,N,A*11
$YXXDR,A,5.0,D,PTCH,A,3.3,D,ROLL*58
$IIRMB,A,0.21,L,,Shil,,,,,000.2,240,,V,A*7E
$HCHDG,264.2,0.0,E,,*2B
$GPRMC,174521.2,A,4741.20439,N,12224.24848,W,000.08,000.0,061013,016.6,E,A*22
$PGRME,3.1,M,111.8,M,111.8,M*2C
$HCHDG,264.3,0.0,E,,*2A
$IIRMC,174500,A,4741.204,N,12224.248,W,00.0,000,061013,16,E,A*12
$HCHDG,264.3,0.0,E,,*2A
$IIVHW,,,,,00.0,N,,*19
$GPRMC,174521.4,A,4741.20440,N,12224.24853,W,000.07,000.0,061013,016.6,E,A*2F
$IIVLW,06382,N,000.0,N*5C
$PGRME,3.0,M,109.6,M,109.6,M*2D
$HCHDG,264.3,0.0,E,,*2A
$HCHDG,264.4,0.0,E,,*2D
$GPRMC,174521.6,A,4741.20424,N,12224.24857,W,000.06,000.0,061013,016.6,E,A*2A
$GPRMB,A,0.21,L,,Shil,4741.0830,N,12224.5670,W,0.2,241,-0.03,V*12
$PGRME,3.0,M,107.5,M,107.5,M*2D
$YXXDR,A,5.0,D,PTCH,A,2.8,D,ROLL*52
$PTAK,FFD1,2.8*5F
$PTAK,FFP1,HEEL,@*07
$HCHDG,264.1,0.0,E,,*28
$HCHDG,264.1,0.0,E,,*28
$GPRMC,174521.8,A,4741.20405,N,12224.24845,W,000.11,000.0,061013,016.6,E,A*22
$PGRME,3.0,M,105.9,M,106.0,M*27
$HCHDG,264.0,0.0,E,,*29
$IIVWR,135,L,04.8,N,,,,*74
$HCHDG,264.1,0.0,E,,*28
$IIDPT,005.1,-1.0,*44
$GPRMC,174522.0,A,4741.20385,N,12224.24833,W,000.07,000.0,061013,016.6,E,A*20
$PGRME,3.0,M,104.0,M,104.0,M*2D
$IIGLL,4741.204,N,12224.248,W,174500,A,A*4C
$HCHDG,264.1,0.0,E,,*28
$IIMTW,+10.5,C*3C
$YXXDR,A,4.9,D,PTCH,A,3.0,D,ROLL*53
$IIMWV,225,R,04.8,N,A*1A
$HCHDG,264.1,0.0,E,,*28
$IIMWV,225,T,04.8,N,A*1C
$GPRMC,174522.2,A,4741.20374,N,12224.24842,W,000.05,000.0,061013,016.6,E,A*28
$PGRME,3.0,M,102.2,M,102.2,M*2D
$HCHDG,264.2,0.0,E,,*2B
$IIRMB,A,0.21,L,,Shil,,,,,000.2,240,,V,A*7E
$HCHDG,264.1,0.0,E,,*28
$GPRMC,174522.4,A,4741.20377,N,12224.24850,W,000.06,000.0,061013,016.6,E,A*2D
$IIRMC,174500,A,4741.204,N,12224.248,W,00.0,000,061013,16,E,A*12
$PGRME,3.0,M,100.4,M,100.4,M*2D
$HCHDG,264.1,0.0,E,,*28
$HCHDG,264.1,0.0,E,,*28
$GPRMC,174522.6,A,4741.20365,N,12224.24847,W,000.07,000.0,061013,016.6,E,A*2B
$PGRME,3.0,M,98.7,M,98.7,M*2D
$YXXDR,A,4.8,D,PTCH,A,2.6,D,ROLL*55
$HCHDG,264.1,0.0,E,,*28
$HCHDG,264.1,0.0,E,,*28
$GPRMC,174522.8,A,4741.20360,N,12224.24841,W,000.06,000.0,061013,016.6,E,A*27
$PGRME,3.0,M,97.0,M,97.1,M*2C
$HCHDG,264.1,0.0,E,,*28
$IIVHW,,,,,00.0,N,,*19
$HCHDG,264.1,0.0,E,,*28
$IIVLW,06382,N,000.0,N*5C
$IIVWR,135,L,04.7,N,,,,*7B
$GPRMC,174523.0,A,4741.20350,N,12224.24850,W,000.02,000.0,061013,016.6,E,A*29
$GPRMB,A,0.21,L,,Shil,4741.0830,N,12224.5670,W,0.2,241,-0.01,V*10
$PGRME,3.0,M,95.4,M,95.5,M*2C
$HCHDG,264.1,0.0,E,,*28
$IIDPT,005.1,-1.0,*44
$YXXDR,A,4.8,D,PTCH,A,2.7,D,ROLL*54
$PTAK,FFD1,2.7*50
$IIGLL,4741.203,N,12224.248,W,174500,A,A*4B
$HCHDG,264.1,0.0,E,,*28
$IIMTW,+10.5,C*3C
$GPRMC,174523.2,A,4741.20355,N,12224.24864,W,000.00,000.0,061013,016.6,E,A*2B
$PGRME,3.0,M,93.9,M,94.0,M*23
$IIMWV,225,R,04.7,N,A*15
$HCHDG,263.9,0.0,E,,*27
$IIMWV,225,T,04.8,N,A*1C
$HCHDG,263.9,0.0,E,,*27
$IIRMB,A,0.21,L,,Shil,,,,,000.2,241,,V,A*7F
$GPRMC,174523.4,A,4741.20360,N,12224.24869,W,000.04,000.0,061013,016.6,E,A*22
$PGRME,3.0,M,92.5,M,92.5,M*2D
$HCHDG,263.9,0.0,E,,*27
$HCHDG,263.9,0.0,E,,*27
$GPRMC,174523.6,A,4741.20363,N,12224.24864,W,000.07,000.0,061013,016.6,E,A*2D
$YXXDR,A,4.7,D,PTCH,A,3.3,D,ROLL*5E
$PGRME,3.0,M,91.1,M,91.1,M*2D
$HCHDG,263.9,0.0,E,,*27
$HCHDG,264.0,0.0,E,,*29
$GPRMC,174523.8,A,4741.20362,N,12224.24863,W,000.07,000.0,061013,016.6,E,A*25
$PGRME,3.0,M,89.7,M,89.8,M*22
$HCHDG,263.9,0.0,E,,*27
$HCHDG,263.9,0.0,E,,*27
$IIRMC,174500,A,4741.203,N,12224.248,W,00.0,000,061013,16,E,A*15
$GPRMC,174524.0,A,4741.20358,N,12224.24879,W,000.03,000.0,061013,016.6,E,A*2C
$PGRME,3.0,M,88.4,M,88.4,M*2D
$IIVHW,,,,,00.0,N,,*19
$HCHDG,263.9,0.0,E,,*27
$IIVLW,06382,N,000.0,N*5C
$YXXDR,A,4.5,D,PTCH,A,2.9,D,ROLL*57
$IIVWR,135,L,04.3,N,,,,*7F
$HCHDG,263.9,0.0,E,,*27
$IIDPT,005.1,-1.0,*44
$GPRMC,174524.2,A,4741.20360,N,12224.24879,W,000.03,000.0,061013,016.6,E,A*25
$GPRMB,A,0.21,L,,Shil,4741.0830,N,12224.5670,W,0.2,241,-0.01,V*10
$PGRME,3.0,M,87.1,M,87.2,M*2E
$HCHDG,263.7,0.0,E,,*29
$IIGLL,4741.203,N,12224.248,W,174500,A,A*4B
$IIMTW,+10.5,C*3C
$HCHDG,263.7,0.0,E,,*29
$IIMWV,225,R,04.3,N,A*11
$GPRMC,174524.4,A,4741.20352,N,12224.24886,W,000.02,000.0,061013,016.6,E,A*23
$PGRME,3.0,M,85.9,M,85.9,M*2D
$IIMWV,225,T,04.7,N,A*13
$HCHDG,264.0,0.0,E,,*29
$HCHDG,264.0,0.0,E,,*29
$GPRMC,174524.6,A,4741.20348,N,12224.24876,W,000.03,000.0,061013,016.6,E,A*24
$PGRME,3.0,M,84.7,M,84.8,M*22
$YXXDR,A,5.4,D,PTCH,A,2.4,D,ROLL*5A
$PTAK,FFD1,2.4*53
$HCHDG,264.0,0.0,E,,*29
$HCHDG,264.2,0.0,E,,*2B
$GPRMC,174524.8,A,4741.20330,N,12224.24876,W,000.00,000.0,061013,016.6,E,A*26
$PGRME,3.0,M,83.6,M,83.6,M*2D
$HCHDG,264.2,0.0,E,,*2B
$IIRMB,A,0.21,L,,Shil,,,,,000.2,241,,V,A*7F
$HCHDG,264.2,0.0,E,,*2B
$GPRMC,174525.0,A,4741.20333,N,12224.24873,W,000.05,000.0,061013,016.6,E,A*2C
$PGRME,3.0,M,82.5,M,82.5,M*2D
$HCHDG,264.3,0.0,E,,*2A
$IIRMC,174500,A,4741.203,N,12224.248,W,00.0,000,061013,16,E,A*15
$YXXDR,A,4.6,D,PTCH,A,2.3,D,ROLL*5E
$IIVHW,,,,,00.0,N,,*19
$HCHDG,264.3,0.0,E,,*2A
$IIVLW,06382,N,000.0,N*5C
$GPRMC,174525.2,A,4741.20331,N,12224.24871,W,000.08,000.0,061013,016.6,E,A*23
$PGRME,3.0,M,81.4,M,81.5,M*2C
$IIVWR,135,L,04.4,N,,,,*78
$HCHDG,264.1,0.0,E,,*28
$IIDPT,005.1,-1.0,*44
$HCHDG,264.1,0.0,E,,*28
$IIGLL,4741.203,N,12224.248,W,174500,A,A*4B
$GPRMC,174525.4,A,4741.20333,N,12224.24873,W,000.09,000.0,061013,016.6,E,A*24
$GPRMB,A,0.21,L,,Shil,4741.0830,N,12224.5670,W,0.2,241,-0.04,V*15
$PGRME,3.0,M,80.4,M,80.4,M*2D
$IIMTW,+10.5,C*3C
$HCHDG,264.3,0.0,E,,*2A
$HCHDG,264.3,0.0,E,,*2A
$GPRMC,174525.6,A,4741.20326,N,12224.24874,W,000.07,000.0,061013,016.6,E,A*2B
$PGRME,3.0,M,79.4,M,79.4,M*2D
$YXXDR,A,4.5,D,PTCH,A,2.0,D,ROLL*5E
$PTAK,FFD1,2.0*57
$HCHDG,264.3,0.0,E,,*2A
$HCHDG,264.2,0.0,E,,*2B
$GPRMC,174525.8,A,4741.20330,N,12224.24873,W,000.19,000.0,061013,016.6,E,A*2A
$PGRME,3.0,M,78.5,M,78.5,M*2D
$HCHDG,264.2,0.0,E,,*2B
$IIMWV,221,R,04.1,N,A*17
$HCHDG,264.2,0.0,E,,*2B
$IIMWV,225,T,04.4,N,A*10
$GPRMC,174526.0,A,4741.20341,N,12224.24874,W,000.14,000.0,061013,016.6,E,A*2D
$PGRME,3.0,M,77.6,M,77.7,M*2C
$IIRMB,A,0.21,L,,Shil,,,,,000.2,241,,V,A*7F
$HCHDG,264.2,0.0,E,,*2B
$YXXDR,A,4.8,D,PTCH,A,3.0,D,ROLL*52
$HCHDG,264.1,0.0,E,,*28
$IIRMC,174500,A,4741.203,N,12224.248,W,00.0,000,061013,16,E,A*15
$GPRMC,174526.2,A,4741.20348,N,12224.24877,W,000.30,000.0,061013,016.6,E,A*23
$PTAK,FFP1,HEEL,@*07
$PGRME,3.0,M,76.7,M,76.8,M*22
$IIVHW,,,,,00.0,N,,*19
$HCHDG,264.2,0.0,E,,*2B
$IIVLW,06382,N,000.0,N*5C
$IIVWR,139,L,04.1,N,,,,*71
$HCHDG,264.3,0.0,E,,*2A
$IIDPT,005.1,-1.0,*44
$GPRMC,174526.4,A,4741.20359,N,12224.24881,W,000.21,000.0,061013,016.6,E,A*2C
$GPRMB,A,0.21,L,,Shil,4741.0830,N,12224.5670,W,0.2,241,-0.10,V*10
$PGRME,3.0,M,75.8,M,75.9,M*2C
$HCHDG,264.4,0.0,E,,*2D
$HCHDG,264.4,0.0,E,,*2D
$GPRMC,174526.6,A,4741.20359,N,12224.24892,W,000.15,000.0,061013,016.6,E,A*2B
$YXXDR,A,4.5,D,PTCH,A,4.0,D,ROLL*58
$PTAK,FFD1,4.0*51
$PGRME,3.0,M,74.9,M,75.0,M*25
$HCHDG,264.3,0.0,E,,*2A
$HCHDG,264.4,0.0,E,,*2D
$GPRMC,174526.8,A,4741.20373,N,12224.24890,W,000.09,000.0,061013,016.6,E,A*22
$PGRME,3.0,M,74.1,M,74.1,M*2D
$HCHDG,264.5,0.0,E,,*2C
$IIGLL,4741.203,N,12224.248,W,174500,A,A*4B
$HCHDG,264.6,0.0,E,,*2F
$IIMTW,+10.5,C*3C
$GPRMC,174527.0,A,4741.20377,N,12224.24894,W,000.08,000.0,061013,016.6,E,A*2A
$PGRME,3.0,M,73.2,M,73.3,M*2C
$IIMWV,218,R,04.0,N,A*1C
$HCHDG,264.5,0.0,E,,*2C
$IIMWV,221,T,04.1,N,A*11
$YXXDR,A,4.5,D,PTCH,A,4.0,D,ROLL*58
$HCHDG,264.6,0.0,E,,*2F
$IIRMB,A,0.21,L,,Shil,,,,,000.2,241,,V,A*7F
$GPRMC,174527.2,A,4741.20381,N,12224.24899,W,000.08,000.0,061013,016.6,E,A*2C
$PGRME,3.0,M,72.4,M,72.5,M*2C
$HCHDG,264.3,0.0,E,,*2A
$IIRMC,174500,A,4741.203,N,12224.248,W,00.2,000,061013,16,E,A*17
$HCHDG,264.4,0.0,E,,*2D
$IIVHW,,,,,00.0,N,,*19
$GPRMC,174527.4,A,4741.20383,N,12224.24908,W,000.09,000.0,061013,016.6,E,A*20
$IIVLW,06382,N,000.0,N*5C
$PGRME,3.0,M,71.6,M,71.7,M*2C
$HCHDG,264.4,0.0,E,,*2D
$HCHDG,264.4,0.0,E,,*2D
$GPRMC,174527.6,A,4741.20384,N,12224.24904,W,000.06,000.0,061013,016.6,E,A*26
$GPRMB,A,0.21,L,,Shil,4741.0830,N,12224.5670,W,0.2,241,-0.03,V*12
$YXXDR,A,4.4,D,PTCH,A,5.2,D,ROLL*5A
$PGRME,3.0,M,70.9,M,71.0,M*25
$HCHDG,264.4,0.0,E,,*2D
$HCHDG,264.3,0.0,E,,*2A
$GPRMC,174527.8,A,4741.20385,N,12224.24906,W,000.11,000.0,061013,016.6,E,A*2D
$PGRME,3.0,M,70.3,M,70.3,M*2D
$HCHDG,264.4,0.0,E,,*2D
$IIVWR,142,L,03.8,N,,,,*73
$HCHDG,264.4,0.0,E,,*2D
$IIDPT,005.1,-1.0,*44
$GPRMC,174528.0,A,4741.20395,N,12224.24921,W,000.11,000.0,061013,016.6,E,A*2E
$PGRME,3.0,M,69.5,M,69.6,M*2E
$IIGLL,4741.203,N,12224.249,W,174500,A,A*4A
$HCHDG,264.4,0.0,E,,*2D
$IIMTW,+10.5,C*3C
$YXXDR,A,4.6,D,PTCH,A,4.9,D,ROLL*52
$PTAK,FFD1,4.9*58
$IIMWV,218,R,03.8,N,A*13
$HCHDG,264.3,0.0,E,,*2A
$IIMWV,218,T,04.0,N,A*1A
$GPRMC,174528.2,A,4741.20398,N,12224.24934,W,000.12,000.0,061013,016.6,E,A*26
$PGRME,3.0,M,68.8,M,68.8,M*2D
$HCHDG,264.3,0.0,E,,*2A
$IIRMB,A,0.21,L,,Shil,,,,,000.2,241,,V,A*7F
$HCHDG,264.2,0.0,E,,*2B
$GPRMC,174528.4,A,4741.20396,N,12224.24939,W,000.13,000.0,061013,016.6,E,A*22
$IIRMC,174500,A,4741.203,N,12224.249,W,00.0,000,061013,16,E,A*14
$PGRME,3.0,M,68.0,M,68.1,M*2C
$HCHDG,264.2,0.0,E,,*2B
$HCHDG,264.2,0.0,E,,*2B
$GPRMC,174528.6,A,4741.20398,N,12224.24943,W,000.12,000.0,061013,016.6,E,A*22
$GPRMB,A,0.21,L,,Shil,4741.0830,N,12224.5670,W,0.2,240,-0.06,V*16
$YXXDR,A,4.5,D,PTCH,A,4.4,D,ROLL*5C
$PGRME,3.0,M,67.3,M,67.4,M*2A
$HCHDG,264.1,0.0,E,,*28
$HCHDG,264.0,0.0,E,,*29
$GPRMC,174528.8,A,4741.20397,N,12224.24962,W,000.12,000.0,061013,016.6,E,A*20
$PGRME,3.0,M,66.7,M,66.7,M*2D
$HCHDG,263.9,0.0,E,,*27
$IIVHW,,,,,00.0,N,,*19
$HCHDG,264.0,0.0,E,,*29
$IIVLW,06382,N,000.0,N*5C
$IIVWR,136,L,04.0,N,,,,*7F
$GPRMC,174529.0,A,4741.20404,N,12224.24977,W,000.08,000.0,061013,016.6,E,A*2B
$PGRME,3.0,M,66.0,M,66.1,M*2C
$HCHDG,263.8,0.0,E,,*26
$IIDPT,005.1,-1.0,*44
$YXXDR,A,4.8,D,PTCH,A,3.0,D,ROLL*52
$IIGLL,4741.203,N,12224.249,W,174500,A,A*4A
$HCHDG,263.8,0.0,E,,*26
$IIMTW,+10.5,C*3C
$GPRMC,174529.2,A,4741.20401,N,12224.24991,W,000.08,000.0,061013,016.6,E,A*24
$PGRME,3.0,M,65.4,M,65.5,M*2C
$IIMWV,224,R,04.0,N,A*13
$HCHDG,263.8,0.0,E,,*26
$IIMWV,218,T,03.8,N,A*15
$HCHDG,263.8,0.0,E,,*26
$IIRMB,A,0.21,L,,Shil,,,,,000.2,241,,V,A*7F
$GPRMC,174529.4,A,4741.20404,N,12224.24993,W,000.03,000.0,061013,016.6,E,A*2E
$PGRME,3.0,M,64.7,M,64.8,M*22
$HCHDG,263.7,0.0,E,,*29
$HCHDG,263.6,0.0,E,,*28
$GPRMC,174529.6,A,4741.20401,N,12224.25013,W,000.06,000.0,061013,016.6,E,A*2C
$GPRMB,A,0.21,L,,Shil,4741.0830,N,12224.5670,W,0.2,240,-0.03,V*13
$YXXDR,A,4.8,D,PTCH,A,2.3,D,ROLL*50
$PTAK,FFD1,2.3*54
$PGRME,3.0,M,64.1,M,64.2,M*2E
$HCHDG,263.6,0.0,E,,*28
$HCHDG,263.5,0.0,E,,*2B
$GPRMC,174529.8,A,4741.20402,N,12224.25024,W,000.06,000.0,061013,016.6,E,A*25
$PGRME,3.0,M,63.5,M,63.5,M*2D
$HCHDG,263.5,0.0,E,,*2B
$HCHDG,263.4,0.0,E,,*2A
$IIRMC,174500,A,4741.204,N,12224.249,W,00.0,000,061013,16,E,A*13
$GPRMC,174530.0,A,4741.20400,N,12224.25032,W,000.05,000.0,061013,016.6,E,A*23
$PGRME,3.0,M,62.8,M,62.9,M*2C
$IIVHW,,,,,00.0,N,,*19
$HCHDG,263.3,0.0,E,,*2D
$IIVLW,06382,N,000.0,N*5C
$YXXDR,A,4.6,D,PTCH,A,2.5,D,ROLL*58
$IIVWR,134,L,04.2,N,,,,*7F
$HCHDG,263.2,0.0,E,,*2C
$IIDPT,005.1,-1.0,*44
$GPRMC,174530.2,A,4741.20397,N,12224.25014,W,000.06,000.0,061013,016.6,E,A*2F
$PGRME,3.0,M,62.2,M,62.3,M*2C
$HCHDG,263.3,0.0,E,,*2D
$PTAK,FFP1,HEEL,@*07
$IIGLL,4741.204,N,12224.249,W,174500,A,A*4D
$IIMTW,+10.5,C*3C
$HCHDG,263.2,0.0,E,,*2C
$IIMWV,226,R,04.2,N,A*13
$GPRMC,174530.4,A,4741.20388,N,12224.25013,W,000.06,000.0,061013,016.6,E,A*20
$PGRME,3.0,M,61.7,M,61.7,M*2D
$IIMWV,224,T,04.0,N,A*15
$HCHDG,263.2,0.0,E,,*2C
$HCHDG,263.1,0.0,E,,*2F
$GPRMC,174530.6,A,4741.20381,N,12224.25025,W,000.05,000.0,061013,016.6,E,A*2D
$PGRME,3.0,M,61.1,M,61.2,M*2E
$YXXDR,A,4.5,D,PTCH,A,3.0,D,ROLL*5F
$HCHDG,263.0,0.0,E,,*2E
$HCHDG,263.0,0.0,E,,*2E
$GPRMC,174530.8,A,4741.20376,N,12224.25030,W,000.02,000.0,061013,016.6,E,A*28
$GPRMB,A,0.21,L,,Shil,4741.0830,N,12224.5670,W,0.2,240,-0.01,V*11
$PGRME,3.0,M,60.5,M,60.6,M*2E
$HCHDG,262.9,0.0,E,,*26
$IIRMB,A,0.21,L,,Shil,,,,,000.2,240,,V,A*7E
$HCHDG,262.9,0.0,E,,*26
$GPRMC,174531.0,A,4741.20370,N,12224.25032,W,000.02,000.0,061013,016.6,E,A*25
$PGRME,3.0,M,60.0,M,60.0,M*2D
$HCHDG,263.1,0.0,E,,*2F
$IIRMC,174500,A,4741.203,N,12224.250,W,00.0,000,061013,16,E,A*1C
$IIVHW,,,,,00.0,N,,*19
$YXXDR,A,4.5,D,PTCH,A,3.2,D,ROLL*5D
$PTAK,FFD1,3.2*54
$HCHDG,263.1,0.0,E,,*2F
$IIVLW,06382,N,000.0,N*5C
$GPRMC,174531.2,A,4741.20370,N,12224.25024,W,000.00,000.0,061013,016.6,E,A*22
$PGRME,3.0,M,59.4,M,59.5,M*2C
$IIVWR,136,L,04.3,N,,,,*7C
$HCHDG,262.9,0.0,E,,*26
$IIDPT,005.1,-1.0,*44
$HCHDG,262.9,0.0,E,,*26
$IIGLL,4741.203,N,12224.250,W,174500,A,A*42
$IIMTW,+10.5,C*3C
$GPRMC,174531.4,A,4741.20368,N,12224.25026,W,000.02,000.0,061013,016.6,E,A*2D
$PGRME,3.0,M,58.9,M,59.0,M*25
$HCHDG,262.9,0.0,E,,*26
$HCHDG,262.8,0.0,E,,*27
$GPRMC,174531.6,A,4741.20374,N,12224.25031,W,000.05,000.0,061013,016.6,E,A*23
$YXXDR,A,4.5,D,PTCH,A,3.7,D,ROLL*58
$PGRME,3.0,M,58.4,M,58.5,M*2C
$HCHDG,262.7,0.0,E,,*28
$HCHDG,262.8,0.0,E,,*27
$GPRMC,174531.8,A,4741.20373,N,12224.25033,W,000.00,000.0,061013,016.6,E,A*2D
$PGRME,3.0,M,57.9,M,58.0,M*2B
$HCHDG,262.8,0.0,E,,*27
$IIMWV,225,R,04.4,N,A*16
$HCHDG,262.7,0.0,E,,*28
$IIMWV,224,T,04.3,N,A*16
$GPRMC,174532.0,A,4741.20375,N,12224.25030,W,000.03,000.0,061013,016.6,E,A*20
$GPRMB,A,0.21,L,,Shil,4741.0830,N,12224.5670,W,0.2,240,-0.01,V*11
$PGRME,3.0,M,57.4,M,57.5,M*2C
$IIRMB,A,0.21,L,,Shil,,,,,000.2,240,,V,A*7E
$HCHDG,262.7,0.0,E,,*28
$YXXDR,A,4.7,D,PTCH,A,3.8,D,ROLL*55
$PTAK,FFD1,3.8*5E
$HCHDG,262.7,0.0,E,,*28
$IIRMC,174500,A,4741.203,N,12224.250,W,00.0,000,061013,16,E,A*1C
$GPRMC,174532.2,A,4741.20247,N,12224.25165,W,000.01,000.0,061013,016.6,E,A*21
$PGRME,3.1,M,46.6,M,46.7,M*2D
$IIVHW,,,,,00.0,N,,*19
$HCHDG,262.6,0.0,E,,*29
$IIVLW,06382,N,000.0,N*5C
$IIVWR,135,L,04.4,N,,,,*78
$HCHDG,262.6,0.0,E,,*29
$IIDPT,005.1,-1.0,*44
$GPRMC,174532.4,A,4741.20157,N,12224.25257,W,000.02,000.0,061013,016.6,E,A*24
$PGRME,3.1,M,39.7,M,39.8,M*23
$HCHDG,262.6,0.0,E,,*29
$HCHDG,262.6,0.0,E,,*29
$GPRMC,174532.6,A,4741.20080,N,12224.25315,W,000.05,000.0,061013,016.6,E,A*2D
$PGRME,3.1,M,35.3,M,35.4,M*2B
$YXXDR,A,4.7,D,PTCH,A,3.8,D,ROLL*55
$HCHDG,262.5,0.0,E,,*2A
$HCHDG,262.4,0.0,E,,*2B
$GPRMC,174532.8,A,4741.20033,N,12224.25336,W,000.04,000.0,061013,016.6,E,A*2B
$PGRME,3.0,M,32.1,M,32.2,M*2E
$HCHDG,262.5,0.0,E,,*2A
$IIGLL,4741.201,N,12224.252,W,174500,A,A*42
$HCHDG,262.4,0.0,E,,*2B
$IIMTW,+10.5,C*3C
$GPRMC,174533.0,A,4741.20014,N,12224.25360,W,000.04,000.0,061013,016.6,E,A*24
$GPRMB,A,0.21,L,,Shil,4741.0830,N,12224.5670,W,0.2,241,-0.02,V*13
$PGRME,3.0,M,29.6,M,29.7,M*2C
$IIMWV,227,R,04.4,N,A*14
$HCHDG,262.4,0.0,E,,*2B
$IIMWV,225,T,04.4,N,A*10
$YXXDR,A,4.8,D,PTCH,A,3.4,D,ROLL*56
$PTAK,FFD1,3.4*52
$IIRMB,A,0.21,L,,Shil,,,,,000.2,240,,V,A*7E
$HCHDG,262.3,0.0,E,,*2C
$GPRMC,174533.2,A,4741.19994,N,12224.25385,W,000.05,000.0,061013,016.6,E,A*27
$PGRME,3.0,M,27.6,M,27.8,M*23
$HCHDG,262.3,0.0,E,,*2C
$IIRMC,174500,A,4741.201,N,12224.252,W,00.0,000,061013,16,E,A*1C
$HCHDG,262.2,0.0,E,,*2D
$IIVHW,,,,,00.0,N,,*19
$GPRMC,174533.4,A,4741.19976,N,12224.25407,W,000.05,000.0,061013,016.6,E,A*20
$IIVLW,06382,N,000.0,N*5C
$PGRME,3.0,M,26.0,M,26.2,M*2F
$HCHDG,262.2,0.0,E,,*2D
$HCHDG,262.1,0.0,E,,*2E
$GPRMC,174533.6,A,4741.19961,N,12224.25425,W,000.08,000.0,061013,016.6,E,A*29
$YXXDR,A,4.8,D,PTCH,A,3.0,D,ROLL*52
$PGRME,3.0,M,24.9,M,25.1,M*24
$HCHDG,262.1,0.0,E,,*2E
$HCHDG,262.0,0.0,E,,*2F
$GPRMC,174533.8,A,4741.19958,N,12224.25439,W,000.10,000.0,061013,016.6,E,A*29
$PGRME,3.0,M,23.7,M,23.9,M*23
$HCHDG,262.0,0.0,E,,*2F
$IIVWR,126,L,04.3,N,,,,*7D
$HCHDG,262.0,0.0,E,,*2F
$IIDPT,005.1,-1.0,*44
$GPRMC,174534.0,A,4741.19955,N,12224.25442,W,000.11,000.0,061013,016.6,E,A*26
$PGRME,3.0,M,22.9,M,23.1,M*24
$IIGLL,4741.199,N,12224.254,W,174500,A,A*46
$HCHDG,262.0,0.0,E,,*2F
$IIMTW,+10.5,C*3C
$YXXDR,A,4.6,D,PTCH,A,2.5,D,ROLL*58
$IIMWV,234,R,04.3,N,A*11
$HCHDG,261.9,0.0,E,,*25
$IIMWV,227,T,04.4,N,A*12
$GPRMC,174534.2,A,4741.19975,N,12224.25439,W,000.14,000.0,061013,016.6,E,A*2F
$GPRMB,A,0.21,L,,Shil,4741.0830,N,12224.5670,W,0.2,241,-0.07,V*16
$PGRME,3.0,M,22.0,M,22.2,M*2F
$HCHDG,261.9,0.0,E,,*25
$PTAK,FFP1,HEEL,@*07
$IIRMB,A,0.21,L,,Shil,,,,,000.2,241,,V,A*7F
$HCHDG,261.9,0.0,E,,*25
$IIRMC,174500,A,4741.199,N,12224.254,W,00.0,000,061013,16,E,A*18
$GPRMC,174534.4,A,4741.19985,N,12224.25449,W,000.15,000.0,061013,016.6,E,A*20
$PGRME,3.0,M,21.1,M,21.3,M*2F
$HCHDG,261.8,0.0,E,,*24
$HCHDG,261.8,0.0,E,,*24
$GPRMC,174534.6,A,4741.19993,N,12224.25484,W,000.16,000.0,061013,016.6,E,A*27
$PGRME,3.0,M,20.3,M,20.5,M*2B
$YXXDR,A,4.6,D,PTCH,A,2.8,D,ROLL*55
$PTAK,FFD1,2.8*5F
$HCHDG,261.8,0.0,E,,*24
$HCHDG,261.7,0.0,E,,*2B
$GPRMC,174534.8,A,4741.19990,N,12224.25500,W,000.16,000.0,061013,016.6,E,A*27
$PGRME,3.0,M,19.6,M,19.8,M*23
$HCHDG,261.7,0.0,E,,*2B
$IIVHW,,,,,00.0,N,,*19
$HCHDG,261.7,0.0,E,,*2B
$IIVLW,06382,N,000.0,N*5C
$IIVWR,123,L,04.3,N,,,,*78
$GPRMC,174535.0,A,4741.19990,N,12224.25502,W,000.15,000.0,061013,016.6,E,A*2F
$PGRME,3.0,M,18.9,M,19.2,M*27
$HCHDG,261.7,0.0,E,,*2B
$IIDPT,005.1,-1.0,*44
$YXXDR,A,4.7,D,PTCH,A,2.9,D,ROLL*55
$IIGLL,4741.199,N,12224.254,W,174500,A,A*46
$HCHDG,261.6,0.0,E,,*2A
$IIMTW,+10.5,C*3C
$GPRMC,174535.2,A,4741.19989,N,12224.25505,W,000.14,000.0,061013,016.6,E,A*23
$PGRME,3.0,M,18.3,M,18.6,M*28
$IIMWV,237,R,04.3,N,A*12
$HCHDG,261.6,0.0,E,,*2A
$IIMWV,234,T,04.3,N,A*17
$HCHDG,261.6,0.0,E,,*2A
$IIRMB,A,0.21,L,,Shil,,,,,000.2,241,,V,A*7F
$GPRMC,174535.4,A,4741.19986,N,12224.25506,W,000.13,000.0,061013,016.6,E,A*2E
$GPRMB,A,0.21,L,,Shil,4741.0830,N,12224.5670,W,0.2,241,-0.06,V*17
$PGRME,3.0,M,17.8,M,18.0,M*2A
$HCHDG,261.6,0.0,E,,*2A
$HCHDG,261.5,0.0,E,,*29
$GPRMC,174535.6,A,4741.19987,N,12224.25517,W,000.12,000.0,061013,016.6,E,A*2C
$YXXDR,A,4.8,D,PTCH,A,3.0,D,ROLL*52
$PGRME,3.0,M,17.2,M,17.5,M*2A
$HCHDG,261.5,0.0,E,,*29
$HCHDG,261.5,0.0,E,,*29
$GPRMC,174535.8,A,4741.19967,N,12224.25505,W,000.11,000.0,061013,016.6,E,A*2C
$PGRME,3.0,M,16.7,M,17.0,M*2B
$HCHDG,261.5,0.0,E,,*29
$HCHDG,261.5,0.0,E,,*29
$IIRMC,174500,A,4741.199,N,12224.254,W,00.1,000,061013,16,E,A*19
$GPRMC,174536.0,A,4741.19953,N,12224.25505,W,000.10,000.0,061013,016.6,E,A*21
$PGRME,3.0,M,16.3,M,16.6,M*28
$IIVHW,,,,,00.0,N,,*19
$HCHDG,261.4,0.0,E,,*28
$IIVLW,06382,N,000.0,N*5C
$YXXDR,A,4.7,D,PTCH,A,3.2,D,ROLL*5F
$PTAK,FFD1,3.2*54
$IIVWR,121,L,04.1,N,,,,*78
$HCHDG,261.6,0.0,E,,*2A
$IIDPT,005.1,-1.0,*44
$GPRMC,174536.2,A,4741.19946,N,12224.25529,W,000.05,000.0,061013,016.6,E,A*2D
$PGRME,3.0,M,15.8,M,16.1,M*27
$HCHDG,261.5,0.0,E,,*29
$IIGLL,4741.199,N,12224.254,W,174500,A,A*46
$IIMTW,+10.5,C*3C
$HCHDG,261.5,0.0,E,,*29
$IIMWV,239,R,04.1,N,A*1E
$GPRMC,174536.4,A,4741.19946,N,12224.25529,W,000.03,000.0,061013,016.6,E,A*2D
$PGRME,3.0,M,15.6,M,15.9,M*22
$IIMWV,237,T,04.3,N,A*14
$HCHDG,261.5,0.0,E,,*29
$HCHDG,261.5,0.0,E,,*29
$GPRMC,174536.6,A,4741.19946,N,12224.25529,W,000.04,000.0,061013,016.6,E,A*28
$GPRMB,A,0.21,L,,Shil,4741.0830,N,12224.5670,W,0.2,241,-0.02,V*13
$PGRME,3.0,M,15.2,M,15.5,M*2A
$YXXDR,A,4.9,D,PTCH,A,3.8,D,ROLL*5B
$HCHDG,261.4,0.0,E,,*28
$HCHDG,261.5,0.0,E,,*29
$GPRMC,174536.8,A,4741.19946,N,12224.25528,W,000.02,000.0,061013,016.6,E,A*21
$PGRME,3.0,M,14.8,M,15.1,M*25
$HCHDG,261.5,0.0,E,,*29
$IIRMB,A,0.21,L,,Shil,,,,,000.2,241,,V,A*7F
$HCHDG,261.5,0.0,E,,*29
$GPRMC,174537.0,A,4741.19946,N,12224.25528,W,000.04,000.0,061013,016.6,E,A*2E
$PGRME,3.0,M,14.5,M,14.8,M*20
$HCHDG,261.6,0.0,E,,*2A
$IIRMC,174500,A,4741.199,N,12224.255,W,00.1,000,061013,16,E,A*18
$IIVHW,,,,,00.0,N,,*19
$YXXDR,A,4.6,D,PTCH,A,3.1,D,ROLL*5D
$PTAK,FFD1,3.1*57
$HCHDG,261.6,0.0,E,,*2A
$IIVLW,06382,N,000.0,N*5C
$GPRMC,174537.2,A,4741.19946,N,12224.25528,W,000.05,000.0,061013,016.6,E,A*2D
$PGRME,3.0,M,14.2,M,14.5,M*2A
$IIVWR,121,L,03.9,N,,,,*77
$HCHDG,261.6,0.0,E,,*2A
$IIDPT,005.1,-1.0,*44
$HCHDG,261.7,0.0,E,,*2B
$IIGLL,4741.199,N,12224.255,W,174500,A,A*47
$IIMTW,+10.5,C*3C
$GPRMC,174537.4,A,4741.19946,N,12224.25528,W,000.02,000.0,061013,016.6,E,A*2C
$PGRME,3.0,M,13.9,M,14.2,M*21
$HCHDG,261.7,0.0,E,,*2B
$HCHDG,261.8,0.0,E,,*24
$GPRMC,174537.6,A,4741.19946,N,12224.25528,W,000.02,000.0,061013,016.6,E,A*2E
$PGRME,3.0,M,13.7,M,14.1,M*2C
$YXXDR,A,4.8,D,PTCH,A,2.3,D,ROLL*50
$HCHDG,261.7,0.0,E,,*2B
$HCHDG,261.8,0.0,E,,*24
$GPRMC,174537.8,A,4741.19946,N,12224.25528,W,000.02,000.0,061013,016.6,E,A*20
$GPRMB,A,0.21,L,,Shil,4741.0830,N,12224.5670,W,0.2,241,-0.01,V*10
$PGRME,3.0,M,13.6,M,13.9,M*22
$HCHDG,261.8,0.0,E,,*24
$IIMWV,241,R,04.1,N,A*11
$IIMWV,239,T,03.9,N,A*17
$HCHDG,261.8,0.0,E,,*24
$GPRMC,174538.0,A,4741.19946,N,12224.25527,W,000.00,000.0,061013,016.6,E,A*2A
$PGRME,3.0,M,13.5,M,13.8,M*20
$IIRMB,A,0.21,L,,Shil,,,,,000.2,241,,V,A*7F
$HCHDG,261.9,0.0,E,,*25
$YXXDR,A,4.8,D,PTCH,A,2.0,D,ROLL*53
$IIRMC,174500,A,4741.199,N,12224.255,W,00.0,000,061013,16,E,A*19
$HCHDG,261.9,0.0,E,,*25
$GPRMC,174538.2,A,4741.19946,N,12224.25528,W,000.02,000.0,061013,016.6,E,A*25
$PGRME,3.0,M,13.4,M,13.7,M*2E
$IIVHW,,,,,00.0,N,,*19
$HCHDG,262.0,0.0,E,,*2F
$IIVLW,06382,N,000.0,N*5C
$IIVWR,119,L,04.1,N,,,,*73
$HCHDG,261.9,0.0,E,,*25
$IIDPT,005.1,-1.0,*44
$GPRMC,174538.4,A,4741.19946,N,12224.25528,W,000.00,000.0,061013,016.6,E,A*21
$PTAK,FFP1,HEEL,@*07
$PGRME,3.0,M,13.2,M,13.6,M*29
$HCHDG,262.0,0.0,E,,*2F
$HCHDG,262.1,0.0,E,,*2E
$GPRMC,174538.6,A,4741.19946,N,12224.25527,W,000.03,000.0,061013,016.6,E,A*2F
$PGRME,3.0,M,13.1,M,13.4,M*28
$YXXDR,A,4.7,D,PTCH,A,1.6,D,ROLL*59
$PTAK,FFD1,1.6*52
$HCHDG,262.1,0.0,E,,*2E
$HCHDG,262.1,0.0,E,,*2E
$GPRMC,174538.8,A,4741.19945,N,12224.25528,W,000.03,000.0,061013,016.6,E,A*2D
$PGRME,3.0,M,13.0,M,13.3,M*2E
$HCHDG,262.1,0.0,E,,*2E
$IIGLL,4741.199,N,12224.255,W,174500,A,A*47
$HCHDG,262.2,0.0,E,,*2D
$IIMTW,+10.5,C*3C
$GPRMC,174539.0,A,4741.19945,N,12224.25528,W,000.01,000.0,061013,016.6,E,A*26
$GPRMB,A,0.21,L,,Shil,4741.0830,N,12224.5670,W,0.2,241,-0.00,V*11
$PGRME,3.0,M,12.9,M,13.2,M*27
$IIMWV,235,R,04.2,N,A*11
$HCHDG,262.3,0.0,E,,*2C
$IIMWV,241,T,04.1,N,A*17
$YXXDR,A,4.6,D,PTCH,A,1.8,D,ROLL*56
$HCHDG,262.3,0.0,E,,*2C
$IIRMB,A,0.21,L,,Shil,,,,,000.2,241,,V,A*7F
$GPRMC,174539.2,A,4741.19945,N,12224.25528,W,000.02,000.0,061013,016.6,E,A*27
$PGRME,3.0,M,12.8,M,13.2,M*26
$HCHDG,262.4,0.0,E,,*2B
$IIRMC,174500,A,4741.199,N,12224.255,W,00.0,000,061013,16,E,A*19
$HCHDG,262.5,0.0,E,,*2A
$IIVHW,,,,,00.0,N,,*19
$GPRMC,174539.4,A,4741.19945,N,12224.25528,W,000.06,000.0,061013,016.6,E,A*25
$IIVLW,06382,N,000.0,N*5C
$PGRME,3.0,M,12.7,M,13.1,M*2A
$HCHDG,262.5,0.0,E,,*2A
$HCHDG,262.6,0.0,E,,*29
$GPRMC,174539.6,A,4741.19945,N,12224.25528,W,000.05,000.0,061013,016.6,E,A*24
$PGRME,3.0,M,12.5,M,12.8,M*20
$YXXDR,A,4.8,D,PTCH,A,2.0,D,ROLL*53
$PTAK,FFD1,2.0*57
$HCHDG,262.5,0.0,E,,*2A
$HCHDG,262.7,0.0,E,,*28
$GPRMC,174539.8,A,4741.19946,N,12224.25528,W,000.05,000.0,061013,016.6,E,A*29
$PGRME,3.0,M,12.2,M,12.6,M*29
$HCHDG,262.7,0.0,E,,*28
$IIVWR,129,L,04.3,N,,,,*72
$HCHDG,262.6,0.0,E,,*29
$IIDPT,005.1,-1.0,*44
$GPRMC,174540.0,A,4741.19946,N,12224.25528,W,000.04,000.0,061013,016.6,E,A*2E
$PGRME,3.0,M,12.0,M,12.4,M*29
$IIGLL,4741.199,N,12224.255,W,174500,A,A*47
$HCHDG,262.6,0.0,E,,*29
$IIMTW,+10.5,C*3C
$YXXDR,A,4.7,D,PTCH,A,2.3,D,ROLL*5F
$IIMWV,231,R,04.3,N,A*14
$HCHDG,262.6,0.0,E,,*29
$IIMWV,235,T,04.2,N,A*17
$GPRMC,174540.2,A,4741.19946,N,12224.25528,W,000.01,000.0,061013,016.6,E,A*29
$GPRMB,A,0.21,L,,Shil,4741.0830,N,12224.5670,W,0.2,241,-0.00,V*11
$PGRME,3.0,M,11.8,M,12.2,M*24
$HCHDG,262.6,0.0,E,,*29
$IIRMB,A,0.21,L,,Shil,,,,,000.2,241,,V,A*7F
$HCHDG,262.8,0.0,E,,*27
$IIRMC,174500,A,4741.199,N,12224.255,W,00.0,000,061013,16,E,A*19
$GPRMC,174540.4,A,4741.19946,N,12224.25528,W,000.06,000.0,061013,016.6,E,A*28
$PGRME,3.0,M,11.6,M,12.0,M*28
$HCHDG,262.8,0.0,E,,*27
$HCHDG,263.0,0.0,E,,*2E
$GPRMC,174540.6,A,4741.19947,N,12224.25527,W,000.01,000.0,061013,016.6,E,A*23
$YXXDR,A,4.9,D,PTCH,A,3.1,D,ROLL*52
$PGRME,3.0,M,11.4,M,11.8,M*21
$HCHDG,262.9,0.0,E,,*26
$HCHDG,262.8,0.0,E,,*27
$GPRMC,174540.8,A,4741.19947,N,12224.25527,W,000.01,000.0,061013,016.6,E,A*2D
$PGRME,3.0,M,11.3,M,11.7,M*29
$HCHDG,263.0,0.0,E,,*2E
$IIVHW,,,,,00.0,N,,*19
$HCHDG,263.0,0.0,E,,*2E
$IIVLW,06382,N,000.0,N*5C
$IIVWR,129,L,04.4,N,,,,*75
$GPRMC,174541.0,A,4741.19947,N,12224.25527,W,000.02,000.0,061013,016.6,E,A*27
$PGRME,3.0,M,11.1,M,11.5,M*29
$HCHDG,263.1,0.0,E,,*2F
$IIDPT,005.1,-1.0,*44
$YXXDR,A,4.8,D,PTCH,A,3.4,D,ROLL*56
$PTAK,FFD1,3.4*52
$IIGLL,4741.199,N,12224.255,W,174500,A,A*47
$HCHDG,263.1,0.0,E,,*2F
$IIMTW,+10.5,C*3C
$GPRMC,174541.2,A,4741.19946,N,12224.25527,W,000.03,000.0,061013,016.6,E,A*25
$PGRME,3.0,M,10.9,M,11.3,M*26
$IIMWV,231,R,04.4,N,A*13
$HCHDG,263.3,0.0,E,,*2D
$IIMWV,231,T,04.3,N,A*12
$HCHDG,263.2,0.0,E,,*2C
$IIRMB,A,0.21,L,,Shil,,,,,000.2,241,,V,A*7F
$GPRMC,174541.4,A,4741.19946,N,12224.25527,W,000.03,000.0,061013,016.6,E,A*23
$GPRMB,A,0.21,L,,Shil,4741.0830,N,12224.5670,W,0.2,241,-0.01,V*10
$PGRME,3.0,M,10.8,M,11.2,M*26
$HCHDG,263.2,0.0,E,,*2C
$HCHDG,263.3,0.0,E,,*2D
$GPRMC,174541.6,A,4741.19946,N,12224.25526,W,000.03,000.0,061013,016.6,E,A*20
$YXXDR,A,4.9,D,PTCH,A,3.6,D,ROLL*55
$PGRME,3.0,M,10.6,M,11.1,M*2B
$HCHDG,263.4,0.0,E,,*2A
$HCHDG,263.4,0.0,E,,*2A
$GPRMC,174541.8,A,4741.19946,N,12224.25526,W,000.05,000.0,061013,016.6,E,A*28
$PGRME,3.0,M,10.5,M,10.9,M*21
$HCHDG,263.3,0.0,E,,*2D
$HCHDG,263.4,0.0,E,,*2A
$IIRMC,174500,A,4741.199,N,12224.255,W,00.0,000,061013,16,E,A*19
$GPRMC,174542.0,A,4741.19945,N,12224.25526,W,000.02,000.0,061013,016.6,E,A*27
$PGRME,3.0,M,10.4,M,10.8,M*21
$IIVHW,,,,,00.0,N,,*19
$HCHDG,263.4,0.0,E,,*2A
$IIVLW,06382,N,000.0,N*5C
$YXXDR,A,4.7,D,PTCH,A,3.2,D,ROLL*5F
$PTAK,FFD1,3.2*54
$IIVWR,128,L,04.2,N,,,,*72
$HCHDG,263.5,0.0,E,,*2B
$IIDPT,005.1,-1.0,*44
$GPRMC,174542.2,A,4741.19945,N,12224.25526,W,000.02,000.0,061013,016.6,E,A*25
$PGRME,3.0,M,10.3,M,10.7,M*29
$HCHDG,263.4,0.0,E,,*2A
$IIGLL,4741.199,N,12224.255,W,174500,A,A*47
$IIMTW,+10.5,C*3C
$HCHDG,263.4,0.0,E,,*2A
$IIMWV,232,R,04.2,N,A*16
$GPRMC,174542.4,A,4741.19945,N,12224.25525,W,000.04,000.0,061013,016.6,E,A*26
$IIMWV,231,T,04.4,N,A*15
$PGRME,3.0,M,10.2,M,10.6,M*29
$HCHDG,263.5,0.0,E,,*2B
$PTAK,FFP1,HEEL,@*07
$HCHDG,263.6,0.0,E,,*28
$GPRMC,174542.6,A,4741.19945,N,12224.25525,W,000.02,000.0,061013,016.6,E,A*22
$GPRMB,A,0.21,L,,Shil,4741.0830,N,12224.5670,W,0.2,241,-0.01,V*10
$YXXDR,A,4.6,D,PTCH,A,2.4,D,ROLL*59
$PGRME,3.0,M,10.1,M,10.6,M*2A
$HCHDG,263.6,0.0,E,,*28
$HCHDG,263.6,0.0,E,,*28
$GPRMC,174542.8,A,4741.19945,N,12224.25526,W,000.03,000.0,061013,016.6,E,A*2E
$PGRME,3.0,M,10.1,M,10.6,M*2A
$HCHDG,263.7,0.0,E,,*29
$IIRMB,A,0.21,L,,Shil,,,,,000.2,241,,V,A*7F
$HCHDG,263.6,0.0,E,,*28
$GPRMC,174543.0,A,4741.19945,N,12224.25525,W,000.05,000.0,061013,016.6,E,A*22
$PGRME,3.0,M,10.1,M,10.5,M*29
$HCHDG,263.7,0.0,E,,*29
$IIRMC,174500,A,4741.199,N,12224.255,W,00.0,000,061013,16,E,A*19
$IIVHW,,,,,00.0,N,,*19
$YXXDR,A,4.5,D,PTCH,A,1.9,D,ROLL*54
$PTAK,FFD1,1.9*5D
$HCHDG,263.8,0.0,E,,*26
$IIVLW,06382,N,000.0,N*5C
$GPRMC,174543.2,A,4741.19946,N,12224.25525,W,000.07,000.0,061013,016.6,E,A*21
$PGRME,3.0,M,10.1,M,10.5,M*29
$IIVWR,125,L,04.3,N,,,,*7E
$HCHDG,263.8,0.0,E,,*26
$IIDPT,005.1,-1.0,*44
$HCHDG,263.8,0.0,E,,*26
$IIGLL,4741.199,N,12224.255,W,174500,A,A*47
$IIMTW,+10.5,C*3C
$GPRMC,174543.4,A,4741.19946,N,12224.25525,W,000.06,000.0,061013,016.6,E,A*26
$PGRME,3.0,M,10.0,M,10.5,M*28
$HCHDG,263.6,0.0,E,,*28
$HCHDG,263.7,0.0,E,,*29
$GPRMC,174543.6,A,4741.19946,N,12224.25524,W,000.09,000.0,061013,016.6,E,A*2A
$GPRMB,A,0.21,L,,Shil,4741.0830,N,12224.5670,W,0.2,241,-0.04,V*15
$PGRME,3.0,M,10.0,M,10.5,M*28
$YXXDR,A,4.5,D,PTCH,A,2.0,D,ROLL*5E
$HCHDG,263.7,0.0,E,,*29
$HCHDG,263.8,0.0,E,,*26
$GPRMC,174543.8,A,4741.19946,N,12224.25524,W,000.10,000.0,061013,016.6,E,A*2C
$PGRME,3.0,M,10.0,M,10.4,M*29
$HCHDG,263.8,0.0,E,,*26
$IIMWV,235,R,04.1,N,A*12
$HCHDG,263.7,0.0,E,,*29
$IIMWV,235,T,04.3,N,A*16
$GPRMC,174544.0,A,4741.19947,N,12224.25523,W,000.10,000.0,061013,016.6,E,A*25
$PGRME,3.0,M,9.9,M,10.4,M*18
$PGRMT,GPS 18x-5Hz software ver. 3.20,,,,,,,,*30
$IIRMB,A,0.21,L,,Shil,,,,,000.2,241,,V,A*7F
$HCHDG,263.7,0.0,E,,*29
$YXXDR,A,4.6,D,PTCH,A,2.7,D,ROLL*5A
$HCHDG,263.8,0.0,E,,*26
$IIRMC,174500,A,4741.199,N,12224.255,W,00.0,000,061013,16,E,A*19
$GPRMC,174544.2,A,4741.19947,N,12224.25523,W,000.10,000.0,061013,016.6,E,A*27
$PGRME,3.0,M,9.8,M,10.3,M*1E
$IIVHW,,,,,00.0,N,,*19
$HCHDG,263.8,0.0,E,,*26
$IIVLW,06382,N,000.0,N*5C
$IIVWR,125,L,04.1,N,,,,*7C
$HCHDG,263.8,0.0,E,,*26
$IIDPT,005.1,-1.0,*44
$GPRMC,174544.4,A,4741.19947,N,12224.25522,W,000.09,000.0,061013,016.6,E,A*28
$PGRME,3.0,M,9.8,M,10.2,M*1F
$HCHDG,263.8,0.0,E,,*26
$HCHDG,263.8,0.0,E,,*26
$GPRMC,174544.6,A,4741.19948,N,12224.25521,W,000.07,000.0,061013,016.6,E,A*28
$YXXDR,A,4.5,D,PTCH,A,3.7,D,ROLL*58
$PTAK,FFD1,3.7*51
$PGRME,3.0,M,9.7,M,10.1,M*13
$HCHDG,263.8,0.0,E,,*26
$HCHDG,263.8,0.0,E,,*26
$GPRMC,174544.8,A,4741.19948,N,12224.25521,W,000.07,000.0,061013,016.6,E,A*26
$PGRME,3.0,M,9.6,M,10.0,M*13
$HCHDG,263.8,0.0,E,,*26
$IIGLL,4741.199,N,12224.255,W,174500,A,A*47
$HCHDG,263.8,0.0,E,,*26
$IIMTW,+10.5,C*3C
$GPRMC,174545.0,A,4741.19948,N,12224.25520,W,000.04,000.0,061013,016.6,E,A*2D
$GPRMB,A,0.21,L,,Shil,4741.0830,N,12224.5670,W,0.2,241,-0.02,V*13
$PGRME,3.0,M,9.5,M,10.0,M*10
$IIMWV,233,R,03.9,N,A*1B
$HCHDG,263.9,0.0,E,,*27
$IIMWV,235,T,04.1,N,A*14
$YXXDR,A,4.6,D,PTCH,A,4.3,D,ROLL*58
$HCHDG,263.7,0.0,E,,*29
$IIRMB,A,0.21,L,,Shil,,,,,000.2,241,,V,A*7F
$GPRMC,174545.2,A,4741.19947,N,12224.25520,W,000.04,000.0,061013,016.6,E,A*20
$PGRME,3.0,M,9.4,M,9.9,M*20
$HCHDG,263.8,0.0,E,,*26
$IIRMC,174500,A,4741.199,N,12224.255,W,00.0,000,061013,16,E,A*19
$HCHDG,263.8,0.0,E,,*26
$IIVHW,,,,,00.0,N,,*19
$IIVLW,06382,N,000.0,N*5C
$GPRMC,174545.4,A,4741.19947,N,12224.25520,W,000.10,000.0,061013,016.6,E,A*23
$PGRME,3.0,M,9.3,M,9.8,M*26
$HCHDG,263.8,0.0,E,,*26
$HCHDG,263.8,0.0,E,,*26
$GPRMC,174545.6,A,4741.19947,N,12224.25519,W,000.12,000.0,061013,016.6,E,A*29
$YXXDR,A,4.8,D,PTCH,A,5.0,D,ROLL*54
$PTAK,FFD1,5.0*50
$PGRME,3.0,M,9.3,M,9.7,M*29
$HCHDG,263.8,0.0,E,,*26
$HCHDG,263.9,0.0,E,,*27
$GPRMC,174545.8,A,4741.19946,N,12224.25519,W,000.13,000.0,061013,016.6,E,A*27
$PGRME,3.0,M,9.2,M,9.7,M*28
$HCHDG,263.9,0.0,E,,*27
$IIVWR,124,L,03.8,N,,,,*73
$HCHDG,263.9,0.0,E,,*27
$IIDPT,005.1,-1.0,*44
$GPRMC,174546.0,A,4741.19945,N,12224.25519,W,000.11,000.0,061013,016.6,E,A*2D
$PGRME,3.0,M,9.1,M,9.6,M*2A
$IIGLL,4741.199,N,12224.255,W,174500,A,A*47
$HCHDG,264.0,0.0,E,,*29
$IIMTW,+10.5,C*3C
$YXXDR,A,4.9,D,PTCH,A,4.2,D,ROLL*56
$IIMWV,236,R,03.8,N,A*1F
$HCHDG,264.0,0.0,E,,*29
$IIMWV,233,T,03.9,N,A*1D
$GPRMC,174546.2,A,4741.19945,N,12224.25519,W,000.07,000.0,061013,016.6,E,A*28
$GPRMB,A,0.21,L,,Shil,4741.0830,N,12224.5670,W,0.2,241,-0.03,V*12
$PGRME,3.0,M,9.1,M,9.6,M*2A
$HCHDG,264.0,0.0,E,,*29
$IIRMB,A,0.21,L,,Shil,,,,,000.2,241,,V,A*7F
$HCHDG,264.1,0.0,E,,*28
$IIRMC,174500,A,4741.199,N,12224.255,W,00.0,000,061013,16,E,A*19
$GPRMC,174546.4,A,4741.19944,N,12224.25519,W,000.11,000.0,061013,016.6,E,A*28
$PGRME,3.0,M,9.0,M,9.5,M*28
$HCHDG,264.1,0.0,E,,*28
$PTAK,FFP1,HEEL,@*07
$HCHDG,264.1,0.0,E,,*28
$YXXDR,A,4.7,D,PTCH,A,3.8,D,ROLL*55
$GPRMC,174546.6,A,4741.19944,N,12224.25519,W,000.14,000.0,061013,016.6,E,A*2F
$PGRME,3.0,M,9.0,M,9.5,M*28
$HCHDG,264.0,0.0,E,,*29
$HCHDG,264.1,0.0,E,,*28
$GPRMC,174546.8,A,4741.19943,N,12224.25518,W,000.08,000.0,061013,016.6,E,A*2A
$PGRME,3.0,M,9.0,M,9.5,M*28
$HCHDG,264.1,0.0,E,,*28
$IIVHW,,,,,00.0,N,,*19
$HCHDG,264.2,0.0,E,,*2B
$IIVLW,06382,N,000.0,N*5C
$IIVWR,127,L,03.7,N,,,,*7F
$GPRMC,174547.0,A,4741.19942,N,12224.25518,W,000.04,000.0,061013,016.6,E,A*2E
$PGRME,3.0,M,9.0,M,9.5,M*28
$HCHDG,264.2,0.0,E,,*2B
$IIDPT,005.1,-1.0,*44
$YXXDR,A,4.6,D,PTCH,A,3.4,D,ROLL*58
$PTAK,FFD1,3.4*52
$IIGLL,4741.199,N,12224.255,W,174500,A,A*47
$HCHDG,264.2,0.0,E,,*2B
$IIMTW,+10.5,C*3C
$GPRMC,174547.2,A,4741.19942,N,12224.25518,W,000.06,000.0,061013,016.6,E,A*2E
$PGRME,3.0,M,8.9,M,9.4,M*21
$IIMWV,233,R,03.7,N,A*15
$HCHDG,264.2,0.0,E,,*2B
$IIMWV,236,T,03.8,N,A*19
$HCHDG,264.2,0.0,E,,*2B
$IIRMB,A,0.21,L,,Shil,,,,,000.2,241,,V,A*7F
$GPRMC,174547.4,A,4741.19942,N,12224.25518,W,000.06,000.0,061013,016.6,E,A*28
$GPRMB,A,0.21,L,,Shil,4741.0830,N,12224.5670,W,0.2,241,-0.03,V*12
$PGRME,3.0,M,8.9,M,9.4,M*21
$HCHDG,264.2,0.0,E,,*2B
$HCHDG,264.3,0.0,E,,*2A
$YXXDR,A,4.4,D,PTCH,A,3.5,D,ROLL*5B
$GPRMC,174547.6,A,4741.19942,N,12224.25517,W,000.06,000.0,061013,016.6,E,A*25
$PGRME,3.0,M,8.9,M,9.4,M*21
$HCHDG,264.3,0.0,E,,*2A
$HCHDG,264.2,0.0,E,,*2B
$GPRMC,174547.8,A,4741.19942,N,12224.25517,W,000.06,000.0,061013,016.6,E,A*2B
$PGRME,3.0,M,8.8,M,9.3,M*27
$HCHDG,264.2,0.0,E,,*2B
$HCHDG,264.2,0.0,E,,*2B
$IIRMC,174500,A,4741.199,N,12224.255,W,00.0,000,061013,16,E,A*19
$GPRMC,174548.0,A,4741.19942,N,12224.25516,W,000.05,000.0,061013,016.6,E,A*2E
$IIVHW,,,,,00.0,N,,*19
$PGRME,3.0,M,8.7,M,9.3,M*28
$HCHDG,264.2,0.0,E,,*2B
$IIVLW,06382,N,000.0,N*5C
$YXXDR,A,4.7,D,PTCH,A,3.8,D,ROLL*55
$PTAK,FFD1,3.8*5E
$IIVWR,132,L,03.7,N,,,,*7B
$HCHDG,264.3,0.0,E,,*2A
$IIDPT,005.1,-1.0,*44
$GPRMC,174548.2,A,4741.19942,N,12224.25516,W,000.04,000.0,061013,016.6,E,A*2D
$PGRME,3.0,M,8.7,M,9.2,M*29
$HCHDG,264.3,0.0,E,,*2A
$IIGLL,4741.199,N,12224.255,W,174500,A,A*47
$IIMTW,+10.5,C*3C
$HCHDG,264.2,0.0,E,,*2B
$IIMWV,228,R,03.7,N,A*1F
$GPRMC,174548.4,A,4741.19942,N,12224.25515,W,000.11,000.0,061013,016.6,E,A*2C
$IIMWV,233,T,03.7,N,A*13
$PGRME,3.0,M,8.6,M,9.1,M*2B
$HCHDG,264.3,0.0,E,,*2A
$HCHDG,264.2,0.0,E,,*2B
$GPRMC,174548.6,A,4741.19942,N,12224.25514,W,000.07,000.0,061013,016.6,E,A*28
$GPRMB,A,0.21,L,,Shil,4741.0830,N,12224.5670,W,0.2,241,-0.03,V*12
$YXXDR,A,4.5,D,PTCH,A,4.4,D,ROLL*5C
$PGRME,3.0,M,8.6,M,9.1,M*2B
$HCHDG,264.2,0.0,E,,*2B
$HCHDG,264.2,0.0,E,,*2B
$GPRMC,174548.8,A,4741.19942,N,12224.25514,W,000.03,000.0,061013,016.6,E,A*22
$PGRME,3.0,M,8.5,M,9.0,M*29
$HCHDG,264.0,0.0,E,,*29
$IIRMB,A,0.21,L,,Shil,,,,,000.2,241,,V,A*7F
$HCHDG,264.0,0.0,E,,*29
$GPRMC,174549.0,A,4741.19943,N,12224.25513,W,000.08,000.0,061013,016.6,E,A*26
$PGRME,3.0,M,8.5,M,9.0,M*29
$HCHDG,264.0,0.0,E,,*29
$IIRMC,174500,A,4741.199,N,12224.255,W,00.0,000,061013,16,E,A*19
$IIVHW,,,,,00.0,N,,*19
$YXXDR,A,4.4,D,PTCH,A,4.8,D,ROLL*51
$PTAK,FFD1,4.8*59
$HCHDG,264.0,0.0,E,,*29
$IIVLW,06382,N,000.0,N*5C
$GPRMC,174549.2,A,4741.19943,N,12224.25513,W,000.05,000.0,061013,016.6,E,A*29
$PGRME,3.0,M,8.4,M,8.9,M*20
$IIVWR,139,L,03.8,N,,,,*7F
$HCHDG,264.0,0.0,E,,*29
$IIDPT,005.1,-1.0,*44
$HCHDG,264.0,0.0,E,,*29
$IIGLL,4741.199,N,12224.255,W,174500,A,A*47
$IIMTW,+10.5,C*3C
$GPRMC,174549.4,A,4741.19943,N,12224.25512,W,000.02,000.0,061013,016.6,E,A*29
$PGRME,3.0,M,8.3,M,8.9,M*27
$HCHDG,264.0,0.0,E,,*29
$HCHDG,264.0,0.0,E,,*29
$YXXDR,A,4.6,D,PTCH,A,5.4,D,ROLL*5E
$GPRMC,174549.6,A,4741.19943,N,12224.25512,W,000.03,000.0,061013,016.6,E,A*2A
$GPRMB,A,0.21,L,,Shil,4741.0830,N,12224.5670,W,0.2,241,-0.01,V*10
$PGRME,3.0,M,8.3,M,8.8,M*26
$HCHDG,264.0,0.0,E,,*29
$HCHDG,264.2,0.0,E,,*2B
$GPRMC,174549.8,A,4741.19943,N,12224.25512,W,000.02,000.0,061013,016.6,E,A*25
$PGRME,3.0,M,8.2,M,8.8,M*27
$HCHDG,264.2,0.0,E,,*2B
$IIMWV,225,R,03.5,N,A*10
$HCHDG,264.2,0.0,E,,*2B
$IIMWV,221,T,03.8,N,A*1F
$GPRMC,174550.0,A,4741.19942,N,12224.25512,W,000.03,000.0,061013,016.6,E,A*25
$PGRME,3.0,M,8.2,M,8.7,M*28
$IIRMB,A,0.21,L,,Shil,,,,,000.2,241,,V,A*7F
$HCHDG,264.3,0.0,E,,*2A
$YXXDR,A,5.0,D,PTCH,A,5.9,D,ROLL*54
$HCHDG,264.3,0.0,E,,*2A
$IIRMC,174500,A,4741.199,N,12224.255,W,00.0,000,061013,16,E,A*19
$GPRMC,174550.2,A,4741.19942,N,12224.25511,W,000.02,000.0,061013,016.6,E,A*25
$IIVHW,,,,,00.0,N,,*19
$PGRME,3.0,M,8.1,M,8.7,M*2B
$HCHDG,264.3,0.0,E,,*2A
$IIVLW,06382,N,000.0,N*5C
$IIVWR,135,L,03.5,N,,,,*7E
$HCHDG,264.4,0.0,E,,*2D
$IIDPT,005.1,-1.0,*44
$GPRMC,174550.4,A,4741.19942,N,12224.25512,W,000.01,000.0,061013,016.6,E,A*23
$PGRME,3.0,M,8.1,M,8.6,M*2A
$HCHDG,264.4,0.0,E,,*2D
$HCHDG,264.3,0.0,E,,*2A
$YXXDR,A,4.5,D,PTCH,A,5.5,D,ROLL*5C
$PTAK,FFD1,5.5*55
$PTAK,FFP1,HEEL,@*07
$GPRMC,174550.6,A,4741.19942,N,12224.25512,W,000.01,000.0,061013,016.6,E,A*21
$GPRMB,A,0.21,L,,Shil,4741.0830,N,12224.5670,W,0.2,241,-0.00,V*11
$PGRME,3.0,M,8.0,M,8.6,M*2B
$HCHDG,264.3,0.0,E,,*2A
$HCHDG,264.3,0.0,E,,*2A
$GPRMC,174550.8,A,4741.19942,N,12224.25511,W,000.01,000.0,061013,016.6,E,A*2C
$PGRME,3.0,M,8.0,M,8.6,M*2B
$HCHDG,264.1,0.0,E,,*28
$IIGLL,4741.199,N,12224.255,W,174500,A,A*47
$HCHDG,264.1,0.0,E,,*28
$IIMTW,+10.5,C*3C
$GPRMC,174551.0,A,4741.19942,N,12224.25511,W,000.00,000.0,061013,016.6,E,A*24
$IIMWV,227,R,03.5,N,A*12
$PGRME,3.0,M,8.0,M,8.5,M*28
$HCHDG,264.2,0.0,E,,*2B
$IIMWV,225,T,03.5,N,A*16
$YXXDR,A,4.8,D,PTCH,A,5.2,D,ROLL*56
$HCHDG,264.4,0.0,E,,*2D
$IIRMB,A,0.21,L,,Shil,,,,,000.2,241,,V,A*7F
$GPRMC,174551.2,A,4741.19942,N,12224.25511,W,000.05,000.0,061013,016.6,E,A*23
$PGRME,3.0,M,7.9,M,8.5,M*2E
$HCHDG,264.4,0.0,E,,*2D
$IIRMC,174500,A,4741.199,N,12224.255,W,00.0,000,061013,16,E,A*19
$HCHDG,264.4,0.0,E,,*2D
$IIVHW,,,,,00.0,N,,*19
$IIVLW,06382,N,000.0,N*5C
$GPRMC,174551.4,A,4741.19942,N,12224.25511,W,000.01,000.0,061013,016.6,E,A*21
$PGRME,3.0,M,7.9,M,8.4,M*2F
$HCHDG,264.4,0.0,E,,*2D
$HCHDG,264.4,0.0,E,,*2D
$YXXDR,A,4.7,D,PTCH,A,4.7,D,ROLL*5D
$PTAK,FFD1,4.7*56
$GPRMC,174551.6,A,4741.19942,N,12224.25511,W,000.04,000.0,061013,016.6,E,A*26
$GPRMB,A,0.21,L,,Shil,4741.0830,N,12224.5670,W,0.2,241,-0.02,V*13
$PGRME,3.0,M,7.8,M,8.4,M*2E
$HCHDG,264.4,0.0,E,,*2D
$HCHDG,264.4,0.0,E,,*2D
$GPRMC,174551.8,A,4741.19942,N,12224.25512,W,000.02,000.0,061013,016.6,E,A*2D
$PGRME,3.0,M,7.8,M,8.4,M*2E
$HCHDG,264.4,0.0,E,,*2D
$IIVWR,131,L,03.5,N,,,,*7A
$HCHDG,264.4,0.0,E,,*2D
$IIDPT,005.1,-1.0,*44
$GPRMC,174552.0,A,4741.19942,N,12224.25512,W,000.02,000.0,061013,016.6,E,A*26
$PGRME,3.0,M,7.8,M,8.4,M*2E
$IIGLL,4741.199,N,12224.255,W,174500,A,A*47
$HCHDG,264.4,0.0,E,,*2D
$IIMTW,+10.5,C*3C
$YXXDR,A,4.5,D,PTCH,A,4.1,D,ROLL*59
$IIMWV,229,R,03.5,N,A*1C
$HCHDG,264.3,0.0,E,,*2A
$IIMWV,227,T,03.5,N,A*14
$GPRMC,174552.2,A,4741.19942,N,12224.25511,W,000.01,000.0,061013,016.6,E,A*24
$PGRME,3.0,M,7.7,M,8.3,M*26
$HCHDG,264.3,0.0,E,,*2A
$IIRMB,A,0.21,L,,Shil,,,,,000.2,241,,V,A*7F
$HCHDG,264.3,0.0,E,,*2A
$IIRMC,174500,A,4741.199,N,12224.255,W,00.0,000,061013,16,E,A*19
$GPRMC,174552.4,A,4741.19942,N,12224.25511,W,000.02,000.0,061013,016.6,E,A*21
$PGRME,3.0,M,7.7,M,8.3,M*26
$HCHDG,264.1,0.0,E,,*28
$HCHDG,264.0,0.0,E,,*29
$GPRMC,174552.6,A,4741.19942,N,12224.25511,W,000.02,000.0,061013,016.6,E,A*23
$YXXDR,A,4.4,D,PTCH,A,3.7,D,ROLL*59
$PTAK,FFD1,3.7*51
$PGRME,3.0,M,7.6,M,8.2,M*26
$HCHDG,264.0,0.0,E,,*29
$HCHDG,264.0,0.0,E,,*29
$GPRMC,174552.8,A,4741.19942,N,12224.25511,W,000.05,000.0,061013,016.6,E,A*2A
$GPRMB,A,0.21,L,,Shil,4741.0830,N,12224.5670,W,0.2,241,-0.02,V*13
$PGRME,3.0,M,7.6,M,8.2,M*26
$HCHDG,264.0,0.0,E,,*29
$IIVHW,,,,,00.0,N,,*19
$IIVLW,06382,N,000.0,N*5C
$HCHDG,264.1,0.0,E,,*28
$IIVWR,130,L,03.7,N,,,,*79
$GPRMC,174553.0,A,4741.19942,N,12224.25511,W,000.07,000.0,061013,016.6,E,A*21
$PGRME,3.0,M,7.6,M,8.2,M*26
$HCHDG,264.1,0.0,E,,*28
$IIDPT,005.1,-1.0,*44
$YXXDR,A,4.4,D,PTCH,A,3.7,D,ROLL*59
$IIGLL,4741.199,N,12224.255,W,174500,A,A*47
$HCHDG,264.0,0.0,E,,*29
$IIMTW,+10.5,C*3C
$GPRMC,174553.2,A,4741.19943,N,12224.25510,W,000.08,000.0,061013,016.6,E,A*2C
$PGRME,3.0,M,7.6,M,8.2,M*26
$IIMWV,230,R,03.7,N,A*16
$HCHDG,264.0,0.0,E,,*29
$IIMWV,229,T,03.5,N,A*1A
$HCHDG,264.0,0.0,E,,*29
$IIRMB,A,0.21,L,,Shil,,,,,000.2,241,,V,A*7F
$GPRMC,174553.4,A,4741.19943,N,12224.25510,W,000.06,000.0,061013,016.6,E,A*24
$PGRME,3.0,M,7.6,M,8.2,M*26
$HCHDG,264.0,0.0,E,,*29
$HCHDG,264.0,0.0,E,,*29
$GPRMC,174553.6,A,4741.19944,N,12224.25510,W,000.08,000.0,061013,016.6,E,A*2F
$YXXDR,A,4.5,D,PTCH,A,4.0,D,ROLL*58
$PTAK,FFD1,4.0*51
$PGRME,3.0,M,7.6,M,8.2,M*26
$HCHDG,264.2,0.0,E,,*2B
$HCHDG,264.2,0.0,E,,*2B
$GPRMC,174553.8,A,4741.19944,N,12224.25510,W,000.07,000.0,061013,016.6,E,A*2E
$GPRMB,A,0.21,L,,Shil,4741.0830,N,12224.5670,W,0.2,241,-0.03,V*12
$PGRME,3.0,M,7.5,M,8.1,M*26
$HCHDG,264.2,0.0,E,,*2B
$HCHDG,264.2,0.0,E,,*2B
$IIRMC,174500,A,4741.199,N,12224.255,W,00.0,000,061013,16,E,A*19
$GPRMC,174554.0,A,4741.19945,N,12224.25509,W,000.04,000.0,061013,016.6,E,A*2B
$IIVHW,,,,,00.0,N,,*19
$PGRME,3.0,M,7.5,M,8.1,M*26
$HCHDG,264.2,0.0,E,,*2B
$IIVLW,06382,N,000.0,N*5C
$YXXDR,A,4.6,D,PTCH,A,4.4,D,ROLL*5F
$IIVWR,130,L,03.9,N,,,,*77
$HCHDG,264.2,0.0,E,,*2B
$IIDPT,005.1,-1.0,*44
$GPRMC,174554.2,A,4741.19945,N,12224.25510,W,000.07,000.0,061013,016.6,E,A*22
$PGRME,3.0,M,7.4,M,8.0,M*26
$HCHDG,264.2,0.0,E,,*2B
$IIGLL,4741.199,N,12224.255,W,174500,A,A*47
$IIMTW,+10.5,C*3C
$HCHDG,264.2,0.0,E,,*2B
$IIMWV,230,R,03.9,N,A*18
$GPRMC,174554.4,A,4741.19945,N,12224.25509,W,000.06,000.0,061013,016.6,E,A*2D
$PGRME,3.0,M,7.4,M,8.0,M*26
$IIMWV,230,T,03.7,N,A*10
$HCHDG,264.2,0.0,E,,*2B
$HCHDG,264.2,0.0,E,,*2B
$GPRMC,174554.6,A,4741.19945,N,12224.25509,W,000.08,000.0,061013,016.6,E,A*21
$PTAK,FFP1,HEEL,@*07
$YXXDR,A,4.4,D,PTCH,A,4.6,D,ROLL*5F
$PTAK,FFD1,4.6*57
$PGRME,3.0,M,7.4,M,8.0,M*26
$HCHDG,263.9,0.0,E,,*27
$HCHDG,263.9,0.0,E,,*27
$GPRMC,174554.8,A,4741.19946,N,12224.25509,W,000.06,000.0,061013,016.6,E,A*22
$PGRME,3.0,M,7.3,M,7.9,M*27
$HCHDG,263.9,0.0,E,,*27
$IIRMB,A,0.21,L,,Shil,,,,,000.2,241,,V,A*7F
$HCHDG,263.9,0.0,E,,*27
$GPRMC,174555.0,A,4741.19946,N,12224.25509,W,000.07,000.0,061013,016.6,E,A*2A
$GPRMB,A,0.21,L,,Shil,4741.0830,N,12224.5670,W,0.2,241,-0.03,V*12
$PGRME,3.0,M,7.3,M,7.9,M*27
$HCHDG,263.9,0.0,E,,*27
$IIRMC,174500,A,4741.199,N,12224.255,W,00.0,000,061013,16,E,A*19
$IIVHW,,,,,00.0,N,,*19
$YXXDR,A,4.8,D,PTCH,A,5.0,D,ROLL*54
$HCHDG,263.9,0.0,E,,*27
$IIVLW,06382,N,000.0,N*5C
$GPRMC,174555.2,A,4741.19946,N,12224.25508,W,000.05,000.0,061013,016.6,E,A*2B
$PGRME,3.0,M,7.2,M,7.8,M*27
$IIVWR,130,L,03.8,N,,,,*76
$HCHDG,263.8,0.0,E,,*26
$IIDPT,005.1,-1.0,*44
$HCHDG,263.8,0.0,E,,*26
$IIGLL,4741.199,N,12224.255,W,174500,A,A*47
$IIMTW,+10.5,C*3C
$GPRMC,174555.4,A,4741.19946,N,12224.25508,W,000.05,000.0,061013,016.6,E,A*2D
$PGRME,3.0,M,7.2,M,7.8,M*27
$HCHDG,264.1,0.0,E,,*28
$HCHDG,264.1,0.0,E,,*28
$GPRMC,174555.6,A,4741.19947,N,12224.25508,W,000.04,000.0,061013,016.6,E,A*2F
$YXXDR,A,4.8,D,PTCH,A,4.6,D,ROLL*53
$PGRME,3.0,M,7.2,M,7.8,M*27
$HCHDG,264.0,0.0,E,,*29
$HCHDG,264.0,0.0,E,,*29
$GPRMC,174555.8,A,4741.19947,N,12224.25508,W,000.04,000.0,061013,016.6,E,A*21
$PGRME,3.0,M,7.1,M,7.7,M*2B
$HCHDG,264.0,0.0,E,,*29
$IIMWV,233,R,03.7,N,A*15
$HCHDG,263.9,0.0,E,,*27
$IIMWV,230,T,03.8,N,A*1F
$GPRMC,174556.0,A,4741.19947,N,12224.25508,W,000.03,000.0,061013,016.6,E,A*2D
$GPRMB,A,0.21,L,,Shil,4741.0830,N,12224.5670,W,0.2,241,-0.01,V*10
$PGRME,3.0,M,7.1,M,7.7,M*2B
$IIRMB,A,0.21,L,,Shil,,,,,000.2,241,,V,A*7F
$HCHDG,263.9,0.0,E,,*27
$YXXDR,A,5.0,D,PTCH,A,4.2,D,ROLL*5E
$PTAK,FFD1,4.2*53
$HCHDG,263.9,0.0,E,,*27
$IIRMC,174500,A,4741.199,N,12224.255,W,00.0,000,061013,16,E,A*19
$GPRMC,174556.2,A,4741.19947,N,12224.25508,W,000.03,000.0,061013,016.6,E,A*2F
$IIVHW,,,,,00.0,N,,*19
$PGRME,3.0,M,7.0,M,7.7,M*2A
$HCHDG,263.9,0.0,E,,*27
$IIVLW,06382,N,000.0,N*5C
$IIVWR,127,L,03.7,N,,,,*7F
$HCHDG,264.0,0.0,E,,*29
$IIDPT,005.1,-1.0,*44
$GPRMC,174556.4,A,4741.19947,N,12224.25508,W,000.02,000.0,061013,016.6,E,A*28
$PGRME,3.0,M,7.0,M,7.6,M*2B
$HCHDG,263.9,0.0,E,,*27
$HCHDG,263.9,0.0,E,,*27
$GPRMC,174556.6,A,4741.19947,N,12224.25509,W,000.05,000.0,061013,016.6,E,A*2C
$YXXDR,A,4.7,D,PTCH,A,3.8,D,ROLL*55
$PGRME,3.0,M,7.0,M,7.6,M*2B
$HCHDG,263.9,0.0,E,,*27
$HCHDG,263.9,0.0,E,,*27
$GPRMC,174556.8,A,4741.19948,N,12224.25509,W,000.06,000.0,061013,016.6,E,A*2E
$PGRME,3.0,M,6.9,M,7.6,M*23
$HCHDG,263.9,0.0,E,,*27
$IIGLL,4741.199,N,12224.255,W,174500,A,A*47
$HCHDG,263.7,0.0,E,,*29
$IIMTW,+10.5,C*3C
$GPRMC,174557.0,A,4741.19948,N,12224.25508,W,000.11,000.0,061013,016.6,E,A*20
$GPRMB,A,0.21,L,,Shil,4741.0830,N,12224.5670,W,0.2,241,-0.05,V*14
$IIMWV,235,R,03.9,N,A*1D
$PGRME,3.0,M,6.9,M,7.5,M*20
$HCHDG,263.7,0.0,E,,*29
$IIMWV,233,T,03.7,N,A*13
$YXXDR,A,4.5,D,PTCH,A,3.5,D,ROLL*5A
$PTAK,FFD1,3.5*53
$IIRMB,A,0.21,L,,Shil,,,,,000.2,241,,V,A*7F
$HCHDG,263.9,0.0,E,,*27
$GPRMC,174557.2,A,4741.19949,N,12224.25508,W,000.10,000.0,061013,016.6,E,A*22
$PGRME,3.0,M,6.9,M,7.5,M*20
$HCHDG,263.9,0.0,E,,*27
$IIRMC,174500,A,4741.199,N,12224.255,W,00.0,000,061013,16,E,A*19
$HCHDG,263.8,0.0,E,,*26
$IIVHW,,,,,00.0,N,,*19
$IIVLW,06382,N,000.0,N*5C
$GPRMC,174557.4,A,4741.19949,N,12224.25508,W,000.08,000.0,061013,016.6,E,A*2D
$PGRME,3.0,M,6.8,M,7.5,M*21
$HCHDG,263.8,0.0,E,,*26
$HCHDG,263.8,0.0,E,,*26
$GPRMC,174557.6,A,4741.19950,N,12224.25508,W,000.09,000.0,061013,016.6,E,A*26
$YXXDR,A,4.7,D,PTCH,A,3.9,D,ROLL*54
$PGRME,3.0,M,6.8,M,7.4,M*20
$HCHDG,263.8,0.0,E,,*26
$HCHDG,263.8,0.0,E,,*26
$GPRMC,174557.8,A,4741.19950,N,12224.25508,W,000.09,000.0,061013,016.6,E,A*28
$PGRME,3.0,M,6.8,M,7.4,M*20
$HCHDG,263.8,0.0,E,,*26
$IIVWR,123,L,04.1,N,,,,*7A
$HCHDG,263.8,0.0,E,,*26
$IIDPT,005.1,-1.0,*44
$GPRMC,174558.0,A,4741.19951,N,12224.25508,W,000.08,000.0,061013,016.6,E,A*2F
$PGRME,3.0,M,6.7,M,7.4,M*2F
$IIGLL,4741.199,N,12224.255,W,174500,A,A*47
$HCHDG,263.8,0.0,E,,*26
$IIMTW,+10.5,C*3C
$YXXDR,A,4.6,D,PTCH,A,4.3,D,ROLL*58
$IIMWV,237,R,04.1,N,A*10
$HCHDG,263.5,0.0,E,,*2B
$IIMWV,235,T,03.9,N,A*1B
$GPRMC,174558.2,A,4741.19951,N,12224.25508,W,000.08,000.0,061013,016.6,E,A*2D
$GPRMB,A,0.21,L,,Shil,4741.0830,N,12224.5670,W,0.2,241,-0.04,V*15
$PGRME,3.0,M,6.7,M,7.4,M*2F
$HCHDG,263.5,0.0,E,,*2B
$IIRMB,A,0.21,L,,Shil,,,,,000.2,241,,V,A*7F
$HCHDG,263.5,0.0,E,,*2B
$IIRMC,174500,A,4741.199,N,12224.255,W,00.0,000,061013,16,E,A*19
$GPRMC,174558.4,A,4741.19951,N,12224.25507,W,000.09,000.0,061013,016.6,E,A*25
$PGRME,3.0,M,6.7,M,7.3,M*28
$HCHDG,263.5,0.0,E,,*2B
$HCHDG,263.5,0.0,E,,*2B
