$PGRME,,M,,M,,M*00
$HCHDG,268.8,0.0,E,,*2D
$PTAK,FFP1,HEEL,@*07
$IIVHW,,,,,00.0,N,,*19
$HCHDG,268.8,0.0,E,,*2D
$IIVLW,06392,N,000.0,N*5D
$IIVWR,098,R,02.3,N,,,,*61
$HCHDG,268.8,0.0,E,,*2D
$GPRMC,172810.0,V,4741.20339,N,12224.26770,W,,,201013,016.6,E,N*0C
$PGRME,,M,,M,,M*00
$IIDPT,006.7,-1.0,*41
$IIMTW,+08.5,C*35
$HCHDG,268.8,0.0,E,,*2D
$IIMWV,098,R,02.3,N,A*13
$IIMWV,100,T,02.4,N,A*12
$HCHDG,268.8,0.0,E,,*2D
$GPRMC,172810.2,V,4741.20339,N,12224.26770,W,,,201013,016.6,E,N*0E
$PGRME,,M,,M,,M*00
$YXXDR,A,5.5,D,PTCH,A,5.8,D,ROLL*50
$PTAK,FFD1,5.8*58
$HCHDG,268.9,0.0,E,,*2C
$HCHDG,268.8,0.0,E,,*2D
$GPRMC,172810.4,V,4741.20339,N,12224.26770,W,,,201013,016.6,E,N*08
$PGRME,,M,,M,,M*00
$HCHDG,268.7,0.0,E,,*22
$HCHDG,268.8,0.0,E,,*2D
$GPRMC,172810.6,V,4741.20339,N,12224.26770,W,,,201013,016.6,E,N*0A
$PGRME,,M,,M,,M*00
$HCHDG,268.8,0.0,E,,*2D
$YXXDR,A,5.5,D,PTCH,A,5.7,D,ROLL*5F
$GPRMC,172810.8,V,4741.20339,N,12224.26770,W,,,201013,016.6,E,N*04
$PGRME,,M,,M,,M*00
$HCHDG,268.9,0.0,E,,*2C
$IIVHW,,,,,00.0,N,,*19
$HCHDG,268.9,0.0,E,,*2C
$IIVLW,06392,N,000.0,N*5D
$IIVWR,095,R,02.2,N,,,,*6D
$HCHDG,268.9,0.0,E,,*2C
$GPRMC,172811.0,V,4741.20339,N,12224.26770,W,,,201013,016.6,E,N*0D
$PGRME,,M,,M,,M*00
$IIDPT,006.7,-1.0,*41
$IIMTW,+08.5,C*35
$HCHDG,268.9,0.0,E,,*2C
$IIMWV,095,R,02.2,N,A*1F
$IIMWV,098,T,02.3,N,A*15
$HCHDG,268.9,0.0,E,,*2C
$GPRMC,172811.2,V,4741.20339,N,12224.26770,W,,,201013,016.6,E,N*0F
$PGRME,,M,,M,,M*00
$YXXDR,A,5.5,D,PTCH,A,5.7,D,ROLL*5F
$HCHDG,269.0,0.0,E,,*24
$HCHDG,269.0,0.0,E,,*24
$GPRMC,172811.4,V,4741.20339,N,12224.26770,W,,,201013,016.6,E,N*09
$PGRME,,M,,M,,M*00
$HCHDG,269.0,0.0,E,,*24
$HCHDG,269.0,0.0,E,,*24
$GPRMC,172811.6,V,4741.20339,N,12224.26770,W,,,201013,016.6,E,N*0B
$PGRME,,M,,M,,M*00
$HCHDG,268.9,0.0,E,,*2C
$YXXDR,A,5.5,D,PTCH,A,5.7,D,ROLL*5F
$PTAK,FFD1,5.7*57
$GPRMC,172811.8,V,4741.20339,N,12224.26770,W,,,201013,016.6,E,N*05
$PGRME,,M,,M,,M*00
$HCHDG,269.0,0.0,E,,*24
$IIVHW,,,,,00.0,N,,*19
$HCHDG,269.0,0.0,E,,*24
$IIVLW,06392,N,000.0,N*5D
$IIVWR,094,R,02.4,N,,,,*6A
$HCHDG,269.1,0.0,E,,*25
$GPRMC,172812.0,V,4741.20339,N,12224.26770,W,,,201013,016.6,E,N*0E
$PGRME,,M,,M,,M*00
$IIDPT,006.7,-1.0,*41
$IIMTW,+08.5,C*35
$HCHDG,268.8,0.0,E,,*2D
$IIMWV,094,R,02.4,N,A*18
$IIMWV,095,T,02.2,N,A*19
$HCHDG,268.8,0.0,E,,*2D
$GPRMC,172812.2,V,4741.20339,N,12224.26770,W,,,201013,016.6,E,N*0C
$PGRME,,M,,M,,M*00
$YXXDR,A,5.5,D,PTCH,A,5.7,D,ROLL*5F
$HCHDG,268.8,0.0,E,,*2D
$HCHDG,268.8,0.0,E,,*2D
$GPRMC,172812.4,V,4741.20339,N,12224.26770,W,,,201013,016.6,E,N*0A
$PGRME,,M,,M,,M*00
$HCHDG,268.7,0.0,E,,*22
$HCHDG,268.7,0.0,E,,*22
$GPRMC,172812.6,V,4741.20339,N,12224.26770,W,,,201013,016.6,E,N*08
$PGRME,,M,,M,,M*00
$HCHDG,268.7,0.0,E,,*22
$YXXDR,A,5.4,D,PTCH,A,5.7,D,ROLL*5E
$GPRMC,172812.8,V,4741.20339,N,12224.26770,W,,,201013,016.6,E,N*06
$PGRME,,M,,M,,M*00
$HCHDG,268.8,0.0,E,,*2D
$IIVHW,,,,,00.0,N,,*19
$HCHDG,268.7,0.0,E,,*22
$IIVLW,06392,N,000.0,N*5D
$IIVWR,093,R,01.9,N,,,,*63
$HCHDG,268.7,0.0,E,,*22
$PTAK,FFP1,HEEL,@*07
$GPRMC,172813.0,V,4741.20339,N,12224.26770,W,,,201013,016.6,E,N*0F
$PGRME,,M,,M,,M*00
$IIDPT,006.7,-1.0,*41
$IIMTW,+08.5,C*35
$HCHDG,268.9,0.0,E,,*2C
$IIMWV,093,R,01.9,N,A*11
$IIMWV,094,T,02.4,N,A*1E
$HCHDG,268.9,0.0,E,,*2C
$GPRMC,172813.2,V,4741.20339,N,12224.26770,W,,,201013,016.6,E,N*0D
$PGRME,,M,,M,,M*00
$YXXDR,A,5.4,D,PTCH,A,5.5,D,ROLL*5C
$PTAK,FFD1,5.5*55
$HCHDG,268.5,0.0,E,,*20
$HCHDG,268.6,0.0,E,,*23
$GPRMC,172813.4,V,4741.20339,N,12224.26770,W,,,201013,016.6,E,N*0B
$PGRME,,M,,M,,M*00
$HCHDG,268.6,0.0,E,,*23
$HCHDG,268.7,0.0,E,,*22
$GPRMC,172813.6,V,4741.20339,N,12224.26770,W,,,201013,016.6,E,N*09
$PGRME,,M,,M,,M*00
$HCHDG,268.7,0.0,E,,*22
$YXXDR,A,5.3,D,PTCH,A,6.1,D,ROLL*5C
$GPRMC,172813.8,V,4741.20339,N,12224.26770,W,,,201013,016.6,E,N*07
$PGRME,,M,,M,,M*00
$HCHDG,268.6,0.0,E,,*23
$IIVHW,,,,,00.0,N,,*19
$HCHDG,268.6,0.0,E,,*23
$IIVLW,06392,N,000.0,N*5D
$IIVWR,090,R,02.0,N,,,,*6A
$HCHDG,269.0,0.0,E,,*24
$GPRMC,172814.0,V,4741.20339,N,12224.26770,W,,,201013,016.6,E,N*08
$PGRME,,M,,M,,M*00
$IIDPT,006.7,-1.0,*41
$IIMTW,+08.5,C*35
$HCHDG,269.0,0.0,E,,*24
$IIMWV,090,R,02.0,N,A*18
$IIMWV,093,T,01.9,N,A*17
$HCHDG,269.0,0.0,E,,*24
$GPRMC,172814.2,V,4741.20339,N,12224.26770,W,,,201013,016.6,E,N*0A
$PGRME,,M,,M,,M*00
$YXXDR,A,5.4,D,PTCH,A,6.5,D,ROLL*5F
$HCHDG,269.1,0.0,E,,*25
$HCHDG,269.0,0.0,E,,*24
$GPRMC,172814.4,V,4741.20339,N,12224.26770,W,,,201013,016.6,E,N*0C
$PGRME,,M,,M,,M*00
$HCHDG,269.1,0.0,E,,*25
$HCHDG,269.1,0.0,E,,*25
$GPRMC,172814.6,V,4741.20339,N,12224.26770,W,,,201013,016.6,E,N*0E
$PGRME,,M,,M,,M*00
$HCHDG,269.1,0.0,E,,*25
$YXXDR,A,5.4,D,PTCH,A,6.5,D,ROLL*5F
$PTAK,FFD1,6.5*56
$GPRMC,172814.8,V,4741.20339,N,12224.26770,W,,,201013,016.6,E,N*00
$PGRME,,M,,M,,M*00
$HCHDG,269.2,0.0,E,,*26
$IIVHW,,,,,00.0,N,,*19
$HCHDG,269.2,0.0,E,,*26
$IIVLW,06392,N,000.0,N*5D
$IIVWR,093,R,02.3,N,,,,*6A
$HCHDG,269.3,0.0,E,,*27
$GPRMC,172815.0,V,4741.20339,N,12224.26770,W,,,201013,016.6,E,N*09
$PGRME,,M,,M,,M*00
$IIDPT,006.7,-1.0,*41
$IIMTW,+08.5,C*35
$HCHDG,269.3,0.0,E,,*27
$IIMWV,093,R,02.3,N,A*18
$IIMWV,090,T,02.0,N,A*1E
$HCHDG,269.3,0.0,E,,*27
$GPRMC,172815.2,V,4741.20339,N,12224.26770,W,,,201013,016.6,E,N*0B
$PGRME,,M,,M,,M*00
$YXXDR,A,5.4,D,PTCH,A,6.5,D,ROLL*5F
$HCHDG,269.2,0.0,E,,*26
$HCHDG,269.4,0.0,E,,*20
$GPRMC,172815.4,V,4741.20339,N,12224.26770,W,,,201013,016.6,E,N*0D
$PGRME,,M,,M,,M*00
$HCHDG,269.3,0.0,E,,*27
$HCHDG,269.3,0.0,E,,*27
$GPRMC,172815.6,V,4741.20339,N,12224.26770,W,,,201013,016.6,E,N*0F
$PGRME,,M,,M,,M*00
$HCHDG,269.3,0.0,E,,*27
$YXXDR,A,5.7,D,PTCH,A,6.7,D,ROLL*5E
$GPRMC,172815.8,V,4741.20339,N,12224.26770,W,,,201013,016.6,E,N*01
$PGRME,,M,,M,,M*00
$HCHDG,269.2,0.0,E,,*26
$IIVHW,,,,,00.0,N,,*19
$HCHDG,269.2,0.0,E,,*26
$IIVLW,06392,N,000.0,N*5D
$IIVWR,089,R,02.4,N,,,,*66
$HCHDG,269.2,0.0,E,,*26
$GPRMC,172816.0,V,4741.20339,N,12224.26770,W,,,201013,016.6,E,N*0A
$PGRME,,M,,M,,M*00
$IIDPT,006.7,-1.0,*41
$IIMTW,+08.5,C*35
$HCHDG,269.2,0.0,E,,*26
$IIMWV,089,R,02.4,N,A*14
$IIMWV,093,T,02.3,N,A*1E
$HCHDG,269.2,0.0,E,,*26
$GPRMC,172816.2,V,4741.20339,N,12224.26770,W,,,201013,016.6,E,N*08
$PGRME,,M,,M,,M*00
$YXXDR,A,5.8,D,PTCH,A,6.4,D,ROLL*52
$PTAK,FFD1,6.4*57
$HCHDG,269.1,0.0,E,,*25
$HCHDG,269.1,0.0,E,,*25
$GPRMC,172816.4,V,4741.20339,N,12224.26770,W,,,201013,016.6,E,N*0E
$PGRME,,M,,M,,M*00
$HCHDG,269.3,0.0,E,,*27
$HCHDG,269.3,0.0,E,,*27
$GPRMC,172816.6,V,4741.20339,N,12224.26770,W,,,201013,016.6,E,N*0C
$PGRME,,M,,M,,M*00
$HCHDG,269.3,0.0,E,,*27
$YXXDR,A,5.6,D,PTCH,A,5.5,D,ROLL*5E
$GPRMC,172816.8,V,4741.20339,N,12224.26770,W,,,201013,016.6,E,N*02
$PGRME,,M,,M,,M*00
$HCHDG,269.2,0.0,E,,*26
$IIVHW,,,,,00.0,N,,*19
$HCHDG,269.2,0.0,E,,*26
$IIVLW,06392,N,000.0,N*5D
$IIVWR,082,R,02.4,N,,,,*6D
$HCHDG,269.2,0.0,E,,*26
$GPRMC,172817.0,V,4741.20339,N,12224.26770,W,,,201013,016.6,E,N*0B
$PGRME,,M,,M,,M*00
$IIDPT,006.7,-1.0,*41
$IIMTW,+08.5,C*35
$HCHDG,269.2,0.0,E,,*26
$IIMWV,082,R,02.4,N,A*1F
$IIMWV,089,T,02.4,N,A*12
$HCHDG,269.1,0.0,E,,*25
$PTAK,FFP1,HEEL,@*07
$GPRMC,172817.2,V,4741.20339,N,12224.26770,W,,,201013,016.6,E,N*09
$PGRME,,M,,M,,M*00
$YXXDR,A,5.7,D,PTCH,A,4.4,D,ROLL*5F
$PTAK,FFD1,4.4*55
$HCHDG,269.1,0.0,E,,*25
$HCHDG,269.1,0.0,E,,*25
$GPRMC,172817.4,V,4741.20339,N,12224.26770,W,,,201013,016.6,E,N*0F
$PGRME,,M,,M,,M*00
$HCHDG,269.0,0.0,E,,*24
$HCHDG,269.0,0.0,E,,*24
$GPRMC,172817.6,V,4741.20339,N,12224.26770,W,,,201013,016.6,E,N*0D
$PGRME,,M,,M,,M*00
$HCHDG,269.0,0.0,E,,*24
$YXXDR,A,5.7,D,PTCH,A,4.4,D,ROLL*5F
$GPRMC,172817.8,V,4741.20339,N,12224.26770,W,,,201013,016.6,E,N*03
$PGRME,,M,,M,,M*00
$HCHDG,269.0,0.0,E,,*24
$IIVHW,,,,,00.0,N,,*19
$HCHDG,268.9,0.0,E,,*2C
$IIVLW,06392,N,000.0,N*5D
$IIVWR,083,R,01.9,N,,,,*62
$HCHDG,268.9,0.0,E,,*2C
$GPRMC,172818.0,V,4741.20339,N,12224.26770,W,,,201013,016.6,E,N*04
$PGRME,,M,,M,,M*00
$IIDPT,006.7,-1.0,*41
$IIMTW,+08.5,C*35
$HCHDG,268.9,0.0,E,,*2C
$IIMWV,083,R,01.9,N,A*10
$IIMWV,082,T,02.4,N,A*19
$HCHDG,269.0,0.0,E,,*24
$GPRMC,172818.2,V,4741.20339,N,12224.26770,W,,,201013,016.6,E,N*06
$PGRME,,M,,M,,M*00
$YXXDR,A,5.5,D,PTCH,A,5.0,D,ROLL*58
$HCHDG,268.9,0.0,E,,*2C
$HCHDG,269.2,0.0,E,,*26
$GPRMC,172818.4,V,4741.20339,N,12224.26770,W,,,201013,016.6,E,N*00
$PGRME,,M,,M,,M*00
$HCHDG,269.3,0.0,E,,*27
$HCHDG,269.3,0.0,E,,*27
$GPRMC,172818.6,V,4741.20339,N,12224.26770,W,,,201013,016.6,E,N*02
$PGRME,,M,,M,,M*00
$HCHDG,269.4,0.0,E,,*20
$YXXDR,A,5.8,D,PTCH,A,5.4,D,ROLL*51
$PTAK,FFD1,5.4*54
$GPRMC,172818.8,V,4741.20339,N,12224.26770,W,,,201013,016.6,E,N*0C
$PGRME,,M,,M,,M*00
$HCHDG,269.3,0.0,E,,*27
$IIVHW,,,,,00.0,N,,*19
$HCHDG,269.4,0.0,E,,*20
$IIVLW,06392,N,000.0,N*5D
$IIVWR,083,R,02.6,N,,,,*6E
$HCHDG,269.4,0.0,E,,*20
$GPRMC,172819.0,V,4741.20339,N,12224.26770,W,,,201013,016.6,E,N*05
$PGRME,,M,,M,,M*00
$IIDPT,006.7,-1.0,*41
$IIMTW,+08.5,C*35
$HCHDG,269.4,0.0,E,,*20
$IIMWV,083,R,02.6,N,A*1C
$IIMWV,083,T,01.9,N,A*16
$HCHDG,269.3,0.0,E,,*27
$GPRMC,172819.2,V,4741.20339,N,12224.26770,W,,,201013,016.6,E,N*07
$PGRME,,M,,M,,M*00
$YXXDR,A,5.5,D,PTCH,A,6.5,D,ROLL*5E
$HCHDG,269.5,0.0,E,,*21
$HCHDG,269.8,0.0,E,,*2C
$GPRMC,172819.4,V,4741.20339,N,12224.26770,W,,,201013,016.6,E,N*01
$PGRME,,M,,M,,M*00
$HCHDG,269.9,0.0,E,,*2D
$HCHDG,270.1,0.0,E,,*2D
$GPRMC,172819.6,V,4741.20339,N,12224.26770,W,,,201013,016.6,E,N*03
$PGRME,,M,,M,,M*00
$HCHDG,270.1,0.0,E,,*2D
$YXXDR,A,5.8,D,PTCH,A,7.8,D,ROLL*5F
$GPRMC,172819.8,V,4741.20339,N,12224.26770,W,,,201013,016.6,E,N*0D
$PGRME,,M,,M,,M*00
$HCHDG,270.3,0.0,E,,*2F
$IIVHW,,,,,00.0,N,,*19
$HCHDG,270.2,0.0,E,,*2E
$IIVLW,06392,N,000.0,N*5D
$IIVWR,083,R,03.1,N,,,,*68
$HCHDG,270.4,0.0,E,,*28
$GPRMC,172820.0,V,4741.20339,N,12224.26770,W,,,201013,016.6,E,N*0F
$PGRME,,M,,M,,M*00
$IIDPT,006.7,-1.0,*41
$IIMTW,+08.5,C*35
$HCHDG,270.5,0.0,E,,*29
$IIMWV,083,R,03.1,N,A*1A
$IIMWV,083,T,02.6,N,A*1A
$HCHDG,270.6,0.0,E,,*2A
$GPRMC,172820.2,V,4741.20339,N,12224.26770,W,,,201013,016.6,E,N*0D
$PGRME,,M,,M,,M*00
$YXXDR,A,5.8,D,PTCH,A,8.1,D,ROLL*59
$PTAK,FFD1,8.1*5C
$HCHDG,270.8,0.0,E,,*24
$HCHDG,270.8,0.0,E,,*24
$GPRMC,172820.4,V,4741.20339,N,12224.26770,W,,,201013,016.6,E,N*0B
$PGRME,,M,,M,,M*00
$HCHDG,271.0,0.0,E,,*2D
$HCHDG,271.1,0.0,E,,*2C
$GPRMC,172820.6,V,4741.20339,N,12224.26770,W,,,201013,016.6,E,N*09
$PGRME,,M,,M,,M*00
$HCHDG,271.3,0.0,E,,*2E
$YXXDR,A,5.9,D,PTCH,A,7.8,D,ROLL*5E
$GPRMC,172820.8,V,4741.20339,N,12224.26770,W,,,201013,016.6,E,N*07
$PGRME,,M,,M,,M*00
$HCHDG,271.4,0.0,E,,*29
$IIVHW,,,,,00.0,N,,*19
$HCHDG,271.4,0.0,E,,*29
$IIVLW,06392,N,000.0,N*5D
$IIVWR,085,R,03.3,N,,,,*6C
$HCHDG,271.3,0.0,E,,*2E
$GPRMC,172821.0,V,4741.20339,N,12224.26770,W,,,201013,016.6,E,N*0E
$PGRME,,M,,M,,M*00
$IIDPT,006.7,-1.0,*41
$IIMTW,+08.5,C*35
$HCHDG,271.4,0.0,E,,*29
$IIMWV,085,R,03.3,N,A*1E
$IIMWV,083,T,03.1,N,A*1C
$HCHDG,271.5,0.0,E,,*28
$PTAK,FFP1,HEEL,@*07
$GPRMC,172821.2,V,4741.20339,N,12224.26770,W,,,201013,016.6,E,N*0C
$PGRME,,M,,M,,M*00
$YXXDR,A,5.8,D,PTCH,A,7.5,D,ROLL*52
$HCHDG,271.3,0.0,E,,*2E
$HCHDG,271.4,0.0,E,,*29
$GPRMC,172821.4,V,4741.20339,N,12224.26770,W,,,201013,016.6,E,N*0A
$PGRME,,M,,M,,M*00
$HCHDG,271.4,0.0,E,,*29
$HCHDG,271.5,0.0,E,,*28
$GPRMC,172821.6,V,4741.20339,N,12224.26770,W,,,201013,016.6,E,N*08
$PGRME,,M,,M,,M*00
$HCHDG,271.5,0.0,E,,*28
$YXXDR,A,5.6,D,PTCH,A,6.5,D,ROLL*5D
$PTAK,FFD1,6.5*56
$GPRMC,172821.8,V,4741.20339,N,12224.26770,W,,,201013,016.6,E,N*06
$PGRME,,M,,M,,M*00
$HCHDG,271.6,0.0,E,,*2B
$IIVHW,,,,,00.0,N,,*19
$HCHDG,271.5,0.0,E,,*28
$IIVLW,06392,N,000.0,N*5D
$IIVWR,088,R,03.0,N,,,,*62
$HCHDG,271.6,0.0,E,,*2B
$GPRMC,172822.0,V,4741.20339,N,12224.26770,W,,,201013,016.6,E,N*0D
$PGRME,,M,,M,,M*00
$IIDPT,006.7,-1.0,*41
$IIMTW,+09.0,C*31
$HCHDG,271.7,0.0,E,,*2A
$IIMWV,088,R,03.0,N,A*10
$IIMWV,085,T,03.3,N,A*18
$HCHDG,271.7,0.0,E,,*2A
$GPRMC,172822.2,V,4741.20339,N,12224.26770,W,,,201013,016.6,E,N*0F
$PGRME,,M,,M,,M*00
$YXXDR,A,5.6,D,PTCH,A,6.0,D,ROLL*58
$HCHDG,271.8,0.0,E,,*25
$HCHDG,271.7,0.0,E,,*2A
$GPRMC,172822.4,V,4741.20339,N,12224.26770,W,,,201013,016.6,E,N*09
$PGRME,,M,,M,,M*00
$HCHDG,271.9,0.0,E,,*24
$HCHDG,271.9,0.0,E,,*24
$GPRMC,172822.6,V,4741.20339,N,12224.26770,W,,,201013,016.6,E,N*0B
$PGRME,,M,,M,,M*00
$HCHDG,271.9,0.0,E,,*24
$YXXDR,A,5.6,D,PTCH,A,5.6,D,ROLL*5D
$GPRMC,172822.8,V,4741.20339,N,12224.26770,W,,,201013,016.6,E,N*05
$PGRME,,M,,M,,M*00
$HCHDG,271.9,0.0,E,,*24
$IIVHW,,,,,00.0,N,,*19
$HCHDG,271.9,0.0,E,,*24
$IIVLW,06392,N,000.0,N*5D
$IIVWR,084,R,03.1,N,,,,*6F
$HCHDG,271.9,0.0,E,,*24
$GPRMC,172823.0,V,4741.20339,N,12224.26770,W,,,201013,016.6,E,N*0C
$PGRME,,M,,M,,M*00
$IIDPT,006.7,-1.0,*41
$IIMTW,+09.0,C*31
$HCHDG,272.0,0.0,E,,*2E
$IIMWV,084,R,03.1,N,A*1D
$IIMWV,088,T,03.0,N,A*16
$HCHDG,272.0,0.0,E,,*2E
$GPRMC,172823.2,V,4741.20339,N,12224.26770,W,,,201013,016.6,E,N*0E
$PGRME,,M,,M,,M*00
$YXXDR,A,5.6,D,PTCH,A,6.2,D,ROLL*5A
$PTAK,FFD1,6.2*51
$HCHDG,272.0,0.0,E,,*2E
$HCHDG,272.1,0.0,E,,*2F
$GPRMC,172823.4,V,4741.20339,N,12224.26770,W,,,201013,016.6,E,N*08
$PGRME,,M,,M,,M*00
$HCHDG,272.1,0.0,E,,*2F
$HCHDG,272.1,0.0,E,,*2F
$GPRMC,172823.6,V,4741.20339,N,12224.26770,W,,,201013,016.6,E,N*0A
$PGRME,,M,,M,,M*00
$HCHDG,272.1,0.0,E,,*2F
$YXXDR,A,5.5,D,PTCH,A,7.2,D,ROLL*58
$GPRMC,172823.8,V,4741.20339,N,12224.26770,W,,,201013,016.6,E,N*04
$PGRME,,M,,M,,M*00
$HCHDG,272.2,0.0,E,,*2C
$IIVHW,,,,,00.0,N,,*19
$HCHDG,272.3,0.0,E,,*2D
$IIVLW,06392,N,000.0,N*5D
$IIVWR,083,R,02.8,N,,,,*60
$HCHDG,272.4,0.0,E,,*2A
$GPRMC,172824.0,V,4741.20339,N,12224.26770,W,,,201013,016.6,E,N*0B
$PGRME,,M,,M,,M*00
$IIDPT,006.7,-1.0,*41
$IIMTW,+09.0,C*31
$HCHDG,272.5,0.0,E,,*2B
$IIMWV,083,R,02.8,N,A*12
$IIMWV,084,T,03.1,N,A*1B
$HCHDG,272.4,0.0,E,,*2A
$GPRMC,172824.2,V,4741.20339,N,12224.26770,W,,,201013,016.6,E,N*09
$PGRME,,M,,M,,M*00
$YXXDR,A,5.6,D,PTCH,A,7.6,D,ROLL*5F
$PTAK,FFD1,7.6*54
$HCHDG,272.2,0.0,E,,*2C
$HCHDG,272.3,0.0,E,,*2D
$GPRMC,172824.4,V,4741.20339,N,12224.26770,W,,,201013,016.6,E,N*0F
$PGRME,,M,,M,,M*00
$HCHDG,272.3,0.0,E,,*2D
$HCHDG,272.3,0.0,E,,*2D
$GPRMC,172824.6,V,4741.20339,N,12224.26770,W,,,201013,016.6,E,N*0D
$PGRME,,M,,M,,M*00
$HCHDG,272.3,0.0,E,,*2D
$YXXDR,A,5.6,D,PTCH,A,7.8,D,ROLL*51
$GPRMC,172824.8,V,4741.20339,N,12224.26770,W,,,201013,016.6,E,N*03
$PGRME,,M,,M,,M*00
$HCHDG,272.2,0.0,E,,*2C
$IIVHW,,,,,00.0,N,,*19
$HCHDG,272.2,0.0,E,,*2C
$IIVLW,06392,N,000.0,N*5D
$IIVWR,075,R,02.7,N,,,,*66
$HCHDG,272.2,0.0,E,,*2C
$GPRMC,172825.0,V,4741.20339,N,12224.26770,W,,,201013,016.6,E,N*0A
$PGRME,,M,,M,,M*00
$IIDPT,006.7,-1.0,*41
$IIMTW,+09.0,C*31
$HCHDG,272.1,0.0,E,,*2F
$IIMWV,075,R,02.7,N,A*14
$IIMWV,083,T,02.8,N,A*14
$HCHDG,272.1,0.0,E,,*2F
$PTAK,FFP1,HEEL,@*07
$GPRMC,172825.2,V,4741.20339,N,12224.26770,W,,,201013,016.6,E,N*08
$PGRME,,M,,M,,M*00
$YXXDR,A,5.7,D,PTCH,A,7.4,D,ROLL*5C
$PTAK,FFD1,7.4*56
$HCHDG,272.0,0.0,E,,*2E
$HCHDG,271.9,0.0,E,,*24
$GPRMC,172825.4,V,4741.20339,N,12224.26770,W,,,201013,016.6,E,N*0E
$PGRME,,M,,M,,M*00
$HCHDG,271.9,0.0,E,,*24
$HCHDG,272.0,0.0,E,,*2E
$GPRMC,172825.6,V,4741.20339,N,12224.26770,W,,,201013,016.6,E,N*0C
$PGRME,,M,,M,,M*00
$HCHDG,272.1,0.0,E,,*2F
$YXXDR,A,5.8,D,PTCH,A,6.4,D,ROLL*52
$GPRMC,172825.8,V,4741.20339,N,12224.26770,W,,,201013,016.6,E,N*02
$PGRME,,M,,M,,M*00
$HCHDG,271.9,0.0,E,,*24
$IIVHW,,,,,00.0,N,,*19
$HCHDG,271.9,0.0,E,,*24
$IIVLW,06392,N,000.0,N*5D
$IIVWR,062,R,02.5,N,,,,*62
$HCHDG,272.0,0.0,E,,*2E
$GPRMC,172826.0,V,4741.20339,N,12224.26770,W,,,201013,016.6,E,N*09
$PGRME,,M,,M,,M*00
$IIDPT,006.7,-1.0,*41
$IIMTW,+09.0,C*31
$HCHDG,271.6,0.0,E,,*2B
$IIMWV,062,R,02.5,N,A*10
$IIMWV,075,T,02.7,N,A*12
$HCHDG,271.6,0.0,E,,*2B
$GPRMC,172826.2,V,4741.20339,N,12224.26770,W,,,201013,016.6,E,N*0B
$PGRME,,M,,M,,M*00
$YXXDR,A,5.7,D,PTCH,A,5.7,D,ROLL*5D
$PTAK,FFD1,5.7*57
$HCHDG,271.6,0.0,E,,*2B
$HCHDG,271.5,0.0,E,,*28
$GPRMC,172826.4,V,4741.20339,N,12224.26770,W,,,201013,016.6,E,N*0D
$PGRME,,M,,M,,M*00
$HCHDG,271.4,0.0,E,,*29
$HCHDG,271.4,0.0,E,,*29
$GPRMC,172826.6,V,4741.20339,N,12224.26770,W,,,201013,016.6,E,N*0F
$PGRME,,M,,M,,M*00
$HCHDG,271.4,0.0,E,,*29
$YXXDR,A,5.5,D,PTCH,A,5.7,D,ROLL*5F
$GPRMC,172826.8,V,4741.20339,N,12224.26770,W,,,201013,016.6,E,N*01
$PGRME,,M,,M,,M*00
$HCHDG,271.4,0.0,E,,*29
$IIVHW,,,,,00.0,N,,*19
$HCHDG,271.3,0.0,E,,*2E
$IIVLW,06392,N,000.0,N*5D
$IIVWR,052,R,02.4,N,,,,*60
$HCHDG,271.3,0.0,E,,*2E
$GPRMC,172827.0,V,4741.20339,N,12224.26770,W,,,201013,016.6,E,N*08
$PGRME,,M,,M,,M*00
$IIDPT,006.7,-1.0,*41
$IIMTW,+09.0,C*31
$HCHDG,271.2,0.0,E,,*2F
$IIMWV,052,R,02.4,N,A*12
$IIMWV,062,T,02.5,N,A*16
$HCHDG,271.2,0.0,E,,*2F
$GPRMC,172827.2,V,4741.20339,N,12224.26770,W,,,201013,016.6,E,N*0A
$PGRME,,M,,M,,M*00
$YXXDR,A,5.6,D,PTCH,A,6.0,D,ROLL*58
$HCHDG,271.2,0.0,E,,*2F
$HCHDG,271.2,0.0,E,,*2F
$GPRMC,172827.4,V,4741.20339,N,12224.26770,W,,,201013,016.6,E,N*0C
$PGRME,,M,,M,,M*00
$HCHDG,271.2,0.0,E,,*2F
$HCHDG,271.2,0.0,E,,*2F
$GPRMC,172827.6,V,4741.20339,N,12224.26770,W,,,201013,016.6,E,N*0E
$PGRME,,M,,M,,M*00
$HCHDG,271.2,0.0,E,,*2F
$YXXDR,A,5.7,D,PTCH,A,6.6,D,ROLL*5F
$GPRMC,172827.8,V,4741.20339,N,12224.26770,W,,,201013,016.6,E,N*00
$PGRME,,M,,M,,M*00
$HCHDG,271.1,0.0,E,,*2C
$IIVHW,,,,,00.0,N,,*19
$HCHDG,271.3,0.0,E,,*2E
$IIVLW,06392,N,000.0,N*5D
$IIVWR,061,R,02.3,N,,,,*67
$HCHDG,271.3,0.0,E,,*2E
$GPRMC,172828.0,V,4741.20339,N,12224.26770,W,,,201013,016.6,E,N*07
$PGRME,,M,,M,,M*00
$IIDPT,006.7,-1.0,*41
$IIMTW,+09.0,C*31
$HCHDG,271.3,0.0,E,,*2E
$IIMWV,061,R,02.3,N,A*15
$IIMWV,052,T,02.4,N,A*14
$HCHDG,271.3,0.0,E,,*2E
$GPRMC,172828.2,V,4741.20339,N,12224.26770,W,,,201013,016.6,E,N*05
$PGRME,,M,,M,,M*00
$YXXDR,A,5.5,D,PTCH,A,6.9,D,ROLL*52
$PTAK,FFD1,6.9*5A
$HCHDG,271.0,0.0,E,,*2D
$HCHDG,271.0,0.0,E,,*2D
$GPRMC,172828.4,V,4741.20339,N,12224.26770,W,,,201013,016.6,E,N*03
$PGRME,,M,,M,,M*00
$HCHDG,271.3,0.0,E,,*2E
$HCHDG,271.2,0.0,E,,*2F
$GPRMC,172828.6,V,4741.20339,N,12224.26770,W,,,201013,016.6,E,N*01
$PGRME,,M,,M,,M*00
$HCHDG,271.2,0.0,E,,*2F
$YXXDR,A,5.9,D,PTCH,A,7.2,D,ROLL*54
$GPRMC,172828.8,V,4741.20339,N,12224.26770,W,,,201013,016.6,E,N*0F
$PGRME,,M,,M,,M*00
$HCHDG,271.2,0.0,E,,*2F
$IIVHW,,,,,00.0,N,,*19
$HCHDG,271.2,0.0,E,,*2F
$IIVLW,06392,N,000.0,N*5D
$IIVWR,054,R,02.4,N,,,,*66
$HCHDG,271.2,0.0,E,,*2F
$GPRMC,172829.0,V,4741.20339,N,12224.26770,W,,,201013,016.6,E,N*06
$PGRME,,M,,M,,M*00
$IIDPT,006.7,-1.0,*41
$IIMTW,+09.0,C*31
$HCHDG,271.2,0.0,E,,*2F
$IIMWV,054,R,02.4,N,A*14
$IIMWV,061,T,02.3,N,A*13
$HCHDG,271.0,0.0,E,,*2D
$GPRMC,172829.2,V,4741.20339,N,12224.26770,W,,,201013,016.6,E,N*04
$PTAK,FFP1,HEEL,@*07
$PGRME,,M,,M,,M*00
$YXXDR,A,5.9,D,PTCH,A,6.2,D,ROLL*55
$HCHDG,271.0,0.0,E,,*2D
$HCHDG,271.0,0.0,E,,*2D
$GPRMC,172829.4,V,4741.20339,N,12224.26770,W,,,201013,016.6,E,N*02
$PGRME,,M,,M,,M*00
$HCHDG,270.7,0.0,E,,*2B
$HCHDG,270.6,0.0,E,,*2A
$GPRMC,172829.6,V,4741.20339,N,12224.26770,W,,,201013,016.6,E,N*00
$PGRME,,M,,M,,M*00
$HCHDG,270.5,0.0,E,,*29
$YXXDR,A,5.4,D,PTCH,A,5.2,D,ROLL*5B
$PTAK,FFD1,5.2*52
$GPRMC,172829.8,V,4741.20339,N,12224.26770,W,,,201013,016.6,E,N*0E
$PGRME,,M,,M,,M*00
$HCHDG,270.4,0.0,E,,*28
$IIVHW,,,,,00.0,N,,*19
$HCHDG,270.4,0.0,E,,*28
$IIVLW,06392,N,000.0,N*5D
$IIVWR,040,R,02.0,N,,,,*67
$HCHDG,270.2,0.0,E,,*2E
$GPRMC,172830.0,V,4741.20339,N,12224.26770,W,,,201013,016.6,E,N*0E
$PGRME,,M,,M,,M*00
$IIDPT,006.7,-1.0,*41
$IIMTW,+09.0,C*31
$HCHDG,269.9,0.0,E,,*2D
$IIMWV,040,R,02.0,N,A*15
$IIMWV,054,T,02.4,N,A*12
$HCHDG,269.9,0.0,E,,*2D
$GPRMC,172830.2,V,4741.20339,N,12224.26770,W,,,201013,016.6,E,N*0C
$PGRME,,M,,M,,M*00
$YXXDR,A,5.2,D,PTCH,A,4.6,D,ROLL*58
$HCHDG,269.9,0.0,E,,*2D
$HCHDG,269.8,0.0,E,,*2C
$GPRMC,172830.4,V,4741.20339,N,12224.26770,W,,,201013,016.6,E,N*0A
$PGRME,,M,,M,,M*00
$HCHDG,269.6,0.0,E,,*22
$HCHDG,269.7,0.0,E,,*23
$GPRMC,172830.6,V,4741.20339,N,12224.26770,W,,,201013,016.6,E,N*08
$PGRME,,M,,M,,M*00
$HCHDG,269.6,0.0,E,,*22
$YXXDR,A,5.6,D,PTCH,A,4.4,D,ROLL*5E
$PTAK,FFD1,4.4*55
$GPRMC,172830.8,V,4741.20339,N,12224.26770,W,,,201013,016.6,E,N*06
$PGRME,,M,,M,,M*00
$HCHDG,269.5,0.0,E,,*21
$IIVHW,,,,,00.0,N,,*19
$HCHDG,269.6,0.0,E,,*22
$IIVLW,06392,N,000.0,N*5D
$IIVWR,041,R,02.1,N,,,,*67
$HCHDG,269.5,0.0,E,,*21
$GPRMC,172831.0,V,4741.20339,N,12224.26770,W,,,201013,016.6,E,N*0F
$PGRME,,M,,M,,M*00
$IIDPT,006.7,-1.0,*41
$IIMTW,+09.0,C*31
$HCHDG,269.5,0.0,E,,*21
$IIMWV,041,R,02.1,N,A*15
$IIMWV,040,T,02.0,N,A*13
$HCHDG,269.5,0.0,E,,*21
$GPRMC,172831.2,V,4741.20339,N,12224.26770,W,,,201013,016.6,E,N*0D
$PGRME,,M,,M,,M*00
$YXXDR,A,5.5,D,PTCH,A,5.0,D,ROLL*58
$HCHDG,269.6,0.0,E,,*22
$HCHDG,269.5,0.0,E,,*21
$GPRMC,172831.4,V,4741.20339,N,12224.26770,W,,,201013,016.6,E,N*0B
$PGRME,,M,,M,,M*00
$HCHDG,269.4,0.0,E,,*20
$HCHDG,269.4,0.0,E,,*20
$GPRMC,172831.6,V,4741.20339,N,12224.26770,W,,,201013,016.6,E,N*09
$PGRME,,M,,M,,M*00
$HCHDG,269.4,0.0,E,,*20
$YXXDR,A,5.5,D,PTCH,A,6.0,D,ROLL*5B
$PTAK,FFD1,6.0*53
$GPRMC,172831.8,V,4741.20339,N,12224.26770,W,,,201013,016.6,E,N*07
$PGRME,,M,,M,,M*00
$HCHDG,269.4,0.0,E,,*20
$IIVHW,,,,,00.0,N,,*19
$HCHDG,269.3,0.0,E,,*27
$IIVLW,06392,N,000.0,N*5D
$IIVWR,053,R,02.1,N,,,,*64
$HCHDG,269.4,0.0,E,,*20
$GPRMC,172832.0,V,4741.20339,N,12224.26770,W,,,201013,016.6,E,N*0C
$PGRME,,M,,M,,M*00
$IIDPT,006.7,-1.0,*41
$IIMTW,+09.0,C*31
$HCHDG,269.5,0.0,E,,*21
$IIMWV,053,R,02.1,N,A*16
$IIMWV,041,T,02.1,N,A*13
$HCHDG,269.4,0.0,E,,*20
$GPRMC,172832.2,V,4741.20339,N,12224.26770,W,,,201013,016.6,E,N*0E
$PGRME,,M,,M,,M*00
$YXXDR,A,5.5,D,PTCH,A,6.7,D,ROLL*5C
$HCHDG,269.5,0.0,E,,*21
$HCHDG,269.4,0.0,E,,*20
$GPRMC,172832.4,V,4741.20339,N,12224.26770,W,,,201013,016.6,E,N*08
$PGRME,,M,,M,,M*00
$HCHDG,269.4,0.0,E,,*20
$HCHDG,269.5,0.0,E,,*21
$GPRMC,172832.6,V,4741.20339,N,12224.26770,W,,,201013,016.6,E,N*0A
$PGRME,,M,,M,,M*00
$HCHDG,269.5,0.0,E,,*21
$YXXDR,A,5.4,D,PTCH,A,6.1,D,ROLL*5B
$GPRMC,172832.8,V,4741.20339,N,12224.26770,W,,,201013,016.6,E,N*04
$PGRME,,M,,M,,M*00
$HCHDG,269.6,0.0,E,,*22
$IIVHW,,,,,00.0,N,,*19
$HCHDG,269.6,0.0,E,,*22
$IIVLW,06392,N,000.0,N*5D
$IIVWR,050,R,02.2,N,,,,*64
$HCHDG,269.7,0.0,E,,*23
$IIDPT,006.7,-1.0,*41
$GPRMC,172833.0,V,4741.20339,N,12224.26770,W,,,201013,016.6,E,N*0D
$PGRME,,M,,M,,M*00
$IIMTW,+09.0,C*31
$HCHDG,269.8,0.0,E,,*2C
$IIMWV,050,R,02.2,N,A*16
$IIMWV,053,T,02.1,N,A*10
$HCHDG,269.6,0.0,E,,*22
$YXXDR,A,5.5,D,PTCH,A,5.3,D,ROLL*5B
$PTAK,FFD1,5.3*53
$PTAK,FFP1,HEEL,@*07
$GPRMC,172833.4,A,4741.19824,N,12224.26055,W,000.38,000.0,201013,016.6,E,A*27
$PGRME,137.5,M,21935.6,M,21936.1,M*2A
$HCHDG,269.7,0.0,E,,*23
$HCHDG,269.7,0.0,E,,*23
$GPRMC,172833.6,A,4741.20091,N,12224.26672,W,001.22,304.5,201013,016.6,E,A*22
$PGRME,86.2,M,,M,8017.8,M*0A
$HCHDG,269.7,0.0,E,,*23
$HCHDG,269.8,0.0,E,,*2C
$GPRMC,172833.8,A,4741.20368,N,12224.27068,W,001.19,304.4,201013,016.6,E,A*2C
$PGRME,65.2,M,,M,4266.4,M*03
$HCHDG,269.9,0.0,E,,*2D
$YXXDR,A,5.4,D,PTCH,A,4.2,D,ROLL*5A
$HCHDG,269.9,0.0,E,,*2D
$GPRMC,172834.0,A,4741.20350,N,12224.26869,W,000.91,303.8,201013,016.6,E,A*2A
$GPRMB,A,0.20,L,,Shil,4741.0830,N,12224.5670,W,0.2,239,0.39,V*38
$PGRME,41.3,M,,M,2115.0,M*01
$HCHDG,269.8,0.0,E,,*2C
$IIRMC,172800,A,4741.200,N,12224.266,W,01.2,304,201013,16,E,A*11
$IIVHW,,,,,00.0,N,,*19
$HCHDG,270.0,0.0,E,,*2C
$IIVLW,06392,N,000.0,N*5D
$GPRMC,172834.2,A,4741.20120,N,12224.26540,W,000.24,303.8,201013,016.6,E,A*25
$PGRME,33.9,M,1734.7,M,1735.0,M*11
$HCHDG,270.0,0.0,E,,*2C
$IIVWR,046,R,02.1,N,,,,*60
$IIDPT,006.7,-1.0,*41
$HCHDG,270.0,0.0,E,,*2C
$IIGLL,4741.200,N,12224.266,W,172800,A,A*4F
$GPRMC,172834.4,A,4741.20073,N,12224.26357,W,000.21,303.8,201013,016.6,E,A*21
$YXXDR,A,5.2,D,PTCH,A,4.2,D,ROLL*5C
$PTAK,FFD1,4.2*53
$PGRME,29.8,M,1492.0,M,1492.3,M*1E
$IIMTW,+09.0,C*31
$HCHDG,270.0,0.0,E,,*2C
$IIMWV,046,R,02.1,N,A*12
$HCHDG,270.0,0.0,E,,*2C
$IIMWV,050,T,02.2,N,A*10
$GPRMC,172834.6,A,4741.20142,N,12224.26360,W,000.17,303.8,201013,016.6,E,A*21
$PGRME,25.9,M,1277.5,M,1277.8,M*1D
$HCHDG,269.7,0.0,E,,*23
$HCHDG,269.8,0.0,E,,*2C
$GPRMC,172834.8,A,4741.20102,N,12224.26181,W,000.14,303.8,201013,016.6,E,A*25
$PGRME,23.4,M,983.3,M,983.6,M*1E
$HCHDG,269.8,0.0,E,,*2C
$YXXDR,A,5.1,D,PTCH,A,4.7,D,ROLL*5A
$HCHDG,269.8,0.0,E,,*2C
$GPRMC,172835.0,A,4741.20135,N,12224.26090,W,000.14,303.8,201013,016.6,E,A*29
$PGRME,21.2,M,796.1,M,796.4,M*1A
$HCHDG,269.8,0.0,E,,*2C
$IIRMB,A,0.20,L,,Shil,,,,,000.2,239,,V,A*71
$HCHDG,270.0,0.0,E,,*2C
$IIRMC,172800,A,4741.201,N,12224.263,W,00.1,303,201013,16,E,A*10
$GPRMC,172835.2,A,4741.20230,N,12224.26290,W,000.15,303.8,201013,016.6,E,A*2E
$GPRMB,A,0.20,L,,Shil,4741.0830,N,12224.5670,W,0.2,240,0.07,V*3B
$PGRME,18.0,M,666.5,M,666.7,M*15
$IIVHW,,,,,00.0,N,,*19
$HCHDG,270.0,0.0,E,,*2C
$IIVLW,06392,N,000.0,N*5D
$HCHDG,270.0,0.0,E,,*2C
$IIVWR,052,R,02.2,N,,,,*66
$IIDPT,006.7,-1.0,*41
$GPRMC,172835.4,A,4741.20242,N,12224.26269,W,000.18,303.8,201013,016.6,E,A*26
$YXXDR,A,5.2,D,PTCH,A,5.1,D,ROLL*5E
$PTAK,FFD1,5.1*51
$PGRME,16.0,M,543.0,M,543.2,M*1B
$HCHDG,270.0,0.0,E,,*2C
$IIGLL,4741.201,N,12224.263,W,172800,A,A*4B
$IIMTW,+09.0,C*31
$HCHDG,270.0,0.0,E,,*2C
$GPRMC,172835.6,A,4741.20236,N,12224.26192,W,000.17,303.8,201013,016.6,E,A*2F
$PGRME,13.7,M,467.2,M,467.4,M*1D
$HCHDG,270.0,0.0,E,,*2C
$HCHDG,270.0,0.0,E,,*2C
$GPRMC,172835.8,A,4741.20256,N,12224.26261,W,000.15,303.8,201013,016.6,E,A*2A
$PGRME,12.3,M,416.7,M,416.9,M*10
$HCHDG,270.0,0.0,E,,*2C
$YXXDR,A,5.1,D,PTCH,A,5.5,D,ROLL*59
$HCHDG,270.0,0.0,E,,*2C
$IIMWV,061,R,02.3,N,A*15
$GPRMC,172836.0,A,4741.20252,N,12224.26249,W,000.15,303.8,201013,016.6,E,A*2F
$PGRME,11.3,M,356.3,M,356.5,M*1B
$HCHDG,270.0,0.0,E,,*2C
$IIMWV,052,T,02.2,N,A*12
$HCHDG,269.9,0.0,E,,*2D
$IIRMB,A,0.20,L,,Shil,,,,,000.2,240,,V,A*7F
$GPRMC,172836.2,A,4741.20246,N,12224.26181,W,000.14,303.8,201013,016.6,E,A*2E
$PGRME,10.5,M,311.5,M,311.7,M*18
$HCHDG,269.8,0.0,E,,*2C
$IIRMC,172800,A,4741.202,N,12224.261,W,00.1,303,201013,16,E,A*11
$HCHDG,269.8,0.0,E,,*2C
$IIVHW,,,,,00.0,N,,*19
$IIVLW,06392,N,000.0,N*5D
$GPRMC,172836.4,A,4741.20240,N,12224.26196,W,000.11,303.8,201013,016.6,E,A*2D
$GPRMB,A,0.21,L,,Shil,4741.0830,N,12224.5670,W,0.2,240,0.05,V*38
$YXXDR,A,5.3,D,PTCH,A,5.8,D,ROLL*56
$PTAK,FFD1,5.8*58
$PGRME,10.0,M,279.3,M,279.5,M*19
$IIVWR,061,R,02.3,N,,,,*67
$HCHDG,269.5,0.0,E,,*21
$IIDPT,006.7,-1.0,*41
$HCHDG,269.5,0.0,E,,*21
$GPRMC,172836.6,A,4741.20267,N,12224.26191,W,000.12,303.8,201013,016.6,E,A*2E
$PGRME,9.7,M,246.3,M,246.5,M*26
$HCHDG,269.4,0.0,E,,*20
$HCHDG,269.4,0.0,E,,*20
$GPRMC,172836.8,A,4741.20259,N,12224.26191,W,000.08,303.8,201013,016.6,E,A*26
$PGRME,9.5,M,222.1,M,222.3,M*20
$HCHDG,269.4,0.0,E,,*20
$YXXDR,A,5.6,D,PTCH,A,5.1,D,ROLL*5A
$HCHDG,269.6,0.0,E,,*22
$GPRMC,172837.0,A,4741.20241,N,12224.26186,W,000.07,303.8,201013,016.6,E,A*2F
$PGRME,9.3,M,203.3,M,203.5,M*22
$IIGLL,4741.202,N,12224.261,W,172800,A,A*4A
$HCHDG,269.5,0.0,E,,*21
$IIMTW,+09.0,C*31
$IIMWV,065,R,02.2,N,A*10
$HCHDG,269.4,0.0,E,,*20
$IIMWV,061,T,02.3,N,A*13
$GPRMC,172837.2,A,4741.20241,N,12224.26183,W,000.07,303.8,201013,016.6,E,A*28
$PGRME,9.2,M,188.1,M,188.3,M*27
$HCHDG,269.5,0.0,E,,*21
$IIRMB,A,0.21,L,,Shil,,,,,000.2,240,,V,A*7E
$HCHDG,269.5,0.0,E,,*21
$GPRMC,172837.4,A,4741.20225,N,12224.26151,W,000.06,303.8,201013,016.6,E,A*22
$PTAK,FFP1,HEEL,@*07
$PGRME,9.0,M,175.4,M,175.7,M*24
$IIRMC,172800,A,4741.202,N,12224.261,W,00.1,303,201013,16,E,A*11
$YXXDR,A,5.4,D,PTCH,A,4.7,D,ROLL*5F
$IIVHW,,,,,00.0,N,,*19
$HCHDG,269.5,0.0,E,,*21
$IIVLW,06392,N,000.0,N*5D
$HCHDG,269.3,0.0,E,,*27
$GPRMC,172837.6,A,4741.20219,N,12224.26124,W,000.09,303.8,201013,016.6,E,A*22
$GPRMB,A,0.21,L,,Shil,4741.0830,N,12224.5670,W,0.2,240,0.04,V*39
$PGRME,8.9,M,163.6,M,163.8,M*21
$HCHDG,269.3,0.0,E,,*27
$HCHDG,269.3,0.0,E,,*27
$GPRMC,172837.8,A,4741.20227,N,12224.26115,W,000.08,303.8,201013,016.6,E,A*22
$PGRME,8.8,M,149.5,M,149.8,M*23
$HCHDG,269.2,0.0,E,,*26
$YXXDR,A,5.4,D,PTCH,A,4.4,D,ROLL*5C
$PTAK,FFD1,4.4*55
$HCHDG,269.1,0.0,E,,*25
$GPRMC,172838.0,A,4741.20221,N,12224.26108,W,000.16,303.8,201013,016.6,E,A*20
$IIVWR,064,R,02.2,N,,,,*63
$PGRME,8.7,M,138.2,M,138.5,M*26
$HCHDG,269.1,0.0,E,,*25
$IIDPT,006.7,-1.0,*41
$HCHDG,269.0,0.0,E,,*24
$IIGLL,4741.202,N,12224.261,W,172800,A,A*4A
$IIMTW,+09.0,C*31
$GPRMC,172838.2,A,4741.20207,N,12224.26059,W,000.18,303.8,201013,016.6,E,A*2D
$PGRME,8.3,M,125.3,M,125.6,M*20
$HCHDG,269.1,0.0,E,,*25
$IIMWV,064,R,02.2,N,A*11
$IIMWV,065,T,02.2,N,A*16
$HCHDG,269.1,0.0,E,,*25
$IIRMB,A,0.21,L,,Shil,,,,,000.2,240,,V,A*7E
$GPRMC,172838.4,A,4741.20209,N,12224.26056,W,000.15,303.8,201013,016.6,E,A*27
$PGRME,7.9,M,112.7,M,113.0,M*26
$YXXDR,A,5.4,D,PTCH,A,4.4,D,ROLL*5C
$HCHDG,269.0,0.0,E,,*24
$IIRMC,172800,A,4741.202,N,12224.261,W,00.0,303,201013,16,E,A*10
$HCHDG,268.9,0.0,E,,*2C
$GPRMC,172838.6,A,4741.20204,N,12224.26061,W,000.13,303.8,201013,016.6,E,A*2A
$GPRMB,A,0.21,L,,Shil,4741.0830,N,12224.5670,W,0.2,240,0.06,V*3B
$PGRME,7.7,M,105.0,M,105.3,M*2D
$HCHDG,268.8,0.0,E,,*2D
$HCHDG,268.8,0.0,E,,*2D
$GPRMC,172838.8,A,4741.20193,N,12224.26034,W,000.10,303.8,201013,016.6,E,A*2A
$PGRME,7.5,M,97.6,M,97.9,M*23
$HCHDG,268.7,0.0,E,,*22
$YXXDR,A,5.4,D,PTCH,A,4.9,D,ROLL*51
$HCHDG,268.8,0.0,E,,*2D
$IIVHW,,,,,00.0,N,,*19
$GPRMC,172839.0,A,4741.20183,N,12224.26049,W,000.09,303.8,201013,016.6,E,A*20
$PGRME,7.3,M,91.2,M,91.5,M*2D
$HCHDG,268.7,0.0,E,,*22
$IIVLW,06392,N,000.0,N*5D
$IIVWR,069,R,01.9,N,,,,*66
$HCHDG,268.6,0.0,E,,*23
$IIDPT,006.7,-1.0,*41
$GPRMC,172839.2,A,4741.20159,N,12224.26043,W,000.05,303.8,201013,016.6,E,A*23
$PGRME,7.0,M,84.5,M,84.8,M*24
$HCHDG,268.6,0.0,E,,*23
$IIGLL,4741.202,N,12224.260,W,172800,A,A*4B
$IIMTW,+09.0,C*31
$HCHDG,268.9,0.0,E,,*2C
$IIMWV,069,R,01.9,N,A*14
$IIMWV,064,T,02.2,N,A*17
$GPRMC,172839.4,A,4741.20147,N,12224.26015,W,000.01,303.8,201013,016.6,E,A*2D
$YXXDR,A,5.5,D,PTCH,A,5.3,D,ROLL*5B
$PTAK,FFD1,5.3*53
$PGRME,6.9,M,79.6,M,79.9,M*2E
$HCHDG,268.9,0.0,E,,*2C
$IIRMB,A,0.21,L,,Shil,,,,,000.2,240,,V,A*7E
$HCHDG,268.9,0.0,E,,*2C
$GPRMC,172839.6,A,4741.20131,N,12224.26005,W,000.07,303.8,201013,016.6,E,A*29
$PGRME,6.7,M,75.1,M,75.4,M*2A
$HCHDG,268.7,0.0,E,,*22
$HCHDG,268.8,0.0,E,,*2D
$GPRMC,172839.8,A,4741.20106,N,12224.25971,W,000.08,303.8,201013,016.6,E,A*25
$GPRMB,A,0.21,L,,Shil,4741.0830,N,12224.5670,W,0.2,240,0.04,V*39
$PGRME,6.5,M,69.5,M,69.8,M*20
$HCHDG,268.9,0.0,E,,*2C
$YXXDR,A,5.2,D,PTCH,A,5.4,D,ROLL*5B
$HCHDG,268.9,0.0,E,,*2C
$GPRMC,172840.0,A,4741.20070,N,12224.25905,W,000.07,303.8,201013,016.6,E,A*2F
$PGRME,6.3,M,64.7,M,65.0,M*2D
$HCHDG,268.9,0.0,E,,*2C
$IIRMC,172800,A,4741.201,N,12224.260,W,00.0,303,201013,16,E,A*12
$IIVHW,,,,,00.0,N,,*19
$HCHDG,269.0,0.0,E,,*24
$IIVLW,06392,N,000.0,N*5D
$GPRMC,172840.2,A,4741.20028,N,12224.25868,W,000.07,303.8,201013,016.6,E,A*2A
$PGRME,6.1,M,60.6,M,60.9,M*26
$HCHDG,269.1,0.0,E,,*25
$IIVWR,072,R,02.0,N,,,,*66
$IIDPT,006.7,-1.0,*41
$HCHDG,269.2,0.0,E,,*26
$IIGLL,4741.201,N,12224.260,W,172800,A,A*48
$GPRMC,172840.4,A,4741.20013,N,12224.25837,W,000.09,303.8,201013,016.6,E,A*20
$YXXDR,A,5.3,D,PTCH,A,5.0,D,ROLL*5E
$PTAK,FFD1,5.0*50
$PGRME,6.0,M,57.0,M,57.3,M*2B
$IIMTW,+09.0,C*31
$HCHDG,269.2,0.0,E,,*26
$IIMWV,072,R,02.0,N,A*14
$HCHDG,269.2,0.0,E,,*26
$IIMWV,069,T,01.9,N,A*12
$GPRMC,172840.6,A,4741.20003,N,12224.25827,W,000.09,303.8,201013,016.6,E,A*22
$PGRME,5.9,M,54.5,M,54.8,M*2F
$HCHDG,269.3,0.0,E,,*27
$HCHDG,269.3,0.0,E,,*27
$GPRMC,172840.8,A,4741.20003,N,12224.25819,W,000.09,303.8,201013,016.6,E,A*21
$PGRME,5.8,M,52.3,M,52.6,M*26
$HCHDG,269.3,0.0,E,,*27
$YXXDR,A,5.5,D,PTCH,A,5.0,D,ROLL*58
$HCHDG,269.5,0.0,E,,*21
$GPRMC,172841.0,A,4741.20011,N,12224.25812,W,000.09,303.8,201013,016.6,E,A*20
$GPRMB,A,0.21,L,,Shil,4741.0830,N,12224.5670,W,0.2,241,0.04,V*38
$PGRME,5.7,M,50.0,M,50.3,M*2F
$HCHDG,269.5,0.0,E,,*21
$IIRMB,A,0.21,L,,Shil,,,,,000.2,240,,V,A*7E
$HCHDG,269.4,0.0,E,,*20
$IIRMC,172800,A,4741.200,N,12224.258,W,00.0,303,201013,16,E,A*18
$GPRMC,172841.2,A,4741.20005,N,12224.25805,W,000.09,303.8,201013,016.6,E,A*21
$PGRME,5.6,M,48.0,M,48.3,M*2E
$IIVHW,,,,,00.0,N,,*19
$HCHDG,269.5,0.0,E,,*21
$IIVLW,06392,N,000.0,N*5D
$HCHDG,269.5,0.0,E,,*21
$IIVWR,074,R,01.7,N,,,,*64
$IIDPT,006.7,-1.0,*41
$GPRMC,172841.4,A,4741.20004,N,12224.25800,W,000.05,303.8,201013,016.6,E,A*2F
$PTAK,FFP1,HEEL,@*07
$YXXDR,A,5.4,D,PTCH,A,4.9,D,ROLL*51
$PTAK,FFD1,4.9*58
$PGRME,5.6,M,46.0,M,46.4,M*29
$HCHDG,269.6,0.0,E,,*22
$IIGLL,4741.200,N,12224.258,W,172800,A,A*42
$IIMTW,+09.0,C*31
$HCHDG,269.7,0.0,E,,*23
$GPRMC,172841.6,A,4741.20016,N,12224.25812,W,000.07,303.8,201013,016.6,E,A*2F
$PGRME,5.4,M,43.9,M,44.2,M*23
$HCHDG,269.6,0.0,E,,*22
$HCHDG,270.0,0.0,E,,*2C
$GPRMC,172841.8,A,4741.20021,N,12224.25814,W,000.05,303.8,201013,016.6,E,A*21
$PGRME,5.3,M,41.9,M,42.2,M*20
$HCHDG,270.0,0.0,E,,*2C
$YXXDR,A,5.4,D,PTCH,A,4.5,D,ROLL*5D
$HCHDG,270.1,0.0,E,,*2D
$IIMWV,077,R,01.9,N,A*1B
$GPRMC,172842.0,A,4741.20031,N,12224.25812,W,000.07,303.8,201013,016.6,E,A*2F
$GPRMB,A,0.21,L,,Shil,4741.0830,N,12224.5670,W,0.2,241,0.03,V*3F
$PGRME,5.3,M,40.5,M,40.8,M*25
$HCHDG,270.1,0.0,E,,*2D
$IIMWV,074,T,01.7,N,A*10
$HCHDG,270.0,0.0,E,,*2C
$IIRMB,A,0.21,L,,Shil,,,,,000.2,241,,V,A*7F
$GPRMC,172842.2,A,4741.20040,N,12224.25818,W,000.11,303.8,201013,016.6,E,A*26
$PGRME,5.2,M,39.2,M,39.6,M*2D
$HCHDG,270.0,0.0,E,,*2C
$IIRMC,172800,A,4741.200,N,12224.258,W,00.0,303,201013,16,E,A*18
$IIVHW,,,,,00.0,N,,*19
$HCHDG,270.0,0.0,E,,*2C
$IIVLW,06392,N,000.0,N*5D
$GPRMC,172842.4,A,4741.20033,N,12224.25829,W,000.11,303.8,201013,016.6,E,A*26
$PGRME,5.2,M,38.2,M,38.6,M*2D
$YXXDR,A,5.4,D,PTCH,A,4.6,D,ROLL*5E
$PTAK,FFD1,4.6*57
$IIVWR,077,R,01.9,N,,,,*69
$HCHDG,270.0,0.0,E,,*2C
$IIDPT,006.7,-1.0,*41
$HCHDG,270.0,0.0,E,,*2C
$GPRMC,172842.6,A,4741.20033,N,12224.25828,W,000.07,303.8,201013,016.6,E,A*22
$PGRME,5.2,M,38.0,M,38.3,M*2A
$HCHDG,270.1,0.0,E,,*2D
$HCHDG,270.0,0.0,E,,*2C
$GPRMC,172842.8,A,4741.20028,N,12224.25827,W,000.05,303.8,201013,016.6,E,A*2B
$PGRME,5.1,M,37.3,M,37.7,M*2E
$HCHDG,270.4,0.0,E,,*28
$YXXDR,A,5.4,D,PTCH,A,4.7,D,ROLL*5F
$HCHDG,270.4,0.0,E,,*28
$GPRMC,172843.0,A,4741.20033,N,12224.25834,W,000.01,303.8,201013,016.6,E,A*2E
$PGRME,5.1,M,36.4,M,36.8,M*26
$HCHDG,270.4,0.0,E,,*28
$IIGLL,4741.200,N,12224.258,W,172800,A,A*42
$IIMTW,+09.0,C*31
$IIMWV,081,R,01.9,N,A*12
$HCHDG,270.4,0.0,E,,*28
$IIMWV,077,T,01.9,N,A*1D
$GPRMC,172843.2,A,4741.20035,N,12224.25814,W,000.01,303.8,201013,016.6,E,A*28
$GPRMB,A,0.21,L,,Shil,4741.0830,N,12224.5670,W,0.2,241,0.00,V*3C
$PGRME,5.0,M,35.6,M,35.9,M*24
$HCHDG,270.5,0.0,E,,*29
$IIRMB,A,0.21,L,,Shil,,,,,000.2,241,,V,A*7F
$HCHDG,270.5,0.0,E,,*29
$GPRMC,172843.4,A,4741.20029,N,12224.25824,W,000.02,303.8,201013,016.6,E,A*23
$YXXDR,A,5.2,D,PTCH,A,5.1,D,ROLL*5E
$PTAK,FFD1,5.1*51
$PGRME,4.9,M,34.8,M,35.1,M*2B
$IIRMC,172800,A,4741.200,N,12224.258,W,00.0,303,201013,16,E,A*18
$HCHDG,270.4,0.0,E,,*28
$IIVHW,,,,,00.0,N,,*19
$IIVLW,06392,N,000.0,N*5D
$HCHDG,270.3,0.0,E,,*2F
$GPRMC,172843.6,A,4741.20031,N,12224.25844,W,000.03,303.8,201013,016.6,E,A*2F
$PGRME,4.8,M,33.9,M,34.2,M*2E
$HCHDG,270.2,0.0,E,,*2E
$HCHDG,270.2,0.0,E,,*2E
$GPRMC,172843.8,A,4741.20016,N,12224.25834,W,000.06,303.8,201013,016.6,E,A*26
$PGRME,4.8,M,33.0,M,33.3,M*21
$HCHDG,270.3,0.0,E,,*2F
$YXXDR,A,5.2,D,PTCH,A,5.1,D,ROLL*5E
$HCHDG,270.5,0.0,E,,*29
$IIVWR,082,R,02.0,N,,,,*69
$GPRMC,172844.0,A,4741.20011,N,12224.25833,W,000.07,303.8,201013,016.6,E,A*28
$PGRME,4.7,M,32.4,M,32.8,M*21
$HCHDG,270.6,0.0,E,,*2A
$IIDPT,006.7,-1.0,*41
$HCHDG,270.6,0.0,E,,*2A
$IIGLL,4741.200,N,12224.258,W,172800,A,A*42
$IIMTW,+09.0,C*31
$GPRMC,172844.2,A,4741.20019,N,12224.25832,W,000.03,303.8,201013,016.6,E,A*27
$PGRME,4.7,M,31.9,M,32.3,M*24
$HCHDG,270.7,0.0,E,,*2B
$IIMWV,082,R,02.0,N,A*1B
$IIMWV,081,T,01.9,N,A*14
$HCHDG,270.6,0.0,E,,*2A
$IIRMB,A,0.21,L,,Shil,,,,,000.2,241,,V,A*7F
$GPRMC,172844.4,A,4741.20015,N,12224.25825,W,000.05,303.8,201013,016.6,E,A*2D
$GPRMB,A,0.21,L,,Shil,4741.0830,N,12224.5670,W,0.2,241,0.02,V*3E
$YXXDR,A,5.3,D,PTCH,A,5.3,D,ROLL*5D
$PTAK,FFD1,5.3*53
$PGRME,4.6,M,31.4,M,31.8,M*20
$HCHDG,270.6,0.0,E,,*2A
$IIRMC,172800,A,4741.200,N,12224.258,W,00.0,303,201013,16,E,A*18
$HCHDG,270.6,0.0,E,,*2A
$GPRMC,172844.6,A,4741.20004,N,12224.25827,W,000.07,303.8,201013,016.6,E,A*2F
$PGRME,4.5,M,30.8,M,31.2,M*24
$HCHDG,270.7,0.0,E,,*2B
$HCHDG,270.7,0.0,E,,*2B
$GPRMC,172844.8,A,4741.20004,N,12224.25844,W,000.05,303.8,201013,016.6,E,A*26
$PGRME,4.5,M,30.2,M,30.6,M*2B
$HCHDG,270.5,0.0,E,,*29
$YXXDR,A,5.3,D,PTCH,A,5.3,D,ROLL*5D
$HCHDG,270.6,0.0,E,,*2A
$IIVHW,,,,,00.0,N,,*19
$GPRMC,172845.0,A,4741.20009,N,12224.25859,W,000.03,303.8,201013,016.6,E,A*28
$PGRME,4.4,M,29.8,M,30.1,M*2F
$PGRMT,GPS 18x-5Hz software ver. 3.20,,,,,,,,*30
$HCHDG,270.5,0.0,E,,*29
$IIVLW,06392,N,000.0,N*5D
$IIVWR,085,R,02.1,N,,,,*6F
$HCHDG,270.6,0.0,E,,*2A
$IIDPT,006.7,-1.0,*41
$GPRMC,172845.2,A,4741.20023,N,12224.25865,W,000.06,303.8,201013,016.6,E,A*28
$PGRME,4.4,M,29.4,M,29.8,M*22
$HCHDG,270.6,0.0,E,,*2A
$IIGLL,4741.200,N,12224.258,W,172800,A,A*42
$IIMTW,+09.0,C*31
$HCHDG,270.6,0.0,E,,*2A
$IIMWV,085,R,02.1,N,A*1D
$IIMWV,082,T,02.0,N,A*1D
$GPRMC,172845.4,A,4741.20033,N,12224.25878,W,000.06,303.8,201013,016.6,E,A*23
$GPRMB,A,0.21,L,,Shil,4741.0830,N,12224.5670,W,0.2,241,0.03,V*3F
$PTAK,FFP1,HEEL,@*07
$YXXDR,A,5.4,D,PTCH,A,5.2,D,ROLL*5B
$PTAK,FFD1,5.2*52
$PGRME,4.4,M,29.1,M,29.4,M*2B
$HCHDG,270.6,0.0,E,,*2A
$IIRMB,A,0.21,L,,Shil,,,,,000.2,241,,V,A*7F
$HCHDG,270.6,0.0,E,,*2A
$GPRMC,172845.6,A,4741.20035,N,12224.25891,W,000.06,303.8,201013,016.6,E,A*20
$PGRME,4.3,M,28.5,M,28.9,M*25
$HCHDG,270.6,0.0,E,,*2A
$HCHDG,270.6,0.0,E,,*2A
$GPRMC,172845.8,A,4741.20032,N,12224.25897,W,000.08,303.8,201013,016.6,E,A*21
$PGRME,4.3,M,28.1,M,28.4,M*2C
$HCHDG,270.6,0.0,E,,*2A
$YXXDR,A,5.4,D,PTCH,A,5.5,D,ROLL*5C
$HCHDG,270.6,0.0,E,,*2A
$GPRMC,172846.0,A,4741.20035,N,12224.25910,W,000.06,303.8,201013,016.6,E,A*2D
$PGRME,4.2,M,27.4,M,27.7,M*2B
$HCHDG,270.6,0.0,E,,*2A
$IIRMC,172800,A,4741.200,N,12224.258,W,00.0,303,201013,16,E,A*18
$IIVHW,,,,,00.0,N,,*19
$HCHDG,270.5,0.0,E,,*29
$IIVLW,06392,N,000.0,N*5D
$GPRMC,172846.2,A,4741.20038,N,12224.25919,W,000.07,303.8,201013,016.6,E,A*2A
$PGRME,4.2,M,26.7,M,27.0,M*2E
$HCHDG,270.5,0.0,E,,*29
$IIVWR,085,R,02.2,N,,,,*6C
$IIDPT,006.7,-1.0,*41
$HCHDG,270.5,0.0,E,,*29
$IIGLL,4741.200,N,12224.258,W,172800,A,A*42
$GPRMC,172846.4,A,4741.20042,N,12224.25908,W,000.06,303.8,201013,016.6,E,A*20
$YXXDR,A,5.3,D,PTCH,A,6.0,D,ROLL*5D
$PGRME,4.1,M,26.1,M,26.4,M*2E
$IIMTW,+09.0,C*31
$HCHDG,270.8,0.0,E,,*24
$IIMWV,085,R,02.2,N,A*1E
$IIMWV,085,T,02.1,N,A*1B
$HCHDG,270.8,0.0,E,,*24
$GPRMC,172846.6,A,4741.20040,N,12224.25905,W,000.04,303.8,201013,016.6,E,A*2F
$GPRMB,A,0.21,L,,Shil,4741.0830,N,12224.5670,W,0.2,240,0.02,V*3F
$PGRME,4.1,M,25.5,M,25.8,M*26
$HCHDG,270.8,0.0,E,,*24
$HCHDG,270.8,0.0,E,,*24
$GPRMC,172846.8,A,4741.20036,N,12224.25910,W,000.05,303.8,201013,016.6,E,A*25
$PGRME,4.1,M,24.9,M,25.2,M*21
$HCHDG,270.8,0.0,E,,*24
$YXXDR,A,5.6,D,PTCH,A,6.2,D,ROLL*5A
$PTAK,FFD1,6.2*51
$HCHDG,270.8,0.0,E,,*24
$GPRMC,172847.0,A,4741.20035,N,12224.25900,W,000.05,303.8,201013,016.6,E,A*2E
$PGRME,4.0,M,24.2,M,24.6,M*2E
$HCHDG,270.8,0.0,E,,*24
$IIRMB,A,0.21,L,,Shil,,,,,000.2,241,,V,A*7F
$HCHDG,270.8,0.0,E,,*24
$IIRMC,172800,A,4741.200,N,12224.259,W,00.0,303,201013,16,E,A*19
$GPRMC,172847.2,A,4741.20033,N,12224.25899,W,000.05,303.8,201013,016.6,E,A*2B
$PGRME,4.0,M,23.6,M,24.0,M*2B
$IIVHW,,,,,00.0,N,,*19
$HCHDG,270.8,0.0,E,,*24
$IIVLW,06392,N,000.0,N*5D
$HCHDG,270.7,0.0,E,,*2B
$IIVWR,086,R,02.2,N,,,,*6F
$IIDPT,006.7,-1.0,*41
$GPRMC,172847.4,A,4741.20035,N,12224.25886,W,000.05,303.8,201013,016.6,E,A*25
$PGRME,4.0,M,23.0,M,23.4,M*2E
$YXXDR,A,5.5,D,PTCH,A,5.8,D,ROLL*50
$HCHDG,270.7,0.0,E,,*2B
$IIGLL,4741.200,N,12224.259,W,172800,A,A*43
$IIMTW,+09.0,C*31
$HCHDG,270.7,0.0,E,,*2B
$GPRMC,172847.6,A,4741.20027,N,12224.25859,W,000.06,303.8,201013,016.6,E,A*25
$PGRME,3.9,M,22.5,M,22.8,M*29
$HCHDG,270.7,0.0,E,,*2B
$HCHDG,270.7,0.0,E,,*2B
$GPRMC,172847.8,A,4741.20018,N,12224.25850,W,000.08,303.8,201013,016.6,E,A*20
$GPRMB,A,0.21,L,,Shil,4741.0830,N,12224.5670,W,0.2,241,0.04,V*38
$PGRME,3.9,M,22.0,M,22.3,M*27
$HCHDG,270.7,0.0,E,,*2B
$YXXDR,A,5.5,D,PTCH,A,5.8,D,ROLL*50
$PTAK,FFD1,5.8*58
$HCHDG,270.6,0.0,E,,*2A
$IIMWV,089,R,02.3,N,A*13
$GPRMC,172848.0,A,4741.20016,N,12224.25849,W,000.06,303.8,201013,016.6,E,A*2F
$PGRME,3.9,M,21.4,M,21.8,M*28
$HCHDG,270.6,0.0,E,,*2A
$IIMWV,086,T,02.2,N,A*1B
$HCHDG,270.6,0.0,E,,*2A
$IIRMB,A,0.21,L,,Shil,,,,,000.2,240,,V,A*7E
$GPRMC,172848.2,A,4741.20016,N,12224.25839,W,000.06,303.8,201013,016.6,E,A*2A
$PGRME,3.9,M,21.0,M,21.3,M*27
$HCHDG,270.6,0.0,E,,*2A
$IIRMC,172800,A,4741.200,N,12224.258,W,00.0,303,201013,16,E,A*18
$IIVHW,,,,,00.0,N,,*19
$HCHDG,270.6,0.0,E,,*2A
$IIVLW,06392,N,000.0,N*5D
$GPRMC,172848.4,A,4741.20023,N,12224.25836,W,000.07,303.8,201013,016.6,E,A*24
$YXXDR,A,5.6,D,PTCH,A,5.7,D,ROLL*5C
$PGRME,3.8,M,20.5,M,20.9,M*29
$IIVWR,089,R,02.3,N,,,,*61
$HCHDG,270.5,0.0,E,,*29
$IIDPT,006.7,-1.0,*41
$HCHDG,270.5,0.0,E,,*29
$GPRMC,172848.6,A,4741.20032,N,12224.25831,W,000.06,303.8,201013,016.6,E,A*20
$PGRME,3.8,M,20.1,M,20.4,M*20
$HCHDG,270.5,0.0,E,,*29
$HCHDG,270.3,0.0,E,,*2F
$GPRMC,172848.8,A,4741.20037,N,12224.25828,W,000.05,303.8,201013,016.6,E,A*20
$GPRMB,A,0.21,L,,Shil,4741.0830,N,12224.5670,W,0.2,241,0.02,V*3E
$PGRME,3.8,M,19.7,M,20.0,M*28
$HCHDG,270.3,0.0,E,,*2F
$YXXDR,A,5.4,D,PTCH,A,5.8,D,ROLL*51
$PTAK,FFD1,5.8*58
$HCHDG,270.3,0.0,E,,*2F
$GPRMC,172849.0,A,4741.20043,N,12224.25822,W,000.05,303.8,201013,016.6,E,A*20
$PGRME,3.7,M,19.3,M,19.6,M*2F
$IIGLL,4741.200,N,12224.258,W,172800,A,A*42
$HCHDG,270.3,0.0,E,,*2F
$IIMTW,+09.0,C*31
$IIMWV,090,R,02.0,N,A*18
$HCHDG,270.3,0.0,E,,*2F
$IIMWV,089,T,02.3,N,A*15
$GPRMC,172849.2,A,4741.20050,N,12224.25823,W,000.07,303.8,201013,016.6,E,A*23
$PGRME,3.7,M,18.9,M,19.2,M*20
$HCHDG,270.1,0.0,E,,*2D
$IIRMB,A,0.21,L,,Shil,,,,,000.2,241,,V,A*7F
$HCHDG,270.2,0.0,E,,*2E
$GPRMC,172849.4,A,4741.20061,N,12224.25835,W,000.09,303.8,201013,016.6,E,A*2E
$YXXDR,A,5.4,D,PTCH,A,6.0,D,ROLL*5A
$PTAK,FFP1,HEEL,@*07
$PGRME,3.7,M,18.5,M,18.9,M*26
$IIRMC,172800,A,4741.200,N,12224.258,W,00.0,303,201013,16,E,A*18
$HCHDG,270.2,0.0,E,,*2E
$IIVHW,,,,,00.0,N,,*19
$IIVLW,06392,N,000.0,N*5D
$HCHDG,270.2,0.0,E,,*2E
$GPRMC,172849.6,A,4741.20069,N,12224.25833,W,000.07,303.8,201013,016.6,E,A*2C
$PGRME,3.7,M,18.1,M,18.5,M*2E
$HCHDG,270.1,0.0,E,,*2D
$HCHDG,270.0,0.0,E,,*2C
$GPRMC,172849.8,A,4741.20076,N,12224.25842,W,000.06,303.8,201013,016.6,E,A*2B
$GPRMB,A,0.21,L,,Shil,4741.0830,N,12224.5670,W,0.2,240,0.03,V*3E
$PGRME,3.7,M,17.8,M,18.2,M*2F
$HCHDG,269.9,0.0,E,,*2D
$YXXDR,A,5.5,D,PTCH,A,6.3,D,ROLL*58
$HCHDG,269.9,0.0,E,,*2D
$GPRMC,172850.0,A,4741.20077,N,12224.25851,W,000.07,303.8,201013,016.6,E,A*29
$IIVWR,089,R,02.1,N,,,,*63
$PGRME,3.6,M,17.4,M,17.8,M*27
$HCHDG,269.9,0.0,E,,*2D
$IIDPT,006.7,-1.0,*41
$HCHDG,270.0,0.0,E,,*2C
$IIGLL,4741.200,N,12224.258,W,172800,A,A*42
$IIMTW,+09.0,C*31
$GPRMC,172850.2,A,4741.20079,N,12224.25843,W,000.08,303.8,201013,016.6,E,A*29
$PGRME,3.6,M,17.1,M,17.5,M*2F
$HCHDG,270.0,0.0,E,,*2C
$IIMWV,089,R,02.1,N,A*11
$IIMWV,090,T,02.0,N,A*1E
$HCHDG,269.9,0.0,E,,*2D
$IIRMB,A,0.21,L,,Shil,,,,,000.2,241,,V,A*7F
$GPRMC,172850.4,A,4741.20074,N,12224.25842,W,000.08,303.8,201013,016.6,E,A*23
$YXXDR,A,5.4,D,PTCH,A,6.3,D,ROLL*59
$PTAK,FFD1,6.3*50
$PGRME,3.6,M,16.8,M,17.2,M*20
$HCHDG,269.9,0.0,E,,*2D
$IIRMC,172800,A,4741.200,N,12224.258,W,00.0,303,201013,16,E,A*18
$HCHDG,269.8,0.0,E,,*2C
$GPRMC,172850.6,A,4741.20068,N,12224.25843,W,000.07,303.8,201013,016.6,E,A*22
$PGRME,3.6,M,16.5,M,16.9,M*27
$HCHDG,269.8,0.0,E,,*2C
$HCHDG,269.9,0.0,E,,*2D
$GPRMC,172850.8,A,4741.20057,N,12224.25829,W,000.06,303.8,201013,016.6,E,A*2D
$GPRMB,A,0.21,L,,Shil,4741.0830,N,12224.5670,W,0.2,241,0.03,V*3F
$PGRME,3.6,M,16.2,M,16.6,M*2F
$HCHDG,269.9,0.0,E,,*2D
$YXXDR,A,5.5,D,PTCH,A,6.3,D,ROLL*58
$HCHDG,269.9,0.0,E,,*2D
$IIVHW,,,,,00.0,N,,*19
$GPRMC,172851.0,A,4741.20048,N,12224.25817,W,000.06,303.8,201013,016.6,E,A*27
$PGRME,3.5,M,16.0,M,16.3,M*2B
$HCHDG,269.8,0.0,E,,*2C
$IIVLW,06392,N,000.0,N*5D
$IIVWR,091,R,02.1,N,,,,*6A
$HCHDG,269.8,0.0,E,,*2C
$IIDPT,006.7,-1.0,*41
$GPRMC,172851.2,A,4741.20045,N,12224.25805,W,000.04,303.8,201013,016.6,E,A*29
$PGRME,3.5,M,15.7,M,16.1,M*2D
$HCHDG,269.8,0.0,E,,*2C
$IIGLL,4741.200,N,12224.258,W,172800,A,A*42
$IIMTW,+09.0,C*31
$HCHDG,269.5,0.0,E,,*21
$IIMWV,091,R,02.1,N,A*18
$IIMWV,089,T,02.1,N,A*17
$GPRMC,172851.4,A,4741.20039,N,12224.25792,W,000.02,303.8,201013,016.6,E,A*23
$YXXDR,A,5.5,D,PTCH,A,6.3,D,ROLL*58
$PTAK,FFD1,6.3*50
$PGRME,3.5,M,15.4,M,15.8,M*24
$HCHDG,269.5,0.0,E,,*21
$IIRMB,A,0.21,L,,Shil,,,,,000.2,241,,V,A*7F
$HCHDG,269.5,0.0,E,,*21
$GPRMC,172851.6,A,4741.20037,N,12224.25779,W,000.03,303.8,201013,016.6,E,A*2B
$PGRME,3.5,M,15.2,M,15.6,M*2C
$HCHDG,269.4,0.0,E,,*20
$HCHDG,269.4,0.0,E,,*20
$GPRMC,172851.8,A,4741.20034,N,12224.25770,W,000.04,303.8,201013,016.6,E,A*28
$GPRMB,A,0.21,L,,Shil,4741.0830,N,12224.5670,W,0.2,241,0.02,V*3E
$PGRME,3.5,M,14.9,M,15.3,M*23
$HCHDG,269.6,0.0,E,,*22
$YXXDR,A,5.6,D,PTCH,A,6.2,D,ROLL*5A
$HCHDG,269.7,0.0,E,,*23
$GPRMC,172852.0,A,4741.20031,N,12224.25758,W,000.03,303.8,201013,016.6,E,A*2B
$PGRME,3.4,M,14.7,M,15.1,M*2E
$HCHDG,269.6,0.0,E,,*22
$IIRMC,172800,A,4741.200,N,12224.257,W,00.0,303,201013,16,E,A*17
$IIVHW,,,,,00.0,N,,*19
$HCHDG,269.6,0.0,E,,*22
$IIVLW,06392,N,000.0,N*5D
$GPRMC,172852.2,A,4741.20036,N,12224.25754,W,000.03,303.8,201013,016.6,E,A*22
$PGRME,3.4,M,14.5,M,14.9,M*25
$HCHDG,269.6,0.0,E,,*22
$IIVWR,095,R,02.2,N,,,,*6D
$IIDPT,006.7,-1.0,*41
$HCHDG,269.6,0.0,E,,*22
$IIGLL,4741.200,N,12224.257,W,172800,A,A*4D
$GPRMC,172852.4,A,4741.20041,N,12224.25753,W,000.03,303.8,201013,016.6,E,A*23
$PGRME,3.4,M,14.2,M,14.6,M*2D
$YXXDR,A,5.5,D,PTCH,A,6.1,D,ROLL*5A
$PTAK,FFD1,6.1*52
$IIMTW,+09.0,C*31
$HCHDG,269.6,0.0,E,,*22
$IIMWV,095,R,02.2,N,A*1F
$IIMWV,091,T,02.1,N,A*1E
$HCHDG,269.6,0.0,E,,*22
$GPRMC,172852.6,A,4741.20050,N,12224.25760,W,000.03,303.8,201013,016.6,E,A*21
$PGRME,3.4,M,14.0,M,14.4,M*2D
$HCHDG,269.6,0.0,E,,*22
$HCHDG,269.6,0.0,E,,*22
$GPRMC,172852.8,A,4741.20058,N,12224.25767,W,000.02,303.8,201013,016.6,E,A*21
$PGRME,3.4,M,13.8,M,14.2,M*24
$HCHDG,269.5,0.0,E,,*21
$YXXDR,A,5.5,D,PTCH,A,6.3,D,ROLL*58
$HCHDG,269.5,0.0,E,,*21
$GPRMC,172853.0,A,4741.20066,N,12224.25770,W,000.02,303.8,201013,016.6,E,A*23
$PGRME,3.4,M,13.6,M,14.0,M*28
$HCHDG,269.5,0.0,E,,*21
$IIRMB,A,0.21,L,,Shil,,,,,000.2,241,,V,A*7F
$HCHDG,269.5,0.0,E,,*21
$IIRMC,172800,A,4741.200,N,12224.257,W,00.0,303,201013,16,E,A*17
$GPRMC,172853.2,A,4741.20074,N,12224.25782,W,000.04,303.8,201013,016.6,E,A*29
$GPRMB,A,0.21,L,,Shil,4741.0830,N,12224.5670,W,0.2,241,0.02,V*3E
$PGRME,3.4,M,13.4,M,13.8,M*25
$IIVHW,,,,,00.0,N,,*19
$HCHDG,269.5,0.0,E,,*21
$IIVLW,06392,N,000.0,N*5D
$HCHDG,269.5,0.0,E,,*21
$IIVWR,093,R,02.2,N,,,,*6B
$IIDPT,006.7,-1.0,*41
$GPRMC,172853.4,A,4741.20083,N,12224.25786,W,000.03,303.8,201013,016.6,E,A*24
$PTAK,FFP1,HEEL,@*07
$YXXDR,A,5.5,D,PTCH,A,6.4,D,ROLL*5F
$PGRME,3.3,M,13.2,M,13.7,M*2B
$HCHDG,269.4,0.0,E,,*20
$IIGLL,4741.200,N,12224.257,W,172800,A,A*4D
$IIMTW,+09.0,C*31
$HCHDG,269.4,0.0,E,,*20
$GPRMC,172853.6,A,4741.20088,N,12224.25794,W,000.04,303.8,201013,016.6,E,A*29
$PGRME,3.3,M,13.1,M,13.5,M*2A
$HCHDG,269.5,0.0,E,,*21
$HCHDG,269.5,0.0,E,,*21
$GPRMC,172853.8,A,4741.20088,N,12224.25802,W,000.02,303.8,201013,016.6,E,A*21
$PGRME,3.3,M,12.9,M,13.3,M*25
$HCHDG,269.5,0.0,E,,*21
$YXXDR,A,5.5,D,PTCH,A,6.5,D,ROLL*5E
$PTAK,FFD1,6.5*56
$HCHDG,269.4,0.0,E,,*20
$IIMWV,090,R,01.9,N,A*12
$GPRMC,172854.0,A,4741.20091,N,12224.25792,W,000.04,303.8,201013,016.6,E,A*26
$GPRMB,A,0.21,L,,Shil,4741.0830,N,12224.5670,W,0.2,240,0.02,V*3F
$PGRME,3.3,M,12.7,M,13.1,M*29
$HCHDG,269.4,0.0,E,,*20
$IIMWV,093,T,02.2,N,A*1F
$HCHDG,269.4,0.0,E,,*20
$IIRMB,A,0.21,L,,Shil,,,,,000.2,241,,V,A*7F
$GPRMC,172854.2,A,4741.20085,N,12224.25789,W,000.02,303.8,201013,016.6,E,A*2D
$PGRME,3.3,M,12.5,M,13.0,M*2A
$HCHDG,269.4,0.0,E,,*20
$IIRMC,172800,A,4741.200,N,12224.257,W,00.0,303,201013,16,E,A*17
$IIVHW,,,,,00.0,N,,*19
$HCHDG,269.4,0.0,E,,*20
$IIVLW,06392,N,000.0,N*5D
$GPRMC,172854.4,A,4741.20081,N,12224.25786,W,000.01,303.8,201013,016.6,E,A*23
$YXXDR,A,5.5,D,PTCH,A,6.6,D,ROLL*5D
$PGRME,3.3,M,12.4,M,12.8,M*22
$IIVWR,090,R,01.9,N,,,,*60
$HCHDG,269.4,0.0,E,,*20
$IIDPT,006.7,-1.0,*41
$HCHDG,269.4,0.0,E,,*20
$GPRMC,172854.6,A,4741.20076,N,12224.25765,W,000.03,303.8,201013,016.6,E,A*26
$PGRME,3.3,M,12.2,M,12.7,M*2B
$HCHDG,269.4,0.0,E,,*20
$HCHDG,269.4,0.0,E,,*20
$GPRMC,172854.8,A,4741.20068,N,12224.25747,W,000.03,303.8,201013,016.6,E,A*27
$PGRME,3.3,M,12.1,M,12.5,M*2A
$HCHDG,269.4,0.0,E,,*20
$YXXDR,A,5.5,D,PTCH,A,6.5,D,ROLL*5E
$HCHDG,269.4,0.0,E,,*20
$GPRMC,172855.0,A,4741.20065,N,12224.25730,W,000.04,303.8,201013,016.6,E,A*24
$PGRME,3.2,M,11.9,M,12.4,M*21
$IIGLL,4741.200,N,12224.257,W,172800,A,A*4D
$HCHDG,269.4,0.0,E,,*20
$IIMTW,+09.0,C*31
$IIMWV,086,R,01.7,N,A*1B
$HCHDG,269.5,0.0,E,,*21
$IIMWV,090,T,01.9,N,A*14
$GPRMC,172855.2,A,4741.20059,N,12224.25713,W,000.04,303.8,201013,016.6,E,A*28
$PGRME,3.2,M,11.8,M,12.2,M*26
$HCHDG,269.5,0.0,E,,*21
$IIRMB,A,0.21,L,,Shil,,,,,000.2,240,,V,A*7E
$HCHDG,269.4,0.0,E,,*20
$GPRMC,172855.4,A,4741.20059,N,12224.25705,W,000.02,303.8,201013,016.6,E,A*2F
$GPRMB,A,0.21,L,,Shil,4741.0830,N,12224.5670,W,0.2,241,0.01,V*3D
$YXXDR,A,5.5,D,PTCH,A,6.4,D,ROLL*5F
$PTAK,FFD1,6.4*57
$PGRME,3.2,M,11.7,M,12.2,M*29
$IIRMC,172800,A,4741.200,N,12224.257,W,00.0,303,201013,16,E,A*17
$HCHDG,269.4,0.0,E,,*20
$IIVHW,,,,,00.0,N,,*19
$IIVLW,06392,N,000.0,N*5D
$HCHDG,269.4,0.0,E,,*20
$GPRMC,172855.6,A,4741.20064,N,12224.25695,W,000.03,303.8,201013,016.6,E,A*2A
$PGRME,3.2,M,11.6,M,12.1,M*2B
$HCHDG,269.4,0.0,E,,*20
$HCHDG,269.4,0.0,E,,*20
$GPRMC,172855.8,A,4741.20064,N,12224.25692,W,000.01,303.8,201013,016.6,E,A*21
$PGRME,3.2,M,11.6,M,12.0,M*2A
$HCHDG,269.4,0.0,E,,*20
$YXXDR,A,5.5,D,PTCH,A,6.5,D,ROLL*5E
$HCHDG,269.4,0.0,E,,*20
$GPRMC,172856.0,A,4741.20070,N,12224.25678,W,000.03,303.8,201013,016.6,E,A*29
$IIVWR,084,R,01.8,N,,,,*64
$PGRME,3.2,M,11.4,M,11.9,M*22
$HCHDG,269.3,0.0,E,,*27
$IIDPT,006.7,-1.0,*41
$HCHDG,269.3,0.0,E,,*27
$IIGLL,4741.200,N,12224.257,W,172800,A,A*4D
$IIMTW,+08.5,C*35
$GPRMC,172856.2,A,4741.20072,N,12224.25678,W,000.02,303.8,201013,016.6,E,A*28
$PGRME,3.2,M,11.4,M,11.8,M*23
$IIMWV,084,R,01.8,N,A*16
$HCHDG,269.3,0.0,E,,*27
$IIMWV,086,T,01.7,N,A*1D
$HCHDG,269.3,0.0,E,,*27
$IIRMB,A,0.21,L,,Shil,,,,,000.2,241,,V,A*7F
$GPRMC,172856.4,A,4741.20082,N,12224.25686,W,000.03,303.8,201013,016.6,E,A*21
$GPRMB,A,0.21,L,,Shil,4741.0830,N,12224.5670,W,0.2,241,0.01,V*3D
$PGRME,3.2,M,11.5,M,11.9,M*23
$YXXDR,A,5.4,D,PTCH,A,6.3,D,ROLL*59
$PTAK,FFD1,6.3*50
$HCHDG,269.3,0.0,E,,*27
$IIRMC,172800,A,4741.200,N,12224.257,W,00.0,303,201013,16,E,A*17
$HCHDG,269.3,0.0,E,,*27
$GPRMC,172856.6,A,4741.20095,N,12224.25689,W,000.06,303.8,201013,016.6,E,A*2F
$PGRME,3.2,M,11.4,M,11.8,M*23
$HCHDG,269.3,0.0,E,,*27
$HCHDG,269.3,0.0,E,,*27
$GPRMC,172856.8,A,4741.20110,N,12224.25694,W,000.07,303.8,201013,016.6,E,A*20
$PGRME,3.2,M,11.3,M,11.8,M*24
$HCHDG,269.3,0.0,E,,*27
$YXXDR,A,5.5,D,PTCH,A,6.5,D,ROLL*5E
$HCHDG,269.3,0.0,E,,*27
$IIVHW,,,,,00.0,N,,*19
$GPRMC,172857.0,A,4741.20120,N,12224.25711,W,000.06,303.8,201013,016.6,E,A*27
$PGRME,3.2,M,11.4,M,11.8,M*23
$HCHDG,269.3,0.0,E,,*27
$IIVLW,06392,N,000.0,N*5D
$IIVWR,082,R,01.7,N,,,,*6D
$HCHDG,269.3,0.0,E,,*27
$IIDPT,006.7,-1.0,*41
$GPRMC,172857.2,A,4741.20135,N,12224.25696,W,000.04,303.8,201013,016.6,E,A*2D
$PGRME,3.3,M,11.4,M,11.9,M*23
$HCHDG,269.4,0.0,E,,*20
$IIGLL,4741.200,N,12224.256,W,172800,A,A*4C
$IIMTW,+08.5,C*35
$HCHDG,269.4,0.0,E,,*20
$IIMWV,082,R,01.7,N,A*1F
$IIMWV,084,T,01.8,N,A*10
$GPRMC,172857.4,A,4741.20151,N,12224.25672,W,000.05,303.8,201013,016.6,E,A*22
$GPRMB,A,0.21,L,,Shil,4741.0830,N,12224.5670,W,0.2,240,0.02,V*3F
$YXXDR,A,5.6,D,PTCH,A,6.5,D,ROLL*5D
$PTAK,FFP1,HEEL,@*07
$PGRME,3.3,M,11.5,M,12.0,M*28
$HCHDG,269.3,0.0,E,,*27
$IIRMB,A,0.21,L,,Shil,,,,,000.2,241,,V,A*7F
$HCHDG,269.3,0.0,E,,*27
$GPRMC,172857.6,A,4741.20134,N,12224.25703,W,000.04,303.8,201013,016.6,E,A*25
$PGRME,3.4,M,11.7,M,12.2,M*2F
$HCHDG,269.3,0.0,E,,*27
$HCHDG,269.2,0.0,E,,*26
$GPRMC,172857.8,A,4741.20137,N,12224.25521,W,000.05,303.8,201013,016.6,E,A*2B
$PGRME,3.5,M,11.8,M,12.3,M*20
$HCHDG,269.2,0.0,E,,*26
$YXXDR,A,5.5,D,PTCH,A,6.6,D,ROLL*5D
$PTAK,FFD1,6.6*55
$HCHDG,269.2,0.0,E,,*26
$GPRMC,172858.0,A,4741.19981,N,12224.25466,W,000.05,303.8,201013,016.6,E,A*21
$PGRME,3.6,M,11.9,M,12.4,M*25
$HCHDG,269.1,0.0,E,,*25
$IIRMC,172800,A,4741.200,N,12224.256,W,00.0,303,201013,16,E,A*16
$IIVHW,,,,,00.0,N,,*19
$HCHDG,269.0,0.0,E,,*24
$IIVLW,06392,N,000.0,N*5D
$GPRMC,172858.2,A,4741.19873,N,12224.25134,W,000.04,303.8,201013,016.6,E,A*2C
$PGRME,3.7,M,11.8,M,12.3,M*22
$HCHDG,269.0,0.0,E,,*24
$IIVWR,080,R,01.5,N,,,,*6D
$IIDPT,006.7,-1.0,*41
$HCHDG,269.0,0.0,E,,*24
$IIGLL,4741.200,N,12224.256,W,172800,A,A*4C
$GPRMC,172858.4,A,4741.19749,N,12224.25085,W,000.05,303.8,201013,016.6,E,A*26
$YXXDR,A,5.5,D,PTCH,A,6.5,D,ROLL*5E
$PGRME,3.8,M,11.7,M,12.3,M*22
$IIMTW,+08.5,C*35
$HCHDG,269.0,0.0,E,,*24
$IIMWV,080,R,01.5,N,A*1F
$IIMWV,082,T,01.7,N,A*19
$HCHDG,269.0,0.0,E,,*24
$GPRMC,172858.6,A,4741.19677,N,12224.25026,W,000.05,303.8,201013,016.6,E,A*21
$GPRMB,A,0.21,L,,Shil,4741.0830,N,12224.5670,W,0.2,242,0.02,V*3D
$PGRME,3.9,M,11.5,M,12.2,M*20
$HCHDG,268.9,0.0,E,,*2C
$HCHDG,269.0,0.0,E,,*24
$GPRMC,172858.8,A,4741.19662,N,12224.25089,W,000.05,303.8,201013,016.6,E,A*2E
$PGRME,4.0,M,11.5,M,12.2,M*2E
$HCHDG,269.0,0.0,E,,*24
$YXXDR,A,5.5,D,PTCH,A,6.4,D,ROLL*5F
$PTAK,FFD1,6.4*57
$HCHDG,268.9,0.0,E,,*2C
$GPRMC,172859.0,A,4741.19612,N,12224.25129,W,000.09,303.8,201013,016.6,E,A*27
$PGRME,4.1,M,11.4,M,12.1,M*2D
$IIRMB,A,0.21,L,,Shil,,,,,000.2,240,,V,A*7E
$HCHDG,268.9,0.0,E,,*2C
$HCHDG,268.9,0.0,E,,*2C
$IIRMC,172800,A,4741.196,N,12224.250,W,00.0,303,201013,16,E,A*1C
$GPRMC,172859.2,A,4741.19626,N,12224.25227,W,000.10,303.8,201013,016.6,E,A*27
$PGRME,4.1,M,11.4,M,12.1,M*2D
$IIVHW,,,,,00.0,N,,*19
$HCHDG,268.9,0.0,E,,*2C
$IIVLW,06392,N,000.0,N*5D
$IIVWR,076,R,01.4,N,,,,*65
$HCHDG,268.8,0.0,E,,*2D
$IIDPT,006.7,-1.0,*41
$GPRMC,172859.4,A,4741.19639,N,12224.25307,W,000.11,303.8,201013,016.6,E,A*2D
$PGRME,4.2,M,11.3,M,12.1,M*29
$YXXDR,A,5.5,D,PTCH,A,6.5,D,ROLL*5E
$HCHDG,268.8,0.0,E,,*2D
$IIGLL,4741.196,N,12224.250,W,172800,A,A*46
$IIMTW,+08.5,C*35
$HCHDG,268.8,0.0,E,,*2D
$GPRMC,172859.6,A,4741.19674,N,12224.25368,W,000.07,303.8,201013,016.6,E,A*28
$PGRME,4.2,M,11.2,M,12.0,M*29
$HCHDG,268.8,0.0,E,,*2D
$HCHDG,268.8,0.0,E,,*2D
$GPRMC,172859.8,A,4741.19751,N,12224.25416,W,000.03,303.8,201013,016.6,E,A*2A
$GPRMB,A,0.21,L,,Shil,4741.0830,N,12224.5670,W,0.2,241,0.01,V*3D
$PGRME,4.3,M,11.1,M,11.9,M*21
$HCHDG,268.8,0.0,E,,*2D
$YXXDR,A,5.5,D,PTCH,A,6.5,D,ROLL*5E
$PTAK,FFD1,6.5*56
$HCHDG,268.8,0.0,E,,*2D
$IIMWV,076,R,01.3,N,A*10
$GPRMC,172900.0,A,4741.19828,N,12224.25434,W,000.03,303.8,201013,016.6,E,A*2E
$PGRME,4.3,M,11.0,M,11.9,M*20
$HCHDG,268.8,0.0,E,,*2D
$IIMWV,076,T,01.4,N,A*11
$HCHDG,268.8,0.0,E,,*2D
$IIRMB,A,0.21,L,,Shil,,,,,000.2,242,,V,A*7C
$GPRMC,172900.2,A,4741.19907,N,12224.25507,W,000.03,303.8,201013,016.6,E,A*21
$PGRME,4.4,M,10.9,M,11.8,M*2E
$HCHDG,268.8,0.0,E,,*2D
$IIRMC,172800,A,4741.196,N,12224.253,W,00.0,303,201013,16,E,A*1F
$IIVHW,,,,,00.0,N,,*19
$HCHDG,268.8,0.0,E,,*2D
$IIVLW,06392,N,000.0,N*5D
$GPRMC,172900.4,A,4741.19979,N,12224.25517,W,000.01,303.8,201013,016.6,E,A*2D
$PGRME,4.4,M,10.9,M,11.7,M*21
$YXXDR,A,5.7,D,PTCH,A,6.7,D,ROLL*5E
$IIVWR,076,R,01.3,N,,,,*62
$HCHDG,268.8,0.0,E,,*2D
$IIDPT,006.7,-1.0,*41
$HCHDG,268.8,0.0,E,,*2D
$GPRMC,172900.6,A,4741.20042,N,12224.25478,W,000.01,303.8,201013,016.6,E,A*2C
$PGRME,4.4,M,10.8,M,11.6,M*21
$HCHDG,268.8,0.0,E,,*2D
$HCHDG,268.8,0.0,E,,*2D
$GPRMC,172900.8,A,4741.20098,N,12224.25393,W,000.04,303.8,201013,016.6,E,A*22
$GPRMB,A,0.21,L,,Shil,4741.0830,N,12224.5670,W,0.2,241,0.02,V*3E
$PGRME,4.5,M,10.7,M,11.6,M*2F
$HCHDG,268.7,0.0,E,,*22
$YXXDR,A,5.5,D,PTCH,A,6.5,D,ROLL*5E
$PTAK,FFD1,6.5*56
$HCHDG,268.7,0.0,E,,*22
$GPRMC,172901.0,A,4741.20117,N,12224.25392,W,000.04,303.8,201013,016.6,E,A*2C
$PGRME,4.5,M,10.8,M,11.7,M*21
$HCHDG,268.7,0.0,E,,*22
$IIGLL,4741.200,N,12224.254,W,172900,A,A*4F
$IIMTW,+08.5,C*35
$IIMWV,078,R,01.6,N,A*1B
$HCHDG,268.7,0.0,E,,*22
$IIMWV,076,T,01.3,N,A*16
$GPRMC,172901.2,A,4741.20093,N,12224.25388,W,000.02,303.8,201013,016.6,E,A*2E
$PGRME,4.6,M,10.9,M,11.8,M*2C
$HCHDG,268.7,0.0,E,,*22
$IIRMB,A,0.21,L,,Shil,,,,,000.2,241,,V,A*7F
$HCHDG,268.7,0.0,E,,*22
$GPRMC,172901.4,A,4741.20030,N,12224.25321,W,000.00,303.8,201013,016.6,E,A*20
$YXXDR,A,5.5,D,PTCH,A,6.5,D,ROLL*5E
$PGRME,4.7,M,11.1,M,12.0,M*2F
$IIRMC,172900,A,4741.200,N,12224.254,W,00.0,303,201013,16,E,A*15
$HCHDG,268.7,0.0,E,,*22
$IIVHW,,,,,00.0,N,,*19
$IIVLW,06392,N,000.0,N*5D
$HCHDG,268.8,0.0,E,,*2D
$GPRMC,172901.6,A,4741.20011,N,12224.25000,W,000.04,303.8,201013,016.6,E,A*25
$PGRME,4.9,M,11.2,M,12.2,M*20
$HCHDG,268.8,0.0,E,,*2D
$PTAK,FFP1,HEEL,@*07
$HCHDG,268.8,0.0,E,,*2D
$GPRMC,172901.8,A,4741.19934,N,12224.24608,W,000.02,303.8,201013,016.6,E,A*26
$GPRMB,A,0.22,L,,Shil,4741.0830,N,12224.5670,W,0.2,242,0.01,V*3D
$PGRME,5.0,M,11.2,M,12.3,M*29
$HCHDG,268.7,0.0,E,,*22
$YXXDR,A,5.5,D,PTCH,A,6.6,D,ROLL*5D
$PTAK,FFD1,6.6*55
$HCHDG,268.7,0.0,E,,*22
$GPRMC,172902.0,A,4741.19918,N,12224.24344,W,000.03,303.8,201013,016.6,E,A*2F
$IIVWR,078,R,01.7,N,,,,*68
$PGRME,5.2,M,11.1,M,12.3,M*28
$HCHDG,268.8,0.0,E,,*2D
$IIDPT,006.7,-1.0,*41
$HCHDG,268.8,0.0,E,,*2D
$IIGLL,4741.200,N,12224.250,W,172900,A,A*4B
$IIMTW,+08.5,C*35
$GPRMC,172902.2,A,4741.19953,N,12224.23779,W,000.01,303.8,201013,016.6,E,A*2D
$PGRME,5.3,M,11.2,M,12.4,M*2D
$HCHDG,268.8,0.0,E,,*2D
$IIMWV,078,R,01.7,N,A*1A
$IIMWV,078,T,01.6,N,A*1D
$HCHDG,268.8,0.0,E,,*2D
$IIRMB,A,0.21,L,,Shil,,,,,000.2,241,,V,A*7F
$GPRMC,172902.4,A,4741.19787,N,12224.23828,W,000.01,303.8,201013,016.6,E,A*27
$YXXDR,A,5.5,D,PTCH,A,6.7,D,ROLL*5C
$PGRME,5.5,M,11.2,M,12.5,M*2A
$HCHDG,268.9,0.0,E,,*2C
$IIRMC,172900,A,4741.200,N,12224.250,W,00.0,303,201013,16,E,A*11
$HCHDG,268.9,0.0,E,,*2C
$GPRMC,172902.6,A,4741.19934,N,12224.23655,W,000.02,303.8,201013,016.6,E,A*24
$PGRME,5.6,M,11.3,M,12.6,M*2B
$HCHDG,268.9,0.0,E,,*2C
$HCHDG,269.0,0.0,E,,*24
$GPRMC,172902.8,A,4741.20054,N,12224.23346,W,000.03,303.8,201013,016.6,E,A*29
$PGRME,5.8,M,11.4,M,12.8,M*2C
$HCHDG,269.0,0.0,E,,*24
$YXXDR,A,5.5,D,PTCH,A,6.9,D,ROLL*52
$HCHDG,269.0,0.0,E,,*24
$IIVHW,,,,,00.0,N,,*19
$GPRMC,172903.0,A,4741.20382,N,12224.23134,W,000.05,303.8,201013,016.6,E,A*29
$GPRMB,A,0.23,L,,Shil,4741.0830,N,12224.5670,W,0.3,242,0.02,V*3E
$PGRME,6.0,M,11.3,M,12.8,M*20
$HCHDG,268.9,0.0,E,,*2C
$IIVLW,06392,N,000.0,N*5D
$IIVWR,071,R,01.7,N,,,,*61
$HCHDG,268.9,0.0,E,,*2C
$IIDPT,006.7,-1.0,*41
$GPRMC,172903.2,A,4741.20499,N,12224.23175,W,000.04,303.8,201013,016.6,E,A*22
$PGRME,6.1,M,11.2,M,12.8,M*20
$HCHDG,268.9,0.0,E,,*2C
$IIGLL,4741.199,N,12224.236,W,172900,A,A*48
$IIMTW,+08.5,C*35
$HCHDG,268.9,0.0,E,,*2C
$IIMWV,071,R,01.7,N,A*13
$IIMWV,078,T,01.7,N,A*1C
$YXXDR,A,5.6,D,PTCH,A,7.0,D,ROLL*59
$PTAK,FFD1,7.0*52
$GPRMC,172903.4,A,4741.20559,N,12224.23485,W,000.03,303.8,201013,016.6,E,A*24
$PGRME,6.2,M,11.1,M,12.7,M*2F
$HCHDG,269.1,0.0,E,,*25
$IIRMB,A,0.22,L,,Shil,,,,,000.2,242,,V,A*7F
$HCHDG,269.1,0.0,E,,*25
$GPRMC,172903.6,A,4741.20608,N,12224.23595,W,000.03,303.8,201013,016.6,E,A*21
$PGRME,6.3,M,11.1,M,12.7,M*2E
$HCHDG,269.1,0.0,E,,*25
$HCHDG,269.1,0.0,E,,*25
$GPRMC,172903.8,A,4741.20661,N,12224.23684,W,000.05,303.8,201013,016.6,E,A*25
$PGRME,6.4,M,10.9,M,12.7,M*20
$HCHDG,269.1,0.0,E,,*25
$YXXDR,A,5.4,D,PTCH,A,7.2,D,ROLL*59
