$GPRMC,000000.0,A,4741.20372,N,12224.27026,W,000.01,077.4,271013,016.6,E,D*24
$PGRME,2.4,M,2.4,M,3.4,M*29
$HCHDG,103.3,0.0,E,,*28
$IIVHW,,,,,00.0,N,,*19
$IIVLW,06452,N,040.7,N*55
$HCHDG,103.3,0.0,E,,*28
$IIVWR,130,L,09.3,N,,,,*77
$IIDPT,006.4,-1.0,*42
$YXXDR,A,5.3,D,PTCH,A,4.8,D,ROLL*57
$GPRMC,000000.2,A,4741.20372,N,12224.27026,W,000.00,077.4,271013,016.6,E,D*27
$GPRMB,A,0.20,L,,Shil,4741.0830,N,12224.5670,W,0.2,239,-0.00,V*1F
$PGRME,2.4,M,2.4,M,3.4,M*29
$HCHDG,103.2,0.0,E,,*29
$IIGLL,4741.203,N,12224.270,W,235900,A,A*4A
$IIMTW,+09.0,C*31
$HCHDG,103.3,0.0,E,,*28
$GPRMC,000000.4,A,4741.20372,N,12224.27026,W,000.01,077.4,271013,016.6,E,D*20
$HCHDG,103.3,0.0,E,,*28
$PGRME,2.4,M,2.4,M,3.4,M*29
$HCHDG,103.4,0.0,E,,*2F
$GPRMC,000000.6,A,4741.20372,N,12224.27026,W,000.01,077.4,271013,016.6,E,D*22
$PGRME,2.4,M,2.4,M,3.4,M*29
$HCHDG,103.4,0.0,E,,*2F
$YXXDR,A,5.3,D,PTCH,A,3.9,D,ROLL*51
$HCHDG,103.4,0.0,E,,*2F
$IIMWV,230,R,09.2,N,A*19
$GPRMC,000000.8,A,4741.20372,N,12224.27026,W,000.01,077.4,271013,016.6,E,D*2C
$PGRME,2.4,M,2.4,M,3.4,M*29
$HCHDG,103.2,0.0,E,,*29
$IIMWV,230,T,09.2,N,A*1F
$HCHDG,103.3,0.0,E,,*28
$IIRMB,A,0.20,L,,Shil,,,,,000.2,239,,V,A*71
$GPRMC,000001.0,A,4741.20372,N,12224.27026,W,000.01,077.4,271013,016.6,E,D*25
$PGRME,2.4,M,2.4,M,3.4,M*29
$HCHDG,103.3,0.0,E,,*28
$IIRMC,000000,A,4741.203,N,12224.270,W,00.0,077,261013,16,E,A*1B
$HCHDG,103.3,0.0,E,,*28
$IIVHW,,,,,00.0,N,,*19
$IIVLW,06452,N,040.7,N*55
$YXXDR,A,5.3,D,PTCH,A,3.6,D,ROLL*5E
$PTAK,FFD1,3.6*50
$GPRMC,000001.2,A,4741.20372,N,12224.27026,W,000.01,077.4,271013,016.6,E,D*27
$GPRMB,A,0.20,L,,Shil,4741.0830,N,12224.5670,W,0.2,239,-0.01,V*1E
$PGRME,2.4,M,2.4,M,3.4,M*29
$IIVWR,130,L,09.2,N,,,,*76
$HCHDG,103.3,0.0,E,,*28
$IIDPT,006.4,-1.0,*42
$HCHDG,103.3,0.0,E,,*28
$GPRMC,000001.4,A,4741.20373,N,12224.27025,W,000.01,077.4,271013,016.6,E,D*23
$HCHDG,103.4,0.0,E,,*2F
$PGRME,2.4,M,2.4,M,3.4,M*29
$HCHDG,103.3,0.0,E,,*28
$GPRMC,000001.6,A,4741.20373,N,12224.27025,W,000.01,077.4,271013,016.6,E,D*21
$PGRME,2.4,M,2.4,M,3.4,M*29
$HCHDG,103.2,0.0,E,,*29
$PTAK,FFP1,HEEL,@*07
$YXXDR,A,5.0,D,PTCH,A,5.0,D,ROLL*5D
$HCHDG,103.4,0.0,E,,*2F
$GPRMC,000001.8,A,4741.20373,N,12224.27025,W,000.01,077.4,271013,016.6,E,D*2F
$PGRME,2.4,M,2.4,M,3.4,M*29
$HCHDG,103.4,0.0,E,,*2F
$IIGLL,4741.203,N,12224.270,W,000000,A,A*47
$IIMTW,+09.0,C*31
$HCHDG,103.3,0.0,E,,*28
$IIMWV,229,R,09.3,N,A*10
$IIMWV,230,T,09.2,N,A*1F
$GPRMC,000002.0,A,4741.20373,N,12224.27025,W,000.01,077.4,271013,016.6,E,D*24
$HCHDG,103.3,0.0,E,,*28
$PGRME,2.4,M,2.4,M,3.4,M*29
$IIRMB,A,0.20,L,,Shil,,,,,000.2,239,,V,A*71
$HCHDG,103.2,0.0,E,,*29
$YXXDR,A,5.1,D,PTCH,A,4.5,D,ROLL*58
$GPRMC,000002.2,A,4741.20372,N,12224.27025,W,000.00,077.4,271013,016.6,E,D*26
$IIRMC,000000,A,4741.203,N,12224.270,W,00.0,077,261013,16,E,A*1B
$PGRME,2.4,M,2.4,M,3.4,M*29
$HCHDG,103.2,0.0,E,,*29
$IIVHW,,,,,00.0,N,,*19
$HCHDG,103.3,0.0,E,,*28
$IIVLW,06452,N,040.7,N*55
$GPRMC,000002.4,A,4741.20373,N,12224.27025,W,000.01,077.4,271013,016.6,E,D*20
$GPRMB,A,0.20,L,,Shil,4741.0830,N,12224.5670,W,0.2,239,-0.01,V*1E
$HCHDG,103.4,0.0,E,,*2F
$PGRME,2.4,M,2.4,M,3.4,M*29
$HCHDG,103.3,0.0,E,,*28
$GPRMC,000002.6,A,4741.20372,N,12224.27025,W,000.01,077.4,271013,016.6,E,D*23
$PGRME,2.4,M,2.4,M,3.4,M*29
$HCHDG,103.3,0.0,E,,*28
$YXXDR,A,5.3,D,PTCH,A,4.3,D,ROLL*5C
$PTAK,FFD1,4.3*52
$HCHDG,103.3,0.0,E,,*28
$IIVWR,132,L,09.1,N,,,,*77
$GPRMC,000002.8,A,4741.20372,N,12224.27025,W,000.01,077.4,271013,016.6,E,D*2D
$PGRME,2.4,M,2.4,M,3.4,M*29
$HCHDG,103.4,0.0,E,,*2F
$IIDPT,006.6,-1.0,*40
$HCHDG,103.5,0.0,E,,*2E
$IIGLL,4741.203,N,12224.270,W,000000,A,A*47
$IIMTW,+09.0,C*31
$GPRMC,000003.0,A,4741.20373,N,12224.27025,W,000.01,077.4,271013,016.6,E,D*25
$PGRME,2.4,M,2.4,M,3.4,M*29
$HCHDG,103.6,0.0,E,,*2D
$IIMWV,228,R,09.1,N,A*13
$IIMWV,229,T,09.3,N,A*16
$HCHDG,103.4,0.0,E,,*2F
$IIRMB,A,0.20,L,,Shil,,,,,000.2,239,,V,A*71
$YXXDR,A,5.3,D,PTCH,A,4.8,D,ROLL*57
$GPRMC,000003.2,A,4741.20373,N,12224.27025,W,000.02,077.4,271013,016.6,E,D*24
$PGRME,2.4,M,2.4,M,3.4,M*29
$HCHDG,103.6,0.0,E,,*2D
$HCHDG,103.8,0.0,E,,*23
$IIRMC,000000,A,4741.203,N,12224.270,W,00.0,077,261013,16,E,A*1B
$GPRMC,000003.4,A,4741.20373,N,12224.27024,W,000.01,077.4,271013,016.6,E,D*20
$GPRMB,A,0.20,L,,Shil,4741.0830,N,12224.5670,W,0.2,239,-0.01,V*1E
$PGRME,2.4,M,2.4,M,3.4,M*29
$HCHDG,103.8,0.0,E,,*23
$HCHDG,103.8,0.0,E,,*23
$GPRMC,000003.6,A,4741.20372,N,12224.27024,W,000.01,077.4,271013,016.6,E,D*23
$PGRME,2.4,M,2.4,M,3.4,M*29
$HCHDG,103.9,0.0,E,,*22
$YXXDR,A,5.2,D,PTCH,A,4.2,D,ROLL*5C
$HCHDG,103.9,0.0,E,,*22
$IIVHW,,,,,00.0,N,,*19
$GPRMC,000003.8,A,4741.20372,N,12224.27024,W,000.00,077.4,271013,016.6,E,D*2C
$HCHDG,104.0,0.0,E,,*2C
$PGRME,2.4,M,2.4,M,3.4,M*29
$IIVLW,06452,N,040.7,N*55
$IIVWR,131,L,09.2,N,,,,*77
$HCHDG,103.6,0.0,E,,*2D
$IIDPT,006.6,-1.0,*40
$GPRMC,000004.0,A,4741.20372,N,12224.27024,W,000.00,077.4,271013,016.6,E,D*23
$HCHDG,103.9,0.0,E,,*22
$PGRME,2.4,M,2.4,M,3.4,M*29
$IIGLL,4741.203,N,12224.270,W,000000,A,A*47
$IIMTW,+09.0,C*31
$HCHDG,104.0,0.0,E,,*2C
$IIMWV,229,R,09.2,N,A*11
$YXXDR,A,5.2,D,PTCH,A,3.5,D,ROLL*5C
$PTAK,FFD1,3.5*53
$IIMWV,228,T,09.1,N,A*15
$GPRMC,000004.2,A,4741.20372,N,12224.27024,W,000.00,077.4,271013,016.6,E,D*21
$PGRME,2.4,M,2.4,M,3.4,M*29
$HCHDG,104.0,0.0,E,,*2C
$IIRMB,A,0.20,L,,Shil,,,,,000.2,239,,V,A*71
$HCHDG,104.0,0.0,E,,*2C
$GPRMC,000004.4,A,4741.20372,N,12224.27024,W,000.01,077.4,271013,016.6,E,D*26
$HCHDG,104.0,0.0,E,,*2C
$PGRME,2.4,M,2.4,M,3.4,M*29
$HCHDG,104.0,0.0,E,,*2C
$GPRMC,000004.6,A,4741.20372,N,12224.27024,W,000.01,077.4,271013,016.6,E,D*24
$GPRMB,A,0.20,L,,Shil,4741.0830,N,12224.5670,W,0.2,239,-0.01,V*1E
$PGRME,2.4,M,2.4,M,3.4,M*29
$HCHDG,104.0,0.0,E,,*2C
$YXXDR,A,5.0,D,PTCH,A,3.6,D,ROLL*5D
$HCHDG,104.0,0.0,E,,*2C
$GPRMC,000004.8,A,4741.20372,N,12224.27024,W,000.01,077.4,271013,016.6,E,D*2A
$PGRME,2.4,M,2.4,M,3.4,M*29
$HCHDG,103.9,0.0,E,,*22
$IIRMC,000000,A,4741.203,N,12224.270,W,00.0,077,261013,16,E,A*1B
$HCHDG,103.9,0.0,E,,*22
$IIVHW,,,,,00.0,N,,*19
$IIVLW,06452,N,040.7,N*55
$GPRMC,000005.0,A,4741.20372,N,12224.27024,W,000.00,077.4,271013,016.6,E,D*22
$PGRME,2.4,M,2.4,M,3.4,M*29
$HCHDG,103.8,0.0,E,,*23
$IIVWR,130,L,09.3,N,,,,*77
$IIDPT,006.6,-1.0,*40
$HCHDG,103.8,0.0,E,,*23
$IIGLL,4741.203,N,12224.270,W,000000,A,A*47
$YXXDR,A,5.1,D,PTCH,A,4.0,D,ROLL*5D
$PTAK,FFD1,4.0*51
$GPRMC,000005.2,A,4741.20372,N,12224.27024,W,000.01,077.4,271013,016.6,E,D*21
$PGRME,2.4,M,2.4,M,3.4,M*29
$IIMTW,+09.0,C*31
$HCHDG,103.8,0.0,E,,*23
$IIMWV,230,R,09.3,N,A*18
$HCHDG,103.8,0.0,E,,*23
$IIMWV,229,T,09.2,N,A*17
$GPRMC,000005.4,A,4741.20372,N,12224.27023,W,000.01,077.4,271013,016.6,E,D*20
$HCHDG,103.8,0.0,E,,*23
$PGRME,2.4,M,2.4,M,3.4,M*29
$HCHDG,103.9,0.0,E,,*22
$GPRMC,000005.6,A,4741.20372,N,12224.27023,W,000.02,077.4,271013,016.6,E,D*21
$GPRMB,A,0.20,L,,Shil,4741.0830,N,12224.5670,W,0.2,239,-0.02,V*1D
$PGRME,2.4,M,2.4,M,3.4,M*29
$HCHDG,103.9,0.0,E,,*22
$PTAK,FFP1,HEEL,@*07
$YXXDR,A,5.4,D,PTCH,A,4.6,D,ROLL*5E
$HCHDG,104.0,0.0,E,,*2C
$GPRMC,000005.8,A,4741.20372,N,12224.27023,W,000.00,077.4,271013,016.6,E,D*2D
$PGRME,2.4,M,2.4,M,3.4,M*29
$HCHDG,104.1,0.0,E,,*2D
$IIRMB,A,0.20,L,,Shil,,,,,000.2,239,,V,A*71
$HCHDG,104.1,0.0,E,,*2D
$IIRMC,000000,A,4741.203,N,12224.270,W,00.0,077,261013,16,E,A*1B
$GPRMC,000006.0,A,4741.20372,N,12224.27023,W,000.02,077.4,271013,016.6,E,D*24
$PGRME,2.4,M,2.4,M,3.4,M*29
$HCHDG,104.2,0.0,E,,*2E
$IIVHW,,,,,00.0,N,,*19
$IIVLW,06452,N,040.7,N*55
$HCHDG,104.3,0.0,E,,*2F
$IIVWR,130,L,09.3,N,,,,*77
$IIDPT,006.6,-1.0,*40
$YXXDR,A,5.0,D,PTCH,A,4.0,D,ROLL*5C
$GPRMC,000006.2,A,4741.20372,N,12224.27023,W,000.01,077.4,271013,016.6,E,D*25
$PGRME,2.4,M,2.4,M,3.4,M*29
$HCHDG,104.5,0.0,E,,*29
$IIGLL,4741.203,N,12224.270,W,000000,A,A*47
$HCHDG,104.6,0.0,E,,*2A
$IIMTW,+09.0,C*31
$GPRMC,000006.4,A,4741.20372,N,12224.27023,W,000.01,077.4,271013,016.6,E,D*23
$HCHDG,104.6,0.0,E,,*2A
$PGRME,2.4,M,2.4,M,3.4,M*29
$HCHDG,104.6,0.0,E,,*2A
$GPRMC,000006.6,A,4741.20372,N,12224.27023,W,000.01,077.4,271013,016.6,E,D*21
$GPRMB,A,0.20,L,,Shil,4741.0830,N,12224.5670,W,0.2,239,-0.01,V*1E
$PGRME,2.4,M,2.4,M,3.4,M*29
$HCHDG,104.6,0.0,E,,*2A
$YXXDR,A,5.3,D,PTCH,A,4.0,D,ROLL*5F
$PTAK,FFD1,4.0*51
$HCHDG,104.6,0.0,E,,*2A
$IIMWV,231,R,09.2,N,A*18
$GPRMC,000006.8,A,4741.20372,N,12224.27023,W,000.00,077.4,271013,016.6,E,D*2E
$PGRME,2.4,M,2.4,M,3.4,M*29
$HCHDG,104.6,0.0,E,,*2A
$IIMWV,230,T,09.3,N,A*1E
$HCHDG,104.5,0.0,E,,*29
$IIRMB,A,0.20,L,,Shil,,,,,000.2,239,,V,A*71
$GPRMC,000007.0,A,4741.20372,N,12224.27023,W,000.01,077.4,271013,016.6,E,D*26
$PGRME,2.4,M,2.4,M,3.4,M*29
$HCHDG,104.4,0.0,E,,*28
$IIRMC,000000,A,4741.203,N,12224.270,W,00.0,077,261013,16,E,A*1B
$HCHDG,104.3,0.0,E,,*2F
$IIVHW,,,,,00.0,N,,*19
$IIVLW,06452,N,040.7,N*55
$YXXDR,A,5.2,D,PTCH,A,4.2,D,ROLL*5C
$GPRMC,000007.2,A,4741.20372,N,12224.27023,W,000.01,077.4,271013,016.6,E,D*24
$PGRME,2.4,M,2.4,M,3.4,M*29
$IIVWR,129,L,09.2,N,,,,*7E
$HCHDG,104.3,0.0,E,,*2F
$IIDPT,006.6,-1.0,*40
$HCHDG,104.2,0.0,E,,*2E
$GPRMC,000007.4,A,4741.20372,N,12224.27023,W,000.01,077.4,271013,016.6,E,D*22
$PGRME,2.4,M,2.4,M,3.4,M*29
$HCHDG,104.1,0.0,E,,*2D
$HCHDG,104.1,0.0,E,,*2D
$GPRMC,000007.6,A,4741.20372,N,12224.27023,W,000.01,077.4,271013,016.6,E,D*20
$PGRME,2.4,M,2.4,M,3.4,M*29
$HCHDG,104.2,0.0,E,,*2E
$YXXDR,A,4.5,D,PTCH,A,3.9,D,ROLL*56
$HCHDG,104.2,0.0,E,,*2E
$GPRMC,000007.8,A,4741.20372,N,12224.27023,W,000.01,077.4,271013,016.6,E,D*2E
$GPRMB,A,0.20,L,,Shil,4741.0830,N,12224.5670,W,0.2,239,-0.01,V*1E
$PGRME,2.4,M,2.4,M,3.4,M*29
$HCHDG,104.3,0.0,E,,*2F
$IIGLL,4741.203,N,12224.270,W,000000,A,A*47
$IIMTW,+09.0,C*31
$HCHDG,104.3,0.0,E,,*2F
$IIMWV,231,R,09.2,N,A*18
$IIMWV,231,T,09.2,N,A*1E
$GPRMC,000008.0,A,4741.20372,N,12224.27023,W,000.01,077.4,271013,016.6,E,D*29
$HCHDG,104.2,0.0,E,,*2E
$PGRME,2.4,M,2.4,M,3.4,M*29
$IIRMB,A,0.20,L,,Shil,,,,,000.2,239,,V,A*71
$HCHDG,104.0,0.0,E,,*2C
$YXXDR,A,5.2,D,PTCH,A,3.8,D,ROLL*51
$PTAK,FFD1,3.8*5E
$GPRMC,000008.2,A,4741.20372,N,12224.27024,W,000.02,077.4,271013,016.6,E,D*2F
$IIRMC,000000,A,4741.203,N,12224.270,W,00.0,077,261013,16,E,A*1B
$PGRME,2.4,M,2.4,M,3.4,M*29
$HCHDG,104.1,0.0,E,,*2D
$IIVHW,,,,,00.0,N,,*19
$HCHDG,104.2,0.0,E,,*2E
$IIVLW,06452,N,040.7,N*55
$GPRMC,000008.4,A,4741.20372,N,12224.27024,W,000.01,077.4,271013,016.6,E,D*2A
$PGRME,2.4,M,2.4,M,3.4,M*29
$HCHDG,104.2,0.0,E,,*2E
$HCHDG,104.2,0.0,E,,*2E
$GPRMC,000008.6,A,4741.20372,N,12224.27024,W,000.01,077.4,271013,016.6,E,D*28
$PGRME,2.4,M,2.4,M,3.4,M*29
$HCHDG,104.3,0.0,E,,*2F
$YXXDR,A,5.1,D,PTCH,A,3.4,D,ROLL*5E
$HCHDG,104.2,0.0,E,,*2E
$IIVWR,129,L,09.1,N,,,,*7D
$GPRMC,000008.8,A,4741.20372,N,12224.27024,W,000.02,077.4,271013,016.6,E,D*25
$GPRMB,A,0.20,L,,Shil,4741.0830,N,12224.5670,W,0.2,239,-0.02,V*1D
$PGRME,2.4,M,2.4,M,3.4,M*29
$HCHDG,104.4,0.0,E,,*28
$IIDPT,006.4,-1.0,*42
$HCHDG,104.3,0.0,E,,*2F
$IIGLL,4741.203,N,12224.270,W,000000,A,A*47
$IIMTW,+09.0,C*31
$GPRMC,000009.0,A,4741.20372,N,12224.27024,W,000.00,077.4,271013,016.6,E,D*2E
$PGRME,2.4,M,2.4,M,3.4,M*29
$HCHDG,104.2,0.0,E,,*2E
$IIMWV,231,R,09.1,N,A*1B
$IIMWV,231,T,09.2,N,A*1E
$HCHDG,104.2,0.0,E,,*2E
$IIRMB,A,0.20,L,,Shil,,,,,000.2,239,,V,A*71
$YXXDR,A,5.2,D,PTCH,A,5.4,D,ROLL*5B
$PTAK,FFD1,5.4*54
$GPRMC,000009.2,A,4741.20372,N,12224.27024,W,000.00,077.4,271013,016.6,E,D*2C
$PGRME,2.4,M,2.4,M,3.4,M*29
$HCHDG,104.1,0.0,E,,*2D
$HCHDG,104.1,0.0,E,,*2D
$IIRMC,000000,A,4741.203,N,12224.270,W,00.0,077,261013,16,E,A*1B
$GPRMC,000009.4,A,4741.20372,N,12224.27024,W,000.01,077.4,271013,016.6,E,D*2B
$PGRME,2.4,M,2.4,M,3.4,M*29
$HCHDG,104.0,0.0,E,,*2C
$HCHDG,104.1,0.0,E,,*2D
$GPRMC,000009.6,A,4741.20372,N,12224.27024,W,000.01,077.4,271013,016.6,E,D*29
$PGRME,2.4,M,2.4,M,3.4,M*29
$HCHDG,104.0,0.0,E,,*2C
$YXXDR,A,5.0,D,PTCH,A,4.2,D,ROLL*5E
$HCHDG,104.0,0.0,E,,*2C
$IIVHW,,,,,00.0,N,,*19
$GPRMC,000009.8,A,4741.20372,N,12224.27024,W,000.01,077.4,271013,016.6,E,D*27
$PTAK,FFP1,HEEL,@*07
$PGRME,2.4,M,2.4,M,3.4,M*29
$HCHDG,103.9,0.0,E,,*22
$IIVLW,06452,N,040.7,N*55
$IIVWR,128,L,09.2,N,,,,*7F
$HCHDG,103.9,0.0,E,,*22
$IIDPT,006.4,-1.0,*42
$GPRMC,000010.0,A,4741.20372,N,12224.27023,W,000.01,077.4,271013,016.6,E,D*20
$GPRMB,A,0.20,L,,Shil,4741.0830,N,12224.5670,W,0.2,239,-0.01,V*1E
$PGRME,2.4,M,2.4,M,3.4,M*29
$HCHDG,103.9,0.0,E,,*22
$IIGLL,4741.203,N,12224.270,W,000000,A,A*47
$IIMTW,+09.0,C*31
$HCHDG,103.7,0.0,E,,*2C
$IIMWV,232,R,09.2,N,A*1B
$IIMWV,231,T,09.1,N,A*1D
$YXXDR,A,5.7,D,PTCH,A,3.2,D,ROLL*5E
$PTAK,FFD1,3.2*54
$GPRMC,000010.2,A,4741.20372,N,12224.27023,W,000.01,077.4,271013,016.6,E,D*22
$PGRME,2.4,M,2.4,M,3.4,M*29
$HCHDG,103.7,0.0,E,,*2C
$IIRMB,A,0.20,L,,Shil,,,,,000.2,239,,V,A*71
$HCHDG,103.7,0.0,E,,*2C
$GPRMC,000010.4,A,4741.20372,N,12224.27023,W,000.01,077.4,271013,016.6,E,D*24
$PGRME,2.4,M,2.4,M,3.4,M*29
$HCHDG,103.5,0.0,E,,*2E
$HCHDG,103.5,0.0,E,,*2E
$GPRMC,000010.6,A,4741.20372,N,12224.27023,W,000.01,077.4,271013,016.6,E,D*26
$PGRME,2.4,M,2.4,M,3.4,M*29
$HCHDG,103.5,0.0,E,,*2E
$YXXDR,A,5.4,D,PTCH,A,3.7,D,ROLL*58
$HCHDG,103.5,0.0,E,,*2E
$GPRMC,000010.8,A,4741.20372,N,12224.27023,W,000.00,077.4,271013,016.6,E,D*29
$PGRME,2.4,M,2.4,M,3.4,M*29
$HCHDG,103.5,0.0,E,,*2E
$IIRMC,000000,A,4741.203,N,12224.270,W,00.0,077,261013,16,E,A*1B
$HCHDG,103.5,0.0,E,,*2E
$IIVHW,,,,,00.0,N,,*19
$IIVLW,06452,N,040.7,N*55
$GPRMC,000011.0,A,4741.20372,N,12224.27023,W,000.01,077.4,271013,016.6,E,D*21
$GPRMB,A,0.20,L,,Shil,4741.0830,N,12224.5670,W,0.2,239,-0.01,V*1E
$PGRME,2.4,M,2.4,M,3.4,M*29
$HCHDG,103.5,0.0,E,,*2E
$IIVWR,129,L,09.2,N,,,,*7E
$IIDPT,006.6,-1.0,*40
$HCHDG,103.5,0.0,E,,*2E
$IIGLL,4741.203,N,12224.270,W,000000,A,A*47
$YXXDR,A,5.3,D,PTCH,A,4.4,D,ROLL*5B
$GPRMC,000011.2,A,4741.20372,N,12224.27023,W,000.01,077.4,271013,016.6,E,D*23
$PGRME,2.4,M,2.4,M,3.4,M*29
$IIMTW,+09.0,C*31
$HCHDG,103.5,0.0,E,,*2E
$IIMWV,231,R,09.2,N,A*18
$HCHDG,103.5,0.0,E,,*2E
$IIMWV,232,T,09.2,N,A*1D
$GPRMC,000011.4,A,4741.20372,N,12224.27023,W,000.01,077.4,271013,016.6,E,D*25
$HCHDG,103.5,0.0,E,,*2E
$PGRME,2.4,M,2.4,M,3.4,M*29
$HCHDG,103.5,0.0,E,,*2E
$GPRMC,000011.6,A,4741.20372,N,12224.27023,W,000.01,077.4,271013,016.6,E,D*27
$PGRME,2.4,M,2.4,M,3.4,M*29
$HCHDG,103.5,0.0,E,,*2E
$YXXDR,A,5.2,D,PTCH,A,4.6,D,ROLL*58
$PTAK,FFD1,4.6*57
$HCHDG,103.5,0.0,E,,*2E
$GPRMC,000011.8,A,4741.20372,N,12224.27024,W,000.00,077.4,271013,016.6,E,D*2F
$PGRME,2.4,M,2.4,M,3.4,M*29
$HCHDG,103.6,0.0,E,,*2D
$IIRMB,A,0.20,L,,Shil,,,,,000.2,239,,V,A*71
$HCHDG,103.6,0.0,E,,*2D
$IIRMC,000000,A,4741.203,N,12224.270,W,00.0,077,261013,16,E,A*1B
$GPRMC,000012.0,A,4741.20372,N,12224.27024,W,000.03,077.4,271013,016.6,E,D*27
$PGRME,2.4,M,2.4,M,3.4,M*29
$HCHDG,103.4,0.0,E,,*2F
$IIVHW,,,,,00.0,N,,*19
$IIVLW,06452,N,040.7,N*55
$HCHDG,103.4,0.0,E,,*2F
$IIVWR,129,L,09.1,N,,,,*7D
$IIDPT,006.6,-1.0,*40
$YXXDR,A,5.2,D,PTCH,A,4.0,D,ROLL*5E
$GPRMC,000012.2,A,4741.20372,N,12224.27024,W,000.00,077.4,271013,016.6,E,D*26
$GPRMB,A,0.20,L,,Shil,4741.0830,N,12224.5670,W,0.2,239,-0.00,V*1F
$PGRME,2.4,M,2.4,M,3.4,M*29
$HCHDG,103.5,0.0,E,,*2E
$IIGLL,4741.203,N,12224.270,W,000000,A,A*47
$IIMTW,+09.0,C*31
$HCHDG,103.5,0.0,E,,*2E
$GPRMC,000012.4,A,4741.20373,N,12224.27024,W,000.01,077.4,271013,016.6,E,D*20
$HCHDG,103.6,0.0,E,,*2D
$PGRME,2.4,M,2.4,M,3.4,M*29
$HCHDG,103.6,0.0,E,,*2D
$GPRMC,000012.6,A,4741.20373,N,12224.27024,W,000.00,077.4,271013,016.6,E,D*23
$PGRME,2.4,M,2.4,M,3.4,M*29
$HCHDG,103.8,0.0,E,,*23
$YXXDR,A,5.1,D,PTCH,A,4.0,D,ROLL*5D
$HCHDG,103.7,0.0,E,,*2C
$IIMWV,231,R,09.0,N,A*1A
$GPRMC,000012.8,A,4741.20373,N,12224.27024,W,000.01,077.4,271013,016.6,E,D*2C
$PGRME,2.4,M,2.4,M,3.4,M*29
$HCHDG,103.6,0.0,E,,*2D
$IIMWV,231,T,09.1,N,A*1D
$HCHDG,103.6,0.0,E,,*2D
$IIRMB,A,0.20,L,,Shil,,,,,000.2,239,,V,A*71
$GPRMC,000013.0,A,4741.20373,N,12224.27024,W,000.01,077.4,271013,016.6,E,D*25
$PGRME,2.4,M,2.4,M,3.4,M*29
$HCHDG,103.5,0.0,E,,*2E
$IIRMC,000000,A,4741.203,N,12224.270,W,00.0,077,261013,16,E,A*1B
$HCHDG,103.4,0.0,E,,*2F
$IIVHW,,,,,00.0,N,,*19
$IIVLW,06452,N,040.7,N*55
$YXXDR,A,5.1,D,PTCH,A,4.6,D,ROLL*5B
$PTAK,FFD1,4.6*57
$GPRMC,000013.2,A,4741.20373,N,12224.27024,W,000.01,077.4,271013,016.6,E,D*27
$GPRMB,A,0.20,L,,Shil,4741.0830,N,12224.5670,W,0.2,239,-0.01,V*1E
$PGRME,2.4,M,2.4,M,3.4,M*29
$IIVWR,129,L,09.0,N,,,,*7C
$HCHDG,103.4,0.0,E,,*2F
$IIDPT,006.6,-1.0,*40
$HCHDG,103.3,0.0,E,,*28
$GPRMC,000013.4,A,4741.20373,N,12224.27024,W,000.02,077.4,271013,016.6,E,D*22
$PGRME,2.4,M,2.4,M,3.4,M*29
$HCHDG,103.3,0.0,E,,*28
$HCHDG,103.3,0.0,E,,*28
$GPRMC,000013.6,A,4741.20373,N,12224.27024,W,000.01,077.4,271013,016.6,E,D*23
$PGRME,2.4,M,2.4,M,3.4,M*29
$HCHDG,103.3,0.0,E,,*28
$YXXDR,A,5.1,D,PTCH,A,4.2,D,ROLL*5F
$HCHDG,103.3,0.0,E,,*28
$GPRMC,000013.8,A,4741.20373,N,12224.27024,W,000.01,077.4,271013,016.6,E,D*2D
$PGRME,2.4,M,2.4,M,3.4,M*29
$HCHDG,103.4,0.0,E,,*2F
$PTAK,FFP1,HEEL,@*07
$IIGLL,4741.203,N,12224.270,W,000000,A,A*47
$IIMTW,+09.0,C*31
$HCHDG,103.4,0.0,E,,*2F
$IIMWV,231,R,09.1,N,A*1B
$IIMWV,231,T,09.0,N,A*1C
$GPRMC,000014.0,A,4741.20373,N,12224.27024,W,000.01,077.4,271013,016.6,E,D*22
$PGRME,2.4,M,2.4,M,3.4,M*29
$HCHDG,103.5,0.0,E,,*2E
$IIRMB,A,0.20,L,,Shil,,,,,000.2,239,,V,A*71
$HCHDG,103.5,0.0,E,,*2E
$YXXDR,A,5.1,D,PTCH,A,3.0,D,ROLL*5A
$IIRMC,000000,A,4741.203,N,12224.270,W,00.0,077,261013,16,E,A*1B
$GPRMC,000014.2,A,4741.20373,N,12224.27024,W,000.01,077.4,271013,016.6,E,D*20
$GPRMB,A,0.20,L,,Shil,4741.0830,N,12224.5670,W,0.2,239,-0.01,V*1E
$PGRME,2.4,M,2.4,M,3.4,M*29
$HCHDG,103.5,0.0,E,,*2E
$IIVHW,,,,,00.0,N,,*19
$IIVLW,06452,N,040.7,N*55
$HCHDG,103.5,0.0,E,,*2E
$GPRMC,000014.4,A,4741.20373,N,12224.27024,W,000.02,077.4,271013,016.6,E,D*25
$PGRME,2.4,M,2.4,M,3.4,M*29
$HCHDG,103.4,0.0,E,,*2F
$HCHDG,103.4,0.0,E,,*2F
$GPRMC,000014.6,A,4741.20373,N,12224.27024,W,000.01,077.4,271013,016.6,E,D*24
$PGRME,2.4,M,2.4,M,3.4,M*29
$HCHDG,103.5,0.0,E,,*2E
$YXXDR,A,4.9,D,PTCH,A,3.0,D,ROLL*53
$PTAK,FFD1,3.0*56
$HCHDG,103.6,0.0,E,,*2D
$IIVWR,130,L,09.0,N,,,,*74
$GPRMC,000014.8,A,4741.20373,N,12224.27025,W,000.00,077.4,271013,016.6,E,D*2A
$PGRME,2.4,M,2.4,M,3.4,M*29
$HCHDG,103.5,0.0,E,,*2E
$IIDPT,006.6,-1.0,*40
$HCHDG,103.4,0.0,E,,*2F
$IIGLL,4741.203,N,12224.270,W,000000,A,A*47
$IIMTW,+09.0,C*31
$GPRMC,000015.0,A,4741.20373,N,12224.27024,W,000.01,077.4,271013,016.6,E,D*23
$PGRME,2.4,M,2.4,M,3.4,M*29
$HCHDG,103.4,0.0,E,,*2F
$IIMWV,230,R,09.0,N,A*1B
$IIMWV,231,T,09.1,N,A*1D
$HCHDG,103.3,0.0,E,,*28
$IIRMB,A,0.20,L,,Shil,,,,,000.2,239,,V,A*71
$YXXDR,A,5.2,D,PTCH,A,5.6,D,ROLL*59
$GPRMC,000015.2,A,4741.20373,N,12224.27024,W,000.01,077.4,271013,016.6,E,D*21
$PGRME,2.4,M,2.4,M,3.4,M*29
$HCHDG,103.3,0.0,E,,*28
$IIRMC,000000,A,4741.203,N,12224.270,W,00.0,077,261013,16,E,A*1B
$HCHDG,103.3,0.0,E,,*28
$GPRMC,000015.4,A,4741.20373,N,12224.27024,W,000.02,077.4,271013,016.6,E,D*24
$GPRMB,A,0.20,L,,Shil,4741.0830,N,12224.5670,W,0.2,239,-0.02,V*1D
$HCHDG,103.3,0.0,E,,*28
$PGRME,2.4,M,2.4,M,3.4,M*29
$HCHDG,103.1,0.0,E,,*2A
$GPRMC,000015.6,A,4741.20373,N,12224.27024,W,000.02,077.4,271013,016.6,E,D*26
$PGRME,2.4,M,2.4,M,3.4,M*29
$HCHDG,103.1,0.0,E,,*2A
$YXXDR,A,5.3,D,PTCH,A,4.6,D,ROLL*59
$PTAK,FFD1,4.6*57
$HCHDG,103.2,0.0,E,,*29
$IIVHW,,,,,00.0,N,,*19
$GPRMC,000015.8,A,4741.20374,N,12224.27023,W,000.00,077.4,271013,016.6,E,D*2A
$PGRME,2.4,M,2.4,M,3.4,M*29
$HCHDG,103.2,0.0,E,,*29
$IIVLW,06452,N,040.7,N*55
$IIVWR,130,L,08.9,N,,,,*7C
$HCHDG,103.3,0.0,E,,*28
$IIDPT,006.6,-1.0,*40
$GPRMC,000016.0,A,4741.20374,N,12224.27023,W,000.00,077.4,271013,016.6,E,D*21
$PGRME,2.4,M,2.4,M,3.4,M*29
$HCHDG,103.3,0.0,E,,*28
$IIGLL,4741.203,N,12224.270,W,000000,A,A*47
$IIMTW,+09.0,C*31
$HCHDG,103.3,0.0,E,,*28
$IIMWV,230,R,08.9,N,A*13
$IIMWV,230,T,09.0,N,A*1D
$YXXDR,A,5.2,D,PTCH,A,3.6,D,ROLL*5F
$GPRMC,000016.2,A,4741.20373,N,12224.27023,W,000.00,077.4,271013,016.6,E,D*24
$PGRME,2.4,M,2.4,M,3.4,M*29
$HCHDG,103.4,0.0,E,,*2F
$IIRMB,A,0.20,L,,Shil,,,,,000.2,239,,V,A*71
$HCHDG,103.3,0.0,E,,*28
$GPRMC,000016.4,A,4741.20374,N,12224.27023,W,000.01,077.4,271013,016.6,E,D*24
$HCHDG,103.4,0.0,E,,*2F
$PGRME,2.4,M,2.4,M,3.4,M*29
$HCHDG,103.0,0.0,E,,*2B
$GPRMC,000016.6,A,4741.20374,N,12224.27023,W,000.01,077.4,271013,016.6,E,D*26
$GPRMB,A,0.20,L,,Shil,4741.0830,N,12224.5670,W,0.2,239,-0.01,V*1E
$PGRME,2.4,M,2.4,M,3.4,M*29
$HCHDG,103.0,0.0,E,,*2B
$YXXDR,A,5.2,D,PTCH,A,4.6,D,ROLL*58
$PTAK,FFD1,4.6*57
$HCHDG,102.9,0.0,E,,*23
$GPRMC,000016.8,A,4741.20374,N,12224.27023,W,000.02,077.4,271013,016.6,E,D*2B
$PGRME,2.4,M,2.4,M,3.4,M*29
$HCHDG,102.9,0.0,E,,*23
$IIRMC,000000,A,4741.203,N,12224.270,W,00.0,077,261013,16,E,A*1B
$HCHDG,102.8,0.0,E,,*22
$IIVHW,,,,,00.0,N,,*19
$IIVLW,06452,N,040.7,N*55
$GPRMC,000017.0,A,4741.20374,N,12224.27023,W,000.03,077.4,271013,016.6,E,D*23
$PGRME,2.4,M,2.4,M,3.4,M*29
$HCHDG,102.8,0.0,E,,*22
$IIVWR,130,L,08.8,N,,,,*7D
$IIDPT,006.6,-1.0,*40
$HCHDG,102.9,0.0,E,,*23
$IIGLL,4741.203,N,12224.270,W,000000,A,A*47
$YXXDR,A,5.3,D,PTCH,A,4.4,D,ROLL*5B
$GPRMC,000017.2,A,4741.20374,N,12224.27023,W,000.01,077.4,271013,016.6,E,D*23
$PGRME,2.4,M,2.4,M,3.4,M*29
$IIMTW,+09.0,C*31
$HCHDG,103.1,0.0,E,,*2A
$IIMWV,230,R,08.8,N,A*12
$HCHDG,103.1,0.0,E,,*2A
$IIMWV,230,T,08.9,N,A*15
$GPRMC,000017.4,A,4741.20374,N,12224.27023,W,000.02,077.4,271013,016.6,E,D*26
$HCHDG,103.3,0.0,E,,*28
$PGRME,2.4,M,2.4,M,3.4,M*29
$HCHDG,103.2,0.0,E,,*29
$GPRMC,000017.6,A,4741.20373,N,12224.27023,W,000.00,077.4,271013,016.6,E,D*21
$GPRMB,A,0.20,L,,Shil,4741.0830,N,12224.5670,W,0.2,239,-0.00,V*1F
$PGRME,2.4,M,2.4,M,3.4,M*29
$HCHDG,103.3,0.0,E,,*28
$YXXDR,A,5.0,D,PTCH,A,3.3,D,ROLL*58
$PTAK,FFD1,3.3*55
$HCHDG,103.3,0.0,E,,*28
$GPRMC,000017.8,A,4741.20373,N,12224.27023,W,000.01,077.4,271013,016.6,E,D*2E
$PGRME,2.4,M,2.4,M,3.4,M*29
$HCHDG,103.4,0.0,E,,*2F
$PTAK,FFP1,HEEL,@*07
$IIRMB,A,0.20,L,,Shil,,,,,000.2,239,,V,A*71
$HCHDG,103.4,0.0,E,,*2F
$IIRMC,000000,A,4741.203,N,12224.270,W,00.0,077,261013,16,E,A*1B
$GPRMC,000018.0,A,4741.20373,N,12224.27022,W,000.00,077.4,271013,016.6,E,D*29
$PGRME,2.4,M,2.4,M,3.4,M*29
$HCHDG,103.3,0.0,E,,*28
$IIVHW,,,,,00.0,N,,*19
$IIVLW,06452,N,040.7,N*55
$HCHDG,103.4,0.0,E,,*2F
$IIVWR,131,L,09.0,N,,,,*75
$IIDPT,006.6,-1.0,*40
$YXXDR,A,5.3,D,PTCH,A,2.8,D,ROLL*51
$GPRMC,000018.2,A,4741.20373,N,12224.27022,W,000.00,077.4,271013,016.6,E,D*2B
$PGRME,2.4,M,2.4,M,3.4,M*29
$HCHDG,103.5,0.0,E,,*2E
$IIGLL,4741.203,N,12224.270,W,000000,A,A*47
$IIMTW,+09.0,C*31
$HCHDG,103.6,0.0,E,,*2D
$GPRMC,000018.4,A,4741.20373,N,12224.27023,W,000.02,077.4,271013,016.6,E,D*2E
$PGRME,2.4,M,2.4,M,3.4,M*29
$HCHDG,103.6,0.0,E,,*2D
$HCHDG,103.7,0.0,E,,*2C
$GPRMC,000018.6,A,4741.20374,N,12224.27023,W,000.01,077.4,271013,016.6,E,D*28
$PGRME,2.4,M,2.4,M,3.4,M*29
$HCHDG,103.7,0.0,E,,*2C
$YXXDR,A,5.0,D,PTCH,A,4.2,D,ROLL*5E
$HCHDG,103.8,0.0,E,,*23
$IIMWV,229,R,08.9,N,A*1B
$GPRMC,000018.8,A,4741.20373,N,12224.27023,W,000.01,077.4,271013,016.6,E,D*21
$GPRMB,A,0.20,L,,Shil,4741.0830,N,12224.5670,W,0.2,239,-0.01,V*1E
$PGRME,2.4,M,2.4,M,3.4,M*29
$HCHDG,103.9,0.0,E,,*22
$IIMWV,229,T,09.0,N,A*15
$HCHDG,103.8,0.0,E,,*23
$IIRMB,A,0.20,L,,Shil,,,,,000.2,239,,V,A*71
$GPRMC,000019.0,A,4741.20373,N,12224.27023,W,000.01,077.4,271013,016.6,E,D*28
$PGRME,2.4,M,2.4,M,3.4,M*29
$HCHDG,103.8,0.0,E,,*23
$IIRMC,000000,A,4741.203,N,12224.270,W,00.0,077,261013,16,E,A*1B
$HCHDG,103.8,0.0,E,,*23
$IIVHW,,,,,00.0,N,,*19
$IIVLW,06452,N,040.7,N*55
$YXXDR,A,5.1,D,PTCH,A,4.5,D,ROLL*58
$PTAK,FFD1,4.5*54
$GPRMC,000019.2,A,4741.20373,N,12224.27023,W,000.01,077.4,271013,016.6,E,D*2A
$PGRME,2.4,M,2.4,M,3.4,M*29
$IIVWR,131,L,08.9,N,,,,*7D
$HCHDG,103.8,0.0,E,,*23
$IIDPT,006.4,-1.0,*42
$HCHDG,103.5,0.0,E,,*2E
$GPRMC,000019.4,A,4741.20373,N,12224.27023,W,000.01,077.4,271013,016.6,E,D*2C
$PGRME,2.4,M,2.4,M,3.4,M*29
$HCHDG,103.4,0.0,E,,*2F
$HCHDG,103.4,0.0,E,,*2F
$GPRMC,000019.6,A,4741.20374,N,12224.27023,W,000.01,077.4,271013,016.6,E,D*29
$PGRME,2.4,M,2.4,M,3.4,M*29
$HCHDG,103.3,0.0,E,,*28
$YXXDR,A,5.4,D,PTCH,A,4.9,D,ROLL*51
$HCHDG,103.2,0.0,E,,*29
$GPRMC,000019.8,A,4741.20374,N,12224.27023,W,000.02,077.4,271013,016.6,E,D*24
$PGRME,2.4,M,2.4,M,3.4,M*29
$HCHDG,103.2,0.0,E,,*29
$IIGLL,4741.203,N,12224.270,W,000000,A,A*47
$IIMTW,+09.0,C*31
$HCHDG,103.4,0.0,E,,*2F
$IIMWV,230,R,08.8,N,A*12
$IIMWV,229,T,08.9,N,A*1D
$GPRMC,000020.0,A,4741.20373,N,12224.27023,W,000.01,077.4,271013,016.6,E,D*22
$GPRMB,A,0.20,L,,Shil,4741.0830,N,12224.5670,W,0.2,239,-0.01,V*1E
$PGRME,2.4,M,2.4,M,3.4,M*29
$HCHDG,103.3,0.0,E,,*28
$IIRMB,A,0.20,L,,Shil,,,,,000.2,239,,V,A*71
$HCHDG,103.2,0.0,E,,*29
$YXXDR,A,5.3,D,PTCH,A,4.8,D,ROLL*57
$PTAK,FFD1,4.8*59
$GPRMC,000020.2,A,4741.20373,N,12224.27023,W,000.01,077.4,271013,016.6,E,D*20
$IIRMC,000000,A,4741.203,N,12224.270,W,00.0,077,261013,16,E,A*1B
$PGRME,2.4,M,2.4,M,3.4,M*29
$HCHDG,103.2,0.0,E,,*29
$IIVHW,,,,,00.0,N,,*19
$HCHDG,103.2,0.0,E,,*29
$IIVLW,06452,N,040.7,N*55
$GPRMC,000020.4,A,4741.20374,N,12224.27023,W,000.01,077.4,271013,016.6,E,D*21
$HCHDG,103.4,0.0,E,,*2F
$PGRME,2.4,M,2.4,M,3.4,M*29
$HCHDG,103.4,0.0,E,,*2F
$GPRMC,000020.6,A,4741.20374,N,12224.27023,W,000.03,077.4,271013,016.6,E,D*21
$PGRME,2.4,M,2.4,M,3.4,M*29
$HCHDG,103.5,0.0,E,,*2E
$YXXDR,A,5.2,D,PTCH,A,4.2,D,ROLL*5C
$HCHDG,103.5,0.0,E,,*2E
$IIVWR,130,L,08.8,N,,,,*7D
$GPRMC,000020.8,A,4741.20373,N,12224.27023,W,000.02,077.4,271013,016.6,E,D*29
$PGRME,2.4,M,2.4,M,3.4,M*29
$HCHDG,103.6,0.0,E,,*2D
$IIDPT,006.4,-1.0,*42
$HCHDG,103.4,0.0,E,,*2F
$IIGLL,4741.203,N,12224.270,W,000000,A,A*47
$IIMTW,+09.0,C*31
$GPRMC,000021.0,A,4741.20373,N,12224.27023,W,000.01,077.4,271013,016.6,E,D*23
$PGRME,2.4,M,2.4,M,3.4,M*29
$HCHDG,103.5,0.0,E,,*2E
$IIMWV,230,R,08.8,N,A*12
$IIMWV,230,T,08.8,N,A*14
$HCHDG,103.6,0.0,E,,*2D
$IIRMB,A,0.20,L,,Shil,,,,,000.2,239,,V,A*71
$YXXDR,A,5.2,D,PTCH,A,4.6,D,ROLL*58
$GPRMC,000021.2,A,4741.20373,N,12224.27023,W,000.01,077.4,271013,016.6,E,D*21
$GPRMB,A,0.20,L,,Shil,4741.0830,N,12224.5670,W,0.2,239,-0.01,V*1E
$PGRME,2.4,M,2.4,M,3.4,M*29
$HCHDG,103.7,0.0,E,,*2C
$HCHDG,103.7,0.0,E,,*2C
$IIRMC,000000,A,4741.203,N,12224.270,W,00.0,077,261013,16,E,A*1B
$GPRMC,000021.4,A,4741.20373,N,12224.27023,W,000.01,077.4,271013,016.6,E,D*27
$PGRME,2.4,M,2.4,M,3.4,M*29
$HCHDG,103.5,0.0,E,,*2E
$HCHDG,103.5,0.0,E,,*2E
$GPRMC,000021.6,A,4741.20373,N,12224.27023,W,000.00,077.4,271013,016.6,E,D*24
$PGRME,2.4,M,2.4,M,3.4,M*29
$HCHDG,103.4,0.0,E,,*2F
$YXXDR,A,5.0,D,PTCH,A,5.7,D,ROLL*5A
$PTAK,FFD1,5.7*57
$HCHDG,103.4,0.0,E,,*2F
$IIVHW,,,,,00.0,N,,*19
$GPRMC,000021.8,A,4741.20373,N,12224.27023,W,000.00,077.4,271013,016.6,E,D*2A
$PGRME,2.4,M,2.4,M,3.4,M*29
$HCHDG,103.4,0.0,E,,*2F
$IIVLW,06452,N,040.7,N*55
$IIVWR,132,L,08.7,N,,,,*70
$HCHDG,103.4,0.0,E,,*2F
$IIDPT,006.4,-1.0,*42
$GPRMC,000022.0,A,4741.20373,N,12224.27023,W,000.00,077.4,271013,016.6,E,D*21
$PGRME,2.4,M,2.4,M,3.4,M*29
$HCHDG,103.3,0.0,E,,*28
$IIGLL,4741.203,N,12224.270,W,000000,A,A*47
$IIMTW,+09.0,C*31
$HCHDG,103.2,0.0,E,,*29
$IIMWV,228,R,08.7,N,A*14
$PTAK,FFP1,HEEL,@*07
$IIMWV,230,T,08.8,N,A*14
$YXXDR,A,5.2,D,PTCH,A,6.1,D,ROLL*5D
$GPRMC,000022.2,A,4741.20373,N,12224.27022,W,000.01,077.4,271013,016.6,E,D*23
$PGRME,2.4,M,2.4,M,3.4,M*29
$HCHDG,103.2,0.0,E,,*29
$IIRMB,A,0.20,L,,Shil,,,,,000.2,239,,V,A*71
$HCHDG,103.1,0.0,E,,*2A
$GPRMC,000022.4,A,4741.20373,N,12224.27023,W,000.01,077.4,271013,016.6,E,D*24
$HCHDG,103.0,0.0,E,,*2B
$PGRME,2.4,M,2.4,M,3.4,M*29
$HCHDG,103.1,0.0,E,,*2A
$GPRMC,000022.6,A,4741.20373,N,12224.27023,W,000.01,077.4,271013,016.6,E,D*26
$GPRMB,A,0.20,L,,Shil,4741.0830,N,12224.5670,W,0.2,239,-0.01,V*1E
$PGRME,2.4,M,2.4,M,3.4,M*29
$HCHDG,103.1,0.0,E,,*2A
$YXXDR,A,5.3,D,PTCH,A,6.1,D,ROLL*5C
$PTAK,FFD1,6.1*52
$HCHDG,103.1,0.0,E,,*2A
$GPRMC,000022.8,A,4741.20373,N,12224.27023,W,000.02,077.4,271013,016.6,E,D*2B
$PGRME,2.4,M,2.4,M,3.4,M*29
$HCHDG,103.0,0.0,E,,*2B
$IIRMC,000000,A,4741.203,N,12224.270,W,00.0,077,261013,16,E,A*1B
$HCHDG,103.0,0.0,E,,*2B
$IIVHW,,,,,00.0,N,,*19
$IIVLW,06452,N,040.7,N*55
$GPRMC,000023.0,A,4741.20373,N,12224.27023,W,000.01,077.4,271013,016.6,E,D*21
$PGRME,2.4,M,2.4,M,3.4,M*29
$HCHDG,103.0,0.0,E,,*2B
$IIVWR,131,L,08.6,N,,,,*72
$IIDPT,006.4,-1.0,*42
$HCHDG,103.0,0.0,E,,*2B
$IIGLL,4741.203,N,12224.270,W,000000,A,A*47
$YXXDR,A,5.1,D,PTCH,A,5.1,D,ROLL*5D
$GPRMC,000023.2,A,4741.20374,N,12224.27023,W,000.01,077.4,271013,016.6,E,D*24
$PGRME,2.4,M,2.4,M,3.4,M*29
$IIMTW,+09.0,C*31
$HCHDG,103.1,0.0,E,,*2A
$IIMWV,229,R,08.6,N,A*14
$HCHDG,103.1,0.0,E,,*2A
$IIMWV,228,T,08.7,N,A*12
$GPRMC,000023.4,A,4741.20374,N,12224.27023,W,000.01,077.4,271013,016.6,E,D*22
$HCHDG,103.0,0.0,E,,*2B
$PGRME,2.4,M,2.4,M,3.4,M*29
$HCHDG,103.0,0.0,E,,*2B
$GPRMC,000023.6,A,4741.20374,N,12224.27023,W,000.01,077.4,271013,016.6,E,D*20
$GPRMB,A,0.20,L,,Shil,4741.0830,N,12224.5670,W,0.2,239,-0.01,V*1E
$PGRME,2.4,M,2.4,M,3.4,M*29
$HCHDG,103.1,0.0,E,,*2A
$YXXDR,A,5.4,D,PTCH,A,3.7,D,ROLL*58
$HCHDG,103.2,0.0,E,,*29
$GPRMC,000023.8,A,4741.20374,N,12224.27023,W,000.02,077.4,271013,016.6,E,D*2D
$PGRME,2.4,M,2.4,M,3.4,M*29
$HCHDG,103.3,0.0,E,,*28
$IIRMB,A,0.20,L,,Shil,,,,,000.2,239,,V,A*71
$HCHDG,103.3,0.0,E,,*28
$IIRMC,000000,A,4741.203,N,12224.270,W,00.0,077,261013,16,E,A*1B
$GPRMC,000024.0,A,4741.20374,N,12224.27023,W,000.01,077.4,271013,016.6,E,D*21
$PGRME,2.4,M,2.4,M,3.4,M*29
$HCHDG,103.3,0.0,E,,*28
$IIVHW,,,,,00.0,N,,*19
$IIVLW,06452,N,040.7,N*55
$HCHDG,103.3,0.0,E,,*28
$IIVWR,130,L,09.0,N,,,,*74
$IIDPT,006.6,-1.0,*40
$YXXDR,A,4.9,D,PTCH,A,3.1,D,ROLL*52
$PTAK,FFD1,3.1*57
$GPRMC,000024.2,A,4741.20374,N,12224.27023,W,000.02,077.4,271013,016.6,E,D*20
$PGRME,2.4,M,2.4,M,3.4,M*29
$HCHDG,103.2,0.0,E,,*29
$IIGLL,4741.203,N,12224.270,W,000000,A,A*47
$IIMTW,+09.0,C*31
$HCHDG,103.2,0.0,E,,*29
$GPRMC,000024.4,A,4741.20374,N,12224.27023,W,000.02,077.4,271013,016.6,E,D*26
$PGRME,2.4,M,2.4,M,3.4,M*29
$HCHDG,103.2,0.0,E,,*29
$HCHDG,103.1,0.0,E,,*2A
$GPRMC,000024.6,A,4741.20374,N,12224.27023,W,000.01,077.4,271013,016.6,E,D*27
$PGRME,2.4,M,2.4,M,3.4,M*29
$HCHDG,103.3,0.0,E,,*28
$YXXDR,A,5.0,D,PTCH,A,3.7,D,ROLL*5C
$HCHDG,103.2,0.0,E,,*29
$IIMWV,231,R,09.0,N,A*1A
$GPRMC,000024.8,A,4741.20374,N,12224.27023,W,000.01,077.4,271013,016.6,E,D*29
$GPRMB,A,0.20,L,,Shil,4741.0830,N,12224.5670,W,0.2,239,-0.01,V*1E
$PGRME,2.4,M,2.4,M,3.4,M*29
$HCHDG,103.1,0.0,E,,*2A
$IIMWV,230,T,09.0,N,A*1D
$HCHDG,102.9,0.0,E,,*23
$IIRMB,A,0.20,L,,Shil,,,,,000.2,239,,V,A*71
$GPRMC,000025.0,A,4741.20374,N,12224.27023,W,000.01,077.4,271013,016.6,E,D*20
$PGRME,2.4,M,2.4,M,3.4,M*29
$HCHDG,102.8,0.0,E,,*22
$IIRMC,000000,A,4741.203,N,12224.270,W,00.0,077,261013,16,E,A*1B
$HCHDG,102.8,0.0,E,,*22
$IIVHW,,,,,00.0,N,,*19
$IIVLW,06452,N,040.7,N*55
$YXXDR,A,5.2,D,PTCH,A,4.4,D,ROLL*5A
$PTAK,FFD1,4.4*55
$GPRMC,000025.2,A,4741.20374,N,12224.27023,W,000.00,077.4,271013,016.6,E,D*23
$PGRME,2.4,M,2.4,M,3.4,M*29
$IIVWR,129,L,09.0,N,,,,*7C
$HCHDG,102.8,0.0,E,,*22
$IIDPT,006.6,-1.0,*40
$HCHDG,102.7,0.0,E,,*2D
$GPRMC,000025.4,A,4741.20374,N,12224.27023,W,000.02,077.4,271013,016.6,E,D*27
$PGRME,2.4,M,2.4,M,3.4,M*29
$HCHDG,102.4,0.0,E,,*2E
$HCHDG,102.3,0.0,E,,*29
$GPRMC,000025.6,A,4741.20374,N,12224.27023,W,000.00,077.4,271013,016.6,E,D*27
$PGRME,2.4,M,2.4,M,3.4,M*29
$HCHDG,102.2,0.0,E,,*28
$YXXDR,A,5.4,D,PTCH,A,5.5,D,ROLL*5C
$HCHDG,102.1,0.0,E,,*2B
$GPRMC,000025.8,A,4741.20374,N,12224.27023,W,000.01,077.4,271013,016.6,E,D*28
$PGRME,2.4,M,2.4,M,3.4,M*29
$HCHDG,102.1,0.0,E,,*2B
$IIGLL,4741.203,N,12224.270,W,000000,A,A*47
$IIMTW,+09.0,C*31
$HCHDG,102.1,0.0,E,,*2B
$IIMWV,229,R,08.6,N,A*14
$IIMWV,231,T,09.0,N,A*1C
$GPRMC,000026.0,A,4741.20374,N,12224.27023,W,000.01,077.4,271013,016.6,E,D*23
$GPRMB,A,0.20,L,,Shil,4741.0830,N,12224.5670,W,0.2,239,-0.01,V*1E
$PGRME,2.4,M,2.4,M,3.4,M*29
$HCHDG,102.1,0.0,E,,*2B
$PTAK,FFP1,HEEL,@*07
$IIRMB,A,0.20,L,,Shil,,,,,000.2,239,,V,A*71
$HCHDG,102.1,0.0,E,,*2B
$YXXDR,A,5.4,D,PTCH,A,5.8,D,ROLL*51
$PTAK,FFD1,5.8*58
$GPRMC,000026.2,A,4741.20374,N,12224.27023,W,000.02,077.4,271013,016.6,E,D*22
$IIRMC,000000,A,4741.203,N,12224.270,W,00.0,077,261013,16,E,A*1B
$PGRME,2.4,M,2.4,M,3.4,M*29
$HCHDG,102.0,0.0,E,,*2A
$IIVHW,,,,,00.0,N,,*19
$HCHDG,101.9,0.0,E,,*20
$IIVLW,06452,N,040.7,N*55
$GPRMC,000026.4,A,4741.20374,N,12224.27022,W,000.01,077.4,271013,016.6,E,D*26
$PGRME,2.4,M,2.4,M,3.4,M*29
$HCHDG,102.0,0.0,E,,*2A
$HCHDG,101.9,0.0,E,,*20
$GPRMC,000026.6,A,4741.20374,N,12224.27023,W,000.02,077.4,271013,016.6,E,D*26
$PGRME,2.4,M,2.4,M,3.4,M*29
$HCHDG,102.1,0.0,E,,*2B
$YXXDR,A,5.2,D,PTCH,A,5.1,D,ROLL*5E
$HCHDG,102.2,0.0,E,,*28
$IIVWR,129,L,08.6,N,,,,*7B
$GPRMC,000026.8,A,4741.20374,N,12224.27023,W,000.02,077.4,271013,016.6,E,D*28
$PGRME,2.4,M,2.4,M,3.4,M*29
$HCHDG,102.2,0.0,E,,*28
$IIDPT,006.6,-1.0,*40
$HCHDG,102.2,0.0,E,,*28
$IIGLL,4741.203,N,12224.270,W,000000,A,A*47
$IIMTW,+09.0,C*31
$GPRMC,000027.0,A,4741.20374,N,12224.27023,W,000.02,077.4,271013,016.6,E,D*21
$PGRME,2.4,M,2.4,M,3.4,M*29
$HCHDG,102.3,0.0,E,,*29
$IIMWV,231,R,08.6,N,A*1D
$IIMWV,229,T,08.6,N,A*12
$HCHDG,102.2,0.0,E,,*28
$IIRMB,A,0.20,L,,Shil,,,,,000.2,239,,V,A*71
$YXXDR,A,5.2,D,PTCH,A,4.3,D,ROLL*5D
$GPRMC,000027.2,A,4741.20374,N,12224.27022,W,000.02,077.4,271013,016.6,E,D*22
$GPRMB,A,0.20,L,,Shil,4741.0830,N,12224.5670,W,0.2,239,-0.02,V*1D
$PGRME,2.4,M,2.4,M,3.4,M*29
$HCHDG,102.4,0.0,E,,*2E
$HCHDG,102.4,0.0,E,,*2E
$IIRMC,000000,A,4741.203,N,12224.270,W,00.0,077,261013,16,E,A*1B
$GPRMC,000027.4,A,4741.20374,N,12224.27022,W,000.02,077.4,271013,016.6,E,D*24
$PGRME,2.4,M,2.4,M,3.4,M*29
$HCHDG,102.4,0.0,E,,*2E
$HCHDG,102.5,0.0,E,,*2F
$GPRMC,000027.6,A,4741.20375,N,12224.27022,W,000.00,077.4,271013,016.6,E,D*25
$PGRME,2.4,M,2.4,M,3.4,M*29
$HCHDG,102.6,0.0,E,,*2C
$YXXDR,A,5.2,D,PTCH,A,2.6,D,ROLL*5E
$PTAK,FFD1,2.6*51
$HCHDG,102.6,0.0,E,,*2C
$IIVHW,,,,,00.0,N,,*19
$GPRMC,000027.8,A,4741.20374,N,12224.27022,W,000.01,077.4,271013,016.6,E,D*2B
$PGRME,2.4,M,2.4,M,3.4,M*29
$HCHDG,102.8,0.0,E,,*22
$IIVLW,06452,N,040.7,N*55
$IIVWR,127,L,08.9,N,,,,*7A
$HCHDG,102.9,0.0,E,,*23
$IIDPT,006.6,-1.0,*40
$GPRMC,000028.0,A,4741.20375,N,12224.27021,W,000.01,077.4,271013,016.6,E,D*2E
$PGRME,2.4,M,2.4,M,3.4,M*29
$HCHDG,102.8,0.0,E,,*22
$IIGLL,4741.203,N,12224.270,W,000000,A,A*47
$IIMTW,+09.0,C*31
$HCHDG,102.8,0.0,E,,*22
$IIMWV,233,R,08.9,N,A*10
$IIMWV,231,T,08.6,N,A*1B
$YXXDR,A,4.9,D,PTCH,A,2.7,D,ROLL*55
$GPRMC,000028.2,A,4741.20375,N,12224.27021,W,000.01,077.4,271013,016.6,E,D*2C
$GPRMB,A,0.20,L,,Shil,4741.0830,N,12224.5670,W,0.2,239,-0.01,V*1E
$PGRME,2.4,M,2.4,M,3.4,M*29
$HCHDG,103.0,0.0,E,,*2B
$IIRMB,A,0.20,L,,Shil,,,,,000.2,239,,V,A*71
$HCHDG,102.9,0.0,E,,*23
$GPRMC,000028.4,A,4741.20375,N,12224.27021,W,000.01,077.4,271013,016.6,E,D*2A
$PGRME,2.4,M,2.4,M,3.4,M*29
$HCHDG,102.8,0.0,E,,*22
$HCHDG,102.8,0.0,E,,*22
$GPRMC,000028.6,A,4741.20375,N,12224.27021,W,000.01,077.4,271013,016.6,E,D*28
$PGRME,2.4,M,2.4,M,3.4,M*29
$HCHDG,102.7,0.0,E,,*2D
$YXXDR,A,5.1,D,PTCH,A,4.0,D,ROLL*5D
$PTAK,FFD1,4.0*51
$HCHDG,102.7,0.0,E,,*2D
$GPRMC,000028.8,A,4741.20375,N,12224.27021,W,000.02,077.4,271013,016.6,E,D*25
$PGRME,2.4,M,2.4,M,3.4,M*29
$HCHDG,102.7,0.0,E,,*2D
$IIRMC,000000,A,4741.203,N,12224.270,W,00.0,077,261013,16,E,A*1B
$HCHDG,102.5,0.0,E,,*2F
$IIVHW,,,,,00.0,N,,*19
$IIVLW,06452,N,040.7,N*55
$GPRMC,000029.0,A,4741.20375,N,12224.27021,W,000.02,077.4,271013,016.6,E,D*2C
$PGRME,2.4,M,2.4,M,3.4,M*29
$HCHDG,102.5,0.0,E,,*2F
$IIVWR,129,L,08.9,N,,,,*74
$IIDPT,006.6,-1.0,*40
$HCHDG,102.7,0.0,E,,*2D
$IIGLL,4741.203,N,12224.270,W,000000,A,A*47
$YXXDR,A,5.4,D,PTCH,A,5.2,D,ROLL*5B
$GPRMC,000029.2,A,4741.20375,N,12224.27020,W,000.01,077.4,271013,016.6,E,D*2C
$PGRME,2.4,M,2.4,M,3.4,M*29
$IIMTW,+09.0,C*31
$HCHDG,102.8,0.0,E,,*22
$IIMWV,231,R,08.9,N,A*12
$HCHDG,102.9,0.0,E,,*23
$IIMWV,233,T,08.9,N,A*16
$GPRMC,000029.4,A,4741.20375,N,12224.27021,W,000.02,077.4,271013,016.6,E,D*28
$GPRMB,A,0.20,L,,Shil,4741.0830,N,12224.5670,W,0.2,239,-0.02,V*1D
$PGRME,2.4,M,2.4,M,3.4,M*29
$HCHDG,103.1,0.0,E,,*2A
$HCHDG,103.1,0.0,E,,*2A
$GPRMC,000029.6,A,4741.20375,N,12224.27021,W,000.01,077.4,271013,016.6,E,D*29
$PGRME,2.4,M,2.4,M,3.4,M*29
$HCHDG,103.4,0.0,E,,*2F
$YXXDR,A,5.2,D,PTCH,A,4.6,D,ROLL*58
$HCHDG,103.4,0.0,E,,*2F
$GPRMC,000029.8,A,4741.20375,N,12224.27021,W,000.01,077.4,271013,016.6,E,D*27
$PGRME,2.4,M,2.4,M,3.4,M*29
$HCHDG,103.6,0.0,E,,*2D
$IIRMB,A,0.20,L,,Shil,,,,,000.2,239,,V,A*71
$HCHDG,103.6,0.0,E,,*2D
$IIRMC,000000,A,4741.203,N,12224.270,W,00.0,077,261013,16,E,A*1B
$GPRMC,000030.0,A,4741.20375,N,12224.27021,W,000.02,077.4,271013,016.6,E,D*24
$PGRME,2.4,M,2.4,M,3.4,M*29
$HCHDG,103.7,0.0,E,,*2C
$IIVHW,,,,,00.0,N,,*19
$IIVLW,06452,N,040.7,N*55
$HCHDG,103.6,0.0,E,,*2D
$IIVWR,129,L,09.0,N,,,,*7C
$IIDPT,006.6,-1.0,*40
$YXXDR,A,4.9,D,PTCH,A,4.3,D,ROLL*57
$PTAK,FFD1,4.3*52
$PTAK,FFP1,HEEL,@*07
$GPRMC,000030.2,A,4741.20375,N,12224.27021,W,000.01,077.4,271013,016.6,E,D*25
$PGRME,2.4,M,2.4,M,3.4,M*29
$HCHDG,103.8,0.0,E,,*23
$IIGLL,4741.203,N,12224.270,W,000000,A,A*47
$IIMTW,+09.0,C*31
$HCHDG,103.7,0.0,E,,*2C
$GPRMC,000030.4,A,4741.20375,N,12224.27021,W,000.02,077.4,271013,016.6,E,D*20
$PGRME,2.4,M,2.4,M,3.4,M*29
$HCHDG,103.7,0.0,E,,*2C
$HCHDG,103.8,0.0,E,,*23
$GPRMC,000030.6,A,4741.20375,N,12224.27021,W,000.01,077.4,271013,016.6,E,D*21
$GPRMB,A,0.20,L,,Shil,4741.0830,N,12224.5670,W,0.2,239,-0.01,V*1E
$PGRME,2.4,M,2.4,M,3.4,M*29
$HCHDG,103.7,0.0,E,,*2C
$YXXDR,A,5.2,D,PTCH,A,4.4,D,ROLL*5A
$HCHDG,103.7,0.0,E,,*2C
$IIMWV,232,R,09.2,N,A*1B
$GPRMC,000030.8,A,4741.20375,N,12224.27021,W,000.02,077.4,271013,016.6,E,D*2C
$PGRME,2.4,M,2.4,M,3.4,M*29
$HCHDG,103.6,0.0,E,,*2D
$IIMWV,231,T,09.0,N,A*1C
$HCHDG,103.9,0.0,E,,*22
$IIRMB,A,0.20,L,,Shil,,,,,000.2,239,,V,A*71
$GPRMC,000031.0,A,4741.20375,N,12224.27021,W,000.01,077.4,271013,016.6,E,D*26
$PGRME,2.4,M,2.4,M,3.4,M*29
$HCHDG,103.9,0.0,E,,*22
$IIRMC,000000,A,4741.203,N,12224.270,W,00.0,077,261013,16,E,A*1B
$HCHDG,103.8,0.0,E,,*23
$IIVHW,,,,,00.0,N,,*19
$IIVLW,06452,N,040.7,N*55
$YXXDR,A,5.0,D,PTCH,A,3.2,D,ROLL*59
$PTAK,FFD1,3.2*54
$GPRMC,000031.2,A,4741.20375,N,12224.27021,W,000.01,077.4,271013,016.6,E,D*24
$PGRME,2.4,M,2.4,M,3.4,M*29
$IIVWR,128,L,09.2,N,,,,*7F
$HCHDG,103.8,0.0,E,,*23
$IIDPT,006.6,-1.0,*40
$HCHDG,103.9,0.0,E,,*22
$GPRMC,000031.4,A,4741.20375,N,12224.27021,W,000.01,077.4,271013,016.6,E,D*22
$PGRME,2.4,M,2.4,M,3.4,M*29
$HCHDG,103.9,0.0,E,,*22
$HCHDG,103.8,0.0,E,,*23
$GPRMC,000031.6,A,4741.20375,N,12224.27021,W,000.00,077.4,271013,016.6,E,D*21
$PGRME,2.4,M,2.4,M,3.4,M*29
$HCHDG,103.9,0.0,E,,*22
$YXXDR,A,5.1,D,PTCH,A,3.4,D,ROLL*5E
$HCHDG,104.0,0.0,E,,*2C
$GPRMC,000031.8,A,4741.20375,N,12224.27021,W,000.00,077.4,271013,016.6,E,D*2F
$GPRMB,A,0.20,L,,Shil,4741.0830,N,12224.5670,W,0.2,239,-0.00,V*1F
$PGRME,2.4,M,2.4,M,3.4,M*29
$HCHDG,104.1,0.0,E,,*2D
$IIGLL,4741.203,N,12224.270,W,000000,A,A*47
$IIMTW,+09.0,C*31
$HCHDG,103.9,0.0,E,,*22
$IIMWV,232,R,09.4,N,A*1D
$IIMWV,232,T,09.2,N,A*1D
$GPRMC,000032.0,A,4741.20375,N,12224.27021,W,000.01,077.4,271013,016.6,E,D*25
$PGRME,2.4,M,2.4,M,3.4,M*29
$HCHDG,104.0,0.0,E,,*2C
$IIRMB,A,0.20,L,,Shil,,,,,000.2,239,,V,A*71
$HCHDG,104.0,0.0,E,,*2C
$YXXDR,A,5.4,D,PTCH,A,4.4,D,ROLL*5C
$PTAK,FFD1,4.4*55
$IIRMC,000000,A,4741.203,N,12224.270,W,00.0,077,261013,16,E,A*1B
$GPRMC,000032.2,A,4741.20375,N,12224.27021,W,000.01,077.4,271013,016.6,E,D*27
$PGRME,2.4,M,2.4,M,3.4,M*29
$HCHDG,104.2,0.0,E,,*2E
$IIVHW,,,,,00.0,N,,*19
$IIVLW,06452,N,040.7,N*55
$HCHDG,104.3,0.0,E,,*2F
$GPRMC,000032.4,A,4741.20375,N,12224.27021,W,000.01,077.4,271013,016.6,E,D*21
$PGRME,2.4,M,2.4,M,3.4,M*29
$HCHDG,104.5,0.0,E,,*29
$HCHDG,104.5,0.0,E,,*29
$GPRMC,000032.6,A,4741.20375,N,12224.27021,W,000.00,077.4,271013,016.6,E,D*22
$PGRME,2.4,M,2.4,M,3.4,M*29
$HCHDG,104.6,0.0,E,,*2A
$YXXDR,A,5.1,D,PTCH,A,4.7,D,ROLL*5A
$HCHDG,104.7,0.0,E,,*2B
$IIVWR,127,L,09.5,N,,,,*77
$GPRMC,000032.8,A,4741.20375,N,12224.27021,W,000.00,077.4,271013,016.6,E,D*2C
$GPRMB,A,0.20,L,,Shil,4741.0830,N,12224.5670,W,0.2,239,-0.00,V*1F
$PGRME,2.4,M,2.4,M,3.4,M*29
$HCHDG,104.7,0.0,E,,*2B
$IIDPT,006.6,-1.0,*40
$HCHDG,104.7,0.0,E,,*2B
$IIGLL,4741.203,N,12224.270,W,000000,A,A*47
$IIMTW,+09.0,C*31
$GPRMC,000033.0,A,4741.20375,N,12224.27021,W,000.01,077.4,271013,016.6,E,D*24
$PGRME,2.4,M,2.4,M,3.4,M*29
$HCHDG,104.8,0.0,E,,*24
$IIMWV,233,R,09.5,N,A*1D
$IIMWV,232,T,09.4,N,A*1B
$HCHDG,104.8,0.0,E,,*24
$IIRMB,A,0.20,L,,Shil,,,,,000.2,239,,V,A*71
$YXXDR,A,5.1,D,PTCH,A,4.6,D,ROLL*5B
$GPRMC,000033.2,A,4741.20375,N,12224.27021,W,000.00,077.4,271013,016.6,E,D*27
$PGRME,2.4,M,2.4,M,3.4,M*29
$HCHDG,104.8,0.0,E,,*24
$IIRMC,000000,A,4741.203,N,12224.270,W,00.0,077,261013,16,E,A*1B
$HCHDG,104.7,0.0,E,,*2B
$GPRMC,000033.4,A,4741.20375,N,12224.27022,W,000.00,077.4,271013,016.6,E,D*22
$PGRME,2.4,M,2.4,M,3.4,M*29
$HCHDG,104.7,0.0,E,,*2B
$HCHDG,104.6,0.0,E,,*2A
$GPRMC,000033.6,A,4741.20375,N,12224.27021,W,000.00,077.4,271013,016.6,E,D*23
$PGRME,2.4,M,2.4,M,3.4,M*29
$HCHDG,104.8,0.0,E,,*24
$PTAK,FFP1,HEEL,@*07
$YXXDR,A,5.1,D,PTCH,A,4.9,D,ROLL*54
$PTAK,FFD1,4.9*58
$HCHDG,104.7,0.0,E,,*2B
$IIVHW,,,,,00.0,N,,*19
$GPRMC,000033.8,A,4741.20375,N,12224.27022,W,000.00,077.4,271013,016.6,E,D*2E
$GPRMB,A,0.20,L,,Shil,4741.0830,N,12224.5670,W,0.2,239,-0.00,V*1F
$PGRME,2.4,M,2.4,M,3.4,M*29
$HCHDG,104.6,0.0,E,,*2A
$IIVLW,06452,N,040.7,N*55
$IIVWR,126,L,09.5,N,,,,*76
$HCHDG,104.6,0.0,E,,*2A
$IIDPT,006.4,-1.0,*42
$GPRMC,000034.0,A,4741.20375,N,12224.27022,W,000.01,077.4,271013,016.6,E,D*20
$PGRME,2.4,M,2.4,M,3.4,M*29
$HCHDG,104.6,0.0,E,,*2A
$IIGLL,4741.203,N,12224.270,W,000000,A,A*47
$IIMTW,+09.0,C*31
$HCHDG,104.8,0.0,E,,*24
$IIMWV,234,R,09.5,N,A*1A
$IIMWV,233,T,09.5,N,A*1B
$YXXDR,A,5.0,D,PTCH,A,4.0,D,ROLL*5C
$GPRMC,000034.2,A,4741.20375,N,12224.27021,W,000.01,077.4,271013,016.6,E,D*21
$PGRME,2.4,M,2.4,M,3.4,M*29
$HCHDG,104.7,0.0,E,,*2B
$IIRMB,A,0.20,L,,Shil,,,,,000.2,239,,V,A*71
$HCHDG,104.5,0.0,E,,*29
$GPRMC,000034.4,A,4741.20375,N,12224.27021,W,000.01,077.4,271013,016.6,E,D*27
$PGRME,2.4,M,2.4,M,3.4,M*29
$HCHDG,104.6,0.0,E,,*2A
$HCHDG,104.6,0.0,E,,*2A
$GPRMC,000034.6,A,4741.20375,N,12224.27021,W,000.02,077.4,271013,016.6,E,D*26
$PGRME,2.4,M,2.4,M,3.4,M*29
$HCHDG,104.6,0.0,E,,*2A
$YXXDR,A,5.4,D,PTCH,A,4.3,D,ROLL*5B
$HCHDG,104.6,0.0,E,,*2A
$GPRMC,000034.8,A,4741.20375,N,12224.27021,W,000.02,077.4,271013,016.6,E,D*28
$PGRME,2.4,M,2.4,M,3.4,M*29
$HCHDG,104.4,0.0,E,,*28
$IIRMC,000000,A,4741.203,N,12224.270,W,00.0,077,261013,16,E,A*1B
$HCHDG,104.4,0.0,E,,*28
$IIVHW,,,,,00.0,N,,*19
$IIVLW,06452,N,040.7,N*55
$GPRMC,000035.0,A,4741.20375,N,12224.27022,W,000.01,077.4,271013,016.6,E,D*21
$PGRME,2.4,M,2.4,M,3.4,M*29
$HCHDG,104.5,0.0,E,,*29
$IIVWR,127,L,09.5,N,,,,*77
$IIDPT,006.4,-1.0,*42
$HCHDG,104.4,0.0,E,,*28
$IIGLL,4741.203,N,12224.270,W,000000,A,A*47
$YXXDR,A,5.2,D,PTCH,A,4.6,D,ROLL*58
$GPRMC,000035.2,A,4741.20375,N,12224.27022,W,000.01,077.4,271013,016.6,E,D*23
$PGRME,2.4,M,2.4,M,3.4,M*29
$IIMTW,+09.0,C*31
$HCHDG,104.6,0.0,E,,*2A
$IIMWV,233,R,09.5,N,A*1D
$HCHDG,104.6,0.0,E,,*2A
$IIMWV,234,T,09.5,N,A*1C
$GPRMC,000035.4,A,4741.20375,N,12224.27022,W,000.01,077.4,271013,016.6,E,D*25
$GPRMB,A,0.20,L,,Shil,4741.0830,N,12224.5670,W,0.2,239,-0.01,V*1E
$PGRME,2.4,M,2.4,M,3.4,M*29
$HCHDG,104.5,0.0,E,,*29
$HCHDG,104.5,0.0,E,,*29
$GPRMC,000035.6,A,4741.20375,N,12224.27022,W,000.01,077.4,271013,016.6,E,D*27
$PGRME,2.4,M,2.4,M,3.4,M*29
$HCHDG,104.5,0.0,E,,*29
$YXXDR,A,5.2,D,PTCH,A,5.6,D,ROLL*59
$PTAK,FFD1,5.6*56
$HCHDG,104.5,0.0,E,,*29
$GPRMC,000035.8,A,4741.20375,N,12224.27022,W,000.00,077.4,271013,016.6,E,D*28
$PGRME,2.4,M,2.4,M,3.4,M*29
$HCHDG,104.4,0.0,E,,*28
$IIRMB,A,0.20,L,,Shil,,,,,000.2,239,,V,A*71
$HCHDG,104.3,0.0,E,,*2F
$IIRMC,000000,A,4741.203,N,12224.270,W,00.0,077,261013,16,E,A*1B
$GPRMC,000036.0,A,4741.20375,N,12224.27022,W,000.01,077.4,271013,016.6,E,D*22
$PGRME,2.4,M,2.4,M,3.4,M*29
$HCHDG,104.5,0.0,E,,*29
$IIVHW,,,,,00.0,N,,*19
$IIVLW,06452,N,040.7,N*55
$HCHDG,104.5,0.0,E,,*29
$IIVWR,127,L,09.3,N,,,,*71
$IIDPT,006.4,-1.0,*42
$YXXDR,A,5.1,D,PTCH,A,5.2,D,ROLL*5E
$GPRMC,000036.2,A,4741.20375,N,12224.27022,W,000.01,077.4,271013,016.6,E,D*20
$PGRME,2.4,M,2.4,M,3.4,M*29
$HCHDG,104.3,0.0,E,,*2F
$IIGLL,4741.203,N,12224.270,W,000000,A,A*47
$IIMTW,+09.0,C*31
$HCHDG,104.3,0.0,E,,*2F
$GPRMC,000036.4,A,4741.20375,N,12224.27022,W,000.01,077.4,271013,016.6,E,D*26
$PGRME,2.4,M,2.4,M,3.4,M*29
$HCHDG,104.3,0.0,E,,*2F
$HCHDG,104.0,0.0,E,,*2C
$GPRMC,000036.6,A,4741.20375,N,12224.27022,W,000.01,077.4,271013,016.6,E,D*24
$GPRMB,A,0.20,L,,Shil,4741.0830,N,12224.5670,W,0.2,239,-0.01,V*1E
$PGRME,2.4,M,2.4,M,3.4,M*29
$HCHDG,104.0,0.0,E,,*2C
$YXXDR,A,5.5,D,PTCH,A,4.7,D,ROLL*5E
$PTAK,FFD1,4.7*56
$HCHDG,104.1,0.0,E,,*2D
$IIMWV,232,R,09.3,N,A*1A
$GPRMC,000036.8,A,4741.20375,N,12224.27022,W,000.01,077.4,271013,016.6,E,D*2A
$PGRME,2.4,M,2.4,M,3.4,M*29
$HCHDG,104.0,0.0,E,,*2C
$IIMWV,233,T,09.3,N,A*1D
$HCHDG,104.1,0.0,E,,*2D
$IIRMB,A,0.20,L,,Shil,,,,,000.2,239,,V,A*71
$GPRMC,000037.0,A,4741.20375,N,12224.27022,W,000.01,077.4,271013,016.6,E,D*23
$PGRME,2.4,M,2.4,M,3.4,M*29
$HCHDG,104.3,0.0,E,,*2F
$IIRMC,000000,A,4741.203,N,12224.270,W,00.0,077,261013,16,E,A*1B
$HCHDG,104.2,0.0,E,,*2E
$IIVHW,,,,,00.0,N,,*19
$IIVLW,06452,N,040.7,N*55
$YXXDR,A,5.4,D,PTCH,A,4.2,D,ROLL*5A
$GPRMC,000037.2,A,4741.20375,N,12224.27022,W,000.01,077.4,271013,016.6,E,D*21
$PGRME,2.4,M,2.4,M,3.4,M*29
$IIVWR,128,L,09.3,N,,,,*7E
$HCHDG,104.2,0.0,E,,*2E
$IIDPT,006.4,-1.0,*42
$HCHDG,104.2,0.0,E,,*2E
$GPRMC,000037.4,A,4741.20375,N,12224.27022,W,000.00,077.4,271013,016.6,E,D*26
$PGRME,2.4,M,2.4,M,3.4,M*29
$HCHDG,104.2,0.0,E,,*2E
$HCHDG,104.1,0.0,E,,*2D
$GPRMC,000037.6,A,4741.20375,N,12224.27022,W,000.01,077.4,271013,016.6,E,D*25
$PGRME,2.4,M,2.4,M,3.4,M*29
$HCHDG,104.1,0.0,E,,*2D
$YXXDR,A,5.2,D,PTCH,A,4.0,D,ROLL*5E
$HCHDG,104.1,0.0,E,,*2D
$GPRMC,000037.8,A,4741.20375,N,12224.27022,W,000.01,077.4,271013,016.6,E,D*2B
$GPRMB,A,0.20,L,,Shil,4741.0830,N,12224.5670,W,0.2,239,-0.01,V*1E
$PGRME,2.4,M,2.4,M,3.4,M*29
$HCHDG,104.2,0.0,E,,*2E
$IIGLL,4741.203,N,12224.270,W,000000,A,A*47
$IIMTW,+09.0,C*31
$HCHDG,104.2,0.0,E,,*2E
$IIMWV,231,R,09.4,N,A*1E
$IIMWV,232,T,09.3,N,A*1C
$GPRMC,000038.0,A,4741.20375,N,12224.27022,W,000.00,077.4,271013,016.6,E,D*2D
$PGRME,2.4,M,2.4,M,3.4,M*29
$HCHDG,104.2,0.0,E,,*2E
$IIRMB,A,0.20,L,,Shil,,,,,000.2,239,,V,A*71
$HCHDG,103.9,0.0,E,,*22
$YXXDR,A,5.6,D,PTCH,A,5.6,D,ROLL*5D
$PTAK,FFD1,5.6*56
$GPRMC,000038.2,A,4741.20375,N,12224.27022,W,000.02,077.4,271013,016.6,E,D*2D
$IIRMC,000000,A,4741.203,N,12224.270,W,00.0,077,261013,16,E,A*1B
$PGRME,2.4,M,2.4,M,3.4,M*29
$HCHDG,103.9,0.0,E,,*22
$PTAK,FFP1,HEEL,@*07
$IIVHW,,,,,00.0,N,,*19
$IIVLW,06452,N,040.7,N*55
$HCHDG,103.9,0.0,E,,*22
$GPRMC,000038.4,A,4741.20375,N,12224.27022,W,000.01,077.4,271013,016.6,E,D*28
$PGRME,2.4,M,2.4,M,3.4,M*29
$HCHDG,103.9,0.0,E,,*22
$HCHDG,103.9,0.0,E,,*22
$GPRMC,000038.6,A,4741.20375,N,12224.27022,W,000.01,077.4,271013,016.6,E,D*2A
$PGRME,2.4,M,2.4,M,3.4,M*29
$HCHDG,104.3,0.0,E,,*2F
$YXXDR,A,5.2,D,PTCH,A,5.1,D,ROLL*5E
$HCHDG,104.3,0.0,E,,*2F
$IIVWR,129,L,09.4,N,,,,*78
$GPRMC,000038.8,A,4741.20375,N,12224.27022,W,000.01,077.4,271013,016.6,E,D*24
$GPRMB,A,0.20,L,,Shil,4741.0830,N,12224.5670,W,0.2,239,-0.01,V*1E
$PGRME,2.4,M,2.4,M,3.4,M*29
$HCHDG,104.3,0.0,E,,*2F
$IIDPT,006.4,-1.0,*42
$HCHDG,104.2,0.0,E,,*2E
$IIGLL,4741.203,N,12224.270,W,000000,A,A*47
$IIMTW,+09.0,C*31
$GPRMC,000039.0,A,4741.20375,N,12224.27022,W,000.02,077.4,271013,016.6,E,D*2E
$PGRME,2.4,M,2.4,M,3.4,M*29
$HCHDG,104.3,0.0,E,,*2F
$IIMWV,231,R,09.4,N,A*1E
$IIMWV,231,T,09.4,N,A*18
$HCHDG,104.3,0.0,E,,*2F
$IIRMB,A,0.20,L,,Shil,,,,,000.2,239,,V,A*71
$YXXDR,A,5.0,D,PTCH,A,4.7,D,ROLL*5B
$PTAK,FFD1,4.7*56
$GPRMC,000039.2,A,4741.20375,N,12224.27022,W,000.01,077.4,271013,016.6,E,D*2F
$PGRME,2.4,M,2.4,M,3.4,M*29
$HCHDG,104.2,0.0,E,,*2E
$IIRMC,000000,A,4741.203,N,12224.270,W,00.0,077,261013,16,E,A*1B
$HCHDG,104.2,0.0,E,,*2E
$GPRMC,000039.4,A,4741.20375,N,12224.27022,W,000.01,077.4,271013,016.6,E,D*29
$HCHDG,104.1,0.0,E,,*2D
$PGRME,2.4,M,2.4,M,3.4,M*29
$HCHDG,104.0,0.0,E,,*2C
$GPRMC,000039.6,A,4741.20375,N,12224.27022,W,000.01,077.4,271013,016.6,E,D*2B
$PGRME,2.4,M,2.4,M,3.4,M*29
$HCHDG,103.9,0.0,E,,*22
$YXXDR,A,5.2,D,PTCH,A,6.6,D,ROLL*5A
$HCHDG,103.8,0.0,E,,*23
$IIVHW,,,,,00.0,N,,*19
$GPRMC,000039.8,A,4741.20375,N,12224.27022,W,000.01,077.4,271013,016.6,E,D*25
$PGRME,2.4,M,2.4,M,3.4,M*29
$HCHDG,103.9,0.0,E,,*22
$IIVLW,06452,N,040.7,N*55
$IIVWR,129,L,09.4,N,,,,*78
$HCHDG,103.8,0.0,E,,*23
$IIDPT,006.4,-1.0,*42
$GPRMC,000040.0,A,4741.20375,N,12224.27022,W,000.02,077.4,271013,016.6,E,D*20
$GPRMB,A,0.20,L,,Shil,4741.0830,N,12224.5670,W,0.2,239,-0.02,V*1D
$PGRME,2.4,M,2.4,M,3.4,M*29
$HCHDG,103.8,0.0,E,,*23
$IIGLL,4741.203,N,12224.270,W,000000,A,A*47
$IIMTW,+09.0,C*31
$HCHDG,103.7,0.0,E,,*2C
$IIMWV,231,R,09.4,N,A*1E
$IIMWV,231,T,09.4,N,A*18
$YXXDR,A,5.2,D,PTCH,A,6.1,D,ROLL*5D
$PTAK,FFD1,6.1*52
$GPRMC,000040.2,A,4741.20375,N,12224.27022,W,000.01,077.4,271013,016.6,E,D*21
$PGRME,2.4,M,2.4,M,3.4,M*29
$HCHDG,103.8,0.0,E,,*23
$IIRMB,A,0.20,L,,Shil,,,,,000.2,239,,V,A*71
$HCHDG,104.0,0.0,E,,*2C
$GPRMC,000040.4,A,4741.20375,N,12224.27022,W,000.02,077.4,271013,016.6,E,D*24
$PGRME,2.4,M,2.4,M,3.4,M*29
$HCHDG,104.1,0.0,E,,*2D
$HCHDG,104.3,0.0,E,,*2F
$GPRMC,000040.6,A,4741.20375,N,12224.27022,W,000.01,077.4,271013,016.6,E,D*25
$PGRME,2.4,M,2.4,M,3.4,M*29
$HCHDG,104.1,0.0,E,,*2D
$YXXDR,A,5.1,D,PTCH,A,5.0,D,ROLL*5C
$HCHDG,104.2,0.0,E,,*2E
$GPRMC,000040.8,A,4741.20375,N,12224.27022,W,000.01,077.4,271013,016.6,E,D*2B
$PGRME,2.4,M,2.4,M,3.4,M*29
$HCHDG,104.2,0.0,E,,*2E
$IIRMC,000000,A,4741.203,N,12224.270,W,00.0,077,261013,16,E,A*1B
$HCHDG,104.0,0.0,E,,*2C
$IIVHW,,,,,00.0,N,,*19
$IIVLW,06452,N,040.7,N*55
$GPRMC,000041.0,A,4741.20375,N,12224.27022,W,000.01,077.4,271013,016.6,E,D*22
$GPRMB,A,0.20,L,,Shil,4741.0830,N,12224.5670,W,0.2,239,-0.01,V*1E
$PGRME,2.4,M,2.4,M,3.4,M*29
$HCHDG,104.0,0.0,E,,*2C
$IIVWR,129,L,09.4,N,,,,*78
$IIDPT,006.4,-1.0,*42
$HCHDG,104.2,0.0,E,,*2E
$IIGLL,4741.203,N,12224.270,W,000000,A,A*47
$YXXDR,A,5.1,D,PTCH,A,5.5,D,ROLL*59
$GPRMC,000041.2,A,4741.20375,N,12224.27022,W,000.01,077.4,271013,016.6,E,D*20
$PGRME,2.4,M,2.4,M,3.4,M*29
$IIMTW,+09.0,C*31
$HCHDG,104.2,0.0,E,,*2E
$IIMWV,231,R,09.4,N,A*1E
$HCHDG,103.9,0.0,E,,*22
$IIMWV,231,T,09.4,N,A*18
$GPRMC,000041.4,A,4741.20375,N,12224.27022,W,000.01,077.4,271013,016.6,E,D*26
$PGRME,2.4,M,2.4,M,3.4,M*29
$HCHDG,104.1,0.0,E,,*2D
$HCHDG,104.0,0.0,E,,*2C
$GPRMC,000041.6,A,4741.20375,N,12224.27022,W,000.01,077.4,271013,016.6,E,D*24
$PGRME,2.4,M,2.4,M,3.4,M*29
$HCHDG,104.0,0.0,E,,*2C
$YXXDR,A,5.2,D,PTCH,A,6.1,D,ROLL*5D
$PTAK,FFD1,6.1*52
$HCHDG,103.9,0.0,E,,*22
$GPRMC,000041.8,A,4741.20375,N,12224.27023,W,000.01,077.4,271013,016.6,E,D*2B
$PGRME,2.4,M,2.4,M,3.4,M*29
$HCHDG,104.0,0.0,E,,*2C
$IIRMB,A,0.20,L,,Shil,,,,,000.2,239,,V,A*71
$HCHDG,104.1,0.0,E,,*2D
$IIRMC,000000,A,4741.203,N,12224.270,W,00.0,077,261013,16,E,A*1B
$GPRMC,000042.0,A,4741.20375,N,12224.27023,W,000.02,077.4,271013,016.6,E,D*23
$PGRME,2.4,M,2.4,M,3.4,M*29
$IIVHW,,,,,00.0,N,,*19
$HCHDG,104.0,0.0,E,,*2C
$IIVLW,06452,N,040.7,N*55
$HCHDG,104.0,0.0,E,,*2C
$IIVWR,129,L,09.4,N,,,,*78
$IIDPT,006.6,-1.0,*40
$YXXDR,A,5.3,D,PTCH,A,6.1,D,ROLL*5C
$GPRMC,000042.2,A,4741.20375,N,12224.27023,W,000.02,077.4,271013,016.6,E,D*21
$GPRMB,A,0.20,L,,Shil,4741.0830,N,12224.5670,W,0.2,239,-0.02,V*1D
$PGRME,2.4,M,2.4,M,3.4,M*29
$HCHDG,103.9,0.0,E,,*22
$PTAK,FFP1,HEEL,@*07
$IIGLL,4741.203,N,12224.270,W,000000,A,A*47
$IIMTW,+09.0,C*31
$HCHDG,104.0,0.0,E,,*2C
$GPRMC,000042.4,A,4741.20375,N,12224.27022,W,000.01,077.4,271013,016.6,E,D*25
$PGRME,2.4,M,2.4,M,3.4,M*29
$HCHDG,103.9,0.0,E,,*22
$HCHDG,103.9,0.0,E,,*22
$GPRMC,000042.6,A,4741.20375,N,12224.27022,W,000.01,077.4,271013,016.6,E,D*27
$PGRME,2.4,M,2.4,M,3.4,M*29
$HCHDG,103.7,0.0,E,,*2C
$YXXDR,A,5.8,D,PTCH,A,5.8,D,ROLL*5D
$HCHDG,103.8,0.0,E,,*23
$IIMWV,231,R,09.4,N,A*1E
$GPRMC,000042.8,A,4741.20375,N,12224.27022,W,000.01,077.4,271013,016.6,E,D*29
$PGRME,2.4,M,2.4,M,3.4,M*29
$HCHDG,104.0,0.0,E,,*2C
$IIMWV,231,T,09.4,N,A*18
$HCHDG,103.8,0.0,E,,*23
$IIRMB,A,0.20,L,,Shil,,,,,000.2,239,,V,A*71
$GPRMC,000043.0,A,4741.20375,N,12224.27023,W,000.01,077.4,271013,016.6,E,D*21
$PGRME,2.4,M,2.4,M,3.4,M*29
$HCHDG,103.9,0.0,E,,*22
$IIRMC,000000,A,4741.203,N,12224.270,W,00.0,077,261013,16,E,A*1B
$HCHDG,104.0,0.0,E,,*2C
$IIVHW,,,,,00.0,N,,*19
$IIVLW,06452,N,040.7,N*55
$YXXDR,A,5.6,D,PTCH,A,5.3,D,ROLL*58
$PTAK,FFD1,5.3*53
$GPRMC,000043.2,A,4741.20375,N,12224.27023,W,000.01,077.4,271013,016.6,E,D*23
$GPRMB,A,0.20,L,,Shil,4741.0830,N,12224.5670,W,0.2,239,-0.01,V*1E
$PGRME,2.4,M,2.4,M,3.4,M*29
$IIVWR,129,L,09.4,N,,,,*78
$HCHDG,103.9,0.0,E,,*22
$IIDPT,006.6,-1.0,*40
$HCHDG,104.0,0.0,E,,*2C
$GPRMC,000043.4,A,4741.20375,N,12224.27023,W,000.01,077.4,271013,016.6,E,D*25
$PGRME,2.4,M,2.4,M,3.4,M*29
$HCHDG,104.0,0.0,E,,*2C
$HCHDG,104.0,0.0,E,,*2C
$GPRMC,000043.6,A,4741.20375,N,12224.27023,W,000.02,077.4,271013,016.6,E,D*24
$PGRME,2.4,M,2.4,M,3.4,M*29
$HCHDG,104.0,0.0,E,,*2C
$YXXDR,A,5.5,D,PTCH,A,5.3,D,ROLL*5B
$HCHDG,103.9,0.0,E,,*22
$GPRMC,000043.8,A,4741.20375,N,12224.27023,W,000.01,077.4,271013,016.6,E,D*29
$PGRME,2.4,M,2.4,M,3.4,M*29
$HCHDG,103.8,0.0,E,,*23
$IIGLL,4741.203,N,12224.270,W,000000,A,A*47
$IIMTW,+09.0,C*31
$HCHDG,103.7,0.0,E,,*2C
$IIMWV,232,R,09.5,N,A*1C
$IIMWV,231,T,09.4,N,A*18
$GPRMC,000044.0,A,4741.20375,N,12224.27023,W,000.01,077.4,271013,016.6,E,D*26
$PGRME,2.4,M,2.4,M,3.4,M*29
$HCHDG,103.7,0.0,E,,*2C
$PGRMT,GPS 18x-5Hz software ver. 3.20,,,,,,,,*30
$IIRMB,A,0.20,L,,Shil,,,,,000.2,239,,V,A*71
$HCHDG,104.0,0.0,E,,*2C
$YXXDR,A,5.2,D,PTCH,A,6.0,D,ROLL*5C
$IIRMC,000000,A,4741.203,N,12224.270,W,00.0,077,261013,16,E,A*1B
$GPRMC,000044.2,A,4741.20375,N,12224.27023,W,000.00,077.4,271013,016.6,E,D*25
$GPRMB,A,0.20,L,,Shil,4741.0830,N,12224.5670,W,0.2,239,-0.00,V*1F
$PGRME,2.4,M,2.4,M,3.4,M*29
$HCHDG,103.9,0.0,E,,*22
$IIVHW,,,,,00.0,N,,*19
$IIVLW,06452,N,040.7,N*55
$HCHDG,103.9,0.0,E,,*22
$GPRMC,000044.4,A,4741.20375,N,12224.27023,W,000.01,077.4,271013,016.6,E,D*22
$PGRME,2.4,M,2.4,M,3.4,M*29
$HCHDG,103.9,0.0,E,,*22
$HCHDG,103.9,0.0,E,,*22
$GPRMC,000044.6,A,4741.20375,N,12224.27023,W,000.01,077.4,271013,016.6,E,D*20
$PGRME,2.4,M,2.4,M,3.4,M*29
$HCHDG,103.9,0.0,E,,*22
$YXXDR,A,5.3,D,PTCH,A,5.8,D,ROLL*56
$PTAK,FFD1,5.8*58
$HCHDG,103.8,0.0,E,,*23
$IIVWR,128,L,09.5,N,,,,*78
$GPRMC,000044.8,A,4741.20375,N,12224.27023,W,000.01,077.4,271013,016.6,E,D*2E
$PGRME,2.4,M,2.4,M,3.4,M*29
$HCHDG,103.8,0.0,E,,*23
$IIDPT,006.6,-1.0,*40
$HCHDG,103.9,0.0,E,,*22
$IIGLL,4741.203,N,12224.270,W,000000,A,A*47
$IIMTW,+09.0,C*31
$GPRMC,000045.0,A,4741.20375,N,12224.27023,W,000.01,077.4,271013,016.6,E,D*27
$PGRME,2.4,M,2.4,M,3.4,M*29
$HCHDG,104.0,0.0,E,,*2C
$IIMWV,232,R,09.5,N,A*1C
$IIMWV,232,T,09.5,N,A*1A
$HCHDG,104.0,0.0,E,,*2C
$IIRMB,A,0.20,L,,Shil,,,,,000.2,239,,V,A*71
$YXXDR,A,5.3,D,PTCH,A,5.2,D,ROLL*5C
$GPRMC,000045.2,A,4741.20375,N,12224.27023,W,000.01,077.4,271013,016.6,E,D*25
$PGRME,2.4,M,2.4,M,3.4,M*29
$HCHDG,104.0,0.0,E,,*2C
$IIRMC,000000,A,4741.203,N,12224.270,W,00.0,077,261013,16,E,A*1B
$HCHDG,104.1,0.0,E,,*2D
$GPRMC,000045.4,A,4741.20375,N,12224.27023,W,000.01,077.4,271013,016.6,E,D*23
$GPRMB,A,0.20,L,,Shil,4741.0830,N,12224.5670,W,0.2,239,-0.01,V*1E
$PGRME,2.4,M,2.4,M,3.4,M*29
$HCHDG,104.3,0.0,E,,*2F
$HCHDG,104.3,0.0,E,,*2F
$GPRMC,000045.6,A,4741.20375,N,12224.27023,W,000.00,077.4,271013,016.6,E,D*20
$PGRME,2.4,M,2.4,M,3.4,M*29
$HCHDG,104.2,0.0,E,,*2E
$YXXDR,A,5.2,D,PTCH,A,5.2,D,ROLL*5D
$PTAK,FFD1,5.2*52
$HCHDG,104.2,0.0,E,,*2E
$IIVHW,,,,,00.0,N,,*19
$GPRMC,000045.8,A,4741.20375,N,12224.27024,W,000.00,077.4,271013,016.6,E,D*29
$PGRME,2.4,M,2.4,M,3.4,M*29
$HCHDG,104.2,0.0,E,,*2E
$IIVLW,06452,N,040.7,N*55
$IIVWR,128,L,09.6,N,,,,*7B
$HCHDG,104.1,0.0,E,,*2D
$IIDPT,006.6,-1.0,*40
$GPRMC,000046.0,A,4741.20375,N,12224.27024,W,000.00,077.4,271013,016.6,E,D*22
$PGRME,2.4,M,2.4,M,3.4,M*29
$HCHDG,104.2,0.0,E,,*2E
$IIGLL,4741.203,N,12224.270,W,000000,A,A*47
$IIMTW,+09.0,C*31
$HCHDG,104.1,0.0,E,,*2D
$IIMWV,232,R,09.6,N,A*1F
$IIMWV,232,T,09.5,N,A*1A
$YXXDR,A,5.1,D,PTCH,A,5.2,D,ROLL*5E
$GPRMC,000046.2,A,4741.20375,N,12224.27024,W,000.01,077.4,271013,016.6,E,D*21
$PGRME,2.4,M,2.4,M,3.4,M*29
$HCHDG,104.2,0.0,E,,*2E
$IIRMB,A,0.20,L,,Shil,,,,,000.2,239,,V,A*71
$HCHDG,104.2,0.0,E,,*2E
$GPRMC,000046.4,A,4741.20375,N,12224.27024,W,000.01,077.4,271013,016.6,E,D*27
$PGRME,2.4,M,2.4,M,3.4,M*29
$HCHDG,104.2,0.0,E,,*2E
$PTAK,FFP1,HEEL,@*07
$HCHDG,104.2,0.0,E,,*2E
$GPRMC,000046.6,A,4741.20375,N,12224.27024,W,000.02,077.4,271013,016.6,E,D*26
$GPRMB,A,0.20,L,,Shil,4741.0830,N,12224.5670,W,0.2,239,-0.02,V*1D
$PGRME,2.4,M,2.4,M,3.4,M*29
$HCHDG,104.2,0.0,E,,*2E
$YXXDR,A,5.3,D,PTCH,A,4.3,D,ROLL*5C
$PTAK,FFD1,4.3*52
$HCHDG,104.2,0.0,E,,*2E
$GPRMC,000046.8,A,4741.20375,N,12224.27024,W,000.01,077.4,271013,016.6,E,D*2B
$PGRME,2.4,M,2.4,M,3.4,M*29
$HCHDG,104.1,0.0,E,,*2D
$IIRMC,000000,A,4741.203,N,12224.270,W,00.0,077,261013,16,E,A*1B
$HCHDG,103.9,0.0,E,,*22
$IIVHW,,,,,00.0,N,,*19
$IIVLW,06452,N,040.7,N*55
$GPRMC,000047.0,A,4741.20375,N,12224.27024,W,000.01,077.4,271013,016.6,E,D*22
$PGRME,2.4,M,2.4,M,3.4,M*29
$HCHDG,103.9,0.0,E,,*22
$IIVWR,128,L,09.7,N,,,,*7A
$IIDPT,006.4,-1.0,*42
$HCHDG,103.9,0.0,E,,*22
$IIGLL,4741.203,N,12224.270,W,000000,A,A*47
$YXXDR,A,5.5,D,PTCH,A,4.9,D,ROLL*50
$GPRMC,000047.2,A,4741.20375,N,12224.27024,W,000.01,077.4,271013,016.6,E,D*20
$PGRME,2.4,M,2.4,M,3.4,M*29
$IIMTW,+09.0,C*31
$HCHDG,103.9,0.0,E,,*22
$IIMWV,232,R,09.7,N,A*1E
$HCHDG,103.9,0.0,E,,*22
$IIMWV,232,T,09.6,N,A*19
$GPRMC,000047.4,A,4741.20375,N,12224.27025,W,000.00,077.4,271013,016.6,E,D*26
$PGRME,2.4,M,2.4,M,3.4,M*29
$HCHDG,103.9,0.0,E,,*22
$HCHDG,104.0,0.0,E,,*2C
$GPRMC,000047.6,A,4741.20375,N,12224.27025,W,000.01,077.4,271013,016.6,E,D*25
$PGRME,2.4,M,2.4,M,3.4,M*29
$HCHDG,103.7,0.0,E,,*2C
$YXXDR,A,5.6,D,PTCH,A,5.1,D,ROLL*5A
$HCHDG,103.7,0.0,E,,*2C
$GPRMC,000047.8,A,4741.20375,N,12224.27025,W,000.00,077.4,271013,016.6,E,D*2A
$GPRMB,A,0.20,L,,Shil,4741.0830,N,12224.5670,W,0.2,239,-0.00,V*1F
$PGRME,2.4,M,2.4,M,3.4,M*29
$HCHDG,103.7,0.0,E,,*2C
$IIRMB,A,0.20,L,,Shil,,,,,000.2,239,,V,A*71
$HCHDG,103.9,0.0,E,,*22
$IIRMC,000000,A,4741.203,N,12224.270,W,00.0,077,261013,16,E,A*1B
$GPRMC,000048.0,A,4741.20375,N,12224.27025,W,000.01,077.4,271013,016.6,E,D*2C
$PGRME,2.4,M,2.4,M,3.4,M*29
$IIVHW,,,,,00.0,N,,*19
$HCHDG,103.9,0.0,E,,*22
$IIVLW,06452,N,040.7,N*55
$HCHDG,103.9,0.0,E,,*22
$IIVWR,127,L,09.6,N,,,,*74
$IIDPT,006.4,-1.0,*42
$YXXDR,A,5.5,D,PTCH,A,5.0,D,ROLL*58
$PTAK,FFD1,5.0*50
$GPRMC,000048.2,A,4741.20375,N,12224.27025,W,000.00,077.4,271013,016.6,E,D*2F
$PGRME,2.4,M,2.4,M,3.4,M*29
$HCHDG,103.9,0.0,E,,*22
$IIGLL,4741.203,N,12224.270,W,000000,A,A*47
$IIMTW,+09.0,C*31
$HCHDG,103.7,0.0,E,,*2C
$GPRMC,000048.4,A,4741.20375,N,12224.27025,W,000.01,077.4,271013,016.6,E,D*28
$PGRME,2.4,M,2.4,M,3.4,M*29
$HCHDG,103.7,0.0,E,,*2C
$HCHDG,103.7,0.0,E,,*2C
$GPRMC,000048.6,A,4741.20375,N,12224.27025,W,000.01,077.4,271013,016.6,E,D*2A
$PGRME,2.4,M,2.4,M,3.4,M*29
$HCHDG,103.7,0.0,E,,*2C
$YXXDR,A,5.6,D,PTCH,A,5.2,D,ROLL*59
$HCHDG,103.7,0.0,E,,*2C
$IIMWV,233,R,09.4,N,A*1C
$GPRMC,000048.8,A,4741.20375,N,12224.27025,W,000.01,077.4,271013,016.6,E,D*24
$GPRMB,A,0.20,L,,Shil,4741.0830,N,12224.5670,W,0.2,239,-0.01,V*1E
$PGRME,2.4,M,2.4,M,3.4,M*29
$HCHDG,103.7,0.0,E,,*2C
$IIMWV,233,T,09.6,N,A*18
$HCHDG,103.7,0.0,E,,*2C
$IIRMB,A,0.20,L,,Shil,,,,,000.2,239,,V,A*71
$GPRMC,000049.0,A,4741.20375,N,12224.27025,W,000.01,077.4,271013,016.6,E,D*2D
$PGRME,2.4,M,2.4,M,3.4,M*29
$HCHDG,103.7,0.0,E,,*2C
$IIRMC,000000,A,4741.203,N,12224.270,W,00.0,077,261013,16,E,A*1B
$HCHDG,103.7,0.0,E,,*2C
$IIVHW,,,,,00.0,N,,*19
