$GPRMB,A,0.19,L,,Shil,4741.0830,N,12224.5670,W,0.3,228,0.58,V*34
$PGRME,18.9,M,,M,176.7,M*37
$HCHDG,276.1,0.0,E,,*2B
$PTAK,FFP1,HEEL,@*07
$HCHDG,276.1,0.0,E,,*2B
$GPRMC,162400.0,A,4741.24958,N,12224.28783,W,001.73,293.9,261013,016.6,E,A*21
$GPRMB,A,0.19,L,,Shil,4741.0830,N,12224.5670,W,0.3,228,0.72,V*3C
$PGRME,18.4,M,,M,176.7,M*3A
$YXXDR,A,5.4,D,PTCH,A,3.3,D,ROLL*5C
$PTAK,FFD1,3.3*55
$HCHDG,276.3,0.0,E,,*29
$HCHDG,276.3,0.0,E,,*29
$GPRMC,162400.2,A,4741.24986,N,12224.28843,W,001.60,296.3,261013,016.6,E,A*2E
$GPRMB,A,0.19,L,,Shil,4741.0830,N,12224.5670,W,0.3,228,0.60,V*3F
$PGRME,17.9,M,,M,176.7,M*38
$HCHDG,276.3,0.0,E,,*29
$HCHDG,276.0,0.0,E,,*2A
$GPRMC,162400.4,A,4741.24993,N,12224.28856,W,001.72,295.2,261013,016.6,E,A*29
$PGRME,17.7,M,,M,176.7,M*36
$HCHDG,276.1,0.0,E,,*2B
$YXXDR,A,5.6,D,PTCH,A,2.9,D,ROLL*55
$HCHDG,276.0,0.0,E,,*2A
$GPRMC,162400.6,A,4741.24966,N,12224.28876,W,001.68,294.4,261013,016.6,E,A*2F
$PGRME,17.4,M,,M,176.7,M*35
$HCHDG,276.1,0.0,E,,*2B
$HCHDG,276.0,0.0,E,,*2A
$GPRMC,162400.8,A,4741.24955,N,12224.28898,W,001.62,296.3,261013,016.6,E,A*2E
$PGRME,17.2,M,,M,176.7,M*33
$HCHDG,276.0,0.0,E,,*2A
$HCHDG,276.0,0.0,E,,*2A
$GPRMC,162401.0,A,4741.24973,N,12224.28915,W,001.69,299.8,261013,016.6,E,A*28
$PGRME,17.1,M,,M,176.8,M*3F
$YXXDR,A,5.7,D,PTCH,A,3.1,D,ROLL*5D
$HCHDG,275.9,0.0,E,,*20
$HCHDG,275.7,0.0,E,,*2E
$GPRMC,162401.2,A,4741.24968,N,12224.28923,W,001.51,296.1,261013,016.6,E,A*28
$PGRME,17.0,M,,M,176.8,M*3E
$HCHDG,275.6,0.0,E,,*2F
$HCHDG,275.6,0.0,E,,*2F
$GPRMC,162401.4,A,4741.24972,N,12224.28934,W,001.40,294.1,261013,016.6,E,A*21
$GPRMB,A,0.19,L,,Shil,4741.0830,N,12224.5670,W,0.3,228,0.57,V*3B
$PGRME,16.9,M,,M,176.8,M*36
$HCHDG,275.6,0.0,E,,*2F
$YXXDR,A,5.6,D,PTCH,A,3.8,D,ROLL*55
$PTAK,FFD1,3.8*5E
$HCHDG,275.6,0.0,E,,*2F
$GPRMC,162401.6,A,4741.24986,N,12224.28954,W,001.65,290.9,261013,016.6,E,A*25
$PGRME,16.7,M,,M,176.8,M*38
$HCHDG,275.5,0.0,E,,*2C
$HCHDG,275.4,0.0,E,,*2D
$GPRMC,162401.8,A,4741.24987,N,12224.28979,W,001.68,282.2,261013,016.6,E,A*20
$PGRME,16.4,M,,M,176.8,M*3B
$HCHDG,275.4,0.0,E,,*2D
$HCHDG,275.4,0.0,E,,*2D
$GPRMC,162402.0,A,4741.24969,N,12224.28979,W,001.83,293.4,261013,016.6,E,A*28
$PGRME,15.7,M,,M,176.7,M*34
$YXXDR,A,5.4,D,PTCH,A,3.6,D,ROLL*59
$HCHDG,275.4,0.0,E,,*2D
$HCHDG,275.3,0.0,E,,*2A
$GPRMC,162402.2,A,4741.28020,N,12224.29066,W,001.65,292.9,261013,016.6,E,A*20
$HCHDG,275.4,0.0,E,,*2D
$PGRME,12.2,M,118.4,M,119.0,M*1A
$HCHDG,275.5,0.0,E,,*2C
$GPRMC,162402.4,A,4741.27982,N,12224.28936,W,001.70,292.5,261013,016.6,E,A*2D
$GPRMB,A,0.19,L,,Shil,4741.0830,N,12224.5670,W,0.3,224,0.61,V*32
$PGRME,10.6,M,113.4,M,113.9,M*14
$HCHDG,275.2,0.0,E,,*2B
$YXXDR,A,5.5,D,PTCH,A,2.8,D,ROLL*57
$PTAK,FFD1,2.8*5F
$HCHDG,275.3,0.0,E,,*2A
$GPRMC,162402.6,A,4741.27979,N,12224.29090,W,001.63,290.6,261013,016.6,E,A*2C
$PGRME,9.8,M,109.7,M,110.1,M*21
$HCHDG,275.3,0.0,E,,*2A
$HCHDG,275.3,0.0,E,,*2A
$GPRMC,162402.8,A,4741.27994,N,12224.29090,W,001.61,292.3,261013,016.6,E,A*24
$PGRME,9.3,M,106.1,M,106.5,M*20
$HCHDG,275.5,0.0,E,,*2C
$HCHDG,275.4,0.0,E,,*2D
$GPRMC,162403.0,A,4741.28005,N,12224.29052,W,001.53,283.0,261013,016.6,E,A*2F
$PGRME,8.7,M,97.4,M,97.8,M*2D
$YXXDR,A,5.6,D,PTCH,A,4.0,D,ROLL*5A
$PTAK,FFP1,HEEL,@*07
$HCHDG,275.3,0.0,E,,*2A
$HCHDG,275.5,0.0,E,,*2C
$GPRMC,162403.2,A,4741.28022,N,12224.29026,W,001.56,280.4,261013,016.6,E,A*29
$PGRME,8.2,M,89.8,M,90.2,M*26
$HCHDG,275.4,0.0,E,,*2D
$HCHDG,275.4,0.0,E,,*2D
$GPRMC,162403.4,A,4741.28006,N,12224.29023,W,001.52,291.1,261013,016.6,E,A*2D
$PGRME,7.7,M,83.5,M,83.9,M*22
$HCHDG,275.5,0.0,E,,*2C
$YXXDR,A,5.4,D,PTCH,A,4.6,D,ROLL*5E
$HCHDG,275.5,0.0,E,,*2C
$GPRMC,162403.6,A,4741.27999,N,12224.29038,W,001.61,287.4,261013,016.6,E,A*27
$GPRMB,A,0.19,L,,Shil,4741.0830,N,12224.5670,W,0.3,223,0.71,V*34
$PGRME,7.3,M,77.5,M,77.9,M*26
$HCHDG,275.5,0.0,E,,*2C
$HCHDG,275.4,0.0,E,,*2D
$GPRMC,162403.8,A,4741.28004,N,12224.29068,W,001.60,292.2,261013,016.6,E,A*2D
$PGRME,7.0,M,73.7,M,74.1,M*28
$HCHDG,275.5,0.0,E,,*2C
$HCHDG,275.7,0.0,E,,*2E
$GPRMC,162404.0,A,4741.28020,N,12224.29089,W,001.66,295.3,261013,016.6,E,A*2B
$PGRME,6.5,M,66.7,M,67.1,M*2A
$YXXDR,A,5.5,D,PTCH,A,3.8,D,ROLL*56
$PTAK,FFD1,3.8*5E
$HCHDG,275.6,0.0,E,,*2F
$HCHDG,275.7,0.0,E,,*2E
$GPRMC,162404.2,A,4741.28044,N,12224.29122,W,001.75,293.2,261013,016.6,E,A*2E
$PGRME,6.1,M,60.1,M,60.4,M*2C
$HCHDG,275.7,0.0,E,,*2E
$HCHDG,275.9,0.0,E,,*20
$GPRMC,162404.4,A,4741.28051,N,12224.29147,W,001.66,289.6,261013,016.6,E,A*22
$PGRME,5.8,M,55.0,M,55.3,M*20
$HCHDG,275.8,0.0,E,,*21
$YXXDR,A,5.9,D,PTCH,A,5.3,D,ROLL*57
$HCHDG,275.7,0.0,E,,*2E
$GPRMC,162404.6,A,4741.28044,N,12224.29138,W,001.57,288.2,261013,016.6,E,A*2B
$GPRMB,A,0.19,L,,Shil,4741.0830,N,12224.5670,W,0.3,223,0.66,V*32
$PGRME,5.5,M,50.3,M,50.6,M*2B
$HCHDG,275.8,0.0,E,,*21
$HCHDG,276.1,0.0,E,,*2B
$GPRMC,162404.8,A,4741.28048,N,12224.29150,W,001.62,277.2,261013,016.6,E,A*21
$PGRME,5.2,M,46.5,M,46.8,M*24
$HCHDG,276.0,0.0,E,,*2A
$HCHDG,276.1,0.0,E,,*2B
$GPRMC,162405.0,A,4741.28047,N,12224.29180,W,001.47,275.5,261013,016.6,E,A*28
$PGRME,5.1,M,43.8,M,44.1,M*24
$YXXDR,A,5.4,D,PTCH,A,5.4,D,ROLL*5D
$PTAK,FFD1,5.4*54
$HCHDG,276.0,0.0,E,,*2A
$HCHDG,276.0,0.0,E,,*2A
$GPRMC,162405.2,A,4741.28048,N,12224.29208,W,001.45,279.1,261013,016.6,E,A*2C
$PGRME,5.0,M,41.7,M,42.0,M*2F
$HCHDG,276.2,0.0,E,,*28
$HCHDG,276.1,0.0,E,,*2B
$GPRMC,162405.4,A,4741.28056,N,12224.29234,W,001.50,287.0,261013,016.6,E,A*2E
$PGRME,4.8,M,39.7,M,40.0,M*2B
$HCHDG,276.3,0.0,E,,*29
$YXXDR,A,5.7,D,PTCH,A,4.6,D,ROLL*5D
$HCHDG,276.2,0.0,E,,*28
$GPRMC,162405.6,A,4741.28067,N,12224.29273,W,001.66,292.9,261013,016.6,E,A*25
$PGRME,4.7,M,38.3,M,38.6,M*28
$HCHDG,276.2,0.0,E,,*28
$HCHDG,276.4,0.0,E,,*2E
$GPRMC,162405.8,A,4741.28068,N,12224.29312,W,001.64,291.0,261013,016.6,E,A*2A
$GPRMB,A,0.18,L,,Shil,4741.0830,N,12224.5670,W,0.3,223,0.61,V*34
$PGRME,4.7,M,37.0,M,37.3,M*2E
$HCHDG,276.5,0.0,E,,*2F
$HCHDG,276.5,0.0,E,,*2F
$GPRMC,162406.0,A,4741.28058,N,12224.29339,W,001.63,282.6,261013,016.6,E,A*28
$PGRME,4.6,M,35.6,M,35.9,M*23
$YXXDR,A,5.5,D,PTCH,A,4.0,D,ROLL*59
$PTAK,FFD1,4.0*51
$HCHDG,276.6,0.0,E,,*2C
$HCHDG,276.6,0.0,E,,*2C
$GPRMC,162406.2,A,4741.28050,N,12224.29320,W,001.69,277.0,261013,016.6,E,A*2C
$PGRME,4.4,M,33.0,M,33.3,M*2D
$HCHDG,276.6,0.0,E,,*2C
$HCHDG,276.6,0.0,E,,*2C
$GPRMC,162406.4,A,4741.28045,N,12224.29301,W,001.41,285.0,261013,016.6,E,A*2A
$PGRME,4.3,M,30.9,M,31.2,M*23
$HCHDG,276.7,0.0,E,,*2D
$YXXDR,A,5.4,D,PTCH,A,4.1,D,ROLL*59
$HCHDG,276.7,0.0,E,,*2D
$GPRMC,162406.6,A,4741.28042,N,12224.29296,W,001.64,279.3,261013,016.6,E,A*27
$PGRME,4.2,M,29.2,M,29.5,M*2F
$HCHDG,276.7,0.0,E,,*2D
$HCHDG,276.8,0.0,E,,*22
$GPRMC,162406.8,A,4741.28042,N,12224.29361,W,001.56,301.2,261013,016.6,E,A*2E
$PGRME,4.1,M,28.3,M,28.6,M*2E
$HCHDG,277.0,0.0,E,,*2B
$HCHDG,277.1,0.0,E,,*2A
$GPRMC,162407.0,A,4741.28057,N,12224.29392,W,001.64,293.1,261013,016.6,E,A*27
$GPRMB,A,0.18,L,,Shil,4741.0830,N,12224.5670,W,0.3,223,0.56,V*30
$PGRME,4.1,M,27.2,M,27.5,M*2C
$YXXDR,A,5.5,D,PTCH,A,2.8,D,ROLL*57
$PTAK,FFD1,2.8*5F
$HCHDG,277.3,0.0,E,,*28
$HCHDG,277.5,0.0,E,,*2E
$GPRMC,162407.2,A,4741.28061,N,12224.29395,W,001.65,293.7,261013,016.6,E,A*20
$PTAK,FFP1,HEEL,@*07
$PGRME,4.0,M,26.8,M,27.1,M*22
$HCHDG,277.3,0.0,E,,*28
$HCHDG,277.5,0.0,E,,*2E
$GPRMC,162407.4,A,4741.28059,N,12224.29401,W,001.67,295.3,261013,016.6,E,A*27
$PGRME,4.0,M,26.3,M,26.7,M*2E
$HCHDG,277.5,0.0,E,,*2E
$YXXDR,A,5.5,D,PTCH,A,2.3,D,ROLL*5C
$HCHDG,277.7,0.0,E,,*2C
$GPRMC,162407.6,A,4741.28064,N,12224.29413,W,001.76,291.0,261013,016.6,E,A*2F
$PGRME,4.0,M,25.9,M,26.3,M*23
$HCHDG,277.8,0.0,E,,*23
$HCHDG,277.8,0.0,E,,*23
$GPRMC,162407.8,A,4741.28077,N,12224.29437,W,001.72,290.8,261013,016.6,E,A*28
$PGRME,4.0,M,25.5,M,25.8,M*27
$HCHDG,277.6,0.0,E,,*2D
$HCHDG,277.7,0.0,E,,*2C
$GPRMC,162408.0,A,4741.28084,N,12224.29456,W,001.66,300.6,261013,016.6,E,A*27
$GPRMB,A,0.18,L,,Shil,4741.0830,N,12224.5670,W,0.3,223,0.35,V*35
$PGRME,3.9,M,25.1,M,25.4,M*21
$YXXDR,A,5.5,D,PTCH,A,2.5,D,ROLL*5A
$PTAK,FFD1,2.5*52
$HCHDG,277.7,0.0,E,,*2C
$HCHDG,277.6,0.0,E,,*2D
$GPRMC,162408.2,A,4741.28098,N,12224.29432,W,001.78,288.3,261013,016.6,E,A*21
$PGRME,3.9,M,24.2,M,24.6,M*20
$HCHDG,277.5,0.0,E,,*2E
$HCHDG,277.5,0.0,E,,*2E
$GPRMC,162408.4,A,4741.28116,N,12224.29455,W,001.70,298.8,261013,016.6,E,A*23
$PGRME,3.9,M,23.9,M,24.2,M*28
$HCHDG,277.4,0.0,E,,*2F
$YXXDR,A,5.4,D,PTCH,A,2.4,D,ROLL*5A
$HCHDG,277.4,0.0,E,,*2F
$GPRMC,162408.6,A,4741.28127,N,12224.29471,W,001.72,305.8,261013,016.6,E,A*22
$PGRME,3.9,M,23.6,M,23.9,M*2B
$HCHDG,277.4,0.0,E,,*2F
$HCHDG,277.4,0.0,E,,*2F
$GPRMC,162408.8,A,4741.28135,N,12224.29481,W,001.78,297.2,261013,016.6,E,A*2A
$PGRME,3.9,M,23.3,M,23.6,M*21
$HCHDG,277.4,0.0,E,,*2F
$HCHDG,277.3,0.0,E,,*28
$GPRMC,162409.0,A,4741.28145,N,12224.29509,W,001.71,298.2,261013,016.6,E,A*23
$PGRME,3.8,M,22.9,M,23.2,M*2F
$YXXDR,A,5.5,D,PTCH,A,2.7,D,ROLL*58
$HCHDG,277.4,0.0,E,,*2F
$HCHDG,277.3,0.0,E,,*28
$GPRMC,162409.2,A,4741.28154,N,12224.29526,W,001.76,298.8,261013,016.6,E,A*21
$GPRMB,A,0.18,L,,Shil,4741.0830,N,12224.5670,W,0.3,223,0.42,V*35
$PGRME,3.8,M,22.5,M,22.9,M*29
$HCHDG,277.3,0.0,E,,*28
$HCHDG,277.3,0.0,E,,*28
$GPRMC,162409.4,A,4741.28161,N,12224.29535,W,001.66,295.6,261013,016.6,E,A*21
$PGRME,3.8,M,21.9,M,22.2,M*2D
$HCHDG,277.3,0.0,E,,*28
$YXXDR,A,5.5,D,PTCH,A,3.4,D,ROLL*5A
$PTAK,FFD1,3.4*52
$HCHDG,277.1,0.0,E,,*2A
$GPRMC,162409.6,A,4741.28169,N,12224.29554,W,001.73,296.3,261013,016.6,E,A*2E
$PGRME,3.7,M,21.4,M,21.8,M*26
$HCHDG,277.1,0.0,E,,*2A
$HCHDG,277.1,0.0,E,,*2A
$GPRMC,162409.8,A,4741.28174,N,12224.29565,W,001.75,294.3,261013,016.6,E,A*2A
$PGRME,3.7,M,21.0,M,21.3,M*29
$HCHDG,277.0,0.0,E,,*2B
$HCHDG,277.0,0.0,E,,*2B
$GPRMC,162410.0,A,4741.28177,N,12224.29575,W,001.66,296.1,261013,016.6,E,A*2A
$PGRME,3.7,M,20.7,M,21.0,M*2C
$YXXDR,A,5.2,D,PTCH,A,3.4,D,ROLL*5D
$HCHDG,277.0,0.0,E,,*2B
$HCHDG,277.0,0.0,E,,*2B
$GPRMC,162410.2,A,4741.28176,N,12224.29582,W,001.77,296.8,261013,016.6,E,A*28
$PGRME,3.7,M,20.4,M,20.8,M*26
$HCHDG,277.0,0.0,E,,*2B
$HCHDG,276.8,0.0,E,,*22
$GPRMC,162410.4,A,4741.28173,N,12224.29583,W,001.76,296.2,261013,016.6,E,A*21
$GPRMB,A,0.18,L,,Shil,4741.0830,N,12224.5670,W,0.3,223,0.50,V*36
$PGRME,3.6,M,20.1,M,20.4,M*2E
$HCHDG,276.9,0.0,E,,*23
$YXXDR,A,5.4,D,PTCH,A,2.8,D,ROLL*56
$PTAK,FFD1,2.8*5F
$HCHDG,276.5,0.0,E,,*2F
$GPRMC,162410.6,A,4741.28179,N,12224.29582,W,001.94,298.9,261013,016.6,E,A*21
$PGRME,3.6,M,19.7,M,20.0,M*26
$HCHDG,276.5,0.0,E,,*2F
$HCHDG,276.6,0.0,E,,*2C
$GPRMC,162410.8,A,4741.28182,N,12224.29593,W,001.73,305.9,261013,016.6,E,A*27
$PGRME,3.6,M,19.4,M,19.7,M*28
$HCHDG,276.5,0.0,E,,*2F
$HCHDG,276.6,0.0,E,,*2C
$GPRMC,162411.0,A,4741.28186,N,12224.29610,W,001.81,296.8,261013,016.6,E,A*25
$PGRME,3.5,M,18.9,M,19.2,M*22
$YXXDR,A,5.4,D,PTCH,A,3.0,D,ROLL*5F
$HCHDG,276.3,0.0,E,,*29
$HCHDG,276.3,0.0,E,,*29
$PTAK,FFP1,HEEL,@*07
$GPRMC,162411.2,A,4741.28193,N,12224.29619,W,001.71,299.1,261013,016.6,E,A*23
$PGRME,3.5,M,18.5,M,18.8,M*25
$HCHDG,276.1,0.0,E,,*2B
$HCHDG,276.4,0.0,E,,*2E
$GPRMC,162411.4,A,4741.28191,N,12224.29635,W,001.74,293.6,261013,016.6,E,A*21
$GPRMB,A,0.18,L,,Shil,4741.0830,N,12224.5670,W,0.3,222,0.56,V*31
$PGRME,3.5,M,18.2,M,18.5,M*2F
$HCHDG,276.2,0.0,E,,*28
$YXXDR,A,5.1,D,PTCH,A,3.3,D,ROLL*59
$HCHDG,276.1,0.0,E,,*2B
$GPRMC,162411.6,A,4741.28190,N,12224.29651,W,001.86,287.8,261013,016.6,E,A*26
$PGRME,3.4,M,17.8,M,18.1,M*2F
$HCHDG,276.0,0.0,E,,*2A
$HCHDG,275.9,0.0,E,,*20
$GPRMC,162411.8,A,4741.28193,N,12224.29673,W,001.81,301.8,261013,016.6,E,A*23
$PGRME,3.4,M,17.5,M,17.9,M*25
$HCHDG,275.9,0.0,E,,*20
$HCHDG,275.8,0.0,E,,*21
$GPRMC,162412.0,A,4741.28197,N,12224.29700,W,001.84,299.0,261013,016.6,E,A*24
$PGRME,3.4,M,17.3,M,17.7,M*2D
$YXXDR,A,5.3,D,PTCH,A,2.8,D,ROLL*51
$PTAK,FFD1,2.8*5F
$HCHDG,275.8,0.0,E,,*21
$HCHDG,275.9,0.0,E,,*20
$GPRMC,162412.2,A,4741.28180,N,12224.29718,W,001.76,294.9,261013,016.6,E,A*20
$PGRME,3.4,M,16.9,M,17.2,M*23
$HCHDG,275.7,0.0,E,,*2E
$HCHDG,275.7,0.0,E,,*2E
$GPRMC,162412.4,A,4741.28184,N,12224.29733,W,001.79,296.0,261013,016.6,E,A*2F
$PGRME,3.3,M,16.5,M,16.9,M*22
$HCHDG,275.7,0.0,E,,*2E
$YXXDR,A,5.5,D,PTCH,A,2.8,D,ROLL*57
$HCHDG,275.7,0.0,E,,*2E
$GPRMC,162412.6,A,4741.28178,N,12224.29757,W,001.82,287.8,261013,016.6,E,A*20
$GPRMB,A,0.18,L,,Shil,4741.0830,N,12224.5670,W,0.3,222,0.76,V*33
$PGRME,3.3,M,16.2,M,16.5,M*29
$HCHDG,275.6,0.0,E,,*2F
$HCHDG,275.6,0.0,E,,*2F
$GPRMC,162412.8,A,4741.28185,N,12224.29778,W,001.79,290.8,261013,016.6,E,A*23
$PGRME,3.3,M,16.0,M,16.3,M*2D
$HCHDG,275.9,0.0,E,,*20
$HCHDG,275.9,0.0,E,,*20
$GPRMC,162413.0,A,4741.28197,N,12224.29805,W,001.89,298.7,261013,016.6,E,A*24
$PGRME,3.3,M,15.8,M,16.1,M*24
$YXXDR,A,5.4,D,PTCH,A,2.2,D,ROLL*5C
$HCHDG,275.8,0.0,E,,*21
$HCHDG,275.7,0.0,E,,*2E
$GPRMC,162413.2,A,4741.28202,N,12224.29833,W,001.95,296.9,261013,016.6,E,A*21
$PGRME,3.2,M,15.6,M,15.9,M*20
$HCHDG,275.7,0.0,E,,*2E
$HCHDG,275.6,0.0,E,,*2F
$GPRMC,162413.4,A,4741.28206,N,12224.29844,W,002.07,292.3,261013,016.6,E,A*25
$PGRME,3.2,M,15.5,M,15.9,M*23
$HCHDG,275.7,0.0,E,,*2E
$YXXDR,A,5.2,D,PTCH,A,1.8,D,ROLL*53
$PTAK,FFD1,1.8*5C
$HCHDG,275.7,0.0,E,,*2E
$GPRMC,162413.6,A,4741.28213,N,12224.29869,W,002.06,285.3,261013,016.6,E,A*2B
$GPRMB,A,0.18,L,,Shil,4741.0830,N,12224.5670,W,0.3,222,0.93,V*38
$PGRME,3.2,M,15.4,M,15.7,M*2C
$HCHDG,275.5,0.0,E,,*2C
$HCHDG,275.6,0.0,E,,*2F
$GPRMC,162413.8,A,4741.28216,N,12224.29886,W,001.84,289.6,261013,016.6,E,A*21
$PGRME,3.2,M,15.3,M,15.6,M*2A
$HCHDG,275.7,0.0,E,,*2E
$HCHDG,275.7,0.0,E,,*2E
$GPRMC,162414.0,A,4741.28219,N,12224.29882,W,001.88,294.0,261013,016.6,E,A*23
$PGRME,3.2,M,15.0,M,15.3,M*2C
$YXXDR,A,5.1,D,PTCH,A,2.4,D,ROLL*5F
$HCHDG,275.8,0.0,E,,*21
$HCHDG,275.5,0.0,E,,*2C
$GPRMC,162414.2,A,4741.28226,N,12224.29894,W,001.72,299.4,261013,016.6,E,A*26
$PGRME,3.2,M,14.7,M,15.1,M*28
$HCHDG,275.6,0.0,E,,*2F
$HCHDG,275.9,0.0,E,,*20
$GPRMC,162414.4,A,4741.28226,N,12224.29904,W,001.97,292.5,261013,016.6,E,A*29
$PGRME,3.2,M,14.5,M,14.9,M*23
$HCHDG,275.9,0.0,E,,*20
$YXXDR,A,5.1,D,PTCH,A,1.7,D,ROLL*5F
$HCHDG,275.9,0.0,E,,*20
$GPRMC,162414.6,A,4741.28207,N,12224.29904,W,001.92,294.4,261013,016.6,E,A*2A
$PGRME,3.1,M,14.3,M,14.6,M*29
$HCHDG,275.9,0.0,E,,*20
$HCHDG,275.9,0.0,E,,*20
$GPRMC,162414.8,A,4741.28196,N,12224.29912,W,001.89,293.4,261013,016.6,E,A*25
$GPRMB,A,0.18,L,,Shil,4741.0830,N,12224.5670,W,0.3,222,0.61,V*35
$PGRME,3.1,M,14.1,M,14.4,M*29
$HCHDG,276.2,0.0,E,,*28
$HCHDG,276.1,0.0,E,,*2B
$GPRMC,162415.0,A,4741.28198,N,12224.29930,W,002.08,293.5,261013,016.6,E,A*29
$PGRME,3.1,M,13.9,M,14.2,M*20
$YXXDR,A,5.2,D,PTCH,A,1.1,D,ROLL*5A
$PTAK,FFD1,1.1*55
$HCHDG,276.2,0.0,E,,*28
$HCHDG,276.2,0.0,E,,*28
$GPRMC,162415.2,A,4741.28199,N,12224.29944,W,002.00,298.0,261013,016.6,E,A*2F
$PGRME,3.1,M,13.8,M,14.1,M*22
$HCHDG,276.3,0.0,E,,*29
$PTAK,FFP1,HEEL,@*07
$HCHDG,276.2,0.0,E,,*28
$GPRMC,162415.4,A,4741.28201,N,12224.29961,W,002.07,290.8,261013,016.6,E,A*2B
$PGRME,3.1,M,13.6,M,13.9,M*23
$HCHDG,276.2,0.0,E,,*28
$YXXDR,A,5.4,D,PTCH,A,1.2,D,ROLL*5F
$HCHDG,276.1,0.0,E,,*2B
$GPRMC,162415.6,A,4741.28210,N,12224.29970,W,001.87,291.8,261013,016.6,E,A*23
$GPRMB,A,0.18,L,,Shil,4741.0830,N,12224.5670,W,0.3,222,0.65,V*31
$PGRME,3.0,M,13.2,M,13.6,M*29
$HCHDG,276.1,0.0,E,,*2B
$HCHDG,276.0,0.0,E,,*2A
$GPRMC,162415.8,A,4741.28216,N,12224.29992,W,002.04,289.1,261013,016.6,E,A*2F
$PGRME,3.0,M,13.0,M,13.4,M*29
$HCHDG,276.4,0.0,E,,*2E
$HCHDG,276.3,0.0,E,,*29
$GPRMC,162416.0,A,4741.28217,N,12224.30013,W,001.90,293.9,261013,016.6,E,A*20
$PGRME,3.0,M,12.8,M,13.2,M*26
$YXXDR,A,5.2,D,PTCH,A,1.8,D,ROLL*53
$PTAK,FFD1,1.8*5C
$HCHDG,276.4,0.0,E,,*2E
$HCHDG,276.4,0.0,E,,*2E
$GPRMC,162416.2,A,4741.28214,N,12224.30027,W,001.97,288.4,261013,016.6,E,A*26
$PGRME,3.0,M,12.6,M,13.0,M*2A
$HCHDG,276.4,0.0,E,,*2E
$HCHDG,276.4,0.0,E,,*2E
$GPRMC,162416.4,A,4741.28224,N,12224.30048,W,002.03,290.3,261013,016.6,E,A*2A
$PGRME,3.0,M,12.5,M,12.8,M*20
$HCHDG,276.6,0.0,E,,*2C
$YXXDR,A,5.1,D,PTCH,A,1.0,D,ROLL*58
$HCHDG,276.8,0.0,E,,*22
$GPRMC,162416.6,A,4741.28229,N,12224.30055,W,002.14,296.9,261013,016.6,E,A*23
$PGRME,3.0,M,12.3,M,12.7,M*29
$HCHDG,276.8,0.0,E,,*22
$HCHDG,276.9,0.0,E,,*23
$GPRMC,162416.8,A,4741.28231,N,12224.30064,W,002.05,295.1,261013,016.6,E,A*2D
$PGRME,3.0,M,12.2,M,12.6,M*29
$HCHDG,277.0,0.0,E,,*2B
$HCHDG,277.0,0.0,E,,*2B
$GPRMC,162417.0,A,4741.28233,N,12224.30082,W,002.10,304.4,261013,016.6,E,A*26
$PGRME,3.0,M,12.1,M,12.5,M*29
$YXXDR,A,5.4,D,PTCH,A,0.0,D,ROLL*5C
$HCHDG,276.9,0.0,E,,*23
$HCHDG,276.9,0.0,E,,*23
$GPRMC,162417.2,A,4741.28240,N,12224.30101,W,002.25,294.6,261013,016.6,E,A*26
$GPRMB,A,0.18,L,,Shil,4741.0830,N,12224.5670,W,0.3,222,0.67,V*33
$PGRME,3.0,M,12.0,M,12.4,M*29
$HCHDG,277.1,0.0,E,,*2A
$HCHDG,277.1,0.0,E,,*2A
$GPRMC,162417.4,A,4741.28234,N,12224.30109,W,002.13,298.4,261013,016.6,E,A*20
$PGRME,3.0,M,11.8,M,12.2,M*24
$HCHDG,277.0,0.0,E,,*2B
$YXXDR,A,5.4,D,PTCH,A,0.4,D,ROLL*58
$PTAK,FFD1,0.4*51
$HCHDG,277.2,0.0,E,,*29
$GPRMC,162417.6,A,4741.28228,N,12224.30114,W,002.15,293.6,261013,016.6,E,A*2C
$PGRME,3.0,M,11.7,M,12.1,M*28
$HCHDG,277.2,0.0,E,,*29
$HCHDG,277.1,0.0,E,,*2A
$GPRMC,162417.8,A,4741.28232,N,12224.30136,W,002.15,292.7,261013,016.6,E,A*29
$PGRME,3.0,M,11.5,M,11.9,M*21
$HCHDG,277.3,0.0,E,,*28
$HCHDG,277.2,0.0,E,,*29
$GPRMC,162418.0,A,4741.28223,N,12224.30133,W,002.04,290.8,261013,016.6,E,A*26
$PGRME,3.0,M,11.4,M,11.8,M*21
$YXXDR,A,5.8,D,PTCH,A,0.9,D,ROLL*59
$HCHDG,277.2,0.0,E,,*29
$HCHDG,277.2,0.0,E,,*29
$GPRMC,162418.2,A,4741.28212,N,12224.30136,W,002.02,294.5,261013,016.6,E,A*2C
$GPRMB,A,0.18,L,,Shil,4741.0830,N,12224.5670,W,0.3,222,0.61,V*35
$PGRME,3.0,M,11.3,M,11.7,M*29
$HCHDG,277.0,0.0,E,,*2B
$HCHDG,277.1,0.0,E,,*2A
$GPRMC,162418.4,A,4741.28216,N,12224.30152,W,002.00,296.7,261013,016.6,E,A*2E
$PGRME,3.0,M,11.2,M,11.6,M*29
$HCHDG,277.0,0.0,E,,*2B
$YXXDR,A,5.2,D,PTCH,A,0.5,D,ROLL*5F
$PTAK,FFD1,0.5*50
$HCHDG,277.1,0.0,E,,*2A
$GPRMC,162418.6,A,4741.28222,N,12224.30173,W,002.13,291.4,261013,016.6,E,A*2E
$PGRME,3.0,M,11.1,M,11.5,M*29
$HCHDG,277.2,0.0,E,,*29
$HCHDG,277.1,0.0,E,,*2A
$GPRMC,162418.8,A,4741.28230,N,12224.30192,W,002.18,293.8,261013,016.6,E,A*29
$PGRME,3.0,M,11.0,M,11.4,M*29
$HCHDG,277.3,0.0,E,,*28
$HCHDG,277.3,0.0,E,,*28
$GPRMC,162419.0,A,4741.28236,N,12224.30211,W,002.12,299.9,261013,016.6,E,A*2F
$PGRME,3.0,M,10.9,M,11.3,M*26
$YXXDR,A,5.2,D,PTCH,A,0.0,D,ROLL*5A
$HCHDG,277.3,0.0,E,,*28
$HCHDG,277.3,0.0,E,,*28
$GPRMC,162419.2,A,4741.28241,N,12224.30214,W,002.36,296.6,261013,016.6,E,A*2E
$PGRME,3.0,M,10.8,M,11.2,M*26
$HCHDG,277.3,0.0,E,,*28
$PTAK,FFP1,HEEL,@*07
$HCHDG,277.4,0.0,E,,*2F
$GPRMC,162419.4,A,4741.28243,N,12224.30227,W,002.24,296.2,261013,016.6,E,A*2D
$GPRMB,A,0.18,L,,Shil,4741.0830,N,12224.5670,W,0.3,222,0.60,V*34
$PGRME,3.0,M,10.7,M,11.1,M*2A
$HCHDG,277.5,0.0,E,,*2E
$YXXDR,A,5.4,D,PTCH,A,0.2,D,ROLL*5E
$PTAK,FFD1,0.2*57
$HCHDG,277.4,0.0,E,,*2F
$GPRMC,162419.6,A,4741.28242,N,12224.30244,W,002.28,294.7,261013,016.6,E,A*20
$PGRME,3.0,M,10.6,M,11.0,M*2A
$HCHDG,277.6,0.0,E,,*2D
$HCHDG,277.6,0.0,E,,*2D
$GPRMC,162419.8,A,4741.28250,N,12224.30259,W,002.11,296.7,261013,016.6,E,A*29
$PGRME,3.0,M,10.5,M,10.9,M*21
$HCHDG,277.8,0.0,E,,*23
$HCHDG,277.7,0.0,E,,*2C
$GPRMC,162420.0,A,4741.28260,N,12224.30276,W,002.19,298.5,261013,016.6,E,A*21
$PGRME,3.0,M,10.4,M,10.9,M*20
$YXXDR,A,5.3,D,PTCH,A,0.7,D,ROLL*5C
$HCHDG,277.7,0.0,E,,*2C
$HCHDG,277.6,0.0,E,,*2D
$GPRMC,162420.2,A,4741.28264,N,12224.30282,W,002.02,298.9,261013,016.6,E,A*2A
$PGRME,3.0,M,10.4,M,10.8,M*21
$HCHDG,277.6,0.0,E,,*2D
$HCHDG,277.5,0.0,E,,*2E
$GPRMC,162420.4,A,4741.28266,N,12224.30291,W,002.25,297.7,261013,016.6,E,A*28
$PGRME,3.0,M,10.3,M,10.7,M*29
$HCHDG,277.5,0.0,E,,*2E
$YXXDR,A,5.3,D,PTCH,A,0.3,D,ROLL*58
$HCHDG,277.6,0.0,E,,*2D
$GPRMC,162420.6,A,4741.28270,N,12224.30303,W,002.26,298.7,261013,016.6,E,A*2B
$GPRMB,A,0.18,L,,Shil,4741.0830,N,12224.5670,W,0.3,222,0.51,V*36
$PGRME,3.0,M,10.2,M,10.7,M*28
$HCHDG,277.5,0.0,E,,*2E
$HCHDG,277.7,0.0,E,,*2C
$GPRMC,162420.8,A,4741.28276,N,12224.30324,W,002.37,294.9,261013,016.6,E,A*24
$PGRME,3.0,M,10.2,M,10.6,M*29
$HCHDG,277.7,0.0,E,,*2C
$HCHDG,277.8,0.0,E,,*23
$GPRMC,162421.0,A,4741.28282,N,12224.30346,W,002.27,293.0,261013,016.6,E,A*2D
$PGRME,3.0,M,10.1,M,10.5,M*29
$YXXDR,A,5.4,D,PTCH,A,0.8,D,ROLL*54
$PTAK,FFD1,0.8*5D
$HCHDG,278.0,0.0,E,,*24
$HCHDG,277.9,0.0,E,,*22
$GPRMC,162421.2,A,4741.28287,N,12224.30364,W,002.25,298.1,261013,016.6,E,A*22
$PGRME,3.0,M,10.0,M,10.5,M*28
$HCHDG,278.0,0.0,E,,*24
$HCHDG,278.1,0.0,E,,*25
$GPRMC,162421.4,A,4741.28293,N,12224.30398,W,002.27,298.5,261013,016.6,E,A*24
$PGRME,3.0,M,9.9,M,10.4,M*18
$HCHDG,278.2,0.0,E,,*26
$YXXDR,A,5.6,D,PTCH,A,1.4,D,ROLL*5B
$HCHDG,278.2,0.0,E,,*26
$GPRMC,162421.6,A,4741.28305,N,12224.30419,W,002.27,296.7,261013,016.6,E,A*2A
$PGRME,3.0,M,9.8,M,10.3,M*1E
$HCHDG,278.2,0.0,E,,*26
$HCHDG,278.2,0.0,E,,*26
$GPRMC,162421.8,A,4741.28322,N,12224.30436,W,002.25,303.4,261013,016.6,E,A*20
$GPRMB,A,0.18,L,,Shil,4741.0830,N,12224.5670,W,0.3,221,0.32,V*30
$PGRME,3.0,M,9.7,M,10.2,M*10
$HCHDG,278.3,0.0,E,,*27
$HCHDG,278.2,0.0,E,,*26
$GPRMC,162422.0,A,4741.28327,N,12224.30446,W,002.25,294.6,261013,016.6,E,A*24
$PGRME,3.0,M,9.6,M,10.1,M*12
$YXXDR,A,5.5,D,PTCH,A,1.0,D,ROLL*5C
$PTAK,FFD1,1.0*54
$HCHDG,278.2,0.0,E,,*26
$HCHDG,278.2,0.0,E,,*26
$GPRMC,162422.2,A,4741.28322,N,12224.30446,W,002.12,300.8,261013,016.6,E,A*25
$PGRME,3.0,M,9.5,M,10.0,M*10
$HCHDG,278.1,0.0,E,,*25
$HCHDG,278.1,0.0,E,,*25
$GPRMC,162422.4,A,4741.28330,N,12224.30465,W,002.27,289.8,261013,016.6,E,A*27
$PGRME,3.0,M,9.4,M,9.9,M*20
$HCHDG,278.0,0.0,E,,*24
$YXXDR,A,5.0,D,PTCH,A,1.8,D,ROLL*51
$HCHDG,278.0,0.0,E,,*24
$GPRMC,162422.6,A,4741.28337,N,12224.30484,W,002.19,291.5,261013,016.6,E,A*24
$PGRME,3.0,M,9.3,M,9.8,M*26
$HCHDG,278.3,0.0,E,,*27
$HCHDG,278.4,0.0,E,,*20
$GPRMC,162422.8,A,4741.28337,N,12224.30505,W,002.20,287.9,261013,016.6,E,A*23
$PGRME,3.0,M,9.2,M,9.7,M*28
$HCHDG,278.4,0.0,E,,*20
$HCHDG,278.6,0.0,E,,*22
$GPRMC,162423.0,A,4741.28342,N,12224.30535,W,002.36,297.4,261013,016.6,E,A*20
$GPRMB,A,0.18,L,,Shil,4741.0830,N,12224.5670,W,0.3,221,0.57,V*33
$PGRME,3.0,M,9.2,M,9.6,M*29
$YXXDR,A,5.4,D,PTCH,A,1.8,D,ROLL*55
$PTAK,FFD1,1.8*5C
$HCHDG,278.8,0.0,E,,*2C
$HCHDG,278.6,0.0,E,,*22
$GPRMC,162423.2,A,4741.28346,N,12224.30549,W,002.39,297.7,261013,016.6,E,A*21
$PGRME,3.0,M,9.1,M,9.6,M*2A
$HCHDG,278.9,0.0,E,,*2D
$PTAK,FFP1,HEEL,@*07
$HCHDG,278.8,0.0,E,,*2C
$GPRMC,162423.4,A,4741.28334,N,12224.30555,W,002.30,300.6,261013,016.6,E,A*28
$PGRME,3.0,M,9.0,M,9.5,M*28
$HCHDG,279.0,0.0,E,,*25
$YXXDR,A,5.4,D,PTCH,A,1.3,D,ROLL*5E
$HCHDG,279.2,0.0,E,,*27
$GPRMC,162423.6,A,4741.28329,N,12224.30572,W,002.46,292.9,261013,016.6,E,A*27
$PGRME,3.0,M,8.9,M,9.4,M*21
$HCHDG,279.4,0.0,E,,*21
$HCHDG,279.4,0.0,E,,*21
$GPRMC,162423.8,A,4741.28337,N,12224.30586,W,002.34,295.8,261013,016.6,E,A*2E
$PGRME,3.0,M,8.8,M,9.4,M*20
$HCHDG,279.5,0.0,E,,*20
$HCHDG,279.8,0.0,E,,*2D
$GPRMC,162424.0,A,4741.28343,N,12224.30608,W,002.21,299.7,261013,016.6,E,A*20
$PGRME,3.0,M,8.8,M,9.3,M*27
$YXXDR,A,5.4,D,PTCH,A,1.4,D,ROLL*59
$HCHDG,279.9,0.0,E,,*2C
$HCHDG,279.9,0.0,E,,*2C
$GPRMC,162424.2,A,4741.28346,N,12224.30629,W,002.30,293.6,261013,016.6,E,A*2F
$GPRMB,A,0.18,L,,Shil,4741.0830,N,12224.5670,W,0.3,221,0.70,V*36
$PGRME,3.0,M,8.7,M,9.2,M*29
$HCHDG,279.9,0.0,E,,*2C
$HCHDG,280.0,0.0,E,,*23
$GPRMC,162424.4,A,4741.28360,N,12224.30657,W,002.46,290.5,261013,016.6,E,A*25
$PGRME,3.0,M,8.6,M,9.1,M*2B
$HCHDG,280.2,0.0,E,,*21
$YXXDR,A,5.4,D,PTCH,A,1.5,D,ROLL*58
$PTAK,FFD1,1.5*51
$HCHDG,280.2,0.0,E,,*21
$GPRMC,162424.6,A,4741.28367,N,12224.30679,W,002.24,299.8,261013,016.6,E,A*2C
$PGRME,3.0,M,8.6,M,9.1,M*2B
$HCHDG,280.1,0.0,E,,*22
$HCHDG,280.3,0.0,E,,*20
$GPRMC,162424.8,A,4741.28366,N,12224.30697,W,002.37,294.5,261013,016.6,E,A*21
$PGRME,3.0,M,8.5,M,9.0,M*29
$HCHDG,280.4,0.0,E,,*27
$HCHDG,280.4,0.0,E,,*27
$GPRMC,162425.0,A,4741.28376,N,12224.30716,W,002.42,294.5,261013,016.6,E,A*23
$PGRME,3.0,M,8.4,M,8.9,M*20
$YXXDR,A,5.4,D,PTCH,A,1.4,D,ROLL*59
$HCHDG,280.6,0.0,E,,*25
$HCHDG,280.7,0.0,E,,*24
$GPRMC,162425.2,A,4741.28396,N,12224.30737,W,002.32,297.7,261013,016.6,E,A*2A
$GPRMB,A,0.17,L,,Shil,4741.0830,N,12224.5670,W,0.3,221,0.53,V*38
$PGRME,3.0,M,8.3,M,8.9,M*27
$HCHDG,280.9,0.0,E,,*2A
$HCHDG,281.1,0.0,E,,*23
$GPRMC,162425.4,A,4741.28402,N,12224.30761,W,002.28,297.2,261013,016.6,E,A*2B
$PGRME,3.0,M,8.3,M,8.8,M*26
$HCHDG,281.2,0.0,E,,*20
$YXXDR,A,5.5,D,PTCH,A,0.9,D,ROLL*54
$PTAK,FFD1,0.9*5C
$HCHDG,281.3,0.0,E,,*21
$GPRMC,162425.6,A,4741.28409,N,12224.30788,W,002.35,299.0,261013,016.6,E,A*25
$PGRME,3.0,M,8.2,M,8.7,M*28
$HCHDG,281.3,0.0,E,,*21
$HCHDG,281.4,0.0,E,,*26
$GPRMC,162425.8,A,4741.28419,N,12224.30815,W,002.46,297.0,261013,016.6,E,A*2B
$PGRME,3.0,M,8.2,M,8.7,M*28
$HCHDG,281.5,0.0,E,,*27
$HCHDG,281.5,0.0,E,,*27
$GPRMC,162426.0,A,4741.28427,N,12224.30834,W,002.35,307.9,261013,016.6,E,A*2B
$PGRME,3.0,M,8.1,M,8.6,M*2A
$YXXDR,A,5.5,D,PTCH,A,0.5,D,ROLL*58
$HCHDG,281.5,0.0,E,,*27
$HCHDG,281.4,0.0,E,,*26
$GPRMC,162426.2,A,4741.28443,N,12224.30880,W,002.48,302.5,261013,016.6,E,A*27
$PGRME,3.0,M,7.6,M,8.2,M*26
$HCHDG,281.4,0.0,E,,*26
$HCHDG,281.2,0.0,E,,*20
$GPRMC,162426.4,A,4741.28453,N,12224.30912,W,002.42,303.2,261013,016.6,E,A*26
$GPRMB,A,0.17,L,,Shil,4741.0830,N,12224.5670,W,0.3,221,0.32,V*3F
$PGRME,3.0,M,7.4,M,8.0,M*26
$HCHDG,281.1,0.0,E,,*23
$YXXDR,A,5.1,D,PTCH,A,0.3,D,ROLL*5A
$PTAK,FFD1,0.3*56
$HCHDG,281.0,0.0,E,,*22
$GPRMC,162426.6,A,4741.28467,N,12224.30941,W,002.32,312.4,261013,016.6,E,A*24
$PGRME,3.0,M,7.0,M,7.7,M*2A
$HCHDG,280.8,0.0,E,,*2B
$HCHDG,280.8,0.0,E,,*2B
$GPRMC,162426.8,A,4741.28474,N,12224.30964,W,002.50,305.1,261013,016.6,E,A*28
$PGRME,3.0,M,6.7,M,7.4,M*2F
$HCHDG,280.7,0.0,E,,*24
$HCHDG,280.6,0.0,E,,*25
$GPRMC,162427.0,A,4741.28485,N,12224.30993,W,002.50,304.5,261013,016.6,E,A*22
$PGRME,3.0,M,6.4,M,7.1,M*29
$YXXDR,A,5.3,D,PTCH,A,0.2,D,ROLL*59
$HCHDG,280.4,0.0,E,,*27
$HCHDG,280.2,0.0,E,,*21
$GPRMC,162427.2,A,4741.28509,N,12224.31023,W,002.51,313.8,261013,016.6,E,A*2C
$PGRME,3.0,M,6.2,M,6.9,M*26
$HCHDG,280.1,0.0,E,,*22
$HCHDG,280.0,0.0,E,,*23
$GPRMC,162427.4,A,4741.28532,N,12224.31057,W,002.54,317.3,261013,016.6,E,A*2B
$PTAK,FFP1,HEEL,@*07
$PGRME,3.0,M,6.0,M,6.7,M*2A
$HCHDG,279.8,0.0,E,,*2D
$YXXDR,A,5.3,D,PTCH,A,0.3,D,ROLL*58
$HCHDG,279.7,0.0,E,,*22
$GPRMC,162427.6,A,4741.28540,N,12224.31080,W,002.53,301.2,261013,016.6,E,A*27
$GPRMB,A,0.17,L,,Shil,4741.0830,N,12224.5670,W,0.3,220,0.41,V*3A
$PGRME,3.0,M,5.8,M,6.5,M*23
$HCHDG,279.5,0.0,E,,*20
$HCHDG,279.6,0.0,E,,*23
$GPRMC,162427.8,A,4741.28547,N,12224.31092,W,002.54,307.5,261013,016.6,E,A*2B
$PGRME,3.0,M,5.6,M,6.4,M*2C
$HCHDG,279.4,0.0,E,,*21
$HCHDG,279.2,0.0,E,,*27
$GPRMC,162428.0,A,4741.28564,N,12224.31127,W,002.55,305.7,261013,016.6,E,A*23
$PGRME,3.0,M,5.4,M,6.2,M*28
$YXXDR,A,5.4,D,PTCH,A,1.2,D,ROLL*5F
$PTAK,FFD1,1.2*56
$HCHDG,279.1,0.0,E,,*24
$HCHDG,279.0,0.0,E,,*25
$GPRMC,162428.2,A,4741.28577,N,12224.31149,W,002.38,309.3,261013,016.6,E,A*28
$PGRME,3.0,M,5.3,M,6.1,M*2C
$HCHDG,278.8,0.0,E,,*2C
$HCHDG,278.7,0.0,E,,*23
$GPRMC,162428.4,A,4741.28590,N,12224.31164,W,002.56,311.2,261013,016.6,E,A*28
$PGRME,3.0,M,5.2,M,6.0,M*2C
$HCHDG,278.5,0.0,E,,*21
$YXXDR,A,5.6,D,PTCH,A,1.0,D,ROLL*5F
$HCHDG,278.3,0.0,E,,*27
$GPRMC,162428.6,A,4741.28602,N,12224.31181,W,002.49,301.7,261013,016.6,E,A*23
$GPRMB,A,0.17,L,,Shil,4741.0830,N,12224.5670,W,0.3,220,0.37,V*3B
$PGRME,3.0,M,5.1,M,6.0,M*2F
$HCHDG,278.2,0.0,E,,*26
$HCHDG,278.1,0.0,E,,*25
$GPRMC,162428.8,A,4741.28611,N,12224.31206,W,002.51,302.1,261013,016.6,E,A*2F
$PGRME,3.0,M,5.1,M,5.9,M*25
$HCHDG,278.0,0.0,E,,*24
$HCHDG,277.7,0.0,E,,*2C
$GPRMC,162429.0,A,4741.28621,N,12224.31234,W,002.54,299.0,261013,016.6,E,A*23
$PGRME,3.0,M,5.0,M,5.8,M*25
$YXXDR,A,5.4,D,PTCH,A,1.8,D,ROLL*55
$PTAK,FFD1,1.8*5C
$HCHDG,277.6,0.0,E,,*2D
$HCHDG,277.4,0.0,E,,*2F
$GPRMC,162429.2,A,4741.28633,N,12224.31258,W,002.53,301.5,261013,016.6,E,A*2A
$PGRME,3.0,M,4.8,M,5.7,M*23
$HCHDG,277.5,0.0,E,,*2E
$HCHDG,277.2,0.0,E,,*29
$GPRMC,162429.4,A,4741.28640,N,12224.31284,W,002.56,294.2,261013,016.6,E,A*26
$PGRME,3.0,M,4.7,M,5.6,M*2D
$HCHDG,277.0,0.0,E,,*2B
$YXXDR,A,5.4,D,PTCH,A,1.1,D,ROLL*5C
$HCHDG,276.8,0.0,E,,*22
$GPRMC,162429.6,A,4741.28651,N,12224.31314,W,002.56,300.6,261013,016.6,E,A*24
$GPRMB,A,0.17,L,,Shil,4741.0830,N,12224.5670,W,0.3,220,0.42,V*39
$PGRME,3.0,M,4.6,M,5.6,M*2C
$HCHDG,276.7,0.0,E,,*2D
$HCHDG,276.7,0.0,E,,*2D
$GPRMC,162429.8,A,4741.28666,N,12224.31346,W,002.57,298.0,261013,016.6,E,A*2E
$PGRME,3.0,M,4.6,M,5.5,M*2F
$HCHDG,276.7,0.0,E,,*2D
$HCHDG,276.7,0.0,E,,*2D
$GPRMC,162430.0,A,4741.28676,N,12224.31373,W,002.56,298.7,261013,016.6,E,A*2F
$PGRME,3.0,M,4.5,M,5.4,M*2D
$YXXDR,A,5.4,D,PTCH,A,1.4,D,ROLL*59
$HCHDG,276.5,0.0,E,,*2F
$HCHDG,276.5,0.0,E,,*2F
$GPRMC,162430.2,A,4741.28678,N,12224.31389,W,002.55,302.9,261013,016.6,E,A*29
$PGRME,3.0,M,4.4,M,5.3,M*2B
$HCHDG,276.5,0.0,E,,*2F
$HCHDG,276.3,0.0,E,,*29
$GPRMC,162430.4,A,4741.28692,N,12224.31413,W,002.56,301.6,261013,016.6,E,A*20
$PGRME,3.0,M,4.3,M,5.3,M*2C
$HCHDG,276.2,0.0,E,,*28
$YXXDR,A,5.5,D,PTCH,A,0.4,D,ROLL*59
$PTAK,FFD1,0.4*51
$HCHDG,276.1,0.0,E,,*2B
$GPRMC,162430.6,A,4741.28708,N,12224.31431,W,002.56,302.5,261013,016.6,E,A*20
$GPRMB,A,0.17,L,,Shil,4741.0830,N,12224.5670,W,0.3,220,0.33,V*3F
$PGRME,3.0,M,4.3,M,5.2,M*2D
$HCHDG,275.8,0.0,E,,*21
$HCHDG,275.7,0.0,E,,*2E
$GPRMC,162430.8,A,4741.28719,N,12224.31456,W,002.55,296.9,261013,016.6,E,A*2C
$PGRME,3.0,M,4.2,M,5.2,M*2C
$HCHDG,275.6,0.0,E,,*2F
$HCHDG,275.3,0.0,E,,*2A
$GPRMC,162431.0,A,4741.28728,N,12224.31477,W,002.58,291.8,261013,016.6,E,A*2F
$PGRME,3.0,M,4.1,M,5.1,M*2C
$YXXDR,A,5.2,D,PTCH,A,1.2,D,ROLL*59
$HCHDG,275.3,0.0,E,,*2A
$HCHDG,275.2,0.0,E,,*2B
$GPRMC,162431.2,A,4741.28736,N,12224.31501,W,002.59,291.4,261013,016.6,E,A*2F
$PGRME,3.0,M,4.1,M,5.1,M*2C
$HCHDG,275.0,0.0,E,,*29
$HCHDG,274.9,0.0,E,,*21
$GPRMC,162431.4,A,4741.28742,N,12224.31522,W,002.60,296.3,261013,016.6,E,A*21
$PTAK,FFP1,HEEL,@*07
$PGRME,3.0,M,4.0,M,5.0,M*2C
$HCHDG,274.9,0.0,E,,*21
$YXXDR,A,5.1,D,PTCH,A,1.5,D,ROLL*5D
$PTAK,FFD1,1.5*51
$HCHDG,274.9,0.0,E,,*21
$GPRMC,162431.6,A,4741.28751,N,12224.31549,W,002.62,295.9,261013,016.6,E,A*27
$PGRME,3.0,M,3.9,M,5.0,M*22
$HCHDG,274.6,0.0,E,,*2E
$HCHDG,274.8,0.0,E,,*20
$GPRMC,162431.8,A,4741.28766,N,12224.31573,W,002.64,299.8,261013,016.6,E,A*2F
$GPRMB,A,0.17,L,,Shil,4741.0830,N,12224.5670,W,0.3,220,0.45,V*3E
$PGRME,3.0,M,3.9,M,4.9,M*2A
$HCHDG,274.5,0.0,E,,*2D
$HCHDG,274.6,0.0,E,,*2E
$GPRMC,162432.0,A,4741.28768,N,12224.31588,W,002.66,300.2,261013,016.6,E,A*27
$PGRME,3.0,M,3.8,M,4.9,M*2B
$YXXDR,A,5.7,D,PTCH,A,1.0,D,ROLL*5E
$HCHDG,274.6,0.0,E,,*2E
$HCHDG,274.4,0.0,E,,*2C
$GPRMC,162432.2,A,4741.28762,N,12224.31607,W,002.69,292.8,261013,016.6,E,A*24
$PGRME,3.0,M,3.8,M,4.8,M*2A
$HCHDG,274.5,0.0,E,,*2D
$HCHDG,274.4,0.0,E,,*2C
$GPRMC,162432.4,A,4741.28761,N,12224.31633,W,002.48,293.4,261013,016.6,E,A*28
$PGRME,3.0,M,3.7,M,4.8,M*25
$HCHDG,274.2,0.0,E,,*2A
$YXXDR,A,5.5,D,PTCH,A,1.7,D,ROLL*5B
$HCHDG,274.1,0.0,E,,*29
$GPRMC,162432.6,A,4741.28772,N,12224.31665,W,002.46,295.1,261013,016.6,E,A*26
$PGRME,3.0,M,3.7,M,4.8,M*25
$HCHDG,273.9,0.0,E,,*26
$HCHDG,273.9,0.0,E,,*26
$GPRMC,162432.8,A,4741.28780,N,12224.31686,W,002.47,292.7,261013,016.6,E,A*28
$GPRMB,A,0.17,L,,Shil,4741.0830,N,12224.5670,W,0.3,219,0.71,V*33
$PGRME,3.0,M,3.6,M,4.7,M*2B
$HCHDG,273.5,0.0,E,,*2A
$HCHDG,273.7,0.0,E,,*28
$GPRMC,162433.0,A,4741.28785,N,12224.31709,W,002.68,286.8,261013,016.6,E,A*25
$PGRME,3.0,M,3.6,M,4.7,M*2B
$YXXDR,A,5.1,D,PTCH,A,2.1,D,ROLL*5A
$PTAK,FFD1,2.1*56
$HCHDG,273.3,0.0,E,,*2C
$HCHDG,273.3,0.0,E,,*2C
$GPRMC,162433.2,A,4741.28795,N,12224.31733,W,002.67,294.2,261013,016.6,E,A*29
$PGRME,3.0,M,3.5,M,4.7,M*28
$HCHDG,273.3,0.0,E,,*2C
$HCHDG,273.1,0.0,E,,*2E
$GPRMC,162433.4,A,4741.28810,N,12224.31757,W,002.65,293.1,261013,016.6,E,A*29
$GPRMB,A,0.17,L,,Shil,4741.0830,N,12224.5670,W,0.3,219,0.74,V*36
$PGRME,3.0,M,3.5,M,4.6,M*29
$HCHDG,273.3,0.0,E,,*2C
$YXXDR,A,5.0,D,PTCH,A,0.3,D,ROLL*5B
$HCHDG,273.1,0.0,E,,*2E
$GPRMC,162433.6,A,4741.28816,N,12224.31791,W,002.70,293.1,261013,016.6,E,A*23
$PGRME,3.0,M,3.5,M,4.6,M*29
$HCHDG,273.1,0.0,E,,*2E
$HCHDG,273.2,0.0,E,,*2D
$GPRMC,162433.8,A,4741.28829,N,12224.31802,W,002.73,295.2,261013,016.6,E,A*22
$PGRME,3.0,M,3.4,M,4.6,M*28
$HCHDG,273.2,0.0,E,,*2D
$HCHDG,273.1,0.0,E,,*2E
$GPRMC,162434.0,A,4741.28838,N,12224.31825,W,002.67,290.1,261013,016.6,E,A*2B
$PGRME,3.0,M,3.4,M,4.6,M*28
$YXXDR,A,5.1,D,PTCH,A,1.5,D,ROLL*5D
$PTAK,FFD1,1.5*51
$HCHDG,273.1,0.0,E,,*2E
$HCHDG,273.0,0.0,E,,*2F
$GPRMC,162434.2,A,4741.28837,N,12224.31851,W,002.65,288.9,261013,016.6,E,A*26
$PGRME,3.0,M,3.4,M,4.5,M*2B
$HCHDG,273.3,0.0,E,,*2C
$HCHDG,273.1,0.0,E,,*2E
$GPRMC,162434.4,A,4741.28844,N,12224.31872,W,002.62,289.5,261013,016.6,E,A*2F
$PGRME,3.0,M,3.3,M,4.5,M*2C
$HCHDG,273.3,0.0,E,,*2C
$YXXDR,A,5.0,D,PTCH,A,2.7,D,ROLL*5D
$HCHDG,273.4,0.0,E,,*2B
$GPRMC,162434.6,A,4741.28849,N,12224.31883,W,002.80,288.1,261013,016.6,E,A*27
$PGRME,3.0,M,3.3,M,4.5,M*2C
$HCHDG,273.4,0.0,E,,*2B
$HCHDG,273.4,0.0,E,,*2B
$GPRMC,162434.8,A,4741.28849,N,12224.31909,W,002.96,287.8,261013,016.6,E,A*2B
$PGRME,3.0,M,3.3,M,4.5,M*2C
$HCHDG,273.5,0.0,E,,*2A
$HCHDG,273.4,0.0,E,,*2B
$GPRMC,162435.0,A,4741.28853,N,12224.31931,W,002.93,288.8,261013,016.6,E,A*28
$GPRMB,A,0.17,L,,Shil,4741.0830,N,12224.5670,W,0.3,219,1.01,V*35
$PGRME,3.0,M,3.2,M,4.4,M*2C
$YXXDR,A,5.4,D,PTCH,A,3.1,D,ROLL*5E
$HCHDG,273.5,0.0,E,,*2A
$HCHDG,273.6,0.0,E,,*29
$GPRMC,162435.2,A,4741.28863,N,12224.31951,W,002.66,303.9,261013,016.6,E,A*26
$PGRME,3.0,M,3.2,M,4.4,M*2C
$HCHDG,273.5,0.0,E,,*2A
$HCHDG,273.5,0.0,E,,*2A
$GPRMC,162435.4,A,4741.28865,N,12224.31975,W,002.71,297.0,261013,016.6,E,A*23
$PGRME,3.0,M,3.2,M,4.4,M*2C
$HCHDG,273.5,0.0,E,,*2A
$PTAK,FFP1,HEEL,@*07
$YXXDR,A,5.1,D,PTCH,A,2.3,D,ROLL*58
$PTAK,FFD1,2.3*54
$HCHDG,273.4,0.0,E,,*2B
$GPRMC,162435.6,A,4741.28868,N,12224.31990,W,002.65,297.7,261013,016.6,E,A*25
$PGRME,3.0,M,3.2,M,4.4,M*2C
$HCHDG,273.2,0.0,E,,*2D
$HCHDG,273.4,0.0,E,,*2B
$GPRMC,162435.8,A,4741.28876,N,12224.32016,W,003.48,280.0,261013,016.6,E,A*2F
$PGRME,3.0,M,3.1,M,4.4,M*2F
$HCHDG,273.2,0.0,E,,*2D
$HCHDG,273.0,0.0,E,,*2F
$GPRMC,162436.0,A,4741.28879,N,12224.32041,W,003.12,282.6,261013,016.6,E,A*22
$PGRME,3.0,M,3.1,M,4.4,M*2F
$YXXDR,A,4.8,D,PTCH,A,4.0,D,ROLL*55
$HCHDG,273.1,0.0,E,,*2E
$HCHDG,273.0,0.0,E,,*2F
$GPRMC,162436.2,A,4741.28884,N,12224.32054,W,002.65,294.6,261013,016.6,E,A*20
$GPRMB,A,0.17,L,,Shil,4741.0830,N,12224.5670,W,0.3,219,0.65,V*36
$PGRME,3.0,M,3.1,M,4.4,M*2F
$HCHDG,272.9,0.0,E,,*27
$HCHDG,272.9,0.0,E,,*27
$GPRMC,162436.4,A,4741.28889,N,12224.32071,W,002.65,296.7,261013,016.6,E,A*2F
$PGRME,3.0,M,3.1,M,4.4,M*2F
$HCHDG,272.6,0.0,E,,*28
$YXXDR,A,5.3,D,PTCH,A,4.0,D,ROLL*5F
$HCHDG,272.7,0.0,E,,*29
$GPRMC,162436.6,A,4741.28893,N,12224.32092,W,002.88,290.8,261013,016.6,E,A*21
$PGRME,3.0,M,3.1,M,4.3,M*28
$HCHDG,272.6,0.0,E,,*28
$HCHDG,272.7,0.0,E,,*29
$GPRMC,162436.8,A,4741.28900,N,12224.32115,W,002.82,292.4,261013,016.6,E,A*2E
$PGRME,3.0,M,3.1,M,4.3,M*28
$HCHDG,272.7,0.0,E,,*29
$HCHDG,272.8,0.0,E,,*26
$GPRMC,162437.0,A,4741.28907,N,12224.32132,W,002.84,287.2,261013,016.6,E,A*21
$PGRME,3.0,M,3.1,M,4.3,M*28
$YXXDR,A,5.4,D,PTCH,A,4.2,D,ROLL*5A
$PTAK,FFD1,4.2*53
$HCHDG,272.8,0.0,E,,*26
$HCHDG,272.7,0.0,E,,*29
$GPRMC,162437.2,A,4741.28912,N,12224.32148,W,002.84,287.4,261013,016.6,E,A*2C
$GPRMB,A,0.17,L,,Shil,4741.0830,N,12224.5670,W,0.3,219,1.03,V*37
$PGRME,3.0,M,3.1,M,4.3,M*28
$HCHDG,272.6,0.0,E,,*28
$HCHDG,272.7,0.0,E,,*29
$GPRMC,162437.4,A,4741.28914,N,12224.32168,W,002.88,282.6,261013,016.6,E,A*25
$PGRME,3.0,M,3.0,M,4.3,M*29
$HCHDG,272.6,0.0,E,,*28
$YXXDR,A,5.1,D,PTCH,A,4.7,D,ROLL*5A
$HCHDG,272.7,0.0,E,,*29
$GPRMC,162437.6,A,4741.28918,N,12224.32191,W,002.86,285.1,261013,016.6,E,A*23
$PGRME,3.0,M,3.0,M,4.3,M*29
$HCHDG,272.6,0.0,E,,*28
$HCHDG,272.6,0.0,E,,*28
$GPRMC,162437.8,A,4741.28920,N,12224.32209,W,002.87,291.6,261013,016.6,E,A*27
$PGRME,3.0,M,3.0,M,4.3,M*29
$HCHDG,272.7,0.0,E,,*29
$HCHDG,272.5,0.0,E,,*2B
$GPRMC,162438.0,A,4741.28927,N,12224.32234,W,002.86,290.1,261013,016.6,E,A*2E
$PGRME,3.0,M,3.0,M,4.3,M*29
$YXXDR,A,5.4,D,PTCH,A,3.1,D,ROLL*5E
$PTAK,FFD1,3.1*57
$HCHDG,272.6,0.0,E,,*28
$HCHDG,272.4,0.0,E,,*2A
$GPRMC,162438.2,A,4741.28926,N,12224.32261,W,002.87,288.6,261013,016.6,E,A*22
$PGRME,3.0,M,3.0,M,4.3,M*29
$HCHDG,272.7,0.0,E,,*29
$HCHDG,272.4,0.0,E,,*2A
$GPRMC,162438.4,A,4741.28926,N,12224.32288,W,002.84,290.2,261013,016.6,E,A*2D
$GPRMB,A,0.16,L,,Shil,4741.0830,N,12224.5670,W,0.3,219,0.89,V*35
$PGRME,3.0,M,3.0,M,4.3,M*29
$HCHDG,272.4,0.0,E,,*2A
$YXXDR,A,5.4,D,PTCH,A,3.0,D,ROLL*5F
$HCHDG,272.5,0.0,E,,*2B
$GPRMC,162438.6,A,4741.28931,N,12224.32312,W,002.67,291.0,261013,016.6,E,A*25
$PGRME,3.0,M,3.0,M,4.3,M*29
$HCHDG,272.7,0.0,E,,*29
$HCHDG,272.6,0.0,E,,*28
$GPRMC,162438.8,A,4741.28934,N,12224.32329,W,002.73,289.2,261013,016.6,E,A*28
$PGRME,3.0,M,3.0,M,4.3,M*29
$HCHDG,272.5,0.0,E,,*2B
$HCHDG,272.4,0.0,E,,*2A
$GPRMC,162439.0,A,4741.28933,N,12224.32342,W,002.89,289.2,261013,016.6,E,A*2E
$PGRME,3.0,M,3.0,M,4.3,M*29
$YXXDR,A,5.4,D,PTCH,A,2.9,D,ROLL*57
$HCHDG,272.5,0.0,E,,*2B
$HCHDG,272.4,0.0,E,,*2A
$GPRMC,162439.2,A,4741.28938,N,12224.32354,W,003.10,285.1,261013,016.6,E,A*2E
$PGRME,3.0,M,3.0,M,4.3,M*29
$HCHDG,272.3,0.0,E,,*2D
$HCHDG,272.4,0.0,E,,*2A
$GPRMC,162439.4,A,4741.28942,N,12224.32380,W,002.84,287.5,261013,016.6,E,A*26
$GPRMB,A,0.16,L,,Shil,4741.0830,N,12224.5670,W,0.3,218,1.01,V*35
$PGRME,3.0,M,3.0,M,4.3,M*29
$HCHDG,272.3,0.0,E,,*2D
$PTAK,FFP1,HEEL,@*07
$YXXDR,A,5.1,D,PTCH,A,2.9,D,ROLL*52
$PTAK,FFD1,2.9*5E
$HCHDG,272.3,0.0,E,,*2D
$GPRMC,162439.6,A,4741.28942,N,12224.32404,W,002.87,285.0,261013,016.6,E,A*2B
$PGRME,3.0,M,3.0,M,4.3,M*29
$HCHDG,272.6,0.0,E,,*28
$HCHDG,272.4,0.0,E,,*2A
$GPRMC,162439.8,A,4741.28945,N,12224.32425,W,002.66,290.5,261013,016.6,E,A*2F
$PGRME,3.0,M,3.0,M,4.3,M*29
$HCHDG,272.5,0.0,E,,*2B
$HCHDG,272.7,0.0,E,,*29
$GPRMC,162440.0,A,4741.28948,N,12224.32440,W,002.73,292.2,261013,016.6,E,A*26
$PGRME,3.0,M,3.0,M,4.3,M*29
$YXXDR,A,5.4,D,PTCH,A,2.8,D,ROLL*56
$HCHDG,273.0,0.0,E,,*2F
$HCHDG,273.0,0.0,E,,*2F
$GPRMC,162440.2,A,4741.28951,N,12224.32457,W,002.77,289.6,261013,016.6,E,A*20
$PGRME,3.0,M,3.0,M,4.3,M*29
$HCHDG,273.1,0.0,E,,*2E
$HCHDG,273.1,0.0,E,,*2E
$GPRMC,162440.4,A,4741.28959,N,12224.32476,W,002.98,287.1,261013,016.6,E,A*25
$PGRME,3.0,M,3.0,M,4.3,M*29
$HCHDG,273.2,0.0,E,,*2D
$YXXDR,A,5.4,D,PTCH,A,3.1,D,ROLL*5E
$HCHDG,273.1,0.0,E,,*2E
$GPRMC,162440.6,A,4741.28959,N,12224.32484,W,002.81,286.1,261013,016.6,E,A*23
$GPRMB,A,0.16,L,,Shil,4741.0830,N,12224.5670,W,0.3,218,1.06,V*32
$PGRME,3.0,M,3.0,M,4.3,M*29
$HCHDG,273.2,0.0,E,,*2D
$HCHDG,273.1,0.0,E,,*2E
$GPRMC,162440.8,A,4741.28952,N,12224.32501,W,003.12,278.3,261013,016.6,E,A*22
$PGRME,3.0,M,3.0,M,4.3,M*29
$HCHDG,273.4,0.0,E,,*2B
$HCHDG,273.3,0.0,E,,*2C
$GPRMC,162441.0,A,4741.28952,N,12224.32527,W,002.89,285.5,261013,016.6,E,A*28
$PGRME,3.0,M,3.0,M,4.3,M*29
$YXXDR,A,4.9,D,PTCH,A,3.0,D,ROLL*53
$PTAK,FFD1,3.0*56
$HCHDG,273.2,0.0,E,,*2D
$HCHDG,273.3,0.0,E,,*2C
$GPRMC,162441.2,A,4741.28958,N,12224.32551,W,002.83,291.7,261013,016.6,E,A*2C
$PGRME,3.0,M,3.0,M,4.3,M*29
$HCHDG,273.4,0.0,E,,*2B
$HCHDG,273.6,0.0,E,,*29
$GPRMC,162441.4,A,4741.28958,N,12224.32586,W,003.08,286.7,261013,016.6,E,A*24
$PGRME,3.0,M,3.0,M,4.3,M*29
$HCHDG,273.8,0.0,E,,*27
$YXXDR,A,5.4,D,PTCH,A,2.0,D,ROLL*5E
$HCHDG,273.7,0.0,E,,*28
$GPRMC,162441.6,A,4741.28957,N,12224.32600,W,002.79,290.7,261013,016.6,E,A*24
$GPRMB,A,0.16,L,,Shil,4741.0830,N,12224.5670,W,0.3,218,0.84,V*39
$PGRME,3.0,M,3.0,M,4.3,M*29
$HCHDG,273.9,0.0,E,,*26
$HCHDG,274.2,0.0,E,,*2A
$GPRMC,162441.8,A,4741.28970,N,12224.32628,W,002.84,287.9,261013,016.6,E,A*2F
$PGRME,3.0,M,3.0,M,4.3,M*29
$HCHDG,274.4,0.0,E,,*2C
$HCHDG,274.6,0.0,E,,*2E
$GPRMC,162442.0,A,4741.28979,N,12224.32657,W,002.83,289.9,261013,016.6,E,A*2C
$PGRME,3.0,M,3.0,M,4.3,M*29
$YXXDR,A,5.4,D,PTCH,A,1.7,D,ROLL*5A
$PTAK,FFD1,1.7*53
$HCHDG,274.6,0.0,E,,*2E
$HCHDG,274.8,0.0,E,,*20
$GPRMC,162442.2,A,4741.28987,N,12224.32676,W,002.66,290.6,261013,016.6,E,A*20
$PGRME,3.0,M,3.0,M,4.3,M*29
$HCHDG,275.0,0.0,E,,*29
$HCHDG,275.0,0.0,E,,*29
$GPRMC,162442.4,A,4741.28992,N,12224.32699,W,002.90,285.4,261013,016.6,E,A*2C
$PGRME,3.0,M,3.0,M,4.3,M*29
$HCHDG,275.3,0.0,E,,*2A
$YXXDR,A,5.5,D,PTCH,A,2.5,D,ROLL*5A
$HCHDG,275.4,0.0,E,,*2D
$GPRMC,162442.6,A,4741.28998,N,12224.32723,W,002.94,280.3,261013,016.6,E,A*22
$PGRME,3.0,M,3.0,M,4.3,M*29
$HCHDG,275.7,0.0,E,,*2E
$HCHDG,276.0,0.0,E,,*2A
$GPRMC,162442.8,A,4741.29001,N,12224.32750,W,002.98,282.8,261013,016.6,E,A*25
$GPRMB,A,0.16,L,,Shil,4741.0830,N,12224.5670,W,0.3,218,1.26,V*30
$PGRME,3.0,M,3.0,M,4.3,M*29
$HCHDG,276.3,0.0,E,,*29
$HCHDG,276.5,0.0,E,,*2F
$GPRMC,162443.0,A,4741.29003,N,12224.32780,W,002.91,286.3,261013,016.6,E,A*25
$PGRME,3.0,M,3.0,M,4.3,M*29
$YXXDR,A,5.3,D,PTCH,A,2.6,D,ROLL*5F
$PTAK,FFD1,2.6*51
$HCHDG,276.8,0.0,E,,*22
$HCHDG,277.1,0.0,E,,*2A
$GPRMC,162443.2,A,4741.29006,N,12224.32807,W,002.88,288.6,261013,016.6,E,A*21
$PGRME,3.0,M,3.0,M,4.3,M*29
$HCHDG,277.4,0.0,E,,*2F
$HCHDG,277.7,0.0,E,,*2C
$GPRMC,162443.4,A,4741.29010,N,12224.32833,W,002.92,288.2,261013,016.6,E,A*28
$PGRME,3.0,M,3.0,M,4.3,M*29
$HCHDG,277.9,0.0,E,,*22
$YXXDR,A,5.4,D,PTCH,A,1.4,D,ROLL*59
$HCHDG,278.0,0.0,E,,*24
$GPRMC,162443.6,A,4741.29012,N,12224.32858,W,002.89,289.1,261013,016.6,E,A*2D
$PGRME,3.0,M,3.0,M,4.3,M*29
$HCHDG,278.4,0.0,E,,*20
$PTAK,FFP1,HEEL,@*07
$HCHDG,278.6,0.0,E,,*22
$GPRMC,162443.8,A,4741.29020,N,12224.32877,W,002.90,287.3,261013,016.6,E,A*2B
$PGRME,3.0,M,3.0,M,4.3,M*29
$HCHDG,278.9,0.0,E,,*2D
$HCHDG,279.2,0.0,E,,*27
$GPRMC,162444.0,A,4741.29031,N,12224.32892,W,002.92,286.2,261013,016.6,E,A*2D
$GPRMB,A,0.16,L,,Shil,4741.0830,N,12224.5670,W,0.3,218,1.07,V*33
$PGRME,3.0,M,3.0,M,4.3,M*29
$YXXDR,A,5.4,D,PTCH,A,1.4,D,ROLL*59
$PTAK,FFD1,1.4*50
$PGRMT,GPS 18x-5Hz software ver. 3.20,,,,,,,,*30
$HCHDG,279.5,0.0,E,,*20
$HCHDG,280.0,0.0,E,,*23
$GPRMC,162444.2,A,4741.29035,N,12224.32917,W,002.92,290.2,261013,016.6,E,A*20
$PGRME,3.0,M,3.0,M,4.3,M*29
$HCHDG,280.1,0.0,E,,*22
$HCHDG,280.4,0.0,E,,*27
$GPRMC,162444.4,A,4741.29040,N,12224.32943,W,002.95,292.6,261013,016.6,E,A*24
$PGRME,3.0,M,3.0,M,4.3,M*29
$HCHDG,280.6,0.0,E,,*25
$YXXDR,A,5.1,D,PTCH,A,1.7,D,ROLL*5F
$HCHDG,280.8,0.0,E,,*2B
$GPRMC,162444.6,A,4741.29060,N,12224.32950,W,002.73,288.8,261013,016.6,E,A*2B
$PGRME,3.0,M,3.0,M,4.3,M*29
$HCHDG,281.2,0.0,E,,*20
$HCHDG,281.6,0.0,E,,*24
$GPRMC,162444.8,A,4741.29072,N,12224.32965,W,003.31,291.4,261013,016.6,E,A*23
$PGRME,3.0,M,3.0,M,4.3,M*29
$HCHDG,281.8,0.0,E,,*2A
$HCHDG,282.2,0.0,E,,*23
$GPRMC,162445.0,A,4741.29078,N,12224.32988,W,003.09,297.1,261013,016.6,E,A*2B
$PGRME,3.0,M,3.0,M,4.3,M*29
$YXXDR,A,5.4,D,PTCH,A,1.8,D,ROLL*55
$HCHDG,282.6,0.0,E,,*27
$HCHDG,283.0,0.0,E,,*20
$GPRMC,162445.2,A,4741.29092,N,12224.33011,W,003.03,290.5,261013,016.6,E,A*2C
$GPRMB,A,0.16,L,,Shil,4741.0830,N,12224.5670,W,0.3,217,0.89,V*3B
$PGRME,3.0,M,3.0,M,4.3,M*29
$HCHDG,283.1,0.0,E,,*21
$HCHDG,283.2,0.0,E,,*22
$GPRMC,162445.4,A,4741.29105,N,12224.33021,W,002.82,295.8,261013,016.6,E,A*26
$PGRME,3.0,M,3.0,M,4.3,M*29
$HCHDG,283.4,0.0,E,,*24
$YXXDR,A,5.5,D,PTCH,A,1.3,D,ROLL*5F
$PTAK,FFD1,1.3*57
$HCHDG,283.6,0.0,E,,*26
$GPRMC,162445.6,A,4741.29114,N,12224.33045,W,003.00,297.8,261013,016.6,E,A*2F
$PGRME,3.0,M,3.0,M,4.3,M*29
$HCHDG,283.8,0.0,E,,*28
$HCHDG,283.9,0.0,E,,*29
$GPRMC,162445.8,A,4741.29124,N,12224.33068,W,003.03,293.6,261013,016.6,E,A*24
$PGRME,3.0,M,3.0,M,4.3,M*29
$HCHDG,284.1,0.0,E,,*26
$HCHDG,284.2,0.0,E,,*25
$GPRMC,162446.0,A,4741.29141,N,12224.33081,W,003.03,298.9,261013,016.6,E,A*2F
$PGRME,3.0,M,3.0,M,4.3,M*29
$YXXDR,A,5.1,D,PTCH,A,1.5,D,ROLL*5D
$HCHDG,284.4,0.0,E,,*23
$HCHDG,284.4,0.0,E,,*23
$GPRMC,162446.2,A,4741.29151,N,12224.33089,W,003.04,298.9,261013,016.6,E,A*23
$GPRMB,A,0.16,L,,Shil,4741.0830,N,12224.5670,W,0.3,217,0.45,V*3B
$PGRME,3.0,M,3.0,M,4.3,M*29
$HCHDG,284.5,0.0,E,,*22
$HCHDG,284.5,0.0,E,,*22
$GPRMC,162446.4,A,4741.29162,N,12224.33099,W,003.02,307.4,261013,016.6,E,A*28
$PGRME,3.0,M,3.0,M,4.3,M*29
$HCHDG,284.5,0.0,E,,*22
$YXXDR,A,5.1,D,PTCH,A,1.3,D,ROLL*5B
$HCHDG,284.6,0.0,E,,*21
$GPRMC,162446.6,A,4741.29173,N,12224.33116,W,003.02,306.8,261013,016.6,E,A*21
$PGRME,3.0,M,3.0,M,4.3,M*29
$HCHDG,284.4,0.0,E,,*23
$HCHDG,284.6,0.0,E,,*21
$GPRMC,162446.8,A,4741.29173,N,12224.33141,W,003.02,305.8,261013,016.6,E,A*2E
$PGRME,3.0,M,3.0,M,4.3,M*29
$HCHDG,284.6,0.0,E,,*21
$HCHDG,284.6,0.0,E,,*21
$GPRMC,162447.0,A,4741.29180,N,12224.33159,W,003.00,305.0,261013,016.6,E,A*28
$PGRME,3.0,M,3.0,M,4.3,M*29
$YXXDR,A,5.1,D,PTCH,A,2.2,D,ROLL*59
$PTAK,FFD1,2.2*55
$HCHDG,284.7,0.0,E,,*20
$HCHDG,285.1,0.0,E,,*27
$GPRMC,162447.2,A,4741.29196,N,12224.33163,W,002.97,306.3,261013,016.6,E,A*2B
$GPRMB,A,0.16,L,,Shil,4741.0830,N,12224.5670,W,0.3,217,0.05,V*3F
$PGRME,3.0,M,3.0,M,4.3,M*29
$HCHDG,285.0,0.0,E,,*26
$HCHDG,285.0,0.0,E,,*26
$GPRMC,162447.4,A,4741.29207,N,12224.33178,W,003.00,301.5,261013,016.6,E,A*22
$PGRME,3.0,M,3.0,M,4.3,M*29
$HCHDG,285.1,0.0,E,,*27
$YXXDR,A,5.1,D,PTCH,A,2.9,D,ROLL*52
$HCHDG,285.0,0.0,E,,*26
$GPRMC,162447.6,A,4741.29215,N,12224.33197,W,002.96,309.2,261013,016.6,E,A*23
$PGRME,3.0,M,3.0,M,4.3,M*29
$HCHDG,285.0,0.0,E,,*26
$PTAK,FFP1,HEEL,@*07
$HCHDG,284.9,0.0,E,,*2E
$GPRMC,162447.8,A,4741.29232,N,12224.33207,W,002.98,307.8,261013,016.6,E,A*28
$PGRME,3.0,M,3.0,M,4.3,M*29
$HCHDG,284.9,0.0,E,,*2E
$HCHDG,284.9,0.0,E,,*2E
$GPRMC,162448.0,A,4741.29247,N,12224.33213,W,002.75,316.6,261013,016.6,E,A*25
$PGRME,3.0,M,3.0,M,4.3,M*29
$YXXDR,A,5.2,D,PTCH,A,2.6,D,ROLL*5E
$HCHDG,284.9,0.0,E,,*2E
$HCHDG,285.0,0.0,E,,*26
$GPRMC,162448.2,A,4741.29252,N,12224.33225,W,003.04,300.1,261013,016.6,E,A*21
$PGRME,3.0,M,3.0,M,4.3,M*29
$HCHDG,285.0,0.0,E,,*26
$HCHDG,285.1,0.0,E,,*27
$GPRMC,162448.4,A,4741.29259,N,12224.33238,W,002.99,300.4,261013,016.6,E,A*20
$GPRMB,A,0.16,L,,Shil,4741.0830,N,12224.5670,W,0.3,217,0.34,V*3D
$PGRME,3.0,M,3.0,M,4.3,M*29
$HCHDG,285.2,0.0,E,,*24
$YXXDR,A,5.2,D,PTCH,A,4.0,D,ROLL*5E
$PTAK,FFD1,4.0*51
$HCHDG,285.2,0.0,E,,*24
$GPRMC,162448.6,A,4741.29269,N,12224.33249,W,002.99,305.4,261013,016.6,E,A*22
$PGRME,3.0,M,3.0,M,4.3,M*29
$HCHDG,285.3,0.0,E,,*25
$HCHDG,285.3,0.0,E,,*25
$GPRMC,162448.8,A,4741.29281,N,12224.33254,W,002.97,305.6,261013,016.6,E,A*2A
$PGRME,3.0,M,3.0,M,4.3,M*29
$HCHDG,285.4,0.0,E,,*22
$HCHDG,285.5,0.0,E,,*23
$GPRMC,162449.0,A,4741.29291,N,12224.33260,W,003.31,301.3,261013,016.6,E,A*29
$PGRME,3.0,M,3.0,M,4.3,M*29
$YXXDR,A,5.3,D,PTCH,A,2.8,D,ROLL*51
$HCHDG,285.6,0.0,E,,*20
$HCHDG,285.4,0.0,E,,*22
$GPRMC,162449.2,A,4741.29302,N,12224.33274,W,002.79,306.8,261013,016.6,E,A*24
$PGRME,3.0,M,3.0,M,4.3,M*29
$HCHDG,285.4,0.0,E,,*22
$HCHDG,285.4,0.0,E,,*22
$GPRMC,162449.4,A,4741.29310,N,12224.33288,W,003.03,304.7,261013,016.6,E,A*23
$GPRMB,A,0.16,L,,Shil,4741.0830,N,12224.5670,W,0.3,217,0.12,V*39
$PGRME,3.0,M,3.0,M,4.3,M*29
$HCHDG,285.3,0.0,E,,*25
$YXXDR,A,5.4,D,PTCH,A,3.3,D,ROLL*5C
$HCHDG,285.7,0.0,E,,*21
$GPRMC,162449.6,A,4741.29318,N,12224.33302,W,003.10,300.3,261013,016.6,E,A*28
$PGRME,3.0,M,3.0,M,4.3,M*29
$HCHDG,285.6,0.0,E,,*20
$HCHDG,285.6,0.0,E,,*20
$GPRMC,162449.8,A,4741.29327,N,12224.33320,W,003.06,304.2,261013,016.6,E,A*28
$PGRME,3.0,M,3.0,M,4.3,M*29
$HCHDG,285.5,0.0,E,,*23
$HCHDG,285.5,0.0,E,,*23
$GPRMC,162450.0,A,4741.29336,N,12224.33333,W,003.00,302.9,261013,016.6,E,A*21
$PGRME,3.0,M,3.0,M,4.3,M*29
$YXXDR,A,5.2,D,PTCH,A,3.7,D,ROLL*5E
$PTAK,FFD1,3.7*51
$HCHDG,285.6,0.0,E,,*20
$HCHDG,285.6,0.0,E,,*20
$GPRMC,162450.2,A,4741.29349,N,12224.33347,W,002.95,303.9,261013,016.6,E,A*24
$PGRME,3.0,M,3.0,M,4.3,M*29
$HCHDG,285.6,0.0,E,,*20
$HCHDG,285.7,0.0,E,,*21
$GPRMC,162450.4,A,4741.29362,N,12224.33361,W,002.94,304.7,261013,016.6,E,A*27
$PGRME,3.0,M,3.0,M,4.3,M*29
$HCHDG,285.7,0.0,E,,*21
$YXXDR,A,5.3,D,PTCH,A,3.5,D,ROLL*5D
$HCHDG,285.8,0.0,E,,*2E
$GPRMC,162450.6,A,4741.29377,N,12224.33378,W,002.92,305.1,261013,016.6,E,A*28
$GPRMB,A,0.16,L,,Shil,4741.0830,N,12224.5670,W,0.3,217,0.08,V*32
$PGRME,3.0,M,3.0,M,4.3,M*29
$HCHDG,285.8,0.0,E,,*2E
$HCHDG,285.9,0.0,E,,*2F
$GPRMC,162450.8,A,4741.29392,N,12224.33413,W,002.93,307.5,261013,016.6,E,A*20
$PGRME,3.0,M,3.0,M,4.3,M*29
$HCHDG,285.9,0.0,E,,*2F
$HCHDG,285.8,0.0,E,,*2E
$GPRMC,162451.0,A,4741.29402,N,12224.33450,W,002.94,307.6,261013,016.6,E,A*24
$PGRME,3.0,M,3.0,M,4.3,M*29
$YXXDR,A,5.4,D,PTCH,A,3.1,D,ROLL*5E
$HCHDG,285.9,0.0,E,,*2F
$HCHDG,285.8,0.0,E,,*2E
$GPRMC,162451.2,A,4741.29419,N,12224.33474,W,003.14,305.0,261013,016.6,E,A*27
$PGRME,3.0,M,3.0,M,4.3,M*29
$HCHDG,285.9,0.0,E,,*2F
$HCHDG,285.8,0.0,E,,*2E
$GPRMC,162451.4,A,4741.29437,N,12224.33493,W,003.08,306.0,261013,016.6,E,A*2A
$PGRME,3.0,M,3.0,M,4.3,M*29
$HCHDG,285.7,0.0,E,,*21
$YXXDR,A,5.4,D,PTCH,A,3.1,D,ROLL*5E
$PTAK,FFD1,3.1*57
$HCHDG,285.7,0.0,E,,*21
$GPRMC,162451.6,A,4741.29452,N,12224.33513,W,003.06,305.1,261013,016.6,E,A*2E
$PGRME,3.0,M,3.0,M,4.3,M*29
$HCHDG,285.8,0.0,E,,*2E
$PTAK,FFP1,HEEL,@*07
$HCHDG,285.8,0.0,E,,*2E
$GPRMC,162451.8,A,4741.29462,N,12224.33534,W,003.05,303.9,261013,016.6,E,A*2B
$GPRMB,A,0.16,L,,Shil,4741.0830,N,12224.5670,W,0.3,216,0.13,V*39
$PGRME,3.0,M,3.0,M,4.3,M*29
$HCHDG,285.7,0.0,E,,*21
$HCHDG,285.9,0.0,E,,*2F
$GPRMC,162452.0,A,4741.29465,N,12224.33552,W,003.07,301.5,261013,016.6,E,A*2B
$PGRME,3.0,M,3.0,M,4.3,M*29
$YXXDR,A,5.4,D,PTCH,A,4.0,D,ROLL*58
$HCHDG,286.0,0.0,E,,*25
$HCHDG,286.1,0.0,E,,*24
$GPRMC,162452.2,A,4741.29470,N,12224.33555,W,003.08,304.7,261013,016.6,E,A*22
$PGRME,3.0,M,3.0,M,4.3,M*29
$HCHDG,286.2,0.0,E,,*27
$HCHDG,285.9,0.0,E,,*2F
$GPRMC,162452.4,A,4741.29478,N,12224.33569,W,003.04,305.4,261013,016.6,E,A*2D
$PGRME,3.0,M,3.0,M,4.3,M*29
$HCHDG,285.9,0.0,E,,*2F
$YXXDR,A,5.4,D,PTCH,A,3.3,D,ROLL*5C
$HCHDG,286.1,0.0,E,,*24
$GPRMC,162452.6,A,4741.29489,N,12224.33586,W,003.02,304.4,261013,016.6,E,A*27
$PGRME,3.0,M,3.0,M,4.3,M*29
$HCHDG,286.0,0.0,E,,*25
$HCHDG,285.9,0.0,E,,*2F
$GPRMC,162452.8,A,4741.29492,N,12224.33596,W,002.98,304.5,261013,016.6,E,A*21
$PGRME,3.0,M,3.0,M,4.3,M*29
$HCHDG,285.8,0.0,E,,*2E
$HCHDG,286.1,0.0,E,,*24
$GPRMC,162453.0,A,4741.29496,N,12224.33598,W,002.95,303.7,261013,016.6,E,A*2A
$GPRMB,A,0.16,L,,Shil,4741.0830,N,12224.5670,W,0.3,216,0.13,V*39
$PGRME,3.0,M,3.0,M,4.3,M*29
$YXXDR,A,5.4,D,PTCH,A,3.1,D,ROLL*5E
$PTAK,FFD1,3.1*57
$HCHDG,286.0,0.0,E,,*25
$HCHDG,285.9,0.0,E,,*2F
$GPRMC,162453.2,A,4741.29505,N,12224.33603,W,002.96,298.2,261013,016.6,E,A*27
$PGRME,3.0,M,3.0,M,4.3,M*29
$HCHDG,285.8,0.0,E,,*2E
$HCHDG,285.7,0.0,E,,*21
$GPRMC,162453.4,A,4741.29515,N,12224.33623,W,002.97,303.1,261013,016.6,E,A*23
$PGRME,3.0,M,3.0,M,4.3,M*29
$HCHDG,286.0,0.0,E,,*25
$YXXDR,A,4.9,D,PTCH,A,3.2,D,ROLL*51
$HCHDG,286.0,0.0,E,,*25
$GPRMC,162453.6,A,4741.29526,N,12224.33651,W,002.97,305.0,261013,016.6,E,A*23
$PGRME,3.0,M,3.0,M,4.3,M*29
$HCHDG,285.9,0.0,E,,*2F
$HCHDG,285.7,0.0,E,,*21
$GPRMC,162453.8,A,4741.29540,N,12224.33667,W,002.95,304.8,261013,016.6,E,A*23
$PGRME,3.0,M,3.0,M,4.3,M*29
$HCHDG,285.9,0.0,E,,*2F
$HCHDG,286.0,0.0,E,,*25
$GPRMC,162454.0,A,4741.29559,N,12224.33688,W,002.97,305.9,261013,016.6,E,A*27
$GPRMB,A,0.16,L,,Shil,4741.0830,N,12224.5670,W,0.3,216,0.01,V*3A
$PGRME,3.0,M,3.0,M,4.3,M*29
$YXXDR,A,5.2,D,PTCH,A,2.1,D,ROLL*59
$PTAK,FFD1,2.1*56
$HCHDG,286.1,0.0,E,,*24
$HCHDG,286.2,0.0,E,,*27
$GPRMC,162454.2,A,4741.29582,N,12224.33722,W,002.99,305.1,261013,016.6,E,A*24
$PGRME,3.0,M,3.0,M,4.3,M*29
$HCHDG,286.3,0.0,E,,*26
$HCHDG,286.1,0.0,E,,*24
$GPRMC,162454.4,A,4741.29593,N,12224.33732,W,002.98,307.6,261013,016.6,E,A*27
$PGRME,3.0,M,3.0,M,4.3,M*29
$HCHDG,286.1,0.0,E,,*24
$YXXDR,A,5.5,D,PTCH,A,2.0,D,ROLL*5F
$HCHDG,286.2,0.0,E,,*27
$GPRMC,162454.6,A,4741.29611,N,12224.33746,W,003.02,304.2,261013,016.6,E,A*2A
$PGRME,3.0,M,3.0,M,4.3,M*29
$HCHDG,286.4,0.0,E,,*21
$HCHDG,286.3,0.0,E,,*26
$GPRMC,162454.8,A,4741.29623,N,12224.33763,W,003.03,304.6,261013,016.6,E,A*27
$PGRME,3.0,M,3.0,M,4.3,M*29
$HCHDG,286.2,0.0,E,,*27
$HCHDG,286.2,0.0,E,,*27
$GPRMC,162455.0,A,4741.29635,N,12224.33791,W,003.04,304.3,261013,016.6,E,A*26
$PGRME,3.0,M,3.0,M,4.3,M*29
$YXXDR,A,5.1,D,PTCH,A,2.4,D,ROLL*5F
$HCHDG,286.3,0.0,E,,*26
$HCHDG,286.5,0.0,E,,*20
$GPRMC,162455.2,A,4741.29648,N,12224.33820,W,003.04,300.2,261013,016.6,E,A*2E
$GPRMB,A,0.15,L,,Shil,4741.0830,N,12224.5670,W,0.3,216,0.30,V*3B
$PGRME,3.0,M,3.0,M,4.3,M*29
$HCHDG,286.5,0.0,E,,*20
$HCHDG,286.6,0.0,E,,*23
$GPRMC,162455.4,A,4741.29666,N,12224.33851,W,003.07,301.3,261013,016.6,E,A*21
$PGRME,3.0,M,3.0,M,4.3,M*29
$HCHDG,286.7,0.0,E,,*22
$YXXDR,A,5.2,D,PTCH,A,2.6,D,ROLL*5E
$PTAK,FFD1,2.6*51
$HCHDG,286.5,0.0,E,,*20
$GPRMC,162455.6,A,4741.29684,N,12224.33871,W,003.06,302.4,261013,016.6,E,A*28
$PGRME,3.0,M,3.0,M,4.3,M*29
$HCHDG,286.6,0.0,E,,*23
$PTAK,FFP1,HEEL,@*07
$HCHDG,286.8,0.0,E,,*2D
$GPRMC,162455.8,A,4741.29691,N,12224.33884,W,003.04,306.4,261013,016.6,E,A*2E
$PGRME,3.0,M,3.0,M,4.3,M*29
$HCHDG,286.5,0.0,E,,*20
$HCHDG,286.6,0.0,E,,*23
$GPRMC,162456.0,A,4741.29694,N,12224.33906,W,002.88,305.9,261013,016.6,E,A*20
$PGRME,3.0,M,3.0,M,4.3,M*29
$YXXDR,A,5.5,D,PTCH,A,1.9,D,ROLL*55
$HCHDG,286.6,0.0,E,,*23
$HCHDG,286.6,0.0,E,,*23
$GPRMC,162456.2,A,4741.29695,N,12224.33931,W,003.06,307.7,261013,016.6,E,A*2C
$PGRME,3.0,M,3.0,M,4.3,M*29
$HCHDG,286.9,0.0,E,,*2C
$HCHDG,286.8,0.0,E,,*2D
$GPRMC,162456.4,A,4741.29701,N,12224.33944,W,003.27,301.8,261013,016.6,E,A*2E
$GPRMB,A,0.15,L,,Shil,4741.0830,N,12224.5670,W,0.3,216,0.22,V*38
$PGRME,3.0,M,3.0,M,4.3,M*29
$HCHDG,287.0,0.0,E,,*24
$YXXDR,A,5.0,D,PTCH,A,2.8,D,ROLL*52
$PTAK,FFD1,2.8*5F
$HCHDG,286.9,0.0,E,,*2C
$GPRMC,162456.6,A,4741.29716,N,12224.33963,W,002.99,300.9,261013,016.6,E,A*2B
$PGRME,3.0,M,3.0,M,4.3,M*29
$HCHDG,287.1,0.0,E,,*25
$HCHDG,287.2,0.0,E,,*26
$GPRMC,162456.8,A,4741.29737,N,12224.33999,W,003.04,314.5,261013,016.6,E,A*2F
$PGRME,3.0,M,3.0,M,4.3,M*29
$HCHDG,287.1,0.0,E,,*25
$HCHDG,287.0,0.0,E,,*24
$GPRMC,162457.0,A,4741.29754,N,12224.34021,W,002.76,304.2,261013,016.6,E,A*2C
$PGRME,3.0,M,3.0,M,4.3,M*29
$YXXDR,A,5.1,D,PTCH,A,1.5,D,ROLL*5D
$HCHDG,287.0,0.0,E,,*24
$HCHDG,287.1,0.0,E,,*25
$GPRMC,162457.2,A,4741.29765,N,12224.34041,W,003.20,301.8,261013,016.6,E,A*27
$PGRME,3.0,M,3.0,M,4.3,M*29
$HCHDG,287.0,0.0,E,,*24
$HCHDG,287.2,0.0,E,,*26
$GPRMC,162457.4,A,4741.29773,N,12224.34053,W,002.95,306.0,261013,016.6,E,A*25
$GPRMB,A,0.15,L,,Shil,4741.0830,N,12224.5670,W,0.3,215,-0.03,V*15
$PGRME,3.0,M,3.0,M,4.3,M*29
$HCHDG,287.2,0.0,E,,*26
$YXXDR,A,5.2,D,PTCH,A,1.6,D,ROLL*5D
$PTAK,FFD1,1.6*52
$HCHDG,287.3,0.0,E,,*27
$GPRMC,162457.6,A,4741.29780,N,12224.34072,W,002.99,304.2,261013,016.6,E,A*24
$PGRME,3.0,M,3.0,M,4.3,M*29
$HCHDG,287.4,0.0,E,,*20
$HCHDG,287.6,0.0,E,,*22
$GPRMC,162457.8,A,4741.29788,N,12224.34098,W,003.04,306.5,261013,016.6,E,A*26
$PGRME,3.0,M,3.0,M,4.3,M*29
$HCHDG,287.6,0.0,E,,*22
$HCHDG,287.5,0.0,E,,*21
$GPRMC,162458.0,A,4741.29800,N,12224.34116,W,003.23,306.9,261013,016.6,E,A*20
$PGRME,3.0,M,3.0,M,4.3,M*29
$YXXDR,A,5.1,D,PTCH,A,2.4,D,ROLL*5F
$HCHDG,287.8,0.0,E,,*2C
$HCHDG,287.8,0.0,E,,*2C
$GPRMC,162458.2,A,4741.29813,N,12224.34126,W,003.16,307.0,261013,016.6,E,A*2D
$PGRME,3.0,M,3.0,M,4.3,M*29
$HCHDG,287.8,0.0,E,,*2C
$HCHDG,287.8,0.0,E,,*2C
$GPRMC,162458.4,A,4741.29817,N,12224.34140,W,003.12,304.0,261013,016.6,E,A*28
$GPRMB,A,0.15,L,,Shil,4741.0830,N,12224.5670,W,0.3,215,0.07,V*3C
$PGRME,3.0,M,3.0,M,4.3,M*29
$HCHDG,288.0,0.0,E,,*2B
$YXXDR,A,5.7,D,PTCH,A,2.5,D,ROLL*58
$PTAK,FFD1,2.5*52
$HCHDG,288.0,0.0,E,,*2B
$GPRMC,162458.6,A,4741.29823,N,12224.34154,W,003.29,298.8,261013,016.6,E,A*2C
$PGRME,3.0,M,3.0,M,4.3,M*29
$HCHDG,288.0,0.0,E,,*2B
$HCHDG,288.1,0.0,E,,*2A
$GPRMC,162458.8,A,4741.29830,N,12224.34173,W,002.82,308.4,261013,016.6,E,A*21
$PGRME,3.0,M,3.0,M,4.3,M*29
$HCHDG,288.1,0.0,E,,*2A
$HCHDG,288.2,0.0,E,,*29
$GPRMC,162459.0,A,4741.29841,N,12224.34185,W,003.07,305.6,261013,016.6,E,A*24
$PGRME,3.0,M,3.0,M,4.3,M*29
$YXXDR,A,5.7,D,PTCH,A,3.1,D,ROLL*5D
$HCHDG,288.2,0.0,E,,*29
$HCHDG,288.2,0.0,E,,*29
$GPRMC,162459.2,A,4741.29853,N,12224.34202,W,003.07,301.4,261013,016.6,E,A*2F
$PGRME,3.0,M,3.0,M,4.3,M*29
$HCHDG,288.1,0.0,E,,*2A
$HCHDG,288.2,0.0,E,,*29
$GPRMC,162459.4,A,4741.29863,N,12224.34227,W,003.09,304.9,261013,016.6,E,A*2B
$PGRME,3.0,M,3.0,M,4.3,M*29
$HCHDG,288.2,0.0,E,,*29
$YXXDR,A,5.4,D,PTCH,A,3.3,D,ROLL*5C
$HCHDG,288.4,0.0,E,,*2F
$GPRMC,162459.6,A,4741.29871,N,12224.34249,W,003.07,306.9,261013,016.6,E,A*2E
$GPRMB,A,0.15,L,,Shil,4741.0830,N,12224.5670,W,0.3,215,-0.10,V*17
$PGRME,3.0,M,3.0,M,4.3,M*29
$HCHDG,288.3,0.0,E,,*28
$PTAK,FFP1,HEEL,@*07
$HCHDG,288.3,0.0,E,,*28
$GPRMC,162459.8,A,4741.29883,N,12224.34270,W,003.07,308.3,261013,016.6,E,A*23
$PGRME,3.0,M,3.0,M,4.3,M*29
$HCHDG,288.3,0.0,E,,*28
$HCHDG,288.3,0.0,E,,*28
$GPRMC,162500.0,A,4741.29891,N,12224.34293,W,003.28,304.9,261013,016.6,E,A*23
$PGRME,3.0,M,3.0,M,4.3,M*29
$YXXDR,A,5.5,D,PTCH,A,2.7,D,ROLL*58
$PTAK,FFD1,2.7*50
$HCHDG,288.2,0.0,E,,*29
$HCHDG,288.2,0.0,E,,*29
$GPRMC,162500.2,A,4741.29897,N,12224.34318,W,003.02,309.2,261013,016.6,E,A*2B
$PGRME,3.0,M,3.0,M,4.3,M*29
$HCHDG,288.2,0.0,E,,*29
$HCHDG,288.3,0.0,E,,*28
$GPRMC,162500.4,A,4741.29907,N,12224.34337,W,003.32,306.1,261013,016.6,E,A*27
$PGRME,3.0,M,3.0,M,4.3,M*29
$HCHDG,288.4,0.0,E,,*2F
$YXXDR,A,5.4,D,PTCH,A,3.5,D,ROLL*5A
$HCHDG,288.4,0.0,E,,*2F
$GPRMC,162500.6,A,4741.29918,N,12224.34355,W,003.14,309.5,261013,016.6,E,A*20
$PGRME,3.0,M,3.0,M,4.3,M*29
$HCHDG,288.4,0.0,E,,*2F
$HCHDG,288.4,0.0,E,,*2F
$GPRMC,162500.8,A,4741.29930,N,12224.34373,W,003.32,306.7,261013,016.6,E,A*29
$GPRMB,A,0.15,L,,Shil,4741.0830,N,12224.5670,W,0.3,215,-0.11,V*16
$PGRME,3.0,M,3.0,M,4.3,M*29
$HCHDG,288.7,0.0,E,,*2C
$HCHDG,288.8,0.0,E,,*23
$GPRMC,162501.0,A,4741.29939,N,12224.34393,W,003.27,304.1,261013,016.6,E,A*27
$PGRME,3.0,M,3.0,M,4.3,M*29
$YXXDR,A,5.5,D,PTCH,A,4.2,D,ROLL*5B
$PTAK,FFD1,4.2*53
$HCHDG,288.7,0.0,E,,*2C
$HCHDG,288.7,0.0,E,,*2C
$GPRMC,162501.2,A,4741.29946,N,12224.34418,W,003.28,307.8,261013,016.6,E,A*2C
$PGRME,3.0,M,3.0,M,4.3,M*29
$HCHDG,288.8,0.0,E,,*23
$HCHDG,288.8,0.0,E,,*23
$GPRMC,162501.4,A,4741.29953,N,12224.34445,W,003.07,307.5,261013,016.6,E,A*26
$PGRME,3.0,M,3.0,M,4.3,M*29
$HCHDG,288.8,0.0,E,,*23
$YXXDR,A,5.7,D,PTCH,A,4.2,D,ROLL*59
$HCHDG,288.9,0.0,E,,*22
$GPRMC,162501.6,A,4741.29961,N,12224.34461,W,003.04,312.7,261013,016.6,E,A*26
$PGRME,3.0,M,3.0,M,4.3,M*29
$HCHDG,289.0,0.0,E,,*2A
$HCHDG,289.1,0.0,E,,*2B
$GPRMC,162501.8,A,4741.29966,N,12224.34488,W,003.25,306.8,261013,016.6,E,A*21
$GPRMB,A,0.15,L,,Shil,4741.0830,N,12224.5670,W,0.3,215,-0.12,V*15
$PGRME,3.0,M,3.0,M,4.3,M*29
$HCHDG,289.0,0.0,E,,*2A
$HCHDG,288.9,0.0,E,,*22
$GPRMC,162502.0,A,4741.29974,N,12224.34518,W,003.23,305.6,261013,016.6,E,A*2A
$PGRME,3.0,M,3.0,M,4.3,M*29
$YXXDR,A,5.9,D,PTCH,A,4.2,D,ROLL*57
$PTAK,FFD1,4.2*53
$HCHDG,289.0,0.0,E,,*2A
$HCHDG,288.8,0.0,E,,*23
$GPRMC,162502.2,A,4741.29978,N,12224.34537,W,003.05,306.2,261013,016.6,E,A*2A
$PGRME,3.0,M,3.0,M,4.3,M*29
$HCHDG,288.8,0.0,E,,*23
$HCHDG,288.7,0.0,E,,*2C
$GPRMC,162502.4,A,4741.29985,N,12224.34552,W,003.12,307.6,261013,016.6,E,A*2E
$PGRME,3.0,M,3.0,M,4.3,M*29
$HCHDG,288.8,0.0,E,,*23
$YXXDR,A,5.6,D,PTCH,A,4.0,D,ROLL*5A
$HCHDG,288.8,0.0,E,,*23
$GPRMC,162502.6,A,4741.29988,N,12224.34565,W,003.08,309.9,261013,016.6,E,A*2F
$PGRME,3.0,M,3.0,M,4.3,M*29
$HCHDG,288.8,0.0,E,,*23
$HCHDG,288.6,0.0,E,,*2D
$GPRMC,162502.8,A,4741.29997,N,12224.34604,W,003.11,300.4,261013,016.6,E,A*27
$PGRME,3.0,M,3.0,M,4.3,M*29
$HCHDG,288.8,0.0,E,,*23
$HCHDG,288.7,0.0,E,,*2C
$GPRMC,162503.0,A,4741.29999,N,12224.34625,W,003.15,310.3,261013,016.6,E,A*21
