$HCHDG,280.2,0.0,E,,*21
$HCHDG,280.2,0.0,E,,*21
$GPRMC,210000.8,A,4741.19665,N,12224.23953,W,000.00,139.9,141213,016.6,E,D*2C
$GPRMB,A,0.00,L,Shil,Shil,4741.0830,N,12224.5670,W,0.2,243,-0.00,V*2E
$PGRME,2.4,M,2.4,M,3.4,M*29
$SPVHW,,,,,0.00,N,,*30
$SPA,05E
$HCHDG,280.2,0.0,E,,*21
$HCHDG,280.2,0.0,E,,*21
$YXXDR,A,5.5,D,PTCH,A,2.7,D,ROLL*58
$GPRMC,210001.0,A,4741.19665,N,12224.23953,W,000.00,139.9,141213,016.6,E,D*25
$SPVHW,,,,,0.00,N,,*30
$SPA,05E
$PGRME,2.4,M,2.4,M,3.4,M*29
$HCHDG,280.2,0.0,E,,*21
$HCHDG,280.1,0.0,E,,*22
$GPRMC,210001.2,A,4741.19665,N,12224.23953,W,000.00,139.9,141213,016.6,E,D*27
$PGRME,2.4,M,2.4,M,3.4,M*29
$SPVHW,,,,,0.00,N,,*30
$SPA,05E
$HCHDG,280.1,0.0,E,,*22
$SPP,04F
$HCHDG,280.1,0.0,E,,*22
$GPRMC,210001.4,A,4741.19665,N,12224.23953,W,000.01,139.9,141213,016.6,E,D*20
$SPVHW,,,,,0.00,N,,*30
$SPA,05E
$PGRME,2.4,M,2.4,M,3.4,M*29
$HCHDG,280.2,0.0,E,,*21
1.74
$SPMTW,11.3,C*39
$YXXDR,A,5.4,D,PTCH,A,2.8,D,ROLL*56
$HCHDG,280.2,0.0,E,,*21
$GPRMC,210001.6,A,4741.19665,N,12224.23953,W,000.01,139.9,141213,016.6,E,D*22
$SPVHW,,,,,0.00,N,,*30
$SPA,05E
$PGRME,2.4,M,2.4,M,3.4,M*29
$HCHDG,280.1,0.0,E,,*22
$HCHDG,280.0,0.0,E,,*23
$GPRMC,210001.8,A,4741.19665,N,12224.23953,W,000.01,139.9,141213,016.6,E,D*2C
$SPVHW,,,,,0.00,N,,*30
$SPA,05E
$PGRME,2.4,M,2.4,M,3.4,M*29
$HCHDG,280.0,0.0,E,,*23
$HCHDG,280.0,0.0,E,,*23
$YXXDR,A,5.4,D,PTCH,A,3.3,D,ROLL*5C
$PTAK,FFD1,3.3*55
$GPRMC,210002.0,A,4741.19665,N,12224.23953,W,000.02,139.9,141213,016.6,E,D*24
$GPRMB,A,0.00,L,Shil,Shil,4741.0830,N,12224.5670,W,0.2,243,-0.00,V*2E
$SPVHW,,,,,0.00,N,,*30
$SPA,05E
$PGRME,2.4,M,2.4,M,3.4,M*29
$HCHDG,280.0,0.0,E,,*23
$HCHDG,279.9,0.0,E,,*2C
$GPRMC,210002.2,A,4741.19665,N,12224.23952,W,000.01,139.9,141213,016.6,E,D*24
$SPVHW,,,,,0.00,N,,*30
$SPA,05E
$PGRME,2.4,M,2.4,M,3.4,M*29
$HCHDG,280.0,0.0,E,,*23
$SPP,04F
$HCHDG,280.0,0.0,E,,*23
$GPRMC,210002.4,A,4741.19665,N,12224.23952,W,000.00,139.9,141213,016.6,E,D*23
$PGRME,2.4,M,2.4,M,3.4,M*29
$SPVHW,,,,,0.00,N,,*30
$SPA,05E
$HCHDG,280.0,0.0,E,,*23
1.74
$SPMTW,11.3,C*39
$YXXDR,A,5.3,D,PTCH,A,3.9,D,ROLL*51
$HCHDG,280.1,0.0,E,,*22
$GPRMC,210002.6,A,4741.19665,N,12224.23953,W,000.01,139.9,141213,016.6,E,D*21
$SPVHW,,,,,0.00,N,,*30
$SPA,05E
$PGRME,2.4,M,2.4,M,3.4,M*29
$HCHDG,280.0,0.0,E,,*23
$HCHDG,280.0,0.0,E,,*23
$GPRMC,210002.8,A,4741.19665,N,12224.23952,W,000.01,139.9,141213,016.6,E,D*2E
$SPVHW,,,,,0.00,N,,*30
$SPA,05E
$PGRME,2.4,M,2.4,M,3.4,M*29
$HCHDG,280.0,0.0,E,,*23
$HCHDG,279.9,0.0,E,,*2C
$YXXDR,A,5.3,D,PTCH,A,5.2,D,ROLL*5C
$GPRMC,210003.0,A,4741.19665,N,12224.23952,W,000.00,139.9,141213,016.6,E,D*26
$PGRME,2.4,M,2.4,M,3.4,M*29
$SPVHW,,,,,0.00,N,,*30
$SPA,05E
$HCHDG,279.9,0.0,E,,*2C
$HCHDG,279.9,0.0,E,,*2C
$GPRMC,210003.2,A,4741.19665,N,12224.23952,W,000.00,139.9,141213,016.6,E,D*24
$GPRMB,A,0.00,L,Shil,Shil,4741.0830,N,12224.5670,W,0.2,243,-0.00,V*2E
$PGRME,2.4,M,2.4,M,3.4,M*29
$SPVHW,,,,,0.00,N,,*30
$SPA,05E
$HCHDG,279.9,0.0,E,,*2C
$SPP,04F
$HCHDG,279.9,0.0,E,,*2C
$GPRMC,210003.4,A,4741.19665,N,12224.23952,W,000.00,139.9,141213,016.6,E,D*22
$SPVHW,,,,,0.00,N,,*30
$SPA,05E
$PGRME,2.4,M,2.4,M,3.4,M*29
$HCHDG,279.8,0.0,E,,*2D
1.74
$SPMTW,11.3,C*39
$YXXDR,A,5.5,D,PTCH,A,4.3,D,ROLL*5A
$PTAK,FFD1,4.3*52
$HCHDG,279.9,0.0,E,,*2C
$GPRMC,210003.6,A,4741.19665,N,12224.23952,W,000.01,139.9,141213,016.6,E,D*21
$PGRME,2.4,M,2.4,M,3.4,M*29
$SPVHW,,,,,0.00,N,,*30
$SPA,05E
$HCHDG,279.8,0.0,E,,*2D
$HCHDG,279.9,0.0,E,,*2C
$GPRMC,210003.8,A,4741.19665,N,12224.23952,W,000.00,139.9,141213,016.6,E,D*2E
$PGRME,2.4,M,2.4,M,3.4,M*29
$SPVHW,,,,,0.00,N,,*30
$SPA,05E
$HCHDG,279.8,0.0,E,,*2D
$HCHDG,279.8,0.0,E,,*2D
$GPRMC,210004.0,A,4741.19665,N,12224.23952,W,000.00,139.9,141213,016.6,E,D*21
$YXXDR,A,5.4,D,PTCH,A,4.4,D,ROLL*5C
$PGRME,2.4,M,2.4,M,3.4,M*29
$SPVHW,,,,,0.00,N,,*30
$SPA,05E
$HCHDG,279.8,0.0,E,,*2D
$HCHDG,279.8,0.0,E,,*2D
$GPRMC,210004.2,A,4741.19665,N,12224.23952,W,000.01,139.9,141213,016.6,E,D*22
$PTAK,FFP1,HEEL,@*07
$PGRME,2.4,M,2.4,M,3.4,M*29
$SPVHW,,,,,0.00,N,,*30
$SPA,05E
$HCHDG,279.8,0.0,E,,*2D
$SPP,04F
$HCHDG,279.8,0.0,E,,*2D
$GPRMC,210004.4,A,4741.19665,N,12224.23952,W,000.00,139.9,141213,016.6,E,D*25
$GPRMB,A,0.00,L,Shil,Shil,4741.0830,N,12224.5670,W,0.2,243,-0.00,V*2E
$PGRME,2.4,M,2.4,M,3.4,M*29
$SPVHW,,,,,0.00,N,,*30
$SPA,05E
$HCHDG,279.8,0.0,E,,*2D
1.74
$SPMTW,11.3,C*39
$YXXDR,A,5.4,D,PTCH,A,4.1,D,ROLL*59
$PTAK,FFD1,4.1*50
$HCHDG,279.7,0.0,E,,*22
$GPRMC,210004.6,A,4741.19665,N,12224.23952,W,000.01,139.9,141213,016.6,E,D*26
$PGRME,2.4,M,2.4,M,3.4,M*29
$SPVHW,,,,,0.00,N,,*30
$SPA,05E
$HCHDG,279.7,0.0,E,,*22
$HCHDG,279.7,0.0,E,,*22
$GPRMC,210004.8,A,4741.19665,N,12224.23952,W,000.01,139.9,141213,016.6,E,D*28
$PGRME,2.4,M,2.4,M,3.4,M*29
$SPVHW,,,,,0.00,N,,*30
$SPA,05E
$HCHDG,279.7,0.0,E,,*22
$HCHDG,279.7,0.0,E,,*22
$YXXDR,A,5.4,D,PTCH,A,3.8,D,ROLL*57
$GPRMC,210005.0,A,4741.19665,N,12224.23952,W,000.00,139.9,141213,016.6,E,D*20
$SPVHW,,,,,0.00,N,,*30
$SPA,05E
$PGRME,2.4,M,2.4,M,3.5,M*28
$HCHDG,279.6,0.0,E,,*23
$HCHDG,279.6,0.0,E,,*23
$GPRMC,210005.2,A,4741.19665,N,12224.23950,W,000.01,139.9,141213,016.6,E,D*21
$SPVHW,,,,,0.00,N,,*30
$SPA,05E
$PGRME,2.5,M,2.4,M,3.5,M*29
$HCHDG,279.6,0.0,E,,*23
$SPP,04F
$HCHDG,279.7,0.0,E,,*22
$GPRMC,210005.4,A,4741.19666,N,12224.23947,W,000.01,139.9,141213,016.6,E,D*22
$SPVHW,,,,,0.00,N,,*30
$SPA,05E
$PGRME,2.5,M,2.4,M,3.5,M*29
$HCHDG,279.8,0.0,E,,*2D
1.74
$SPMTW,11.4,C*3E
$YXXDR,A,5.4,D,PTCH,A,3.8,D,ROLL*57
$HCHDG,279.8,0.0,E,,*2D
$GPRMC,210005.6,A,4741.19666,N,12224.23946,W,000.01,139.9,141213,016.6,E,D*21
$GPRMB,A,0.00,L,Shil,Shil,4741.0830,N,12224.5670,W,0.2,243,-0.00,V*2E
$PGRME,2.5,M,2.4,M,3.5,M*29
$SPVHW,,,,,0.00,N,,*30
$SPA,05E
$HCHDG,279.8,0.0,E,,*2D
$HCHDG,279.9,0.0,E,,*2C
$GPRMC,210005.8,A,4741.19667,N,12224.23947,W,000.01,139.9,141213,016.6,E,D*2F
$PGRME,2.6,M,2.4,M,3.5,M*2A
$SPVHW,,,,,0.00,N,,*30
$SPA,05E
$HCHDG,279.9,0.0,E,,*2C
$HCHDG,279.9,0.0,E,,*2C
$GPRMC,210006.0,A,4741.19667,N,12224.23948,W,000.01,139.9,141213,016.6,E,D*2B
$YXXDR,A,5.4,D,PTCH,A,4.0,D,ROLL*58
$PTAK,FFD1,4.0*51
$PGRME,2.6,M,2.4,M,3.5,M*2A
$SPVHW,,,,,0.00,N,,*30
$SPA,05E
$HCHDG,279.9,0.0,E,,*2C
$HCHDG,279.9,0.0,E,,*2C
$GPRMC,210006.2,A,4741.19667,N,12224.23948,W,000.01,139.9,141213,016.6,E,D*29
$PGRME,2.6,M,2.4,M,3.5,M*2A
$SPVHW,,,,,0.00,N,,*30
$SPA,05E
$HCHDG,280.1,0.0,E,,*22
$SPP,04F
$HCHDG,280.1,0.0,E,,*22
$GPRMC,210006.4,A,4741.19667,N,12224.23948,W,000.01,139.9,141213,016.6,E,D*2F
$SPVHW,,,,,0.00,N,,*30
$SPA,05E
$PGRME,2.6,M,2.4,M,3.6,M*29
$HCHDG,280.1,0.0,E,,*22
1.74
$SPMTW,11.3,C*39
$YXXDR,A,5.4,D,PTCH,A,4.5,D,ROLL*5D
$HCHDG,280.1,0.0,E,,*22
$GPRMC,210006.6,A,4741.19667,N,12224.23949,W,000.02,139.9,141213,016.6,E,D*2F
$GPRMB,A,0.00,L,Shil,Shil,4741.0830,N,12224.5670,W,0.2,243,-0.00,V*2E
$PGRME,2.6,M,2.4,M,3.6,M*29
$SPVHW,,,,,0.00,N,,*30
$SPA,05E
$HCHDG,280.1,0.0,E,,*22
$HCHDG,280.2,0.0,E,,*21
$GPRMC,210006.8,A,4741.19667,N,12224.23949,W,000.01,139.9,141213,016.6,E,D*22
$PGRME,2.6,M,2.4,M,3.6,M*29
$SPVHW,,,,,0.00,N,,*30
$SPA,05E
$HCHDG,280.2,0.0,E,,*21
$HCHDG,280.1,0.0,E,,*22
$YXXDR,A,5.4,D,PTCH,A,4.5,D,ROLL*5D
$GPRMC,210007.0,A,4741.19667,N,12224.23949,W,000.01,139.9,141213,016.6,E,D*2B
$SPVHW,,,,,0.00,N,,*30
$SPA,05E
$PGRME,2.6,M,2.4,M,3.6,M*29
$HCHDG,280.2,0.0,E,,*21
$HCHDG,280.4,0.0,E,,*27
$GPRMC,210007.2,A,4741.19668,N,12224.23949,W,000.01,139.9,141213,016.6,E,D*26
$PGRME,2.6,M,2.4,M,3.6,M*29
$SPVHW,,,,,0.00,N,,*30
$SPA,05E
$HCHDG,280.3,0.0,E,,*20
$SPP,04F
$HCHDG,280.4,0.0,E,,*27
$GPRMC,210007.4,A,4741.19668,N,12224.23950,W,000.00,139.9,141213,016.6,E,D*29
$SPVHW,,,,,0.00,N,,*30
$SPA,05E
$PGRME,2.6,M,2.4,M,3.6,M*29
$HCHDG,280.4,0.0,E,,*27
1.74
$SPMTW,11.3,C*39
$YXXDR,A,5.5,D,PTCH,A,4.2,D,ROLL*5B
$PTAK,FFD1,4.2*53
$HCHDG,280.4,0.0,E,,*27
$GPRMC,210007.6,A,4741.19668,N,12224.23951,W,000.01,139.9,141213,016.6,E,D*2B
$PGRME,2.6,M,2.4,M,3.6,M*29
$SPVHW,,,,,0.00,N,,*30
$SPA,05E
$HCHDG,280.4,0.0,E,,*27
$HCHDG,280.4,0.0,E,,*27
$GPRMC,210007.8,A,4741.19668,N,12224.23951,W,000.01,139.9,141213,016.6,E,D*25
$GPRMB,A,0.00,L,Shil,Shil,4741.0830,N,12224.5670,W,0.2,243,-0.00,V*2E
$PGRME,2.6,M,2.4,M,3.6,M*29
$SPVHW,,,,,0.00,N,,*30
$SPA,05E
$HCHDG,280.5,0.0,E,,*26
$HCHDG,280.6,0.0,E,,*25
$YXXDR,A,5.4,D,PTCH,A,4.4,D,ROLL*5C
$GPRMC,210008.0,A,4741.19669,N,12224.23952,W,000.00,139.9,141213,016.6,E,D*21
$SPVHW,,,,,0.00,N,,*30
$SPA,05E
$PGRME,2.6,M,2.4,M,3.6,M*29
$HCHDG,280.6,0.0,E,,*25
$HCHDG,280.7,0.0,E,,*24
$GPRMC,210008.2,A,4741.19669,N,12224.23952,W,000.00,139.9,141213,016.6,E,D*23
$PTAK,FFP1,HEEL,@*07
$SPVHW,,,,,0.00,N,,*30
$SPA,05E
$PGRME,2.6,M,2.4,M,3.6,M*29
$HCHDG,280.7,0.0,E,,*24
$SPP,04F
$HCHDG,280.7,0.0,E,,*24
$GPRMC,210008.4,A,4741.19668,N,12224.23952,W,000.01,139.9,141213,016.6,E,D*25
$SPVHW,,,,,0.00,N,,*30
$SPA,05E
$PGRME,2.5,M,2.4,M,3.5,M*29
$HCHDG,280.8,0.0,E,,*2B
1.74
$SPMTW,11.4,C*3E
$YXXDR,A,5.4,D,PTCH,A,4.1,D,ROLL*59
$PTAK,FFD1,4.1*50
$HCHDG,280.8,0.0,E,,*2B
$GPRMC,210008.6,A,4741.19668,N,12224.23952,W,000.01,139.9,141213,016.6,E,D*27
$SPVHW,,,,,0.00,N,,*30
$SPA,05E
$PGRME,2.4,M,2.4,M,3.4,M*29
$HCHDG,280.7,0.0,E,,*24
$HCHDG,280.8,0.0,E,,*2B
$GPRMC,210008.8,A,4741.19669,N,12224.23952,W,000.01,139.9,141213,016.6,E,D*28
$SPVHW,,,,,0.00,N,,*30
$SPA,05E
$PGRME,2.4,M,2.4,M,3.4,M*29
$HCHDG,280.8,0.0,E,,*2B
$HCHDG,280.8,0.0,E,,*2B
$YXXDR,A,5.4,D,PTCH,A,3.8,D,ROLL*57
$GPRMC,210009.0,A,4741.19668,N,12224.23952,W,000.00,139.9,141213,016.6,E,D*21
$GPRMB,A,0.00,L,Shil,Shil,4741.0830,N,12224.5670,W,0.2,243,-0.00,V*2E
$PGRME,2.4,M,2.4,M,3.4,M*29
$SPVHW,,,,,0.00,N,,*30
$SPA,05E
$HCHDG,280.9,0.0,E,,*2A
$HCHDG,280.9,0.0,E,,*2A
$GPRMC,210009.2,A,4741.19668,N,12224.23953,W,000.00,139.9,141213,016.6,E,D*22
$PGRME,2.4,M,2.4,M,3.4,M*29
$SPVHW,,,,,0.00,N,,*30
$SPA,05E
$HCHDG,281.0,0.0,E,,*22
$SPP,04F
$HCHDG,281.0,0.0,E,,*22
$GPRMC,210009.4,A,4741.19668,N,12224.23953,W,000.00,139.9,141213,016.6,E,D*24
$SPVHW,,,,,0.00,N,,*30
$SPA,05E
$PGRME,2.4,M,2.4,M,3.4,M*29
1.74
$SPMTW,11.3,C*39
$HCHDG,281.0,0.0,E,,*22
$YXXDR,A,5.5,D,PTCH,A,3.6,D,ROLL*58
$PTAK,FFD1,3.6*50
$HCHDG,281.1,0.0,E,,*23
$GPRMC,210009.6,A,4741.19668,N,12224.23953,W,000.00,139.9,141213,016.6,E,D*26
$PGRME,2.4,M,2.4,M,3.4,M*29
$SPVHW,,,,,0.00,N,,*30
$SPA,05E
$HCHDG,281.1,0.0,E,,*23
$HCHDG,281.1,0.0,E,,*23
$GPRMC,210009.8,A,4741.19669,N,12224.23954,W,000.00,139.9,141213,016.6,E,D*2E
$PGRME,2.4,M,2.4,M,3.4,M*29
$SPVHW,,,,,0.00,N,,*30
$SPA,05E
$HCHDG,281.1,0.0,E,,*23
$HCHDG,281.2,0.0,E,,*20
$GPRMC,210010.0,A,4741.19668,N,12224.23954,W,000.00,139.9,141213,016.6,E,D*2F
$YXXDR,A,5.5,D,PTCH,A,3.7,D,ROLL*59
$PGRME,2.4,M,2.4,M,3.4,M*29
$SPVHW,,,,,0.00,N,,*30
$SPA,05E
$HCHDG,281.2,0.0,E,,*20
$HCHDG,281.2,0.0,E,,*20
$GPRMC,210010.2,A,4741.19668,N,12224.23954,W,000.00,139.9,141213,016.6,E,D*2D
$GPRMB,A,0.00,L,Shil,Shil,4741.0830,N,12224.5670,W,0.2,243,-0.00,V*2E
$PGRME,2.4,M,2.4,M,3.4,M*29
$SPVHW,,,,,0.00,N,,*30
$SPA,05E
$HCHDG,281.2,0.0,E,,*20
$SPP,04F
$HCHDG,281.3,0.0,E,,*21
$GPRMC,210010.4,A,4741.19668,N,12224.23954,W,000.00,139.9,141213,016.6,E,D*2B
$PGRME,2.4,M,2.4,M,3.4,M*29
$SPVHW,,,,,0.00,N,,*30
$SPA,05E
$HCHDG,281.3,0.0,E,,*21
1.74
$SPMTW,11.2,C*38
$YXXDR,A,5.4,D,PTCH,A,3.4,D,ROLL*5B
$PTAK,FFD1,3.4*52
$HCHDG,281.4,0.0,E,,*26
$GPRMC,210010.6,A,4741.19668,N,12224.23954,W,000.00,139.9,141213,016.6,E,D*29
$PGRME,2.4,M,2.4,M,3.4,M*29
$SPVHW,,,,,0.00,N,,*30
$SPA,05E
$HCHDG,281.4,0.0,E,,*26
$HCHDG,281.4,0.0,E,,*26
$GPRMC,210010.8,A,4741.19668,N,12224.23954,W,000.00,139.9,141213,016.6,E,D*27
$PGRME,2.4,M,2.4,M,3.4,M*29
$SPVHW,,,,,0.00,N,,*30
$SPA,05E
$HCHDG,281.4,0.0,E,,*26
$HCHDG,281.5,0.0,E,,*27
$YXXDR,A,5.4,D,PTCH,A,3.5,D,ROLL*5A
$GPRMC,210011.0,A,4741.19668,N,12224.23954,W,000.00,139.9,141213,016.6,E,D*2E
$PGRME,2.4,M,2.4,M,3.4,M*29
$SPVHW,,,,,0.00,N,,*30
$SPA,05E
$HCHDG,281.6,0.0,E,,*24
$HCHDG,281.6,0.0,E,,*24
$GPRMC,210011.2,A,4741.19668,N,12224.23954,W,000.00,139.9,141213,016.6,E,D*2C
$PGRME,2.4,M,2.4,M,3.4,M*29
$SPVHW,,,,,0.00,N,,*30
$SPA,05E
$HCHDG,281.6,0.0,E,,*24
$SPP,04F
$HCHDG,281.6,0.0,E,,*24
$GPRMC,210011.4,A,4741.19668,N,12224.23954,W,000.00,139.9,141213,016.6,E,D*2A
$GPRMB,A,0.00,L,Shil,Shil,4741.0830,N,12224.5670,W,0.2,243,-0.00,V*2E
$SPVHW,,,,,0.00,N,,*30
$SPA,05E
$PGRME,2.4,M,2.4,M,3.4,M*29
$HCHDG,281.7,0.0,E,,*25
1.74
$SPMTW,11.3,C*39
$YXXDR,A,5.5,D,PTCH,A,3.7,D,ROLL*59
$HCHDG,281.7,0.0,E,,*25
$GPRMC,210011.6,A,4741.19668,N,12224.23954,W,000.01,139.9,141213,016.6,E,D*29
$PGRME,2.4,M,2.4,M,3.4,M*29
$SPVHW,,,,,0.00,N,,*30
$SPA,05E
$HCHDG,281.7,0.0,E,,*25
$HCHDG,281.7,0.0,E,,*25
$GPRMC,210011.8,A,4741.19668,N,12224.23954,W,000.01,139.9,141213,016.6,E,D*27
$PGRME,2.4,M,2.4,M,3.4,M*29
$SPVHW,,,,,0.00,N,,*30
$SPA,05E
$HCHDG,281.7,0.0,E,,*25
$HCHDG,281.8,0.0,E,,*2A
$GPRMC,210012.0,A,4741.19668,N,12224.23954,W,000.00,139.9,141213,016.6,E,D*2D
$YXXDR,A,5.4,D,PTCH,A,3.6,D,ROLL*59
$PTAK,FFD1,3.6*50
$PGRME,2.4,M,2.4,M,3.4,M*29
$SPVHW,,,,,0.00,N,,*30
$SPA,05E
$HCHDG,281.8,0.0,E,,*2A
$HCHDG,281.8,0.0,E,,*2A
$GPRMC,210012.2,A,4741.19668,N,12224.23954,W,000.00,139.9,141213,016.6,E,D*2F
$PGRME,2.4,M,2.4,M,3.4,M*29
$SPVHW,,,,,0.00,N,,*30
$SPA,05E
$HCHDG,281.9,0.0,E,,*2B
$SPP,04F
$HCHDG,281.9,0.0,E,,*2B
$GPRMC,210012.4,A,4741.19668,N,12224.23954,W,000.01,139.9,141213,016.6,E,D*28
$PTAK,FFP1,HEEL,@*07
$SPVHW,,,,,0.00,N,,*30
$SPA,05E
$PGRME,2.4,M,2.4,M,3.4,M*29
1.74
$SPMTW,11.3,C*39
$HCHDG,281.9,0.0,E,,*2B
$YXXDR,A,5.4,D,PTCH,A,3.5,D,ROLL*5A
$HCHDG,281.9,0.0,E,,*2B
$GPRMC,210012.6,A,4741.19667,N,12224.23953,W,000.00,139.9,141213,016.6,E,D*23
$GPRMB,A,0.00,L,Shil,Shil,4741.0830,N,12224.5670,W,0.2,243,-0.00,V*2E
$SPVHW,,,,,0.00,N,,*30
$SPA,05E
$PGRME,2.4,M,2.4,M,3.4,M*29
$HCHDG,281.9,0.0,E,,*2B
$HCHDG,282.0,0.0,E,,*21
$GPRMC,210012.8,A,4741.19667,N,12224.23953,W,000.00,139.9,141213,016.6,E,D*2D
$PGRME,2.4,M,2.4,M,3.4,M*29
$SPVHW,,,,,0.00,N,,*30
$SPA,05E
$HCHDG,282.0,0.0,E,,*21
$HCHDG,282.0,0.0,E,,*21
$GPRMC,210013.0,A,4741.19667,N,12224.23953,W,000.00,139.9,141213,016.6,E,D*24
$YXXDR,A,5.4,D,PTCH,A,3.3,D,ROLL*5C
$PTAK,FFD1,3.3*55
$PGRME,2.4,M,2.4,M,3.4,M*29
$SPVHW,,,,,0.00,N,,*30
$SPA,05E
$HCHDG,282.0,0.0,E,,*21
$HCHDG,282.0,0.0,E,,*21
$GPRMC,210013.2,A,4741.19667,N,12224.23953,W,000.00,139.9,141213,016.6,E,D*26
$SPVHW,,,,,0.00,N,,*30
$SPA,05E
$PGRME,2.4,M,2.4,M,3.4,M*29
$HCHDG,282.0,0.0,E,,*21
$SPP,04F
$HCHDG,282.1,0.0,E,,*20
$GPRMC,210013.4,A,4741.19667,N,12224.23953,W,000.00,139.9,141213,016.6,E,D*20
$SPVHW,,,,,0.00,N,,*30
$SPA,05E
$PGRME,2.4,M,2.4,M,3.4,M*29
1.74
$SPMTW,11.3,C*39
$HCHDG,282.1,0.0,E,,*20
$YXXDR,A,5.4,D,PTCH,A,3.3,D,ROLL*5C
$HCHDG,282.1,0.0,E,,*20
$GPRMC,210013.6,A,4741.19667,N,12224.23953,W,000.00,139.9,141213,016.6,E,D*22
$GPRMB,A,0.00,L,Shil,Shil,4741.0830,N,12224.5670,W,0.2,243,-0.00,V*2E
$SPVHW,,,,,0.00,N,,*30
$SPA,05E
$PGRME,2.4,M,2.4,M,3.4,M*29
$HCHDG,282.0,0.0,E,,*21
$HCHDG,282.1,0.0,E,,*20
$GPRMC,210013.8,A,4741.19667,N,12224.23953,W,000.00,139.9,141213,016.6,E,D*2C
$SPVHW,,,,,0.00,N,,*30
$SPA,05E
$PGRME,2.4,M,2.4,M,3.4,M*29
$HCHDG,282.1,0.0,E,,*20
$HCHDG,282.1,0.0,E,,*20
$YXXDR,A,5.4,D,PTCH,A,3.4,D,ROLL*5B
$GPRMC,210014.0,A,4741.19667,N,12224.23952,W,000.00,139.9,141213,016.6,E,D*22
$SPVHW,,,,,0.00,N,,*30
$SPA,05E
$PGRME,2.4,M,2.4,M,3.4,M*29
$HCHDG,282.1,0.0,E,,*20
$HCHDG,282.2,0.0,E,,*23
$GPRMC,210014.2,A,4741.19667,N,12224.23952,W,000.00,139.9,141213,016.6,E,D*20
$SPVHW,,,,,0.00,N,,*30
$SPA,05E
$PGRME,2.4,M,2.4,M,3.4,M*29
$HCHDG,282.2,0.0,E,,*23
$SPP,04F
$HCHDG,282.2,0.0,E,,*23
$GPRMC,210014.4,A,4741.19666,N,12224.23952,W,000.01,139.9,141213,016.6,E,D*26
$SPVHW,,,,,0.00,N,,*30
$SPA,05E
$PGRME,2.4,M,2.4,M,3.4,M*29
1.74
$SPMTW,11.3,C*39
$HCHDG,282.2,0.0,E,,*23
$YXXDR,A,5.4,D,PTCH,A,3.6,D,ROLL*59
$PTAK,FFD1,3.6*50
$HCHDG,282.2,0.0,E,,*23
$GPRMC,210014.6,A,4741.19666,N,12224.23952,W,000.00,139.9,141213,016.6,E,D*25
$PGRME,2.4,M,2.4,M,3.4,M*29
$SPVHW,,,,,0.00,N,,*30
$SPA,05E
$HCHDG,282.2,0.0,E,,*23
$HCHDG,282.2,0.0,E,,*23
$GPRMC,210014.8,A,4741.19666,N,12224.23952,W,000.00,139.9,141213,016.6,E,D*2B
$GPRMB,A,0.00,L,Shil,Shil,4741.0830,N,12224.5670,W,0.2,243,-0.00,V*2E
$PGRME,2.4,M,2.4,M,3.4,M*29
$SPVHW,,,,,0.00,N,,*30
$SPA,05E
$HCHDG,282.2,0.0,E,,*23
$HCHDG,282.2,0.0,E,,*23
$GPRMC,210015.0,A,4741.19666,N,12224.23951,W,000.00,139.9,141213,016.6,E,D*21
$YXXDR,A,5.4,D,PTCH,A,3.6,D,ROLL*59
$PGRME,2.4,M,2.4,M,3.4,M*29
$SPVHW,,,,,0.00,N,,*30
$SPA,05E
$HCHDG,282.2,0.0,E,,*23
$HCHDG,282.2,0.0,E,,*23
$GPRMC,210015.2,A,4741.19666,N,12224.23951,W,000.00,139.9,141213,016.6,E,D*23
$PGRME,2.4,M,2.4,M,3.4,M*29
$SPVHW,,,,,0.00,N,,*30
$SPA,05E
$HCHDG,282.2,0.0,E,,*23
$SPP,04F
$HCHDG,282.2,0.0,E,,*23
$GPRMC,210015.4,A,4741.19666,N,12224.23951,W,000.00,139.9,141213,016.6,E,D*25
$PGRME,2.4,M,2.4,M,3.4,M*29
$SPVHW,,,,,0.00,N,,*30
$SPA,05E
1.74
$SPMTW,11.3,C*39
$HCHDG,282.2,0.0,E,,*23
$YXXDR,A,5.4,D,PTCH,A,3.5,D,ROLL*5A
$HCHDG,282.2,0.0,E,,*23
$GPRMC,210015.6,A,4741.19666,N,12224.23951,W,000.00,139.9,141213,016.6,E,D*27
$PGRME,2.4,M,2.4,M,3.4,M*29
$SPVHW,,,,,0.00,N,,*30
$SPA,05E
$HCHDG,282.2,0.0,E,,*23
$HCHDG,282.2,0.0,E,,*23
$GPRMC,210015.8,A,4741.19666,N,12224.23951,W,000.00,139.9,141213,016.6,E,D*29
$PGRME,2.4,M,2.4,M,3.4,M*29
$SPVHW,,,,,0.00,N,,*30
$SPA,05E
$HCHDG,282.2,0.0,E,,*23
$HCHDG,282.2,0.0,E,,*23
$GPRMC,210016.0,A,4741.19666,N,12224.23951,W,000.00,139.9,141213,016.6,E,D*22
$GPRMB,A,0.00,L,Shil,Shil,4741.0830,N,12224.5670,W,0.2,243,-0.00,V*2E
$SPVHW,,,,,0.00,N,,*30
$SPA,05E
$PGRME,2.4,M,2.4,M,3.4,M*29
$YXXDR,A,5.5,D,PTCH,A,3.7,D,ROLL*59
$PTAK,FFD1,3.7*51
$HCHDG,282.2,0.0,E,,*23
$HCHDG,282.2,0.0,E,,*23
$GPRMC,210016.2,A,4741.19666,N,12224.23951,W,000.01,139.9,141213,016.6,E,D*21
$PGRME,2.4,M,2.4,M,3.4,M*29
$SPVHW,,,,,0.00,N,,*30
$SPA,05E
$HCHDG,282.2,0.0,E,,*23
$SPP,04F
$HCHDG,282.2,0.0,E,,*23
$GPRMC,210016.4,A,4741.19665,N,12224.23951,W,000.00,139.9,141213,016.6,E,D*25
$PTAK,FFP1,HEEL,@*07
$PGRME,2.4,M,2.4,M,3.4,M*29
$SPVHW,,,,,0.00,N,,*30
$SPA,05E
1.74
$SPMTW,11.4,C*3E
$HCHDG,282.2,0.0,E,,*23
$YXXDR,A,5.5,D,PTCH,A,3.7,D,ROLL*59
$HCHDG,282.0,0.0,E,,*21
$GPRMC,210016.6,A,4741.19665,N,12224.23950,W,000.00,139.9,141213,016.6,E,D*26
$PGRME,2.4,M,2.4,M,3.4,M*29
$SPVHW,,,,,0.00,N,,*30
$SPA,05E
$HCHDG,282.0,0.0,E,,*21
$HCHDG,282.0,0.0,E,,*21
$GPRMC,210016.8,A,4741.19665,N,12224.23950,W,000.01,139.9,141213,016.6,E,D*29
$SPVHW,,,,,0.00,N,,*30
$SPA,05E
$PGRME,2.4,M,2.4,M,3.4,M*29
$HCHDG,282.0,0.0,E,,*21
$HCHDG,281.9,0.0,E,,*2B
$GPRMC,210017.0,A,4741.19665,N,12224.23950,W,000.00,139.9,141213,016.6,E,D*21
$YXXDR,A,5.4,D,PTCH,A,3.8,D,ROLL*57
$PGRME,2.4,M,2.4,M,3.4,M*29
$SPVHW,,,,,0.00,N,,*30
$SPA,05E
$HCHDG,281.9,0.0,E,,*2B
$HCHDG,281.8,0.0,E,,*2A
$GPRMC,210017.2,A,4741.19665,N,12224.23950,W,000.00,139.9,141213,016.6,E,D*23
$GPRMB,A,0.00,L,Shil,Shil,4741.0830,N,12224.5670,W,0.2,243,-0.00,V*2E
$PGRME,2.4,M,2.4,M,3.4,M*29
$SPVHW,,,,,0.00,N,,*30
$SPA,05E
$HCHDG,281.8,0.0,E,,*2A
$SPP,04F
$HCHDG,281.8,0.0,E,,*2A
$GPRMC,210017.4,A,4741.19665,N,12224.23950,W,000.00,139.9,141213,016.6,E,D*25
$SPVHW,,,,,0.00,N,,*30
$SPA,05E
1.74
$SPMTW,11.2,C*38
$PGRME,2.4,M,2.4,M,3.4,M*29
$HCHDG,281.8,0.0,E,,*2A
$YXXDR,A,5.4,D,PTCH,A,3.9,D,ROLL*56
$PTAK,FFD1,3.9*5F
$HCHDG,281.7,0.0,E,,*25
$GPRMC,210017.6,A,4741.19665,N,12224.23950,W,000.00,139.9,141213,016.6,E,D*27
$PGRME,2.4,M,2.4,M,3.4,M*29
$SPVHW,,,,,0.00,N,,*30
$SPA,05E
$HCHDG,281.7,0.0,E,,*25
$HCHDG,281.8,0.0,E,,*2A
$GPRMC,210017.8,A,4741.19665,N,12224.23950,W,000.00,139.9,141213,016.6,E,D*29
$SPVHW,,,,,0.00,N,,*30
$SPA,05E
$PGRME,2.4,M,2.4,M,3.4,M*29
$HCHDG,281.8,0.0,E,,*2A
$HCHDG,281.8,0.0,E,,*2A
$YXXDR,A,5.4,D,PTCH,A,3.9,D,ROLL*56
$GPRMC,210018.0,A,4741.19665,N,12224.23950,W,000.00,139.9,141213,016.6,E,D*2E
$PGRME,2.4,M,2.4,M,3.4,M*29
$SPVHW,,,,,0.00,N,,*30
$SPA,05E
$HCHDG,281.8,0.0,E,,*2A
$HCHDG,281.8,0.0,E,,*2A
$GPRMC,210018.2,A,4741.19665,N,12224.23950,W,000.00,139.9,141213,016.6,E,D*2C
$PGRME,2.4,M,2.4,M,3.4,M*29
$SPVHW,,,,,0.00,N,,*30
$SPA,05E
$HCHDG,281.7,0.0,E,,*25
$SPP,04F
$HCHDG,281.7,0.0,E,,*25
$GPRMC,210018.4,A,4741.19665,N,12224.23951,W,000.00,139.9,141213,016.6,E,D*2B
$GPRMB,A,0.00,L,Shil,Shil,4741.0830,N,12224.5670,W,0.2,243,-0.00,V*2E
1.74
$SPMTW,11.3,C*39
$PGRME,2.4,M,2.4,M,3.4,M*29
$SPVHW,,,,,0.00,N,,*30
$SPA,05E
$HCHDG,281.7,0.0,E,,*25
$YXXDR,A,5.5,D,PTCH,A,3.8,D,ROLL*56
$PTAK,FFD1,3.8*5E
$HCHDG,281.6,0.0,E,,*24
$GPRMC,210018.6,A,4741.19665,N,12224.23951,W,000.01,139.9,141213,016.6,E,D*28
$PGRME,2.4,M,2.4,M,3.4,M*29
$SPVHW,,,,,0.00,N,,*30
$SPA,05E
$HCHDG,281.5,0.0,E,,*27
$HCHDG,281.5,0.0,E,,*27
$GPRMC,210018.8,A,4741.19665,N,12224.23951,W,000.01,139.9,141213,016.6,E,D*26
$PGRME,2.4,M,2.4,M,3.4,M*29
$SPVHW,,,,,0.00,N,,*30
$SPA,05E
$HCHDG,281.5,0.0,E,,*27
$HCHDG,281.4,0.0,E,,*26
$GPRMC,210019.0,A,4741.19665,N,12224.23951,W,000.01,139.9,141213,016.6,E,D*2F
$YXXDR,A,5.5,D,PTCH,A,3.7,D,ROLL*59
$PGRME,2.4,M,2.4,M,3.4,M*29
$SPVHW,,,,,0.00,N,,*30
$SPA,05E
$HCHDG,281.3,0.0,E,,*21
$HCHDG,281.3,0.0,E,,*21
$GPRMC,210019.2,A,4741.19665,N,12224.23952,W,000.01,139.9,141213,016.6,E,D*2E
$PGRME,2.4,M,2.4,M,3.4,M*29
$SPVHW,,,,,0.00,N,,*30
$SPA,05E
$HCHDG,281.3,0.0,E,,*21
$SPP,04F
$HCHDG,281.2,0.0,E,,*20
$GPRMC,210019.4,A,4741.19665,N,12224.23952,W,000.01,139.9,141213,016.6,E,D*28
1.74
$SPMTW,11.4,C*3E
$PGRME,2.4,M,2.4,M,3.4,M*29
$SPVHW,,,,,0.00,N,,*30
$SPA,05E
$HCHDG,281.2,0.0,E,,*20
$YXXDR,A,5.4,D,PTCH,A,3.8,D,ROLL*57
$HCHDG,281.1,0.0,E,,*23
$GPRMC,210019.6,A,4741.19665,N,12224.23952,W,000.01,139.9,141213,016.6,E,D*2A
$GPRMB,A,0.00,L,Shil,Shil,4741.0830,N,12224.5670,W,0.2,243,-0.00,V*2E
$PGRME,2.4,M,2.4,M,3.4,M*29
$SPVHW,,,,,0.00,N,,*30
$SPA,05E
$HCHDG,281.1,0.0,E,,*23
$HCHDG,281.0,0.0,E,,*22
$GPRMC,210019.8,A,4741.19665,N,12224.23952,W,000.01,139.9,141213,016.6,E,D*24
$PGRME,2.4,M,2.4,M,3.4,M*29
$SPVHW,,,,,0.00,N,,*30
$SPA,05E
$HCHDG,281.0,0.0,E,,*22
$HCHDG,280.9,0.0,E,,*2A
$YXXDR,A,5.4,D,PTCH,A,4.1,D,ROLL*59
$PTAK,FFD1,4.1*50
$GPRMC,210020.0,A,4741.19665,N,12224.23953,W,000.01,139.9,141213,016.6,E,D*27
$PGRME,2.4,M,2.4,M,3.4,M*29
$SPVHW,,,,,0.00,N,,*30
$SPA,05E
$HCHDG,281.0,0.0,E,,*22
$HCHDG,281.0,0.0,E,,*22
$GPRMC,210020.2,A,4741.19665,N,12224.23952,W,000.01,139.9,141213,016.6,E,D*24
$SPVHW,,,,,0.00,N,,*30
$SPA,05E
$PGRME,2.4,M,2.4,M,3.4,M*29
$HCHDG,280.9,0.0,E,,*2A
$SPP,04F
$HCHDG,280.9,0.0,E,,*2A
$GPRMC,210020.4,A,4741.19665,N,12224.23952,W,000.01,139.9,141213,016.6,E,D*22
1.74
$SPMTW,11.4,C*3E
$PGRME,2.4,M,2.4,M,3.4,M*29
$SPVHW,,,,,0.00,N,,*30
$SPA,05E
$HCHDG,280.8,0.0,E,,*2B
$PTAK,FFP1,HEEL,@*07
$YXXDR,A,5.4,D,PTCH,A,4.0,D,ROLL*58
$HCHDG,280.8,0.0,E,,*2B
$GPRMC,210020.6,A,4741.19665,N,12224.23952,W,000.01,139.9,141213,016.6,E,D*20
$PGRME,2.4,M,2.4,M,3.4,M*29
$SPVHW,,,,,0.00,N,,*30
$SPA,05E
$HCHDG,280.9,0.0,E,,*2A
$HCHDG,280.8,0.0,E,,*2B
$GPRMC,210020.8,A,4741.19665,N,12224.23952,W,000.01,139.9,141213,016.6,E,D*2E
$GPRMB,A,0.00,L,Shil,Shil,4741.0830,N,12224.5670,W,0.2,243,-0.00,V*2E
$PGRME,2.4,M,2.4,M,3.4,M*29
$SPVHW,,,,,0.00,N,,*30
$SPA,05E
$HCHDG,280.8,0.0,E,,*2B
$HCHDG,280.8,0.0,E,,*2B
$GPRMC,210021.0,A,4741.19665,N,12224.23953,W,000.01,139.9,141213,016.6,E,D*26
$YXXDR,A,5.4,D,PTCH,A,4.0,D,ROLL*58
$PTAK,FFD1,4.0*51
$PGRME,2.4,M,2.4,M,3.4,M*29
$SPVHW,,,,,0.00,N,,*30
$SPA,05E
$HCHDG,280.7,0.0,E,,*24
$HCHDG,280.7,0.0,E,,*24
$GPRMC,210021.2,A,4741.19665,N,12224.23952,W,000.01,139.9,141213,016.6,E,D*25
$PGRME,2.4,M,2.4,M,3.4,M*29
$SPVHW,,,,,0.00,N,,*30
$SPA,05E
$HCHDG,280.6,0.0,E,,*25
$SPP,04F
$HCHDG,280.6,0.0,E,,*25
$GPRMC,210021.4,A,4741.19665,N,12224.23952,W,000.01,139.9,141213,016.6,E,D*23
1.73
$SPMTW,11.1,C*3B
$PGRME,2.4,M,2.4,M,3.4,M*29
$SPVHW,,,,,0.00,N,,*30
$SPA,05E
$HCHDG,280.6,0.0,E,,*25
$YXXDR,A,5.4,D,PTCH,A,4.0,D,ROLL*58
$HCHDG,280.6,0.0,E,,*25
$GPRMC,210021.6,A,4741.19665,N,12224.23952,W,000.01,139.9,141213,016.6,E,D*21
$PGRME,2.4,M,2.4,M,3.4,M*29
$SPVHW,,,,,0.00,N,,*30
$SPA,05E
$HCHDG,280.6,0.0,E,,*25
$HCHDG,280.5,0.0,E,,*26
$GPRMC,210021.8,A,4741.19665,N,12224.23952,W,000.01,139.9,141213,016.6,E,D*2F
$GPRMB,A,0.00,L,Shil,Shil,4741.0830,N,12224.5670,W,0.2,243,-0.00,V*2E
$PGRME,2.4,M,2.4,M,3.4,M*29
$SPVHW,,,,,0.00,N,,*30
$SPA,05E
$HCHDG,280.5,0.0,E,,*26
$HCHDG,280.4,0.0,E,,*27
$YXXDR,A,5.4,D,PTCH,A,4.3,D,ROLL*5B
$GPRMC,210022.0,A,4741.19665,N,12224.23952,W,000.01,139.9,141213,016.6,E,D*24
$PGRME,2.4,M,2.4,M,3.4,M*29
$SPVHW,,,,,0.00,N,,*30
$SPA,05E
$HCHDG,280.4,0.0,E,,*27
$HCHDG,280.3,0.0,E,,*20
$GPRMC,210022.2,A,4741.19665,N,12224.23952,W,000.01,139.9,141213,016.6,E,D*26
$PGRME,2.4,M,2.4,M,3.4,M*29
$SPVHW,,,,,0.00,N,,*30
$SPA,05E
$HCHDG,280.3,0.0,E,,*20
$SPP,04F
$HCHDG,280.3,0.0,E,,*20
$GPRMC,210022.4,A,4741.19665,N,12224.23952,W,000.01,139.9,141213,016.6,E,D*20
1.75
$SPMTW,11.5,C*3F
$PGRME,2.4,M,2.4,M,3.4,M*29
$SPVHW,,,,,0.00,N,,*30
$SPA,05E
$HCHDG,280.2,0.0,E,,*21
$YXXDR,A,5.4,D,PTCH,A,4.3,D,ROLL*5B
$PTAK,FFD1,4.3*52
$HCHDG,280.2,0.0,E,,*21
$GPRMC,210022.6,A,4741.19665,N,12224.23952,W,000.01,139.9,141213,016.6,E,D*22
$PGRME,2.4,M,2.4,M,3.4,M*29
$SPVHW,,,,,0.00,N,,*30
$SPA,05E
$HCHDG,280.1,0.0,E,,*22
$HCHDG,280.0,0.0,E,,*23
$GPRMC,210022.8,A,4741.19665,N,12224.23953,W,000.00,139.9,141213,016.6,E,D*2C
$PGRME,2.4,M,2.4,M,3.4,M*29
$SPVHW,,,,,0.00,N,,*30
$SPA,05E
$HCHDG,280.0,0.0,E,,*23
$HCHDG,280.0,0.0,E,,*23
$GPRMC,210023.0,A,4741.19665,N,12224.23953,W,000.00,139.9,141213,016.6,E,D*25
$GPRMB,A,0.00,L,Shil,Shil,4741.0830,N,12224.5670,W,0.2,243,-0.00,V*2E
$YXXDR,A,5.5,D,PTCH,A,4.3,D,ROLL*5A
$PGRME,2.4,M,2.4,M,3.4,M*29
$SPVHW,,,,,0.00,N,,*30
$SPA,05E
$HCHDG,279.9,0.0,E,,*2C
$HCHDG,279.9,0.0,E,,*2C
$GPRMC,210023.2,A,4741.19665,N,12224.23953,W,000.00,139.9,141213,016.6,E,D*27
$PGRME,2.4,M,2.4,M,3.4,M*29
$SPVHW,,,,,0.00,N,,*30
$SPA,05E
$HCHDG,279.8,0.0,E,,*2D
$SPP,04F
$HCHDG,279.8,0.0,E,,*2D
$GPRMC,210023.4,A,4741.19665,N,12224.23953,W,000.01,139.9,141213,016.6,E,D*20
1.74
$SPMTW,11.3,C*39
$PGRME,2.4,M,2.4,M,3.4,M*29
$SPVHW,,,,,0.00,N,,*30
$SPA,05E
$HCHDG,279.8,0.0,E,,*2D
$YXXDR,A,5.4,D,PTCH,A,4.2,D,ROLL*5A
$HCHDG,279.9,0.0,E,,*2C
$GPRMC,210023.6,A,4741.19665,N,12224.23953,W,000.01,139.9,141213,016.6,E,D*22
$PGRME,2.4,M,2.4,M,3.4,M*29
$SPVHW,,,,,0.00,N,,*30
$SPA,05E
$HCHDG,279.8,0.0,E,,*2D
$HCHDG,279.8,0.0,E,,*2D
$GPRMC,210023.8,A,4741.19665,N,12224.23953,W,000.00,139.9,141213,016.6,E,D*2D
$PGRME,2.4,M,2.4,M,3.4,M*29
$SPVHW,,,,,0.00,N,,*30
$SPA,05E
$HCHDG,279.7,0.0,E,,*22
$HCHDG,279.7,0.0,E,,*22
$GPRMC,210024.0,A,4741.19665,N,12224.23954,W,000.01,139.9,141213,016.6,E,D*24
$YXXDR,A,5.4,D,PTCH,A,4.0,D,ROLL*58
$PTAK,FFD1,4.0*51
$PGRME,2.4,M,2.4,M,3.4,M*29
$SPVHW,,,,,0.00,N,,*30
$SPA,05E
$HCHDG,279.7,0.0,E,,*22
$HCHDG,279.7,0.0,E,,*22
$GPRMC,210024.2,A,4741.19665,N,12224.23954,W,000.00,139.9,141213,016.6,E,D*27
$GPRMB,A,0.00,L,Shil,Shil,4741.0830,N,12224.5670,W,0.2,243,-0.00,V*2E
$PGRME,2.4,M,2.4,M,3.4,M*29
$SPVHW,,,,,0.00,N,,*30
$SPA,05E
$HCHDG,279.6,0.0,E,,*23
$SPP,04F
$HCHDG,279.6,0.0,E,,*23
$GPRMC,210024.4,A,4741.19665,N,12224.23954,W,000.00,139.9,141213,016.6,E,D*21
1.74
$SPMTW,11.2,C*38
$PGRME,2.4,M,2.4,M,3.4,M*29
$SPVHW,,,,,0.00,N,,*30
$SPA,05E
$HCHDG,279.6,0.0,E,,*23
$PTAK,FFP1,HEEL,@*07
$YXXDR,A,5.5,D,PTCH,A,4.2,D,ROLL*5B
$HCHDG,279.6,0.0,E,,*23
$GPRMC,210024.6,A,4741.19665,N,12224.23954,W,000.01,139.9,141213,016.6,E,D*22
$PGRME,2.4,M,2.4,M,3.4,M*29
$SPVHW,,,,,0.00,N,,*30
$SPA,05E
$HCHDG,279.6,0.0,E,,*23
$HCHDG,279.6,0.0,E,,*23
$GPRMC,210024.8,A,4741.19665,N,12224.23955,W,000.00,139.9,141213,016.6,E,D*2C
$PGRME,2.4,M,2.4,M,3.4,M*29
$SPVHW,,,,,0.00,N,,*30
$SPA,05E
$HCHDG,279.6,0.0,E,,*23
$HCHDG,279.6,0.0,E,,*23
$GPRMC,210025.0,A,4741.19665,N,12224.23955,W,000.00,139.9,141213,016.6,E,D*25
$YXXDR,A,5.5,D,PTCH,A,4.2,D,ROLL*5B
$PGRME,2.4,M,2.4,M,3.4,M*29
$SPVHW,,,,,0.00,N,,*30
$SPA,05E
$HCHDG,279.6,0.0,E,,*23
$HCHDG,279.5,0.0,E,,*20
$GPRMC,210025.2,A,4741.19665,N,12224.23954,W,000.00,139.9,141213,016.6,E,D*26
$PGRME,2.4,M,2.4,M,3.4,M*29
$SPVHW,,,,,0.00,N,,*30
$SPA,05E
$HCHDG,279.5,0.0,E,,*20
$SPP,04F
$HCHDG,279.5,0.0,E,,*20
$GPRMC,210025.4,A,4741.19665,N,12224.23955,W,000.00,139.9,141213,016.6,E,D*21
$GPRMB,A,0.00,L,Shil,Shil,4741.0830,N,12224.5670,W,0.2,243,-0.00,V*2E
1.74
$SPMTW,11.2,C*38
$PGRME,2.4,M,2.4,M,3.4,M*29
$SPVHW,,,,,0.00,N,,*30
$SPA,05E
$HCHDG,279.5,0.0,E,,*20
$YXXDR,A,5.6,D,PTCH,A,4.0,D,ROLL*5A
$PTAK,FFD1,4.0*51
$HCHDG,279.5,0.0,E,,*20
$GPRMC,210025.6,A,4741.19665,N,12224.23955,W,000.02,139.9,141213,016.6,E,D*21
$PGRME,2.4,M,2.4,M,3.4,M*29
$SPVHW,,,,,0.00,N,,*30
$SPA,05E
$HCHDG,279.5,0.0,E,,*20
$HCHDG,279.5,0.0,E,,*20
$GPRMC,210025.8,A,4741.19664,N,12224.23955,W,000.00,139.9,141213,016.6,E,D*2C
$PGRME,2.4,M,2.4,M,3.4,M*29
$SPVHW,,,,,0.00,N,,*30
$SPA,05E
$HCHDG,279.5,0.0,E,,*20
$HCHDG,279.5,0.0,E,,*20
$GPRMC,210026.0,A,4741.19665,N,12224.23955,W,000.00,139.9,141213,016.6,E,D*26
$YXXDR,A,5.6,D,PTCH,A,3.9,D,ROLL*54
$PGRME,2.4,M,2.4,M,3.4,M*29
$SPVHW,,,,,0.00,N,,*30
$SPA,05E
$HCHDG,279.5,0.0,E,,*20
$HCHDG,279.4,0.0,E,,*21
$GPRMC,210026.2,A,4741.19665,N,12224.23955,W,000.01,139.9,141213,016.6,E,D*25
$SPVHW,,,,,0.00,N,,*30
$SPA,05E
$PGRME,2.4,M,2.4,M,3.4,M*29
$HCHDG,279.4,0.0,E,,*21
$SPP,04F
$HCHDG,279.4,0.0,E,,*21
1.72
$SPMTW,10.9,C*32
$GPRMC,210026.4,A,4741.19664,N,12224.23955,W,000.01,139.9,141213,016.6,E,D*22
$GPRMB,A,0.00,L,Shil,Shil,4741.0830,N,12224.5670,W,0.2,243,-0.00,V*2E
$SPVHW,,,,,0.00,N,,*30
$SPA,05E
$PGRME,2.4,M,2.4,M,3.4,M*29
$HCHDG,279.6,0.0,E,,*23
$YXXDR,A,5.5,D,PTCH,A,3.8,D,ROLL*56
$PTAK,FFD1,3.8*5E
$HCHDG,279.6,0.0,E,,*23
$GPRMC,210026.6,A,4741.19664,N,12224.23955,W,000.01,139.9,141213,016.6,E,D*20
$PGRME,2.4,M,2.4,M,3.4,M*29
$SPVHW,,,,,0.00,N,,*30
$SPA,05E
$HCHDG,279.6,0.0,E,,*23
$HCHDG,279.5,0.0,E,,*20
$GPRMC,210026.8,A,4741.19664,N,12224.23955,W,000.01,139.9,141213,016.6,E,D*2E
$PGRME,2.4,M,2.4,M,3.4,M*29
$SPVHW,,,,,0.00,N,,*30
$SPA,05E
$HCHDG,279.6,0.0,E,,*23
$HCHDG,279.6,0.0,E,,*23
$GPRMC,210027.0,A,4741.19664,N,12224.23955,W,000.01,139.9,141213,016.6,E,D*27
$YXXDR,A,5.6,D,PTCH,A,3.6,D,ROLL*5B
$PGRME,2.4,M,2.4,M,3.4,M*29
$SPVHW,,,,,0.00,N,,*30
$SPA,05E
$HCHDG,279.7,0.0,E,,*22
$HCHDG,279.7,0.0,E,,*22
$GPRMC,210027.2,A,4741.19664,N,12224.23955,W,000.01,139.9,141213,016.6,E,D*25
$PGRME,2.4,M,2.4,M,3.4,M*29
$SPVHW,,,,,0.00,N,,*30
$SPA,05E
$HCHDG,279.8,0.0,E,,*2D
$SPP,04F
$HCHDG,279.9,0.0,E,,*2C
1.74
$SPMTW,11.4,C*3E
$GPRMC,210027.4,A,4741.19664,N,12224.23955,W,000.01,139.9,141213,016.6,E,D*23
$PGRME,2.4,M,2.4,M,3.4,M*29
$SPVHW,,,,,0.00,N,,*30
$SPA,05E
$HCHDG,280.0,0.0,E,,*23
$YXXDR,A,5.4,D,PTCH,A,3.6,D,ROLL*59
$HCHDG,280.0,0.0,E,,*23
$GPRMC,210027.6,A,4741.19664,N,12224.23955,W,000.01,139.9,141213,016.6,E,D*21
$GPRMB,A,0.00,L,Shil,Shil,4741.0830,N,12224.5670,W,0.2,243,-0.00,V*2E
$PGRME,2.4,M,2.4,M,3.4,M*29
$SPVHW,,,,,0.00,N,,*30
$SPA,05E
$HCHDG,280.2,0.0,E,,*21
$HCHDG,280.2,0.0,E,,*21
$GPRMC,210027.8,A,4741.19664,N,12224.23955,W,000.01,139.9,141213,016.6,E,D*2F
$PGRME,2.4,M,2.4,M,3.4,M*29
$SPVHW,,,,,0.00,N,,*30
$SPA,05E
$HCHDG,280.2,0.0,E,,*21
$HCHDG,280.4,0.0,E,,*27
$GPRMC,210028.0,A,4741.19664,N,12224.23955,W,000.01,139.9,141213,016.6,E,D*28
$YXXDR,A,5.4,D,PTCH,A,3.6,D,ROLL*59
$PTAK,FFD1,3.6*50
$PGRME,2.4,M,2.4,M,3.4,M*29
$SPVHW,,,,,0.00,N,,*30
$SPA,05E
$HCHDG,280.3,0.0,E,,*20
$HCHDG,280.3,0.0,E,,*20
$GPRMC,210028.2,A,4741.19664,N,12224.23955,W,000.01,139.9,141213,016.6,E,D*2A
$PGRME,2.4,M,2.4,M,3.4,M*29
$SPVHW,,,,,0.00,N,,*30
$SPA,05E
$HCHDG,280.4,0.0,E,,*27
$SPP,04F
$HCHDG,280.4,0.0,E,,*27
1.73
$SPMTW,11.1,C*3B
$GPRMC,210028.4,A,4741.19664,N,12224.23955,W,000.01,139.9,141213,016.6,E,D*2C
$PGRME,2.4,M,2.4,M,3.4,M*29
$SPVHW,,,,,0.00,N,,*30
$SPA,05E
$HCHDG,280.5,0.0,E,,*26
$YXXDR,A,5.5,D,PTCH,A,3.6,D,ROLL*58
$PTAK,FFP1,HEEL,@*07
$HCHDG,280.5,0.0,E,,*26
$GPRMC,210028.6,A,4741.19664,N,12224.23955,W,000.01,139.9,141213,016.6,E,D*2E
$PGRME,2.4,M,2.4,M,3.4,M*29
$SPVHW,,,,,0.00,N,,*30
$SPA,05E
$HCHDG,280.6,0.0,E,,*25
$HCHDG,280.7,0.0,E,,*24
$GPRMC,210028.8,A,4741.19664,N,12224.23955,W,000.02,139.9,141213,016.6,E,D*23
$GPRMB,A,0.00,L,Shil,Shil,4741.0830,N,12224.5670,W,0.2,243,-0.00,V*2E
$PGRME,2.4,M,2.4,M,3.4,M*29
$SPVHW,,,,,0.00,N,,*30
$SPA,05E
$HCHDG,280.7,0.0,E,,*24
$HCHDG,280.8,0.0,E,,*2B
$GPRMC,210029.0,A,4741.19664,N,12224.23955,W,000.01,139.9,141213,016.6,E,D*29
$SPVHW,,,,,0.00,N,,*30
$SPA,05E
$PGRME,2.4,M,2.4,M,3.4,M*29
$YXXDR,A,5.5,D,PTCH,A,3.6,D,ROLL*58
$PTAK,FFD1,3.6*50
$HCHDG,280.8,0.0,E,,*2B
$HCHDG,280.8,0.0,E,,*2B
$GPRMC,210029.2,A,4741.19664,N,12224.23955,W,000.02,139.9,141213,016.6,E,D*28
$SPVHW,,,,,0.00,N,,*30
$SPA,05E
$PGRME,2.4,M,2.4,M,3.4,M*29
$HCHDG,281.0,0.0,E,,*22
$SPP,04F
$HCHDG,281.0,0.0,E,,*22
1.73
$SPMTW,11.0,C*3A
$GPRMC,210029.4,A,4741.19664,N,12224.23955,W,000.01,139.9,141213,016.6,E,D*2D
$SPVHW,,,,,0.00,N,,*30
$SPA,05E
$PGRME,2.4,M,2.4,M,3.4,M*29
$HCHDG,281.0,0.0,E,,*22
$YXXDR,A,5.4,D,PTCH,A,3.4,D,ROLL*5B
$HCHDG,281.2,0.0,E,,*20
$GPRMC,210029.6,A,4741.19664,N,12224.23955,W,000.02,139.9,141213,016.6,E,D*2C
$PGRME,2.4,M,2.4,M,3.4,M*29
$SPVHW,,,,,0.00,N,,*30
$SPA,05E
$HCHDG,281.3,0.0,E,,*21
$HCHDG,281.3,0.0,E,,*21
$GPRMC,210029.8,A,4741.19664,N,12224.23955,W,000.02,139.9,141213,016.6,E,D*22
$GPRMB,A,0.00,L,Shil,Shil,4741.0830,N,12224.5670,W,0.2,243,-0.00,V*2E
$PGRME,2.4,M,2.4,M,3.4,M*29
$SPVHW,,,,,0.00,N,,*30
$SPA,05E
$HCHDG,281.4,0.0,E,,*26
$HCHDG,281.5,0.0,E,,*27
$GPRMC,210030.0,A,4741.19664,N,12224.23955,W,000.02,139.9,141213,016.6,E,D*22
$YXXDR,A,5.4,D,PTCH,A,3.3,D,ROLL*5C
$PGRME,2.4,M,2.4,M,3.4,M*29
$SPVHW,,,,,0.00,N,,*30
$SPA,05E
$HCHDG,281.6,0.0,E,,*24
$HCHDG,281.7,0.0,E,,*25
$GPRMC,210030.2,A,4741.19664,N,12224.23955,W,000.02,139.9,141213,016.6,E,D*20
$PGRME,2.4,M,2.4,M,3.4,M*29
$SPVHW,,,,,0.00,N,,*30
$SPA,05E
$HCHDG,281.8,0.0,E,,*2A
$SPP,04F
$HCHDG,281.9,0.0,E,,*2B
1.74
$SPMTW,11.2,C*38
$GPRMC,210030.4,A,4741.19664,N,12224.23955,W,000.01,139.9,141213,016.6,E,D*25
$PGRME,2.4,M,2.4,M,3.4,M*29
$SPVHW,,,,,0.00,N,,*30
$SPA,05E
$HCHDG,282.0,0.0,E,,*21
$YXXDR,A,5.4,D,PTCH,A,3.4,D,ROLL*5B
$PTAK,FFD1,3.4*52
$HCHDG,282.1,0.0,E,,*20
$GPRMC,210030.6,A,4741.19664,N,12224.23955,W,000.01,139.9,141213,016.6,E,D*27
$PGRME,2.4,M,2.4,M,3.4,M*29
$SPVHW,,,,,0.00,N,,*30
$SPA,05E
$HCHDG,282.0,0.0,E,,*21
$HCHDG,282.1,0.0,E,,*20
$GPRMC,210030.8,A,4741.19664,N,12224.23956,W,000.01,139.9,141213,016.6,E,D*2A
$PGRME,2.4,M,2.4,M,3.4,M*29
$SPVHW,,,,,0.00,N,,*30
$SPA,05E
$HCHDG,282.2,0.0,E,,*23
$HCHDG,282.4,0.0,E,,*25
$GPRMC,210031.0,A,4741.19664,N,12224.23956,W,000.01,139.9,141213,016.6,E,D*23
$GPRMB,A,0.00,L,Shil,Shil,4741.0830,N,12224.5670,W,0.2,243,-0.00,V*2E
$YXXDR,A,5.3,D,PTCH,A,3.5,D,ROLL*5D
$PGRME,2.4,M,2.4,M,3.4,M*29
$SPVHW,,,,,0.00,N,,*30
$SPA,05E
$HCHDG,282.5,0.0,E,,*24
$HCHDG,282.3,0.0,E,,*22
$GPRMC,210031.2,A,4741.19664,N,12224.23956,W,000.01,139.9,141213,016.6,E,D*21
$PGRME,2.4,M,2.4,M,3.4,M*29
$SPVHW,,,,,0.00,N,,*30
$SPA,05E
$HCHDG,282.3,0.0,E,,*22
$SPP,04F
$HCHDG,282.4,0.0,E,,*25
1.73
$SPMTW,11.1,C*3B
$GPRMC,210031.4,A,4741.19664,N,12224.23956,W,000.01,139.9,141213,016.6,E,D*27
$SPVHW,,,,,0.00,N,,*30
$SPA,05E
$PGRME,2.4,M,2.4,M,3.4,M*29
$HCHDG,282.6,0.0,E,,*27
$YXXDR,A,5.4,D,PTCH,A,3.7,D,ROLL*58
$HCHDG,282.7,0.0,E,,*26
$GPRMC,210031.6,A,4741.19664,N,12224.23956,W,000.01,139.9,141213,016.6,E,D*25
$PGRME,2.4,M,2.4,M,3.4,M*29
$SPVHW,,,,,0.00,N,,*30
$SPA,05E
$HCHDG,282.8,0.0,E,,*29
$HCHDG,282.7,0.0,E,,*26
$GPRMC,210031.8,A,4741.19664,N,12224.23956,W,000.00,139.9,141213,016.6,E,D*2A
$PGRME,2.4,M,2.4,M,3.4,M*29
$SPVHW,,,,,0.00,N,,*30
$SPA,05E
$HCHDG,282.8,0.0,E,,*29
$HCHDG,283.0,0.0,E,,*20
$GPRMC,210032.0,A,4741.19664,N,12224.23956,W,000.00,139.9,141213,016.6,E,D*21
$YXXDR,A,5.4,D,PTCH,A,3.5,D,ROLL*5A
$PTAK,FFD1,3.5*53
$PGRME,2.4,M,2.4,M,3.4,M*29
$SPVHW,,,,,0.00,N,,*30
$SPA,05E
$HCHDG,283.0,0.0,E,,*20
$HCHDG,283.1,0.0,E,,*21
$GPRMC,210032.2,A,4741.19664,N,12224.23956,W,000.00,139.9,141213,016.6,E,D*23
$GPRMB,A,0.00,L,Shil,Shil,4741.0830,N,12224.5670,W,0.2,243,-0.00,V*2E
$SPVHW,,,,,0.00,N,,*30
$SPA,05E
$PGRME,2.4,M,2.4,M,3.4,M*29
$HCHDG,283.2,0.0,E,,*22
$SPP,04F
$HCHDG,283.3,0.0,E,,*23
1.74
$SPMTW,11.2,C*38
$GPRMC,210032.4,A,4741.19664,N,12224.23956,W,000.00,139.9,141213,016.6,E,D*25
$PGRME,2.4,M,2.4,M,3.4,M*29
$SPVHW,,,,,0.00,N,,*30
$SPA,05E
$HCHDG,283.4,0.0,E,,*24
$PTAK,FFP1,HEEL,@*07
$YXXDR,A,5.4,D,PTCH,A,3.3,D,ROLL*5C
$HCHDG,283.6,0.0,E,,*26
$GPRMC,210032.6,A,4741.19664,N,12224.23956,W,000.01,139.9,141213,016.6,E,D*26
$PGRME,2.4,M,2.4,M,3.4,M*29
$SPVHW,,,,,0.00,N,,*30
$SPA,05E
$HCHDG,283.7,0.0,E,,*27
$HCHDG,283.7,0.0,E,,*27
$GPRMC,210032.8,A,4741.19664,N,12224.23956,W,000.01,139.9,141213,016.6,E,D*28
$PGRME,2.4,M,2.4,M,3.4,M*29
$SPVHW,,,,,0.00,N,,*30
$SPA,05E
$HCHDG,283.8,0.0,E,,*28
$HCHDG,283.5,0.0,E,,*25
$GPRMC,210033.0,A,4741.19664,N,12224.23956,W,000.00,139.9,141213,016.6,E,D*20
$YXXDR,A,5.4,D,PTCH,A,3.5,D,ROLL*5A
$PGRME,2.4,M,2.4,M,3.4,M*29
$SPVHW,,,,,0.00,N,,*30
$SPA,05E
$HCHDG,283.4,0.0,E,,*24
$HCHDG,283.5,0.0,E,,*25
$GPRMC,210033.2,A,4741.19664,N,12224.23955,W,000.01,139.9,141213,016.6,E,D*20
$PGRME,2.4,M,2.4,M,3.4,M*29
$SPVHW,,,,,0.00,N,,*30
$SPA,05E
$HCHDG,283.6,0.0,E,,*26
$SPP,04F
$HCHDG,283.7,0.0,E,,*27
1.75
$SPMTW,11.5,C*3F
$GPRMC,210033.4,A,4741.19664,N,12224.23955,W,000.00,139.9,141213,016.6,E,D*27
$GPRMB,A,0.00,L,Shil,Shil,4741.0830,N,12224.5670,W,0.2,243,-0.00,V*2E
$SPVHW,,,,,0.00,N,,*30
$SPA,05E
$PGRME,2.4,M,2.4,M,3.4,M*29
$HCHDG,283.7,0.0,E,,*27
$YXXDR,A,5.2,D,PTCH,A,4.0,D,ROLL*5E
$PTAK,FFD1,4.0*51
$HCHDG,283.7,0.0,E,,*27
$GPRMC,210033.6,A,4741.19664,N,12224.23955,W,000.01,139.9,141213,016.6,E,D*24
$PGRME,2.4,M,2.4,M,3.4,M*29
$SPVHW,,,,,0.00,N,,*30
$SPA,05E
$HCHDG,283.9,0.0,E,,*29
$HCHDG,283.9,0.0,E,,*29
$GPRMC,210033.8,A,4741.19664,N,12224.23955,W,000.01,139.9,141213,016.6,E,D*2A
$PGRME,2.4,M,2.4,M,3.4,M*29
$SPVHW,,,,,0.00,N,,*30
$SPA,05E
$HCHDG,283.9,0.0,E,,*29
$HCHDG,284.0,0.0,E,,*27
$GPRMC,210034.0,A,4741.19664,N,12224.23955,W,000.01,139.9,141213,016.6,E,D*25
$YXXDR,A,5.3,D,PTCH,A,3.9,D,ROLL*51
$PGRME,2.4,M,2.4,M,3.4,M*29
$SPVHW,,,,,0.00,N,,*30
$SPA,05E
$HCHDG,284.0,0.0,E,,*27
$HCHDG,284.0,0.0,E,,*27
$GPRMC,210034.2,A,4741.19664,N,12224.23955,W,000.01,139.9,141213,016.6,E,D*27
$PGRME,2.4,M,2.4,M,3.4,M*29
$SPVHW,,,,,0.00,N,,*30
$SPA,05E
$HCHDG,284.0,0.0,E,,*27
$SPP,04F
$HCHDG,284.1,0.0,E,,*26
1.74
$SPMTW,11.3,C*39
$GPRMC,210034.4,A,4741.19664,N,12224.23954,W,000.02,139.9,141213,016.6,E,D*23
$SPVHW,,,,,0.00,N,,*30
$SPA,05E
$PGRME,2.4,M,2.4,M,3.4,M*29
$HCHDG,284.0,0.0,E,,*27
$YXXDR,A,5.3,D,PTCH,A,4.0,D,ROLL*5F
$HCHDG,284.1,0.0,E,,*26
$GPRMC,210034.6,A,4741.19664,N,12224.23954,W,000.01,139.9,141213,016.6,E,D*22
$GPRMB,A,0.00,L,Shil,Shil,4741.0830,N,12224.5670,W,0.2,243,-0.00,V*2E
$SPVHW,,,,,0.00,N,,*30
$SPA,05E
$PGRME,2.4,M,2.4,M,3.4,M*29
$HCHDG,284.0,0.0,E,,*27
$HCHDG,284.0,0.0,E,,*27
$GPRMC,210034.8,A,4741.19664,N,12224.23954,W,000.01,139.9,141213,016.6,E,D*2C
$PGRME,2.4,M,2.4,M,3.4,M*29
$SPVHW,,,,,0.00,N,,*30
$SPA,05E
$HCHDG,284.0,0.0,E,,*27
$HCHDG,283.9,0.0,E,,*29
$YXXDR,A,5.4,D,PTCH,A,4.6,D,ROLL*5E
$PTAK,FFD1,4.6*57
$GPRMC,210035.0,A,4741.19664,N,12224.23954,W,000.02,139.9,141213,016.6,E,D*26
$PGRME,2.4,M,2.4,M,3.4,M*29
$SPVHW,,,,,0.00,N,,*30
$SPA,05E
$HCHDG,283.9,0.0,E,,*29
$HCHDG,283.9,0.0,E,,*29
$GPRMC,210035.2,A,4741.19664,N,12224.23954,W,000.01,139.9,141213,016.6,E,D*27
$PGRME,2.4,M,2.4,M,3.4,M*29
$SPVHW,,,,,0.00,N,,*30
$SPA,05E
$HCHDG,283.9,0.0,E,,*29
$SPP,04F
$HCHDG,283.8,0.0,E,,*28
1.74
$SPMTW,11.2,C*38
$GPRMC,210035.4,A,4741.19664,N,12224.23954,W,000.01,139.9,141213,016.6,E,D*21
$PGRME,2.4,M,2.4,M,3.4,M*29
$SPVHW,,,,,0.00,N,,*30
$SPA,05E
$HCHDG,283.7,0.0,E,,*27
$YXXDR,A,5.3,D,PTCH,A,5.0,D,ROLL*5E
$HCHDG,283.7,0.0,E,,*27
$GPRMC,210035.6,A,4741.19665,N,12224.23954,W,000.01,139.9,141213,016.6,E,D*22
$PGRME,2.4,M,2.4,M,3.4,M*29
$SPVHW,,,,,0.00,N,,*30
$SPA,05E
$HCHDG,283.7,0.0,E,,*27
$HCHDG,283.7,0.0,E,,*27
$GPRMC,210035.8,A,4741.19665,N,12224.23955,W,000.02,139.9,141213,016.6,E,D*2E
$GPRMB,A,0.00,L,Shil,Shil,4741.0830,N,12224.5670,W,0.2,243,-0.00,V*2E
$PGRME,2.4,M,2.4,M,3.4,M*29
$SPVHW,,,,,0.00,N,,*30
$SPA,05E
$HCHDG,283.6,0.0,E,,*26
$HCHDG,283.6,0.0,E,,*26
$GPRMC,210036.0,A,4741.19665,N,12224.23954,W,000.01,139.9,141213,016.6,E,D*27
$YXXDR,A,5.6,D,PTCH,A,5.1,D,ROLL*5A
$PTAK,FFD1,5.1*51
$PGRME,2.4,M,2.4,M,3.4,M*29
$SPVHW,,,,,0.00,N,,*30
$SPA,05E
$HCHDG,283.5,0.0,E,,*25
$HCHDG,283.4,0.0,E,,*24
$GPRMC,210036.2,A,4741.19665,N,12224.23955,W,000.01,139.9,141213,016.6,E,D*24
$PGRME,2.4,M,2.4,M,3.4,M*29
$SPVHW,,,,,0.00,N,,*30
$SPA,05E
$HCHDG,283.6,0.0,E,,*26
$SPP,04F
$HCHDG,283.6,0.0,E,,*26
1.72
$SPMTW,10.8,C*33
$GPRMC,210036.4,A,4741.19665,N,12224.23955,W,000.00,139.9,141213,016.6,E,D*23
$PGRME,2.4,M,2.4,M,3.4,M*29
$SPVHW,,,,,0.00,N,,*30
$SPA,05E
$HCHDG,283.6,0.0,E,,*26
$YXXDR,A,5.5,D,PTCH,A,4.9,D,ROLL*50
$HCHDG,283.6,0.0,E,,*26
$PTAK,FFP1,HEEL,@*07
$GPRMC,210036.6,A,4741.19665,N,12224.23954,W,000.02,139.9,141213,016.6,E,D*22
$PGRME,2.4,M,2.4,M,3.4,M*29
$SPVHW,,,,,0.00,N,,*30
$SPA,05E
$HCHDG,283.5,0.0,E,,*25
$HCHDG,283.7,0.0,E,,*27
$GPRMC,210036.8,A,4741.19665,N,12224.23954,W,000.01,139.9,141213,016.6,E,D*2F
$PGRME,2.4,M,2.4,M,3.4,M*29
$SPVHW,,,,,0.00,N,,*30
$SPA,05E
$HCHDG,283.6,0.0,E,,*26
$HCHDG,283.6,0.0,E,,*26
$GPRMC,210037.0,A,4741.19665,N,12224.23954,W,000.00,139.9,141213,016.6,E,D*27
$GPRMB,A,0.00,L,Shil,Shil,4741.0830,N,12224.5670,W,0.2,243,-0.00,V*2E
$PGRME,2.4,M,2.4,M,3.4,M*29
$SPVHW,,,,,0.00,N,,*30
$SPA,05E
$YXXDR,A,5.5,D,PTCH,A,4.7,D,ROLL*5E
$PTAK,FFD1,4.7*56
$HCHDG,283.5,0.0,E,,*25
$HCHDG,283.4,0.0,E,,*24
$GPRMC,210037.2,A,4741.19665,N,12224.23954,W,000.01,139.9,141213,016.6,E,D*24
$PGRME,2.4,M,2.4,M,3.4,M*29
$SPVHW,,,,,0.00,N,,*30
$SPA,05E
$HCHDG,283.2,0.0,E,,*22
$SPP,04F
$HCHDG,283.2,0.0,E,,*22
1.74
$SPMTW,11.2,C*38
$GPRMC,210037.4,A,4741.19665,N,12224.23954,W,000.01,139.9,141213,016.6,E,D*22
$PGRME,2.4,M,2.4,M,3.4,M*29
$SPVHW,,,,,0.00,N,,*30
$SPA,05E
$HCHDG,283.2,0.0,E,,*22
$YXXDR,A,5.4,D,PTCH,A,4.5,D,ROLL*5D
$HCHDG,283.2,0.0,E,,*22
$GPRMC,210037.6,A,4741.19665,N,12224.23953,W,000.01,139.9,141213,016.6,E,D*27
$PGRME,2.4,M,2.4,M,3.4,M*29
$SPVHW,,,,,0.00,N,,*30
$SPA,05E
$HCHDG,283.2,0.0,E,,*22
$HCHDG,283.1,0.0,E,,*21
$GPRMC,210037.8,A,4741.19665,N,12224.23954,W,000.01,139.9,141213,016.6,E,D*2E
$PGRME,2.4,M,2.4,M,3.4,M*29
$SPVHW,,,,,0.00,N,,*30
$SPA,05E
$HCHDG,283.1,0.0,E,,*21
$HCHDG,283.1,0.0,E,,*21
$GPRMC,210038.0,A,4741.19665,N,12224.23954,W,000.00,139.9,141213,016.6,E,D*28
$YXXDR,A,5.6,D,PTCH,A,5.0,D,ROLL*5B
$PGRME,2.4,M,2.4,M,3.4,M*29
$SPVHW,,,,,0.00,N,,*30
$SPA,05E
$HCHDG,283.0,0.0,E,,*20
$HCHDG,283.0,0.0,E,,*20
$GPRMC,210038.2,A,4741.19665,N,12224.23953,W,000.01,139.9,141213,016.6,E,D*2C
$GPRMB,A,0.00,L,Shil,Shil,4741.0830,N,12224.5670,W,0.2,243,-0.00,V*2E
$PGRME,2.4,M,2.4,M,3.4,M*29
$SPVHW,,,,,0.00,N,,*30
$SPA,05E
$HCHDG,282.9,0.0,E,,*28
$SPP,04F
$HCHDG,282.7,0.0,E,,*26
1.74
$SPMTW,11.2,C*38
$SPVHW,,,,,0.00,N,,*30
$SPA,05E
$GPRMC,210038.4,A,4741.19665,N,12224.23953,W,000.01,139.9,141213,016.6,E,D*2A
$PGRME,2.4,M,2.4,M,3.4,M*29
$HCHDG,282.8,0.0,E,,*29
$YXXDR,A,5.5,D,PTCH,A,5.1,D,ROLL*59
$PTAK,FFD1,5.1*51
$HCHDG,282.8,0.0,E,,*29
$GPRMC,210038.6,A,4741.19665,N,12224.23953,W,000.00,139.9,141213,016.6,E,D*29
$SPVHW,,,,,0.00,N,,*30
$SPA,05E
$PGRME,2.4,M,2.4,M,3.4,M*29
$HCHDG,282.7,0.0,E,,*26
$HCHDG,282.7,0.0,E,,*26
$GPRMC,210038.8,A,4741.19665,N,12224.23953,W,000.01,139.9,141213,016.6,E,D*26
$SPVHW,,,,,0.00,N,,*30
$SPA,05E
$PGRME,2.4,M,2.4,M,3.4,M*29
$HCHDG,282.6,0.0,E,,*27
$HCHDG,282.6,0.0,E,,*27
$GPRMC,210039.0,A,4741.19664,N,12224.23953,W,000.01,139.9,141213,016.6,E,D*2E
$YXXDR,A,5.3,D,PTCH,A,6.4,D,ROLL*59
$PGRME,2.4,M,2.4,M,3.4,M*29
$SPVHW,,,,,0.00,N,,*30
$SPA,05E
$HCHDG,282.6,0.0,E,,*27
$HCHDG,282.6,0.0,E,,*27
$GPRMC,210039.2,A,4741.19664,N,12224.23954,W,000.01,139.9,141213,016.6,E,D*2B
$PGRME,2.4,M,2.4,M,3.4,M*29
$SPVHW,,,,,0.00,N,,*30
$SPA,05E
$HCHDG,282.5,0.0,E,,*24
$SPP,04F
$HCHDG,282.6,0.0,E,,*27
1.74
$SPMTW,11.2,C*38
$GPRMC,210039.4,A,4741.19664,N,12224.23954,W,000.01,139.9,141213,016.6,E,D*2D
$GPRMB,A,0.00,L,Shil,Shil,4741.0830,N,12224.5670,W,0.2,243,-0.00,V*2E
$SPVHW,,,,,0.00,N,,*30
$SPA,05E
$PGRME,2.4,M,2.4,M,3.4,M*29
$HCHDG,282.5,0.0,E,,*24
$YXXDR,A,5.3,D,PTCH,A,6.0,D,ROLL*5D
$PTAK,FFD1,6.0*53
$HCHDG,282.5,0.0,E,,*24
$GPRMC,210039.6,A,4741.19664,N,12224.23954,W,000.00,139.9,141213,016.6,E,D*2E
$PGRME,2.4,M,2.4,M,3.4,M*29
$SPVHW,,,,,0.00,N,,*30
$SPA,05E
$HCHDG,282.3,0.0,E,,*22
$HCHDG,282.3,0.0,E,,*22
$GPRMC,210039.8,A,4741.19665,N,12224.23954,W,000.01,139.9,141213,016.6,E,D*20
$PGRME,2.4,M,2.4,M,3.4,M*29
$SPVHW,,,,,0.00,N,,*30
$SPA,05E
$HCHDG,282.3,0.0,E,,*22
$HCHDG,282.3,0.0,E,,*22
$GPRMC,210040.0,A,4741.19665,N,12224.23954,W,000.01,139.9,141213,016.6,E,D*26
$YXXDR,A,5.4,D,PTCH,A,5.4,D,ROLL*5D
$PGRME,2.4,M,2.4,M,3.4,M*29
$SPVHW,,,,,0.00,N,,*30
$SPA,05E
$HCHDG,282.2,0.0,E,,*23
$HCHDG,282.2,0.0,E,,*23
$GPRMC,210040.2,A,4741.19665,N,12224.23954,W,000.00,139.9,141213,016.6,E,D*25
$PGRME,2.4,M,2.4,M,3.4,M*29
$SPVHW,,,,,0.00,N,,*30
$SPA,05E
$SPP,04F
$HCHDG,282.2,0.0,E,,*23
$HCHDG,282.1,0.0,E,,*20
1.73
$SPMTW,11.1,C*3B
$GPRMC,210040.4,A,4741.19665,N,12224.23955,W,000.00,139.9,141213,016.6,E,D*22
$PGRME,2.4,M,2.4,M,3.4,M*29
$SPVHW,,,,,0.00,N,,*30
$SPA,05E
$HCHDG,282.0,0.0,E,,*21
$YXXDR,A,5.6,D,PTCH,A,5.1,D,ROLL*5A
$HCHDG,281.9,0.0,E,,*2B
$PTAK,FFP1,HEEL,@*07
$GPRMC,210040.6,A,4741.19665,N,12224.23955,W,000.00,139.9,141213,016.6,E,D*20
$GPRMB,A,0.00,L,Shil,Shil,4741.0830,N,12224.5670,W,0.2,243,-0.00,V*2E
$PGRME,2.4,M,2.4,M,3.4,M*29
$SPVHW,,,,,0.00,N,,*30
$SPA,05E
$HCHDG,281.8,0.0,E,,*2A
$HCHDG,281.9,0.0,E,,*2B
$GPRMC,210040.8,A,4741.19665,N,12224.23955,W,000.00,139.9,141213,016.6,E,D*2E
$PGRME,2.4,M,2.4,M,3.4,M*29
$SPVHW,,,,,0.00,N,,*30
$SPA,05E
$HCHDG,281.8,0.0,E,,*2A
$HCHDG,281.7,0.0,E,,*25
$GPRMC,210041.0,A,4741.19665,N,12224.23956,W,000.01,139.9,141213,016.6,E,D*25
$YXXDR,A,5.5,D,PTCH,A,5.0,D,ROLL*58
$PTAK,FFD1,5.0*50
$PGRME,2.4,M,2.4,M,3.4,M*29
$SPVHW,,,,,0.00,N,,*30
$SPA,05E
$HCHDG,281.7,0.0,E,,*25
$HCHDG,281.5,0.0,E,,*27
$GPRMC,210041.2,A,4741.19665,N,12224.23956,W,000.00,139.9,141213,016.6,E,D*26
$PGRME,2.4,M,2.4,M,3.4,M*29
$SPVHW,,,,,0.00,N,,*30
$SPA,05E
$SPP,04F
$HCHDG,281.4,0.0,E,,*26
$HCHDG,281.4,0.0,E,,*26
1.74
$SPMTW,11.2,C*38
$GPRMC,210041.4,A,4741.19666,N,12224.23956,W,000.00,139.9,141213,016.6,E,D*23
$SPVHW,,,,,0.00,N,,*30
$SPA,05E
$PGRME,2.4,M,2.4,M,3.4,M*29
$HCHDG,281.3,0.0,E,,*21
$YXXDR,A,5.4,D,PTCH,A,5.1,D,ROLL*58
$HCHDG,281.4,0.0,E,,*26
$GPRMC,210041.6,A,4741.19666,N,12224.23956,W,000.00,139.9,141213,016.6,E,D*21
$PGRME,2.4,M,2.4,M,3.4,M*29
$SPVHW,,,,,0.00,N,,*30
$SPA,05E
$HCHDG,281.3,0.0,E,,*21
$HCHDG,281.2,0.0,E,,*20
$GPRMC,210041.8,A,4741.19666,N,12224.23956,W,000.00,139.9,141213,016.6,E,D*2F
$GPRMB,A,0.00,L,Shil,Shil,4741.0830,N,12224.5670,W,0.2,243,-0.00,V*2E
$PGRME,2.4,M,2.4,M,3.4,M*29
$SPVHW,,,,,0.00,N,,*30
$SPA,05E
$HCHDG,281.1,0.0,E,,*23
$HCHDG,281.1,0.0,E,,*23
$GPRMC,210042.0,A,4741.19666,N,12224.23956,W,000.00,139.9,141213,016.6,E,D*24
$YXXDR,A,5.4,D,PTCH,A,5.4,D,ROLL*5D
$PTAK,FFD1,5.4*54
$PGRME,2.4,M,2.4,M,3.4,M*29
$SPVHW,,,,,0.00,N,,*30
$SPA,05E
$HCHDG,281.1,0.0,E,,*23
$HCHDG,281.1,0.0,E,,*23
$GPRMC,210042.2,A,4741.19665,N,12224.23956,W,000.01,139.9,141213,016.6,E,D*24
$PGRME,2.4,M,2.4,M,3.4,M*29
$SPVHW,,,,,0.00,N,,*30
$SPA,05E
$SPP,04F
$HCHDG,281.0,0.0,E,,*22
$HCHDG,281.0,0.0,E,,*22
1.73
$SPMTW,11.1,C*3B
$GPRMC,210042.4,A,4741.19665,N,12224.23956,W,000.01,139.9,141213,016.6,E,D*22
$PGRME,2.4,M,2.4,M,3.4,M*29
$SPVHW,,,,,0.00,N,,*30
$SPA,05E
$HCHDG,280.9,0.0,E,,*2A
$YXXDR,A,5.5,D,PTCH,A,6.1,D,ROLL*5A
$HCHDG,281.0,0.0,E,,*22
$GPRMC,210042.6,A,4741.19665,N,12224.23956,W,000.01,139.9,141213,016.6,E,D*20
$PGRME,2.4,M,2.4,M,3.4,M*29
$SPVHW,,,,,0.00,N,,*30
$SPA,05E
$HCHDG,280.9,0.0,E,,*2A
$HCHDG,280.9,0.0,E,,*2A
$GPRMC,210042.8,A,4741.19665,N,12224.23957,W,000.01,139.9,141213,016.6,E,D*2F
$PGRME,2.4,M,2.4,M,3.4,M*29
$SPVHW,,,,,0.00,N,,*30
$SPA,05E
$HCHDG,280.9,0.0,E,,*2A
$HCHDG,280.8,0.0,E,,*2B
$GPRMC,210043.0,A,4741.19665,N,12224.23956,W,000.01,139.9,141213,016.6,E,D*27
$GPRMB,A,0.00,L,Shil,Shil,4741.0830,N,12224.5670,W,0.2,243,-0.00,V*2E
$YXXDR,A,5.6,D,PTCH,A,6.2,D,ROLL*5A
$PTAK,FFD1,6.2*51
$PGRME,2.4,M,2.4,M,3.4,M*29
$SPVHW,,,,,0.00,N,,*30
$SPA,05E
$HCHDG,280.8,0.0,E,,*2B
$HCHDG,280.7,0.0,E,,*24
$GPRMC,210043.2,A,4741.19665,N,12224.23956,W,000.01,139.9,141213,016.6,E,D*25
$PGRME,2.4,M,2.4,M,3.4,M*29
$SPVHW,,,,,0.00,N,,*30
$SPA,05E
$SPP,04F
$HCHDG,280.7,0.0,E,,*24
$HCHDG,280.7,0.0,E,,*24
1.74
$SPMTW,11.2,C*38
$GPRMC,210043.4,A,4741.19665,N,12224.23956,W,000.01,139.9,141213,016.6,E,D*23
$PGRME,2.4,M,2.4,M,3.4,M*29
$SPVHW,,,,,0.00,N,,*30
$SPA,05E
$HCHDG,280.7,0.0,E,,*24
$YXXDR,A,5.6,D,PTCH,A,6.1,D,ROLL*59
$HCHDG,280.7,0.0,E,,*24
$GPRMC,210043.6,A,4741.19665,N,12224.23956,W,000.01,139.9,141213,016.6,E,D*21
$PGRME,2.4,M,2.4,M,3.4,M*29
$SPVHW,,,,,0.00,N,,*30
$SPA,05E
$HCHDG,280.6,0.0,E,,*25
$HCHDG,280.6,0.0,E,,*25
$GPRMC,210043.8,A,4741.19665,N,12224.23956,W,000.01,139.9,141213,016.6,E,D*2F
$PGRME,2.4,M,2.4,M,3.4,M*29
$SPVHW,,,,,0.00,N,,*30
$SPA,05E
$HCHDG,280.5,0.0,E,,*26
$HCHDG,280.4,0.0,E,,*27
$GPRMC,210044.0,A,4741.19665,N,12224.23956,W,000.01,139.9,141213,016.6,E,D*20
$YXXDR,A,5.5,D,PTCH,A,5.7,D,ROLL*5F
$PGRME,2.4,M,2.4,M,3.4,M*29
$SPVHW,,,,,0.00,N,,*30
$SPA,05E
$PGRMT,GPS 18x-5Hz software ver. 3.20,,,,,,,,*30
$HCHDG,280.4,0.0,E,,*27
$HCHDG,280.4,0.0,E,,*27
$GPRMC,210044.2,A,4741.19665,N,12224.23956,W,000.01,139.9,141213,016.6,E,D*22
$GPRMB,A,0.00,L,Shil,Shil,4741.0830,N,12224.5670,W,0.2,243,-0.00,V*2E
$PGRME,2.4,M,2.4,M,3.4,M*29
$SPVHW,,,,,0.00,N,,*30
$SPA,05E
$SPP,04F
$HCHDG,280.3,0.0,E,,*20
$HCHDG,280.3,0.0,E,,*20
1.74
$SPMTW,11.2,C*38
$GPRMC,210044.4,A,4741.19665,N,12224.23956,W,000.01,139.9,141213,016.6,E,D*24
$SPVHW,,,,,0.00,N,,*30
$SPA,05E
$PGRME,2.4,M,2.4,M,3.4,M*29
$HCHDG,280.1,0.0,E,,*22
$YXXDR,A,5.5,D,PTCH,A,5.8,D,ROLL*50
$PTAK,FFD1,5.8*58
$HCHDG,280.1,0.0,E,,*22
$PTAK,FFP1,HEEL,@*07
$GPRMC,210044.6,A,4741.19665,N,12224.23956,W,000.01,139.9,141213,016.6,E,D*26
$PGRME,2.4,M,2.4,M,3.4,M*29
$SPVHW,,,,,0.00,N,,*30
$SPA,05E
$HCHDG,280.2,0.0,E,,*21
$HCHDG,280.1,0.0,E,,*22
$GPRMC,210044.8,A,4741.19665,N,12224.23956,W,000.01,139.9,141213,016.6,E,D*28
$PGRME,2.4,M,2.4,M,3.4,M*29
$SPVHW,,,,,0.00,N,,*30
$SPA,05E
$HCHDG,280.1,0.0,E,,*22
$HCHDG,280.0,0.0,E,,*23
$GPRMC,210045.0,A,4741.19665,N,12224.23956,W,000.01,139.9,141213,016.6,E,D*21
$YXXDR,A,5.6,D,PTCH,A,5.5,D,ROLL*5E
$PGRME,2.4,M,2.4,M,3.4,M*29
$SPVHW,,,,,0.00,N,,*30
$SPA,05E
$HCHDG,280.0,0.0,E,,*23
$HCHDG,279.9,0.0,E,,*2C
$GPRMC,210045.2,A,4741.19665,N,12224.23956,W,000.01,139.9,141213,016.6,E,D*23
$PGRME,2.4,M,2.4,M,3.4,M*29
$SPVHW,,,,,0.00,N,,*30
$SPA,05E
$SPP,04F
$HCHDG,279.9,0.0,E,,*2C
$HCHDG,279.8,0.0,E,,*2D
1.73
$SPMTW,11.1,C*3B
$GPRMC,210045.4,A,4741.19665,N,12224.23956,W,000.01,139.9,141213,016.6,E,D*25
$GPRMB,A,0.00,L,Shil,Shil,4741.0830,N,12224.5670,W,0.2,243,-0.00,V*2E
$PGRME,2.4,M,2.4,M,3.4,M*29
$SPVHW,,,,,0.00,N,,*30
$SPA,05E
$HCHDG,279.7,0.0,E,,*22
$YXXDR,A,5.4,D,PTCH,A,5.1,D,ROLL*58
$PTAK,FFD1,5.1*51
$HCHDG,279.7,0.0,E,,*22
$GPRMC,210045.6,A,4741.19665,N,12224.23956,W,000.01,139.9,141213,016.6,E,D*27
$PGRME,2.4,M,2.4,M,3.4,M*29
$SPVHW,,,,,0.00,N,,*30
$SPA,05E
$HCHDG,279.7,0.0,E,,*22
$HCHDG,279.7,0.0,E,,*22
$GPRMC,210045.8,A,4741.19665,N,12224.23956,W,000.01,139.9,141213,016.6,E,D*29
$PGRME,2.4,M,2.4,M,3.4,M*29
$SPVHW,,,,,0.00,N,,*30
$SPA,05E
$HCHDG,279.6,0.0,E,,*23
$HCHDG,279.6,0.0,E,,*23
$GPRMC,210046.0,A,4741.19665,N,12224.23956,W,000.01,139.9,141213,016.6,E,D*22
$YXXDR,A,5.5,D,PTCH,A,5.1,D,ROLL*59
$PGRME,2.4,M,2.4,M,3.4,M*29
$SPVHW,,,,,0.00,N,,*30
$SPA,05E
$HCHDG,279.5,0.0,E,,*20
$HCHDG,279.5,0.0,E,,*20
$GPRMC,210046.2,A,4741.19665,N,12224.23957,W,000.02,139.9,141213,016.6,E,D*22
$PGRME,2.4,M,2.4,M,3.4,M*29
$SPVHW,,,,,0.00,N,,*30
$SPA,05E
$SPP,04F
$HCHDG,279.5,0.0,E,,*20
$HCHDG,279.5,0.0,E,,*20
1.74
$SPMTW,11.2,C*38
$GPRMC,210046.4,A,4741.19665,N,12224.23957,W,000.01,139.9,141213,016.6,E,D*27
$PGRME,2.4,M,2.4,M,3.4,M*29
$SPVHW,,,,,0.00,N,,*30
$SPA,05E
$HCHDG,279.5,0.0,E,,*20
$YXXDR,A,5.4,D,PTCH,A,4.4,D,ROLL*5C
$HCHDG,279.4,0.0,E,,*21
$GPRMC,210046.6,A,4741.19665,N,12224.23957,W,000.01,139.9,141213,016.6,E,D*25
$GPRMB,A,0.00,L,Shil,Shil,4741.0830,N,12224.5670,W,0.2,243,-0.00,V*2E
$PGRME,2.4,M,2.4,M,3.4,M*29
$SPVHW,,,,,0.00,N,,*30
$SPA,05E
$HCHDG,279.4,0.0,E,,*21
$HCHDG,279.4,0.0,E,,*21
$GPRMC,210046.8,A,4741.19665,N,12224.23957,W,000.01,139.9,141213,016.6,E,D*2B
$SPVHW,,,,,0.00,N,,*30
$SPA,05E
$PGRME,2.4,M,2.4,M,3.4,M*29
$HCHDG,279.3,0.0,E,,*26
$HCHDG,279.2,0.0,E,,*27
$GPRMC,210047.0,A,4741.19665,N,12224.23957,W,000.02,139.9,141213,016.6,E,D*21
$SPVHW,,,,,0.00,N,,*30
$SPA,05E
$YXXDR,A,5.3,D,PTCH,A,5.0,D,ROLL*5E
$PTAK,FFD1,5.0*50
$PGRME,2.4,M,2.4,M,3.4,M*29
$HCHDG,279.1,0.0,E,,*24
$HCHDG,279.1,0.0,E,,*24
$GPRMC,210047.2,A,4741.19665,N,12224.23957,W,000.01,139.9,141213,016.6,E,D*20
$SPVHW,,,,,0.00,N,,*30
$SPA,05E
$PGRME,2.4,M,2.4,M,3.4,M*29
$SPP,04F
$HCHDG,279.2,0.0,E,,*27
$HCHDG,279.1,0.0,E,,*24
1.74
$SPMTW,11.2,C*38
$GPRMC,210047.4,A,4741.19665,N,12224.23957,W,000.02,139.9,141213,016.6,E,D*25
$SPVHW,,,,,0.00,N,,*30
$SPA,05E
$PGRME,2.4,M,2.4,M,3.4,M*29
$HCHDG,279.1,0.0,E,,*24
$YXXDR,A,5.6,D,PTCH,A,4.4,D,ROLL*5E
$HCHDG,279.0,0.0,E,,*25
$GPRMC,210047.6,A,4741.19665,N,12224.23957,W,000.02,139.9,141213,016.6,E,D*27
$GPRMB,A,0.00,L,Shil,Shil,4741.0830,N,12224.5670,W,0.2,243,-0.00,V*2E
$SPVHW,,,,,0.00,N,,*30
$SPA,05E
$PGRME,2.4,M,2.4,M,3.4,M*29
$HCHDG,279.0,0.0,E,,*25
$HCHDG,279.0,0.0,E,,*25
$GPRMC,210047.8,A,4741.19665,N,12224.23957,W,000.02,139.9,141213,016.6,E,D*29
$SPVHW,,,,,0.00,N,,*30
$SPA,05E
$PGRME,2.4,M,2.4,M,3.4,M*29
$HCHDG,278.9,0.0,E,,*2D
$HCHDG,278.9,0.0,E,,*2D
$GPRMC,210048.0,A,4741.19665,N,12224.23957,W,000.01,139.9,141213,016.6,E,D*2D
$SPVHW,,,,,0.00,N,,*30
$SPA,05E
$PGRME,2.4,M,2.4,M,3.4,M*29
$YXXDR,A,5.5,D,PTCH,A,4.0,D,ROLL*59
$PTAK,FFD1,4.0*51
$HCHDG,278.8,0.0,E,,*2C
$HCHDG,278.7,0.0,E,,*23
$GPRMC,210048.2,A,4741.19665,N,12224.23957,W,000.01,139.9,141213,016.6,E,D*2F
$SPVHW,,,,,0.00,N,,*30
$SPA,05E
$PGRME,2.4,M,2.4,M,3.4,M*29
$SPP,04F
$HCHDG,278.7,0.0,E,,*23
$HCHDG,278.6,0.0,E,,*22
1.74
$SPMTW,11.2,C*38
$GPRMC,210048.4,A,4741.19665,N,12224.23957,W,000.01,139.9,141213,016.6,E,D*29
$SPVHW,,,,,0.00,N,,*30
$SPA,05E
$PGRME,2.4,M,2.4,M,3.4,M*29
$HCHDG,278.6,0.0,E,,*22
$YXXDR,A,5.4,D,PTCH,A,3.6,D,ROLL*59
$HCHDG,278.5,0.0,E,,*21
$PTAK,FFP1,HEEL,@*07
$GPRMC,210048.6,A,4741.19665,N,12224.23957,W,000.00,139.9,141213,016.6,E,D*2A
$GPRMB,A,0.00,L,Shil,Shil,4741.0830,N,12224.5670,W,0.2,243,-0.00,V*2E
$SPVHW,,,,,0.00,N,,*30
$SPA,05E
$PGRME,2.4,M,2.4,M,3.4,M*29
$HCHDG,278.5,0.0,E,,*21
$HCHDG,278.5,0.0,E,,*21
$GPRMC,210048.8,A,4741.19665,N,12224.23957,W,000.00,139.9,141213,016.6,E,D*24
$SPVHW,,,,,0.00,N,,*30
$SPA,05E
$PGRME,2.4,M,2.4,M,3.4,M*29
$HCHDG,278.4,0.0,E,,*20
$HCHDG,278.4,0.0,E,,*20
$GPRMC,210049.0,A,4741.19665,N,12224.23956,W,000.00,139.9,141213,016.6,E,D*2C
$SPVHW,,,,,0.00,N,,*30
$SPA,05E
$PGRME,2.4,M,2.4,M,3.4,M*29
$YXXDR,A,5.5,D,PTCH,A,3.1,D,ROLL*5F
$HCHDG,278.4,0.0,E,,*20
$HCHDG,278.4,0.0,E,,*20
$GPRMC,210049.2,A,4741.19665,N,12224.23956,W,000.01,139.9,141213,016.6,E,D*2F
$SPVHW,,,,,0.00,N,,*30
$SPA,05E
$PGRME,2.4,M,2.4,M,3.4,M*29
$SPP,04F
$HCHDG,278.4,0.0,E,,*20
$HCHDG,278.3,0.0,E,,*27
1.74
$SPMTW,11.3,C*39
$GPRMC,210049.4,A,4741.19665,N,12224.23956,W,000.01,139.9,141213,016.6,E,D*29
$SPVHW,,,,,0.00,N,,*30
$SPA,05E
$PGRME,2.4,M,2.4,M,3.4,M*29
$HCHDG,278.3,0.0,E,,*27
$YXXDR,A,5.4,D,PTCH,A,2.3,D,ROLL*5D
$PTAK,FFD1,2.3*54
$HCHDG,278.3,0.0,E,,*27
$GPRMC,210049.6,A,4741.19665,N,12224.23956,W,000.00,139.9,141213,016.6,E,D*2A
$SPVHW,,,,,0.00,N,,*30
$SPA,05E
$PGRME,2.4,M,2.4,M,3.4,M*29
$HCHDG,278.2,0.0,E,,*26
$HCHDG,278.2,0.0,E,,*26
$GPRMC,210049.8,A,4741.19665,N,12224.23956,W,000.00,139.9,141213,016.6,E,D*24
$GPRMB,A,0.00,L,Shil,Shil,4741.0830,N,12224.5670,W,0.2,243,-0.00,V*2E
$SPVHW,,,,,0.00,N,,*30
$SPA,05E
$PGRME,2.4,M,2.4,M,3.4,M*29
$HCHDG,278.2,0.0,E,,*26
$HCHDG,278.1,0.0,E,,*25
$GPRMC,210050.0,A,4741.19665,N,12224.23956,W,000.00,139.9,141213,016.6,E,D*24
$SPVHW,,,,,0.00,N,,*30
$SPA,05E
$PGRME,2.4,M,2.4,M,3.4,M*29
$YXXDR,A,5.4,D,PTCH,A,1.8,D,ROLL*55
$HCHDG,278.1,0.0,E,,*25
$HCHDG,278.2,0.0,E,,*26
$GPRMC,210050.2,A,4741.19665,N,12224.23956,W,000.00,139.9,141213,016.6,E,D*26
$SPVHW,,,,,0.00,N,,*30
$SPA,05E
$PGRME,2.4,M,2.4,M,3.4,M*29
$SPP,04F
$HCHDG,278.1,0.0,E,,*25
$HCHDG,278.1,0.0,E,,*25
1.74
$SPMTW,11.2,C*38
$SPVHW,,,,,0.00,N,,*30
$SPA,05E
$GPRMC,210050.4,A,4741.19665,N,12224.23956,W,000.00,139.9,141213,016.6,E,D*20
$PGRME,2.4,M,2.4,M,3.4,M*29
$HCHDG,278.1,0.0,E,,*25
$YXXDR,A,5.4,D,PTCH,A,2.0,D,ROLL*5E
$PTAK,FFD1,2.0*57
$HCHDG,278.0,0.0,E,,*24
$GPRMC,210050.6,A,4741.19665,N,12224.23956,W,000.01,139.9,141213,016.6,E,D*23
$SPVHW,,,,,0.00,N,,*30
$SPA,05E
$PGRME,2.4,M,2.4,M,3.4,M*29
$HCHDG,277.9,0.0,E,,*22
$HCHDG,277.9,0.0,E,,*22
$GPRMC,210050.8,A,4741.19665,N,12224.23956,W,000.00,139.9,141213,016.6,E,D*2C
$GPRMB,A,0.00,L,Shil,Shil,4741.0830,N,12224.5670,W,0.2,243,-0.00,V*2E
$PGRME,2.4,M,2.4,M,3.4,M*29
$SPVHW,,,,,0.00,N,,*30
$SPA,05E
$HCHDG,278.0,0.0,E,,*24
$HCHDG,278.1,0.0,E,,*25
$GPRMC,210051.0,A,4741.19665,N,12224.23956,W,000.01,139.9,141213,016.6,E,D*24
$YXXDR,A,5.5,D,PTCH,A,2.7,D,ROLL*58
$PGRME,2.4,M,2.4,M,3.4,M*29
$SPVHW,,,,,0.00,N,,*30
$SPA,05E
$HCHDG,278.1,0.0,E,,*25
$HCHDG,278.2,0.0,E,,*26
$GPRMC,210051.2,A,4741.19666,N,12224.23956,W,000.01,139.9,141213,016.6,E,D*25
$PGRME,2.4,M,2.4,M,3.4,M*29
$SPVHW,,,,,0.00,N,,*30
$SPA,05E
$SPP,04F
$HCHDG,278.2,0.0,E,,*26
$HCHDG,278.3,0.0,E,,*27
1.74
$SPMTW,11.2,C*38
$SPVHW,,,,,0.00,N,,*30
$SPA,05E
$GPRMC,210051.4,A,4741.19666,N,12224.23955,W,000.01,139.9,141213,016.6,E,D*20
$PGRME,2.4,M,2.4,M,3.4,M*29
$HCHDG,278.3,0.0,E,,*27
$YXXDR,A,5.4,D,PTCH,A,3.7,D,ROLL*58
$HCHDG,278.1,0.0,E,,*25
$GPRMC,210051.6,A,4741.19666,N,12224.23955,W,000.01,139.9,141213,016.6,E,D*22
$PGRME,2.4,M,2.4,M,3.4,M*29
$SPVHW,,,,,0.00,N,,*30
$SPA,05E
$HCHDG,278.2,0.0,E,,*26
$HCHDG,278.4,0.0,E,,*20
$GPRMC,210051.8,A,4741.19666,N,12224.23956,W,000.01,139.9,141213,016.6,E,D*2F
$PGRME,2.4,M,2.4,M,3.4,M*29
$SPVHW,,,,,0.00,N,,*30
$SPA,05E
$HCHDG,278.3,0.0,E,,*27
$HCHDG,278.3,0.0,E,,*27
$GPRMC,210052.0,A,4741.19666,N,12224.23956,W,000.00,139.9,141213,016.6,E,D*25
$GPRMB,A,0.00,L,Shil,Shil,4741.0830,N,12224.5670,W,0.2,243,-0.00,V*2E
$YXXDR,A,5.6,D,PTCH,A,4.0,D,ROLL*5A
$PTAK,FFD1,4.0*51
$PGRME,2.4,M,2.4,M,3.4,M*29
$SPVHW,,,,,0.00,N,,*30
$SPA,05E
$HCHDG,278.3,0.0,E,,*27
$HCHDG,278.3,0.0,E,,*27
$GPRMC,210052.2,A,4741.19666,N,12224.23956,W,000.01,139.9,141213,016.6,E,D*26
$PGRME,2.4,M,2.4,M,3.4,M*29
$SPP,04F
$SPVHW,,,,,0.00,N,,*30
$SPA,05E
$HCHDG,278.4,0.0,E,,*20
$HCHDG,278.4,0.0,E,,*20
1.74
$SPMTW,11.3,C*39
$GPRMC,210052.4,A,4741.19666,N,12224.23956,W,000.01,139.9,141213,016.6,E,D*20
$SPVHW,,,,,0.00,N,,*30
$SPA,05E
$PGRME,2.4,M,2.4,M,3.4,M*29
$HCHDG,278.3,0.0,E,,*27
$YXXDR,A,5.4,D,PTCH,A,4.4,D,ROLL*5C
$HCHDG,278.4,0.0,E,,*20
$GPRMC,210052.6,A,4741.19667,N,12224.23957,W,000.01,139.9,141213,016.6,E,D*22
$PTAK,FFP1,HEEL,@*07
$PGRME,2.4,M,2.4,M,3.5,M*28
$SPVHW,,,,,0.00,N,,*30
$SPA,05E
$HCHDG,278.4,0.0,E,,*20
$HCHDG,278.4,0.0,E,,*20
$GPRMC,210052.8,A,4741.19667,N,12224.23957,W,000.01,139.9,141213,016.6,E,D*2C
$PGRME,2.4,M,2.4,M,3.4,M*29
