$GPRMB,A,3.34,L,,Lac,4823.3220,N,12229.7720,W,42.1,355,-0.67,V*5E
$SPVHW,,,,,0.00,N,,*1A
$PGRME,2.4,M,2.4,M,3.4,M*29
$HCHDG,69.9,0.0,E,,*1F
$PTAK,FFP1,HEEL,@*07
$IIMWV,029,R,13.3,N,A*19
$HCHDG,69.9,0.0,E,,*1F
$IIMWV,029,T,13.4,N,A*18
$GPRMC,220001.0,A,4741.39268,N,12224.74507,W,004.19,096.0,010314,016.6,E,D*20
$SPVHW,,,,,0.98,N,,*1B
$PGRME,2.4,M,2.4,M,3.4,M*29
$HCHDG,70.0,0.0,E,,*1E
$HCHDG,69.9,0.0,E,,*1F
$GPRMC,220001.2,A,4741.39265,N,12224.74464,W,004.12,095.7,010314,016.6,E,D*24
$SPVHW,,,,,1.84,N,,*17
$PGRME,2.4,M,2.4,M,3.4,M*29
$YXXDR,A,5.1,D,PTCH,A,-11.0,D,ROLL*44
$PTAK,FFD1,11.0*65
$HCHDG,70.0,0.0,E,,*1E
$HCHDG,70.0,0.0,E,,*1E
$GPRMC,220001.4,A,4741.39263,N,12224.74422,W,003.96,095.8,010314,016.6,E,D*22
$SPVHW,,,,,2.36,N,,*1D
$PGRME,2.4,M,2.4,M,3.4,M*29
$HCHDG,70.1,0.0,E,,*1F
$HCHDG,70.1,0.0,E,,*1F
$GPRMC,220001.6,A,4741.39259,N,12224.74385,W,004.16,097.4,010314,016.6,E,D*22
$SPVHW,,,,,3.15,N,,*1D
$PGRME,2.4,M,2.4,M,3.4,M*29
$HCHDG,70.2,0.0,E,,*1C
$IIVLW,06480,N,000.0,N*59
$YXXDR,A,5.5,D,PTCH,A,-11.2,D,ROLL*42
$IIVWR,029,R,13.0,N,,,,*68
$HCHDG,70.1,0.0,E,,*1F
$GPRMC,220001.8,A,4741.39251,N,12224.74340,W,004.14,095.9,010314,016.6,E,D*20
$GPRMB,A,3.34,L,,Lac,4823.3220,N,12229.7720,W,42.1,355,-0.75,V*5D
$SPVHW,,,,,3.30,N,,*1A
$PGRME,2.4,M,2.4,M,3.4,M*29
$IIDPT,070.0,-1.0,*47
$HCHDG,70.1,0.0,E,,*1F
$HCHDG,70.2,0.0,E,,*1C
$IIMWV,029,R,13.0,N,A*1A
$GPRMC,220002.0,A,4741.39243,N,12224.74308,W,004.18,098.8,010314,016.6,E,D*24
$SPVHW,,,,,3.28,N,,*13
$PGRME,2.4,M,2.4,M,3.4,M*29
$IIMWV,029,T,13.3,N,A*1F
$HCHDG,70.2,0.0,E,,*1C
$HCHDG,70.3,0.0,E,,*1D
$GPRMC,220002.2,A,4741.39234,N,12224.74274,W,004.12,097.7,010314,016.6,E,D*26
$SPVHW,,,,,3.25,N,,*1E
$PGRME,2.4,M,2.4,M,3.4,M*29
$YXXDR,A,5.1,D,PTCH,A,-11.1,D,ROLL*45
$HCHDG,70.3,0.0,E,,*1D
$HCHDG,70.4,0.0,E,,*1A
$GPRMC,220002.4,A,4741.39229,N,12224.74240,W,004.16,099.1,010314,016.6,E,D*27
$PGRME,2.4,M,2.4,M,3.4,M*29
$SPVHW,,,,,3.28,N,,*13
$HCHDG,70.3,0.0,E,,*1D
$HCHDG,70.3,0.0,E,,*1D
$GPRMC,220002.6,A,4741.39231,N,12224.74213,W,004.15,100.7,010314,016.6,E,D*2E
$SPVHW,,,,,3.31,N,,*1B
$PGRME,2.4,M,2.4,M,3.4,M*29
$HCHDG,70.5,0.0,E,,*1B
$YXXDR,A,5.1,D,PTCH,A,-10.6,D,ROLL*43
$PTAK,FFD1,10.6*62
$IIVLW,06480,N,000.0,N*59
$HCHDG,70.5,0.0,E,,*1B
$GPRMC,220002.8,A,4741.39233,N,12224.74176,W,004.13,098.0,010314,016.6,E,D*23
$SPVHW,,,,,3.35,N,,*1F
$PGRME,2.4,M,2.4,M,3.4,M*29
$IIVWR,029,R,12.8,N,,,,*61
$HCHDG,70.3,0.0,E,,*1D
$IIDPT,070.1,-1.0,*46
$HCHDG,70.4,0.0,E,,*1A
$GPRMC,220003.0,A,4741.39230,N,12224.74152,W,004.13,098.0,010314,016.6,E,D*2F
$GPRMB,A,3.34,L,,Lac,4823.3220,N,12229.7720,W,42.1,355,-0.90,V*56
$SPVHW,,,,,3.39,N,,*13
$PGRME,2.4,M,2.4,M,3.4,M*29
$IIMWV,029,R,12.8,N,A*13
$HCHDG,70.7,0.0,E,,*19
$IIMWV,029,T,13.0,N,A*1C
$HCHDG,70.7,0.0,E,,*19
$GPRMC,220003.2,A,4741.39234,N,12224.74125,W,004.12,094.2,010314,016.6,E,D*26
$SPVHW,,,,,3.40,N,,*1D
$PGRME,2.4,M,2.4,M,3.4,M*29
$YXXDR,A,5.2,D,PTCH,A,-9.5,D,ROLL*7B
$HCHDG,70.7,0.0,E,,*19
$HCHDG,71.0,0.0,E,,*1F
$GPRMC,220003.4,A,4741.39237,N,12224.74098,W,003.90,092.3,010314,016.6,E,D*2E
$SPVHW,,,,,3.41,N,,*1C
$PGRME,2.4,M,2.4,M,3.4,M*29
$HCHDG,71.4,0.0,E,,*1B
$HCHDG,71.7,0.0,E,,*18
$GPRMC,220003.6,A,4741.39238,N,12224.74059,W,003.95,089.5,010314,016.6,E,D*27
$SPVHW,,,,,3.47,N,,*1A
$PGRME,2.4,M,2.4,M,3.4,M*29
$HCHDG,71.8,0.0,E,,*17
$YXXDR,A,5.1,D,PTCH,A,-8.1,D,ROLL*7D
$HCHDG,72.0,0.0,E,,*1C
$GPRMC,220003.8,A,4741.39235,N,12224.74021,W,003.95,090.0,010314,016.6,E,D*26
$SPVHW,,,,,3.45,N,,*18
$PGRME,2.4,M,2.4,M,3.4,M*29
$HCHDG,72.1,0.0,E,,*1D
$IIVLW,06480,N,000.0,N*59
$HCHDG,72.2,0.0,E,,*1E
$IIVWR,029,R,12.6,N,,,,*6F
$GPRMC,220004.0,A,4741.39228,N,12224.73993,W,004.01,091.8,010314,016.6,E,D*21
$SPVHW,,,,,3.41,N,,*1C
$PGRME,2.4,M,2.4,M,3.4,M*29
$IIDPT,070.5,-1.0,*42
$HCHDG,72.1,0.0,E,,*1D
$HCHDG,72.2,0.0,E,,*1E
$IIMWV,029,R,12.6,N,A*1D
$GPRMC,220004.2,A,4741.39228,N,12224.73954,W,004.05,092.7,010314,016.6,E,D*20
$GPRMB,A,3.34,L,,Lac,4823.3220,N,12229.7720,W,42.1,355,-0.51,V*5B
$SPVHW,,,,,3.41,N,,*1C
$PGRME,2.4,M,2.4,M,3.4,M*29
$IIMWV,029,T,12.8,N,A*15
$YXXDR,A,5.3,D,PTCH,A,-8.4,D,ROLL*7A
$PTAK,FFD1,8.4*59
$HCHDG,72.4,0.0,E,,*18
$HCHDG,72.5,0.0,E,,*19
$GPRMC,220004.4,A,4741.39224,N,12224.73913,W,004.30,094.6,010314,016.6,E,D*28
$SPVHW,,,,,3.43,N,,*1E
$PGRME,2.4,M,2.4,M,3.4,M*29
$HCHDG,72.5,0.0,E,,*19
$HCHDG,72.8,0.0,E,,*14
$GPRMC,220004.6,A,4741.39223,N,12224.73874,W,004.28,094.4,010314,016.6,E,D*26
$SPVHW,,,,,3.45,N,,*18
$PGRME,2.4,M,2.4,M,3.4,M*29
$HCHDG,72.9,0.0,E,,*15
$YXXDR,A,5.5,D,PTCH,A,-8.6,D,ROLL*7E
$HCHDG,72.9,0.0,E,,*15
$GPRMC,220004.8,A,4741.39220,N,12224.73848,W,004.21,096.0,010314,016.6,E,D*2B
$SPVHW,,,,,3.54,N,,*18
$PGRME,2.4,M,2.4,M,3.4,M*29
$HCHDG,73.1,0.0,E,,*1C
$HCHDG,73.4,0.0,E,,*19
$GPRMC,220005.0,A,4741.39215,N,12224.73816,W,004.27,097.9,010314,016.6,E,D*21
$SPVHW,,,,,3.56,N,,*1A
$PGRME,2.4,M,2.4,M,3.4,M*29
$IIVLW,06480,N,000.0,N*59
$HCHDG,73.6,0.0,E,,*1B
$PTAK,FFP1,HEEL,@*07
$IIVWR,029,R,12.7,N,,,,*6E
$IIDPT,070.8,-1.0,*4F
$HCHDG,73.8,0.0,E,,*15
$GPRMC,220005.2,A,4741.39208,N,12224.73782,W,004.28,098.2,010314,016.6,E,D*26
$PGRME,2.4,M,2.4,M,3.4,M*29
$SPVHW,,,,,3.54,N,,*18
$YXXDR,A,5.6,D,PTCH,A,-8.1,D,ROLL*7A
$IIMWV,029,R,12.7,N,A*1C
$HCHDG,74.1,0.0,E,,*1B
$HCHDG,74.3,0.0,E,,*19
$GPRMC,220005.4,A,4741.39200,N,12224.73747,W,004.25,096.7,010314,016.6,E,D*27
$GPRMB,A,3.35,L,,Lac,4823.3220,N,12229.7720,W,42.1,355,-0.83,V*55
$SPVHW,,,,,3.58,N,,*14
$PGRME,2.4,M,2.4,M,3.4,M*29
$HCHDG,74.6,0.0,E,,*1C
$HCHDG,74.9,0.0,E,,*13
$GPRMC,220005.6,A,4741.39190,N,12224.73709,W,004.26,099.7,010314,016.6,E,D*29
$PGRME,2.4,M,2.4,M,3.4,M*29
$SPVHW,,,,,3.58,N,,*14
$HCHDG,75.1,0.0,E,,*1A
$IIMWV,029,T,12.7,N,A*1A
$YXXDR,A,5.4,D,PTCH,A,-7.0,D,ROLL*76
$PTAK,FFD1,7.0*52
$HCHDG,75.2,0.0,E,,*19
$GPRMC,220005.8,A,4741.39190,N,12224.73682,W,004.23,101.2,010314,016.6,E,D*25
$SPVHW,,,,,3.47,N,,*1A
$PGRME,2.4,M,2.4,M,3.4,M*29
$HCHDG,75.3,0.0,E,,*18
$HCHDG,75.6,0.0,E,,*1D
$GPRMC,220006.0,A,4741.39188,N,12224.73653,W,004.21,101.3,010314,016.6,E,D*28
$SPVHW,,,,,3.44,N,,*19
$PGRME,2.4,M,2.4,M,3.4,M*29
$HCHDG,75.7,0.0,E,,*1C
$IIVLW,06480,N,000.0,N*59
$IIVWR,029,R,12.6,N,,,,*6F
$HCHDG,76.0,0.0,E,,*18
$IIDPT,070.5,-1.0,*42
$GPRMC,220006.2,A,4741.39182,N,12224.73617,W,004.20,103.6,010314,016.6,E,D*26
$PGRME,2.4,M,2.4,M,3.4,M*29
$SPVHW,,,,,3.41,N,,*1C
$YXXDR,A,5.6,D,PTCH,A,-6.4,D,ROLL*71
$HCHDG,76.1,0.0,E,,*19
$HCHDG,76.3,0.0,E,,*1B
$GPRMC,220006.4,A,4741.39176,N,12224.73576,W,004.18,104.8,010314,016.6,E,D*2D
$GPRMB,A,3.35,L,,Lac,4823.3220,N,12229.7720,W,42.1,355,-1.39,V*55
$SPVHW,,,,,3.34,N,,*1E
$PGRME,2.4,M,2.4,M,3.4,M*29
$HCHDG,76.5,0.0,E,,*1D
$HCHDG,76.6,0.0,E,,*1E
$GPRMC,220006.6,A,4741.39170,N,12224.73543,W,004.16,106.4,010314,016.6,E,D*2F
$SPVHW,,,,,3.40,N,,*1D
$PGRME,2.4,M,2.4,M,3.4,M*29
$HCHDG,76.7,0.0,E,,*1F
$IIMWV,028,R,13.0,N,A*1B
$YXXDR,A,5.5,D,PTCH,A,-5.6,D,ROLL*73
$PTAK,FFD1,5.6*56
$IIMWV,029,T,12.6,N,A*1B
$HCHDG,76.9,0.0,E,,*11
$GPRMC,220006.8,A,4741.39159,N,12224.73510,W,004.14,106.7,010314,016.6,E,D*2D
$SPVHW,,,,,3.44,N,,*19
$PGRME,2.4,M,2.4,M,3.4,M*29
$HCHDG,77.0,0.0,E,,*19
$HCHDG,77.1,0.0,E,,*18
$GPRMC,220007.0,A,4741.39150,N,12224.73478,W,004.11,105.4,010314,016.6,E,D*27
$SPVHW,,,,,3.50,N,,*1C
$PGRME,2.4,M,2.4,M,3.4,M*29
$HCHDG,77.2,0.0,E,,*1B
$IIVLW,06480,N,000.0,N*59
$HCHDG,77.4,0.0,E,,*1D
$IIVWR,028,R,13.0,N,,,,*69
$GPRMC,220007.2,A,4741.39142,N,12224.73442,W,004.07,104.3,010314,016.6,E,D*2E
$SPVHW,,,,,3.53,N,,*1F
$PGRME,2.4,M,2.4,M,3.4,M*29
$IIDPT,070.5,-1.0,*42
$YXXDR,A,5.4,D,PTCH,A,-4.0,D,ROLL*75
$HCHDG,77.5,0.0,E,,*1C
$HCHDG,77.5,0.0,E,,*1C
$GPRMC,220007.4,A,4741.39137,N,12224.73407,W,004.07,105.6,010314,016.6,E,D*2F
$SPVHW,,,,,3.54,N,,*18
$PGRME,2.4,M,2.4,M,3.4,M*29
$HCHDG,77.3,0.0,E,,*1A
$HCHDG,77.3,0.0,E,,*1A
$GPRMC,220007.6,A,4741.39136,N,12224.73372,W,004.08,107.0,010314,016.6,E,D*22
$GPRMB,A,3.35,L,,Lac,4823.3220,N,12229.7720,W,42.1,355,-1.50,V*5A
$SPVHW,,,,,3.52,N,,*1E
$PGRME,2.4,M,2.4,M,3.4,M*29
$HCHDG,77.3,0.0,E,,*1A
$YXXDR,A,5.6,D,PTCH,A,-2.7,D,ROLL*76
$PTAK,FFD1,2.7*50
$HCHDG,77.2,0.0,E,,*1B
$GPRMC,220007.8,A,4741.39130,N,12224.73332,W,004.07,106.3,010314,016.6,E,D*23
$SPVHW,,,,,3.50,N,,*1C
$PGRME,2.4,M,2.4,M,3.4,M*29
$IIMWV,027,R,13.4,N,A*10
$HCHDG,77.1,0.0,E,,*18
$IIMWV,028,T,13.0,N,A*1D
$HCHDG,77.0,0.0,E,,*19
$GPRMC,220008.0,A,4741.39116,N,12224.73298,W,004.08,105.5,010314,016.6,E,D*2B
$SPVHW,,,,,3.42,N,,*1F
$PGRME,2.4,M,2.4,M,3.4,M*29
$HCHDG,76.8,0.0,E,,*10
$HCHDG,76.7,0.0,E,,*1F
$GPRMC,220008.2,A,4741.39108,N,12224.73261,W,004.12,107.9,010314,016.6,E,D*25
$SPVHW,,,,,3.36,N,,*1C
$PGRME,2.4,M,2.4,M,3.4,M*29
$IIVLW,06480,N,000.0,N*59
$YXXDR,A,5.6,D,PTCH,A,-2.8,D,ROLL*79
$IIVWR,027,R,13.4,N,,,,*62
$HCHDG,76.6,0.0,E,,*1E
$HCHDG,76.6,0.0,E,,*1E
$GPRMC,220008.4,A,4741.39105,N,12224.73222,W,004.11,106.5,010314,016.6,E,D*27
$SPVHW,,,,,3.30,N,,*1A
$PGRME,2.4,M,2.4,M,3.4,M*29
$HCHDG,76.7,0.0,E,,*1F
$HCHDG,76.5,0.0,E,,*1D
$GPRMC,220008.6,A,4741.39099,N,12224.73186,W,004.12,107.2,010314,016.6,E,D*29
$SPVHW,,,,,3.25,N,,*1E
$PGRME,2.4,M,2.4,M,3.4,M*29
$HCHDG,76.5,0.0,E,,*1D
$IIDPT,069.2,-1.0,*4D
$YXXDR,A,5.6,D,PTCH,A,-2.7,D,ROLL*76
$HCHDG,76.5,0.0,E,,*1D
$GPRMC,220008.8,A,4741.39083,N,12224.73154,W,003.96,104.5,010314,016.6,E,D*2C
$GPRMB,A,3.35,L,,Lac,4823.3220,N,12229.7720,W,42.1,355,-1.29,V*54
$SPVHW,,,,,3.18,N,,*10
$PGRME,2.4,M,2.4,M,3.4,M*29
$HCHDG,76.3,0.0,E,,*1B
$IIMWV,026,R,13.6,N,A*13
$IIMWV,027,T,13.4,N,A*16
$HCHDG,76.4,0.0,E,,*1C
$GPRMC,220009.0,A,4741.39062,N,12224.73123,W,003.97,107.0,010314,016.6,E,D*2D
$SPVHW,,,,,3.22,N,,*19
$PGRME,2.4,M,2.4,M,3.4,M*29
$HCHDG,76.3,0.0,E,,*1B
$PTAK,FFP1,HEEL,@*07
$HCHDG,76.3,0.0,E,,*1B
$GPRMC,220009.2,A,4741.39052,N,12224.73092,W,004.04,105.7,010314,016.6,E,D*2F
$PGRME,2.4,M,2.4,M,3.4,M*29
$SPVHW,,,,,3.24,N,,*1F
$YXXDR,A,5.5,D,PTCH,A,-2.5,D,ROLL*77
$PTAK,FFD1,2.5*52
$IIVLW,06480,N,000.0,N*59
$HCHDG,76.3,0.0,E,,*1B
$HCHDG,76.4,0.0,E,,*1C
$GPRMC,220009.4,A,4741.39050,N,12224.73068,W,003.85,103.5,010314,016.6,E,D*24
$PGRME,2.4,M,2.4,M,3.4,M*29
$SPVHW,,,,,3.19,N,,*11
$HCHDG,76.3,0.0,E,,*1B
$HCHDG,76.5,0.0,E,,*1D
$GPRMC,220009.6,A,4741.39035,N,12224.73036,W,003.86,103.5,010314,016.6,E,D*2D
$PGRME,2.4,M,2.4,M,3.4,M*29
$SPVHW,,,,,3.16,N,,*1E
$HCHDG,76.4,0.0,E,,*1C
$IIVWR,023,R,13.4,N,,,,*66
$YXXDR,A,5.4,D,PTCH,A,-2.5,D,ROLL*76
$IIDPT,069.2,-1.0,*4D
$HCHDG,76.5,0.0,E,,*1D
$GPRMC,220009.8,A,4741.39020,N,12224.73003,W,003.86,101.7,010314,016.6,E,D*21
$PGRME,2.4,M,2.4,M,3.4,M*29
$SPVHW,,,,,3.10,N,,*18
$HCHDG,76.6,0.0,E,,*1E
$IIMWV,023,R,13.4,N,A*14
$HCHDG,76.5,0.0,E,,*1D
$IIMWV,026,T,13.6,N,A*15
$GPRMC,220010.0,A,4741.39015,N,12224.72985,W,003.83,104.9,010314,016.6,E,D*2F
$GPRMB,A,3.35,L,,Lac,4823.3220,N,12229.7720,W,42.1,355,-1.28,V*55
$SPVHW,,,,,3.07,N,,*1E
$PGRME,2.4,M,2.4,M,3.4,M*29
$HCHDG,76.5,0.0,E,,*1D
$HCHDG,76.3,0.0,E,,*1B
$GPRMC,220010.2,A,4741.39019,N,12224.72967,W,003.85,100.9,010314,016.6,E,D*2F
$SPVHW,,,,,3.11,N,,*19
$PGRME,2.4,M,2.4,M,3.4,M*29
$YXXDR,A,5.3,D,PTCH,A,-4.0,D,ROLL*72
$PTAK,FFD1,4.0*51
$HCHDG,76.3,0.0,E,,*1B
$HCHDG,76.1,0.0,E,,*19
$GPRMC,220010.4,A,4741.39017,N,12224.72942,W,003.89,103.1,010314,016.6,E,D*27
$SPVHW,,,,,3.16,N,,*1E
$PGRME,2.4,M,2.4,M,3.4,M*29
$HCHDG,76.0,0.0,E,,*18
$HCHDG,75.7,0.0,E,,*1C
$GPRMC,220010.6,A,4741.39012,N,12224.72904,W,003.89,104.8,010314,016.6,E,D*2C
$SPVHW,,,,,3.27,N,,*1C
$PGRME,2.4,M,2.4,M,3.4,M*29
$HCHDG,75.9,0.0,E,,*12
$IIVLW,06480,N,000.0,N*59
$YXXDR,A,5.4,D,PTCH,A,-4.8,D,ROLL*7D
$HCHDG,75.7,0.0,E,,*1C
$IIVWR,023,R,13.6,N,,,,*64
$GPRMC,220010.8,A,4741.39008,N,12224.72881,W,003.91,105.8,010314,016.6,E,D*2D
$SPVHW,,,,,3.32,N,,*18
$PGRME,2.4,M,2.4,M,3.4,M*29
$IIDPT,069.2,-1.0,*4D
$HCHDG,75.6,0.0,E,,*1D
$HCHDG,75.3,0.0,E,,*18
$IIMWV,023,R,13.6,N,A*16
$GPRMC,220011.0,A,4741.39002,N,12224.72854,W,003.93,104.4,010314,016.6,E,D*29
$GPRMB,A,3.35,L,,Lac,4823.3220,N,12229.7720,W,42.1,355,-1.28,V*55
$SPVHW,,,,,3.27,N,,*1C
$PGRME,2.4,M,2.4,M,3.4,M*29
$IIMWV,023,T,13.4,N,A*12
$HCHDG,75.2,0.0,E,,*19
$HCHDG,75.1,0.0,E,,*1A
$GPRMC,220011.2,A,4741.39002,N,12224.72824,W,003.94,104.6,010314,016.6,E,D*29
$SPVHW,,,,,3.22,N,,*19
$PGRME,2.4,M,2.4,M,3.4,M*29
$YXXDR,A,5.4,D,PTCH,A,-4.7,D,ROLL*72
$HCHDG,75.0,0.0,E,,*1B
$HCHDG,74.9,0.0,E,,*13
$GPRMC,220011.4,A,4741.39002,N,12224.72798,W,003.95,105.2,010314,016.6,E,D*23
$SPVHW,,,,,3.15,N,,*1D
$PGRME,2.4,M,2.4,M,3.4,M*29
$HCHDG,74.7,0.0,E,,*1D
$HCHDG,74.6,0.0,E,,*1C
$GPRMC,220011.6,A,4741.38999,N,12224.72766,W,003.94,104.2,010314,016.6,E,D*2A
$SPVHW,,,,,3.10,N,,*18
$PGRME,2.4,M,2.4,M,3.4,M*29
$HCHDG,74.2,0.0,E,,*18
$YXXDR,A,5.2,D,PTCH,A,-5.4,D,ROLL*76
$PTAK,FFD1,5.4*54
$IIVLW,06480,N,000.0,N*59
$GPRMC,220011.8,A,4741.38996,N,12224.72740,W,003.93,104.5,010314,016.6,E,D*2F
$HCHDG,74.0,0.0,E,,*1A
$SPVHW,,,,,3.12,N,,*1A
$PGRME,2.4,M,2.4,M,3.4,M*29
$IIVWR,023,R,13.4,N,,,,*66
$HCHDG,74.1,0.0,E,,*1B
$IIDPT,069.0,-1.0,*4F
$HCHDG,73.9,0.0,E,,*14
$GPRMC,220012.0,A,4741.39000,N,12224.72713,W,003.95,104.8,010314,016.6,E,D*2E
$SPVHW,,,,,3.15,N,,*1D
$PGRME,2.4,M,2.4,M,3.4,M*29
$IIMWV,023,R,13.4,N,A*14
$HCHDG,73.7,0.0,E,,*1A
$IIMWV,023,T,13.6,N,A*10
$HCHDG,73.5,0.0,E,,*18
$GPRMC,220012.2,A,4741.39000,N,12224.72690,W,003.94,101.6,010314,016.6,E,D*2C
$GPRMB,A,3.35,L,,Lac,4823.3220,N,12229.7720,W,42.1,355,-1.10,V*5E
$PGRME,2.4,M,2.4,M,3.4,M*29
$SPVHW,,,,,3.18,N,,*10
$YXXDR,A,5.2,D,PTCH,A,-5.5,D,ROLL*77
$HCHDG,73.4,0.0,E,,*19
$HCHDG,73.2,0.0,E,,*1F
$GPRMC,220012.4,A,4741.38999,N,12224.72657,W,003.95,101.5,010314,016.6,E,D*2B
$SPVHW,,,,,3.18,N,,*10
$PGRME,2.4,M,2.4,M,3.4,M*29
$HCHDG,72.9,0.0,E,,*15
$HCHDG,73.1,0.0,E,,*1C
$GPRMC,220012.6,A,4741.38998,N,12224.72631,W,003.93,102.7,010314,016.6,E,D*2F
$SPVHW,,,,,3.20,N,,*1B
$PGRME,2.4,M,2.4,M,3.4,M*29
$HCHDG,72.9,0.0,E,,*15
$YXXDR,A,5.2,D,PTCH,A,-5.9,D,ROLL*7B
$GPRMC,220012.8,A,4741.38995,N,12224.72604,W,003.94,101.2,010314,016.6,E,D*2B
$HCHDG,72.8,0.0,E,,*14
$SPVHW,,,,,3.21,N,,*1A
$PGRME,2.4,M,2.4,M,3.4,M*29
$HCHDG,72.7,0.0,E,,*1B
$IIVLW,06480,N,000.0,N*59
$HCHDG,72.5,0.0,E,,*19
$IIVWR,023,R,13.3,N,,,,*61
$GPRMC,220013.0,A,4741.38992,N,12224.72566,W,003.92,101.9,010314,016.6,E,D*2F
$SPVHW,,,,,3.20,N,,*1B
$PGRME,2.4,M,2.4,M,3.4,M*29
$IIDPT,069.4,-1.0,*4B
$HCHDG,72.3,0.0,E,,*1F
$HCHDG,72.4,0.0,E,,*18
$PTAK,FFP1,HEEL,@*07
$IIMWV,023,R,13.3,N,A*13
$GPRMC,220013.2,A,4741.38986,N,12224.72542,W,003.89,097.1,010314,016.6,E,D*22
$GPRMB,A,3.35,L,,Lac,4823.3220,N,12229.7720,W,42.1,355,-0.79,V*50
$SPVHW,,,,,3.20,N,,*1B
$PGRME,2.4,M,2.4,M,3.4,M*29
$IIMWV,023,T,13.4,N,A*12
$YXXDR,A,5.1,D,PTCH,A,-6.5,D,ROLL*77
$PTAK,FFD1,6.5*56
$HCHDG,72.5,0.0,E,,*19
$HCHDG,72.3,0.0,E,,*1F
$GPRMC,220013.4,A,4741.38990,N,12224.72518,W,003.87,097.6,010314,016.6,E,D*25
$SPVHW,,,,,3.21,N,,*1A
$PGRME,2.4,M,2.4,M,3.4,M*29
$HCHDG,72.1,0.0,E,,*1D
$HCHDG,72.1,0.0,E,,*1D
$GPRMC,220013.6,A,4741.38987,N,12224.72480,W,003.90,097.5,010314,016.6,E,D*24
$SPVHW,,,,,3.17,N,,*1F
$PGRME,2.4,M,2.4,M,3.4,M*29
$HCHDG,72.0,0.0,E,,*1C
$YXXDR,A,5.2,D,PTCH,A,-7.4,D,ROLL*74
$HCHDG,72.1,0.0,E,,*1D
$GPRMC,220013.8,A,4741.38978,N,12224.72446,W,003.89,098.3,010314,016.6,E,D*21
$SPVHW,,,,,3.14,N,,*1C
$PGRME,2.4,M,2.4,M,3.4,M*29
$HCHDG,72.0,0.0,E,,*1C
$HCHDG,72.0,0.0,E,,*1C
$GPRMC,220014.0,A,4741.38971,N,12224.72412,W,003.89,097.2,010314,016.6,E,D*28
$SPVHW,,,,,3.11,N,,*19
$PGRME,2.4,M,2.4,M,3.4,M*29
$IIVLW,06480,N,000.0,N*59
$HCHDG,72.1,0.0,E,,*1D
$IIVWR,024,R,12.9,N,,,,*6D
$IIDPT,069.4,-1.0,*4B
$HCHDG,72.2,0.0,E,,*1E
$GPRMC,220014.2,A,4741.38968,N,12224.72383,W,003.90,095.9,010314,016.6,E,D*2C
$SPVHW,,,,,3.06,N,,*1F
$PGRME,2.4,M,2.4,M,3.4,M*29
$YXXDR,A,5.2,D,PTCH,A,-8.4,D,ROLL*7B
$IIMWV,024,R,12.9,N,A*1F
$HCHDG,72.3,0.0,E,,*1F
$HCHDG,72.4,0.0,E,,*18
$GPRMC,220014.4,A,4741.38966,N,12224.72351,W,003.88,096.1,010314,016.6,E,D*29
$GPRMB,A,3.35,L,,Lac,4823.3220,N,12229.7720,W,42.1,355,-0.72,V*5B
$SPVHW,,,,,3.07,N,,*1E
$PGRME,2.4,M,2.4,M,3.4,M*29
$HCHDG,72.5,0.0,E,,*19
$HCHDG,72.7,0.0,E,,*1B
$GPRMC,220014.6,A,4741.38959,N,12224.72327,W,003.85,095.5,010314,016.6,E,D*2C
$PGRME,2.4,M,2.4,M,3.4,M*29
$SPVHW,,,,,3.09,N,,*10
$HCHDG,72.7,0.0,E,,*1B
$IIMWV,024,T,12.9,N,A*19
$YXXDR,A,5.0,D,PTCH,A,-8.4,D,ROLL*79
$PTAK,FFD1,8.4*59
$HCHDG,72.8,0.0,E,,*14
$GPRMC,220014.8,A,4741.38955,N,12224.72305,W,003.86,093.9,010314,016.6,E,D*27
$PGRME,2.4,M,2.4,M,3.4,M*29
$SPVHW,,,,,3.12,N,,*1A
$HCHDG,73.0,0.0,E,,*1D
$HCHDG,73.2,0.0,E,,*1F
$GPRMC,220015.0,A,4741.38951,N,12224.72281,W,003.86,094.1,010314,016.6,E,D*28
$PGRME,2.4,M,2.4,M,3.4,M*29
$SPVHW,,,,,3.11,N,,*19
$HCHDG,73.3,0.0,E,,*1E
$IIVLW,06480,N,000.0,N*59
$IIVWR,026,R,13.0,N,,,,*67
$HCHDG,73.3,0.0,E,,*1E
$IIDPT,068.3,-1.0,*4D
$GPRMC,220015.2,A,4741.38945,N,12224.72251,W,003.87,094.8,010314,016.6,E,D*2A
$SPVHW,,,,,3.18,N,,*10
$PGRME,2.4,M,2.4,M,3.4,M*29
$YXXDR,A,4.9,D,PTCH,A,-8.7,D,ROLL*72
$HCHDG,73.4,0.0,E,,*19
$HCHDG,73.5,0.0,E,,*18
$GPRMC,220015.4,A,4741.38942,N,12224.72219,W,003.89,095.0,010314,016.6,E,D*20
$SPVHW,,,,,3.17,N,,*1F
$PGRME,2.4,M,2.4,M,3.4,M*29
$HCHDG,73.5,0.0,E,,*18
$HCHDG,73.5,0.0,E,,*18
$GPRMC,220015.6,A,4741.38936,N,12224.72185,W,003.92,097.0,010314,016.6,E,D*2F
$GPRMB,A,3.36,L,,Lac,4823.3220,N,12229.7720,W,42.1,355,-0.79,V*53
$SPVHW,,,,,3.25,N,,*1E
$PGRME,2.4,M,2.4,M,3.4,M*29
$HCHDG,73.6,0.0,E,,*1B
$IIMWV,026,R,13.6,N,A*13
$YXXDR,A,5.1,D,PTCH,A,-9.4,D,ROLL*79
$PTAK,FFD1,9.4*58
$IIMWV,026,T,13.0,N,A*13
$HCHDG,73.6,0.0,E,,*1B
$GPRMC,220015.8,A,4741.38935,N,12224.72157,W,003.94,097.9,010314,016.6,E,D*22
$SPVHW,,,,,3.36,N,,*1C
$PGRME,2.4,M,2.4,M,3.4,M*29
$HCHDG,74.0,0.0,E,,*1A
$HCHDG,74.0,0.0,E,,*1A
$GPRMC,220016.0,A,4741.38928,N,12224.72132,W,003.96,100.9,010314,016.6,E,D*2B
$SPVHW,,,,,3.41,N,,*1C
$PGRME,2.4,M,2.4,M,3.4,M*29
$HCHDG,73.9,0.0,E,,*14
$IIVLW,06480,N,000.0,N*59
$HCHDG,74.0,0.0,E,,*1A
$IIVWR,026,R,13.6,N,,,,*61
$GPRMC,220016.2,A,4741.38923,N,12224.72102,W,004.14,103.3,010314,016.6,E,D*25
$SPVHW,,,,,3.43,N,,*1E
$PGRME,2.4,M,2.4,M,3.4,M*29
$IIDPT,068.3,-1.0,*4D
$YXXDR,A,5.1,D,PTCH,A,-10.3,D,ROLL*46
$HCHDG,73.8,0.0,E,,*15
$HCHDG,73.8,0.0,E,,*15
$GPRMC,220016.4,A,4741.38921,N,12224.72060,W,004.17,104.1,010314,016.6,E,D*22
$SPVHW,,,,,3.48,N,,*15
$PGRME,2.4,M,2.4,M,3.4,M*29
$HCHDG,73.9,0.0,E,,*14
$HCHDG,73.8,0.0,E,,*15
$GPRMC,220016.6,A,4741.38919,N,12224.72025,W,004.18,106.2,010314,016.6,E,D*24
$GPRMB,A,3.36,L,,Lac,4823.3220,N,12229.7720,W,42.1,355,-1.48,V*50
$SPVHW,,,,,3.39,N,,*13
$PGRME,2.4,M,2.4,M,3.4,M*29
$HCHDG,73.9,0.0,E,,*14
$YXXDR,A,5.0,D,PTCH,A,-9.7,D,ROLL*7B
$HCHDG,74.0,0.0,E,,*1A
$GPRMC,220016.8,A,4741.38914,N,12224.71988,W,004.14,105.0,010314,016.6,E,D*27
$SPVHW,,,,,3.39,N,,*13
$PGRME,2.4,M,2.4,M,3.4,M*29
$IIMWV,025,R,13.5,N,A*13
$HCHDG,74.0,0.0,E,,*1A
$IIMWV,026,T,13.6,N,A*15
$HCHDG,74.0,0.0,E,,*1A
$GPRMC,220017.0,A,4741.38907,N,12224.71953,W,003.98,103.9,010314,016.6,E,D*26
$SPVHW,,,,,3.34,N,,*1E
$PGRME,2.4,M,2.4,M,3.4,M*29
$HCHDG,74.0,0.0,E,,*1A
$HCHDG,74.1,0.0,E,,*1B
$PTAK,FFP1,HEEL,@*07
$SPVHW,,,,,3.31,N,,*1B
$GPRMC,220017.2,A,4741.38898,N,12224.71910,W,004.01,104.9,010314,016.6,E,D*24
$PGRME,2.4,M,2.4,M,3.4,M*29
$IIVLW,06480,N,000.0,N*59
$YXXDR,A,5.1,D,PTCH,A,-9.3,D,ROLL*7E
$PTAK,FFD1,9.3*5F
$IIVWR,025,R,13.5,N,,,,*61
$HCHDG,74.0,0.0,E,,*1A
$HCHDG,73.9,0.0,E,,*14
$GPRMC,220017.4,A,4741.38893,N,12224.71868,W,004.04,104.5,010314,016.6,E,D*2E
$SPVHW,,,,,3.31,N,,*1B
$PGRME,2.4,M,2.4,M,3.4,M*29
$HCHDG,73.8,0.0,E,,*15
$HCHDG,73.8,0.0,E,,*15
$GPRMC,220017.6,A,4741.38889,N,12224.71839,W,004.09,104.8,010314,016.6,E,D*23
$GPRMB,A,3.36,L,,Lac,4823.3220,N,12229.7720,W,42.1,355,-1.36,V*59
$SPVHW,,,,,3.32,N,,*18
$PGRME,2.4,M,2.4,M,3.4,M*29
$HCHDG,73.8,0.0,E,,*15
$IIDPT,068.3,-1.0,*4D
$YXXDR,A,4.9,D,PTCH,A,-9.9,D,ROLL*7D
$HCHDG,73.7,0.0,E,,*1A
$GPRMC,220017.8,A,4741.38882,N,12224.71811,W,004.13,103.5,010314,016.6,E,D*2D
$SPVHW,,,,,3.35,N,,*1F
$PGRME,2.4,M,2.4,M,3.4,M*29
$HCHDG,73.6,0.0,E,,*1B
$IIMWV,025,R,13.7,N,A*11
$IIMWV,025,T,13.5,N,A*15
$HCHDG,73.5,0.0,E,,*18
$GPRMC,220018.0,A,4741.38872,N,12224.71782,W,004.12,101.7,010314,016.6,E,D*21
$SPVHW,,,,,3.34,N,,*1E
$PGRME,2.4,M,2.4,M,3.4,M*29
$HCHDG,73.4,0.0,E,,*19
$HCHDG,73.4,0.0,E,,*19
$GPRMC,220018.2,A,4741.38871,N,12224.71745,W,004.12,101.2,010314,016.6,E,D*2E
$PGRME,2.4,M,2.4,M,3.4,M*29
$SPVHW,,,,,3.32,N,,*18
$YXXDR,A,5.2,D,PTCH,A,-9.0,D,ROLL*7E
$IIVLW,06480,N,000.0,N*59
$HCHDG,73.4,0.0,E,,*19
$HCHDG,73.4,0.0,E,,*19
$GPRMC,220018.4,A,4741.38867,N,12224.71713,W,003.95,099.3,010314,016.6,E,D*25
$SPVHW,,,,,3.28,N,,*13
$PGRME,2.4,M,2.4,M,3.4,M*29
$HCHDG,73.4,0.0,E,,*19
$HCHDG,73.4,0.0,E,,*19
$GPRMC,220018.6,A,4741.38859,N,12224.71684,W,003.97,101.6,010314,016.6,E,D*22
$PGRME,2.4,M,2.4,M,3.4,M*29
$SPVHW,,,,,3.25,N,,*1E
$HCHDG,73.5,0.0,E,,*18
$IIVWR,025,R,13.8,N,,,,*6C
$YXXDR,A,5.0,D,PTCH,A,-8.5,D,ROLL*78
$PTAK,FFD1,8.5*58
$IIDPT,068.5,-1.0,*4B
$HCHDG,73.5,0.0,E,,*18
$GPRMC,220018.8,A,4741.38854,N,12224.71660,W,004.16,101.6,010314,016.6,E,D*25
$GPRMB,A,3.36,L,,Lac,4823.3220,N,12229.7720,W,42.1,355,-1.16,V*5B
$PGRME,2.4,M,2.4,M,3.4,M*29
$SPVHW,,,,,3.28,N,,*13
$HCHDG,73.4,0.0,E,,*19
$IIMWV,025,R,13.8,N,A*1E
$HCHDG,73.2,0.0,E,,*1F
$IIMWV,025,T,13.7,N,A*17
$GPRMC,220019.0,A,4741.38848,N,12224.71634,W,004.09,102.7,010314,016.6,E,D*2C
$PGRME,2.4,M,2.4,M,3.4,M*29
$SPVHW,,,,,3.30,N,,*1A
$HCHDG,73.3,0.0,E,,*1E
$HCHDG,73.2,0.0,E,,*1F
$GPRMC,220019.2,A,4741.38847,N,12224.71600,W,004.08,101.2,010314,016.6,E,D*21
$PGRME,2.4,M,2.4,M,3.4,M*29
$SPVHW,,,,,3.27,N,,*1C
$YXXDR,A,5.0,D,PTCH,A,-9.0,D,ROLL*7C
$HCHDG,73.1,0.0,E,,*1C
$HCHDG,73.1,0.0,E,,*1C
$GPRMC,220019.4,A,4741.38844,N,12224.71573,W,004.05,100.9,010314,016.6,E,D*24
$PGRME,2.4,M,2.4,M,3.4,M*29
$SPVHW,,,,,3.29,N,,*12
$HCHDG,73.2,0.0,E,,*1F
$HCHDG,72.9,0.0,E,,*15
$GPRMC,220019.6,A,4741.38835,N,12224.71542,W,003.99,101.3,010314,016.6,E,D*2B
$PGRME,2.4,M,2.4,M,3.4,M*29
$SPVHW,,,,,3.30,N,,*1A
$HCHDG,72.8,0.0,E,,*14
$IIVLW,06480,N,000.0,N*59
$YXXDR,A,5.1,D,PTCH,A,-8.6,D,ROLL*7A
$HCHDG,72.9,0.0,E,,*15
$IIVWR,025,R,13.8,N,,,,*6C
$GPRMC,220019.8,A,4741.38826,N,12224.71505,W,004.06,101.5,010314,016.6,E,D*23
$GPRMB,A,3.36,L,,Lac,4823.3220,N,12229.7720,W,42.1,355,-1.12,V*5F
$SPVHW,,,,,3.31,N,,*1B
$PGRME,2.4,M,2.4,M,3.4,M*29
$IIDPT,068.3,-1.0,*4D
$HCHDG,72.8,0.0,E,,*14
$HCHDG,72.8,0.0,E,,*14
$IIMWV,025,R,13.8,N,A*1E
$GPRMC,220020.0,A,4741.38822,N,12224.71469,W,004.03,102.3,010314,016.6,E,D*2E
$SPVHW,,,,,3.41,N,,*1C
$PGRME,2.4,M,2.4,M,3.4,M*29
$IIMWV,025,T,13.8,N,A*18
$HCHDG,72.9,0.0,E,,*15
$HCHDG,72.8,0.0,E,,*14
$GPRMC,220020.2,A,4741.38822,N,12224.71439,W,004.04,102.6,010314,016.6,E,D*2B
$SPVHW,,,,,3.50,N,,*1C
$PGRME,2.4,M,2.4,M,3.4,M*29
$YXXDR,A,5.1,D,PTCH,A,-8.2,D,ROLL*7E
$PTAK,FFD1,8.2*5F
$HCHDG,72.8,0.0,E,,*14
$HCHDG,72.8,0.0,E,,*14
$GPRMC,220020.4,A,4741.38819,N,12224.71400,W,004.01,101.6,010314,016.6,E,D*29
$PGRME,2.4,M,2.4,M,3.4,M*29
$SPVHW,,,,,3.53,N,,*1F
$HCHDG,72.6,0.0,E,,*1A
$HCHDG,72.9,0.0,E,,*15
$GPRMC,220020.6,A,4741.38811,N,12224.71360,W,004.03,101.9,010314,016.6,E,D*2F
$PGRME,2.4,M,2.4,M,3.4,M*29
$SPVHW,,,,,3.50,N,,*1C
$HCHDG,72.9,0.0,E,,*15
$YXXDR,A,5.0,D,PTCH,A,-7.7,D,ROLL*75
$IIVLW,06480,N,000.0,N*59
$HCHDG,72.9,0.0,E,,*15
$GPRMC,220020.8,A,4741.38816,N,12224.71331,W,004.03,103.1,010314,016.6,E,D*28
$PGRME,2.4,M,2.4,M,3.4,M*29
$SPVHW,,,,,3.46,N,,*1B
$IIVWR,025,R,13.9,N,,,,*6D
$HCHDG,72.7,0.0,E,,*1B
$IIDPT,068.5,-1.0,*4B
$HCHDG,72.5,0.0,E,,*19
$GPRMC,220021.0,A,4741.38810,N,12224.71299,W,004.06,102.6,010314,016.6,E,D*27
$GPRMB,A,3.36,L,,Lac,4823.3220,N,12229.7720,W,42.1,355,-1.20,V*5E
$SPVHW,,,,,3.41,N,,*1C
$PGRME,2.4,M,2.4,M,3.4,M*29
$IIMWV,025,R,13.9,N,A*1F
$PTAK,FFP1,HEEL,@*07
$HCHDG,72.3,0.0,E,,*1F
$IIMWV,025,T,13.8,N,A*18
$HCHDG,72.2,0.0,E,,*1E
$GPRMC,220021.2,A,4741.38806,N,12224.71265,W,004.09,102.4,010314,016.6,E,D*2C
$SPVHW,,,,,3.37,N,,*1D
$PGRME,2.4,M,2.4,M,3.4,M*29
$YXXDR,A,5.0,D,PTCH,A,-7.5,D,ROLL*77
$PTAK,FFD1,7.5*57
$HCHDG,72.1,0.0,E,,*1D
$HCHDG,72.0,0.0,E,,*1C
$GPRMC,220021.4,A,4741.38803,N,12224.71228,W,004.11,100.6,010314,016.6,E,D*2F
$SPVHW,,,,,3.36,N,,*1C
$PGRME,2.4,M,2.4,M,3.4,M*29
$HCHDG,72.1,0.0,E,,*1D
$HCHDG,72.0,0.0,E,,*1C
$GPRMC,220021.6,A,4741.38794,N,12224.71193,W,004.10,098.9,010314,016.6,E,D*21
$SPVHW,,,,,3.34,N,,*1E
$PGRME,2.4,M,2.4,M,3.4,M*29
$HCHDG,71.8,0.0,E,,*17
$YXXDR,A,5.4,D,PTCH,A,-6.1,D,ROLL*76
$HCHDG,72.0,0.0,E,,*1C
$GPRMC,220021.8,A,4741.38791,N,12224.71159,W,004.10,098.5,010314,016.6,E,D*20
$SPVHW,,,,,3.33,N,,*19
$PGRME,2.4,M,2.4,M,3.4,M*29
$HCHDG,72.0,0.0,E,,*1C
$IIVLW,06480,N,000.0,N*59
$HCHDG,72.3,0.0,E,,*1F
$IIVWR,027,R,13.4,N,,,,*62
$GPRMC,220022.0,A,4741.38785,N,12224.71133,W,004.07,096.8,010314,016.6,E,D*27
$SPVHW,,,,,3.29,N,,*12
$PGRME,2.4,M,2.4,M,3.4,M*29
$IIDPT,068.5,-1.0,*4B
$HCHDG,72.0,0.0,E,,*1C
$HCHDG,72.1,0.0,E,,*1D
$IIMWV,027,R,13.4,N,A*10
$GPRMC,220022.2,A,4741.38782,N,12224.71104,W,004.05,096.8,010314,016.6,E,D*24
$GPRMB,A,3.36,L,,Lac,4823.3220,N,12229.7720,W,42.1,355,-0.80,V*55
$SPVHW,,,,,3.26,N,,*1D
$PGRME,2.4,M,2.4,M,3.4,M*29
$IIMWV,025,T,13.9,N,A*19
$YXXDR,A,5.3,D,PTCH,A,-5.6,D,ROLL*75
$PTAK,FFD1,5.6*56
$HCHDG,72.2,0.0,E,,*1E
$HCHDG,72.1,0.0,E,,*1D
$GPRMC,220022.4,A,4741.38784,N,12224.71070,W,003.99,098.9,010314,016.6,E,D*2B
$SPVHW,,,,,3.22,N,,*19
$PGRME,2.4,M,2.4,M,3.4,M*29
$HCHDG,72.2,0.0,E,,*1E
$HCHDG,72.2,0.0,E,,*1E
$GPRMC,220022.6,A,4741.38781,N,12224.71034,W,003.99,099.8,010314,016.6,E,D*2C
$SPVHW,,,,,3.19,N,,*11
$PGRME,2.4,M,2.4,M,3.4,M*29
$HCHDG,72.1,0.0,E,,*1D
$YXXDR,A,5.2,D,PTCH,A,-7.2,D,ROLL*72
$HCHDG,72.0,0.0,E,,*1C
$GPRMC,220022.8,A,4741.38776,N,12224.70991,W,003.96,102.9,010314,016.6,E,D*20
$PGRME,2.4,M,2.4,M,3.4,M*29
$SPVHW,,,,,3.21,N,,*1A
$HCHDG,72.0,0.0,E,,*1C
$HCHDG,72.0,0.0,E,,*1C
$GPRMC,220023.0,A,4741.38767,N,12224.70956,W,003.96,100.2,010314,016.6,E,D*2B
$SPVHW,,,,,3.27,N,,*1C
$PGRME,2.4,M,2.4,M,3.4,M*29
$IIVLW,06480,N,000.0,N*59
$HCHDG,71.9,0.0,E,,*16
$IIVWR,025,R,13.0,N,,,,*64
$IIDPT,067.3,-1.0,*42
$HCHDG,71.9,0.0,E,,*16
$GPRMC,220023.2,A,4741.38764,N,12224.70917,W,003.92,101.3,010314,016.6,E,D*2B
$SPVHW,,,,,3.32,N,,*18
$PGRME,2.4,M,2.4,M,3.4,M*29
$YXXDR,A,5.1,D,PTCH,A,-7.5,D,ROLL*76
$IIMWV,025,R,13.0,N,A*16
$HCHDG,71.9,0.0,E,,*16
$HCHDG,71.8,0.0,E,,*17
$GPRMC,220023.4,A,4741.38761,N,12224.70879,W,003.93,097.4,010314,016.6,E,D*29
$GPRMB,A,3.36,L,,Lac,4823.3220,N,12229.7720,W,42.1,355,-0.82,V*57
$SPVHW,,,,,3.37,N,,*1D
$PGRME,2.4,M,2.4,M,3.4,M*29
$HCHDG,71.7,0.0,E,,*18
$HCHDG,71.6,0.0,E,,*19
$GPRMC,220023.6,A,4741.38753,N,12224.70849,W,003.94,098.5,010314,016.6,E,D*20
$PGRME,2.4,M,2.4,M,3.4,M*29
$SPVHW,,,,,3.43,N,,*1E
$HCHDG,71.7,0.0,E,,*18
$IIMWV,025,T,13.0,N,A*10
$YXXDR,A,5.0,D,PTCH,A,-7.1,D,ROLL*73
$PTAK,FFD1,7.1*53
$HCHDG,71.6,0.0,E,,*19
$GPRMC,220023.8,A,4741.38747,N,12224.70811,W,003.95,095.2,010314,016.6,E,D*2D
$PGRME,2.4,M,2.4,M,3.4,M*29
$SPVHW,,,,,3.45,N,,*18
$HCHDG,71.7,0.0,E,,*18
$HCHDG,71.7,0.0,E,,*18
$GPRMC,220024.0,A,4741.38741,N,12224.70773,W,003.97,095.9,010314,016.6,E,D*26
$SPVHW,,,,,3.48,N,,*15
$PGRME,2.4,M,2.4,M,3.4,M*29
$HCHDG,71.7,0.0,E,,*18
$IIVLW,06480,N,000.0,N*59
$IIVWR,023,R,12.8,N,,,,*6B
$HCHDG,71.6,0.0,E,,*19
$IIDPT,067.3,-1.0,*42
$GPRMC,220024.2,A,4741.38739,N,12224.70736,W,004.00,095.9,010314,016.6,E,D*23
$PGRME,2.4,M,2.4,M,3.4,M*29
$SPVHW,,,,,3.46,N,,*1B
$YXXDR,A,5.2,D,PTCH,A,-7.3,D,ROLL*73
$HCHDG,71.6,0.0,E,,*19
$HCHDG,71.5,0.0,E,,*1A
$SPVHW,,,,,3.43,N,,*1E
$GPRMC,220024.4,A,4741.38739,N,12224.70704,W,004.01,096.4,010314,016.6,E,D*2B
$GPRMB,A,3.37,L,,Lac,4823.3220,N,12229.7720,W,42.1,355,-0.76,V*5D
$PGRME,2.4,M,2.4,M,3.4,M*29
$HCHDG,71.5,0.0,E,,*1A
$HCHDG,71.4,0.0,E,,*1B
$GPRMC,220024.6,A,4741.38732,N,12224.70666,W,004.03,098.5,010314,016.6,E,D*2A
$SPVHW,,,,,3.43,N,,*1E
$PGRME,2.4,M,2.4,M,3.4,M*29
$HCHDG,71.3,0.0,E,,*1C
$IIMWV,023,R,12.6,N,A*17
$YXXDR,A,5.3,D,PTCH,A,-9.0,D,ROLL*7F
$PTAK,FFD1,9.0*5C
$IIMWV,023,T,12.8,N,A*1F
$HCHDG,71.3,0.0,E,,*1C
$GPRMC,220024.8,A,4741.38724,N,12224.70636,W,004.06,097.3,010314,016.6,E,D*2A
$SPVHW,,,,,3.41,N,,*1C
$PGRME,2.4,M,2.4,M,3.4,M*29
$HCHDG,71.1,0.0,E,,*1E
$HCHDG,71.1,0.0,E,,*1E
$GPRMC,220025.0,A,4741.38719,N,12224.70610,W,004.06,096.5,010314,016.6,E,D*2E
$SPVHW,,,,,3.36,N,,*1C
$PGRME,2.4,M,2.4,M,3.4,M*29
$HCHDG,71.0,0.0,E,,*1F
$IIVLW,06480,N,000.0,N*59
$HCHDG,70.9,0.0,E,,*17
$IIVWR,023,R,12.6,N,,,,*65
$GPRMC,220025.2,A,4741.38719,N,12224.70581,W,004.09,099.4,010314,016.6,E,D*26
$PTAK,FFP1,HEEL,@*07
$SPVHW,,,,,3.39,N,,*13
$PGRME,2.4,M,2.4,M,3.4,M*29
$IIDPT,066.9,-1.0,*49
$YXXDR,A,5.1,D,PTCH,A,-9.3,D,ROLL*7E
$HCHDG,70.7,0.0,E,,*19
$HCHDG,70.6,0.0,E,,*18
$GPRMC,220025.4,A,4741.38720,N,12224.70549,W,004.10,099.9,010314,016.6,E,D*2B
$SPVHW,,,,,3.43,N,,*1E
$PGRME,2.4,M,2.4,M,3.4,M*29
$HCHDG,70.7,0.0,E,,*19
$HCHDG,70.5,0.0,E,,*1B
$GPRMC,220025.6,A,4741.38718,N,12224.70508,W,004.13,100.5,010314,016.6,E,D*29
$GPRMB,A,3.37,L,,Lac,4823.3220,N,12229.7720,W,42.1,355,-1.08,V*55
$SPVHW,,,,,3.40,N,,*1D
$PGRME,2.4,M,2.4,M,3.4,M*29
$HCHDG,70.5,0.0,E,,*1B
$YXXDR,A,5.1,D,PTCH,A,-9.3,D,ROLL*7E
$PTAK,FFD1,9.3*5F
$HCHDG,70.5,0.0,E,,*1B
$GPRMC,220025.8,A,4741.38716,N,12224.70477,W,004.13,098.9,010314,016.6,E,D*2C
$SPVHW,,,,,3.37,N,,*1D
$PGRME,2.4,M,2.4,M,3.4,M*29
$IIMWV,023,R,12.7,N,A*16
$HCHDG,70.4,0.0,E,,*1A
$IIMWV,023,T,12.6,N,A*11
$HCHDG,70.4,0.0,E,,*1A
$GPRMC,220026.0,A,4741.38715,N,12224.70438,W,004.12,098.2,010314,016.6,E,D*25
$SPVHW,,,,,3.36,N,,*1C
$PGRME,2.4,M,2.4,M,3.4,M*29
$HCHDG,70.5,0.0,E,,*1B
$HCHDG,70.6,0.0,E,,*18
$GPRMC,220026.2,A,4741.38721,N,12224.70401,W,004.12,098.2,010314,016.6,E,D*2A
$SPVHW,,,,,3.26,N,,*1D
$PGRME,2.4,M,2.4,M,3.4,M*29
$IIVLW,06480,N,000.0,N*59
$YXXDR,A,5.2,D,PTCH,A,-8.4,D,ROLL*7B
$IIVWR,023,R,12.7,N,,,,*64
$HCHDG,70.7,0.0,E,,*19
$HCHDG,70.7,0.0,E,,*19
$GPRMC,220026.4,A,4741.38725,N,12224.70367,W,004.09,095.5,010314,016.6,E,D*2F
$SPVHW,,,,,3.24,N,,*1F
$PGRME,2.4,M,2.4,M,3.4,M*29
$HCHDG,70.7,0.0,E,,*19
$HCHDG,70.7,0.0,E,,*19
$GPRMC,220026.6,A,4741.38721,N,12224.70327,W,004.08,095.7,010314,016.6,E,D*2E
$SPVHW,,,,,3.28,N,,*13
$PGRME,2.4,M,2.4,M,3.4,M*29
$HCHDG,70.8,0.0,E,,*16
$IIDPT,066.2,-1.0,*42
$YXXDR,A,5.1,D,PTCH,A,-7.6,D,ROLL*75
$HCHDG,70.8,0.0,E,,*16
$GPRMC,220026.8,A,4741.38718,N,12224.70300,W,004.07,095.0,010314,016.6,E,D*27
$GPRMB,A,3.37,L,,Lac,4823.3220,N,12229.7720,W,42.1,355,-0.68,V*52
$SPVHW,,,,,3.34,N,,*1E
$PGRME,2.4,M,2.4,M,3.4,M*29
$HCHDG,70.9,0.0,E,,*17
$IIMWV,023,R,12.6,N,A*17
$IIMWV,023,T,12.7,N,A*10
$HCHDG,71.0,0.0,E,,*1F
$GPRMC,220027.0,A,4741.38715,N,12224.70269,W,004.04,095.0,010314,016.6,E,D*2E
$SPVHW,,,,,3.34,N,,*1E
$PGRME,2.4,M,2.4,M,3.4,M*29
$HCHDG,71.0,0.0,E,,*1F
$HCHDG,71.0,0.0,E,,*1F
$GPRMC,220027.2,A,4741.38718,N,12224.70231,W,004.04,097.8,010314,016.6,E,D*26
$SPVHW,,,,,3.36,N,,*1C
$PGRME,2.4,M,2.4,M,3.4,M*29
$YXXDR,A,5.1,D,PTCH,A,-7.8,D,ROLL*7B
$PTAK,FFD1,7.8*5A
$IIVLW,06480,N,000.0,N*59
$HCHDG,71.0,0.0,E,,*1F
$HCHDG,71.0,0.0,E,,*1F
$GPRMC,220027.4,A,4741.38717,N,12224.70189,W,004.06,097.7,010314,016.6,E,D*22
$SPVHW,,,,,3.37,N,,*1D
$PGRME,2.4,M,2.4,M,3.4,M*29
$HCHDG,71.0,0.0,E,,*1F
$HCHDG,70.9,0.0,E,,*17
$GPRMC,220027.6,A,4741.38720,N,12224.70159,W,004.08,097.2,010314,016.6,E,D*22
$PGRME,2.4,M,2.4,M,3.4,M*29
$SPVHW,,,,,3.31,N,,*1B
$HCHDG,70.9,0.0,E,,*17
$IIVWR,024,R,12.7,N,,,,*63
$YXXDR,A,5.0,D,PTCH,A,-8.5,D,ROLL*78
$IIDPT,065.8,-1.0,*4B
$HCHDG,70.8,0.0,E,,*16
$GPRMC,220027.8,A,4741.38714,N,12224.70137,W,004.08,098.8,010314,016.6,E,D*26
$PGRME,2.4,M,2.4,M,3.4,M*29
$SPVHW,,,,,3.31,N,,*1B
$HCHDG,70.8,0.0,E,,*16
$IIMWV,024,R,12.7,N,A*11
$HCHDG,70.9,0.0,E,,*17
$IIMWV,023,T,12.6,N,A*11
$GPRMC,220028.0,A,4741.38714,N,12224.70097,W,004.10,097.2,010314,016.6,E,D*26
$GPRMB,A,3.37,L,,Lac,4823.3220,N,12229.7720,W,42.1,355,-0.84,V*50
$PGRME,2.4,M,2.4,M,3.4,M*29
$SPVHW,,,,,3.32,N,,*18
$HCHDG,70.7,0.0,E,,*19
$HCHDG,70.6,0.0,E,,*18
$GPRMC,220028.2,A,4741.38711,N,12224.70060,W,004.08,098.9,010314,016.6,E,D*24
$PGRME,2.4,M,2.4,M,3.4,M*29
$SPVHW,,,,,3.36,N,,*1C
$YXXDR,A,5.1,D,PTCH,A,-7.2,D,ROLL*71
$PTAK,FFD1,7.2*50
$HCHDG,70.6,0.0,E,,*18
$HCHDG,70.6,0.0,E,,*18
$GPRMC,220028.4,A,4741.38714,N,12224.70032,W,004.08,096.5,010314,016.6,E,D*22
$SPVHW,,,,,3.35,N,,*1F
$PGRME,2.4,M,2.4,M,3.4,M*29
$HCHDG,70.7,0.0,E,,*19
$HCHDG,70.8,0.0,E,,*16
$GPRMC,220028.6,A,4741.38713,N,12224.70002,W,003.86,099.5,010314,016.6,E,D*2A
$SPVHW,,,,,3.35,N,,*1F
$PGRME,2.4,M,2.4,M,3.4,M*29
$HCHDG,70.7,0.0,E,,*19
$IIVLW,06480,N,000.0,N*59
$YXXDR,A,5.0,D,PTCH,A,-6.8,D,ROLL*7B
$IIVWR,026,R,12.9,N,,,,*6F
$HCHDG,70.6,0.0,E,,*18
$GPRMC,220028.8,A,4741.38711,N,12224.69973,W,004.08,098.2,010314,016.6,E,D*26
$PGRME,2.4,M,2.4,M,3.4,M*29
$SPVHW,,,,,3.40,N,,*1D
$IIDPT,065.7,-1.0,*44
$HCHDG,70.4,0.0,E,,*1A
$HCHDG,70.4,0.0,E,,*1A
$IIMWV,026,R,12.9,N,A*1D
$GPRMC,220029.0,A,4741.38707,N,12224.69938,W,004.03,096.1,010314,016.6,E,D*21
$GPRMB,A,3.37,L,,Lac,4823.3220,N,12229.7720,W,42.1,355,-0.75,V*5E
$SPVHW,,,,,3.38,N,,*12
$PGRME,2.4,M,2.4,M,3.4,M*29
$IIMWV,024,T,12.7,N,A*17
$HCHDG,70.4,0.0,E,,*1A
$PTAK,FFP1,HEEL,@*07
$HCHDG,70.4,0.0,E,,*1A
$GPRMC,220029.2,A,4741.38700,N,12224.69911,W,004.00,097.3,010314,016.6,E,D*2F
$SPVHW,,,,,3.37,N,,*1D
$PGRME,2.4,M,2.4,M,3.4,M*29
$YXXDR,A,5.1,D,PTCH,A,-6.7,D,ROLL*75
$HCHDG,70.3,0.0,E,,*1D
$HCHDG,70.4,0.0,E,,*1A
$GPRMC,220029.4,A,4741.38696,N,12224.69880,W,004.19,097.7,010314,016.6,E,D*22
$SPVHW,,,,,3.37,N,,*1D
$PGRME,2.4,M,2.4,M,3.4,M*29
$HCHDG,70.2,0.0,E,,*1C
$HCHDG,70.2,0.0,E,,*1C
$GPRMC,220029.6,A,4741.38699,N,12224.69855,W,003.95,094.1,010314,016.6,E,D*21
$SPVHW,,,,,3.35,N,,*1F
$PGRME,2.4,M,2.4,M,3.4,M*29
$HCHDG,70.3,0.0,E,,*1D
$YXXDR,A,5.3,D,PTCH,A,-6.5,D,ROLL*75
$PTAK,FFD1,6.5*56
$IIVLW,06480,N,000.0,N*59
$HCHDG,70.3,0.0,E,,*1D
$GPRMC,220029.8,A,4741.38701,N,12224.69826,W,003.93,095.8,010314,016.6,E,D*25
$SPVHW,,,,,3.30,N,,*1A
$PGRME,2.4,M,2.4,M,3.4,M*29
$IIVWR,027,R,13.2,N,,,,*64
$HCHDG,70.5,0.0,E,,*1B
$IIDPT,065.5,-1.0,*46
$HCHDG,70.6,0.0,E,,*18
$GPRMC,220030.0,A,4741.38702,N,12224.69791,W,003.95,096.4,010314,016.6,E,D*2C
$SPVHW,,,,,3.31,N,,*1B
$PGRME,2.4,M,2.4,M,3.4,M*29
$IIMWV,027,R,13.2,N,A*16
$HCHDG,70.7,0.0,E,,*19
$IIMWV,026,T,12.9,N,A*1B
$HCHDG,70.7,0.0,E,,*19
$GPRMC,220030.2,A,4741.38698,N,12224.69757,W,004.02,098.6,010314,016.6,E,D*23
$GPRMB,A,3.37,L,,Lac,4823.3220,N,12229.7720,W,42.1,355,-0.92,V*57
$PGRME,2.4,M,2.4,M,3.4,M*29
$SPVHW,,,,,3.32,N,,*18
$YXXDR,A,5.1,D,PTCH,A,-6.7,D,ROLL*75
$HCHDG,70.8,0.0,E,,*16
$HCHDG,70.8,0.0,E,,*16
$GPRMC,220030.4,A,4741.38702,N,12224.69720,W,004.00,092.0,010314,016.6,E,D*29
$SPVHW,,,,,3.34,N,,*1E
$PGRME,2.4,M,2.4,M,3.4,M*29
$HCHDG,70.9,0.0,E,,*17
$HCHDG,71.1,0.0,E,,*1E
$GPRMC,220030.6,A,4741.38706,N,12224.69695,W,003.93,089.4,010314,016.6,E,D*23
$SPVHW,,,,,3.34,N,,*1E
$PGRME,2.4,M,2.4,M,3.4,M*29
$HCHDG,71.1,0.0,E,,*1E
$YXXDR,A,5.3,D,PTCH,A,-6.1,D,ROLL*71
$HCHDG,71.4,0.0,E,,*1B
$GPRMC,220030.8,A,4741.38708,N,12224.69665,W,003.99,093.2,010314,016.6,E,D*2B
$SPVHW,,,,,3.31,N,,*1B
$PGRME,2.4,M,2.4,M,3.4,M*29
$HCHDG,71.4,0.0,E,,*1B
$HCHDG,71.5,0.0,E,,*1A
$GPRMC,220031.0,A,4741.38704,N,12224.69633,W,003.99,095.0,010314,016.6,E,D*29
$SPVHW,,,,,3.25,N,,*1E
$PGRME,2.4,M,2.4,M,3.4,M*29
$HCHDG,71.5,0.0,E,,*1A
$HCHDG,71.6,0.0,E,,*19
$GPRMC,220031.2,A,4741.38703,N,12224.69596,W,004.01,096.3,010314,016.6,E,D*26
$SPVHW,,,,,3.26,N,,*1D
$PGRME,2.4,M,2.4,M,3.4,M*29
$YXXDR,A,5.2,D,PTCH,A,-5.5,D,ROLL*77
$PTAK,FFD1,5.5*55
$HCHDG,71.6,0.0,E,,*19
$HCHDG,71.8,0.0,E,,*17
$GPRMC,220031.4,A,4741.38696,N,12224.69555,W,004.03,098.4,010314,016.6,E,D*29
$GPRMB,A,3.37,L,,Lac,4823.3220,N,12229.7720,W,42.1,355,-0.91,V*54
$SPVHW,,,,,3.25,N,,*1E
$PGRME,2.4,M,2.4,M,3.4,M*29
$HCHDG,71.7,0.0,E,,*18
$HCHDG,71.8,0.0,E,,*17
$GPRMC,220031.6,A,4741.38689,N,12224.69518,W,004.04,099.3,010314,016.6,E,D*2D
$SPVHW,,,,,3.25,N,,*1E
$PGRME,2.4,M,2.4,M,3.4,M*29
$HCHDG,71.9,0.0,E,,*16
$YXXDR,A,5.4,D,PTCH,A,-5.5,D,ROLL*71
$HCHDG,71.7,0.0,E,,*18
$GPRMC,220031.8,A,4741.38688,N,12224.69491,W,004.02,099.1,010314,016.6,E,D*26
$SPVHW,,,,,3.23,N,,*18
$PGRME,2.4,M,2.4,M,3.4,M*29
$HCHDG,71.8,0.0,E,,*17
$IIVLW,06480,N,000.0,N*59
$HCHDG,71.7,0.0,E,,*18
$IIVWR,028,R,13.7,N,,,,*6E
$GPRMC,220032.0,A,4741.38684,N,12224.69465,W,004.00,099.1,010314,016.6,E,D*28
$SPVHW,,,,,3.20,N,,*1B
$PGRME,2.4,M,2.4,M,3.4,M*29
$IIDPT,065.3,-1.0,*40
$HCHDG,71.6,0.0,E,,*19
$HCHDG,71.4,0.0,E,,*1B
$IIMWV,028,R,13.7,N,A*1C
$SPVHW,,,,,3.09,N,,*10
$GPRMC,220032.2,A,4741.38682,N,12224.69431,W,003.97,102.9,010314,016.6,E,D*2F
$PGRME,2.4,M,2.4,M,3.4,M*29
$IIMWV,027,T,13.2,N,A*10
$YXXDR,A,5.2,D,PTCH,A,-4.2,D,ROLL*71
$PTAK,FFD1,4.2*53
$HCHDG,71.4,0.0,E,,*1B
$HCHDG,71.4,0.0,E,,*1B
$GPRMC,220032.4,A,4741.38677,N,12224.69396,W,003.99,104.5,010314,016.6,E,D*2D
$GPRMB,A,3.37,L,,Lac,4823.3220,N,12229.7720,W,42.1,355,-1.31,V*5F
$SPVHW,,,,,3.05,N,,*1C
$PGRME,2.4,M,2.4,M,3.4,M*29
$HCHDG,71.3,0.0,E,,*1C
$HCHDG,71.2,0.0,E,,*1D
$GPRMC,220032.6,A,4741.38671,N,12224.69370,W,003.98,101.8,010314,016.6,E,D*28
$SPVHW,,,,,2.99,N,,*18
$PGRME,2.4,M,2.4,M,3.4,M*29
$HCHDG,71.2,0.0,E,,*1D
$YXXDR,A,5.4,D,PTCH,A,-4.0,D,ROLL*75
$HCHDG,71.2,0.0,E,,*1D
$GPRMC,220032.8,A,4741.38668,N,12224.69336,W,003.82,102.3,010314,016.6,E,D*2F
$SPVHW,,,,,3.00,N,,*19
$PGRME,2.4,M,2.4,M,3.4,M*29
$HCHDG,71.2,0.0,E,,*1D
$HCHDG,71.2,0.0,E,,*1D
$GPRMC,220033.0,A,4741.38659,N,12224.69304,W,004.00,102.1,010314,016.6,E,D*2A
$SPVHW,,,,,3.05,N,,*1C
$PGRME,2.4,M,2.4,M,3.4,M*29
$IIVLW,06480,N,000.0,N*59
$HCHDG,71.2,0.0,E,,*1D
$IIVWR,030,R,14.4,N,,,,*63
$IIDPT,064.6,-1.0,*44
$HCHDG,71.0,0.0,E,,*1F
$GPRMC,220033.2,A,4741.38657,N,12224.69275,W,003.83,095.8,010314,016.6,E,D*2B
$PGRME,2.4,M,2.4,M,3.4,M*29
$SPVHW,,,,,3.09,N,,*10
$YXXDR,A,5.0,D,PTCH,A,-3.4,D,ROLL*72
$PTAK,FFP1,HEEL,@*07
$IIMWV,030,R,14.4,N,A*11
$HCHDG,71.1,0.0,E,,*1E
$HCHDG,71.0,0.0,E,,*1F
$GPRMC,220033.4,A,4741.38655,N,12224.69245,W,003.55,099.1,010314,016.6,E,D*22
$GPRMB,A,3.38,L,,Lac,4823.3220,N,12229.7720,W,42.1,355,-0.84,V*5F
$SPVHW,,,,,3.19,N,,*11
$PGRME,2.4,M,2.4,M,3.4,M*29
$HCHDG,71.0,0.0,E,,*1F
$HCHDG,71.1,0.0,E,,*1E
$GPRMC,220033.6,A,4741.38647,N,12224.69220,W,003.54,094.5,010314,016.6,E,D*28
$SPVHW,,,,,3.25,N,,*1E
$PGRME,2.4,M,2.4,M,3.4,M*29
$HCHDG,71.1,0.0,E,,*1E
$IIMWV,030,T,14.4,N,A*17
$YXXDR,A,5.2,D,PTCH,A,-3.0,D,ROLL*74
$PTAK,FFD1,3.0*56
$GPRMC,220033.8,A,4741.38642,N,12224.69197,W,003.56,094.3,010314,016.6,E,D*28
$HCHDG,71.2,0.0,E,,*1D
$SPVHW,,,,,3.24,N,,*1F
$PGRME,2.4,M,2.4,M,3.4,M*29
$HCHDG,71.1,0.0,E,,*1E
$HCHDG,71.2,0.0,E,,*1D
$GPRMC,220034.0,A,4741.38637,N,12224.69179,W,003.59,093.4,010314,016.6,E,D*2A
$PGRME,2.4,M,2.4,M,3.4,M*29
$SPVHW,,,,,3.21,N,,*1A
$IIVLW,06480,N,000.0,N*59
$HCHDG,71.2,0.0,E,,*1D
$IIVWR,030,R,14.2,N,,,,*65
$HCHDG,71.2,0.0,E,,*1D
$IIDPT,063.9,-1.0,*4C
$GPRMC,220034.2,A,4741.38632,N,12224.69149,W,003.62,092.9,010314,016.6,E,D*2A
$SPVHW,,,,,3.23,N,,*18
$PGRME,2.4,M,2.4,M,3.4,M*29
$YXXDR,A,5.2,D,PTCH,A,-4.0,D,ROLL*73
$HCHDG,71.1,0.0,E,,*1E
$HCHDG,71.1,0.0,E,,*1E
$GPRMC,220034.4,A,4741.38630,N,12224.69116,W,003.95,092.0,010314,016.6,E,D*25
$SPVHW,,,,,3.20,N,,*1B
$PGRME,2.4,M,2.4,M,3.4,M*29
$HCHDG,71.0,0.0,E,,*1F
$HCHDG,70.8,0.0,E,,*16
$GPRMC,220034.6,A,4741.38631,N,12224.69084,W,003.89,092.8,010314,016.6,E,D*29
$GPRMB,A,3.38,L,,Lac,4823.3220,N,12229.7720,W,42.1,355,-0.50,V*56
$SPVHW,,,,,3.19,N,,*11
$PGRME,2.4,M,2.4,M,3.4,M*29
$HCHDG,70.9,0.0,E,,*17
$IIMWV,027,R,14.1,N,A*12
$YXXDR,A,5.3,D,PTCH,A,-6.5,D,ROLL*75
$PTAK,FFD1,6.5*56
$IIMWV,030,T,14.2,N,A*11
$GPRMC,220034.8,A,4741.38629,N,12224.69053,W,003.60,094.5,010314,016.6,E,D*28
$SPVHW,,,,,3.16,N,,*1E
$HCHDG,70.8,0.0,E,,*16
$PGRME,2.4,M,2.4,M,3.4,M*29
$HCHDG,70.6,0.0,E,,*18
$HCHDG,70.5,0.0,E,,*1B
$GPRMC,220035.0,A,4741.38627,N,12224.69027,W,003.55,094.7,010314,016.6,E,D*28
$SPVHW,,,,,3.12,N,,*1A
$PGRME,2.4,M,2.4,M,3.4,M*29
$HCHDG,70.4,0.0,E,,*1A
$IIVLW,06480,N,000.0,N*59
$HCHDG,70.3,0.0,E,,*1D
$IIVWR,027,R,14.1,N,,,,*60
$GPRMC,220035.2,A,4741.38622,N,12224.68996,W,003.93,100.5,010314,016.6,E,D*29
$SPVHW,,,,,3.10,N,,*18
$PGRME,2.4,M,2.4,M,3.4,M*29
$IIDPT,064.0,-1.0,*42
$YXXDR,A,4.9,D,PTCH,A,-7.5,D,ROLL*7F
$HCHDG,70.0,0.0,E,,*1E
$HCHDG,69.8,0.0,E,,*1E
$GPRMC,220035.4,A,4741.38616,N,12224.68964,W,003.96,103.0,010314,016.6,E,D*26
$SPVHW,,,,,3.08,N,,*11
$PGRME,2.4,M,2.4,M,3.4,M*29
$HCHDG,69.5,0.0,E,,*13
$HCHDG,69.1,0.0,E,,*17
$GPRMC,220035.6,A,4741.38618,N,12224.68938,W,003.97,106.6,010314,016.6,E,D*21
$SPVHW,,,,,3.06,N,,*1F
$PGRME,2.4,M,2.4,M,3.4,M*29
$HCHDG,68.8,0.0,E,,*1F
$YXXDR,A,5.1,D,PTCH,A,-9.1,D,ROLL*7C
$HCHDG,68.3,0.0,E,,*14
$GPRMC,220035.8,A,4741.38610,N,12224.68909,W,004.03,106.6,010314,016.6,E,D*2F
$GPRMB,A,3.38,L,,Lac,4823.3220,N,12229.7720,W,42.1,355,-1.46,V*50
$SPVHW,,,,,3.07,N,,*1E
$PGRME,2.4,M,2.4,M,3.4,M*29
$IIMWV,026,R,13.8,N,A*1D
$HCHDG,67.8,0.0,E,,*10
$IIMWV,027,T,14.1,N,A*14
$HCHDG,67.5,0.0,E,,*1D
$GPRMC,220036.0,A,4741.38612,N,12224.68897,W,003.40,105.5,010314,016.6,E,D*20
$SPVHW,,,,,3.08,N,,*11
$PGRME,2.4,M,2.4,M,3.4,M*29
$HCHDG,67.3,0.0,E,,*1B
$HCHDG,67.0,0.0,E,,*18
$GPRMC,220036.2,A,4741.38603,N,12224.68870,W,003.85,104.1,010314,016.6,E,D*27
$SPVHW,,,,,3.11,N,,*19
$PGRME,2.4,M,2.4,M,3.4,M*29
$IIVLW,06480,N,000.0,N*59
$YXXDR,A,5.6,D,PTCH,A,-6.5,D,ROLL*70
$PTAK,FFD1,6.5*56
$IIVWR,026,R,13.8,N,,,,*6F
$HCHDG,66.8,0.0,E,,*11
$HCHDG,66.6,0.0,E,,*1F
$GPRMC,220036.4,A,4741.38594,N,12224.68835,W,004.04,101.5,010314,016.6,E,D*22
$SPVHW,,,,,3.11,N,,*19
$PGRME,2.4,M,2.4,M,3.4,M*29
$HCHDG,66.4,0.0,E,,*1D
$HCHDG,66.4,0.0,E,,*1D
$GPRMC,220036.6,A,4741.38593,N,12224.68803,W,004.03,099.6,010314,016.6,E,D*26
$SPVHW,,,,,3.07,N,,*1E
$PGRME,2.4,M,2.4,M,3.4,M*29
$HCHDG,66.2,0.0,E,,*1B
$IIDPT,063.3,-1.0,*46
$YXXDR,A,5.2,D,PTCH,A,-5.9,D,ROLL*7B
$HCHDG,66.1,0.0,E,,*18
$GPRMC,220036.8,A,4741.38595,N,12224.68768,W,003.99,098.3,010314,016.6,E,D*2C
$SPVHW,,,,,3.04,N,,*1D
$PGRME,2.4,M,2.4,M,3.4,M*29
$HCHDG,66.0,0.0,E,,*19
$IIMWV,026,R,13.5,N,A*10
$IIMWV,026,T,13.8,N,A*1B
$HCHDG,65.7,0.0,E,,*1D
$GPRMC,220037.0,A,4741.38595,N,12224.68724,W,004.00,093.3,010314,016.6,E,D*21
$GPRMB,A,3.38,L,,Lac,4823.3220,N,12229.7720,W,42.1,355,-0.55,V*53
$SPVHW,,,,,3.04,N,,*1D
$PGRME,2.4,M,2.4,M,3.4,M*29
$HCHDG,65.6,0.0,E,,*1C
$HCHDG,65.6,0.0,E,,*1C
$GPRMC,220037.2,A,4741.38586,N,12224.68688,W,003.66,091.4,010314,016.6,E,D*24
$SPVHW,,,,,3.02,N,,*1B
$PGRME,2.4,M,2.4,M,3.4,M*29
$PTAK,FFP1,HEEL,@*07
$YXXDR,A,4.9,D,PTCH,A,-6.3,D,ROLL*78
$PTAK,FFD1,6.3*50
$IIVLW,06480,N,000.0,N*59
$HCHDG,65.3,0.0,E,,*19
$HCHDG,65.2,0.0,E,,*18
$GPRMC,220037.4,A,4741.38590,N,12224.68654,W,003.45,082.9,010314,016.6,E,D*2A
$SPVHW,,,,,3.02,N,,*1B
$PGRME,2.4,M,2.4,M,3.4,M*29
$HCHDG,65.1,0.0,E,,*1B
$HCHDG,65.0,0.0,E,,*1A
$GPRMC,220037.6,A,4741.38584,N,12224.68611,W,003.50,086.8,010314,016.6,E,D*2D
$SPVHW,,,,,3.03,N,,*1A
$PGRME,2.4,M,2.4,M,3.4,M*29
$HCHDG,65.0,0.0,E,,*1A
$IIVWR,026,R,13.4,N,,,,*63
$YXXDR,A,4.9,D,PTCH,A,-7.1,D,ROLL*7B
$IIDPT,063.9,-1.0,*4C
$GPRMC,220037.8,A,4741.38583,N,12224.68570,W,003.54,084.1,010314,016.6,E,D*2F
$SPVHW,,,,,3.01,N,,*18
$HCHDG,65.0,0.0,E,,*1A
$PGRME,2.4,M,2.4,M,3.4,M*29
$HCHDG,64.7,0.0,E,,*1C
$IIMWV,026,R,13.4,N,A*11
$HCHDG,64.6,0.0,E,,*1D
$IIMWV,026,T,13.5,N,A*16
$GPRMC,220038.0,A,4741.38582,N,12224.68538,W,003.73,085.2,010314,016.6,E,D*22
$GPRMB,A,3.38,L,,Lac,4823.3220,N,12229.7720,W,42.1,355,0.01,V*7F
$SPVHW,,,,,2.96,N,,*17
$PGRME,2.4,M,2.4,M,3.4,M*29
$HCHDG,64.6,0.0,E,,*1D
$HCHDG,64.5,0.0,E,,*1E
$GPRMC,220038.2,A,4741.38581,N,12224.68505,W,003.73,083.0,010314,016.6,E,D*29
$SPVHW,,,,,2.95,N,,*14
$PGRME,2.4,M,2.4,M,3.4,M*29
$YXXDR,A,5.0,D,PTCH,A,-9.3,D,ROLL*7F
$HCHDG,64.3,0.0,E,,*18
$HCHDG,64.4,0.0,E,,*1F
$GPRMC,220038.4,A,4741.38584,N,12224.68475,W,003.75,084.3,010314,016.6,E,D*2E
$SPVHW,,,,,2.98,N,,*19
$PGRME,2.4,M,2.4,M,3.4,M*29
$HCHDG,64.3,0.0,E,,*18
$HCHDG,64.1,0.0,E,,*1A
$GPRMC,220038.6,A,4741.38586,N,12224.68436,W,003.73,083.4,010314,016.6,E,D*2F
$SPVHW,,,,,3.02,N,,*1B
$PGRME,2.4,M,2.4,M,3.4,M*29
$HCHDG,64.0,0.0,E,,*1B
$IIVLW,06480,N,000.0,N*59
$YXXDR,A,4.8,D,PTCH,A,-11.1,D,ROLL*4D
$PTAK,FFD1,11.1*64
$IIVWR,027,R,13.6,N,,,,*60
$GPRMC,220038.8,A,4741.38592,N,12224.68388,W,003.93,083.6,010314,016.6,E,D*2A
$SPVHW,,,,,3.05,N,,*1C
$HCHDG,64.0,0.0,E,,*1B
$PGRME,2.4,M,2.4,M,3.4,M*29
$IIDPT,063.9,-1.0,*4C
$HCHDG,64.2,0.0,E,,*19
$HCHDG,64.3,0.0,E,,*18
$IIMWV,027,R,13.6,N,A*12
$GPRMC,220039.0,A,4741.38595,N,12224.68352,W,003.89,084.6,010314,016.6,E,D*2F
$GPRMB,A,3.38,L,,Lac,4823.3220,N,12229.7720,W,42.1,355,0.05,V*7B
$SPVHW,,,,,3.07,N,,*1E
$PGRME,2.4,M,2.4,M,3.4,M*29
$IIMWV,026,T,13.4,N,A*17
$HCHDG,64.3,0.0,E,,*18
$HCHDG,64.2,0.0,E,,*19
$GPRMC,220039.2,A,4741.38597,N,12224.68322,W,003.90,084.8,010314,016.6,E,D*2E
$SPVHW,,,,,3.07,N,,*1E
$PGRME,2.4,M,2.4,M,3.4,M*29
$YXXDR,A,4.8,D,PTCH,A,-12.8,D,ROLL*47
$HCHDG,64.3,0.0,E,,*18
$HCHDG,64.1,0.0,E,,*1A
$GPRMC,220039.4,A,4741.38602,N,12224.68299,W,003.86,086.1,010314,016.6,E,D*2A
$SPVHW,,,,,3.06,N,,*1F
$PGRME,2.4,M,2.4,M,3.4,M*29
$HCHDG,64.1,0.0,E,,*1A
$HCHDG,64.0,0.0,E,,*1B
$GPRMC,220039.6,A,4741.38607,N,12224.68266,W,003.91,087.5,010314,016.6,E,D*2E
$SPVHW,,,,,3.11,N,,*19
$PGRME,2.4,M,2.4,M,3.4,M*29
$HCHDG,63.9,0.0,E,,*15
$YXXDR,A,4.9,D,PTCH,A,-13.5,D,ROLL*4A
$IIVLW,06480,N,000.0,N*59
$HCHDG,64.1,0.0,E,,*1A
$GPRMC,220039.8,A,4741.38612,N,12224.68220,W,003.91,088.1,010314,016.6,E,D*2D
$SPVHW,,,,,3.09,N,,*10
$PGRME,2.4,M,2.4,M,3.4,M*29
$IIVWR,028,R,13.7,N,,,,*6E
$HCHDG,64.0,0.0,E,,*1B
$IIDPT,063.9,-1.0,*4C
$HCHDG,64.0,0.0,E,,*1B
$GPRMC,220040.0,A,4741.38617,N,12224.68190,W,003.93,088.3,010314,016.6,E,D*26
$SPVHW,,,,,3.12,N,,*1A
$PGRME,2.4,M,2.4,M,3.4,M*29
$IIMWV,028,R,13.7,N,A*1C
$HCHDG,64.0,0.0,E,,*1B
$IIMWV,027,T,13.6,N,A*14
$HCHDG,64.0,0.0,E,,*1B
$GPRMC,220040.2,A,4741.38622,N,12224.68164,W,003.95,089.2,010314,016.6,E,D*2F
$GPRMB,A,3.38,L,,Lac,4823.3220,N,12229.7720,W,42.1,355,-0.26,V*57
$SPVHW,,,,,3.18,N,,*10
$PGRME,2.4,M,2.4,M,3.4,M*29
$YXXDR,A,4.7,D,PTCH,A,-12.9,D,ROLL*49
$PTAK,FFD1,12.9*6F
$HCHDG,64.1,0.0,E,,*1A
$HCHDG,64.2,0.0,E,,*19
$GPRMC,220040.4,A,4741.38620,N,12224.68130,W,003.96,088.5,010314,016.6,E,D*2F
$SPVHW,,,,,3.18,N,,*10
$PGRME,2.4,M,2.4,M,3.4,M*29
$HCHDG,64.3,0.0,E,,*18
$HCHDG,64.3,0.0,E,,*18
$GPRMC,220040.6,A,4741.38619,N,12224.68094,W,003.96,090.1,010314,016.6,E,D*25
$SPVHW,,,,,3.21,N,,*1A
$PGRME,2.4,M,2.4,M,3.4,M*29
$HCHDG,64.6,0.0,E,,*1D
$YXXDR,A,4.7,D,PTCH,A,-12.9,D,ROLL*49
$HCHDG,64.8,0.0,E,,*13
$GPRMC,220040.8,A,4741.38626,N,12224.68055,W,003.97,090.0,010314,016.6,E,D*2A
$SPVHW,,,,,3.28,N,,*13
$PGRME,2.4,M,2.4,M,3.4,M*29
$HCHDG,64.8,0.0,E,,*13
$IIVLW,06480,N,000.0,N*59
$HCHDG,64.9,0.0,E,,*12
$IIVWR,029,R,13.5,N,,,,*6D
$GPRMC,220041.0,A,4741.38629,N,12224.68009,W,003.98,090.9,010314,016.6,E,D*23
$SPVHW,,,,,3.25,N,,*1E
$PGRME,2.4,M,2.4,M,3.4,M*29
$IIDPT,063.9,-1.0,*4C
$HCHDG,64.9,0.0,E,,*12
$HCHDG,64.9,0.0,E,,*12
$IIMWV,029,R,13.5,N,A*1F
$GPRMC,220041.2,A,4741.38633,N,12224.67964,W,003.97,089.8,010314,016.6,E,D*21
$SPVHW,,,,,3.23,N,,*18
$PGRME,2.4,M,2.4,M,3.4,M*29
$IIMWV,028,T,13.7,N,A*1A
$YXXDR,A,4.7,D,PTCH,A,-12.7,D,ROLL*47
$HCHDG,64.9,0.0,E,,*12
$HCHDG,65.0,0.0,E,,*1A
$PTAK,FFP1,HEEL,@*07
$GPRMC,220041.4,A,4741.38623,N,12224.67935,W,003.97,090.9,010314,016.6,E,D*2B
$GPRMB,A,3.38,L,,Lac,4823.3220,N,12229.7720,W,42.1,355,-0.38,V*58
$SPVHW,,,,,3.24,N,,*1F
$PGRME,2.4,M,2.4,M,3.4,M*29
$HCHDG,65.0,0.0,E,,*1A
$HCHDG,65.0,0.0,E,,*1A
$GPRMC,220041.6,A,4741.38619,N,12224.67894,W,003.97,090.1,010314,016.6,E,D*22
$SPVHW,,,,,3.24,N,,*1F
$PGRME,2.4,M,2.4,M,3.4,M*29
$HCHDG,64.9,0.0,E,,*12
$YXXDR,A,4.8,D,PTCH,A,-12.2,D,ROLL*4D
$PTAK,FFD1,12.2*64
$GPRMC,220041.8,A,4741.38631,N,12224.67867,W,003.81,087.9,010314,016.6,E,D*23
$SPVHW,,,,,3.22,N,,*19
$HCHDG,65.1,0.0,E,,*1B
$PGRME,2.4,M,2.4,M,3.4,M*29
$HCHDG,65.0,0.0,E,,*1A
$HCHDG,65.0,0.0,E,,*1A
$GPRMC,220042.0,A,4741.38639,N,12224.67831,W,004.05,091.5,010314,016.6,E,D*23
$SPVHW,,,,,3.21,N,,*1A
$PGRME,2.4,M,2.4,M,3.4,M*29
$IIVLW,06480,N,000.0,N*59
$HCHDG,65.0,0.0,E,,*1A
$IIVWR,029,R,13.7,N,,,,*6F
$IIDPT,061.9,-1.0,*4E
$HCHDG,65.1,0.0,E,,*1B
$GPRMC,220042.2,A,4741.38647,N,12224.67791,W,004.02,089.1,010314,016.6,E,D*27
$SPVHW,,,,,3.16,N,,*1E
$PGRME,2.4,M,2.4,M,3.4,M*29
$YXXDR,A,4.7,D,PTCH,A,-11.8,D,ROLL*4B
$IIMWV,029,R,13.7,N,A*1D
$HCHDG,65.3,0.0,E,,*19
$HCHDG,65.2,0.0,E,,*18
$GPRMC,220042.4,A,4741.38640,N,12224.67777,W,003.98,088.8,010314,016.6,E,D*22
$GPRMB,A,3.39,L,,Lac,4823.3220,N,12229.7720,W,42.1,355,-0.24,V*54
$SPVHW,,,,,3.13,N,,*1B
$PGRME,2.4,M,2.4,M,3.4,M*29
$HCHDG,65.3,0.0,E,,*19
$HCHDG,65.3,0.0,E,,*19
$GPRMC,220042.6,A,4741.38649,N,12224.67744,W,003.97,088.1,010314,016.6,E,D*2F
$SPVHW,,,,,3.13,N,,*1B
$PGRME,2.4,M,2.4,M,3.4,M*29
$HCHDG,65.5,0.0,E,,*1F
$IIMWV,029,T,13.7,N,A*1B
$YXXDR,A,4.5,D,PTCH,A,-11.3,D,ROLL*42
$PTAK,FFD1,11.3*66
$GPRMC,220042.8,A,4741.38655,N,12224.67723,W,003.97,087.7,010314,016.6,E,D*24
$HCHDG,65.4,0.0,E,,*1E
$SPVHW,,,,,3.12,N,,*1A
$PGRME,2.4,M,2.4,M,3.4,M*29
$HCHDG,65.6,0.0,E,,*1C
$HCHDG,65.6,0.0,E,,*1C
$GPRMC,220043.0,A,4741.38666,N,12224.67684,W,003.99,088.1,010314,016.6,E,D*26
$SPVHW,,,,,3.12,N,,*1A
$PGRME,2.4,M,2.4,M,3.4,M*29
$HCHDG,65.7,0.0,E,,*1D
$IIVLW,06480,N,000.0,N*59
$IIVWR,029,R,13.7,N,,,,*6F
$IIDPT,061.9,-1.0,*4E
$HCHDG,65.6,0.0,E,,*1C
$GPRMC,220043.2,A,4741.38671,N,12224.67651,W,004.00,084.5,010314,016.6,E,D*25
$SPVHW,,,,,3.11,N,,*19
$PGRME,2.4,M,2.4,M,3.4,M*29
$YXXDR,A,4.5,D,PTCH,A,-11.2,D,ROLL*43
$HCHDG,65.6,0.0,E,,*1C
$HCHDG,65.7,0.0,E,,*1D
$GPRMC,220043.4,A,4741.38670,N,12224.67626,W,004.01,087.6,010314,016.6,E,D*23
$SPVHW,,,,,3.10,N,,*18
$PGRME,2.4,M,2.4,M,3.4,M*29
$HCHDG,65.6,0.0,E,,*1C
$HCHDG,65.6,0.0,E,,*1C
$GPRMC,220043.6,A,4741.38677,N,12224.67598,W,004.05,088.5,010314,016.6,E,D*28
$GPRMB,A,3.39,L,,Lac,4823.3220,N,12229.7720,W,42.1,355,-0.22,V*52
$SPVHW,,,,,3.16,N,,*1E
$PGRME,2.4,M,2.4,M,3.4,M*29
$HCHDG,65.6,0.0,E,,*1C
$IIMWV,029,R,13.6,N,A*1C
$YXXDR,A,4.9,D,PTCH,A,-11.7,D,ROLL*4A
$IIMWV,029,T,13.7,N,A*1B
$HCHDG,65.6,0.0,E,,*1C
$GPRMC,220043.8,A,4741.38676,N,12224.67564,W,004.06,089.1,010314,016.6,E,D*22
$SPVHW,,,,,3.19,N,,*11
$PGRME,2.4,M,2.4,M,3.4,M*29
$HCHDG,65.4,0.0,E,,*1E
$HCHDG,65.4,0.0,E,,*1E
$GPRMC,220044.0,A,4741.38675,N,12224.67520,W,004.09,091.1,010314,016.6,E,D*28
$SPVHW,,,,,3.17,N,,*1F
$PGRME,2.4,M,2.4,M,3.4,M*29
$PGRMT,GPS 18x-5Hz software ver. 3.20,,,,,,,,*30
$HCHDG,65.4,0.0,E,,*1E
$IIVLW,06480,N,000.0,N*59
$HCHDG,65.4,0.0,E,,*1E
$IIVWR,029,R,13.6,N,,,,*6E
$GPRMC,220044.2,A,4741.38672,N,12224.67491,W,004.09,089.3,010314,016.6,E,D*2D
$SPVHW,,,,,3.17,N,,*1F
$PGRME,2.4,M,2.4,M,3.4,M*29
$IIDPT,061.4,-1.0,*43
$YXXDR,A,4.7,D,PTCH,A,-12.9,D,ROLL*49
$PTAK,FFD1,12.9*6F
$HCHDG,65.2,0.0,E,,*18
$HCHDG,65.6,0.0,E,,*1C
$GPRMC,220044.4,A,4741.38674,N,12224.67468,W,004.10,091.5,010314,016.6,E,D*2C
$PGRME,2.4,M,2.4,M,3.4,M*29
$SPVHW,,,,,3.19,N,,*11
$HCHDG,65.6,0.0,E,,*1C
$HCHDG,65.5,0.0,E,,*1F
$GPRMC,220044.6,A,4741.38673,N,12224.67434,W,004.12,093.3,010314,016.6,E,D*26
$PGRME,2.4,M,2.4,M,3.4,M*29
$SPVHW,,,,,3.15,N,,*1D
$HCHDG,65.3,0.0,E,,*19
$YXXDR,A,4.5,D,PTCH,A,-12.9,D,ROLL*4B
$HCHDG,65.4,0.0,E,,*1E
$GPRMC,220044.8,A,4741.38672,N,12224.67392,W,004.12,092.2,010314,016.6,E,D*22
$GPRMB,A,3.39,L,,Lac,4823.3220,N,12229.7720,W,42.1,355,-0.49,V*5F
$PGRME,2.4,M,2.4,M,3.4,M*29
$SPVHW,,,,,3.16,N,,*1E
$IIMWV,030,R,13.5,N,A*17
$HCHDG,65.4,0.0,E,,*1E
$IIMWV,029,T,13.6,N,A*1A
$HCHDG,65.4,0.0,E,,*1E
$GPRMC,220045.0,A,4741.38673,N,12224.67365,W,004.10,090.9,010314,016.6,E,D*29
$PGRME,2.4,M,2.4,M,3.4,M*29
$SPVHW,,,,,3.19,N,,*11
$HCHDG,65.3,0.0,E,,*19
$HCHDG,65.5,0.0,E,,*1F
$GPRMC,220045.2,A,4741.38673,N,12224.67337,W,004.12,091.3,010314,016.6,E,D*25
$PGRME,2.4,M,2.4,M,3.4,M*29
$SPVHW,,,,,3.18,N,,*10
$IIVLW,06480,N,000.0,N*59
$YXXDR,A,4.6,D,PTCH,A,-12.1,D,ROLL*40
$IIVWR,030,R,13.5,N,,,,*65
$HCHDG,65.5,0.0,E,,*1F
$HCHDG,65.4,0.0,E,,*1E
$GPRMC,220045.4,A,4741.38673,N,12224.67309,W,004.09,091.5,010314,016.6,E,D*22
$PTAK,FFP1,HEEL,@*07
$PGRME,2.4,M,2.4,M,3.4,M*29
$SPVHW,,,,,3.19,N,,*11
$HCHDG,65.4,0.0,E,,*1E
$HCHDG,65.5,0.0,E,,*1F
$GPRMC,220045.6,A,4741.38671,N,12224.67280,W,004.08,089.4,010314,016.6,E,D*2B
$SPVHW,,,,,3.17,N,,*1F
$PGRME,2.4,M,2.4,M,3.4,M*29
$HCHDG,65.4,0.0,E,,*1E
$IIDPT,060.6,-1.0,*40
$YXXDR,A,5.0,D,PTCH,A,-11.0,D,ROLL*45
$PTAK,FFD1,11.0*65
$GPRMC,220045.8,A,4741.38672,N,12224.67246,W,004.10,089.6,010314,016.6,E,D*27
$SPVHW,,,,,3.18,N,,*10
$HCHDG,65.5,0.0,E,,*1F
$PGRME,2.4,M,2.4,M,3.4,M*29
$IIMWV,031,R,13.4,N,A*17
$HCHDG,65.4,0.0,E,,*1E
$IIMWV,030,T,13.5,N,A*11
$HCHDG,65.4,0.0,E,,*1E
$GPRMC,220046.0,A,4741.38680,N,12224.67222,W,004.10,088.2,010314,016.6,E,D*26
$GPRMB,A,3.39,L,,Lac,4823.3220,N,12229.7720,W,42.1,355,-0.20,V*50
$SPVHW,,,,,3.20,N,,*1B
$PGRME,2.4,M,2.4,M,3.4,M*29
$HCHDG,65.2,0.0,E,,*18
$HCHDG,65.2,0.0,E,,*18
$GPRMC,220046.2,A,4741.38681,N,12224.67196,W,004.09,089.6,010314,016.6,E,D*24
$SPVHW,,,,,3.23,N,,*18
$PGRME,2.4,M,2.4,M,3.4,M*29
$YXXDR,A,5.0,D,PTCH,A,-11.7,D,ROLL*42
$IIVLW,06480,N,000.0,N*59
$HCHDG,65.4,0.0,E,,*1E
$HCHDG,65.4,0.0,E,,*1E
$GPRMC,220046.4,A,4741.38682,N,12224.67170,W,004.10,086.8,010314,016.6,E,D*20
$SPVHW,,,,,3.30,N,,*1A
$PGRME,2.4,M,2.4,M,3.4,M*29
$HCHDG,65.4,0.0,E,,*1E
$HCHDG,65.4,0.0,E,,*1E
$GPRMC,220046.6,A,4741.38677,N,12224.67134,W,004.11,087.7,010314,016.6,E,D*27
$PGRME,2.4,M,2.4,M,3.4,M*29
$SPVHW,,,,,3.34,N,,*1E
$HCHDG,65.5,0.0,E,,*1F
$IIVWR,029,R,13.2,N,,,,*6A
$YXXDR,A,4.5,D,PTCH,A,-12.2,D,ROLL*40
$PTAK,FFD1,12.2*64
$IIDPT,061.4,-1.0,*43
$GPRMC,220046.8,A,4741.38677,N,12224.67095,W,004.11,084.5,010314,016.6,E,D*22
$PGRME,2.4,M,2.4,M,3.4,M*29
$SPVHW,,,,,3.34,N,,*1E
$HCHDG,65.5,0.0,E,,*1F
$HCHDG,65.9,0.0,E,,*13
$IIMWV,029,R,13.2,N,A*18
$HCHDG,65.6,0.0,E,,*1C
$IIMWV,031,T,13.4,N,A*11
$GPRMC,220047.0,A,4741.38685,N,12224.67058,W,004.14,085.4,010314,016.6,E,D*22
$GPRMB,A,3.39,L,,Lac,4823.3220,N,12229.7720,W,42.1,355,-0.00,V*52
$SPVHW,,,,,3.36,N,,*1C
$PGRME,2.4,M,2.4,M,3.4,M*29
$HCHDG,65.6,0.0,E,,*1C
$HCHDG,65.7,0.0,E,,*1D
$GPRMC,220047.2,A,4741.38690,N,12224.67017,W,004.16,085.2,010314,016.6,E,D*2B
$SPVHW,,,,,3.34,N,,*1E
$PGRME,2.4,M,2.4,M,3.4,M*29
$YXXDR,A,4.7,D,PTCH,A,-12.8,D,ROLL*48
$HCHDG,65.8,0.0,E,,*12
$HCHDG,65.9,0.0,E,,*13
$GPRMC,220047.4,A,4741.38683,N,12224.66970,W,004.17,086.7,010314,016.6,E,D*21
$SPVHW,,,,,3.25,N,,*1E
$PGRME,2.4,M,2.4,M,3.4,M*29
$HCHDG,65.8,0.0,E,,*12
$HCHDG,65.9,0.0,E,,*13
$GPRMC,220047.6,A,4741.38684,N,12224.66919,W,004.16,087.2,010314,016.6,E,D*2E
$SPVHW,,,,,3.25,N,,*1E
$PGRME,2.4,M,2.4,M,3.4,M*29
$HCHDG,65.8,0.0,E,,*12
$IIVLW,06480,N,000.0,N*59
$YXXDR,A,4.7,D,PTCH,A,-13.8,D,ROLL*49
$IIVWR,028,R,13.0,N,,,,*69
$HCHDG,65.8,0.0,E,,*12
$GPRMC,220047.8,A,4741.38690,N,12224.66882,W,004.19,087.4,010314,016.6,E,D*2F
$SPVHW,,,,,3.25,N,,*1E
$PGRME,2.4,M,2.4,M,3.4,M*29
$IIDPT,060.6,-1.0,*40
$HCHDG,65.8,0.0,E,,*12
$HCHDG,66.1,0.0,E,,*18
$IIMWV,028,R,13.0,N,A*1B
$GPRMC,220048.0,A,4741.38686,N,12224.66847,W,004.18,089.7,010314,016.6,E,D*2A
$GPRMB,A,3.39,L,,Lac,4823.3220,N,12229.7720,W,42.1,355,-0.31,V*50
$SPVHW,,,,,3.21,N,,*1A
$PGRME,2.4,M,2.4,M,3.4,M*29
$IIMWV,029,T,13.2,N,A*1E
$HCHDG,65.9,0.0,E,,*13
$HCHDG,66.0,0.0,E,,*19
$GPRMC,220048.2,A,4741.38681,N,12224.66810,W,004.17,091.2,010314,016.6,E,D*2E
$SPVHW,,,,,3.14,N,,*1C
$PGRME,2.4,M,2.4,M,3.4,M*29
$YXXDR,A,4.3,D,PTCH,A,-14.9,D,ROLL*4B
$PTAK,FFD1,14.9*69
$HCHDG,66.0,0.0,E,,*19
$HCHDG,65.9,0.0,E,,*13
$GPRMC,220048.4,A,4741.38680,N,12224.66783,W,004.15,094.8,010314,016.6,E,D*21
$SPVHW,,,,,3.14,N,,*1C
$PGRME,2.4,M,2.4,M,3.4,M*29
$HCHDG,65.9,0.0,E,,*13
$HCHDG,66.0,0.0,E,,*19
$GPRMC,220048.6,A,4741.38681,N,12224.66749,W,004.16,092.2,010314,016.6,E,D*2B
$SPVHW,,,,,3.19,N,,*11
$PGRME,2.4,M,2.4,M,3.4,M*29
$HCHDG,66.0,0.0,E,,*19
$YXXDR,A,4.6,D,PTCH,A,-14.5,D,ROLL*42
$IIVLW,06480,N,000.0,N*59
$GPRMC,220048.8,A,4741.38677,N,12224.66719,W,004.13,093.6,010314,016.6,E,D*29
$HCHDG,66.1,0.0,E,,*18
$SPVHW,,,,,3.20,N,,*1B
$PGRME,2.4,M,2.4,M,3.4,M*29
$IIVWR,029,R,13.2,N,,,,*6A
$HCHDG,66.2,0.0,E,,*1B
$IIDPT,059.9,-1.0,*45
$HCHDG,66.3,0.0,E,,*1A
$GPRMC,220049.0,A,4741.38679,N,12224.66690,W,004.14,092.7,010314,016.6,E,D*29
$SPVHW,,,,,3.24,N,,*1F
$PGRME,2.4,M,2.4,M,3.4,M*29
$IIMWV,029,R,13.2,N,A*18
$HCHDG,66.1,0.0,E,,*18
$IIMWV,028,T,13.0,N,A*1D
$HCHDG,66.2,0.0,E,,*1B
$GPRMC,220049.2,A,4741.38682,N,12224.66674,W,004.16,092.3,010314,016.6,E,D*23
$GPRMB,A,3.39,L,,Lac,4823.3220,N,12229.7720,W,42.1,355,-0.50,V*57
$SPVHW,,,,,3.34,N,,*1E
$PGRME,2.4,M,2.4,M,3.4,M*29
$YXXDR,A,4.5,D,PTCH,A,-13.0,D,ROLL*43
$PTAK,FFD1,13.0*67
$PTAK,FFP1,HEEL,@*07
$HCHDG,66.1,0.0,E,,*18
$HCHDG,66.1,0.0,E,,*18
$GPRMC,220049.4,A,4741.38684,N,12224.66653,W,004.15,092.2,010314,016.6,E,D*24
$SPVHW,,,,,3.41,N,,*1C
$PGRME,2.4,M,2.4,M,3.4,M*29
$HCHDG,66.1,0.0,E,,*18
$HCHDG,66.1,0.0,E,,*18
$GPRMC,220049.6,A,4741.38688,N,12224.66625,W,004.16,089.4,010314,016.6,E,D*24
$PGRME,2.4,M,2.4,M,3.4,M*29
$SPVHW,,,,,3.47,N,,*1A
$HCHDG,66.2,0.0,E,,*1B
$YXXDR,A,4.5,D,PTCH,A,-12.2,D,ROLL*40
$GPRMC,220049.8,A,4741.38684,N,12224.66597,W,004.15,094.0,010314,016.6,E,D*27
$HCHDG,66.1,0.0,E,,*18
$SPVHW,,,,,3.53,N,,*1F
$PGRME,2.4,M,2.4,M,3.4,M*29
$HCHDG,66.1,0.0,E,,*18
$IIVLW,06480,N,000.0,N*59
$HCHDG,66.0,0.0,E,,*19
$IIVWR,030,R,13.3,N,,,,*63
$GPRMC,220050.0,A,4741.38678,N,12224.66566,W,004.17,089.6,010314,016.6,E,D*22
$SPVHW,,,,,3.58,N,,*14
$PGRME,2.4,M,2.4,M,3.4,M*29
$IIDPT,059.9,-1.0,*45
$HCHDG,66.0,0.0,E,,*19
$HCHDG,66.0,0.0,E,,*19
$IIMWV,030,R,13.3,N,A*11
$GPRMC,220050.2,A,4741.38677,N,12224.66524,W,004.89,088.8,010314,016.6,E,D*21
$SPVHW,,,,,3.61,N,,*1E
$PGRME,2.4,M,2.4,M,3.4,M*29
$IIMWV,029,T,13.2,N,A*1E
$YXXDR,A,4.7,D,PTCH,A,-11.3,D,ROLL*40
$HCHDG,65.8,0.0,E,,*12
$HCHDG,65.9,0.0,E,,*13
$GPRMC,220050.4,A,4741.38678,N,12224.66484,W,004.46,090.0,010314,016.6,E,D*21
$GPRMB,A,3.39,L,,Lac,4823.3220,N,12229.7720,W,42.1,355,-0.36,V*57
$SPVHW,,,,,3.68,N,,*17
$PGRME,2.4,M,2.4,M,3.4,M*29
$HCHDG,65.7,0.0,E,,*1D
$HCHDG,65.7,0.0,E,,*1D
$GPRMC,220050.6,A,4741.38680,N,12224.66447,W,004.50,087.4,010314,016.6,E,D*2E
$SPVHW,,,,,3.72,N,,*1C
$PGRME,2.4,M,2.4,M,3.4,M*29
$HCHDG,65.7,0.0,E,,*1D
$YXXDR,A,5.1,D,PTCH,A,-10.7,D,ROLL*42
$PTAK,FFD1,10.7*63
$HCHDG,65.6,0.0,E,,*1C
$GPRMC,220050.8,A,4741.38680,N,12224.66410,W,004.07,088.4,010314,016.6,E,D*2F
$PGRME,2.4,M,2.4,M,3.4,M*29
$SPVHW,,,,,3.69,N,,*16
$HCHDG,65.5,0.0,E,,*1F
$HCHDG,65.4,0.0,E,,*1E
$GPRMC,220051.0,A,4741.38682,N,12224.66376,W,004.40,089.3,010314,016.6,E,D*26
$SPVHW,,,,,3.66,N,,*19
$PGRME,2.4,M,2.4,M,3.4,M*29
$IIVLW,06480,N,000.0,N*59
$HCHDG,65.6,0.0,E,,*1C
$IIVWR,031,R,13.4,N,,,,*65
$IIDPT,059.9,-1.0,*45
$HCHDG,65.5,0.0,E,,*1F
$GPRMC,220051.2,A,4741.38683,N,12224.66335,W,004.37,091.7,010314,016.6,E,D*2F
$SPVHW,,,,,3.54,N,,*18
$PGRME,2.4,M,2.4,M,3.4,M*29
$YXXDR,A,4.3,D,PTCH,A,-11.1,D,ROLL*46
$IIMWV,031,R,13.4,N,A*17
$HCHDG,65.4,0.0,E,,*1E
$HCHDG,65.5,0.0,E,,*1F
$GPRMC,220051.4,A,4741.38685,N,12224.66299,W,004.36,089.5,010314,016.6,E,D*22
$SPVHW,,,,,3.50,N,,*1C
$PGRME,2.4,M,2.4,M,3.4,M*29
$HCHDG,65.5,0.0,E,,*1F
$HCHDG,65.5,0.0,E,,*1F
$GPRMC,220051.6,A,4741.38682,N,12224.66263,W,004.40,088.5,010314,016.6,E,D*22
$GPRMB,A,3.40,L,,Lac,4823.3220,N,12229.7720,W,42.1,355,-0.24,V*5A
$SPVHW,,,,,3.52,N,,*1E
$PGRME,2.4,M,2.4,M,3.4,M*29
$HCHDG,65.5,0.0,E,,*1F
$IIMWV,031,T,13.4,N,A*11
$YXXDR,A,4.6,D,PTCH,A,-10.1,D,ROLL*42
$PTAK,FFD1,10.1*65
$HCHDG,65.5,0.0,E,,*1F
$GPRMC,220051.8,A,4741.38679,N,12224.66225,W,004.32,089.2,010314,016.6,E,D*29
$SPVHW,,,,,3.54,N,,*18
$PGRME,2.4,M,2.4,M,3.4,M*29
$HCHDG,65.5,0.0,E,,*1F
$HCHDG,65.5,0.0,E,,*1F
$GPRMC,220052.0,A,4741.38679,N,12224.66187,W,004.32,091.1,010314,016.6,E,D*23
$SPVHW,,,,,3.54,N,,*18
