$GPRMB,A,3.28,L,,Lac,4823.3220,N,12229.7720,W,42.1,356,-2.89,V*52
$HCHDG,169.3,0.0,E,,*24
$PTAK,FFP1,HEEL,@*07
$PGRME,23.6,M,188.9,M,190.3,M*1A
$P,329
$HCHDG,169.7,0.0,E,,*20
$P,296
$IIVHW,,,,,3.25,N,,*1D
$HCHDG,169.7,0.0,E,,*20
$GPRMC,164205.2,A,4741.39790,N,12224.83840,W,003.07,185.9,220314,016.6,E,A*25
$GPRMB,A,3.28,L,,Lac,4823.3220,N,12229.7720,W,42.1,356,-3.02,V*50
$PGRME,22.7,M,169.2,M,170.7,M*14
$P,321
$HCHDG,169.7,0.0,E,,*20
$P,359
$IIVHW,,,,,1.86,N,,*16
$P,411
$HCHDG,169.8,0.0,E,,*2F
$GPRMC,164205.4,A,4741.39887,N,12224.83919,W,002.68,189.4,220314,016.6,E,A*2E
$PGRME,21.3,M,150.6,M,152.1,M*1B
$YXXDR,A,5.2,D,PTCH,A,6.8,D,ROLL*54
$PTAK,FFD1,6.8*5B
$P,393
$HCHDG,169.8,0.0,E,,*2F
$P,415
$IIVHW,,,,,2.67,N,,*1A
$HCHDG,169.9,0.0,E,,*2E
$GPRMC,164205.6,A,4741.39901,N,12224.83925,W,002.77,184.5,220314,016.6,E,A*2E
$IIDPT,070.0,-1.0,*47
$P,396
$PGRME,20.2,M,136.0,M,137.5,M*1A
$IIMWV,330,R,07.5,N,A*11
$HCHDG,169.7,0.0,E,,*20
$P,398
$IIMWV,328,T,07.4,N,A*1F
$IIVHW,,,,,4.18,N,,*14
$P,383
$HCHDG,169.7,0.0,E,,*20
$GPRMC,164205.8,A,4741.39876,N,12224.83919,W,002.89,183.1,220314,016.6,E,A*2C
$PGRME,19.3,M,124.0,M,125.5,M*11
$IIVLW,06480,N,000.0,N*59
$P,389
$IIVWR,030,L,07.5,N,,,,*7E
$HCHDG,169.5,0.0,E,,*22
$P,372
$IIVHW,,,,,3.70,N,,*1D
$YXXDR,A,5.6,D,PTCH,A,7.4,D,ROLL*5D
$GPRMC,164206.0,A,4741.39835,N,12224.83913,W,002.74,181.1,220314,016.6,E,A*2A
$P,368
$HCHDG,169.4,0.0,E,,*23
$PGRME,18.5,M,114.0,M,115.5,M*16
$HCHDG,169.4,0.0,E,,*23
$P,329
$IIVHW,,,,,3.73,N,,*1E
$HCHDG,169.3,0.0,E,,*24
$P,341
$GPRMC,164206.2,A,4741.39781,N,12224.83914,W,002.72,183.0,220314,016.6,E,A*2A
$PGRME,17.8,M,105.2,M,106.7,M*16
$P,336
$HCHDG,169.1,0.0,E,,*26
$IIVHW,,,,,3.72,N,,*1F
$P,347
$HCHDG,168.9,0.0,E,,*2F
$GPRMC,164206.4,A,4741.39766,N,12224.83924,W,002.53,185.4,220314,016.6,E,A*27
$PGRME,17.2,M,97.6,M,99.1,M*13
$YXXDR,A,5.2,D,PTCH,A,8.5,D,ROLL*57
$P,322
$HCHDG,168.8,0.0,E,,*2E
$IIVHW,,,,,3.61,N,,*1D
$P,315
$HCHDG,168.9,0.0,E,,*2F
$GPRMC,164206.6,A,4741.39766,N,12224.83933,W,002.30,188.6,220314,016.6,E,A*29
$IIDPT,067.4,-1.0,*45
$PGRME,16.7,M,91.0,M,92.5,M*18
$P,300
$HCHDG,168.9,0.0,E,,*2F
$IIGLL,4741.398,N,12224.839,W,164200,A,A*42
$IIVHW,,,,,3.44,N,,*1A
$IIMWV,330,R,07.5,N,A*11
$P,333
$HCHDG,168.9,0.0,E,,*2F
$GPRMC,164206.8,A,4741.39744,N,12224.83934,W,002.87,184.4,220314,016.6,E,A*22
$IIMWV,330,T,07.5,N,A*17
$PGRME,16.3,M,85.9,M,87.5,M*14
$P,340
$HCHDG,168.8,0.0,E,,*2E
$IIVHW,,,,,3.40,N,,*1E
$P,358
$IIRMC,164200,A,4741.398,N,12224.839,W,02.8,183,220314,16,E,A*1F
$YXXDR,A,5.0,D,PTCH,A,7.5,D,ROLL*5A
$GPRMC,164207.0,A,4741.39754,N,12224.83946,W,003.49,179.8,220314,016.6,E,A*22
$HCHDG,169.1,0.0,E,,*26
$PGRME,16.0,M,81.2,M,82.8,M*10
$P,350
$IIVLW,06480,N,000.0,N*59
$HCHDG,169.4,0.0,E,,*23
$P,387
$IIVWR,030,L,07.5,N,,,,*7E
$IIVHW,,,,,3.44,N,,*1A
$P,392
$HCHDG,169.3,0.0,E,,*24
$GPRMC,164207.2,A,4741.39765,N,12224.83947,W,002.86,184.0,220314,016.6,E,A*2B
$PGRME,15.7,M,77.2,M,78.8,M*18
$P,398
$HCHDG,169.4,0.0,E,,*23
$IIVHW,,,,,3.50,N,,*1F
$P,376
$HCHDG,169.5,0.0,E,,*22
$GPRMC,164207.4,A,4741.39759,N,12224.83959,W,002.80,185.1,220314,016.6,E,A*2B
$PGRME,15.3,M,73.0,M,74.6,M*18
$P,391
$YXXDR,A,5.5,D,PTCH,A,6.9,D,ROLL*52
$P,381
$HCHDG,169.5,0.0,E,,*22
$IIVHW,,,,,3.59,N,,*16
$P,385
$HCHDG,169.5,0.0,E,,*22
$GPRMC,164207.6,A,4741.39775,N,12224.83969,W,002.80,183.7,220314,016.6,E,A*24
$GPRMB,A,3.28,L,,Lac,4823.3220,N,12229.7720,W,42.1,356,-2.77,V*53
$IIDPT,067.4,-1.0,*45
$PGRME,14.9,M,69.2,M,70.8,M*10
$P,368
$HCHDG,169.4,0.0,E,,*23
$IIGLL,4741.398,N,12224.839,W,164200,A,A*42
$IIVHW,,,,,3.66,N,,*1A
$P,393
$IIMWV,331,R,07.7,N,A*12
$HCHDG,169.4,0.0,E,,*23
$GPRMC,164207.8,A,4741.39780,N,12224.83979,W,002.70,185.0,220314,016.6,E,A*2F
$IIMWV,330,T,07.5,N,A*17
$PGRME,14.5,M,65.8,M,67.4,M*10
$P,376
$HCHDG,169.1,0.0,E,,*26
$P,372
$IIVHW,,,,,3.77,N,,*1A
$IIRMC,164200,A,4741.398,N,12224.839,W,02.8,183,220314,16,E,A*1F
$YXXDR,A,5.8,D,PTCH,A,7.1,D,ROLL*56
$PTAK,FFD1,7.1*53
$P,343
$GPRMC,164208.0,A,4741.39773,N,12224.83982,W,002.82,183.3,220314,016.6,E,A*28
$HCHDG,169.2,0.0,E,,*25
$PGRME,14.2,M,62.7,M,64.3,M*1B
$IIVLW,06480,N,000.0,N*59
$P,340
$HCHDG,169.0,0.0,E,,*27
$IIVWR,029,L,07.7,N,,,,*74
$IIVHW,,,,,3.74,N,,*19
$P,327
H46,W,003.00,179.7,220314,016.6,E,A*26
$IIDPT,067.4,-1.0,*45
$PGRME,11.1,M,39.0,M,40.6,M*17
,164210.6,A,4741.39572,N,12224.83946,W,003.00,179.7,220314,016.6,E,A*26
$IIDPT,067.4,-1.0,*45
$PGRME,11.1,M,39.0,M,40.6,M*17
$P,392
$HCHDG,169.6,0.0,E,,*21
$IIGLL,4741.396,N,12224.839,W,164200,A,A*4C
$IIVHW,,,,,3.43,N,,*1D
$IIMWV,332,R,07.6,N,A*10
$P,369
$HCHDG,169.9,0.0,E,,*2E
$GPRMC,164210.8,A,4741.39547,N,12224.83946,W,002.78,180.0,220314,016.6,E,A*21
$IIMWV,331,T,07.7,N,A*14
$PGRME,11.0,M,37.9,M,39.5,M*1C
$P,376
$HCHDG,170.3,0.0,E,,*2C
$IIVHW,,,,,3.43,N,,*1D
$P,387
$IIRMC,164200,A,4741.396,N,12224.839,W,02.6,182,220314,16,E,A*1E
$YXXDR,A,5.6,D,PTCH,A,5.6,D,ROLL*5D
$P,405
$GPRMC,164211.0,A,4741.39525,N,12224.83948,W,002.78,179.2,220314,016.6,E,A*26
$HCHDG,170.2,0.0,E,,*2D
$PGRME,10.8,M,36.9,M,38.4,M*14
$IIVLW,06480,N,000.0,N*59
$HCHDG,170.3,0.0,E,,*2C
$P,377
$IIVWR,028,L,07.6,N,,,,*74
$IIVHW,,,,,3.55,N,,*1A
$P,396
$HCHDG,170.3,0.0,E,,*2C
$GPRMC,164211.2,A,4741.39491,N,12224.83938,W,002.73,178.0,220314,016.6,E,A*25
$PGRME,10.7,M,35.9,M,37.4,M*17
$P,380
$HCHDG,170.4,0.0,E,,*2B
$P,389
$IIVHW,,,,,3.67,N,,*1B
$HCHDG,170.3,0.0,E,,*2C
$P,359
$GPRMC,164211.4,A,4741.39453,N,12224.83926,W,002.71,178.2,220314,016.6,E,A*22
$GPRMB,A,3.28,L,,Lac,4823.3220,N,12229.7720,W,42.1,356,-2.71,V*55
$PGRME,10.5,M,35.0,M,36.5,M*1C
$YXXDR,A,5.5,D,PTCH,A,6.4,D,ROLL*5F
$PTAK,FFD1,6.4*57
$P,374
$HCHDG,170.4,0.0,E,,*2B
$IIVHW,,,,,3.75,N,,*18
$P,356
$HCHDG,170.5,0.0,E,,*2A
$GPRMC,164211.6,A,4741.39442,N,12224.83928,W,002.71,179.4,220314,016.6,E,A*29
$IIDPT,067.4,-1.0,*45
$PGRME,10.4,M,34.1,M,35.6,M*1D
$P,360
$HCHDG,170.6,0.0,E,,*29
$IIGLL,4741.396,N,12224.839,W,164200,A,A*4C
$IIVHW,,,,,3.76,N,,*1B
$P,343
$IIMWV,331,R,07.6,N,A*13
$HCHDG,170.8,0.0,E,,*27
$GPRMC,164211.8,A,4741.39448,N,12224.83943,W,002.76,178.3,220314,016.6,E,A*21
$IIMWV,332,T,07.6,N,A*16
$PGRME,10.3,M,33.2,M,34.8,M*11
$P,335
$HCHDG,170.8,0.0,E,,*27
$IIRMB,A,3.00,L,,Lac ,,,,,042.1,356,,V,A*2D
$IIVHW,,,,,3.69,N,,*15
$P,321
$YXXDR,A,5.0,D,PTCH,A,6.4,D,ROLL*5A
$GPRMC,164212.0,A,4741.39425,N,12224.83937,W,002.66,178.4,220314,016.6,E,A*24
$HCHDG,171.3,0.0,E,,*2D
$PGRME,10.1,M,32.4,M,34.0,M*1C
$P,333
$IIRMC,164200,A,4741.396,N,12224.839,W,02.6,182,220314,16,E,A*1E
$HCHDG,171.4,0.0,E,,*2A
$IIVHW,,,,,3.59,N,,*16
$P,326
$IIVLW,06480,N,000.0,N*59
$HCHDG,171.7,0.0,E,,*29
$GPRMC,164212.2,A,4741.39407,N,12224.83932,W,002.96,178.9,220314,016.6,E,A*21
$GPRMB,A,3.28,L,,Lac,4823.3220,N,12229.7720,W,42.1,356,-2.95,V*5F
$P,336
$PGRME,10.0,M,31.7,M,33.2,M*18
$HCHDG,171.9,0.0,E,,*27
$P,339
$IIVHW,,,,,3.46,N,,*18
$P,395
$HCHDG,172.2,0.0,E,,*2F
$GPRMC,164212.4,A,4741.39397,N,12224.83935,W,003.01,179.2,220314,016.6,E,A*2B
$PGRME,9.9,M,30.9,M,32.4,M*21
$P,384
$YXXDR,A,5.1,D,PTCH,A,5.8,D,ROLL*54
$PTAK,FFD1,5.8*58
$HCHDG,172.4,0.0,E,,*29
$IIVHW,,,,,3.54,N,,*1B
$P,420
$HCHDG,172.8,0.0,E,,*25
$P,410
$GPRMC,164212.6,A,4741.39378,N,12224.83934,W,003.00,179.9,220314,016.6,E,A*23
$PGRME,9.7,M,30.2,M,31.7,M*24
$IIVWR,027,L,07.6,N,,,,*7B
$IIDPT,067.4,-1.0,*45
$P,415
$HCHDG,173.2,0.0,E,,*2E
$IIVHW,,,,,3.66,N,,*1A
$P,399
$IIGLL,4741.394,N,12224.839,W,164200,A,A*4E
$HCHDG,173.4,0.0,E,,*28
$GPRMC,164212.8,A,4741.39358,N,12224.83925,W,002.86,180.1,220314,016.6,E,A*2E
$PGRME,9.6,M,29.5,M,31.0,M*2D
$IIMWV,333,R,07.6,N,A*11
$P,417
$IIMWV,331,T,07.6,N,A*15
$HCHDG,173.8,0.0,E,,*24
$P,392
$IIVHW,,,,,3.76,N,,*1B
$YXXDR,A,5.8,D,PTCH,A,5.3,D,ROLL*56
$IIRMB,A,3.00,L,,Lac ,,,,,042.1,356,,V,A*2D
$P,386
$GPRMC,164213.0,A,4741.39338,N,12224.83921,W,002.67,183.7,220314,016.6,E,A*2F
$PGRME,9.5,M,28.9,M,30.4,M*26
$HCHDG,174.3,0.0,E,,*28
$P,374
$HCHDG,174.4,0.0,E,,*2F
$IIRMC,164200,A,4741.394,N,12224.839,W,02.7,178,220314,16,E,A*18
$IIVHW,,,,,3.84,N,,*16
$PTAK,FFP1,HEEL,@*07
$P,371
$HCHDG,174.7,0.0,E,,*2C
$GPRMC,164213.2,A,4741.39321,N,12224.83917,W,002.55,183.9,220314,016.6,E,A*2F
$PGRME,9.4,M,28.3,M,29.8,M*29
$P,350
$HCHDG,175.0,0.0,E,,*2A
$IIVHW,,,,,3.85,N,,*17
$P,363
$HCHDG,175.2,0.0,E,,*28
$GPRMC,164213.4,A,4741.39314,N,12224.83918,W,002.41,191.0,220314,016.6,E,A*2F
$PGRME,9.3,M,27.7,M,29.3,M*2E
$P,336
$YXXDR,A,5.6,D,PTCH,A,5.3,D,ROLL*58
$P,324
$HCHDG,175.3,0.0,E,,*29
$IIVHW,,,,,3.72,N,,*1F
$HCHDG,175.4,0.0,E,,*2E
$GPRMC,164213.6,A,4741.39290,N,12224.83916,W,002.66,192.5,220314,016.6,E,A*2D
$GPRMB,A,3.28,L,,Lac,4823.3220,N,12229.7720,W,42.1,356,-2.54,V*52
$P,297
$PGRME,9.3,M,27.2,M,28.7,M*2E
$IIVLW,06480,N,000.0,N*59
$IIVWR,029,L,07.6,N,,,,*75
$HCHDG,175.8,0.0,E,,*22
$IIVHW,,,,,3.58,N,,*17
$P,295
$IIDPT,067.4,-1.0,*45
$HCHDG,176.2,0.0,E,,*2B
$GPRMC,164213.8,A,4741.39273,N,12224.83917,W,002.57,192.3,220314,016.6,E,A*2B
$P,315
$PGRME,9.2,M,26.6,M,28.2,M*2F
$IIGLL,4741.393,N,12224.839,W,164200,A,A*49
$IIMWV,331,R,07.6,N,A*13
$HCHDG,176.4,0.0,E,,*2D
$P,365
$IIVHW,,,,,3.50,N,,*1F
$IIMWV,333,T,07.6,N,A*17
$YXXDR,A,5.0,D,PTCH,A,4.4,D,ROLL*58
$PTAK,FFD1,4.4*55
$P,357
$GPRMC,164214.0,A,4741.39264,N,12224.83927,W,003.02,188.9,220314,016.6,E,A*21
$HCHDG,176.8,0.0,E,,*21
$PGRME,9.1,M,26.1,M,27.7,M*21
$IIRMB,A,3.00,L,,Lac ,,,,,042.1,356,,V,A*2D
$P,360
$HCHDG,177.0,0.0,E,,*28
$IIVHW,,,,,3.46,N,,*18
$IIRMC,164200,A,4741.393,N,12224.839,W,02.8,180,220314,16,E,A*17
$P,341
$HCHDG,177.0,0.0,E,,*28
$GPRMC,164214.2,A,4741.39244,N,12224.83932,W,003.18,183.0,220314,016.6,E,A*2C
$PGRME,9.1,M,25.7,M,27.3,M*20
$P,367
$HCHDG,177.3,0.0,E,,*2B
$IIVHW,,,,,3.43,N,,*1D
$P,371
$HCHDG,177.4,0.0,E,,*2C
$GPRMC,164214.4,A,4741.39226,N,12224.83936,W,002.97,184.8,220314,016.6,E,A*23
$P,361
$PGRME,9.0,M,25.3,M,26.8,M*2F
$YXXDR,A,5.2,D,PTCH,A,4.3,D,ROLL*5D
$P,353
$HCHDG,177.4,0.0,E,,*2C
$IIVHW,,,,,3.45,N,,*1B
$P,376
$HCHDG,177.6,0.0,E,,*2E
$GPRMC,164214.6,A,4741.39211,N,12224.83939,W,002.85,187.0,220314,016.6,E,A*22
$PGRME,8.9,M,24.8,M,26.4,M*21
$P,377
$IIVLW,06480,N,000.0,N*59
$HCHDG,177.4,0.0,E,,*2C
$IIVHW,,,,,3.50,N,,*1F
$IIVWR,028,L,07.6,N,,,,*74
$P,381
$IIDPT,067.4,-1.0,*45
$HCHDG,177.5,0.0,E,,*2D
$GPRMC,164214.8,A,4741.39191,N,12224.83939,W,002.78,188.2,220314,016.6,E,A*28
$GPRMB,A,3.28,L,,Lac,4823.3220,N,12229.7720,W,42.1,356,-2.71,V*55
$PGRME,8.9,M,24.4,M,25.9,M*23
$P,363
$IIGLL,4741.393,N,12224.839,W,164200,A,A*49
$HCHDG,177.3,0.0,E,,*2B
$P,352
$IIVHW,,,,,3.61,N,,*1D
$IIMWV,332,R,07.6,N,A*10
$YXXDR,A,5.4,D,PTCH,A,4.2,D,ROLL*5A
$PTAK,FFD1,4.2*53
$IIMWV,331,T,07.6,N,A*15
$GPRMC,164215.0,A,4741.39191,N,12224.83950,W,002.32,196.5,220314,016.6,E,A*28
$P,318
$HCHDG,177.5,0.0,E,,*2D
$PGRME,8.8,M,24.0,M,25.5,M*2A
$IIRMB,A,3.00,L,,Lac ,,,,,042.1,356,,V,A*2D
$HCHDG,177.3,0.0,E,,*2B
$P,328
$IIVHW,,,,,3.56,N,,*19
$HCHDG,177.3,0.0,E,,*2B
$P,308
$GPRMC,164215.2,A,4741.39180,N,12224.83957,W,002.30,198.4,220314,016.6,E,A*20
$PGRME,8.7,M,23.6,M,25.2,M*23
$HCHDG,177.1,0.0,E,,*29
$P,323
$IIVHW,,,,,3.47,N,,*19
$HCHDG,177.2,0.0,E,,*2A
$P,310
$GPRMC,164215.4,A,4741.39167,N,12224.83964,W,002.64,193.7,220314,016.6,E,A*26
$PGRME,8.7,M,23.2,M,24.8,M*2C
$YXXDR,A,5.0,D,PTCH,A,3.7,D,ROLL*5C
$P,337
$IIVHW,,,,,3.41,N,,*1F
$HCHDG,177.1,0.0,E,,*29
$P,331
$HCHDG,177.1,0.0,E,,*29
$GPRMC,164215.6,A,4741.39155,N,12224.83967,W,002.72,192.2,220314,016.6,E,A*25
$PGRME,8.6,M,22.8,M,24.4,M*2A
$P,351
$HCHDG,177.1,0.0,E,,*29
$IIRMC,164200,A,4741.391,N,12224.839,W,02.7,188,220314,16,E,A*12
$IIVHW,,,,,3.40,N,,*1E
$P,348
$HCHDG,177.0,0.0,E,,*28
$IIVLW,06480,N,000.0,N*59
$GPRMC,164215.8,A,4741.39150,N,12224.83974,W,002.64,188.7,220314,016.6,E,A*25
$GPRMB,A,3.28,L,,Lac,4823.3220,N,12229.7720,W,42.1,356,-2.57,V*51
$PGRME,8.6,M,22.5,M,24.0,M*23
$P,375
$IIVWR,027,L,07.4,N,,,,*79
$HCHDG,176.8,0.0,E,,*21
$IIVHW,,,,,3.43,N,,*1D
$IIDPT,070.5,-1.0,*42
$P,384
$YXXDR,A,5.3,D,PTCH,A,3.3,D,ROLL*5B
$PTAK,FFD1,3.3*55
$P,402
$IIGLL,4741.391,N,12224.839,W,164200,A,A*4B
$GPRMC,164216.0,A,4741.39157,N,12224.83986,W,002.68,190.1,220314,016.6,E,A*27
$HCHDG,176.9,0.0,E,,*20
$PGRME,8.5,M,22.1,M,23.7,M*24
$IIMWV,333,R,07.4,N,A*13
$P,382
$HCHDG,176.7,0.0,E,,*2E
$IIVHW,,,,,3.50,N,,*1F
$IIMWV,332,T,07.6,N,A*16
$P,372
$HCHDG,176.6,0.0,E,,*2F
$GPRMC,164216.2,A,4741.39141,N,12224.83987,W,002.58,188.6,220314,016.6,E,A*2E
$PGRME,8.5,M,21.8,M,23.4,M*2D
$P,369
$HCHDG,176.7,0.0,E,,*2E
$IIVHW,,,,,3.56,N,,*19
$P,396
$HCHDG,176.7,0.0,E,,*2E
$P,380
$GPRMC,164216.4,A,4741.39125,N,12224.83988,W,002.48,188.6,220314,016.6,E,A*24
$PGRME,8.5,M,21.6,M,23.1,M*26
$YXXDR,A,5.6,D,PTCH,A,3.0,D,ROLL*5D
$P,377
$IIVHW,,,,,3.66,N,,*1A
$HCHDG,176.8,0.0,E,,*21
$P,345
$HCHDG,176.5,0.0,E,,*2C
$GPRMC,164216.6,A,4741.39108,N,12224.83990,W,002.48,187.5,220314,016.6,E,A*2C
$PGRME,8.4,M,21.3,M,22.9,M*2B
$P,357
$IIRMB,A,3.00,L,,Lac ,,,,,042.1,356,,V,A*2D
$HCHDG,176.6,0.0,E,,*2F
$IIVHW,,,,,3.70,N,,*1D
$P,328
$HCHDG,176.3,0.0,E,,*2A
$IIRMC,164200,A,4741.391,N,12224.839,W,02.6,188,220314,16,E,A*13
$GPRMC,164216.8,A,4741.39094,N,12224.83992,W,002.48,187.8,220314,016.6,E,A*29
$GPRMB,A,3.28,L,,Lac,4823.3220,N,12229.7720,W,42.1,356,-2.42,V*55
$PGRME,8.4,M,21.0,M,22.7,M*26
$P,361
$HCHDG,176.5,0.0,E,,*2C
$IIVLW,06480,N,000.0,N*59
$IIVHW,,,,,3.68,N,,*14
$P,346
$IIVWR,027,L,07.3,N,,,,*7E
$YXXDR,A,5.4,D,PTCH,A,2.9,D,ROLL*57
$PTAK,FFD1,2.9*5E
$P,344
$IIDPT,070.5,-1.0,*42
$GPRMC,164217.0,A,4741.39083,N,12224.83993,W,002.54,188.0,220314,016.6,E,A*2D
$HCHDG,176.3,0.0,E,,*2A
$PTAK,FFP1,HEEL,@*07
$PGRME,8.4,M,20.8,M,22.4,M*2C
$HCHDG,176.4,0.0,E,,*2D
$P,341
$IIGLL,4741.391,N,12224.839,W,164200,A,A*4B
$IIVHW,,,,,3.58,N,,*17
$IIMWV,333,R,07.3,N,A*14
$P,356
$HCHDG,176.5,0.0,E,,*2C
$GPRMC,164217.2,A,4741.39068,N,12224.83995,W,002.55,183.5,220314,016.6,E,A*23
$PGRME,8.4,M,20.5,M,22.2,M*27
$P,348
$HCHDG,176.7,0.0,E,,*2E
$IIVHW,,,,,3.55,N,,*1A
$P,360
$HCHDG,176.8,0.0,E,,*21
$GPRMC,164217.4,A,4741.39054,N,12224.83997,W,002.68,184.7,220314,016.6,E,A*23
$PGRME,8.3,M,20.3,M,21.9,M*2E
$P,333
$YXXDR,A,5.1,D,PTCH,A,2.3,D,ROLL*58
$IIVHW,,,,,3.50,N,,*1F
$HCHDG,176.7,0.0,E,,*2E
$P,342
$HCHDG,176.9,0.0,E,,*20
$GPRMC,164217.6,A,4741.39037,N,12224.83996,W,002.72,185.0,220314,016.6,E,A*28
$IIMWV,333,T,07.3,N,A*12
$PGRME,8.3,M,20.0,M,21.7,M*23
$P,335
$HCHDG,177.2,0.0,E,,*2A
$IIVHW,,,,,3.45,N,,*1B
$IIRMB,A,3.00,L,,Lac ,,,,,042.1,356,,V,A*2D
$P,330
$HCHDG,177.3,0.0,E,,*2B
$GPRMC,164217.8,A,4741.39021,N,12224.83995,W,002.85,180.6,220314,016.6,E,A*29
$P,338
$PGRME,8.3,M,19.8,M,21.4,M*22
$IIRMC,164200,A,4741.391,N,12224.839,W,02.6,188,220314,16,E,A*13
$HCHDG,177.5,0.0,E,,*2D
$P,351
$IIVHW,,,,,3.43,N,,*1D
$IIVLW,06480,N,000.0,N*59
$YXXDR,A,5.2,D,PTCH,A,1.8,D,ROLL*53
$P,324
$GPRMC,164218.0,A,4741.39008,N,12224.83999,W,002.61,184.8,220314,016.6,E,A*29
$GPRMB,A,3.28,L,,Lac,4823.3220,N,12229.7720,W,42.1,356,-2.58,V*5E
$IIVWR,027,L,07.2,N,,,,*7F
$HCHDG,177.7,0.0,E,,*2F
$PGRME,8.2,M,19.6,M,21.2,M*2B
$IIDPT,070.5,-1.0,*42
$HCHDG,178.0,0.0,E,,*27
$P,323
$IIVHW,,,,,3.38,N,,*11
$IIGLL,4741.391,N,12224.839,W,164200,A,A*4B
$HCHDG,178.3,0.0,E,,*24
$P,298
$GPRMC,164218.2,A,4741.38997,N,12224.84003,W,002.65,182.0,220314,016.6,E,A*22
$PGRME,8.2,M,19.3,M,21.0,M*2C
$P,326
$HCHDG,178.7,0.0,E,,*20
$IIVHW,,,,,3.33,N,,*1A
$P,318
$HCHDG,178.7,0.0,E,,*20
$GPRMC,164218.4,A,4741.38982,N,12224.84005,W,002.75,184.8,220314,016.6,E,A*29
$PGRME,8.2,M,19.1,M,20.8,M*27
$YXXDR,A,5.0,D,PTCH,A,1.6,D,ROLL*5F
$PTAK,FFD1,1.6*52
$P,344
$IIVHW,,,,,3.31,N,,*18
$HCHDG,178.7,0.0,E,,*20
$P,304
$HCHDG,179.1,0.0,E,,*27
$GPRMC,164218.6,A,4741.38974,N,12224.84012,W,002.54,187.7,220314,016.6,E,A*2B
$PGRME,8.1,M,18.9,M,20.6,M*23
$IIMWV,335,R,07.0,N,A*11
$P,306
$IIMWV,333,T,07.2,N,A*13
$HCHDG,179.2,0.0,E,,*24
$IIVHW,,,,,3.23,N,,*1B
$IIRMB,A,3.00,L,,Lac ,,,,,042.1,356,,V,A*2D
$P,288
$HCHDG,179.2,0.0,E,,*24
$GPRMC,164218.8,A,4741.38965,N,12224.84019,W,001.95,200.9,220314,016.6,E,A*22
$PGRME,8.1,M,18.7,M,20.4,M*2F
$HCHDG,179.4,0.0,E,,*22
$P,277
$IIRMC,164200,A,4741.390,N,12224.839,W,02.6,184,220314,16,E,A*1E
$IIVHW,,,,,3.11,N,,*1A
$YXXDR,A,5.1,D,PTCH,A,1.9,D,ROLL*51
$P,274
$IIVLW,06480,N,000.0,N*59
$GPRMC,164219.0,A,4741.38953,N,12224.84024,W,002.25,194.6,220314,016.6,E,A*29
$GPRMB,A,3.28,L,,Lac,4823.3220,N,12229.7720,W,42.1,356,-2.13,V*51
$HCHDG,179.5,0.0,E,,*23
$PGRME,8.1,M,18.5,M,20.2,M*2B
$IIVWR,025,L,07.0,N,,,,*7F
$HCHDG,179.6,0.0,E,,*20
$IIVHW,,,,,3.03,N,,*19
$P,285
$IIDPT,070.5,-1.0,*42
$HCHDG,179.8,0.0,E,,*2E
$GPRMC,164219.2,A,4741.38939,N,12224.84025,W,002.37,192.3,220314,016.6,E,A*26
$PGRME,8.1,M,18.4,M,20.1,M*29
$P,272
$HCHDG,180.0,0.0,E,,*20
$IIVHW,,,,,2.95,N,,*17
$P,307
$HCHDG,180.1,0.0,E,,*21
$GPRMC,164219.4,A,4741.38925,N,12224.84028,W,002.39,193.2,220314,016.6,E,A*2E
$P,314
$PGRME,8.1,M,18.2,M,19.9,M*2D
$YXXDR,A,4.6,D,PTCH,A,2.3,D,ROLL*5E
$PTAK,FFD1,2.3*54
$IIVHW,,,,,2.99,N,,*1B
$P,348
$HCHDG,180.2,0.0,E,,*22
$HCHDG,180.3,0.0,E,,*23
$P,345
$GPRMC,164219.6,A,4741.38911,N,12224.84029,W,002.56,188.7,220314,016.6,E,A*2C
$PGRME,8.1,M,18.1,M,19.8,M*2F
$IIGLL,4741.389,N,12224.840,W,164200,A,A*4C
$P,360
$HCHDG,180.6,0.0,E,,*26
$IIVHW,,,,,3.11,N,,*1A
$IIMWV,336,R,06.7,N,A*14
$IIMWV,335,T,07.0,N,A*17
$P,353
$HCHDG,180.8,0.0,E,,*28
$GPRMC,164219.8,A,4741.38898,N,12224.84033,W,002.34,187.5,220314,016.6,E,A*20
$PGRME,8.1,M,17.9,M,19.7,M*27
$P,347
$IIRMB,A,3.00,L,,Lac ,,,,,042.1,356,,V,A*2D
$HCHDG,180.8,0.0,E,,*28
$IIVHW,,,,,3.18,N,,*13
$P,343
$YXXDR,A,5.2,D,PTCH,A,1.8,D,ROLL*53
$IIRMC,164200,A,4741.389,N,12224.840,W,02.2,194,220314,16,E,A*1D
$GPRMC,164220.0,A,4741.38887,N,12224.84036,W,002.20,189.8,220314,016.6,E,A*2F
$HCHDG,180.9,0.0,E,,*29
$PGRME,8.1,M,17.8,M,19.5,M*24
$P,361
$HCHDG,181.3,0.0,E,,*22
$IIVLW,06480,N,000.0,N*59
$IIVHW,,,,,3.25,N,,*1D
$P,328
$IIVWR,024,L,06.7,N,,,,*78
$HCHDG,181.4,0.0,E,,*25
$GPRMC,164220.2,A,4741.38873,N,12224.84039,W,002.25,194.0,220314,016.6,E,A*28
$GPRMB,A,3.28,L,,Lac,4823.3220,N,12229.7720,W,42.1,356,-2.13,V*51
$P,323
$PGRME,8.1,M,17.6,M,19.4,M*2B
$HCHDG,181.4,0.0,E,,*25
$IIVHW,,,,,3.35,N,,*1C
$P,304
$HCHDG,181.6,0.0,E,,*27
$GPRMC,164220.4,A,4741.38856,N,12224.84045,W,002.17,194.0,220314,016.6,E,A*23
$P,309
$PGRME,8.1,M,17.5,M,19.3,M*2F
$YXXDR,A,5.4,D,PTCH,A,1.8,D,ROLL*55
$PTAK,FFD1,1.8*5C
$IIVHW,,,,,3.34,N,,*1D
$HCHDG,181.5,0.0,E,,*24
$P,287
$HCHDG,181.8,0.0,E,,*29
$GPRMC,164220.6,A,4741.38836,N,12224.84045,W,002.45,193.4,220314,016.6,E,A*23
$IIDPT,070.5,-1.0,*42
$PGRME,8.1,M,17.3,M,19.1,M*2B
$P,282
$HCHDG,182.1,0.0,E,,*23
$IIVHW,,,,,3.22,N,,*1A
$IIGLL,4741.388,N,12224.840,W,164200,A,A*4D
$P,258
$IIMWV,334,R,06.7,N,A*16
$HCHDG,182.3,0.0,E,,*21
$GPRMC,164220.8,A,4741.38821,N,12224.84049,W,002.46,193.9,220314,016.6,E,A*29
$IIMWV,336,T,06.7,N,A*12
$PGRME,8.1,M,17.2,M,19.0,M*2B
$P,285
$HCHDG,182.5,0.0,E,,*27
$IIVHW,,,,,3.06,N,,*1C
$IIRMB,A,3.00,L,,Lac ,,,,,042.1,356,,V,A*2D
$P,315
$YXXDR,A,5.0,D,PTCH,A,0.9,D,ROLL*51
$GPRMC,164221.0,A,4741.38807,N,12224.84053,W,002.67,197.3,220314,016.6,E,A*22
$HCHDG,182.7,0.0,E,,*25
$PGRME,8.0,M,17.1,M,18.9,M*21
$P,353
$IIRMC,164200,A,4741.388,N,12224.840,W,02.2,189,220314,16,E,A*10
$HCHDG,183.0,0.0,E,,*23
$IIVHW,,,,,3.14,N,,*1F
$P,352
$IIVLW,06480,N,000.0,N*59
$HCHDG,182.9,0.0,E,,*2B
$PTAK,FFP1,HEEL,@*07
$P,380
$GPRMC,164221.2,A,4741.38794,N,12224.84057,W,002.64,197.0,220314,016.6,E,A*21
$GPRMB,A,3.28,L,,Lac,4823.3220,N,12229.7720,W,42.1,356,-2.46,V*51
$PGRME,8.0,M,16.9,M,18.7,M*26
$HCHDG,183.0,0.0,E,,*23
$P,370
$IIVHW,,,,,3.24,N,,*1C
$P,393
$HCHDG,183.1,0.0,E,,*22
$GPRMC,164221.4,A,4741.38777,N,12224.84061,W,002.55,197.6,220314,016.6,E,A*2B
$PGRME,8.0,M,16.7,M,18.5,M*2A
$P,393
$YXXDR,A,5.4,D,PTCH,A,0.2,D,ROLL*5E
$PTAK,FFD1,0.2*57
$IIVHW,,,,,3.34,N,,*1D
$HCHDG,183.1,0.0,E,,*22
$P,416
$HCHDG,183.2,0.0,E,,*21
$P,394
$GPRMC,164221.6,A,4741.38771,N,12224.84070,W,002.54,198.2,220314,016.6,E,A*25
$PGRME,7.9,M,16.6,M,18.4,M*2C
$IIVWR,026,L,06.6,N,,,,*7B
$IIDPT,070.5,-1.0,*42
$P,375
$HCHDG,183.2,0.0,E,,*21
$IIVHW,,,,,3.52,N,,*1D
$IIGLL,4741.388,N,12224.840,W,164200,A,A*4D
$P,348
$HCHDG,183.0,0.0,E,,*23
$GPRMC,164221.8,A,4741.38759,N,12224.84076,W,002.43,203.1,220314,016.6,E,A*23
$PGRME,7.9,M,16.5,M,18.3,M*28
$IIMWV,334,R,06.6,N,A*17
$P,372
$IIMWV,334,T,06.7,N,A*10
$HCHDG,183.1,0.0,E,,*22
$IIVHW,,,,,3.63,N,,*1F
$P,347
$YXXDR,A,5.7,D,PTCH,A,0.6,D,ROLL*59
$IIRMB,A,3.00,L,,Lac ,,,,,042.1,356,,V,A*2D
$GPRMC,164222.0,A,4741.38745,N,12224.84083,W,002.20,208.6,220314,016.6,E,A*26
$HCHDG,182.9,0.0,E,,*2B
$PGRME,7.9,M,16.3,M,18.2,M*2F
$P,343
$HCHDG,182.8,0.0,E,,*2A
$IIVHW,,,,,3.71,N,,*1C
$IIRMC,164200,A,4741.388,N,12224.840,W,02.6,197,220314,16,E,A*1B
$P,315
$HCHDG,182.6,0.0,E,,*24
$GPRMC,164222.2,A,4741.38733,N,12224.84093,W,002.21,206.3,220314,016.6,E,A*2E
$PGRME,7.9,M,16.2,M,18.0,M*2C
$P,336
$HCHDG,182.6,0.0,E,,*24
$IIVHW,,,,,3.63,N,,*1F
$P,307
$HCHDG,182.5,0.0,E,,*27
$GPRMC,164222.4,A,4741.38720,N,12224.84098,W,002.32,201.9,220314,016.6,E,A*2E
$GPRMB,A,3.28,L,,Lac,4823.3220,N,12229.7720,W,42.1,356,-2.08,V*5B
$P,312
$PGRME,7.9,M,16.1,M,17.9,M*29
$YXXDR,A,5.5,D,PTCH,A,1.0,D,ROLL*5C
$PTAK,FFD1,1.0*54
$IIVHW,,,,,3.48,N,,*16
$HCHDG,182.4,0.0,E,,*26
$P,285
$HCHDG,182.2,0.0,E,,*20
$GPRMC,164222.6,A,4741.38709,N,12224.84105,W,002.48,202.0,220314,016.6,E,A*25
$PGRME,7.9,M,16.0,M,17.8,M*29
$IIVLW,06480,N,000.0,N*59
$P,312
$IIVWR,027,L,06.5,N,,,,*79
$HCHDG,182.2,0.0,E,,*20
$IIVHW,,,,,3.31,N,,*18
$IIDPT,070.5,-1.0,*42
$P,286
$HCHDG,181.8,0.0,E,,*29
$GPRMC,164222.8,A,4741.38701,N,12224.84115,W,002.38,198.0,220314,016.6,E,A*25
$PGRME,7.8,M,15.9,M,17.7,M*2D
$IIGLL,4741.387,N,12224.840,W,164200,A,A*42
$P,290
$IIMWV,333,R,06.5,N,A*13
$HCHDG,181.6,0.0,E,,*27
$IIVHW,,,,,3.14,N,,*1F
$IIMWV,334,T,06.6,N,A*11
$P,260
$YXXDR,A,5.0,D,PTCH,A,1.4,D,ROLL*5D
$GPRMC,164223.0,A,4741.38689,N,12224.84120,W,002.53,196.4,220314,016.6,E,A*2C
$HCHDG,181.3,0.0,E,,*22
$PGRME,7.8,M,15.8,M,17.6,M*2D
$IIRMB,A,3.00,L,,Lac ,,,,,042.1,356,,V,A*2D
$P,302
$HCHDG,180.9,0.0,E,,*29
$IIVHW,,,,,3.04,N,,*1E
$P,299
$IIRMC,164200,A,4741.387,N,12224.840,W,02.2,208,220314,16,E,A*15
$HCHDG,180.9,0.0,E,,*29
$GPRMC,164223.2,A,4741.38676,N,12224.84126,W,002.41,198.6,220314,016.6,E,A*27
$PGRME,7.8,M,15.7,M,17.5,M*21
$P,309
$HCHDG,180.8,0.0,E,,*28
$IIVHW,,,,,2.99,N,,*1B
$P,301
$HCHDG,180.4,0.0,E,,*24
$GPRMC,164223.4,A,4741.38664,N,12224.84135,W,002.30,197.0,220314,016.6,E,A*2F
$GPRMB,A,3.28,L,,Lac,4823.3220,N,12229.7720,W,42.1,356,-2.14,V*56
$PGRME,7.8,M,15.6,M,17.4,M*21
$P,304
$YXXDR,A,5.5,D,PTCH,A,2.0,D,ROLL*5F
$PTAK,FFD1,2.0*57
$IIVHW,,,,,2.97,N,,*15
$HCHDG,180.3,0.0,E,,*23
$P,280
$HCHDG,180.2,0.0,E,,*22
$GPRMC,164223.6,A,4741.38651,N,12224.84140,W,002.13,199.3,220314,016.6,E,A*25
$PGRME,7.8,M,15.5,M,17.3,M*25
$P,297
$IIVLW,06480,N,000.0,N*59
$HCHDG,180.0,0.0,E,,*20
$IIVHW,,,,,2.94,N,,*16
$IIVWR,028,L,06.3,N,,,,*70
$P,293
$IIDPT,067.4,-1.0,*45
$HCHDG,179.7,0.0,E,,*21
$GPRMC,164223.8,A,4741.38638,N,12224.84145,W,002.18,197.2,220314,016.6,E,A*25
$PGRME,7.8,M,15.4,M,17.2,M*25
$IIGLL,4741.386,N,12224.841,W,164200,A,A*42
$P,314
$HCHDG,179.7,0.0,E,,*21
$IIVHW,,,,,2.95,N,,*17
$IIMWV,332,R,06.3,N,A*14
$YXXDR,A,5.2,D,PTCH,A,1.8,D,ROLL*53
$P,294
$IIMWV,333,T,06.5,N,A*15
$GPRMC,164224.0,A,4741.38625,N,12224.84150,W,002.16,193.8,220314,016.6,E,A*22
$HCHDG,179.7,0.0,E,,*21
$PGRME,7.8,M,15.3,M,17.1,M*21
$IIRMB,A,3.00,L,,Lac ,,,,,042.1,356,,V,A*2D
$P,302
$HCHDG,179.6,0.0,E,,*20
$IIVHW,,,,,2.97,N,,*15
$HCHDG,179.6,0.0,E,,*20
$P,281
$GPRMC,164224.2,A,4741.38607,N,12224.84154,W,002.30,187.7,220314,016.6,E,A*2A
$PGRME,7.8,M,15.1,M,17.0,M*22
$HCHDG,179.5,0.0,E,,*23
$IIVHW,,,,,2.97,N,,*15
$P,277
$HCHDG,179.2,0.0,E,,*24
$P,278
$GPRMC,164224.4,A,4741.38593,N,12224.84157,W,002.31,188.6,220314,016.6,E,A*2E
$GPRMB,A,3.28,L,,Lac,4823.3220,N,12229.7720,W,42.1,356,-2.25,V*54
$PGRME,7.8,M,15.1,M,16.9,M*2A
$YXXDR,A,5.5,D,PTCH,A,2.1,D,ROLL*5E
$IIVHW,,,,,2.91,N,,*13
$P,301
$HCHDG,179.3,0.0,E,,*25
$HCHDG,179.5,0.0,E,,*23
$GPRMC,164224.6,A,4741.38581,N,12224.84160,W,002.27,191.0,220314,016.6,E,A*22
$PGRME,7.8,M,15.0,M,16.9,M*2B
$P,280
$HCHDG,179.3,0.0,E,,*25
$IIVHW,,,,,2.90,N,,*12
$IIRMC,164200,A,4741.386,N,12224.841,W,02.1,193,220314,16,E,A*17
$P,295
$HCHDG,179.5,0.0,E,,*23
$IIVLW,06480,N,000.0,N*59
$GPRMC,164224.8,A,4741.38569,N,12224.84165,W,002.29,194.6,220314,016.6,E,A*22
$PGRME,7.8,M,14.9,M,16.8,M*22
$P,289
$IIVWR,027,L,06.2,N,,,,*7E
$HCHDG,179.3,0.0,E,,*25
$IIVHW,,,,,2.90,N,,*12
$IIDPT,067.4,-1.0,*45
$P,294
$YXXDR,A,5.1,D,PTCH,A,2.3,D,ROLL*58
$PTAK,FFD1,2.3*54
$IIGLL,4741.386,N,12224.841,W,164200,A,A*42
$GPRMC,164225.0,A,4741.38553,N,12224.84168,W,002.60,188.2,220314,016.6,E,A*2B
$HCHDG,179.4,0.0,E,,*22
$PGRME,7.8,M,14.8,M,16.7,M*2C
$P,287
$IIMWV,333,R,06.2,N,A*14
$HCHDG,179.6,0.0,E,,*20
$IIVHW,,,,,2.88,N,,*1B
$IIMWV,332,T,06.3,N,A*12
$P,322
$HCHDG,179.9,0.0,E,,*2F
$GPRMC,164225.2,A,4741.38537,N,12224.84168,W,002.81,184.5,220314,016.6,E,A*2F
$PTAK,FFP1,HEEL,@*07
$PGRME,7.8,M,14.7,M,16.6,M*22
$P,315
$HCHDG,180.1,0.0,E,,*21
$IIVHW,,,,,2.94,N,,*16
$P,328
$HCHDG,180.2,0.0,E,,*22
$GPRMC,164225.4,A,4741.38523,N,12224.84169,W,002.76,183.9,220314,016.6,E,A*2E
$PGRME,7.8,M,14.6,M,16.6,M*23
$P,319
$YXXDR,A,5.4,D,PTCH,A,2.3,D,ROLL*5D
$IIVHW,,,,,3.01,N,,*1B
$P,329
$HCHDG,180.4,0.0,E,,*24
$HCHDG,180.3,0.0,E,,*23
$P,320
$GPRMC,164225.6,A,4741.38518,N,12224.84174,W,002.46,182.4,220314,016.6,E,A*27
$GPRMB,A,3.28,L,,Lac,4823.3220,N,12229.7720,W,42.1,356,-2.44,V*53
$PGRME,7.7,M,14.5,M,16.4,M*2D
$IIRMB,A,3.00,L,,Lac ,,,,,042.1,356,,V,A*2D
$HCHDG,180.3,0.0,E,,*23
$IIVHW,,,,,3.09,N,,*13
$P,323
$HCHDG,180.6,0.0,E,,*26
$IIRMC,164200,A,4741.385,N,12224.841,W,02.6,188,220314,16,E,A*19
$P,296
$GPRMC,164225.8,A,4741.38502,N,12224.84174,W,002.52,181.4,220314,016.6,E,A*24
$PGRME,7.7,M,14.4,M,16.4,M*2C
$HCHDG,180.6,0.0,E,,*26
$IIVHW,,,,,3.12,N,,*19
$IIVLW,06480,N,000.0,N*59
$P,303
$IIVWR,026,L,06.0,N,,,,*7D
$YXXDR,A,5.4,D,PTCH,A,3.4,D,ROLL*5B
$PTAK,FFD1,3.4*52
$IIDPT,067.4,-1.0,*45
$GPRMC,164226.0,A,4741.38492,N,12224.84176,W,002.32,188.0,220314,016.6,E,A*2E
$P,297
$HCHDG,180.7,0.0,E,,*27
$PGRME,7.7,M,14.4,M,16.3,M*2B
$HCHDG,181.0,0.0,E,,*21
$IIVHW,,,,,3.12,N,,*19
$IIGLL,4741.385,N,12224.841,W,164200,A,A*41
$P,313
$IIMWV,334,R,06.0,N,A*11
$HCHDG,180.9,0.0,E,,*29
$GPRMC,164226.2,A,4741.38476,N,12224.84179,W,002.49,188.8,220314,016.6,E,A*2D
$P,288
$PGRME,7.7,M,14.3,M,16.2,M*2D
$IIVHW,,,,,3.10,N,,*1B
$HCHDG,181.1,0.0,E,,*20
$P,296
$P,0
$HCHDG,181.4,0.0,E,,*25
$GPRMC,164226.4,A,4741.38463,N,12224.84184,W,002.46,192.6,220314,016.6,E,A*27
$PGRME,7.7,M,14.2,M,16.2,M*2C
$P,281
$YXXDR,A,5.5,D,PTCH,A,3.6,D,ROLL*58
$IIVHW,,,,,2.68,N,,*15
$HCHDG,181.9,0.0,E,,*28
$P,301
$HCHDG,181.9,0.0,E,,*28
$GPRMC,164226.6,A,4741.38449,N,12224.84187,W,002.44,193.7,220314,016.6,E,A*2C
$PGRME,7.7,M,14.1,M,16.1,M*2C
$IIMWV,334,T,06.0,N,A*17
$P,297
$IIVHW,,,,,2.68,N,,*15
$HCHDG,181.9,0.0,E,,*28
$IIRMB,A,3.00,L,,Lac ,,,,,042.1,356,,V,A*2D
$P,314
$HCHDG,182.0,0.0,E,,*22
$GPRMC,164226.8,A,4741.38435,N,12224.84190,W,002.45,191.8,220314,016.6,E,A*23
$GPRMB,A,3.28,L,,Lac,4823.3220,N,12229.7720,W,42.1,356,-2.35,V*55
$PGRME,7.7,M,14.0,M,16.0,M*2C
$P,315
$IIRMC,164200,A,4741.384,N,12224.841,W,02.3,188,220314,16,E,A*1D
$IIVHW,,,,,2.74,N,,*18
$HCHDG,182.4,0.0,E,,*26
$P,344
$IIVLW,06480,N,000.0,N*59
$YXXDR,A,5.4,D,PTCH,A,4.1,D,ROLL*59
$PTAK,FFD1,4.1*50
$GPRMC,164227.0,A,4741.38420,N,12224.84194,W,002.61,194.0,220314,016.6,E,A*21
$IIVWR,025,L,05.9,N,,,,*74
$P,324
$HCHDG,182.5,0.0,E,,*27
$PGRME,7.7,M,14.0,M,16.0,M*2C
$IIDPT,067.4,-1.0,*45
$IIVHW,,,,,2.84,N,,*17
$HCHDG,182.6,0.0,E,,*24
$P,317
$IIGLL,4741.384,N,12224.841,W,164200,A,A*40
$HCHDG,182.6,0.0,E,,*24
$P,300
$GPRMC,164227.2,A,4741.38403,N,12224.84197,W,002.66,188.7,220314,016.6,E,A*2C
$PGRME,7.7,M,13.9,M,15.9,M*28
$IIVHW,,,,,2.88,N,,*1B
$HCHDG,182.5,0.0,E,,*27
$P,331
$HCHDG,182.4,0.0,E,,*26
$P,324
$GPRMC,164227.4,A,4741.38388,N,12224.84202,W,002.47,189.1,220314,016.6,E,A*25
$PGRME,7.7,M,13.8,M,15.8,M*28
$YXXDR,A,5.4,D,PTCH,A,5.2,D,ROLL*5B
$IIVHW,,,,,2.96,N,,*14
$P,344
$HCHDG,182.4,0.0,E,,*26
$P,326
$HCHDG,182.2,0.0,E,,*20
$GPRMC,164227.6,A,4741.38373,N,12224.84208,W,002.37,186.5,220314,016.6,E,A*25
$IIMWV,337,R,05.8,N,A*19
$PGRME,7.7,M,13.7,M,15.7,M*28
$P,336
$IIMWV,335,T,05.9,N,A*1C
$IIVHW,,,,,3.22,N,,*1A
$HCHDG,182.2,0.0,E,,*20
$IIRMB,A,3.00,L,,Lac ,,,,,042.1,356,,V,A*2D
$P,311
$HCHDG,182.1,0.0,E,,*23
$GPRMC,164227.8,A,4741.38360,N,12224.84213,W,002.32,187.6,220314,016.6,E,A*24
$PGRME,7.7,M,13.6,M,15.6,M*28
$P,308
$IIVHW,,,,,3.23,N,,*1B
$HCHDG,182.1,0.0,E,,*23
$IIRMC,164200,A,4741.384,N,12224.841,W,02.6,194,220314,16,E,A*15
$YXXDR,A,5.5,D,PTCH,A,6.5,D,ROLL*5E
$P,308
$IIVLW,06480,N,000.0,N*59
$GPRMC,164228.0,A,4741.38345,N,12224.84216,W,002.27,187.2,220314,016.6,E,A*21
$GPRMB,A,3.28,L,,Lac,4823.3220,N,12229.7720,W,42.1,356,-2.22,V*53
$HCHDG,182.4,0.0,E,,*26
$PGRME,7.6,M,13.5,M,15.5,M*29
$P,318
$IIVWR,023,L,05.8,N,,,,*73
$IIVHW,,,,,3.20,N,,*18
$HCHDG,182.3,0.0,E,,*21
$IIDPT,067.4,-1.0,*45
$P,307
$HCHDG,182.3,0.0,E,,*21
$GPRMC,164228.2,A,4741.38329,N,12224.84216,W,002.58,184.9,220314,016.6,E,A*29
$PGRME,7.6,M,13.4,M,15.4,M*29
$P,293
$IIVHW,,,,,3.16,N,,*1D
$HCHDG,182.6,0.0,E,,*24
$P,265
$HCHDG,182.6,0.0,E,,*24
$GPRMC,164228.4,A,4741.38319,N,12224.84223,W,002.50,180.6,220314,016.6,E,A*29
$PGRME,7.6,M,13.3,M,15.3,M*29
$YXXDR,A,5.5,D,PTCH,A,7.2,D,ROLL*58
$PTAK,FFD1,7.2*50
$IIVHW,,,,,3.08,N,,*12
$P,278
$HCHDG,182.7,0.0,E,,*25
$HCHDG,182.7,0.0,E,,*25
$P,282
$GPRMC,164228.6,A,4741.38313,N,12224.84229,W,002.29,185.1,220314,016.6,E,A*27
$PGRME,7.6,M,13.2,M,15.2,M*29
$IIGLL,4741.383,N,12224.842,W,164200,A,A*44
$IIVHW,,,,,2.99,N,,*1B
$HCHDG,182.8,0.0,E,,*2A
$P,286
$IIMWV,339,R,05.6,N,A*19
$IIMWV,337,T,05.8,N,A*1F
$HCHDG,183.2,0.0,E,,*21
$GPRMC,164228.8,A,4741.38305,N,12224.84233,W,002.05,186.6,220314,016.6,E,A*2F
$PGRME,7.5,M,13.1,M,15.1,M*2A
$P,271
$IIRMB,A,3.00,L,,Lac ,,,,,042.1,356,,V,A*2D
$IIVHW,,,,,2.89,N,,*1A
$HCHDG,183.5,0.0,E,,*26
$P,291
$YXXDR,A,5.4,D,PTCH,A,7.5,D,ROLL*5E
$IIRMC,164200,A,4741.383,N,12224.842,W,02.2,187,220314,16,E,A*17
$GPRMC,164229.0,A,4741.38286,N,12224.84232,W,002.15,189.0,220314,016.6,E,A*25
$GPRMB,A,3.28,L,,Lac,4823.3220,N,12229.7720,W,42.1,356,-2.09,V*5A
$HCHDG,183.7,0.0,E,,*24
$PTAK,FFP1,HEEL,@*07
$PGRME,7.5,M,13.0,M,15.0,M*2A
$P,279
$IIVHW,,,,,2.86,N,,*15
$HCHDG,184.0,0.0,E,,*24
$IIVLW,06480,N,000.0,N*59
$P,297
$IIVWR,021,L,05.6,N,,,,*7F
$HCHDG,184.6,0.0,E,,*22
$GPRMC,164229.2,A,4741.38270,N,12224.84231,W,002.14,189.6,220314,016.6,E,A*2A
$PGRME,7.4,M,12.9,M,14.9,M*2B
$P,280
$IIVHW,,,,,2.84,N,,*17
$HCHDG,184.8,0.0,E,,*2C
$P,290
$HCHDG,185.3,0.0,E,,*26
$GPRMC,164229.4,A,4741.38252,N,12224.84226,W,002.30,180.4,220314,016.6,E,A*27
$PGRME,7.4,M,12.8,M,14.8,M*2B
$P,293
$YXXDR,A,5.7,D,PTCH,A,6.9,D,ROLL*50
$PTAK,FFD1,6.9*5A
$IIVHW,,,,,2.84,N,,*17
$HCHDG,185.7,0.0,E,,*22
$P,298
$HCHDG,185.8,0.0,E,,*2D
$GPRMC,164229.6,A,4741.38237,N,12224.84229,W,002.21,185.6,220314,016.6,E,A*2E
$IIDPT,067.4,-1.0,*45
$PGRME,7.4,M,12.7,M,14.7,M*2B
$P,269
$IIVHW,,,,,2.85,N,,*16
$HCHDG,186.2,0.0,E,,*24
$IIGLL,4741.382,N,12224.842,W,164200,A,A*45
$IIMWV,336,R,05.4,N,A*14
$HCHDG,186.4,0.0,E,,*22
$P,265
$GPRMC,164229.8,A,4741.38223,N,12224.84233,W,002.37,186.1,220314,016.6,E,A*2D
$IIMWV,339,T,05.6,N,A*1F
$PGRME,7.4,M,12.6,M,14.6,M*2B
$IIVHW,,,,,2.82,N,,*11
$HCHDG,186.6,0.0,E,,*20
$IIRMB,A,3.00,L,,Lac ,,,,,042.1,356,,V,A*2D
$P,248
$YXXDR,A,5.7,D,PTCH,A,6.9,D,ROLL*50
$GPRMC,164230.0,A,4741.38217,N,12224.84242,W,002.40,187.2,220314,016.6,E,A*2E
$HCHDG,186.9,0.0,E,,*2F
$PGRME,7.3,M,12.5,M,14.4,M*2D
$P,281
$IIRMC,164200,A,4741.382,N,12224.842,W,02.1,189,220314,16,E,A*1B
$IIVHW,,,,,2.79,N,,*15
$HCHDG,187.0,0.0,E,,*27
$P,262
$IIVLW,06480,N,000.0,N*59
$HCHDG,187.3,0.0,E,,*24
$GPRMC,164230.2,A,4741.38207,N,12224.84251,W,002.16,191.0,220314,016.6,E,A*29
$GPRMB,A,3.28,L,,Lac,4823.3220,N,12229.7720,W,42.1,356,-2.08,V*5B
$PGRME,7.3,M,12.4,M,14.3,M*2B
$P,267
$IIVHW,,,,,2.73,N,,*1F
$HCHDG,187.3,0.0,E,,*24
$P,257
$HCHDG,187.6,0.0,E,,*21
$GPRMC,164230.4,A,4741.38188,N,12224.84254,W,002.22,193.1,220314,016.6,E,A*2A
$PGRME,7.3,M,12.3,M,14.2,M*2D
$YXXDR,A,5.7,D,PTCH,A,6.6,D,ROLL*5F
$PTAK,FFD1,6.6*55
$IIVHW,,,,,2.70,N,,*1C
$P,247
$HCHDG,187.9,0.0,E,,*2E
$HCHDG,188.1,0.0,E,,*29
$GPRMC,164230.6,A,4741.38177,N,12224.84263,W,002.06,193.5,220314,016.6,E,A*2E
$PGRME,7.2,M,12.2,M,14.2,M*2D
$IIVWR,028,L,05.4,N,,,,*74
$P,234
$IIDPT,067.4,-1.0,*45
$IIVHW,,,,,2.57,N,,*19
$HCHDG,188.4,0.0,E,,*2C
$P,246
$IIGLL,4741.382,N,12224.842,W,164200,A,A*45
$HCHDG,188.6,0.0,E,,*2E
$GPRMC,164230.8,A,4741.38167,N,12224.84270,W,002.39,190.0,220314,016.6,E,A*29
$PGRME,7.2,M,12.1,M,14.1,M*2D
$IIMWV,332,R,05.4,N,A*10
$IIMWV,336,T,05.4,N,A*12
$IIVHW,,,,,2.54,N,,*1A
$P,242
$HCHDG,188.7,0.0,E,,*2F
$IIRMB,A,3.00,L,,Lac ,,,,,042.1,356,,V,A*2D
$YXXDR,A,5.6,D,PTCH,A,6.5,D,ROLL*5D
$P,246
$GPRMC,164231.0,A,4741.38156,N,12224.84276,W,002.04,197.8,220314,016.6,E,A*25
$PGRME,7.2,M,12.0,M,14.0,M*2D
$HCHDG,189.0,0.0,E,,*29
$IIVHW,,,,,2.51,N,,*1F
$HCHDG,189.3,0.0,E,,*2A
$IIRMC,164200,A,4741.382,N,12224.842,W,02.4,187,220314,16,E,A*10
$P,232
$HCHDG,189.3,0.0,E,,*2A
$GPRMC,164231.2,A,4741.38145,N,12224.84282,W,001.94,203.4,220314,016.6,E,A*26
$PGRME,7.2,M,11.9,M,13.9,M*29
$P,257
$IIVHW,,,,,2.47,N,,*18
$HCHDG,189.3,0.0,E,,*2A
$P,263
$HCHDG,189.5,0.0,E,,*2C
$GPRMC,164231.4,A,4741.38131,N,12224.84290,W,001.86,206.2,220314,016.6,E,A*20
$GPRMB,A,3.28,L,,Lac,4823.3220,N,12229.7720,W,42.1,356,-1.60,V*56
$PGRME,7.1,M,11.8,M,13.8,M*2A
$YXXDR,A,5.6,D,PTCH,A,6.5,D,ROLL*5D
$PTAK,FFD1,6.5*56
$IIVHW,,,,,2.48,N,,*17
$P,277
$HCHDG,189.8,0.0,E,,*21
$HCHDG,189.9,0.0,E,,*20
$P,266
$GPRMC,164231.6,A,4741.38122,N,12224.84296,W,002.05,201.8,220314,016.6,E,A*23
$PGRME,7.1,M,11.7,M,13.7,M*2A
$IIVLW,06480,N,000.0,N*59
$IIVHW,,,,,2.52,N,,*1C
$IIVWR,026,L,05.3,N,,,,*7D
$HCHDG,190.0,0.0,E,,*21
$P,269
$IIDPT,067.4,-1.0,*45
$HCHDG,190.0,0.0,E,,*21
$GPRMC,164231.8,A,4741.38116,N,12224.84306,W,001.99,203.1,220314,016.6,E,A*2F
$PGRME,7.1,M,11.7,M,13.6,M*2B
$IIGLL,4741.381,N,12224.842,W,164200,A,A*46
$P,258
$IIMWV,334,R,05.3,N,A*11
$IIVHW,,,,,2.57,N,,*19
$HCHDG,190.1,0.0,E,,*20
$IIMWV,332,T,05.4,N,A*16
$P,266
$YXXDR,A,5.5,D,PTCH,A,6.9,D,ROLL*52
$GPRMC,164232.0,A,4741.38106,N,12224.84314,W,001.97,202.5,220314,016.6,E,A*2D
$HCHDG,190.0,0.0,E,,*21
$PGRME,7.1,M,11.6,M,13.6,M*2A
$IIRMB,A,3.00,L,,Lac ,,,,,042.1,356,,V,A*2D
$P,251
$IIVHW,,,,,2.59,N,,*17
$HCHDG,189.8,0.0,E,,*21
$IIRMC,164200,A,4741.381,N,12224.842,W,02.0,197,220314,16,E,A*16
$P,272
$HCHDG,190.0,0.0,E,,*21
$GPRMC,164232.2,A,4741.38088,N,12224.84316,W,002.32,194.7,220314,016.6,E,A*28
$PGRME,7.0,M,11.5,M,13.5,M*2B
$IIVHW,,,,,2.62,N,,*1F
$HCHDG,189.8,0.0,E,,*21
$P,241
$HCHDG,190.0,0.0,E,,*21
$GPRMC,164232.4,A,4741.38074,N,12224.84319,W,002.12,199.5,220314,016.6,E,A*2F
$GPRMB,A,3.28,L,,Lac,4823.3220,N,12229.7720,W,42.1,356,-1.94,V*5D
$PGRME,7.0,M,11.4,M,13.4,M*2B
$P,241
$YXXDR,A,5.4,D,PTCH,A,7.5,D,ROLL*5E
$PTAK,FFD1,7.5*57
$IIVHW,,,,,2.58,N,,*16
$HCHDG,189.9,0.0,E,,*20
$P,245
$HCHDG,190.0,0.0,E,,*21
$GPRMC,164232.6,A,4741.38066,N,12224.84323,W,002.03,204.4,220314,016.6,E,A*21
$PGRME,7.0,M,11.4,M,13.4,M*2B
$IIVLW,06480,N,000.0,N*59
$IIVHW,,,,,2.55,N,,*1B
$P,263
$HCHDG,190.1,0.0,E,,*20
$IIVWR,028,L,05.1,N,,,,*71
$IIDPT,067.4,-1.0,*45
$HCHDG,190.2,0.0,E,,*23
$P,267
$GPRMC,164232.8,A,4741.38058,N,12224.84332,W,001.95,205.5,220314,016.6,E,A*2E
$PGRME,7.0,M,11.4,M,13.3,M*2C
$IIGLL,4741.381,N,12224.842,W,164200,A,A*46
$IIVHW,,,,,2.56,N,,*18
$HCHDG,190.3,0.0,E,,*22
$P,303
$IIMWV,332,R,05.1,N,A*15
$YXXDR,A,5.5,D,PTCH,A,7.2,D,ROLL*58
$IIMWV,334,T,05.3,N,A*17
$P,290
$GPRMC,164233.0,A,4741.38046,N,12224.84340,W,001.96,204.6,220314,016.6,E,A*2C
$HCHDG,190.4,0.0,E,,*25
$PGRME,7.0,M,11.3,M,13.3,M*2B
$IIRMB,A,3.00,L,,Lac ,,,,,042.1,356,,V,A*2D
$IIVHW,,,,,2.65,N,,*18
$HCHDG,190.5,0.0,E,,*24
$P,302
$HCHDG,190.4,0.0,E,,*25
$P,286
$GPRMC,164233.2,A,4741.38039,N,12224.84347,W,002.04,205.8,220314,016.6,E,A*26
$PTAK,FFP1,HEEL,@*07
$PGRME,6.8,M,11.2,M,13.1,M*21
$IIVHW,,,,,2.72,N,,*1E
$HCHDG,190.6,0.0,E,,*27
$P,274
$HCHDG,190.6,0.0,E,,*27
$GPRMC,164233.4,A,4741.38036,N,12224.84360,W,001.97,209.2,220314,016.6,E,A*25
$GPRMB,A,3.28,L,,Lac,4823.3220,N,12229.7720,W,42.1,356,-1.64,V*52
$PGRME,6.7,M,11.1,M,13.0,M*2C
$P,249
$IIVHW,,,,,2.76,N,,*1A
$YXXDR,A,5.6,D,PTCH,A,7.4,D,ROLL*5D
$PTAK,FFD1,7.4*56
$HCHDG,190.7,0.0,E,,*26
$P,257
$HCHDG,190.6,0.0,E,,*27
$GPRMC,164233.6,A,4741.38021,N,12224.84361,W,002.04,203.5,220314,016.6,E,A*24
$PGRME,6.6,M,11.0,M,12.8,M*25
$IIVHW,,,,,2.73,N,,*1F
$P,259
$HCHDG,190.7,0.0,E,,*26
$IIRMC,164200,A,4741.380,N,12224.843,W,01.9,204,220314,16,E,A*15
$HCHDG,190.4,0.0,E,,*25
$P,267
$IIVLW,06480,N,000.0,N*59
$GPRMC,164233.8,A,4741.38013,N,12224.84367,W,001.98,207.9,220314,016.6,E,A*23
$PGRME,6.5,M,10.8,M,12.5,M*22
$IIVWR,030,L,05.0,N,,,,*79
$IIVHW,,,,,2.73,N,,*1F
$HCHDG,190.5,0.0,E,,*24
$IIDPT,067.4,-1.0,*45
$P,250
$YXXDR,A,5.6,D,PTCH,A,7.8,D,ROLL*51
$IIGLL,4741.380,N,12224.843,W,164200,A,A*46
$HCHDG,190.2,0.0,E,,*23
$GPRMC,164234.0,A,4741.38009,N,12224.84376,W,001.99,202.9,220314,016.6,E,A*23
$PGRME,6.4,M,10.6,M,12.3,M*2B
$P,258
$IIMWV,330,R,05.0,N,A*16
$IIVHW,,,,,2.66,N,,*1B
$HCHDG,190.3,0.0,E,,*22
$IIMWV,332,T,05.1,N,A*13
$P,246
$HCHDG,190.4,0.0,E,,*25
$GPRMC,164234.2,A,4741.38030,N,12224.84391,W,001.97,202.7,220314,016.6,E,A*22
$PGRME,6.2,M,10.3,M,12.0,M*2B
$IIVHW,,,,,2.59,N,,*17
$P,261
$HCHDG,190.2,0.0,E,,*23
$HCHDG,190.1,0.0,E,,*20
$P,244
$GPRMC,164234.4,A,4741.38036,N,12224.84401,W,001.98,204.8,220314,016.6,E,A*2A
$PGRME,6.0,M,10.0,M,11.7,M*2E
$YXXDR,A,5.3,D,PTCH,A,7.8,D,ROLL*54
$IIVHW,,,,,2.54,N,,*1A
$P,267
$HCHDG,190.2,0.0,E,,*23
$HCHDG,190.3,0.0,E,,*22
$P,279
$GPRMC,164234.6,A,4741.38037,N,12224.84411,W,001.95,202.0,220314,016.6,E,A*2B
$GPRMB,A,3.27,L,,Lac,4823.3220,N,12229.7720,W,42.1,356,-1.75,V*5D
$PGRME,5.8,M,9.7,M,11.3,M*1E
$IIRMB,A,3.00,L,,Lac ,,,,,042.1,356,,V,A*2D
$IIVHW,,,,,2.58,N,,*16
$HCHDG,190.1,0.0,E,,*20
$P,300
$HCHDG,190.2,0.0,E,,*23
$IIRMC,164200,A,4741.380,N,12224.843,W,01.9,202,220314,16,E,A*13
$GPRMC,164234.8,A,4741.38027,N,12224.84418,W,001.94,203.9,220314,016.6,E,A*24
$P,295
$PGRME,5.8,M,9.6,M,11.2,M*1E
$IIVHW,,,,,2.68,N,,*15
$HCHDG,190.2,0.0,E,,*23
$IIVLW,06480,N,000.0,N*59
$P,299
$IIVWR,031,L,04.9,N,,,,*70
$YXXDR,A,5.7,D,PTCH,A,7.7,D,ROLL*5F
$PTAK,FFD1,7.7*55
$IIDPT,067.4,-1.0,*45
$HCHDG,190.3,0.0,E,,*22
$GPRMC,164235.0,A,4741.38018,N,12224.84429,W,001.92,200.7,220314,016.6,E,A*28
$PGRME,5.7,M,9.5,M,11.1,M*11
$P,286
$IIVHW,,,,,2.74,N,,*18
$HCHDG,190.3,0.0,E,,*22
$IIGLL,4741.380,N,12224.843,W,164200,A,A*46
$P,291
$IIMWV,329,R,04.9,N,A*16
$HCHDG,190.4,0.0,E,,*25
$GPRMC,164235.2,A,4741.38008,N,12224.84427,W,001.90,202.3,220314,016.6,E,A*21
$PGRME,5.5,M,9.3,M,10.8,M*1D
$P,275
$IIVHW,,,,,2.79,N,,*15
$HCHDG,190.5,0.0,E,,*24
$P,287
$HCHDG,190.5,0.0,E,,*24
$GPRMC,164235.4,A,4741.38007,N,12224.84429,W,001.91,202.2,220314,016.6,E,A*26
$PGRME,5.4,M,9.2,M,10.6,M*13
$YXXDR,A,5.5,D,PTCH,A,7.5,D,ROLL*5F
$IIVHW,,,,,2.82,N,,*11
$P,258
$HCHDG,190.6,0.0,E,,*27
$HCHDG,190.6,0.0,E,,*27
$P,263
$IIMWV,329,T,04.9,N,A*10
$GPRMC,164235.6,A,4741.38011,N,12224.84438,W,001.91,204.9,220314,016.6,E,A*2E
$GPRMB,A,3.27,L,,Lac,4823.3220,N,12229.7720,W,42.1,356,-1.66,V*5F
$PGRME,5.2,M,9.0,M,10.4,M*15
$IIVHW,,,,,2.81,N,,*12
$HCHDG,190.9,0.0,E,,*28
$IIRMB,A,3.00,L,,Lac ,,,,,042.1,356,,V,A*2D
$P,253
$HCHDG,191.0,0.0,E,,*20
$GPRMC,164235.8,A,4741.37995,N,12224.84440,W,001.92,205.6,220314,016.6,E,A*28
$PGRME,5.2,M,8.9,M,10.3,M*1A
$P,256
$IIRMC,164200,A,4741.380,N,12224.844,W,01.9,200,220314,16,E,A*16
$IIVHW,,,,,2.73,N,,*1F
$HCHDG,191.3,0.0,E,,*23
$IIVLW,06480,N,000.0,N*59
$YXXDR,A,5.5,D,PTCH,A,7.0,D,ROLL*5A
$P,231
$IIVWR,034,L,04.8,N,,,,*74
$HCHDG,191.3,0.0,E,,*23
$GPRMC,164236.0,A,4741.37982,N,12224.84444,W,001.93,205.4,220314,016.6,E,A*22
$PGRME,5.1,M,8.8,M,10.2,M*19
$IIDPT,067.4,-1.0,*45
$IIVHW,,,,,2.63,N,,*1E
$HCHDG,191.4,0.0,E,,*24
$P,241
$IIGLL,4741.380,N,12224.844,W,164200,A,A*41
$HCHDG,191.4,0.0,E,,*24
$GPRMC,164236.2,A,4741.37970,N,12224.84446,W,001.92,205.3,220314,016.6,E,A*29
$PGRME,5.1,M,8.8,M,10.1,M*1A
$P,217
$IIVHW,,,,,2.47,N,,*18
$HCHDG,191.4,0.0,E,,*24
$P,239
$HCHDG,191.5,0.0,E,,*25
$GPRMC,164236.4,A,4741.37965,N,12224.84452,W,001.88,207.4,220314,016.6,E,A*20
$PGRME,5.0,M,8.7,M,10.0,M*15
$IIVHW,,,,,2.46,N,,*19
$YXXDR,A,5.3,D,PTCH,A,7.2,D,ROLL*5E
$PTAK,FFD1,7.2*50
$P,238
$HCHDG,191.6,0.0,E,,*26
$HCHDG,191.6,0.0,E,,*26
$P,273
$IIMWV,326,R,04.8,N,A*18
$GPRMC,164236.6,A,4741.37957,N,12224.84457,W,001.87,206.1,220314,016.6,E,A*2D
$GPRMB,A,3.27,L,,Lac,4823.3220,N,12229.7720,W,42.1,356,-1.61,V*58
$PGRME,4.9,M,8.6,M,9.9,M*2D
$IIVHW,,,,,2.46,N,,*19
$IIMWV,326,T,04.8,N,A*1E
$HCHDG,191.7,0.0,E,,*27
$P,280
$IIRMB,A,3.00,L,,Lac ,,,,,042.1,356,,V,A*2D
$HCHDG,191.8,0.0,E,,*28
$P,295
$GPRMC,164236.8,A,4741.37949,N,12224.84459,W,001.86,205.9,220314,016.6,E,A*28
$PGRME,4.8,M,8.4,M,9.7,M*20
$IIVHW,,,,,2.55,N,,*1B
$HCHDG,191.9,0.0,E,,*29
$IIRMC,164200,A,4741.379,N,12224.844,W,01.9,205,220314,16,E,A*15
$P,275
$YXXDR,A,5.6,D,PTCH,A,7.6,D,ROLL*5F
$IIVLW,06480,N,000.0,N*59
$HCHDG,191.7,0.0,E,,*27
$GPRMC,164237.0,A,4741.37947,N,12224.84462,W,001.85,203.0,220314,016.6,E,A*2B
$PGRME,4.7,M,8.3,M,9.6,M*29
$P,295
$IIVHW,,,,,2.61,N,,*1C
$IIVWR,034,L,04.8,N,,,,*74
$HCHDG,191.8,0.0,E,,*28
$IIDPT,067.4,-1.0,*45
$P,288
$HCHDG,191.8,0.0,E,,*28
$GPRMC,164237.2,A,4741.37945,N,12224.84469,W,001.87,202.8,220314,016.6,E,A*2B
$PGRME,4.7,M,8.2,M,9.4,M*2A
$P,309
$IIVHW,,,,,2.70,N,,*1C
$PTAK,FFP1,HEEL,@*07
$HCHDG,191.9,0.0,E,,*29
$P,295
$HCHDG,192.0,0.0,E,,*23
$GPRMC,164237.4,A,4741.37941,N,12224.84478,W,001.88,203.5,220314,016.6,E,A*2A
$PGRME,4.6,M,8.1,M,9.3,M*2F
$P,305
$IIVHW,,,,,2.80,N,,*13
$YXXDR,A,5.6,D,PTCH,A,7.4,D,ROLL*5D
$HCHDG,192.1,0.0,E,,*22
$P,279
$HCHDG,192.2,0.0,E,,*21
$GPRMC,164237.6,A,4741.37939,N,12224.84487,W,001.89,204.0,220314,016.6,E,A*24
$PGRME,4.6,M,8.0,M,9.2,M*2F
$IIGLL,4741.379,N,12224.844,W,164200,A,A*47
$IIVHW,,,,,2.86,N,,*15
$P,270
$HCHDG,192.3,0.0,E,,*20
$IIMWV,324,R,04.7,N,A*15
$IIMWV,326,T,04.8,N,A*1E
$P,263
$HCHDG,192.3,0.0,E,,*20
$GPRMC,164237.8,A,4741.37933,N,12224.84493,W,001.90,206.8,220314,016.6,E,A*27
$GPRMB,A,3.27,L,,Lac,4823.3220,N,12229.7720,W,42.1,356,-1.62,V*5B
$PGRME,4.5,M,7.9,M,9.1,M*29
$IIRMB,A,3.00,L,,Lac ,,,,,042.1,356,,V,A*2D
$IIVHW,,,,,2.86,N,,*15
$HCHDG,192.5,0.0,E,,*26
$P,279
$YXXDR,A,5.6,D,PTCH,A,7.4,D,ROLL*5D
$PTAK,FFD1,7.4*56
$IIRMC,164200,A,4741.379,N,12224.844,W,01.8,203,220314,16,E,A*12
$P,265
$HCHDG,192.7,0.0,E,,*24
$GPRMC,164238.0,A,4741.37928,N,12224.84503,W,001.88,204.1,220314,016.6,E,A*20
$PGRME,4.4,M,7.8,M,8.9,M*20
$IIVHW,,,,,2.82,N,,*11
$HCHDG,192.8,0.0,E,,*2B
$IIVLW,06480,N,000.0,N*59
$P,273
$IIVWR,036,L,04.7,N,,,,*79
$HCHDG,192.8,0.0,E,,*2B
$GPRMC,164238.2,A,4741.37920,N,12224.84512,W,001.89,208.5,220314,016.6,E,A*23
$PGRME,4.4,M,7.7,M,8.8,M*2E
$P,254
$IIVHW,,,,,2.76,N,,*1A
$HCHDG,192.9,0.0,E,,*2A
$P,252
$HCHDG,193.0,0.0,E,,*22
$GPRMC,164238.4,A,4741.37923,N,12224.84522,W,001.89,211.7,220314,016.6,E,A*2F
$PGRME,4.3,M,7.6,M,8.7,M*27
$IIVHW,,,,,2.71,N,,*1D
$YXXDR,A,5.2,D,PTCH,A,7.4,D,ROLL*59
$P,244
$HCHDG,193.4,0.0,E,,*26
$HCHDG,193.5,0.0,E,,*27
$P,261
$IIDPT,067.6,-1.0,*47
$GPRMC,164238.6,A,4741.37923,N,12224.84530,W,001.87,210.5,220314,016.6,E,A*23
$PGRME,4.3,M,7.5,M,8.6,M*25
$IIVHW,,,,,2.62,N,,*1F
$HCHDG,193.7,0.0,E,,*25
$IIGLL,4741.379,N,12224.845,W,164200,A,A*46
$P,257
$IIMWV,324,R,04.7,N,A*15
$HCHDG,193.8,0.0,E,,*2A
$IIMWV,324,T,04.7,N,A*13
$GPRMC,164238.8,A,4741.37920,N,12224.84535,W,001.86,210.3,220314,016.6,E,A*2C
$GPRMB,A,3.27,L,,Lac,4823.3220,N,12229.7720,W,42.1,356,-1.53,V*59
$PGRME,4.2,M,7.4,M,8.5,M*26
$P,269
$IIVHW,,,,,2.61,N,,*1C
$HCHDG,193.9,0.0,E,,*2B
$IIRMB,A,3.00,L,,Lac ,,,,,042.1,356,,V,A*2D
$P,266
$YXXDR,A,5.5,D,PTCH,A,7.2,D,ROLL*58
$PTAK,FFD1,7.2*50
$HCHDG,194.1,0.0,E,,*24
$GPRMC,164239.0,A,4741.37912,N,12224.84541,W,001.86,212.0,220314,016.6,E,A*26
$PGRME,4.2,M,7.3,M,8.4,M*20
$IIRMC,164200,A,4741.379,N,12224.845,W,01.8,204,220314,16,E,A*14
$IIVHW,,,,,2.61,N,,*1C
$P,261
$HCHDG,194.2,0.0,E,,*27
$IIVLW,06480,N,000.0,N*59
$HCHDG,194.2,0.0,E,,*27
$P,251
$GPRMC,164239.2,A,4741.37918,N,12224.84552,W,001.84,209.6,220314,016.6,E,A*22
$PGRME,4.1,M,7.3,M,8.3,M*24
$IIVHW,,,,,2.58,N,,*16
$HCHDG,194.4,0.0,E,,*21
$P,268
$HCHDG,194.3,0.0,E,,*26
$GPRMC,164239.4,A,4741.37915,N,12224.84560,W,001.84,208.2,220314,016.6,E,A*2D
$PGRME,4.1,M,7.2,M,8.3,M*25
$P,243
$IIVHW,,,,,2.57,N,,*19
$YXXDR,A,5.6,D,PTCH,A,7.6,D,ROLL*5F
$HCHDG,194.3,0.0,E,,*26
$P,246
$HCHDG,194.5,0.0,E,,*20
$IIVWR,038,L,04.7,N,,,,*77
$GPRMC,164239.6,A,4741.37904,N,12224.84567,W,001.82,209.4,220314,016.6,E,A*29
$PGRME,4.0,M,7.1,M,8.2,M*26
$IIVHW,,,,,2.57,N,,*19
$IIDPT,067.6,-1.0,*47
$P,245
$HCHDG,194.4,0.0,E,,*21
$IIGLL,4741.379,N,12224.845,W,164200,A,A*46
$HCHDG,194.6,0.0,E,,*23
$P,251
$IIMWV,322,R,04.7,N,A*13
$GPRMC,164239.8,A,4741.37896,N,12224.84572,W,001.83,208.0,220314,016.6,E,A*2D
$GPRMB,A,3.27,L,,Lac,4823.3220,N,12229.7720,W,42.1,356,-1.54,V*5E
$PGRME,4.0,M,7.0,M,8.1,M*24
$IIVHW,,,,,2.54,N,,*1A
$IIMWV,324,T,04.7,N,A*13
$HCHDG,194.4,0.0,E,,*21
$P,242
$IIRMB,A,3.00,L,,Lac ,,,,,042.1,356,,V,A*2D
$YXXDR,A,5.4,D,PTCH,A,8.0,D,ROLL*54
$PTAK,FFD1,8.0*5D
$HCHDG,194.5,0.0,E,,*20
$GPRMC,164240.0,A,4741.37885,N,12224.84578,W,001.81,210.1,220314,016.6,E,A*29
$PGRME,4.0,M,6.9,M,8.0,M*2D
$P,251
$IIVHW,,,,,2.51,N,,*1F
$HCHDG,194.7,0.0,E,,*22
$IIRMC,164200,A,4741.379,N,12224.845,W,01.8,204,220314,16,E,A*14
$P,244
$HCHDG,194.8,0.0,E,,*2D
$GPRMC,164240.2,A,4741.37878,N,12224.84583,W,001.82,210.9,220314,016.6,E,A*26
$PGRME,3.9,M,6.9,M,7.9,M*25
$IIVHW,,,,,2.48,N,,*17
$HCHDG,194.9,0.0,E,,*2C
$P,264
$HCHDG,195.0,0.0,E,,*24
$P,259
$GPRMC,164240.4,A,4741.37871,N,12224.84586,W,001.82,209.9,220314,016.6,E,A*24
$PGRME,3.9,M,6.8,M,7.9,M*24
$IIVHW,,,,,2.51,N,,*1F
$YXXDR,A,5.2,D,PTCH,A,8.0,D,ROLL*52
$HCHDG,195.0,0.0,E,,*24
$P,262
$HCHDG,195.1,0.0,E,,*25
$IIVLW,06480,N,000.0,N*59
$GPRMC,164240.6,A,4741.37868,N,12224.84588,W,001.82,213.0,220314,016.6,E,A*22
$PGRME,3.9,M,6.8,M,7.8,M*25
$P,261
$IIVHW,,,,,2.53,N,,*1D
$IIVWR,037,L,04.6,N,,,,*79
$HCHDG,195.2,0.0,E,,*26
$IIDPT,067.6,-1.0,*47
$P,281
$HCHDG,195.3,0.0,E,,*27
$IIGLL,4741.378,N,12224.845,W,164200,A,A*47
$GPRMC,164240.8,A,4741.37865,N,12224.84597,W,001.83,211.0,220314,016.6,E,A*2C
$GPRMB,A,3.27,L,,Lac,4823.3220,N,12229.7720,W,42.1,356,-1.49,V*52
$PGRME,3.8,M,6.7,M,7.7,M*24
$IIVHW,,,,,2.56,N,,*18
$P,278
$IIMWV,323,R,04.6,N,A*13
$HCHDG,195.4,0.0,E,,*20
$IIMWV,322,T,04.7,N,A*15
$YXXDR,A,5.6,D,PTCH,A,7.5,D,ROLL*5C
$P,272
$HCHDG,195.5,0.0,E,,*21
$IIRMB,A,3.00,L,,Lac ,,,,,042.1,356,,V,A*2D
$GPRMC,164241.0,A,4741.37862,N,12224.84601,W,001.84,213.0,220314,016.6,E,A*2B
$PGRME,3.8,M,6.7,M,7.7,M*24
$IIVHW,,,,,2.63,N,,*1E
$HCHDG,195.6,0.0,E,,*22
$P,278
$IIRMC,164200,A,4741.378,N,12224.845,W,01.8,210,220314,16,E,A*10
$HCHDG,195.7,0.0,E,,*23
$P,289
$GPRMC,164241.2,A,4741.37853,N,12224.84601,W,001.83,213.2,220314,016.6,E,A*2E
$PGRME,3.8,M,6.6,M,7.6,M*24
$IIVHW,,,,,2.69,N,,*14
$HCHDG,196.0,0.0,E,,*27
$PTAK,FFP1,HEEL,@*07
$P,275
$HCHDG,196.0,0.0,E,,*27
$P,287
$GPRMC,164241.4,A,4741.37847,N,12224.84605,W,001.85,213.3,220314,016.6,E,A*2E
$PGRME,3.7,M,6.5,M,7.5,M*2B
$IIVHW,,,,,2.74,N,,*18
$YXXDR,A,5.6,D,PTCH,A,7.4,D,ROLL*5D
$PTAK,FFD1,7.4*56
$HCHDG,196.1,0.0,E,,*26
$P,262
$HCHDG,196.1,0.0,E,,*26
$GPRMC,164241.6,A,4741.37838,N,12224.84613,W,001.84,215.0,220314,016.6,E,A*27
$PGRME,3.7,M,6.5,M,7.5,M*2B
$P,260
$IIVHW,,,,,2.74,N,,*18
$IIVLW,06480,N,000.0,N*59
$HCHDG,196.1,0.0,E,,*26
$IIVWR,039,L,04.6,N,,,,*77
$IIDPT,067.6,-1.0,*47
$P,237
$HCHDG,196.2,0.0,E,,*25
$GPRMC,164241.8,A,4741.37825,N,12224.84617,W,001.83,216.4,220314,016.6,E,A*21
$PGRME,3.7,M,6.4,M,7.4,M*2B
$IIVHW,,,,,2.69,N,,*14
$IIGLL,4741.378,N,12224.846,W,164200,A,A*44
$HCHDG,196.2,0.0,E,,*25
$P,236
$IIMWV,321,R,04.6,N,A*11
$YXXDR,A,5.7,D,PTCH,A,7.6,D,ROLL*5E
$IIMWV,323,T,04.6,N,A*15
$HCHDG,196.2,0.0,E,,*25
$GPRMC,164242.0,A,4741.37820,N,12224.84625,W,001.81,212.9,220314,016.6,E,A*25
$GPRMB,A,3.27,L,,Lac,4823.3220,N,12229.7720,W,42.1,356,-1.44,V*5F
$PGRME,3.7,M,6.4,M,7.3,M*2C
$P,218
$IIVHW,,,,,2.53,N,,*1D
$IIRMB,A,3.00,L,,Lac ,,,,,042.1,356,,V,A*2D
$HCHDG,196.1,0.0,E,,*26
$P,222
$HCHDG,196.2,0.0,E,,*25
$GPRMC,164242.2,A,4741.37812,N,12224.84632,W,001.79,217.1,220314,016.6,E,A*2A
$PGRME,3.6,M,6.3,M,7.3,M*2A
$IIVHW,,,,,2.45,N,,*1A
$HCHDG,196.2,0.0,E,,*25
$P,222
$HCHDG,196.4,0.0,E,,*23
$GPRMC,164242.4,A,4741.37806,N,12224.84642,W,001.80,216.6,220314,016.6,E,A*2E
$PGRME,3.6,M,6.3,M,7.2,M*2B
$IIVHW,,,,,2.39,N,,*11
$P,243
$YXXDR,A,5.1,D,PTCH,A,7.8,D,ROLL*56
$PTAK,FFD1,7.8*5A
$HCHDG,196.4,0.0,E,,*23
$P,250
$HCHDG,196.3,0.0,E,,*24
$GPRMC,164242.6,A,4741.37805,N,12224.84649,W,001.81,214.6,220314,016.6,E,A*27
$PGRME,3.6,M,6.2,M,7.2,M*2A
$IIVHW,,,,,2.41,N,,*1E
$HCHDG,196.5,0.0,E,,*22
$P,263
$IIRMC,164200,A,4741.378,N,12224.846,W,01.8,212,220314,16,E,A*11
$HCHDG,196.3,0.0,E,,*24
$IIVLW,06480,N,000.0,N*59
$P,255
$GPRMC,164242.8,A,4741.37803,N,12224.84654,W,001.82,214.8,220314,016.6,E,A*2E
$PGRME,3.5,M,6.1,M,7.1,M*29
$IIVHW,,,,,2.41,N,,*1E
$IIVWR,038,L,04.8,N,,,,*78
$HCHDG,196.5,0.0,E,,*22
$IIDPT,067.6,-1.0,*47
$P,265
$YXXDR,A,5.4,D,PTCH,A,8.2,D,ROLL*56
$IIGLL,4741.378,N,12224.846,W,164200,A,A*44
$HCHDG,196.4,0.0,E,,*23
$GPRMC,164243.0,A,4741.37801,N,12224.84656,W,001.82,213.6,220314,016.6,E,A*2E
$GPRMB,A,3.27,L,,Lac,4823.3220,N,12229.7720,W,42.1,356,-1.43,V*58
$PGRME,3.5,M,6.1,M,7.0,M*28
$P,260
$IIVHW,,,,,2.46,N,,*19
$IIMWV,322,R,04.8,N,A*1C
$HCHDG,196.6,0.0,E,,*21
$IIMWV,321,T,04.6,N,A*17
$P,279
$HCHDG,196.7,0.0,E,,*20
$GPRMC,164243.2,A,4741.37801,N,12224.84666,W,001.83,212.5,220314,016.6,E,A*2C
$PGRME,3.5,M,6.0,M,7.0,M*29
$IIVHW,,,,,2.49,N,,*16
$P,266
$HCHDG,196.7,0.0,E,,*20
$P,280
$HCHDG,196.6,0.0,E,,*21
$GPRMC,164243.4,A,4741.37790,N,12224.84672,W,001.82,213.7,220314,016.6,E,A*2A
$PGRME,3.5,M,6.0,M,6.9,M*21
$IIVHW,,,,,2.58,N,,*16
$YXXDR,A,5.6,D,PTCH,A,8.7,D,ROLL*51
$P,259
$HCHDG,196.7,0.0,E,,*20
$HCHDG,196.9,0.0,E,,*2E
$P,265
$GPRMC,164243.6,A,4741.37781,N,12224.84676,W,001.80,211.0,220314,016.6,E,A*2B
$PGRME,3.5,M,6.0,M,6.9,M*21
$IIVHW,,,,,2.65,N,,*18
$IIRMB,A,3.00,L,,Lac ,,,,,042.1,356,,V,A*2D
$HCHDG,196.8,0.0,E,,*2F
$P,258
$HCHDG,197.0,0.0,E,,*26
$IIRMC,164200,A,4741.378,N,12224.846,W,01.8,213,220314,16,E,A*10
$GPRMC,164243.8,A,4741.37771,N,12224.84680,W,001.78,215.3,220314,016.6,E,A*23
$PGRME,3.5,M,6.0,M,6.9,M*21
$IIVHW,,,,,2.65,N,,*18
$P,259
$HCHDG,197.1,0.0,E,,*27
$IIVLW,06480,N,000.0,N*59
$IIVWR,042,L,04.8,N,,,,*75
$YXXDR,A,5.6,D,PTCH,A,8.8,D,ROLL*5E
$PTAK,FFD1,8.8*55
$P,243
$IIDPT,067.6,-1.0,*47
$HCHDG,197.0,0.0,E,,*26
$GPRMC,164244.0,A,4741.37760,N,12224.84680,W,001.79,214.6,220314,016.6,E,A*29
$PGRME,3.5,M,6.0,M,6.9,M*21
$IIVHW,,,,,2.61,N,,*1C
$HCHDG,197.1,0.0,E,,*27
$P,245
$IIGLL,4741.378,N,12224.846,W,164200,A,A*44
$IIMWV,318,R,04.8,N,A*15
$HCHDG,197.3,0.0,E,,*25
$GPRMC,164244.2,A,4741.37752,N,12224.84686,W,001.78,216.5,220314,016.6,E,A*2C
$GPRMB,A,3.27,L,,Lac,4823.3220,N,12229.7720,W,42.1,356,-1.34,V*58
$PGRME,3.5,M,6.0,M,6.9,M*21
$P,222
$IIVHW,,,,,2.51,N,,*1F
$HCHDG,197.3,0.0,E,,*25
$P,240
$HCHDG,197.5,0.0,E,,*23
$GPRMC,164244.4,A,4741.37745,N,12224.84690,W,001.94,216.0,220314,016.6,E,A*2C
$PGRME,3.4,M,5.9,M,6.9,M*2A
$IIVHW,,,,,2.49,N,,*16
$YXXDR,A,5.4,D,PTCH,A,8.5,D,ROLL*51
$P,247
$HCHDG,197.6,0.0,E,,*20
$HCHDG,197.6,0.0,E,,*20
$P,264
$IIMWV,318,T,04.8,N,A*13
$GPRMC,164244.6,A,4741.37737,N,12224.84698,W,001.92,221.0,220314,016.6,E,A*21
$PGRME,3.4,M,5.9,M,6.8,M*2B
$IIVHW,,,,,2.49,N,,*16
$HCHDG,197.7,0.0,E,,*21
$IIRMB,A,3.00,L,,Lac ,,,,,042.1,356,,V,A*2D
$P,266
$HCHDG,197.8,0.0,E,,*2E
$GPRMC,164244.8,A,4741.37730,N,12224.84706,W,001.89,217.9,220314,016.6,E,A*28
$P,274
$PGRME,3.4,M,5.9,M,6.8,M*2B
$IIVHW,,,,,2.52,N,,*1C
$IIRMC,164200,A,4741.377,N,12224.846,W,01.7,214,220314,16,E,A*17
$HCHDG,197.9,0.0,E,,*2F
$P,258
$IIVLW,06480,N,000.0,N*59
$YXXDR,A,5.4,D,PTCH,A,8.6,D,ROLL*52
$IIVWR,042,L,04.8,N,,,,*75
$HCHDG,198.0,0.0,E,,*29
$GPRMC,164245.0,A,4741.37726,N,12224.84714,W,001.86,216.5,220314,016.6,E,A*27
$PGRME,3.4,M,5.8,M,6.8,M*2A
$IIVHW,,,,,2.53,N,,*1D
$PGRMT,GPS 18x-5Hz software ver. 3.20,,,,,,,,*30
$IIDPT,067.6,-1.0,*47
$P,268
$HCHDG,198.0,0.0,E,,*29
$IIGLL,4741.377,N,12224.846,W,164200,A,A*4B
$P,270
$HCHDG,198.1,0.0,E,,*28
$GPRMC,164245.2,A,4741.37719,N,12224.84721,W,001.84,215.8,220314,016.6,E,A*23
$GPRMB,A,3.27,L,,Lac,4823.3220,N,12229.7720,W,42.1,356,-1.40,V*5B
$PGRME,3.4,M,5.8,M,6.7,M*25
$IIVHW,,,,,2.57,N,,*19
$PTAK,FFP1,HEEL,@*07
$P,291
$HCHDG,198.0,0.0,E,,*29
$HCHDG,198.1,0.0,E,,*28
$P,272
$GPRMC,164245.4,A,4741.37711,N,12224.84727,W,001.86,217.2,220314,016.6,E,A*21
$PGRME,3.4,M,5.8,M,6.7,M*25
$IIVHW,,,,,2.66,N,,*1B
$YXXDR,A,5.6,D,PTCH,A,9.0,D,ROLL*57
$PTAK,FFD1,9.0*5C
$P,287
$HCHDG,197.9,0.0,E,,*2F
$HCHDG,198.0,0.0,E,,*29
$P,268
$IIMWV,317,R,04.8,N,A*1A
$GPRMC,164245.6,A,4741.37703,N,12224.84734,W,001.82,216.6,220314,016.6,E,A*23
$PGRME,3.4,M,5.8,M,6.7,M*25
$IIVHW,,,,,2.72,N,,*1E
$IIMWV,318,T,04.8,N,A*13
$HCHDG,198.2,0.0,E,,*2B
$P,277
$IIRMB,A,3.00,L,,Lac ,,,,,042.1,356,,V,A*2D
$HCHDG,198.3,0.0,E,,*2A
$GPRMC,164245.8,A,4741.37695,N,12224.84744,W,001.81,218.0,220314,016.6,E,A*2F
$PGRME,3.4,M,5.8,M,6.7,M*25
$IIVHW,,,,,2.73,N,,*1F
$P,263
$HCHDG,198.2,0.0,E,,*2B
$IIRMC,164200,A,4741.377,N,12224.847,W,01.8,216,220314,16,E,A*1B
$P,271
$YXXDR,A,5.7,D,PTCH,A,9.0,D,ROLL*56
$IIVLW,06480,N,000.0,N*59
$HCHDG,198.3,0.0,E,,*2A
$GPRMC,164246.0,A,4741.37686,N,12224.84753,W,001.82,214.4,220314,016.6,E,A*2B
$PGRME,3.4,M,5.7,M,6.7,M*2A
$IIVHW,,,,,2.72,N,,*1E
$IIVWR,043,L,04.8,N,,,,*74
$P,247
$HCHDG,198.4,0.0,E,,*2D
$IIDPT,067.6,-1.0,*47
$HCHDG,198.3,0.0,E,,*2A
$P,257
$GPRMC,164246.2,A,4741.37676,N,12224.84759,W,001.81,213.7,220314,016.6,E,A*2B
$GPRMB,A,3.27,L,,Lac,4823.3220,N,12229.7720,W,42.1,356,-1.42,V*59
$PGRME,3.4,M,5.7,M,6.6,M*2B
$IIVHW,,,,,2.68,N,,*15
$HCHDG,198.3,0.0,E,,*2A
$P,246
$HCHDG,198.3,0.0,E,,*2A
$GPRMC,164246.4,A,4741.37667,N,12224.84769,W,001.83,217.1,220314,016.6,E,A*2E
$PGRME,3.3,M,5.7,M,6.6,M*2C
$IIVHW,,,,,2.63,N,,*1E
$P,257
$YXXDR,A,5.3,D,PTCH,A,9.3,D,ROLL*51
$HCHDG,198.4,0.0,E,,*2D
$P,258
$HCHDG,198.5,0.0,E,,*2C
$GPRMC,164246.6,A,4741.37657,N,12224.84779,W,001.85,217.6,220314,016.6,E,A*2F
$PGRME,3.3,M,5.7,M,6.6,M*2C
$IIVHW,,,,,2.61,N,,*1C
$IIGLL,4741.376,N,12224.847,W,164200,A,A*4B
$P,271
$HCHDG,198.6,0.0,E,,*2F
$IIMWV,318,R,04.9,N,A*14
$IIMWV,317,T,04.8,N,A*1C
$P,270
$HCHDG,198.8,0.0,E,,*21
$GPRMC,164246.8,A,4741.37648,N,12224.84791,W,001.86,217.5,220314,016.6,E,A*29
$PGRME,3.3,M,5.7,M,6.6,M*2C
$IIVHW,,,,,2.61,N,,*1C
$IIRMB,A,3.00,L,,Lac ,,,,,042.1,356,,V,A*2D
$HCHDG,198.9,0.0,E,,*20
$P,286
$YXXDR,A,5.3,D,PTCH,A,9.0,D,ROLL*52
$PTAK,FFD1,9.0*5C
$IIRMC,164200,A,4741.376,N,12224.847,W,01.8,214,220314,16,E,A*18
$P,275
$HCHDG,199.2,0.0,E,,*2A
$GPRMC,164247.0,A,4741.37641,N,12224.84799,W,001.86,220.9,220314,016.6,E,A*29
$PGRME,3.3,M,5.7,M,6.6,M*2C
$IIVHW,,,,,2.64,N,,*19
$HCHDG,199.3,0.0,E,,*2B
$IIVLW,06480,N,000.0,N*59
$P,278
$IIVWR,042,L,04.9,N,,,,*74
$HCHDG,199.3,0.0,E,,*2B
$GPRMC,164247.2,A,4741.37632,N,12224.84809,W,001.85,216.6,220314,016.6,E,A*20
$PGRME,3.3,M,5.7,M,6.6,M*2C
$P,256
$IIVHW,,,,,2.66,N,,*1B
$HCHDG,199.5,0.0,E,,*2D
$P,266
$HCHDG,199.6,0.0,E,,*2E
$GPRMC,164247.4,A,4741.37622,N,12224.84818,W,001.83,215.4,220314,016.6,E,A*20
$GPRMB,A,3.27,L,,Lac,4823.3220,N,12229.7720,W,42.1,356,-1.40,V*5B
$PGRME,3.3,M,5.7,M,6.6,M*2C
$IIVHW,,,,,2.67,N,,*1A
$YXXDR,A,5.6,D,PTCH,A,9.7,D,ROLL*50
$P,245
$HCHDG,199.6,0.0,E,,*2E
$HCHDG,199.8,0.0,E,,*20
$P,260
$IIDPT,067.6,-1.0,*47
$GPRMC,164247.6,A,4741.37611,N,12224.84827,W,001.83,217.9,220314,016.6,E,A*21
$PGRME,3.3,M,5.7,M,6.6,M*2C
$IIVHW,,,,,2.65,N,,*18
$HCHDG,199.9,0.0,E,,*21
$IIGLL,4741.376,N,12224.847,W,164200,A,A*4B
$P,256
$IIMWV,319,R,04.9,N,A*15
$HCHDG,200.1,0.0,E,,*2A
$IIMWV,318,T,04.9,N,A*12
$P,269
$GPRMC,164247.8,A,4741.37604,N,12224.84838,W,001.79,225.0,220314,016.6,E,A*28
$PGRME,3.3,M,5.7,M,6.6,M*2C
$IIVHW,,,,,2.64,N,,*19
$HCHDG,200.0,0.0,E,,*2B
$IIRMB,A,3.00,L,,Lac ,,,,,042.1,356,,V,A*2D
$P,253
$YXXDR,A,5.6,D,PTCH,A,9.6,D,ROLL*51
$PTAK,FFD1,9.6*5A
$HCHDG,200.1,0.0,E,,*2A
$GPRMC,164248.0,A,4741.37595,N,12224.84850,W,001.78,221.1,220314,016.6,E,A*2E
$PGRME,3.3,M,5.7,M,6.6,M*2C
$IIVHW,,,,,2.62,N,,*1F
$IIRMC,164200,A,4741.376,N,12224.847,W,01.8,220,220314,16,E,A*1F
$P,257
$HCHDG,200.2,0.0,E,,*29
$IIVLW,06480,N,000.0,N*59
$P,242
$HCHDG,200.3,0.0,E,,*28
$GPRMC,164248.2,A,4741.37586,N,12224.84862,W,001.97,221.9,220314,016.6,E,A*26
$PGRME,3.3,M,5.7,M,6.6,M*2C
$IIVHW,,,,,2.55,N,,*1B
$HCHDG,200.5,0.0,E,,*2E
$P,246
$HCHDG,200.7,0.0,E,,*2C
$GPRMC,164248.4,A,4741.37576,N,12224.84876,W,001.95,224.9,220314,016.6,E,A*2D
$GPRMB,A,3.27,L,,Lac,4823.3220,N,12229.7720,W,42.1,356,-1.27,V*5A
$IIVHW,,,,,2.54,N,,*1A
$PGRME,3.3,M,5.7,M,6.6,M*2C
$P,236
$YXXDR,A,5.3,D,PTCH,A,9.6,D,ROLL*54
$HCHDG,200.9,0.0,E,,*22
$P,245
$HCHDG,201.0,0.0,E,,*2A
$IIVWR,038,L,05.0,N,,,,*71
$GPRMC,164248.6,A,4741.37568,N,12224.84891,W,001.96,227.7,220314,016.6,E,A*27
$PGRME,3.3,M,5.7,M,6.6,M*2C
$IIVHW,,,,,2.50,N,,*1E
$IIDPT,067.4,-1.0,*45
$HCHDG,201.1,0.0,E,,*2B
$P,237
$IIGLL,4741.375,N,12224.848,W,164200,A,A*47
$HCHDG,201.4,0.0,E,,*2E
$P,267
$IIMWV,322,R,05.0,N,A*15
$GPRMC,164248.8,A,4741.37560,N,12224.84907,W,001.99,224.1,220314,016.6,E,A*25
$IIVHW,,,,,2.50,N,,*1E
$PGRME,3.3,M,5.7,M,6.6,M*2C
$IIMWV,319,T,04.9,N,A*13
$HCHDG,201.6,0.0,E,,*2C
$P,257
$IIRMB,A,3.00,L,,Lac ,,,,,042.1,356,,V,A*2D
$YXXDR,A,5.5,D,PTCH,A,9.6,D,ROLL*52
$PTAK,FFD1,9.6*5A
$HCHDG,201.5,0.0,E,,*2F
$GPRMC,164249.0,A,4741.37552,N,12224.84918,W,001.99,224.2,220314,016.6,E,A*20
$PGRME,3.3,M,5.7,M,6.6,M*2C
$IIVHW,,,,,2.50,N,,*1E
$P,278
$HCHDG,201.4,0.0,E,,*2E
$IIRMC,164200,A,4741.375,N,12224.848,W,01.7,221,220314,16,E,A*1D
$P,257
$HCHDG,201.5,0.0,E,,*2F
$GPRMC,164249.2,A,4741.37544,N,12224.84929,W,001.96,224.2,220314,016.6,E,A*28
$IIVHW,,,,,2.53,N,,*1D
$PGRME,3.3,M,5.7,M,6.6,M*2C
$P,278
$HCHDG,201.3,0.0,E,,*29
$P,266
$HCHDG,201.3,0.0,E,,*29
$GPRMC,164249.4,A,4741.37535,N,12224.84941,W,001.98,224.2,220314,016.6,E,A*28
$IIVHW,,,,,2.58,N,,*16
$PTAK,FFP1,HEEL,@*07
$PGRME,3.3,M,5.7,M,6.6,M*2C
$YXXDR,A,5.6,D,PTCH,A,10.9,D,ROLL*66
$P,276
$HCHDG,201.4,0.0,E,,*2E
$HCHDG,201.3,0.0,E,,*29
$P,259
$IIVLW,06480,N,000.0,N*59
$GPRMC,164249.6,A,4741.37524,N,12224.84956,W,002.00,221.9,220314,016.6,E,A*20
$GPRMB,A,3.27,L,,Lac,4823.3220,N,12229.7720,W,42.1,356,-1.38,V*54
$IIVHW,,,,,2.63,N,,*1E
$PGRME,3.3,M,5.7,M,6.6,M*2C
$IIVWR,039,L,05.2,N,,,,*72
$HCHDG,201.3,0.0,E,,*29
$IIDPT,067.4,-1.0,*45
$P,273
$HCHDG,201.2,0.0,E,,*28
$IIGLL,4741.375,N,12224.849,W,164200,A,A*46
$GPRMC,164249.8,A,4741.37515,N,12224.84969,W,002.00,220.9,220314,016.6,E,A*21
$IIVHW,,,,,2.65,N,,*18
$PGRME,3.3,M,5.6,M,6.6,M*2D
$P,254
$IIMWV,321,R,05.2,N,A*14
$HCHDG,201.1,0.0,E,,*2B
$IIMWV,322,T,05.0,N,A*13
$P,264
$YXXDR,A,5.7,D,PTCH,A,11.0,D,ROLL*6F
$IIRMB,A,3.00,L,,Lac ,,,,,042.1,356,,V,A*2D
$HCHDG,201.1,0.0,E,,*2B
$GPRMC,164250.0,A,4741.37507,N,12224.84982,W,002.01,220.0,220314,016.6,E,A*2F
$IIVHW,,,,,2.65,N,,*18
