$GPRMB,A,3.56,L,,Lac,4823.3220,N,12229.7720,W,42.1,355,-2.96,V*56
$IIVHW,,,,,3.74,N,,*19
$PGRME,2.4,M,2.4,M,3.4,M*29
$P,377
$YXXDR,A,5.5,D,PTCH,A,9.3,D,ROLL*57
$HCHDG,115.4,0.0,E,,*28
$P,381
$HCHDG,115.3,0.0,E,,*2F
$GPRMC,230000.2,A,4741.36238,N,12224.41912,W,003.95,135.8,220314,016.6,E,D*24
$P,368
$IIVHW,,,,,3.76,N,,*1B
$PGRME,2.4,M,2.4,M,3.4,M*29
$IIVLW,06480,N,000.0,N*59
$IIVWR,073,L,04.1,N,,,,*7E
$P,391
$HCHDG,115.1,0.0,E,,*2D
$P,390
$IIGLL,4741.362,N,12224.419,W,225900,A,A*44
$HCHDG,114.9,0.0,E,,*24
$GPRMC,230000.4,A,4741.36225,N,12224.41888,W,004.00,136.3,220314,016.6,E,D*2F
$IIVHW,,,,,3.78,N,,*15
$PGRME,2.4,M,2.4,M,3.4,M*29
$IIMWV,287,R,04.1,N,A*1B
$P,411
$IIMWV,287,T,04.2,N,A*1E
$HCHDG,115.0,0.0,E,,*2C
$P,408
$YXXDR,A,5.8,D,PTCH,A,9.1,D,ROLL*58
$PTAK,FFD1,9.1*5D
$IIRMB,A,3.00,L,,Lac ,,,,,042.1,355,,V,A*2E
$P,429
$GPRMC,230000.6,A,4741.36210,N,12224.41863,W,004.04,134.7,220314,016.6,E,D*2C
$IIVHW,,,,,3.87,N,,*15
$PGRME,2.4,M,2.4,M,3.4,M*29
$HCHDG,114.9,0.0,E,,*24
$P,396
$HCHDG,114.4,0.0,E,,*29
$IIRMC,225900,A,4741.362,N,12224.419,W,03.8,134,220314,16,E,A*14
$P,395
$HCHDG,114.7,0.0,E,,*2A
$GPRMC,230000.8,A,4741.36196,N,12224.41829,W,004.09,134.3,220314,016.6,E,D*28
$IIVHW,,,,,3.92,N,,*11
$PGRME,2.4,M,2.4,M,3.4,M*29
$P,383
$HCHDG,114.4,0.0,E,,*29
$P,394
$P,381
$HCHDG,114.3,0.0,E,,*2E
$GPRMC,230001.0,A,4741.36183,N,12224.41797,W,004.13,134.3,220314,016.6,E,D*24
$GPRMB,A,3.56,L,,Lac,4823.3220,N,12229.7720,W,42.1,355,-3.12,V*5B
$IIVHW,,,,,3.92,N,,*11
$PGRME,2.4,M,2.4,M,3.4,M*29
$P,368
$YXXDR,A,5.6,D,PTCH,A,9.3,D,ROLL*54
$HCHDG,114.2,0.0,E,,*2F
$P,346
$HCHDG,114.1,0.0,E,,*2C
$GPRMC,230001.2,A,4741.36166,N,12224.41764,W,004.16,133.5,220314,016.6,E,D*25
$IIVHW,,,,,3.87,N,,*15
$PGRME,2.4,M,2.4,M,3.4,M*29
$IIVLW,06480,N,000.0,N*59
$P,362
$IIVWR,073,L,04.1,N,,,,*7E
$HCHDG,113.9,0.0,E,,*23
$P,366
$IIGLL,4741.362,N,12224.418,W,230000,A,A*48
$HCHDG,114.0,0.0,E,,*2D
$P,386
$GPRMC,230001.4,A,4741.36151,N,12224.41733,W,004.21,133.1,220314,016.6,E,D*25
$PGRME,2.4,M,2.4,M,3.4,M*29
$IIVHW,,,,,3.84,N,,*16
$IIMWV,287,R,04.1,N,A*1B
$IIMWV,287,T,04.1,N,A*1D
$P,362
$HCHDG,114.0,0.0,E,,*2D
$P,368
$YXXDR,A,5.9,D,PTCH,A,9.0,D,ROLL*58
$PTAK,FFD1,9.0*5C
$IIRMB,A,3.00,L,,Lac ,,,,,042.1,355,,V,A*2E
$GPRMC,230001.6,A,4741.36138,N,12224.41709,W,004.21,133.3,220314,016.6,E,D*23
$PGRME,2.4,M,2.4,M,3.4,M*29
$IIVHW,,,,,3.78,N,,*15
$HCHDG,114.0,0.0,E,,*2D
$P,342
$HCHDG,114.1,0.0,E,,*2C
$IIRMC,230000,A,4741.362,N,12224.418,W,04.0,134,220314,16,E,A*17
$P,362
$HCHDG,114.0,0.0,E,,*2D
$GPRMC,230001.8,A,4741.36129,N,12224.41692,W,004.22,133.1,220314,016.6,E,D*2F
$PGRME,2.4,M,2.4,M,3.4,M*29
$IIVHW,,,,,3.69,N,,*15
$PTAK,FFP1,HEEL,@*07
$P,362
$HCHDG,114.1,0.0,E,,*2C
$P,377
$P,375
$HCHDG,114.3,0.0,E,,*2E
$GPRMC,230002.0,A,4741.36118,N,12224.41669,W,004.20,133.5,220314,016.6,E,D*24
$IIVHW,,,,,3.68,N,,*14
$PGRME,2.4,M,2.4,M,3.4,M*29
$P,396
$YXXDR,A,5.9,D,PTCH,A,8.5,D,ROLL*5C
$HCHDG,114.4,0.0,E,,*29
$P,374
$HCHDG,114.5,0.0,E,,*28
$GPRMC,230002.2,A,4741.36101,N,12224.41647,W,004.17,132.9,220314,016.6,E,D*2B
$GPRMB,A,3.56,L,,Lac,4823.3220,N,12229.7720,W,42.1,355,-3.09,V*51
$IIVHW,,,,,3.68,N,,*14
$PGRME,2.4,M,2.4,M,3.4,M*29
$IIVLW,06480,N,000.0,N*59
$P,363
$IIVWR,073,L,04.2,N,,,,*7D
$HCHDG,114.5,0.0,E,,*28
$P,333
$IIGLL,4741.361,N,12224.417,W,230000,A,A*44
$HCHDG,114.6,0.0,E,,*2B
$GPRMC,230002.4,A,4741.36085,N,12224.41628,W,004.14,132.9,220314,016.6,E,D*2A
$PGRME,2.4,M,2.4,M,3.4,M*29
$P,350
$IIVHW,,,,,3.64,N,,*18
$IIMWV,287,R,04.2,N,A*18
$IIMWV,287,T,04.1,N,A*1D
$HCHDG,114.7,0.0,E,,*2A
$P,339
$YXXDR,A,6.0,D,PTCH,A,8.1,D,ROLL*52
$IIRMB,A,3.00,L,,Lac ,,,,,042.1,355,,V,A*2E
$P,360
$GPRMC,230002.6,A,4741.36069,N,12224.41616,W,004.11,132.8,220314,016.6,E,D*23
$IIVHW,,,,,3.60,N,,*1C
$PGRME,2.4,M,2.4,M,3.4,M*29
$HCHDG,114.9,0.0,E,,*24
$P,350
$HCHDG,115.1,0.0,E,,*2D
$IIRMC,230000,A,4741.361,N,12224.417,W,04.2,133,220314,16,E,A*1E
$P,343
$HCHDG,115.2,0.0,E,,*2E
$GPRMC,230002.8,A,4741.36056,N,12224.41600,W,004.07,131.8,220314,016.6,E,D*22
$IIVHW,,,,,3.58,N,,*17
$PGRME,2.4,M,2.4,M,3.4,M*29
$P,328
$HCHDG,115.3,0.0,E,,*2F
$P,329
$HCHDG,115.5,0.0,E,,*29
$GPRMC,230003.0,A,4741.36045,N,12224.41579,W,004.02,131.5,220314,016.6,E,D*2C
$IIVHW,,,,,3.52,N,,*1D
$PGRME,2.4,M,2.4,M,3.4,M*29
$P,317
$YXXDR,A,6.0,D,PTCH,A,8.1,D,ROLL*52
$PTAK,FFD1,8.1*5C
$HCHDG,115.5,0.0,E,,*29
$P,338
$HCHDG,115.4,0.0,E,,*28
$GPRMC,230003.2,A,4741.36031,N,12224.41563,W,003.97,131.2,220314,016.6,E,D*2A
$IIVHW,,,,,3.44,N,,*1A
$PGRME,2.4,M,2.4,M,3.4,M*29
$IIVLW,06480,N,000.0,N*59
$P,338
$IIVWR,074,L,04.3,N,,,,*7B
$HCHDG,115.7,0.0,E,,*2B
$P,360
$IIGLL,4741.360,N,12224.416,W,230000,A,A*44
$HCHDG,115.8,0.0,E,,*24
$P,345
$GPRMC,230003.4,A,4741.36019,N,12224.41548,W,003.79,130.7,220314,016.6,E,D*2B
$GPRMB,A,3.56,L,,Lac,4823.3220,N,12229.7720,W,42.1,355,-2.71,V*5F
$IIVHW,,,,,3.40,N,,*1E
$PGRME,2.4,M,2.4,M,3.4,M*29
$IIMWV,286,R,04.3,N,A*18
$IIMWV,287,T,04.2,N,A*1E
$P,362
$HCHDG,116.1,0.0,E,,*2E
$P,363
$YXXDR,A,6.0,D,PTCH,A,7.6,D,ROLL*5A
$IIRMB,A,3.00,L,,Lac ,,,,,042.1,355,,V,A*2E
$GPRMC,230003.6,A,4741.36007,N,12224.41536,W,003.78,131.3,220314,016.6,E,D*2B
$IIVHW,,,,,3.45,N,,*1B
$PGRME,2.4,M,2.4,M,3.4,M*29
$HCHDG,116.3,0.0,E,,*2C
$P,373
$HCHDG,116.4,0.0,E,,*2B
$IIRMC,230000,A,4741.360,N,12224.416,W,04.1,132,220314,16,E,A*1C
$P,363
$HCHDG,116.5,0.0,E,,*2A
$GPRMC,230003.8,A,4741.35995,N,12224.41521,W,003.75,132.5,220314,016.6,E,D*2A
$IIVHW,,,,,3.49,N,,*17
$PGRME,2.4,M,2.4,M,3.4,M*29
$P,391
$HCHDG,117.0,0.0,E,,*2E
$P,372
$P,384
$HCHDG,117.1,0.0,E,,*2F
$GPRMC,230004.0,A,4741.35980,N,12224.41506,W,003.73,131.9,220314,016.6,E,D*2D
$IIVHW,,,,,3.57,N,,*18
$PGRME,2.4,M,2.4,M,3.4,M*29
$P,370
$YXXDR,A,5.9,D,PTCH,A,6.7,D,ROLL*50
$PTAK,FFD1,6.7*54
$HCHDG,117.1,0.0,E,,*2F
$P,392
$HCHDG,117.3,0.0,E,,*2D
$GPRMC,230004.2,A,4741.35967,N,12224.41488,W,003.71,133.2,220314,016.6,E,D*2A
$IIVHW,,,,,3.63,N,,*1F
$PGRME,2.4,M,2.4,M,3.4,M*29
$IIVLW,06480,N,000.0,N*59
$P,379
$IIVWR,071,L,04.4,N,,,,*79
$HCHDG,117.4,0.0,E,,*2A
$P,393
$IIGLL,4741.360,N,12224.415,W,230000,A,A*47
$P,387
$HCHDG,117.3,0.0,E,,*2D
$GPRMC,230004.4,A,4741.35958,N,12224.41472,W,003.70,132.8,220314,016.6,E,D*2F
$IIVHW,,,,,3.74,N,,*19
$PGRME,2.4,M,2.4,M,3.4,M*29
$IIMWV,289,R,04.4,N,A*10
$P,405
$IIMWV,286,T,04.3,N,A*1E
$HCHDG,117.2,0.0,E,,*2C
$P,376
$IIRMB,A,3.00,L,,Lac ,,,,,042.1,355,,V,A*2E
$YXXDR,A,5.7,D,PTCH,A,6.9,D,ROLL*50
$GPRMC,230004.6,A,4741.35943,N,12224.41457,W,003.69,133.5,220314,016.6,E,D*24
$GPRMB,A,3.56,L,,Lac,4823.3220,N,12229.7720,W,42.1,355,-2.76,V*58
$IIVHW,,,,,3.79,N,,*14
$PGRME,2.4,M,2.4,M,3.4,M*29
$P,374
$HCHDG,117.3,0.0,E,,*2D
$HCHDG,117.4,0.0,E,,*2A
$P,371
$IIRMC,230000,A,4741.360,N,12224.415,W,03.7,131,220314,16,E,A*1D
$P,383
$HCHDG,117.3,0.0,E,,*2D
$GPRMC,230004.8,A,4741.35931,N,12224.41441,W,003.68,133.5,220314,016.6,E,D*29
$PGRME,2.4,M,2.4,M,3.4,M*29
$IIVHW,,,,,3.81,N,,*13
$P,375
$HCHDG,117.5,0.0,E,,*2B
$P,373
$HCHDG,117.3,0.0,E,,*2D
$GPRMC,230005.0,A,4741.35915,N,12224.41429,W,003.68,135.1,220314,016.6,E,D*2A
$IIVHW,,,,,3.80,N,,*12
$PGRME,2.4,M,2.4,M,3.4,M*29
$P,366
$YXXDR,A,5.5,D,PTCH,A,6.6,D,ROLL*5D
$P,386
$HCHDG,117.3,0.0,E,,*2D
$P,385
$HCHDG,117.3,0.0,E,,*2D
$GPRMC,230005.2,A,4741.35903,N,12224.41420,W,003.67,135.3,220314,016.6,E,D*2B
$IIVHW,,,,,3.80,N,,*12
$PGRME,2.4,M,2.4,M,3.4,M*29
$IIVLW,06480,N,000.0,N*59
$P,413
$IIVWR,069,L,04.4,N,,,,*70
$HCHDG,117.3,0.0,E,,*2D
$P,387
$IIGLL,4741.359,N,12224.414,W,230000,A,A*4C
$HCHDG,117.4,0.0,E,,*2A
$GPRMC,230005.4,A,4741.35887,N,12224.41406,W,003.68,136.2,220314,016.6,E,D*29
$PGRME,2.4,M,2.4,M,3.4,M*29
$IIVHW,,,,,3.83,N,,*11
$P,378
$IIMWV,291,R,04.4,N,A*19
$IIMWV,289,T,04.4,N,A*16
$HCHDG,117.2,0.0,E,,*2C
$P,367
$IIRMB,A,3.00,L,,Lac ,,,,,042.1,355,,V,A*2E
$YXXDR,A,5.4,D,PTCH,A,6.3,D,ROLL*59
$PTAK,FFD1,6.3*50
$P,406
$GPRMC,230005.6,A,4741.35873,N,12224.41386,W,003.85,137.1,220314,016.6,E,D*2E
$GPRMB,A,3.56,L,,Lac,4823.3220,N,12229.7720,W,42.1,355,-3.03,V*5B
$PGRME,2.4,M,2.4,M,3.4,M*29
$IIVHW,,,,,3.83,N,,*11
$HCHDG,117.1,0.0,E,,*2F
$P,391
$HCHDG,116.9,0.0,E,,*26
$IIRMC,230000,A,4741.359,N,12224.414,W,03.6,133,220314,16,E,A*15
$P,387
$HCHDG,116.7,0.0,E,,*28
$GPRMC,230005.8,A,4741.35857,N,12224.41359,W,003.89,137.1,220314,016.6,E,D*28
$IIVHW,,,,,3.83,N,,*11
$PTAK,FFP1,HEEL,@*07
$PGRME,2.4,M,2.4,M,3.4,M*29
$P,362
$HCHDG,116.6,0.0,E,,*29
$P,372
$P,365
$HCHDG,116.4,0.0,E,,*2B
$GPRMC,230006.0,A,4741.35846,N,12224.41334,W,003.92,138.3,220314,016.6,E,D*2F
$IIVHW,,,,,3.80,N,,*12
$PGRME,2.4,M,2.4,M,3.4,M*29
$P,383
$YXXDR,A,5.7,D,PTCH,A,6.9,D,ROLL*50
$HCHDG,116.2,0.0,E,,*2D
$P,376
$HCHDG,115.8,0.0,E,,*24
$GPRMC,230006.2,A,4741.35834,N,12224.41313,W,003.98,137.7,220314,016.6,E,D*2C
$IIVHW,,,,,3.80,N,,*12
$PGRME,2.4,M,2.4,M,3.4,M*29
$IIVLW,06480,N,000.0,N*59
$P,410
$IIVWR,067,L,04.5,N,,,,*7F
$HCHDG,115.7,0.0,E,,*2B
$P,401
$IIGLL,4741.359,N,12224.414,W,230000,A,A*4C
$P,404
$HCHDG,115.5,0.0,E,,*29
$IIVHW,,,,,3.86,N,,*14
$GPRMC,230006.4,A,4741.35817,N,12224.41293,W,004.02,136.3,220314,016.6,E,D*23
$PGRME,2.4,M,2.4,M,3.4,M*29
$IIMWV,293,R,04.5,N,A*1A
$P,400
$IIMWV,291,T,04.4,N,A*1F
$HCHDG,115.3,0.0,E,,*2F
$P,395
$IIRMB,A,3.00,L,,Lac ,,,,,042.1,355,,V,A*2E
$YXXDR,A,5.8,D,PTCH,A,7.5,D,ROLL*52
$PTAK,FFD1,7.5*57
$GPRMC,230006.6,A,4741.35802,N,12224.41264,W,004.09,135.4,220314,016.6,E,D*22
$P,389
$IIVHW,,,,,3.88,N,,*1A
$PGRME,2.4,M,2.4,M,3.4,M*29
$HCHDG,115.2,0.0,E,,*2E
$P,405
$HCHDG,115.0,0.0,E,,*2C
$IIRMC,230000,A,4741.359,N,12224.414,W,03.6,133,220314,16,E,A*15
$P,392
$HCHDG,114.9,0.0,E,,*24
$GPRMC,230006.8,A,4741.35787,N,12224.41246,W,004.12,134.2,220314,016.6,E,D*23
$GPRMB,A,3.56,L,,Lac,4823.3220,N,12229.7720,W,42.1,355,-3.11,V*58
$IIVHW,,,,,3.90,N,,*13
$PGRME,2.4,M,2.4,M,3.4,M*29
$P,397
$HCHDG,114.8,0.0,E,,*25
$P,383
$HCHDG,114.8,0.0,E,,*25
$P,377
$GPRMC,230007.0,A,4741.35775,N,12224.41223,W,004.17,134.7,220314,016.6,E,D*24
$IIVHW,,,,,3.90,N,,*13
$PGRME,2.4,M,2.4,M,3.4,M*29
$YXXDR,A,6.0,D,PTCH,A,7.7,D,ROLL*5B
$P,370
$HCHDG,114.8,0.0,E,,*25
$P,403
$HCHDG,114.7,0.0,E,,*2A
$GPRMC,230007.2,A,4741.35763,N,12224.41198,W,004.20,134.3,220314,016.6,E,D*22
$IIVHW,,,,,3.90,N,,*13
$PGRME,2.4,M,2.4,M,3.4,M*29
$IIVLW,06480,N,000.0,N*59
$P,374
$IIVWR,068,L,04.3,N,,,,*76
$HCHDG,114.8,0.0,E,,*25
$P,361
$IIGLL,4741.357,N,12224.412,W,230000,A,A*44
$HCHDG,114.8,0.0,E,,*25
$GPRMC,230007.4,A,4741.35749,N,12224.41170,W,004.19,133.7,220314,016.6,E,D*23
$IIVHW,,,,,3.87,N,,*15
$PGRME,2.4,M,2.4,M,3.4,M*29
$P,331
$IIMWV,292,R,04.3,N,A*1D
$IIMWV,293,T,04.5,N,A*1C
$HCHDG,114.9,0.0,E,,*24
$P,341
$YXXDR,A,6.3,D,PTCH,A,7.2,D,ROLL*5D
$IIRMB,A,3.00,L,,Lac ,,,,,042.1,355,,V,A*2E
$P,317
$GPRMC,230007.6,A,4741.35733,N,12224.41141,W,004.18,133.4,220314,016.6,E,D*2C
$IIVHW,,,,,3.66,N,,*1A
$PGRME,2.4,M,2.4,M,3.4,M*29
$HCHDG,114.9,0.0,E,,*24
$HCHDG,115.0,0.0,E,,*2C
$P,332
$IIRMC,230000,A,4741.357,N,12224.412,W,04.1,134,220314,16,E,A*1A
$P,334
$HCHDG,115.2,0.0,E,,*2E
$GPRMC,230007.8,A,4741.35717,N,12224.41109,W,004.16,133.6,220314,016.6,E,D*24
$IIVHW,,,,,3.57,N,,*18
$PGRME,2.4,M,2.4,M,3.4,M*29
$P,347
$HCHDG,115.3,0.0,E,,*2F
$P,340
$HCHDG,115.6,0.0,E,,*2A
$GPRMC,230008.0,A,4741.35700,N,12224.41075,W,004.14,133.1,220314,016.6,E,D*2A
$GPRMB,A,3.56,L,,Lac,4823.3220,N,12229.7720,W,42.1,355,-3.07,V*5F
$IIVHW,,,,,3.51,N,,*1E
$PGRME,2.4,M,2.4,M,3.4,M*29
$P,360
$YXXDR,A,5.8,D,PTCH,A,6.9,D,ROLL*5F
$PTAK,FFD1,6.9*5A
$HCHDG,115.8,0.0,E,,*24
$P,332
$HCHDG,116.0,0.0,E,,*2F
$GPRMC,230008.2,A,4741.35682,N,12224.41040,W,004.10,133.8,220314,016.6,E,D*28
$IIVHW,,,,,3.46,N,,*18
$PGRME,2.4,M,2.4,M,3.4,M*29
$IIVLW,06480,N,000.0,N*59
$P,342
$IIVWR,071,L,04.1,N,,,,*7C
$HCHDG,116.1,0.0,E,,*2E
$P,324
$IIGLL,4741.357,N,12224.411,W,230000,A,A*47
$HCHDG,116.4,0.0,E,,*2B
$GPRMC,230008.4,A,4741.35666,N,12224.41007,W,003.89,131.9,220314,016.6,E,D*23
$PGRME,2.4,M,2.4,M,3.4,M*29
$IIVHW,,,,,3.38,N,,*11
$P,345
$IIMWV,289,R,04.1,N,A*15
$IIMWV,292,T,04.3,N,A*1B
$HCHDG,116.7,0.0,E,,*28
$P,325
$IIRMB,A,3.00,L,,Lac ,,,,,042.1,355,,V,A*2E
$YXXDR,A,5.9,D,PTCH,A,6.2,D,ROLL*55
$P,337
$GPRMC,230008.6,A,4741.35650,N,12224.40980,W,003.88,133.6,220314,016.6,E,D*2F
$PGRME,2.4,M,2.4,M,3.4,M*29
$IIVHW,,,,,3.36,N,,*1F
$HCHDG,116.9,0.0,E,,*26
$P,356
$HCHDG,117.1,0.0,E,,*2F
$IIRMC,230000,A,4741.357,N,12224.411,W,04.1,133,220314,16,E,A*1E
$P,362
$HCHDG,117.2,0.0,E,,*2C
$GPRMC,230008.8,A,4741.35640,N,12224.40967,W,003.85,133.4,220314,016.6,E,D*26
$PGRME,2.4,M,2.4,M,3.4,M*29
$IIVHW,,,,,3.40,N,,*1E
$P,346
$HCHDG,117.4,0.0,E,,*2A
$P,373
$HCHDG,117.7,0.0,E,,*29
$GPRMC,230009.0,A,4741.35621,N,12224.40948,W,003.83,133.2,220314,016.6,E,D*25
$IIVHW,,,,,3.45,N,,*1B
$PGRME,2.4,M,2.4,M,3.4,M*29
$P,348
$YXXDR,A,5.8,D,PTCH,A,5.4,D,ROLL*51
$P,369
$HCHDG,117.6,0.0,E,,*28
$HCHDG,117.7,0.0,E,,*29
$P,349
$GPRMC,230009.2,A,4741.35599,N,12224.40934,W,003.78,133.4,220314,016.6,E,D*2E
$GPRMB,A,3.56,L,,Lac,4823.3220,N,12229.7720,W,42.1,355,-2.82,V*53
$PGRME,2.4,M,2.4,M,3.4,M*29
$IIVHW,,,,,3.48,N,,*16
$IIVLW,06480,N,000.0,N*59
$IIVWR,071,L,04.2,N,,,,*7F
$P,377
$HCHDG,117.7,0.0,E,,*29
$P,354
$IIGLL,4741.357,N,12224.411,W,230000,A,A*47
$HCHDG,118.0,0.0,E,,*21
$GPRMC,230009.4,A,4741.35585,N,12224.40915,W,003.74,133.0,220314,016.6,E,D*2E
$PGRME,2.4,M,2.4,M,3.4,M*29
$IIVHW,,,,,3.52,N,,*1D
$IIMWV,289,R,04.2,N,A*16
$P,364
$IIMWV,289,T,04.1,N,A*13
$HCHDG,118.1,0.0,E,,*20
$P,348
$YXXDR,A,5.6,D,PTCH,A,4.5,D,ROLL*5F
$PTAK,FFD1,4.5*54
$IIRMB,A,3.00,L,,Lac ,,,,,042.1,355,,V,A*2E
$GPRMC,230009.6,A,4741.35570,N,12224.40898,W,003.70,133.3,220314,016.6,E,D*25
$IIVHW,,,,,3.55,N,,*1A
$PGRME,2.4,M,2.4,M,3.4,M*29
$HCHDG,118.3,0.0,E,,*22
$P,363
$HCHDG,118.5,0.0,E,,*24
$IIRMC,230000,A,4741.357,N,12224.411,W,04.1,133,220314,16,E,A*1E
$P,347
$HCHDG,118.7,0.0,E,,*26
$P,351
$GPRMC,230009.8,A,4741.35555,N,12224.40883,W,003.64,134.2,220314,016.6,E,D*25
$IIVHW,,,,,3.57,N,,*18
$PGRME,2.4,M,2.4,M,3.4,M*29
$P,375
$HCHDG,118.9,0.0,E,,*28
$PTAK,FFP1,HEEL,@*07
$P,390
$HCHDG,119.0,0.0,E,,*20
$GPRMC,230010.0,A,4741.35538,N,12224.40864,W,003.59,136.4,220314,016.6,E,D*2D
$IIVHW,,,,,3.61,N,,*1D
$PGRME,2.4,M,2.4,M,3.4,M*29
$P,378
$YXXDR,A,5.6,D,PTCH,A,4.3,D,ROLL*59
$HCHDG,118.8,0.0,E,,*29
$P,375
$HCHDG,118.9,0.0,E,,*28
$GPRMC,230010.2,A,4741.35521,N,12224.40851,W,003.59,136.3,220314,016.6,E,D*26
$IIVHW,,,,,3.64,N,,*18
$P,354
$PGRME,2.4,M,2.4,M,3.4,M*29
$IIVLW,06480,N,000.0,N*59
$IIVWR,067,L,04.3,N,,,,*79
$HCHDG,118.9,0.0,E,,*28
$P,364
$IIGLL,4741.356,N,12224.409,W,230000,A,A*4F
$P,350
$HCHDG,118.7,0.0,E,,*26
$GPRMC,230010.4,A,4741.35506,N,12224.40832,W,003.59,137.2,220314,016.6,E,D*20
$GPRMB,A,3.56,L,,Lac,4823.3220,N,12229.7720,W,42.1,355,-2.83,V*52
$IIVHW,,,,,3.63,N,,*1F
$PGRME,2.4,M,2.4,M,3.4,M*29
$IIMWV,293,R,04.3,N,A*1C
$P,355
$IIMWV,289,T,04.2,N,A*10
$HCHDG,119.0,0.0,E,,*20
$P,338
$IIRMB,A,3.00,L,,Lac ,,,,,042.1,355,,V,A*2E
$YXXDR,A,5.3,D,PTCH,A,4.5,D,ROLL*5A
$PTAK,FFD1,4.5*54
$GPRMC,230010.6,A,4741.35489,N,12224.40814,W,003.60,134.1,220314,016.6,E,D*2A
$IIVHW,,,,,3.60,N,,*1C
$PGRME,2.4,M,2.4,M,3.4,M*29
$HCHDG,118.9,0.0,E,,*28
$P,342
$HCHDG,118.9,0.0,E,,*28
$IIRMC,230000,A,4741.356,N,12224.409,W,03.8,133,220314,16,E,A*18
$P,333
$HCHDG,118.8,0.0,E,,*29
$GPRMC,230010.8,A,4741.35475,N,12224.40794,W,003.77,135.4,220314,016.6,E,D*22
$IIVHW,,,,,3.56,N,,*19
$PGRME,2.4,M,2.4,M,3.4,M*29
$P,353
$HCHDG,118.7,0.0,E,,*26
$P,360
$P,392
$HCHDG,118.7,0.0,E,,*26
$GPRMC,230011.0,A,4741.35460,N,12224.40771,W,003.77,133.6,220314,016.6,E,D*20
$IIVHW,,,,,3.59,N,,*16
$PGRME,2.4,M,2.4,M,3.4,M*29
$YXXDR,A,5.6,D,PTCH,A,5.2,D,ROLL*59
$P,370
$HCHDG,118.5,0.0,E,,*24
$P,379
$HCHDG,118.6,0.0,E,,*27
$GPRMC,230011.2,A,4741.35445,N,12224.40753,W,003.79,135.6,220314,016.6,E,D*2D
$IIVHW,,,,,3.61,N,,*1D
$PGRME,2.4,M,2.4,M,3.4,M*29
$IIVLW,06480,N,000.0,N*59
$P,359
$IIVWR,065,L,04.1,N,,,,*79
$HCHDG,118.4,0.0,E,,*25
$P,380
$IIGLL,4741.355,N,12224.408,W,230000,A,A*4D
$HCHDG,118.5,0.0,E,,*24
$P,368
$GPRMC,230011.4,A,4741.35427,N,12224.40727,W,003.80,135.3,220314,016.6,E,D*2F
$GPRMB,A,3.56,L,,Lac,4823.3220,N,12229.7720,W,42.1,355,-2.92,V*52
$IIVHW,,,,,3.61,N,,*1D
$PGRME,2.4,M,2.4,M,3.4,M*29
$IIMWV,295,R,04.1,N,A*18
$IIMWV,293,T,04.3,N,A*1A
$P,385
$HCHDG,118.4,0.0,E,,*25
$P,354
$IIRMB,A,3.00,L,,Lac ,,,,,042.1,355,,V,A*2E
$YXXDR,A,5.7,D,PTCH,A,4.8,D,ROLL*53
$PTAK,FFD1,4.8*59
$GPRMC,230011.6,A,4741.35411,N,12224.40699,W,003.86,136.0,220314,016.6,E,D*2A
$IIVHW,,,,,3.63,N,,*1F
$PGRME,2.4,M,2.4,M,3.4,M*29
$HCHDG,118.2,0.0,E,,*23
$P,356
$HCHDG,118.2,0.0,E,,*23
$IIRMC,230000,A,4741.355,N,12224.408,W,03.5,136,220314,16,E,A*12
$P,355
$HCHDG,118.2,0.0,E,,*23
$GPRMC,230011.8,A,4741.35392,N,12224.40674,W,003.92,137.3,220314,016.6,E,D*2C
$IIVHW,,,,,3.64,N,,*18
$PGRME,2.4,M,2.4,M,3.4,M*29
$P,361
$HCHDG,118.0,0.0,E,,*21
$P,350
$P,362
$HCHDG,118.0,0.0,E,,*21
$GPRMC,230012.0,A,4741.35374,N,12224.40654,W,003.96,137.6,220314,016.6,E,D*2C
$IIVHW,,,,,3.65,N,,*19
$PGRME,2.4,M,2.4,M,3.4,M*29
$YXXDR,A,5.8,D,PTCH,A,5.2,D,ROLL*57
$P,358
$HCHDG,117.9,0.0,E,,*27
$P,365
$HCHDG,118.2,0.0,E,,*23
$GPRMC,230012.2,A,4741.35354,N,12224.40639,W,004.01,138.8,220314,016.6,E,D*2F
$PGRME,2.4,M,2.4,M,3.4,M*29
$IIVHW,,,,,3.63,N,,*1F
$IIVLW,06480,N,000.0,N*59
$P,329
$IIVWR,065,L,04.0,N,,,,*78
$HCHDG,118.2,0.0,E,,*23
$P,326
$IIGLL,4741.354,N,12224.407,W,230000,A,A*43
$HCHDG,118.3,0.0,E,,*22
$GPRMC,230012.4,A,4741.35335,N,12224.40618,W,004.07,137.8,220314,016.6,E,D*24
$PGRME,2.4,M,2.4,M,3.4,M*29
$IIVHW,,,,,3.55,N,,*1A
$IIMWV,295,R,04.0,N,A*19
$P,308
$IIMWV,295,T,04.1,N,A*1E
$HCHDG,118.3,0.0,E,,*22
$P,321
$IIRMB,A,3.00,L,,Lac ,,,,,042.1,355,,V,A*2E
$YXXDR,A,5.6,D,PTCH,A,5.2,D,ROLL*59
$GPRMC,230012.6,A,4741.35319,N,12224.40596,W,004.10,138.3,220314,016.6,E,D*2F
$GPRMB,A,3.57,L,,Lac,4823.3220,N,12229.7720,W,42.2,355,-3.28,V*50
$IIVHW,,,,,3.42,N,,*1C
$PGRME,2.4,M,2.4,M,3.4,M*29
$HCHDG,118.3,0.0,E,,*22
$P,319
$HCHDG,118.4,0.0,E,,*25
$IIRMC,230000,A,4741.354,N,12224.407,W,03.7,133,220314,16,E,A*1B
$P,324
$HCHDG,118.3,0.0,E,,*22
$GPRMC,230012.8,A,4741.35300,N,12224.40577,W,004.13,139.0,220314,016.6,E,D*27
$IIVHW,,,,,3.36,N,,*1F
$PGRME,2.4,M,2.4,M,3.4,M*29
$P,308
$HCHDG,118.6,0.0,E,,*27
$P,337
$HCHDG,118.7,0.0,E,,*26
$GPRMC,230013.0,A,4741.35282,N,12224.40557,W,004.13,138.7,220314,016.6,E,D*21
$IIVHW,,,,,3.33,N,,*1A
$PGRME,2.4,M,2.4,M,3.4,M*29
$P,329
$YXXDR,A,5.5,D,PTCH,A,5.3,D,ROLL*5B
$PTAK,FFD1,5.3*53
$P,362
$HCHDG,118.7,0.0,E,,*26
$P,341
$HCHDG,118.7,0.0,E,,*26
$GPRMC,230013.2,A,4741.35262,N,12224.40539,W,004.15,138.0,220314,016.6,E,D*24
$IIVHW,,,,,3.32,N,,*1B
$PGRME,2.4,M,2.4,M,3.4,M*29
$P,364
$HCHDG,118.4,0.0,E,,*25
$P,366
$HCHDG,118.5,0.0,E,,*24
$GPRMC,230013.4,A,4741.35248,N,12224.40524,W,004.15,136.9,220314,016.6,E,D*21
$IIVHW,,,,,3.37,N,,*1E
$PGRME,2.4,M,2.4,M,3.4,M*29
$P,375
$HCHDG,118.4,0.0,E,,*25
$P,349
$YXXDR,A,5.8,D,PTCH,A,5.0,D,ROLL*55
$GPRMC,230013.6,A,4741.35233,N,12224.40511,W,004.15,135.9,220314,016.6,E,D*2A
$IIVHW,,,,,3.42,N,,*1C
$PGRME,2.4,M,2.4,M,3.4,M*29
$P,360
$HCHDG,118.5,0.0,E,,*24
$HCHDG,118.4,0.0,E,,*25
$P,376
$P,388
$HCHDG,118.5,0.0,E,,*24
$GPRMC,230013.8,A,4741.35214,N,12224.40491,W,004.15,135.5,220314,016.6,E,D*24
$GPRMB,A,3.57,L,,Lac,4823.3220,N,12229.7720,W,42.2,355,-3.20,V*58
$IIVHW,,,,,3.51,N,,*1E
$PTAK,FFP1,HEEL,@*07
$PGRME,2.4,M,2.4,M,3.4,M*29
$P,363
$HCHDG,118.7,0.0,E,,*26
$P,364
$HCHDG,118.9,0.0,E,,*28
$GPRMC,230014.0,A,4741.35198,N,12224.40467,W,004.15,136.1,220314,016.6,E,D*22
$IIVHW,,,,,3.58,N,,*17
$PGRME,2.4,M,2.4,M,3.4,M*29
$P,330
$YXXDR,A,5.9,D,PTCH,A,4.9,D,ROLL*5C
$PTAK,FFD1,4.9*58
$HCHDG,119.0,0.0,E,,*20
$P,329
$HCHDG,119.0,0.0,E,,*20
$GPRMC,230014.2,A,4741.35183,N,12224.40448,W,004.13,136.7,220314,016.6,E,D*27
$IIVLW,06480,N,000.0,N*59
$IIVHW,,,,,3.58,N,,*17
$PGRME,2.4,M,2.4,M,3.4,M*29
$P,328
$IIVWR,066,L,03.9,N,,,,*75
$HCHDG,119.3,0.0,E,,*23
$P,353
$IIGLL,4741.353,N,12224.406,W,230000,A,A*45
$HCHDG,119.6,0.0,E,,*26
$P,345
$GPRMC,230014.4,A,4741.35169,N,12224.40427,W,004.11,135.9,220314,016.6,E,D*23
$PGRME,2.4,M,2.4,M,3.4,M*29
$IIVHW,,,,,3.53,N,,*1C
$IIMWV,294,R,03.9,N,A*16
$IIMWV,295,T,04.0,N,A*1F
$P,351
$HCHDG,119.6,0.0,E,,*26
$IIRMB,A,3.00,L,,Lac ,,,,,042.2,355,,V,A*2D
$YXXDR,A,5.6,D,PTCH,A,4.1,D,ROLL*5B
$P,359
$GPRMC,230014.6,A,4741.35152,N,12224.40413,W,003.92,136.1,220314,016.6,E,D*29
$PGRME,2.4,M,2.4,M,3.4,M*29
$IIVHW,,,,,3.53,N,,*1C
$HCHDG,120.0,0.0,E,,*2A
$P,364
$IIRMC,230000,A,4741.353,N,12224.406,W,03.9,137,220314,16,E,A*17
$HCHDG,120.1,0.0,E,,*2B
$P,349
$HCHDG,120.4,0.0,E,,*2E
$GPRMC,230014.8,A,4741.35133,N,12224.40398,W,003.91,137.7,220314,016.6,E,D*20
$PGRME,2.4,M,2.4,M,3.4,M*29
$IIVHW,,,,,3.52,N,,*1D
$P,365
$HCHDG,120.5,0.0,E,,*2F
$P,342
$GPRMC,230015.0,A,4741.35115,N,12224.40384,W,003.84,138.3,220314,016.6,E,D*2F
$GPRMB,A,3.57,L,,Lac,4823.3220,N,12229.7720,W,42.2,355,-3.07,V*5D
$P,347
$HCHDG,120.6,0.0,E,,*2C
$PGRME,2.4,M,2.4,M,3.4,M*29
$IIVHW,,,,,3.48,N,,*16
$YXXDR,A,5.7,D,PTCH,A,2.7,D,ROLL*5A
$PTAK,FFD1,2.7*50
$P,328
$HCHDG,120.9,0.0,E,,*23
$P,348
$HCHDG,121.1,0.0,E,,*2A
$GPRMC,230015.2,A,4741.35094,N,12224.40381,W,003.83,140.2,220314,016.6,E,D*29
$PGRME,2.4,M,2.4,M,3.4,M*29
$IIVHW,,,,,3.47,N,,*19
$IIVLW,06480,N,000.0,N*59
$IIVWR,069,L,03.9,N,,,,*7A
$P,315
$HCHDG,121.2,0.0,E,,*29
$IIGLL,4741.351,N,12224.404,W,230000,A,A*45
$P,318
$HCHDG,121.4,0.0,E,,*2F
$GPRMC,230015.4,A,4741.35078,N,12224.40370,W,003.79,139.6,220314,016.6,E,D*2C
$IIVHW,,,,,3.42,N,,*1C
$PGRME,2.4,M,2.4,M,3.4,M*29
$IIMWV,291,R,03.9,N,A*13
$IIMWV,291,T,03.8,N,A*14
$P,327
$HCHDG,121.5,0.0,E,,*2E
$P,373
$YXXDR,A,5.4,D,PTCH,A,2.3,D,ROLL*5D
$IIRMB,A,3.00,L,,Lac ,,,,,042.2,355,,V,A*2D
$GPRMC,230015.6,A,4741.35061,N,12224.40358,W,003.74,139.9,220314,016.6,E,D*2E
$PGRME,2.4,M,2.4,M,3.4,M*29
$IIVHW,,,,,3.43,N,,*1D
$HCHDG,121.6,0.0,E,,*2D
$P,361
$HCHDG,121.6,0.0,E,,*2D
$IIRMC,230000,A,4741.351,N,12224.404,W,04.1,136,220314,16,E,A*19
$P,371
$HCHDG,121.6,0.0,E,,*2D
$GPRMC,230015.8,A,4741.35047,N,12224.40340,W,003.71,139.8,220314,016.6,E,D*29
$PGRME,2.4,M,2.4,M,3.4,M*29
$P,351
$IIVHW,,,,,3.47,N,,*19
$HCHDG,121.8,0.0,E,,*23
$P,359
$P,330
$HCHDG,121.5,0.0,E,,*2E
$GPRMC,230016.0,A,4741.35028,N,12224.40315,W,003.68,139.2,220314,016.6,E,D*29
$GPRMB,A,3.57,L,,Lac,4823.3220,N,12229.7720,W,42.2,355,-2.98,V*5A
$PGRME,2.4,M,2.4,M,3.4,M*29
$IIVHW,,,,,3.44,N,,*1A
$YXXDR,A,5.4,D,PTCH,A,2.8,D,ROLL*56
$PTAK,FFD1,2.8*5F
$P,338
$HCHDG,121.6,0.0,E,,*2D
$P,348
$HCHDG,121.4,0.0,E,,*2F
$GPRMC,230016.2,A,4741.35013,N,12224.40297,W,003.66,139.1,220314,016.6,E,D*25
$PGRME,2.4,M,2.4,M,3.4,M*29
$IIVHW,,,,,3.44,N,,*1A
$IIVLW,06480,N,000.0,N*59
$P,353
$IIVWR,066,L,03.8,N,,,,*74
$HCHDG,121.7,0.0,E,,*2C
$P,336
$IIGLL,4741.351,N,12224.403,W,230000,A,A*42
$HCHDG,121.7,0.0,E,,*2C
$GPRMC,230016.4,A,4741.34998,N,12224.40274,W,003.64,139.3,220314,016.6,E,D*25
$PGRME,2.4,M,2.4,M,3.4,M*29
$IIVHW,,,,,3.45,N,,*1B
$IIMWV,294,R,03.8,N,A*17
$P,339
$IIMWV,291,T,03.9,N,A*15
$HCHDG,121.7,0.0,E,,*2C
$P,357
$IIRMB,A,3.00,L,,Lac ,,,,,042.2,355,,V,A*2D
$YXXDR,A,5.3,D,PTCH,A,2.8,D,ROLL*51
$GPRMC,230016.6,A,4741.34985,N,12224.40256,W,003.62,138.2,220314,016.6,E,D*2D
$P,373
$PGRME,2.4,M,2.4,M,3.4,M*29
$IIVHW,,,,,3.51,N,,*1E
$HCHDG,121.5,0.0,E,,*2E
$HCHDG,121.5,0.0,E,,*2E
$P,359
$IIRMC,230000,A,4741.351,N,12224.403,W,03.8,138,220314,16,E,A*1E
$P,375
$HCHDG,121.3,0.0,E,,*28
$GPRMC,230016.8,A,4741.34973,N,12224.40240,W,003.60,139.4,220314,016.6,E,D*28
$PGRME,2.4,M,2.4,M,3.4,M*29
$IIVHW,,,,,3.54,N,,*1B
$P,357
$HCHDG,121.5,0.0,E,,*2E
$P,360
$HCHDG,121.4,0.0,E,,*2F
$GPRMC,230017.0,A,4741.34955,N,12224.40224,W,003.61,140.2,220314,016.6,E,D*2E
$PGRME,2.4,M,2.4,M,3.4,M*29
$IIVHW,,,,,3.53,N,,*1C
$P,355
$YXXDR,A,5.3,D,PTCH,A,2.7,D,ROLL*5E
$P,353
$HCHDG,121.2,0.0,E,,*29
$HCHDG,121.3,0.0,E,,*28
$GPRMC,230017.2,A,4741.34939,N,12224.40206,W,003.61,139.4,220314,016.6,E,D*2E
$GPRMB,A,3.57,L,,Lac,4823.3220,N,12229.7720,W,42.2,355,-2.93,V*51
$P,331
$PGRME,2.4,M,2.4,M,3.4,M*29
$IIVHW,,,,,3.53,N,,*1C
$IIVLW,06480,N,000.0,N*59
$IIVWR,063,L,03.7,N,,,,*7E
$HCHDG,121.2,0.0,E,,*29
$P,358
$IIGLL,4741.350,N,12224.403,W,230000,A,A*43
$P,331
$HCHDG,121.0,0.0,E,,*2B
$GPRMC,230017.4,A,4741.34919,N,12224.40181,W,003.65,141.1,220314,016.6,E,D*28
$PGRME,2.4,M,2.4,M,3.4,M*29
$IIVHW,,,,,3.52,N,,*1D
$IIMWV,297,R,03.7,N,A*1B
$IIMWV,294,T,03.8,N,A*11
$P,336
$HCHDG,120.7,0.0,E,,*2D
$IIRMB,A,3.00,L,,Lac ,,,,,042.2,355,,V,A*2D
$YXXDR,A,5.4,D,PTCH,A,2.9,D,ROLL*57
$PTAK,FFD1,2.9*5E
$P,334
$GPRMC,230017.6,A,4741.34898,N,12224.40157,W,003.70,141.8,220314,016.6,E,D*24
$PGRME,2.4,M,2.4,M,3.4,M*29
$IIVHW,,,,,3.50,N,,*1F
$HCHDG,120.7,0.0,E,,*2D
$P,357
$HCHDG,120.4,0.0,E,,*2E
$IIRMC,230000,A,4741.350,N,12224.403,W,03.6,139,220314,16,E,A*10
$P,354
$HCHDG,120.2,0.0,E,,*28
$GPRMC,230017.8,A,4741.34881,N,12224.40135,W,003.74,141.7,220314,016.6,E,D*2D
$PGRME,2.4,M,2.4,M,3.4,M*29
$IIVHW,,,,,3.50,N,,*1F
$P,370
$HCHDG,120.2,0.0,E,,*28
$P,352
$HCHDG,119.8,0.0,E,,*28
$P,365
$GPRMC,230018.0,A,4741.34864,N,12224.40116,W,003.80,140.3,220314,016.6,E,D*2E
$PTAK,FFP1,HEEL,@*07
$PGRME,2.4,M,2.4,M,3.4,M*29
$IIVHW,,,,,3.51,N,,*1E
$YXXDR,A,5.4,D,PTCH,A,3.4,D,ROLL*5B
$P,364
$HCHDG,119.7,0.0,E,,*27
$P,396
$HCHDG,119.5,0.0,E,,*25
$GPRMC,230018.2,A,4741.34845,N,12224.40093,W,003.86,140.3,220314,016.6,E,D*25
$GPRMB,A,3.57,L,,Lac,4823.3220,N,12229.7720,W,42.2,355,-3.17,V*5C
$PGRME,2.4,M,2.4,M,3.4,M*29
$IIVHW,,,,,3.56,N,,*19
$IIVLW,06480,N,000.0,N*59
$P,400
$IIVWR,060,L,03.6,N,,,,*7C
$HCHDG,119.3,0.0,E,,*23
$P,428
$IIGLL,4741.349,N,12224.402,W,230000,A,A*4A
$P,396
$HCHDG,119.3,0.0,E,,*23
$GPRMC,230018.4,A,4741.34827,N,12224.40067,W,003.91,139.2,220314,016.6,E,D*25
$IIVHW,,,,,3.69,N,,*15
$PGRME,2.4,M,2.4,M,3.4,M*29
$IIMWV,300,R,03.6,N,A*15
$P,406
$IIMWV,297,T,03.7,N,A*1D
$HCHDG,119.0,0.0,E,,*20
$P,403
$IIRMB,A,3.00,L,,Lac ,,,,,042.2,355,,V,A*2D
$YXXDR,A,5.6,D,PTCH,A,4.3,D,ROLL*59
$PTAK,FFD1,4.3*52
$GPRMC,230018.6,A,4741.34812,N,12224.40047,W,004.08,138.1,220314,016.6,E,D*26
$P,415
$PGRME,2.4,M,2.4,M,3.4,M*29
$IIVHW,,,,,3.80,N,,*12
$HCHDG,119.0,0.0,E,,*20
$P,394
$HCHDG,118.9,0.0,E,,*28
$IIRMC,230000,A,4741.349,N,12224.402,W,03.6,140,220314,16,E,A*17
$P,412
$HCHDG,118.9,0.0,E,,*28
$GPRMC,230018.8,A,4741.34794,N,12224.40028,W,004.04,137.2,220314,016.6,E,D*20
$IIVHW,,,,,3.88,N,,*1A
$PGRME,2.4,M,2.4,M,3.4,M*29
$P,376
$HCHDG,119.0,0.0,E,,*20
$P,389
$HCHDG,119.0,0.0,E,,*20
$P,378
$GPRMC,230019.0,A,4741.34779,N,12224.40000,W,004.03,137.6,220314,016.6,E,D*23
$IIVHW,,,,,3.92,N,,*11
$PGRME,2.4,M,2.4,M,3.4,M*29
$YXXDR,A,5.8,D,PTCH,A,4.6,D,ROLL*52
$P,390
$HCHDG,119.1,0.0,E,,*21
$P,362
$HCHDG,119.1,0.0,E,,*21
$GPRMC,230019.2,A,4741.34761,N,12224.39969,W,004.00,136.0,220314,016.6,E,D*24
$GPRMB,A,3.57,L,,Lac,4823.3220,N,12229.7720,W,42.2,355,-3.10,V*5B
$IIVHW,,,,,3.94,N,,*17
$PGRME,2.4,M,2.4,M,3.4,M*29
$IIVLW,06480,N,000.0,N*59
$P,371
$IIVWR,057,L,03.4,N,,,,*7A
$HCHDG,119.4,0.0,E,,*24
$P,349
$IIGLL,4741.348,N,12224.401,W,230000,A,A*48
$HCHDG,119.4,0.0,E,,*24
$GPRMC,230019.4,A,4741.34737,N,12224.39942,W,003.96,139.3,220314,016.6,E,D*2C
$IIVHW,,,,,3.84,N,,*16
$PGRME,2.4,M,2.4,M,3.4,M*29
$P,364
$IIMWV,303,R,03.4,N,A*14
$IIMWV,300,T,03.6,N,A*13
$HCHDG,119.7,0.0,E,,*27
$P,351
$IIRMB,A,3.00,L,,Lac ,,,,,042.2,355,,V,A*2D
$YXXDR,A,5.6,D,PTCH,A,4.5,D,ROLL*5F
$PTAK,FFD1,4.5*54
$P,353
$GPRMC,230019.6,A,4741.34717,N,12224.39919,W,003.97,139.4,220314,016.6,E,D*24
$IIVHW,,,,,3.75,N,,*18
$PGRME,2.4,M,2.4,M,3.4,M*29
$HCHDG,119.8,0.0,E,,*28
$P,349
$HCHDG,120.0,0.0,E,,*2A
$IIRMC,230000,A,4741.348,N,12224.401,W,03.8,140,220314,16,E,A*1B
$P,357
$HCHDG,120.1,0.0,E,,*2B
$GPRMC,230019.8,A,4741.34692,N,12224.39895,W,003.94,140.0,220314,016.6,E,D*2A
$IIVHW,,,,,3.68,N,,*14
$PGRME,2.4,M,2.4,M,3.4,M*29
$P,331
$HCHDG,120.4,0.0,E,,*2E
$P,349
$HCHDG,120.5,0.0,E,,*2F
$GPRMC,230020.0,A,4741.34674,N,12224.39877,W,003.93,140.4,220314,016.6,E,D*2F
$IIVHW,,,,,3.58,N,,*17
$PGRME,2.4,M,2.4,M,3.4,M*29
$P,346
$YXXDR,A,5.7,D,PTCH,A,4.6,D,ROLL*5D
$P,354
$HCHDG,120.7,0.0,E,,*2D
$HCHDG,120.7,0.0,E,,*2D
$GPRMC,230020.2,A,4741.34655,N,12224.39872,W,003.92,139.5,220314,016.6,E,D*25
$P,347
$IIVHW,,,,,3.51,N,,*1E
$PGRME,2.4,M,2.4,M,3.4,M*29
$IIVLW,06480,N,000.0,N*59
$IIVWR,060,L,03.3,N,,,,*79
$HCHDG,120.8,0.0,E,,*22
$P,337
$IIGLL,4741.347,N,12224.400,W,230000,A,A*46
$HCHDG,120.9,0.0,E,,*23
$P,308
$GPRMC,230020.4,A,4741.34639,N,12224.39861,W,003.88,138.8,220314,016.6,E,D*2C
$GPRMB,A,3.57,L,,Lac,4823.3220,N,12229.7720,W,42.2,355,-3.13,V*58
$IIVHW,,,,,3.43,N,,*1D
$PGRME,2.4,M,2.4,M,3.4,M*29
$IIMWV,300,R,03.3,N,A*10
$IIMWV,303,T,03.4,N,A*12
$P,323
$HCHDG,121.0,0.0,E,,*2B
$IIRMB,A,3.00,L,,Lac ,,,,,042.2,355,,V,A*2D
$YXXDR,A,5.6,D,PTCH,A,5.6,D,ROLL*5D
$PTAK,FFD1,5.6*56
$P,316
$GPRMC,230020.6,A,4741.34620,N,12224.39849,W,003.83,139.7,220314,016.6,E,D*29
$PGRME,2.4,M,2.4,M,3.4,M*29
$IIVHW,,,,,3.37,N,,*1E
$HCHDG,121.0,0.0,E,,*2B
$P,330
$HCHDG,121.2,0.0,E,,*29
$IIRMC,230000,A,4741.347,N,12224.400,W,04.0,137,220314,16,E,A*1A
$P,318
$HCHDG,121.3,0.0,E,,*28
$GPRMC,230020.8,A,4741.34601,N,12224.39824,W,003.77,139.3,220314,016.6,E,D*20
$IIVHW,,,,,3.32,N,,*1B
$PGRME,2.4,M,2.4,M,3.4,M*29
$P,335
$HCHDG,121.5,0.0,E,,*2E
$P,351
$HCHDG,121.5,0.0,E,,*2E
$GPRMC,230021.0,A,4741.34588,N,12224.39803,W,003.60,135.8,220314,016.6,E,D*2F
$IIVHW,,,,,3.34,N,,*1D
$PGRME,2.4,M,2.4,M,3.4,M*29
$P,355
$YXXDR,A,5.5,D,PTCH,A,4.7,D,ROLL*5E
$HCHDG,121.6,0.0,E,,*2D
$P,331
$HCHDG,121.5,0.0,E,,*2E
$GPRMC,230021.2,A,4741.34573,N,12224.39779,W,003.64,137.2,220314,016.6,E,D*27
$IIVHW,,,,,3.34,N,,*1D
$PGRME,2.4,M,2.4,M,3.4,M*29
$IIVLW,06480,N,000.0,N*59
$P,350
$IIVWR,063,L,03.4,N,,,,*7D
$HCHDG,121.6,0.0,E,,*2D
$P,351
$IIGLL,4741.346,N,12224.398,W,230000,A,A*41
$HCHDG,121.6,0.0,E,,*2D
$P,352
$GPRMC,230021.4,A,4741.34560,N,12224.39753,W,003.63,137.8,220314,016.6,E,D*26
$IIVHW,,,,,3.37,N,,*1E
$PGRME,2.4,M,2.4,M,3.4,M*29
$IIMWV,297,R,03.4,N,A*18
$IIMWV,300,T,03.3,N,A*16
$P,338
$HCHDG,121.6,0.0,E,,*2D
$IIRMB,A,3.00,L,,Lac ,,,,,042.2,355,,V,A*2D
$YXXDR,A,5.5,D,PTCH,A,4.7,D,ROLL*5E
$P,352
$GPRMC,230021.6,A,4741.34545,N,12224.39735,W,003.64,136.7,220314,016.6,E,D*2A
$GPRMB,A,3.57,L,,Lac,4823.3220,N,12229.7720,W,42.2,355,-2.85,V*56
$IIVHW,,,,,3.38,N,,*11
$PGRME,2.4,M,2.4,M,3.4,M*29
$HCHDG,121.6,0.0,E,,*2D
$P,330
$HCHDG,121.8,0.0,E,,*23
$IIRMC,230000,A,4741.346,N,12224.398,W,03.9,140,220314,16,E,A*13
$P,346
$HCHDG,121.8,0.0,E,,*23
$GPRMC,230021.8,A,4741.34527,N,12224.39726,W,003.63,138.7,220314,016.6,E,D*2B
$IIVHW,,,,,3.42,N,,*1C
$PGRME,2.4,M,2.4,M,3.4,M*29
$P,333
$HCHDG,121.9,0.0,E,,*22
$P,345
$HCHDG,122.0,0.0,E,,*28
$GPRMC,230022.0,A,4741.34509,N,12224.39721,W,003.61,137.6,220314,016.6,E,D*27
$IIVHW,,,,,3.43,N,,*1D
$PTAK,FFP1,HEEL,@*07
$PGRME,2.4,M,2.4,M,3.4,M*29
$P,314
$YXXDR,A,5.4,D,PTCH,A,3.8,D,ROLL*57
$PTAK,FFD1,3.8*5E
$HCHDG,122.0,0.0,E,,*28
$P,323
$HCHDG,122.0,0.0,E,,*28
$GPRMC,230022.2,A,4741.34491,N,12224.39709,W,003.60,139.4,220314,016.6,E,D*22
$IIVHW,,,,,3.37,N,,*1E
$PGRME,2.4,M,2.4,M,3.4,M*29
$IIVLW,06480,N,000.0,N*59
$P,311
$IIVWR,069,L,03.4,N,,,,*77
$HCHDG,122.0,0.0,E,,*28
$P,320
$IIGLL,4741.345,N,12224.398,W,230000,A,A*42
$HCHDG,122.1,0.0,E,,*29
$GPRMC,230022.4,A,4741.34472,N,12224.39701,W,003.56,137.0,220314,016.6,E,D*2E
$IIVHW,,,,,3.32,N,,*1B
$PGRME,2.4,M,2.4,M,3.4,M*29
$IIMWV,291,R,03.4,N,A*1E
$P,317
$IIMWV,297,T,03.4,N,A*1E
$HCHDG,122.0,0.0,E,,*28
$P,334
$IIRMB,A,3.00,L,,Lac ,,,,,042.2,355,,V,A*2D
$YXXDR,A,5.2,D,PTCH,A,3.9,D,ROLL*50
$GPRMC,230022.6,A,4741.34455,N,12224.39683,W,003.55,140.2,220314,016.6,E,D*23
$P,341
$PGRME,2.4,M,2.4,M,3.4,M*29
$IIVHW,,,,,3.30,N,,*19
$HCHDG,122.0,0.0,E,,*28
$P,368
$HCHDG,122.1,0.0,E,,*29
$IIRMC,230000,A,4741.345,N,12224.398,W,03.6,135,220314,16,E,A*1D
$P,356
$HCHDG,122.2,0.0,E,,*2A
$GPRMC,230022.8,A,4741.34439,N,12224.39665,W,003.54,139.2,220314,016.6,E,D*20
$GPRMB,A,3.57,L,,Lac,4823.3220,N,12229.7720,W,42.2,355,-2.87,V*54
$IIVHW,,,,,3.35,N,,*1C
$PGRME,2.4,M,2.4,M,3.4,M*29
$P,369
$HCHDG,122.1,0.0,E,,*29
$P,346
$HCHDG,122.2,0.0,E,,*2A
$GPRMC,230023.0,A,4741.34426,N,12224.39649,W,003.54,140.3,220314,016.6,E,D*26
$IIVHW,,,,,3.38,N,,*11
$PGRME,2.4,M,2.4,M,3.4,M*29
$P,362
$YXXDR,A,5.4,D,PTCH,A,3.7,D,ROLL*58
$PTAK,FFD1,3.7*51
$P,342
$HCHDG,122.1,0.0,E,,*29
$HCHDG,122.0,0.0,E,,*28
$P,364
$GPRMC,230023.2,A,4741.34410,N,12224.39628,W,003.57,141.0,220314,016.6,E,D*27
$IIVHW,,,,,3.43,N,,*1D
$PGRME,2.4,M,2.4,M,3.4,M*29
$IIVLW,06480,N,000.0,N*59
$IIVWR,069,L,03.4,N,,,,*77
$HCHDG,122.0,0.0,E,,*28
$P,331
$IIGLL,4741.345,N,12224.397,W,230000,A,A*4D
$P,339
$HCHDG,122.2,0.0,E,,*2A
$GPRMC,230023.4,A,4741.34395,N,12224.39613,W,003.58,141.5,220314,016.6,E,D*29
$IIVHW,,,,,3.46,N,,*18
$PGRME,2.4,M,2.4,M,3.4,M*29
$IIMWV,291,R,03.4,N,A*1E
$IIMWV,291,T,03.4,N,A*18
$P,343
$HCHDG,122.1,0.0,E,,*29
$P,352
$IIRMB,A,3.00,L,,Lac ,,,,,042.2,355,,V,A*2D
$YXXDR,A,5.3,D,PTCH,A,3.6,D,ROLL*5E
$GPRMC,230023.6,A,4741.34380,N,12224.39604,W,003.60,141.2,220314,016.6,E,D*25
$IIVHW,,,,,3.47,N,,*19
$PGRME,2.4,M,2.4,M,3.4,M*29
$HCHDG,122.1,0.0,E,,*29
$P,331
$HCHDG,122.0,0.0,E,,*28
$IIRMC,230000,A,4741.345,N,12224.397,W,03.6,137,220314,16,E,A*10
$P,334
$HCHDG,121.7,0.0,E,,*2C
$GPRMC,230023.8,A,4741.34365,N,12224.39584,W,003.64,140.6,220314,016.6,E,D*2A
$GPRMB,A,3.57,L,,Lac,4823.3220,N,12229.7720,W,42.2,355,-3.00,V*5A
$IIVHW,,,,,3.47,N,,*19
$PGRME,2.4,M,2.4,M,3.4,M*29
$P,320
$HCHDG,121.7,0.0,E,,*2C
$P,319
$HCHDG,121.6,0.0,E,,*2D
$GPRMC,230024.0,A,4741.34349,N,12224.39569,W,003.67,140.9,220314,016.6,E,D*24
$IIVHW,,,,,3.38,N,,*11
$PGRME,2.4,M,2.4,M,3.4,M*29
$P,319
$YXXDR,A,5.4,D,PTCH,A,4.0,D,ROLL*58
$PTAK,FFD1,4.0*51
$HCHDG,121.6,0.0,E,,*2D
$P,335
$HCHDG,121.5,0.0,E,,*2E
$GPRMC,230024.2,A,4741.34332,N,12224.39550,W,003.70,140.3,220314,016.6,E,D*2C
$IIVHW,,,,,3.35,N,,*1C
$PGRME,2.4,M,2.4,M,3.4,M*29
$IIVLW,06480,N,000.0,N*59
$P,324
$IIVWR,071,L,03.4,N,,,,*7E
$HCHDG,121.6,0.0,E,,*2D
$P,338
$IIGLL,4741.344,N,12224.396,W,230000,A,A*4D
$HCHDG,121.5,0.0,E,,*2E
$GPRMC,230024.4,A,4741.34312,N,12224.39528,W,003.75,141.4,220314,016.6,E,D*24
$P,319
$IIVHW,,,,,3.29,N,,*11
$PGRME,2.4,M,2.4,M,3.4,M*29
$IIMWV,289,R,03.4,N,A*17
$IIMWV,291,T,03.4,N,A*18
$HCHDG,121.4,0.0,E,,*2F
$P,329
$IIRMB,A,3.00,L,,Lac ,,,,,042.2,355,,V,A*2D
$YXXDR,A,5.6,D,PTCH,A,3.8,D,ROLL*55
$P,317
$GPRMC,230024.6,A,4741.34295,N,12224.39502,W,003.79,141.4,220314,016.6,E,D*2C
$PGRME,2.4,M,2.4,M,3.4,M*29
$IIVHW,,,,,3.27,N,,*1F
$HCHDG,121.4,0.0,E,,*2F
$P,332
$HCHDG,121.1,0.0,E,,*2A
$IIRMC,230000,A,4741.344,N,12224.396,W,03.5,140,220314,16,E,A*13
$P,323
$HCHDG,121.1,0.0,E,,*2A
$GPRMC,230024.8,A,4741.34277,N,12224.39472,W,003.83,141.2,220314,016.6,E,D*2B
$IIVHW,,,,,3.25,N,,*1D
$PGRME,2.4,M,2.4,M,3.4,M*29
$P,331
$HCHDG,121.1,0.0,E,,*2A
$P,322
$HCHDG,120.9,0.0,E,,*23
$GPRMC,230025.0,A,4741.34256,N,12224.39448,W,003.88,139.9,220314,016.6,E,D*27
$GPRMB,A,3.57,L,,Lac,4823.3220,N,12229.7720,W,42.2,355,-3.17,V*5C
$PGRME,2.4,M,2.4,M,3.4,M*29
$IIVHW,,,,,3.25,N,,*1D
$P,360
$YXXDR,A,5.7,D,PTCH,A,4.4,D,ROLL*5F
$PTAK,FFD1,4.4*55
$HCHDG,120.9,0.0,E,,*23
$P,339
$HCHDG,121.0,0.0,E,,*2B
$GPRMC,230025.2,A,4741.34235,N,12224.39427,W,003.91,141.7,220314,016.6,E,D*20
$IIVHW,,,,,3.30,N,,*19
$PGRME,2.4,M,2.4,M,3.4,M*29
$IIVLW,06480,N,000.0,N*59
$P,331
$IIVWR,073,L,03.4,N,,,,*7C
$HCHDG,121.0,0.0,E,,*2B
$P,299
$IIGLL,4741.343,N,12224.395,W,230000,A,A*49
$HCHDG,121.0,0.0,E,,*2B
$GPRMC,230025.4,A,4741.34219,N,12224.39410,W,003.92,144.7,220314,016.6,E,D*2A
$IIVHW,,,,,3.27,N,,*1F
$PGRME,2.4,M,2.4,M,3.4,M*29
$IIMWV,287,R,03.4,N,A*19
$P,316
$IIMWV,289,T,03.4,N,A*11
$HCHDG,121.2,0.0,E,,*29
$P,315
$IIRMB,A,3.00,L,,Lac ,,,,,042.2,355,,V,A*2D
$YXXDR,A,5.5,D,PTCH,A,3.8,D,ROLL*56
$GPRMC,230025.6,A,4741.34202,N,12224.39385,W,003.92,144.1,220314,016.6,E,D*2F
$IIVHW,,,,,3.25,N,,*1D
$PGRME,2.4,M,2.4,M,3.4,M*29
$HCHDG,121.2,0.0,E,,*29
$P,330
$HCHDG,121.1,0.0,E,,*2A
$IIRMC,230000,A,4741.343,N,12224.395,W,03.6,140,220314,16,E,A*14
$P,327
$HCHDG,121.2,0.0,E,,*29
$GPRMC,230025.8,A,4741.34185,N,12224.39358,W,003.92,145.1,220314,016.6,E,D*2C
$IIVHW,,,,,3.25,N,,*1D
$PGRME,2.4,M,2.4,M,3.4,M*29
$P,329
$HCHDG,121.1,0.0,E,,*2A
$P,329
$HCHDG,121.0,0.0,E,,*2B
$P,351
$GPRMC,230026.0,A,4741.34168,N,12224.39336,W,003.89,145.9,220314,016.6,E,D*2E
$GPRMB,A,3.57,L,,Lac,4823.3220,N,12229.7720,W,42.2,355,-3.39,V*50
$IIVHW,,,,,3.28,N,,*10
$PTAK,FFP1,HEEL,@*07
$PGRME,2.4,M,2.4,M,3.4,M*29
$YXXDR,A,5.5,D,PTCH,A,3.1,D,ROLL*5F
$P,345
$HCHDG,120.9,0.0,E,,*23
$P,366
$HCHDG,120.7,0.0,E,,*2D
$GPRMC,230026.2,A,4741.34150,N,12224.39315,W,003.85,145.3,220314,016.6,E,D*20
$IIVHW,,,,,3.33,N,,*1A
$PGRME,2.4,M,2.4,M,3.4,M*29
$IIVLW,06480,N,000.0,N*59
$P,346
$IIVWR,076,L,03.4,N,,,,*79
$HCHDG,120.5,0.0,E,,*2F
$P,367
$IIGLL,4741.342,N,12224.394,W,230000,A,A*49
$HCHDG,120.3,0.0,E,,*29
$GPRMC,230026.4,A,4741.34133,N,12224.39291,W,003.84,146.2,220314,016.6,E,D*2D
$PGRME,2.4,M,2.4,M,3.4,M*29
$IIVHW,,,,,3.37,N,,*1E
$IIMWV,284,R,03.4,N,A*1A
$P,350
$IIMWV,287,T,03.4,N,A*1F
$HCHDG,120.2,0.0,E,,*28
$P,362
$IIRMB,A,3.00,L,,Lac ,,,,,042.2,355,,V,A*2D
$YXXDR,A,5.6,D,PTCH,A,3.7,D,ROLL*5A
$PTAK,FFD1,3.7*51
$GPRMC,230026.6,A,4741.34113,N,12224.39268,W,003.79,144.9,220314,016.6,E,D*20
$P,330
$PGRME,2.4,M,2.4,M,3.4,M*29
$IIVHW,,,,,3.44,N,,*1A
$HCHDG,120.0,0.0,E,,*2A
$HCHDG,119.7,0.0,E,,*27
$P,335
$IIRMC,230000,A,4741.342,N,12224.394,W,03.9,141,220314,16,E,A*1A
$P,314
$HCHDG,119.5,0.0,E,,*25
$GPRMC,230026.8,A,4741.34096,N,12224.39254,W,003.76,144.9,220314,016.6,E,D*22
$PGRME,2.4,M,2.4,M,3.4,M*29
$IIVHW,,,,,3.43,N,,*1D
$P,319
$HCHDG,119.2,0.0,E,,*22
$P,301
$HCHDG,119.1,0.0,E,,*21
$GPRMC,230027.0,A,4741.34077,N,12224.39236,W,003.72,144.5,220314,016.6,E,D*28
$PGRME,2.4,M,2.4,M,3.4,M*29
$IIVHW,,,,,3.37,N,,*1E
$YXXDR,A,5.5,D,PTCH,A,3.8,D,ROLL*56
$P,322
$HCHDG,118.8,0.0,E,,*29
$P,312
$HCHDG,118.6,0.0,E,,*27
$GPRMC,230027.2,A,4741.34056,N,12224.39219,W,003.68,144.5,220314,016.6,E,D*2F
$GPRMB,A,3.57,L,,Lac,4823.3220,N,12229.7720,W,42.2,355,-3.17,V*5C
$PGRME,2.4,M,2.4,M,3.4,M*29
$IIVHW,,,,,3.31,N,,*18
$IIVLW,06480,N,000.0,N*59
$IIVWR,077,L,03.5,N,,,,*79
$P,320
$HCHDG,118.4,0.0,E,,*25
$IIGLL,4741.341,N,12224.393,W,230000,A,A*4D
$P,313
$HCHDG,118.1,0.0,E,,*20
$GPRMC,230027.4,A,4741.34039,N,12224.39201,W,003.66,145.2,220314,016.6,E,D*21
$PGRME,2.4,M,2.4,M,3.4,M*29
$IIVHW,,,,,3.25,N,,*1D
$IIMWV,283,R,03.5,N,A*1C
$P,324
$IIMWV,284,T,03.4,N,A*1C
$HCHDG,117.7,0.0,E,,*29
$P,332
$IIRMB,A,3.00,L,,Lac ,,,,,042.2,355,,V,A*2D
$YXXDR,A,5.6,D,PTCH,A,3.9,D,ROLL*54
$GPRMC,230027.6,A,4741.34019,N,12224.39183,W,003.62,143.8,220314,016.6,E,D*20
$IIVHW,,,,,3.24,N,,*1C
$PGRME,2.4,M,2.4,M,3.4,M*29
$HCHDG,117.5,0.0,E,,*2B
$P,333
$HCHDG,117.2,0.0,E,,*2C
$IIRMC,230000,A,4741.341,N,12224.393,W,03.8,145,220314,16,E,A*1B
$P,305
$HCHDG,116.7,0.0,E,,*28
$GPRMC,230027.8,A,4741.34005,N,12224.39162,W,003.57,143.3,220314,016.6,E,D*21
$IIVHW,,,,,3.19,N,,*12
$PGRME,2.4,M,2.4,M,3.4,M*29
$P,317
$HCHDG,116.3,0.0,E,,*2C
$P,306
$HCHDG,116.0,0.0,E,,*2F
$GPRMC,230028.0,A,4741.33988,N,12224.39142,W,003.58,146.1,220314,016.6,E,D*27
$IIVHW,,,,,3.17,N,,*1C
$PGRME,2.4,M,2.4,M,3.4,M*29
$P,319
$YXXDR,A,5.5,D,PTCH,A,5.0,D,ROLL*58
$PTAK,FFD1,5.0*50
$HCHDG,115.5,0.0,E,,*29
$P,311
$HCHDG,115.1,0.0,E,,*2D
$GPRMC,230028.2,A,4741.33973,N,12224.39121,W,003.58,142.3,220314,016.6,E,D*22
$GPRMB,A,3.58,L,,Lac,4823.3220,N,12229.7720,W,42.2,355,-3.01,V*54
$IIVHW,,,,,3.17,N,,*1C
$PGRME,2.4,M,2.4,M,3.4,M*29
$IIVLW,06480,N,000.0,N*59
$P,327
$IIVWR,075,L,03.5,N,,,,*7B
$HCHDG,114.8,0.0,E,,*25
$P,309
$IIGLL,4741.340,N,12224.392,W,230000,A,A*4D
$HCHDG,114.4,0.0,E,,*29
$GPRMC,230028.4,A,4741.33958,N,12224.39114,W,003.60,144.2,220314,016.6,E,D*27
$IIVHW,,,,,3.17,N,,*1C
$PGRME,2.4,M,2.4,M,3.4,M*29
$IIMWV,285,R,03.5,N,A*1A
$P,307
$IIMWV,283,T,03.5,N,A*1A
$HCHDG,114.1,0.0,E,,*2C
$P,310
$IIRMB,A,3.00,L,,Lac ,,,,,042.2,355,,V,A*2D
$YXXDR,A,5.7,D,PTCH,A,5.7,D,ROLL*5D
$GPRMC,230028.6,A,4741.33942,N,12224.39099,W,003.61,141.8,220314,016.6,E,D*24
$PGRME,2.4,M,2.4,M,3.4,M*29
$IIVHW,,,,,3.15,N,,*1E
$HCHDG,113.7,0.0,E,,*2D
$P,326
$HCHDG,113.4,0.0,E,,*2E
$IIRMC,230000,A,4741.340,N,12224.392,W,03.6,145,220314,16,E,A*15
$P,317
$HCHDG,112.6,0.0,E,,*2D
$GPRMC,230028.8,A,4741.33924,N,12224.39085,W,003.64,143.1,220314,016.6,E,D*29
$IIVHW,,,,,3.15,N,,*1E
$PGRME,2.4,M,2.4,M,3.4,M*29
$P,313
$HCHDG,112.3,0.0,E,,*28
$P,307
$HCHDG,111.9,0.0,E,,*21
$GPRMC,230029.0,A,4741.33903,N,12224.39072,W,003.66,142.0,220314,016.6,E,D*2F
$IIVHW,,,,,3.13,N,,*18
$PGRME,2.4,M,2.4,M,3.4,M*29
$P,312
$YXXDR,A,5.8,D,PTCH,A,6.5,D,ROLL*53
$PTAK,FFD1,6.5*56
$HCHDG,111.5,0.0,E,,*2D
$P,298
$HCHDG,111.1,0.0,E,,*29
$GPRMC,230029.2,A,4741.33885,N,12224.39059,W,003.67,139.7,220314,016.6,E,D*21
$IIVHW,,,,,3.11,N,,*1A
$PGRME,2.4,M,2.4,M,3.4,M*29
$IIVLW,06480,N,000.0,N*59
$P,312
$IIVWR,074,L,03.3,N,,,,*7C
$HCHDG,110.8,0.0,E,,*21
$P,296
$IIGLL,4741.339,N,12224.391,W,230000,A,A*40
$HCHDG,110.3,0.0,E,,*2A
$GPRMC,230029.4,A,4741.33871,N,12224.39044,W,003.68,141.1,220314,016.6,E,D*26
$GPRMB,A,3.58,L,,Lac,4823.3220,N,12229.7720,W,42.2,355,-3.05,V*50
$IIVHW,,,,,3.09,N,,*13
$PGRME,2.4,M,2.4,M,3.4,M*29
$IIMWV,286,R,03.3,N,A*1F
$P,299
$IIMWV,285,T,03.5,N,A*1C
$HCHDG,110.0,0.0,E,,*29
$P,284
$IIRMB,A,3.00,L,,Lac ,,,,,042.2,355,,V,A*2D
$YXXDR,A,5.6,D,PTCH,A,7.4,D,ROLL*5D
$GPRMC,230029.6,A,4741.33855,N,12224.39024,W,003.67,138.8,220314,016.6,E,D*2C
$IIVHW,,,,,3.05,N,,*1F
$PGRME,2.4,M,2.4,M,3.4,M*29
$HCHDG,109.8,0.0,E,,*29
$P,294
$HCHDG,109.5,0.0,E,,*24
$IIRMC,230000,A,4741.339,N,12224.391,W,03.6,144,220314,16,E,A*19
$P,290
$HCHDG,109.0,0.0,E,,*21
$GPRMC,230029.8,A,4741.33844,N,12224.39007,W,003.62,138.2,220314,016.6,E,D*2C
$IIVHW,,,,,3.00,N,,*1A
$PGRME,2.4,M,2.4,M,3.4,M*29
$P,301
$HCHDG,108.8,0.0,E,,*28
$P,290
$HCHDG,108.4,0.0,E,,*24
$GPRMC,230030.0,A,4741.33831,N,12224.38991,W,003.59,136.2,220314,016.6,E,D*2F
$IIVHW,,,,,2.97,N,,*15
$PGRME,2.4,M,2.4,M,3.4,M*29
$P,293
$YXXDR,A,5.8,D,PTCH,A,7.6,D,ROLL*51
$PTAK,FFD1,7.6*54
$HCHDG,108.0,0.0,E,,*20
$P,280
$HCHDG,107.5,0.0,E,,*2A
$GPRMC,230030.2,A,4741.33819,N,12224.38977,W,003.59,135.9,220314,016.6,E,D*27
$PTAK,FFP1,HEEL,@*07
$IIVHW,,,,,2.93,N,,*11
$PGRME,2.4,M,2.4,M,3.4,M*29
$IIVLW,06480,N,000.0,N*59
$IIVWR,073,L,03.2,N,,,,*7A
$P,290
$HCHDG,107.2,0.0,E,,*2D
$IIGLL,4741.338,N,12224.390,W,230000,A,A*40
$P,272
$HCHDG,106.8,0.0,E,,*26
$GPRMC,230030.4,A,4741.33810,N,12224.38962,W,003.59,135.8,220314,016.6,E,D*2D
$GPRMB,A,3.58,L,,Lac,4823.3220,N,12229.7720,W,42.2,355,-2.78,V*5B
$IIVHW,,,,,2.88,N,,*1B
$PGRME,2.4,M,2.4,M,3.4,M*29
$IIMWV,287,R,03.2,N,A*1F
$IIMWV,286,T,03.3,N,A*19
$P,302
$HCHDG,106.4,0.0,E,,*2A
$IIRMB,A,3.00,L,,Lac ,,,,,042.2,355,,V,A*2D
$YXXDR,A,5.4,D,PTCH,A,8.5,D,ROLL*51
$P,291
$GPRMC,230030.6,A,4741.33796,N,12224.38945,W,003.56,134.0,220314,016.6,E,D*2D
$IIVHW,,,,,2.89,N,,*1A
$PGRME,2.4,M,2.4,M,3.4,M*29
$HCHDG,106.2,0.0,E,,*2C
$HCHDG,105.7,0.0,E,,*2A
$P,296
$IIRMC,230000,A,4741.338,N,12224.390,W,03.6,141,220314,16,E,A*1C
$HCHDG,105.3,0.0,E,,*2E
$GPRMC,230030.8,A,4741.33780,N,12224.38928,W,003.57,135.2,220314,016.6,E,D*2D
$P,302
$IIVHW,,,,,2.91,N,,*13
$PGRME,2.4,M,2.4,M,3.4,M*29
$HCHDG,105.1,0.0,E,,*2C
$P,309
$HCHDG,104.5,0.0,E,,*29
$GPRMC,230031.0,A,4741.33766,N,12224.38913,W,003.55,131.4,220314,016.6,E,D*24
$IIVHW,,,,,2.93,N,,*11
$PGRME,2.4,M,2.4,M,3.4,M*29
$P,281
$YXXDR,A,5.9,D,PTCH,A,7.8,D,ROLL*5E
$P,292
$HCHDG,104.2,0.0,E,,*2E
$HCHDG,103.9,0.0,E,,*22
$GPRMC,230031.2,A,4741.33749,N,12224.38894,W,003.55,131.0,220314,016.6,E,D*21
$IIVHW,,,,,2.92,N,,*10
$PGRME,2.4,M,2.4,M,3.4,M*29
$IIVLW,06480,N,000.0,N*59
$P,284
$IIVWR,071,L,03.3,N,,,,*79
$HCHDG,103.4,0.0,E,,*2F
$P,288
$IIGLL,4741.338,N,12224.389,W,230000,A,A*48
$HCHDG,103.1,0.0,E,,*2A
$GPRMC,230031.4,A,4741.33730,N,12224.38885,W,003.55,130.5,220314,016.6,E,D*2D
$IIVHW,,,,,2.91,N,,*13
$PGRME,2.4,M,2.4,M,3.4,M*29
$IIMWV,289,R,03.3,N,A*10
$P,291
$IIMWV,287,T,03.2,N,A*19
$HCHDG,102.7,0.0,E,,*2D
$P,320
$IIRMB,A,3.00,L,,Lac ,,,,,042.2,355,,V,A*2D
$YXXDR,A,5.8,D,PTCH,A,7.5,D,ROLL*52
$PTAK,FFD1,7.5*57
$GPRMC,230031.6,A,4741.33717,N,12224.38872,W,003.56,129.5,220314,016.6,E,D*29
$GPRMB,A,3.58,L,,Lac,4823.3220,N,12229.7720,W,42.2,355,-2.49,V*59
$IIVHW,,,,,2.94,N,,*16
$PGRME,2.4,M,2.4,M,3.4,M*29
$HCHDG,102.4,0.0,E,,*2E
$P,311
$HCHDG,102.1,0.0,E,,*2B
$IIRMC,230000,A,4741.338,N,12224.389,W,03.5,135,220314,16,E,A*14
$P,319
$HCHDG,101.9,0.0,E,,*20
$GPRMC,230031.8,A,4741.33704,N,12224.38847,W,003.58,129.7,220314,016.6,E,D*2F
$IIVHW,,,,,2.99,N,,*1B
$PGRME,2.4,M,2.4,M,3.4,M*29
$P,306
$HCHDG,101.5,0.0,E,,*2C
$P,320
$HCHDG,101.3,0.0,E,,*2A
$GPRMC,230032.0,A,4741.33692,N,12224.38829,W,003.57,127.5,220314,016.6,E,D*21
$IIVHW,,,,,3.03,N,,*19
$PGRME,2.4,M,2.4,M,3.4,M*29
$P,299
$YXXDR,A,5.8,D,PTCH,A,6.5,D,ROLL*53
$HCHDG,100.8,0.0,E,,*20
$P,300
$HCHDG,100.6,0.0,E,,*2E
$GPRMC,230032.2,A,4741.33681,N,12224.38814,W,003.56,126.6,220314,016.6,E,D*2C
$IIVHW,,,,,3.02,N,,*18
$PGRME,2.4,M,2.4,M,3.4,M*29
$IIVLW,06480,N,000.0,N*59
$P,306
$IIVWR,070,L,03.6,N,,,,*7D
$HCHDG,100.4,0.0,E,,*2C
$P,303
$IIGLL,4741.337,N,12224.388,W,230000,A,A*46
$HCHDG,100.0,0.0,E,,*28
$GPRMC,230032.4,A,4741.33669,N,12224.38794,W,003.54,127.1,220314,016.6,E,D*2F
$IIVHW,,,,,3.04,N,,*1E
$PGRME,2.4,M,2.4,M,3.4,M*29
$IIMWV,290,R,03.6,N,A*1D
$P,281
$IIMWV,289,T,03.3,N,A*16
$HCHDG,99.8,0.0,E,,*11
$P,297
$IIRMB,A,3.00,L,,Lac ,,,,,042.2,355,,V,A*2D
$YXXDR,A,5.8,D,PTCH,A,6.3,D,ROLL*55
$PTAK,FFD1,6.3*50
$GPRMC,230032.6,A,4741.33658,N,12224.38772,W,003.53,124.6,220314,016.6,E,D*24
$GPRMB,A,3.58,L,,Lac,4823.3220,N,12229.7720,W,42.2,355,-2.24,V*52
$IIVHW,,,,,3.04,N,,*1E
$PGRME,2.4,M,2.4,M,3.4,M*29
$HCHDG,99.5,0.0,E,,*1C
$P,279
$HCHDG,99.2,0.0,E,,*1B
$IIRMC,230000,A,4741.337,N,12224.388,W,03.5,130,220314,16,E,A*1F
$P,293
$HCHDG,99.0,0.0,E,,*19
$GPRMC,230032.8,A,4741.33650,N,12224.38747,W,003.52,126.1,220314,016.6,E,D*20
$IIVHW,,,,,2.98,N,,*1A
$PGRME,2.4,M,2.4,M,3.4,M*29
$P,288
$HCHDG,98.7,0.0,E,,*1F
$P,308
$HCHDG,98.5,0.0,E,,*1D
$GPRMC,230033.0,A,4741.33641,N,12224.38729,W,003.51,124.1,220314,016.6,E,D*20
$IIVHW,,,,,2.97,N,,*15
$PGRME,2.4,M,2.4,M,3.4,M*29
$P,299
$YXXDR,A,5.7,D,PTCH,A,5.5,D,ROLL*5F
$HCHDG,98.2,0.0,E,,*1A
$P,291
$HCHDG,98.0,0.0,E,,*18
$GPRMC,230033.2,A,4741.33632,N,12224.38715,W,003.49,124.8,220314,016.6,E,D*29
$IIVHW,,,,,2.94,N,,*16
$PGRME,2.4,M,2.4,M,3.5,M*28
$IIVLW,06480,N,000.0,N*59
$IIVWR,069,L,03.8,N,,,,*7B
$P,282
$HCHDG,97.8,0.0,E,,*1F
$IIGLL,4741.336,N,12224.387,W,230000,A,A*48
$P,290
$HCHDG,97.6,0.0,E,,*11
$GPRMC,230033.4,A,4741.33624,N,12224.38692,W,003.47,124.5,220314,016.6,E,D*25
$PGRME,2.4,M,2.4,M,3.5,M*28
$IIVHW,,,,,2.91,N,,*13
$IIMWV,291,R,03.8,N,A*12
$IIMWV,290,T,03.6,N,A*1B
$P,288
$HCHDG,97.3,0.0,E,,*14
$IIRMB,A,3.00,L,,Lac ,,,,,042.2,355,,V,A*2D
$YXXDR,A,5.8,D,PTCH,A,5.3,D,ROLL*56
$P,302
$GPRMC,230033.6,A,4741.33615,N,12224.38663,W,003.46,122.8,220314,016.6,E,D*21
$GPRMB,A,3.58,L,,Lac,4823.3220,N,12229.7720,W,42.2,355,-2.11,V*54
$IIVHW,,,,,2.91,N,,*13
$PGRME,2.4,M,2.5,M,3.5,M*29
$HCHDG,97.2,0.0,E,,*15
$HCHDG,97.0,0.0,E,,*17
$P,287
$IIRMC,230000,A,4741.336,N,12224.387,W,03.5,127,220314,16,E,A*17
$HCHDG,96.8,0.0,E,,*1E
$P,289
$GPRMC,230033.8,A,4741.33607,N,12224.38634,W,003.42,120.6,220314,016.6,E,D*26
$IIVHW,,,,,2.92,N,,*10
$PGRME,2.4,M,2.5,M,3.5,M*29
$HCHDG,96.5,0.0,E,,*13
$P,280
$HCHDG,96.5,0.0,E,,*13
$GPRMC,230034.0,A,4741.33598,N,12224.38613,W,003.37,120.8,220314,016.6,E,D*25
$P,316
$IIVHW,,,,,2.93,N,,*11
$PGRME,2.4,M,2.5,M,3.5,M*29
$YXXDR,A,5.5,D,PTCH,A,5.7,D,ROLL*5F
$PTAK,FFD1,5.7*57
$P,317
$HCHDG,96.2,0.0,E,,*14
$HCHDG,96.0,0.0,E,,*16
$P,328
$GPRMC,230034.2,A,4741.33586,N,12224.38584,W,003.34,120.0,220314,016.6,E,D*2E
$PTAK,FFP1,HEEL,@*07
$IIVHW,,,,,2.99,N,,*1B
$PGRME,2.4,M,2.5,M,3.5,M*29
$IIVLW,06480,N,000.0,N*59
$IIVWR,067,L,04.0,N,,,,*7A
$HCHDG,95.8,0.0,E,,*1D
$P,298
$IIGLL,4741.336,N,12224.387,W,230000,A,A*48
$HCHDG,95.5,0.0,E,,*10
$P,303
$GPRMC,230034.4,A,4741.33577,N,12224.38561,W,003.33,120.6,220314,016.6,E,D*2C
$IIVHW,,,,,2.99,N,,*1B
$PGRME,2.4,M,2.5,M,3.5,M*29
$IIMWV,293,R,04.0,N,A*1F
$IIMWV,291,T,03.8,N,A*14
$HCHDG,95.0,0.0,E,,*15
$P,280
$IIRMB,A,3.00,L,,Lac ,,,,,042.2,355,,V,A*2D
$YXXDR,A,5.6,D,PTCH,A,5.3,D,ROLL*58
$GPRMC,230034.6,A,4741.33568,N,12224.38544,W,003.33,120.1,220314,016.6,E,D*20
$PGRME,2.4,M,2.5,M,3.5,M*29
$IIVHW,,,,,2.99,N,,*1B
$P,291
$HCHDG,94.8,0.0,E,,*1C
$HCHDG,94.4,0.0,E,,*10
$IIRMC,230000,A,4741.336,N,12224.387,W,03.5,127,220314,16,E,A*17
$P,294
$HCHDG,94.2,0.0,E,,*16
$GPRMC,230034.8,A,4741.33558,N,12224.38525,W,003.34,118.8,220314,016.6,E,D*2F
$GPRMB,A,3.58,L,,Lac,4823.3220,N,12229.7720,W,42.2,355,-1.85,V*5A
$PGRME,2.4,M,2.5,M,3.5,M*29
$IIVHW,,,,,2.98,N,,*1A
$P,306
$HCHDG,93.9,0.0,E,,*1A
$P,282
$HCHDG,93.8,0.0,E,,*1B
$GPRMC,230035.0,A,4741.33552,N,12224.38494,W,003.35,118.4,220314,016.6,E,D*2A
$IIVHW,,,,,2.98,N,,*1A
$PGRME,2.4,M,2.5,M,3.5,M*29
$P,293
$YXXDR,A,5.6,D,PTCH,A,5.6,D,ROLL*5D
$PTAK,FFD1,5.6*56
$HCHDG,93.5,0.0,E,,*16
$P,287
$HCHDG,93.3,0.0,E,,*10
$GPRMC,230035.2,A,4741.33548,N,12224.38468,W,003.36,117.2,220314,016.6,E,D*2A
$IIVHW,,,,,2.96,N,,*14
$PGRME,2.4,M,2.5,M,3.5,M*29
$IIVLW,06480,N,000.0,N*59
$P,296
$IIVWR,063,L,04.2,N,,,,*7C
$HCHDG,92.9,0.0,E,,*1B
$P,289
$IIGLL,4741.335,N,12224.385,W,230000,A,A*49
$HCHDG,92.6,0.0,E,,*14
$GPRMC,230035.4,A,4741.33543,N,12224.38452,W,003.38,117.2,220314,016.6,E,D*20
$IIVHW,,,,,2.92,N,,*10
$PGRME,2.4,M,2.5,M,3.5,M*29
$IIMWV,297,R,04.2,N,A*19
$P,280
$IIMWV,293,T,04.0,N,A*19
$HCHDG,92.5,0.0,E,,*17
$IIRMB,A,3.00,L,,Lac ,,,,,042.2,355,,V,A*2D
$YXXDR,A,5.6,D,PTCH,A,5.6,D,ROLL*5D
$P,250
$GPRMC,230035.6,A,4741.33538,N,12224.38439,W,003.41,117.9,220314,016.6,E,D*26
$IIVHW,,,,,2.85,N,,*16
$PGRME,2.4,M,2.5,M,3.5,M*29
$HCHDG,92.1,0.0,E,,*13
$HCHDG,91.9,0.0,E,,*18
$IIRMC,230000,A,4741.335,N,12224.385,W,03.3,120,220314,16,E,A*17
$P,246
$HCHDG,91.6,0.0,E,,*17
$GPRMC,230035.8,A,4741.33533,N,12224.38414,W,003.44,117.5,220314,016.6,E,D*25
$GPRMB,A,3.58,L,,Lac,4823.3220,N,12229.7720,W,42.2,355,-1.84,V*5B
$IIVHW,,,,,2.78,N,,*14
$PGRME,2.4,M,2.5,M,3.5,M*29
$P,242
$HCHDG,91.4,0.0,E,,*15
$P,271
$HCHDG,91.1,0.0,E,,*10
$GPRMC,230036.0,A,4741.33525,N,12224.38388,W,003.44,119.5,220314,016.6,E,D*25
$IIVHW,,,,,2.70,N,,*1C
$PGRME,2.4,M,2.5,M,3.5,M*29
$P,269
$YXXDR,A,5.4,D,PTCH,A,5.2,D,ROLL*5B
$PTAK,FFD1,5.2*52
$HCHDG,91.2,0.0,E,,*13
$P,291
$HCHDG,91.1,0.0,E,,*10
$GPRMC,230036.2,A,4741.33516,N,12224.38365,W,003.47,115.5,220314,016.6,E,D*2B
$IIVHW,,,,,2.72,N,,*1E
$PGRME,2.4,M,2.5,M,3.5,M*29
$IIVLW,06480,N,000.0,N*59
$IIVWR,062,L,04.3,N,,,,*7C
$P,272
$HCHDG,90.6,0.0,E,,*16
$IIGLL,4741.335,N,12224.384,W,230000,A,A*48
$P,276
$HCHDG,90.5,0.0,E,,*15
$GPRMC,230036.4,A,4741.33508,N,12224.38344,W,003.46,114.8,220314,016.6,E,D*2C
$IIVHW,,,,,2.70,N,,*1C
$PGRME,2.4,M,2.5,M,3.5,M*29
$IIMWV,298,R,04.3,N,A*17
$IIMWV,297,T,04.2,N,A*1F
$HCHDG,90.3,0.0,E,,*13
$P,255
$IIRMB,A,3.00,L,,Lac ,,,,,042.2,355,,V,A*2D
$YXXDR,A,5.7,D,PTCH,A,5.5,D,ROLL*5F
$GPRMC,230036.6,A,4741.33502,N,12224.38316,W,003.47,113.7,220314,016.6,E,D*2A
$PGRME,2.4,M,2.5,M,3.5,M*29
$IIVHW,,,,,2.65,N,,*18
$HCHDG,90.0,0.0,E,,*10
$P,268
$HCHDG,89.9,0.0,E,,*11
$IIRMC,230000,A,4741.335,N,12224.384,W,03.3,117,220314,16,E,A*12
$P,262
$HCHDG,89.7,0.0,E,,*1F
$GPRMC,230036.8,A,4741.33493,N,12224.38291,W,003.44,115.2,220314,016.6,E,D*23
$GPRMB,A,3.58,L,,Lac,4823.3220,N,12229.7720,W,42.2,355,-1.72,V*52
$IIVHW,,,,,2.66,N,,*1B
$PGRME,2.4,M,2.5,M,3.5,M*29
$P,267
$HCHDG,89.6,0.0,E,,*1E
$P,245
$HCHDG,89.6,0.0,E,,*1E
$GPRMC,230037.0,A,4741.33485,N,12224.38263,W,003.43,112.9,220314,016.6,E,D*2B
$IIVHW,,,,,2.65,N,,*18
$PGRME,2.4,M,2.5,M,3.5,M*29
$YXXDR,A,5.7,D,PTCH,A,5.7,D,ROLL*5D
$P,257
$HCHDG,89.4,0.0,E,,*1C
$HCHDG,89.4,0.0,E,,*1C
$GPRMC,230037.2,A,4741.33476,N,12224.38229,W,003.41,111.6,220314,016.6,E,D*25
$IIVHW,,,,,2.64,N,,*19
$PGRME,2.4,M,2.5,M,3.5,M*29
$IIVLW,06480,N,000.0,N*59
$P,250
$IIVWR,062,L,04.3,N,,,,*7C
$HCHDG,89.3,0.0,E,,*1B
$P,261
$IIGLL,4741.335,N,12224.383,W,230000,A,A*4F
$HCHDG,89.2,0.0,E,,*1A
$GPRMC,230037.4,A,4741.33469,N,12224.38202,W,003.39,110.3,220314,016.6,E,D*2F
$IIVHW,,,,,2.60,N,,*1D
$PGRME,2.4,M,2.5,M,3.5,M*29
$IIMWV,298,R,04.3,N,A*17
$P,249
$IIMWV,298,T,04.3,N,A*11
$HCHDG,89.1,0.0,E,,*19
$IIRMB,A,3.00,L,,Lac ,,,,,042.2,355,,V,A*2D
$YXXDR,A,5.6,D,PTCH,A,6.2,D,ROLL*5A
$PTAK,FFD1,6.2*51
$P,269
$GPRMC,230037.6,A,4741.33464,N,12224.38177,W,003.36,110.8,220314,016.6,E,D*25
$IIVHW,,,,,2.58,N,,*16
$PGRME,2.4,M,2.5,M,3.5,M*29
$HCHDG,89.1,0.0,E,,*19
$HCHDG,89.0,0.0,E,,*18
$P,252
$IIRMC,230000,A,4741.335,N,12224.383,W,03.4,114,220314,16,E,A*11
$HCHDG,88.9,0.0,E,,*10
$GPRMC,230037.8,A,4741.33462,N,12224.38151,W,003.38,111.2,220314,016.6,E,D*2C
$P,270
$IIVHW,,,,,2.58,N,,*16
$PGRME,2.4,M,2.5,M,3.5,M*29
$HCHDG,88.9,0.0,E,,*10
$P,282
$HCHDG,88.7,0.0,E,,*1E
$GPRMC,230038.0,A,4741.33457,N,12224.38129,W,003.37,109.8,220314,016.6,E,D*2E
$GPRMB,A,3.58,L,,Lac,4823.3220,N,12229.7720,W,42.2,355,-1.41,V*52
$IIVHW,,,,,2.61,N,,*1C
$PGRME,2.4,M,2.5,M,3.5,M*29
$P,303
$YXXDR,A,5.6,D,PTCH,A,5.6,D,ROLL*5D
$HCHDG,88.7,0.0,E,,*1E
$PTAK,FFP1,HEEL,@*07
$P,292
$HCHDG,88.6,0.0,E,,*1F
$GPRMC,230038.2,A,4741.33451,N,12224.38103,W,003.37,109.6,220314,016.6,E,D*2C
$IIVHW,,,,,2.69,N,,*14
$PGRME,2.4,M,2.5,M,3.5,M*29
$IIVLW,06480,N,000.0,N*59
$P,301
$IIVWR,061,L,04.4,N,,,,*78
$HCHDG,88.6,0.0,E,,*1F
$P,277
$IIGLL,4741.334,N,12224.382,W,230000,A,A*4F
$HCHDG,88.8,0.0,E,,*11
$GPRMC,230038.4,A,4741.33445,N,12224.38075,W,003.33,108.2,220314,016.6,E,D*2E
$IIVHW,,,,,2.76,N,,*1A
$PGRME,2.4,M,2.5,M,3.5,M*29
$IIMWV,299,R,04.4,N,A*11
$P,283
$IIMWV,298,T,04.3,N,A*11
$HCHDG,88.7,0.0,E,,*1E
$P,288
$IIRMB,A,3.00,L,,Lac ,,,,,042.2,355,,V,A*2D
$YXXDR,A,5.5,D,PTCH,A,5.7,D,ROLL*5F
$GPRMC,230038.6,A,4741.33438,N,12224.38050,W,003.30,107.5,220314,016.6,E,D*2A
$IIVHW,,,,,2.80,N,,*13
$PGRME,2.4,M,2.5,M,3.5,M*29
$HCHDG,88.6,0.0,E,,*1F
$P,291
$HCHDG,88.6,0.0,E,,*1F
$IIRMC,230000,A,4741.334,N,12224.382,W,03.3,110,220314,16,E,A*12
$P,280
$HCHDG,88.6,0.0,E,,*1F
$GPRMC,230038.8,A,4741.33434,N,12224.38023,W,003.28,105.8,220314,016.6,E,D*2A
$IIVHW,,,,,2.84,N,,*17
$PGRME,2.4,M,2.5,M,3.5,M*29
$P,314
$HCHDG,88.4,0.0,E,,*1D
$P,290
$HCHDG,88.4,0.0,E,,*1D
$GPRMC,230039.0,A,4741.33429,N,12224.37993,W,003.27,108.5,220314,016.6,E,D*2D
$IIVHW,,,,,2.91,N,,*13
$PGRME,2.4,M,2.5,M,3.5,M*29
$YXXDR,A,5.6,D,PTCH,A,5.1,D,ROLL*5A
$PTAK,FFD1,5.1*51
$P,290
$HCHDG,88.1,0.0,E,,*18
$P,281
$HCHDG,87.9,0.0,E,,*1F
$GPRMC,230039.2,A,4741.33426,N,12224.37970,W,003.28,109.1,220314,016.6,E,D*27
$PGRME,2.4,M,2.5,M,3.5,M*29
$IIVHW,,,,,2.89,N,,*1A
$IIVLW,06480,N,000.0,N*59
$IIVWR,060,L,04.5,N,,,,*78
$P,291
$HCHDG,87.8,0.0,E,,*1E
$IIGLL,4741.334,N,12224.380,W,230000,A,A*4D
$HCHDG,87.7,0.0,E,,*11
$P,281
$GPRMC,230039.4,A,4741.33423,N,12224.37950,W,003.29,106.4,220314,016.6,E,D*2D
$IIVHW,,,,,2.88,N,,*1B
$PGRME,2.4,M,2.5,M,3.5,M*29
$IIMWV,300,R,04.5,N,A*11
$IIMWV,299,T,04.4,N,A*17
$HCHDG,87.6,0.0,E,,*10
$P,293
$IIRMB,A,3.00,L,,Lac ,,,,,042.2,355,,V,A*2D
$YXXDR,A,5.8,D,PTCH,A,4.8,D,ROLL*5C
$GPRMC,230039.6,A,4741.33420,N,12224.37924,W,003.30,108.7,220314,016.6,E,D*2A
$GPRMB,A,3.58,L,,Lac,4823.3220,N,12229.7720,W,42.2,355,-1.32,V*56
$PGRME,2.4,M,2.5,M,3.5,M*29
$IIVHW,,,,,2.89,N,,*1A
$P,279
$HCHDG,87.5,0.0,E,,*13
$HCHDG,87.4,0.0,E,,*12
$IIRMC,230000,A,4741.334,N,12224.380,W,03.3,108,220314,16,E,A*19
$P,303
$GPRMC,230039.8,A,4741.33417,N,12224.37898,W,003.27,109.3,220314,016.6,E,D*25
$HCHDG,87.3,0.0,E,,*15
$IIVHW,,,,,2.90,N,,*12
$PGRME,2.4,M,2.5,M,3.5,M*29
$P,298
$HCHDG,87.2,0.0,E,,*14
$P,308
$HCHDG,86.9,0.0,E,,*1E
$GPRMC,230040.0,A,4741.33414,N,12224.37867,W,003.29,108.0,220314,016.6,E,D*2C
$IIVHW,,,,,2.92,N,,*10
$PGRME,2.4,M,2.6,M,3.5,M*2A
$P,288
$YXXDR,A,5.6,D,PTCH,A,4.0,D,ROLL*5A
$PTAK,FFD1,4.0*51
$HCHDG,86.9,0.0,E,,*1E
$P,286
$HCHDG,86.7,0.0,E,,*10
$GPRMC,230040.2,A,4741.33412,N,12224.37839,W,003.32,108.5,220314,016.6,E,D*2C
$IIVHW,,,,,2.91,N,,*13
$PGRME,2.4,M,2.6,M,3.5,M*2A
$IIVLW,06480,N,000.0,N*59
$P,272
$IIVWR,059,L,04.5,N,,,,*72
$HCHDG,86.6,0.0,E,,*11
$P,299
$IIGLL,4741.334,N,12224.379,W,230000,A,A*4B
$GPRMC,230040.4,A,4741.33409,N,12224.37808,W,003.33,107.7,220314,016.6,E,D*2E
$IIVHW,,,,,2.90,N,,*12
$HCHDG,86.5,0.0,E,,*12
$PGRME,2.4,M,2.6,M,3.5,M*2A
$IIMWV,301,R,04.5,N,A*10
$P,277
$IIMWV,300,T,04.5,N,A*17
$HCHDG,86.3,0.0,E,,*14
$P,292
$IIRMB,A,3.00,L,,Lac ,,,,,042.2,355,,V,A*2D
$YXXDR,A,5.3,D,PTCH,A,3.8,D,ROLL*50
$GPRMC,230040.6,A,4741.33405,N,12224.37778,W,003.34,108.4,220314,016.6,E,D*23
$GPRMB,A,3.58,L,,Lac,4823.3220,N,12229.7720,W,42.2,355,-1.32,V*56
$PGRME,2.4,M,2.6,M,3.5,M*2A
$IIVHW,,,,,2.89,N,,*1A
$HCHDG,86.1,0.0,E,,*16
$P,280
$HCHDG,86.1,0.0,E,,*16
$IIRMC,230000,A,4741.334,N,12224.379,W,03.2,106,220314,16,E,A*10
$P,298
$HCHDG,86.0,0.0,E,,*17
$GPRMC,230040.8,A,4741.33400,N,12224.37753,W,003.35,107.2,220314,016.6,E,D*29
$IIVHW,,,,,2.90,N,,*12
$PGRME,2.4,M,2.6,M,3.5,M*2A
$P,276
$HCHDG,85.8,0.0,E,,*1C
$P,281
$HCHDG,85.4,0.0,E,,*10
$GPRMC,230041.0,A,4741.33396,N,12224.37728,W,003.36,107.1,220314,016.6,E,D*24
$IIVHW,,,,,2.86,N,,*15
$PGRME,2.4,M,2.6,M,3.5,M*2A
$YXXDR,A,5.5,D,PTCH,A,4.0,D,ROLL*59
$PTAK,FFD1,4.0*51
$P,267
$HCHDG,85.4,0.0,E,,*10
$HCHDG,85.2,0.0,E,,*16
$GPRMC,230041.2,A,4741.33391,N,12224.37700,W,003.34,107.2,220314,016.6,E,D*2A
$IIVHW,,,,,2.82,N,,*11
$PGRME,2.4,M,2.6,M,3.5,M*2A
$IIVLW,06480,N,000.0,N*59
$P,275
$IIVWR,057,L,04.8,N,,,,*71
$HCHDG,85.2,0.0,E,,*16
$P,270
$IIGLL,4741.334,N,12224.378,W,230000,A,A*4A
$HCHDG,85.1,0.0,E,,*15
$GPRMC,230041.4,A,4741.33386,N,12224.37668,W,003.34,104.6,220314,016.6,E,D*22
$IIVHW,,,,,2.80,N,,*13
$PGRME,2.4,M,2.6,M,3.5,M*2A
$IIMWV,303,R,04.8,N,A*1F
$P,291
$IIMWV,301,T,04.5,N,A*16
$HCHDG,85.0,0.0,E,,*14
$P,288
$IIRMB,A,3.00,L,,Lac ,,,,,042.2,355,,V,A*2D
$YXXDR,A,5.4,D,PTCH,A,4.0,D,ROLL*58
$GPRMC,230041.6,A,4741.33377,N,12224.37641,W,003.33,104.6,220314,016.6,E,D*22
$IIVHW,,,,,2.81,N,,*12
$PGRME,2.4,M,2.5,M,3.5,M*29
$HCHDG,84.9,0.0,E,,*1C
$P,314
$HCHDG,84.8,0.0,E,,*1D
$IIRMC,230000,A,4741.334,N,12224.378,W,03.3,107,220314,16,E,A*11
$P,321
$HCHDG,84.7,0.0,E,,*12
$GPRMC,230041.8,A,4741.33369,N,12224.37614,W,003.30,104.9,220314,016.6,E,D*2F
$GPRMB,A,3.59,L,,Lac,4823.3220,N,12229.7720,W,42.2,355,-1.12,V*55
$IIVHW,,,,,2.89,N,,*1A
$PGRME,2.4,M,2.6,M,3.5,M*2A
$P,349
$HCHDG,84.7,0.0,E,,*12
$P,317
$HCHDG,84.5,0.0,E,,*10
$GPRMC,230042.0,A,4741.33365,N,12224.37583,W,003.30,106.6,220314,016.6,E,D*28
$IIVHW,,,,,2.98,N,,*1A
$P,330
$PGRME,2.4,M,2.5,M,3.5,M*29
$YXXDR,A,5.6,D,PTCH,A,3.5,D,ROLL*58
$PTAK,FFD1,3.5*53
$P,320
$HCHDG,84.5,0.0,E,,*10
$HCHDG,84.6,0.0,E,,*13
$P,340
$GPRMC,230042.2,A,4741.33360,N,12224.37555,W,003.31,106.2,220314,016.6,E,D*21
$IIVHW,,,,,3.09,N,,*13
$PGRME,2.4,M,2.5,M,3.5,M*29
$IIVLW,06480,N,000.0,N*59
$IIVWR,055,L,04.8,N,,,,*73
$HCHDG,84.6,0.0,E,,*13
$P,321
$IIGLL,4741.333,N,12224.376,W,230000,A,A*43
$P,328
$HCHDG,84.6,0.0,E,,*13
$GPRMC,230042.4,A,4741.33358,N,12224.37535,W,003.30,105.3,220314,016.6,E,D*29
$IIVHW,,,,,3.16,N,,*1D
$PGRME,2.4,M,2.5,M,3.5,M*29
$IIMWV,305,R,04.8,N,A*19
$IIMWV,303,T,04.8,N,A*19
$P,307
$HCHDG,84.6,0.0,E,,*13
$IIRMB,A,3.00,L,,Lac ,,,,,042.2,355,,V,A*2D
$YXXDR,A,5.7,D,PTCH,A,3.8,D,ROLL*54
$P,309
$GPRMC,230042.6,A,4741.33353,N,12224.37519,W,003.28,103.3,220314,016.6,E,D*21
$PGRME,2.4,M,2.5,M,3.5,M*29
