$HCHDG,228.2,0.0,E,,*23
$HCHDG,227.9,0.0,E,,*27
$GPRMC,230000.8,A,4741.16329,N,12224.18633,W,000.05,064.6,010314,016.6,E,D*2D
$GPRMB,A,3.71,L,,Lac,4823.3220,N,12229.7720,W,42.4,355,0.02,V*74
$SPVHW,,,,,0.00,N,,*1A
$PGRME,2.4,M,2.4,M,3.4,M*29
$HCHDG,227.9,0.0,E,,*27
$HCHDG,227.6,0.0,E,,*28
$GPRMC,230001.0,A,4741.16329,N,12224.18633,W,000.02,064.6,010314,016.6,E,D*23
$SPVHW,,,,,0.00,N,,*1A
$PGRME,2.4,M,2.4,M,3.4,M*29
$YXXDR,A,4.3,D,PTCH,A,3.9,D,ROLL*50
$PTAK,FFD1,3.9*5F
$HCHDG,227.6,0.0,E,,*28
$HCHDG,227.4,0.0,E,,*2A
$GPRMC,230001.2,A,4741.16329,N,12224.18633,W,000.04,064.6,010314,016.6,E,D*27
$SPVHW,,,,,0.00,N,,*1A
$PGRME,2.4,M,2.4,M,3.4,M*29
$HCHDG,227.3,0.0,E,,*2D
$HCHDG,227.6,0.0,E,,*28
$GPRMC,230001.4,A,4741.16329,N,12224.18634,W,000.04,064.6,010314,016.6,E,D*26
$SPVHW,,,,,0.00,N,,*1A
$PGRME,2.4,M,2.4,M,3.4,M*29
$HCHDG,227.7,0.0,E,,*29
$YXXDR,A,4.8,D,PTCH,A,3.9,D,ROLL*5B
$HCHDG,227.4,0.0,E,,*2A
$GPRMC,230001.6,A,4741.16329,N,12224.18634,W,000.02,064.6,010314,016.6,E,D*22
$PGRME,2.4,M,2.4,M,3.4,M*29
$SPVHW,,,,,0.00,N,,*1A
$HCHDG,227.4,0.0,E,,*2A
$HCHDG,227.4,0.0,E,,*2A
$GPRMC,230001.8,A,4741.16328,N,12224.18634,W,000.01,064.6,010314,016.6,E,D*2E
$PGRME,2.4,M,2.4,M,3.4,M*29
$SPVHW,,,,,0.00,N,,*1A
$HCHDG,227.1,0.0,E,,*2F
$HCHDG,227.1,0.0,E,,*2F
$GPRMC,230002.0,A,4741.16328,N,12224.18634,W,000.01,064.6,010314,016.6,E,D*25
$GPRMB,A,3.71,L,,Lac,4823.3220,N,12229.7720,W,42.4,355,0.00,V*76
$PGRME,2.4,M,2.4,M,3.4,M*29
$SPVHW,,,,,0.00,N,,*1A
$YXXDR,A,4.5,D,PTCH,A,3.9,D,ROLL*56
$PTAK,FFD1,3.9*5F
$HCHDG,227.2,0.0,E,,*2C
$HCHDG,227.2,0.0,E,,*2C
$GPRMC,230002.2,A,4741.16328,N,12224.18634,W,000.02,064.6,010314,016.6,E,D*24
$SPVHW,,,,,0.00,N,,*1A
$PGRME,2.4,M,2.4,M,3.4,M*29
$HCHDG,227.1,0.0,E,,*2F
$HCHDG,227.1,0.0,E,,*2F
$GPRMC,230002.4,A,4741.16328,N,12224.18634,W,000.02,064.6,010314,016.6,E,D*22
$PGRME,2.4,M,2.4,M,3.4,M*29
$SPVHW,,,,,0.00,N,,*1A
$HCHDG,227.1,0.0,E,,*2F
$YXXDR,A,4.7,D,PTCH,A,3.9,D,ROLL*54
$HCHDG,227.2,0.0,E,,*2C
$GPRMC,230002.6,A,4741.16328,N,12224.18634,W,000.03,064.6,010314,016.6,E,D*21
$SPVHW,,,,,0.00,N,,*1A
$PGRME,2.4,M,2.4,M,3.4,M*29
$HCHDG,227.1,0.0,E,,*2F
$PTAK,FFP1,HEEL,@*07
$HCHDG,227.1,0.0,E,,*2F
$GPRMC,230002.8,A,4741.16328,N,12224.18634,W,000.02,064.6,010314,016.6,E,D*2E
$SPVHW,,,,,0.00,N,,*1A
$PGRME,2.4,M,2.4,M,3.4,M*29
$HCHDG,227.1,0.0,E,,*2F
$HCHDG,227.1,0.0,E,,*2F
$GPRMC,230003.0,A,4741.16328,N,12224.18634,W,000.02,064.6,010314,016.6,E,D*27
$SPVHW,,,,,0.00,N,,*1A
$PGRME,2.4,M,2.4,M,3.4,M*29
$YXXDR,A,4.8,D,PTCH,A,4.0,D,ROLL*55
$HCHDG,227.2,0.0,E,,*2C
$HCHDG,227.2,0.0,E,,*2C
$GPRMC,230003.2,A,4741.16328,N,12224.18634,W,000.05,064.6,010314,016.6,E,D*22
$GPRMB,A,3.71,L,,Lac,4823.3220,N,12229.7720,W,42.4,355,0.02,V*74
$SPVHW,,,,,0.00,N,,*1A
$PGRME,2.4,M,2.4,M,3.4,M*29
$HCHDG,227.2,0.0,E,,*2C
$HCHDG,227.2,0.0,E,,*2C
$SPVHW,,,,,0.00,N,,*1A
$GPRMC,230003.4,A,4741.16327,N,12224.18634,W,000.04,064.6,010314,016.6,E,D*2A
$PGRME,2.4,M,2.4,M,3.4,M*29
$HCHDG,227.3,0.0,E,,*2D
$YXXDR,A,4.7,D,PTCH,A,3.9,D,ROLL*54
$PTAK,FFD1,3.9*5F
$HCHDG,227.3,0.0,E,,*2D
$GPRMC,230003.6,A,4741.16327,N,12224.18633,W,000.03,064.6,010314,016.6,E,D*28
$SPVHW,,,,,0.00,N,,*1A
$PGRME,2.4,M,2.4,M,3.4,M*29
$HCHDG,227.3,0.0,E,,*2D
$HCHDG,227.3,0.0,E,,*2D
$GPRMC,230003.8,A,4741.16327,N,12224.18633,W,000.02,064.6,010314,016.6,E,D*27
$SPVHW,,,,,0.00,N,,*1A
$PGRME,2.4,M,2.4,M,3.4,M*29
$HCHDG,227.3,0.0,E,,*2D
$HCHDG,227.3,0.0,E,,*2D
$GPRMC,230004.0,A,4741.16327,N,12224.18633,W,000.02,064.6,010314,016.6,E,D*28
$SPVHW,,,,,0.00,N,,*1A
$PGRME,2.4,M,2.4,M,3.4,M*29
$YXXDR,A,4.8,D,PTCH,A,4.0,D,ROLL*55
$HCHDG,227.3,0.0,E,,*2D
$HCHDG,227.3,0.0,E,,*2D
$GPRMC,230004.2,A,4741.16327,N,12224.18633,W,000.02,064.6,010314,016.6,E,D*2A
$GPRMB,A,3.71,L,,Lac,4823.3220,N,12229.7720,W,42.4,355,0.01,V*77
$SPVHW,,,,,0.00,N,,*1A
$PGRME,2.4,M,2.4,M,3.4,M*29
$HCHDG,227.3,0.0,E,,*2D
$HCHDG,227.2,0.0,E,,*2C
$GPRMC,230004.4,A,4741.16327,N,12224.18633,W,000.03,064.6,010314,016.6,E,D*2D
$SPVHW,,,,,0.00,N,,*1A
$PGRME,2.4,M,2.4,M,3.4,M*29
$HCHDG,227.3,0.0,E,,*2D
$YXXDR,A,4.8,D,PTCH,A,3.9,D,ROLL*5B
$HCHDG,227.3,0.0,E,,*2D
$GPRMC,230004.6,A,4741.16327,N,12224.18633,W,000.03,064.6,010314,016.6,E,D*2F
$SPVHW,,,,,0.00,N,,*1A
$PGRME,2.4,M,2.4,M,3.4,M*29
$HCHDG,227.2,0.0,E,,*2C
$HCHDG,227.2,0.0,E,,*2C
$GPRMC,230004.8,A,4741.16327,N,12224.18633,W,000.03,064.6,010314,016.6,E,D*21
$SPVHW,,,,,0.00,N,,*1A
$PGRME,2.4,M,2.4,M,3.4,M*29
$HCHDG,227.2,0.0,E,,*2C
$HCHDG,227.1,0.0,E,,*2F
$GPRMC,230005.0,A,4741.16326,N,12224.18632,W,000.03,064.6,010314,016.6,E,D*28
$SPVHW,,,,,0.00,N,,*1A
$PGRME,2.4,M,2.4,M,3.4,M*29
$YXXDR,A,4.8,D,PTCH,A,3.9,D,ROLL*5B
$PTAK,FFD1,3.9*5F
$HCHDG,227.1,0.0,E,,*2F
$HCHDG,227.2,0.0,E,,*2C
$GPRMC,230005.2,A,4741.16326,N,12224.18632,W,000.06,064.6,010314,016.6,E,D*2F
$SPVHW,,,,,0.00,N,,*1A
$PGRME,2.4,M,2.4,M,3.4,M*29
$HCHDG,227.2,0.0,E,,*2C
$HCHDG,227.2,0.0,E,,*2C
$GPRMC,230005.4,A,4741.16326,N,12224.18632,W,000.02,064.6,010314,016.6,E,D*2D
$GPRMB,A,3.71,L,,Lac,4823.3220,N,12229.7720,W,42.4,355,0.01,V*77
$SPVHW,,,,,0.00,N,,*1A
$PGRME,2.4,M,2.4,M,3.4,M*29
$HCHDG,227.2,0.0,E,,*2C
$YXXDR,A,4.8,D,PTCH,A,3.9,D,ROLL*5B
$HCHDG,227.1,0.0,E,,*2F
$GPRMC,230005.6,A,4741.16326,N,12224.18632,W,000.02,064.6,010314,016.6,E,D*2F
$SPVHW,,,,,0.00,N,,*1A
$PGRME,2.4,M,2.4,M,3.4,M*29
$HCHDG,227.1,0.0,E,,*2F
$HCHDG,227.2,0.0,E,,*2C
$GPRMC,230005.8,A,4741.16325,N,12224.18632,W,000.03,064.6,010314,016.6,E,D*23
$SPVHW,,,,,0.00,N,,*1A
$PGRME,2.4,M,2.4,M,3.4,M*29
$HCHDG,227.1,0.0,E,,*2F
$HCHDG,227.1,0.0,E,,*2F
$GPRMC,230006.0,A,4741.16325,N,12224.18632,W,000.03,064.6,010314,016.6,E,D*28
$SPVHW,,,,,0.00,N,,*1A
$PGRME,2.4,M,2.4,M,3.4,M*29
$YXXDR,A,4.7,D,PTCH,A,3.8,D,ROLL*55
$HCHDG,227.2,0.0,E,,*2C
$HCHDG,227.2,0.0,E,,*2C
$GPRMC,230006.2,A,4741.16325,N,12224.18632,W,000.03,064.6,010314,016.6,E,D*2A
$SPVHW,,,,,0.00,N,,*1A
$PGRME,2.4,M,2.4,M,3.4,M*29
$HCHDG,227.1,0.0,E,,*2F
$HCHDG,227.1,0.0,E,,*2F
$GPRMC,230006.4,A,4741.16325,N,12224.18631,W,000.05,064.6,010314,016.6,E,D*29
$SPVHW,,,,,0.00,N,,*1A
$PGRME,2.4,M,2.4,M,3.4,M*29
$HCHDG,227.1,0.0,E,,*2F
$YXXDR,A,4.8,D,PTCH,A,4.0,D,ROLL*55
$PTAK,FFD1,4.0*51
$HCHDG,227.2,0.0,E,,*2C
$GPRMC,230006.6,A,4741.16325,N,12224.18631,W,000.04,064.6,010314,016.6,E,D*2A
$GPRMB,A,3.71,L,,Lac,4823.3220,N,12229.7720,W,42.4,355,0.01,V*77
$SPVHW,,,,,0.00,N,,*1A
$PGRME,2.4,M,2.4,M,3.4,M*29
$HCHDG,227.2,0.0,E,,*2C
$PTAK,FFP1,HEEL,@*07
$HCHDG,227.2,0.0,E,,*2C
$GPRMC,230006.8,A,4741.16324,N,12224.18631,W,000.06,064.6,010314,016.6,E,D*27
$SPVHW,,,,,0.00,N,,*1A
$PGRME,2.4,M,2.4,M,3.4,M*29
$HCHDG,227.2,0.0,E,,*2C
$HCHDG,227.2,0.0,E,,*2C
$GPRMC,230007.0,A,4741.16324,N,12224.18631,W,000.03,064.6,010314,016.6,E,D*2B
$SPVHW,,,,,0.00,N,,*1A
$PGRME,2.4,M,2.4,M,3.4,M*29
$YXXDR,A,4.7,D,PTCH,A,3.8,D,ROLL*55
$HCHDG,227.2,0.0,E,,*2C
$HCHDG,227.2,0.0,E,,*2C
$GPRMC,230007.2,A,4741.16323,N,12224.18631,W,000.07,064.6,010314,016.6,E,D*2A
$SPVHW,,,,,0.00,N,,*1A
$PGRME,2.4,M,2.4,M,3.4,M*29
$HCHDG,227.2,0.0,E,,*2C
$HCHDG,227.3,0.0,E,,*2D
$GPRMC,230007.4,A,4741.16323,N,12224.18631,W,000.09,064.6,010314,016.6,E,D*22
$SPVHW,,,,,0.00,N,,*1A
$PGRME,2.4,M,2.4,M,3.4,M*29
$HCHDG,227.3,0.0,E,,*2D
$YXXDR,A,4.8,D,PTCH,A,4.0,D,ROLL*55
$HCHDG,227.3,0.0,E,,*2D
$GPRMC,230007.6,A,4741.16322,N,12224.18631,W,000.06,064.6,010314,016.6,E,D*2E
$SPVHW,,,,,0.00,N,,*1A
$PGRME,2.4,M,2.4,M,3.4,M*29
$HCHDG,227.3,0.0,E,,*2D
$HCHDG,227.3,0.0,E,,*2D
$GPRMC,230007.8,A,4741.16322,N,12224.18631,W,000.06,064.6,010314,016.6,E,D*20
$GPRMB,A,3.71,L,,Lac,4823.3220,N,12229.7720,W,42.4,355,0.02,V*74
$SPVHW,,,,,0.00,N,,*1A
$PGRME,2.4,M,2.4,M,3.4,M*29
$HCHDG,227.3,0.0,E,,*2D
$HCHDG,227.2,0.0,E,,*2C
$GPRMC,230008.0,A,4741.16321,N,12224.18630,W,000.07,064.6,010314,016.6,E,D*24
$SPVHW,,,,,0.00,N,,*1A
$PGRME,2.4,M,2.4,M,3.4,M*29
$YXXDR,A,4.8,D,PTCH,A,3.9,D,ROLL*5B
$PTAK,FFD1,3.9*5F
$HCHDG,227.2,0.0,E,,*2C
$HCHDG,227.2,0.0,E,,*2C
$GPRMC,230008.2,A,4741.16321,N,12224.18630,W,000.06,064.6,010314,016.6,E,D*27
$SPVHW,,,,,0.00,N,,*1A
$PGRME,2.4,M,2.4,M,3.4,M*29
$HCHDG,227.3,0.0,E,,*2D
$HCHDG,227.3,0.0,E,,*2D
$GPRMC,230008.4,A,4741.16321,N,12224.18630,W,000.05,064.6,010314,016.6,E,D*22
$SPVHW,,,,,0.00,N,,*1A
$PGRME,2.4,M,2.4,M,3.4,M*29
$HCHDG,227.3,0.0,E,,*2D
$YXXDR,A,4.8,D,PTCH,A,4.0,D,ROLL*55
$HCHDG,227.2,0.0,E,,*2C
$GPRMC,230008.6,A,4741.16320,N,12224.18630,W,000.08,064.6,010314,016.6,E,D*2C
$SPVHW,,,,,0.00,N,,*1A
$PGRME,2.4,M,2.4,M,3.4,M*29
$HCHDG,227.2,0.0,E,,*2C
$HCHDG,227.3,0.0,E,,*2D
$GPRMC,230008.8,A,4741.16320,N,12224.18630,W,000.08,064.6,010314,016.6,E,D*22
$SPVHW,,,,,0.00,N,,*1A
$PGRME,2.4,M,2.4,M,3.4,M*29
$HCHDG,227.3,0.0,E,,*2D
$HCHDG,227.3,0.0,E,,*2D
$GPRMC,230009.0,A,4741.16319,N,12224.18630,W,000.07,064.6,010314,016.6,E,D*2E
$GPRMB,A,3.71,L,,Lac,4823.3220,N,12229.7720,W,42.4,355,0.02,V*74
$SPVHW,,,,,0.00,N,,*1A
$PGRME,2.4,M,2.4,M,3.4,M*29
$YXXDR,A,4.8,D,PTCH,A,3.9,D,ROLL*5B
$PTAK,FFD1,3.9*5F
$HCHDG,227.3,0.0,E,,*2D
$HCHDG,227.3,0.0,E,,*2D
$GPRMC,230009.2,A,4741.16318,N,12224.18630,W,000.06,064.6,010314,016.6,E,D*2C
$SPVHW,,,,,0.00,N,,*1A
$PGRME,2.4,M,2.4,M,3.4,M*29
$HCHDG,227.3,0.0,E,,*2D
$HCHDG,227.3,0.0,E,,*2D
$GPRMC,230009.4,A,4741.16318,N,12224.18629,W,000.08,064.6,010314,016.6,E,D*2C
$SPVHW,,,,,0.00,N,,*1A
$PGRME,2.4,M,2.4,M,3.4,M*29
$HCHDG,227.3,0.0,E,,*2D
$YXXDR,A,4.8,D,PTCH,A,3.9,D,ROLL*5B
$HCHDG,227.3,0.0,E,,*2D
$GPRMC,230009.6,A,4741.16317,N,12224.18629,W,000.07,064.6,010314,016.6,E,D*2E
$SPVHW,,,,,0.00,N,,*1A
$PGRME,2.4,M,2.4,M,3.4,M*29
$HCHDG,227.3,0.0,E,,*2D
$HCHDG,227.4,0.0,E,,*2A
$GPRMC,230009.8,A,4741.16317,N,12224.18629,W,000.07,064.6,010314,016.6,E,D*20
$SPVHW,,,,,0.00,N,,*1A
$PGRME,2.4,M,2.4,M,3.4,M*29
$HCHDG,227.4,0.0,E,,*2A
$HCHDG,227.4,0.0,E,,*2A
$GPRMC,230010.0,A,4741.16316,N,12224.18629,W,000.07,064.6,010314,016.6,E,D*21
$GPRMB,A,3.71,L,,Lac,4823.3220,N,12229.7720,W,42.4,355,0.02,V*74
$SPVHW,,,,,0.00,N,,*1A
$PGRME,2.4,M,2.4,M,3.4,M*29
$YXXDR,A,4.8,D,PTCH,A,3.9,D,ROLL*5B
$PTAK,FFD1,3.9*5F
$HCHDG,227.4,0.0,E,,*2A
$HCHDG,227.4,0.0,E,,*2A
$GPRMC,230010.2,A,4741.16316,N,12224.18629,W,000.06,064.6,010314,016.6,E,D*22
$SPVHW,,,,,0.00,N,,*1A
$PGRME,2.4,M,2.4,M,3.4,M*29
$HCHDG,227.4,0.0,E,,*2A
$HCHDG,227.4,0.0,E,,*2A
$GPRMC,230010.4,A,4741.16315,N,12224.18628,W,000.06,064.6,010314,016.6,E,D*26
$SPVHW,,,,,0.00,N,,*1A
$PGRME,2.4,M,2.4,M,3.4,M*29
$HCHDG,227.4,0.0,E,,*2A
$YXXDR,A,4.8,D,PTCH,A,3.9,D,ROLL*5B
$HCHDG,227.4,0.0,E,,*2A
$GPRMC,230010.6,A,4741.16315,N,12224.18628,W,000.07,064.6,010314,016.6,E,D*25
$SPVHW,,,,,0.00,N,,*1A
$PGRME,2.4,M,2.4,M,3.4,M*29
$HCHDG,227.4,0.0,E,,*2A
$HCHDG,227.4,0.0,E,,*2A
$GPRMC,230010.8,A,4741.16314,N,12224.18628,W,000.04,064.6,010314,016.6,E,D*29
$SPVHW,,,,,0.00,N,,*1A
$PGRME,2.4,M,2.4,M,3.4,M*29
$HCHDG,227.4,0.0,E,,*2A
$PTAK,FFP1,HEEL,@*07
$HCHDG,227.4,0.0,E,,*2A
$GPRMC,230011.0,A,4741.16314,N,12224.18628,W,000.07,064.6,010314,016.6,E,D*23
$SPVHW,,,,,0.00,N,,*1A
$PGRME,2.4,M,2.4,M,3.4,M*29
$YXXDR,A,4.8,D,PTCH,A,3.9,D,ROLL*5B
$HCHDG,227.4,0.0,E,,*2A
$HCHDG,227.4,0.0,E,,*2A
$GPRMC,230011.2,A,4741.16313,N,12224.18628,W,000.05,064.6,010314,016.6,E,D*24
$GPRMB,A,3.71,L,,Lac,4823.3220,N,12229.7720,W,42.4,355,0.02,V*74
$SPVHW,,,,,0.00,N,,*1A
$PGRME,2.4,M,2.4,M,3.4,M*29
$HCHDG,227.4,0.0,E,,*2A
$HCHDG,227.4,0.0,E,,*2A
$GPRMC,230011.4,A,4741.16313,N,12224.18628,W,000.07,064.6,010314,016.6,E,D*20
$SPVHW,,,,,0.00,N,,*1A
$PGRME,2.4,M,2.4,M,3.4,M*29
$HCHDG,227.4,0.0,E,,*2A
$YXXDR,A,4.8,D,PTCH,A,3.9,D,ROLL*5B
$PTAK,FFD1,3.9*5F
$HCHDG,227.4,0.0,E,,*2A
$GPRMC,230011.6,A,4741.16313,N,12224.18627,W,000.05,064.6,010314,016.6,E,D*2F
$PGRME,2.4,M,2.4,M,3.4,M*29
$SPVHW,,,,,0.00,N,,*1A
$HCHDG,227.4,0.0,E,,*2A
$HCHDG,227.4,0.0,E,,*2A
$GPRMC,230011.8,A,4741.16312,N,12224.18627,W,000.04,064.6,010314,016.6,E,D*21
$PGRME,2.4,M,2.4,M,3.4,M*29
$SPVHW,,,,,0.00,N,,*1A
$HCHDG,227.4,0.0,E,,*2A
$HCHDG,227.4,0.0,E,,*2A
$GPRMC,230012.0,A,4741.16312,N,12224.18627,W,000.05,064.6,010314,016.6,E,D*2B
$SPVHW,,,,,0.00,N,,*1A
$PGRME,2.4,M,2.4,M,3.4,M*29
$YXXDR,A,4.7,D,PTCH,A,3.8,D,ROLL*55
$HCHDG,227.4,0.0,E,,*2A
$HCHDG,227.4,0.0,E,,*2A
$GPRMC,230012.2,A,4741.16311,N,12224.18627,W,000.05,064.6,010314,016.6,E,D*2A
$SPVHW,,,,,0.00,N,,*1A
$PGRME,2.4,M,2.4,M,3.4,M*29
$HCHDG,227.4,0.0,E,,*2A
$HCHDG,227.4,0.0,E,,*2A
$GPRMC,230012.4,A,4741.16311,N,12224.18627,W,000.02,064.6,010314,016.6,E,D*2B
$GPRMB,A,3.71,L,,Lac,4823.3220,N,12229.7720,W,42.4,355,0.01,V*77
$SPVHW,,,,,0.00,N,,*1A
$PGRME,2.4,M,2.4,M,3.4,M*29
$HCHDG,227.4,0.0,E,,*2A
$YXXDR,A,4.8,D,PTCH,A,3.9,D,ROLL*5B
$PTAK,FFD1,3.9*5F
$HCHDG,227.4,0.0,E,,*2A
$GPRMC,230012.6,A,4741.16311,N,12224.18626,W,000.01,064.6,010314,016.6,E,D*2B
$SPVHW,,,,,0.00,N,,*1A
$PGRME,2.4,M,2.4,M,3.4,M*29
$HCHDG,227.4,0.0,E,,*2A
$HCHDG,227.4,0.0,E,,*2A
$GPRMC,230012.8,A,4741.16311,N,12224.18626,W,000.01,064.6,010314,016.6,E,D*25
$SPVHW,,,,,0.00,N,,*1A
$PGRME,2.4,M,2.4,M,3.4,M*29
$HCHDG,227.4,0.0,E,,*2A
$HCHDG,227.4,0.0,E,,*2A
$GPRMC,230013.0,A,4741.16311,N,12224.18626,W,000.01,064.6,010314,016.6,E,D*2C
$SPVHW,,,,,0.00,N,,*1A
$PGRME,2.4,M,2.4,M,3.4,M*29
$YXXDR,A,4.8,D,PTCH,A,4.0,D,ROLL*55
$HCHDG,227.4,0.0,E,,*2A
$HCHDG,227.4,0.0,E,,*2A
$GPRMC,230013.2,A,4741.16311,N,12224.18626,W,000.01,064.6,010314,016.6,E,D*2E
$SPVHW,,,,,0.00,N,,*1A
$PGRME,2.4,M,2.4,M,3.4,M*29
$HCHDG,227.4,0.0,E,,*2A
$HCHDG,227.4,0.0,E,,*2A
$GPRMC,230013.4,A,4741.16311,N,12224.18626,W,000.01,064.6,010314,016.6,E,D*28
$GPRMB,A,3.71,L,,Lac,4823.3220,N,12229.7720,W,42.4,355,0.00,V*76
$SPVHW,,,,,0.00,N,,*1A
$PGRME,2.4,M,2.4,M,3.4,M*29
$HCHDG,227.3,0.0,E,,*2D
$YXXDR,A,4.7,D,PTCH,A,3.8,D,ROLL*55
$PTAK,FFD1,3.8*5E
$HCHDG,227.3,0.0,E,,*2D
$GPRMC,230013.6,A,4741.16311,N,12224.18626,W,000.01,064.6,010314,016.6,E,D*2A
$SPVHW,,,,,0.00,N,,*1A
$PGRME,2.4,M,2.4,M,3.4,M*29
$HCHDG,227.3,0.0,E,,*2D
$HCHDG,227.4,0.0,E,,*2A
$GPRMC,230013.8,A,4741.16311,N,12224.18625,W,000.01,064.6,010314,016.6,E,D*27
$SPVHW,,,,,0.00,N,,*1A
$PGRME,2.4,M,2.4,M,3.4,M*29
$HCHDG,227.4,0.0,E,,*2A
$HCHDG,227.4,0.0,E,,*2A
$GPRMC,230014.0,A,4741.16311,N,12224.18625,W,000.00,064.6,010314,016.6,E,D*29
$SPVHW,,,,,0.00,N,,*1A
$PGRME,2.4,M,2.4,M,3.4,M*29
$YXXDR,A,4.8,D,PTCH,A,3.9,D,ROLL*5B
$HCHDG,227.4,0.0,E,,*2A
$HCHDG,227.4,0.0,E,,*2A
$GPRMC,230014.2,A,4741.16311,N,12224.18625,W,000.01,064.6,010314,016.6,E,D*2A
$SPVHW,,,,,0.00,N,,*1A
$PGRME,2.4,M,2.4,M,3.4,M*29
$HCHDG,227.4,0.0,E,,*2A
$HCHDG,227.4,0.0,E,,*2A
$GPRMC,230014.4,A,4741.16311,N,12224.18625,W,000.00,064.6,010314,016.6,E,D*2D
$GPRMB,A,3.71,L,,Lac,4823.3220,N,12229.7720,W,42.4,355,0.00,V*76
$SPVHW,,,,,0.00,N,,*1A
$PGRME,2.4,M,2.4,M,3.4,M*29
$HCHDG,227.4,0.0,E,,*2A
$YXXDR,A,4.8,D,PTCH,A,3.9,D,ROLL*5B
$HCHDG,227.4,0.0,E,,*2A
$GPRMC,230014.6,A,4741.16311,N,12224.18625,W,000.00,064.6,010314,016.6,E,D*2F
$PGRME,2.4,M,2.4,M,3.4,M*29
$SPVHW,,,,,0.00,N,,*1A
$HCHDG,227.4,0.0,E,,*2A
$HCHDG,227.4,0.0,E,,*2A
$GPRMC,230014.8,A,4741.16311,N,12224.18624,W,000.01,064.6,010314,016.6,E,D*21
$PGRME,2.4,M,2.4,M,3.4,M*29
$SPVHW,,,,,0.00,N,,*1A
$HCHDG,227.4,0.0,E,,*2A
$HCHDG,227.5,0.0,E,,*2B
$PTAK,FFP1,HEEL,@*07
$GPRMC,230015.0,A,4741.16311,N,12224.18624,W,000.00,064.6,010314,016.6,E,D*29
$SPVHW,,,,,0.00,N,,*1A
$PGRME,2.4,M,2.4,M,3.4,M*29
$YXXDR,A,4.8,D,PTCH,A,3.9,D,ROLL*5B
$PTAK,FFD1,3.9*5F
$HCHDG,227.5,0.0,E,,*2B
$HCHDG,227.5,0.0,E,,*2B
$GPRMC,230015.2,A,4741.16310,N,12224.18624,W,000.01,064.6,010314,016.6,E,D*2B
$SPVHW,,,,,0.00,N,,*1A
$PGRME,2.4,M,2.4,M,3.4,M*29
$HCHDG,227.4,0.0,E,,*2A
$HCHDG,227.4,0.0,E,,*2A
$SPVHW,,,,,0.00,N,,*1A
$GPRMC,230015.4,A,4741.16310,N,12224.18624,W,000.01,064.6,010314,016.6,E,D*2D
$GPRMB,A,3.71,L,,Lac,4823.3220,N,12229.7720,W,42.4,355,0.00,V*76
$PGRME,2.4,M,2.4,M,3.4,M*29
$HCHDG,227.4,0.0,E,,*2A
$YXXDR,A,4.8,D,PTCH,A,3.9,D,ROLL*5B
$HCHDG,227.4,0.0,E,,*2A
$GPRMC,230015.6,A,4741.16311,N,12224.18624,W,000.00,064.6,010314,016.6,E,D*2F
$SPVHW,,,,,0.00,N,,*1A
$PGRME,2.4,M,2.4,M,3.4,M*29
$HCHDG,227.4,0.0,E,,*2A
$HCHDG,227.4,0.0,E,,*2A
$GPRMC,230015.8,A,4741.16310,N,12224.18624,W,000.00,064.6,010314,016.6,E,D*20
$SPVHW,,,,,0.00,N,,*1A
$PGRME,2.4,M,2.4,M,3.4,M*29
$HCHDG,227.4,0.0,E,,*2A
$HCHDG,227.4,0.0,E,,*2A
$GPRMC,230016.0,A,4741.16310,N,12224.18623,W,000.00,064.6,010314,016.6,E,D*2C
$SPVHW,,,,,0.00,N,,*1A
$PGRME,2.4,M,2.4,M,3.4,M*29
$YXXDR,A,4.8,D,PTCH,A,3.9,D,ROLL*5B
$PTAK,FFD1,3.9*5F
$HCHDG,227.4,0.0,E,,*2A
$HCHDG,227.4,0.0,E,,*2A
$GPRMC,230016.2,A,4741.16310,N,12224.18623,W,000.00,064.6,010314,016.6,E,D*2E
$SPVHW,,,,,0.00,N,,*1A
$PGRME,2.4,M,2.4,M,3.4,M*29
$HCHDG,227.4,0.0,E,,*2A
$HCHDG,227.4,0.0,E,,*2A
$GPRMC,230016.4,A,4741.16310,N,12224.18623,W,000.00,064.6,010314,016.6,E,D*28
$SPVHW,,,,,0.00,N,,*1A
$PGRME,2.4,M,2.4,M,3.4,M*29
$HCHDG,227.4,0.0,E,,*2A
$YXXDR,A,4.8,D,PTCH,A,3.9,D,ROLL*5B
$HCHDG,227.4,0.0,E,,*2A
$GPRMC,230016.6,A,4741.16310,N,12224.18623,W,000.00,064.6,010314,016.6,E,D*2A
$GPRMB,A,3.71,L,,Lac,4823.3220,N,12229.7720,W,42.4,355,0.00,V*76
$SPVHW,,,,,0.00,N,,*1A
$PGRME,2.4,M,2.4,M,3.4,M*29
$HCHDG,227.4,0.0,E,,*2A
$HCHDG,227.4,0.0,E,,*2A
$GPRMC,230016.8,A,4741.16310,N,12224.18623,W,000.00,064.6,010314,016.6,E,D*24
$PGRME,2.4,M,2.4,M,3.4,M*29
$SPVHW,,,,,0.00,N,,*1A
$HCHDG,227.4,0.0,E,,*2A
$HCHDG,227.4,0.0,E,,*2A
$GPRMC,230017.0,A,4741.16310,N,12224.18623,W,000.00,064.6,010314,016.6,E,D*2D
$SPVHW,,,,,0.00,N,,*1A
$PGRME,2.4,M,2.4,M,3.4,M*29
$YXXDR,A,4.8,D,PTCH,A,3.9,D,ROLL*5B
$HCHDG,227.4,0.0,E,,*2A
$HCHDG,227.4,0.0,E,,*2A
$GPRMC,230017.2,A,4741.16310,N,12224.18623,W,000.00,064.6,010314,016.6,E,D*2F
$SPVHW,,,,,0.00,N,,*1A
$PGRME,2.4,M,2.4,M,3.4,M*29
$HCHDG,227.4,0.0,E,,*2A
$HCHDG,227.4,0.0,E,,*2A
$GPRMC,230017.4,A,4741.16310,N,12224.18623,W,000.00,064.6,010314,016.6,E,D*29
$SPVHW,,,,,0.00,N,,*1A
$PGRME,2.4,M,2.4,M,3.4,M*29
$HCHDG,227.4,0.0,E,,*2A
$YXXDR,A,4.8,D,PTCH,A,3.9,D,ROLL*5B
$PTAK,FFD1,3.9*5F
$HCHDG,227.4,0.0,E,,*2A
$GPRMC,230017.6,A,4741.16310,N,12224.18622,W,000.00,064.6,010314,016.6,E,D*2A
$GPRMB,A,3.71,L,,Lac,4823.3220,N,12229.7720,W,42.4,355,0.00,V*76
$SPVHW,,,,,0.00,N,,*1A
$PGRME,2.4,M,2.4,M,3.4,M*29
$HCHDG,227.4,0.0,E,,*2A
$HCHDG,227.4,0.0,E,,*2A
$GPRMC,230017.8,A,4741.16310,N,12224.18622,W,000.00,064.6,010314,016.6,E,D*24
$SPVHW,,,,,0.00,N,,*1A
$PGRME,2.4,M,2.4,M,3.4,M*29
$HCHDG,227.4,0.0,E,,*2A
$HCHDG,227.4,0.0,E,,*2A
$GPRMC,230018.0,A,4741.16310,N,12224.18622,W,000.00,064.6,010314,016.6,E,D*23
$SPVHW,,,,,0.00,N,,*1A
$PGRME,2.4,M,2.4,M,3.4,M*29
$YXXDR,A,4.8,D,PTCH,A,3.9,D,ROLL*5B
$HCHDG,227.4,0.0,E,,*2A
$HCHDG,227.1,0.0,E,,*2F
$GPRMC,230018.2,A,4741.16310,N,12224.18622,W,000.00,064.6,010314,016.6,E,D*21
$SPVHW,,,,,0.00,N,,*1A
$PGRME,2.4,M,2.4,M,3.4,M*29
$HCHDG,227.1,0.0,E,,*2F
$HCHDG,227.1,0.0,E,,*2F
$GPRMC,230018.4,A,4741.16310,N,12224.18622,W,000.00,064.6,010314,016.6,E,D*27
$SPVHW,,,,,0.00,N,,*1A
$PGRME,2.4,M,2.4,M,3.4,M*29
$HCHDG,227.1,0.0,E,,*2F
$YXXDR,A,4.8,D,PTCH,A,3.9,D,ROLL*5B
$PTAK,FFD1,3.9*5F
$HCHDG,227.1,0.0,E,,*2F
$GPRMC,230018.6,A,4741.16310,N,12224.18622,W,000.01,064.6,010314,016.6,E,D*24
$SPVHW,,,,,0.00,N,,*1A
$PGRME,2.4,M,2.4,M,3.4,M*29
$HCHDG,227.1,0.0,E,,*2F
$HCHDG,227.1,0.0,E,,*2F
$GPRMC,230018.8,A,4741.16310,N,12224.18622,W,000.01,064.6,010314,016.6,E,D*2A
$GPRMB,A,3.71,L,,Lac,4823.3220,N,12229.7720,W,42.4,355,0.00,V*76
$SPVHW,,,,,0.00,N,,*1A
$PGRME,2.4,M,2.4,M,3.4,M*29
$HCHDG,227.1,0.0,E,,*2F
$PTAK,FFP1,HEEL,@*07
$HCHDG,227.1,0.0,E,,*2F
$GPRMC,230019.0,A,4741.16310,N,12224.18621,W,000.01,064.6,010314,016.6,E,D*20
$SPVHW,,,,,0.00,N,,*1A
$PGRME,2.4,M,2.4,M,3.4,M*29
$YXXDR,A,4.8,D,PTCH,A,3.9,D,ROLL*5B
$HCHDG,227.1,0.0,E,,*2F
$HCHDG,227.1,0.0,E,,*2F
$GPRMC,230019.2,A,4741.16310,N,12224.18621,W,000.01,064.6,010314,016.6,E,D*22
$SPVHW,,,,,0.00,N,,*1A
$PGRME,2.4,M,2.4,M,3.4,M*29
$HCHDG,227.1,0.0,E,,*2F
$HCHDG,227.4,0.0,E,,*2A
$GPRMC,230019.4,A,4741.16310,N,12224.18621,W,000.01,064.6,010314,016.6,E,D*24
$SPVHW,,,,,0.00,N,,*1A
$PGRME,2.4,M,2.4,M,3.4,M*29
$HCHDG,227.4,0.0,E,,*2A
$YXXDR,A,4.8,D,PTCH,A,4.0,D,ROLL*55
$PTAK,FFD1,4.0*51
$HCHDG,227.4,0.0,E,,*2A
$GPRMC,230019.6,A,4741.16310,N,12224.18621,W,000.00,064.6,010314,016.6,E,D*27
$SPVHW,,,,,0.00,N,,*1A
$PGRME,2.4,M,2.4,M,3.4,M*29
$HCHDG,227.4,0.0,E,,*2A
$HCHDG,227.4,0.0,E,,*2A
$GPRMC,230019.8,A,4741.16310,N,12224.18621,W,000.01,064.6,010314,016.6,E,D*28
$GPRMB,A,3.71,L,,Lac,4823.3220,N,12229.7720,W,42.4,355,0.00,V*76
$SPVHW,,,,,0.00,N,,*1A
$PGRME,2.4,M,2.4,M,3.4,M*29
$HCHDG,227.5,0.0,E,,*2B
$HCHDG,227.2,0.0,E,,*2C
$GPRMC,230020.0,A,4741.16310,N,12224.18620,W,000.01,064.6,010314,016.6,E,D*2B
$SPVHW,,,,,0.00,N,,*1A
$PGRME,2.4,M,2.4,M,3.4,M*29
$YXXDR,A,4.3,D,PTCH,A,3.9,D,ROLL*50
$HCHDG,227.2,0.0,E,,*2C
$HCHDG,227.3,0.0,E,,*2D
$GPRMC,230020.2,A,4741.16310,N,12224.18620,W,000.00,064.6,010314,016.6,E,D*28
$SPVHW,,,,,0.00,N,,*1A
$PGRME,2.4,M,2.4,M,3.4,M*29
$HCHDG,227.3,0.0,E,,*2D
$HCHDG,227.3,0.0,E,,*2D
$GPRMC,230020.4,A,4741.16310,N,12224.18620,W,000.01,064.6,010314,016.6,E,D*2F
$SPVHW,,,,,0.00,N,,*1A
$PGRME,2.4,M,2.4,M,3.4,M*29
$HCHDG,227.3,0.0,E,,*2D
$YXXDR,A,4.7,D,PTCH,A,3.9,D,ROLL*54
$HCHDG,227.3,0.0,E,,*2D
$GPRMC,230020.6,A,4741.16310,N,12224.18620,W,000.00,064.6,010314,016.6,E,D*2C
$PGRME,2.4,M,2.4,M,3.4,M*29
$SPVHW,,,,,0.00,N,,*1A
$HCHDG,227.3,0.0,E,,*2D
$HCHDG,227.3,0.0,E,,*2D
$GPRMC,230020.8,A,4741.16310,N,12224.18620,W,000.01,064.6,010314,016.6,E,D*23
$PGRME,2.4,M,2.4,M,3.4,M*29
$SPVHW,,,,,0.00,N,,*1A
$HCHDG,227.3,0.0,E,,*2D
$HCHDG,227.3,0.0,E,,*2D
$GPRMC,230021.0,A,4741.16310,N,12224.18619,W,000.01,064.6,010314,016.6,E,D*20
$GPRMB,A,3.71,L,,Lac,4823.3220,N,12229.7720,W,42.4,355,0.00,V*76
$SPVHW,,,,,0.00,N,,*1A
$PGRME,2.4,M,2.4,M,3.4,M*29
$YXXDR,A,4.5,D,PTCH,A,4.0,D,ROLL*58
$PTAK,FFD1,4.0*51
$HCHDG,227.4,0.0,E,,*2A
$HCHDG,227.4,0.0,E,,*2A
$GPRMC,230021.2,A,4741.16310,N,12224.18619,W,000.00,064.6,010314,016.6,E,D*23
$SPVHW,,,,,0.00,N,,*1A
$PGRME,2.4,M,2.4,M,3.4,M*29
$HCHDG,227.2,0.0,E,,*2C
$HCHDG,227.2,0.0,E,,*2C
$GPRMC,230021.4,A,4741.16310,N,12224.18619,W,000.01,064.6,010314,016.6,E,D*24
$SPVHW,,,,,0.00,N,,*1A
$PGRME,2.4,M,2.4,M,3.4,M*29
$HCHDG,227.2,0.0,E,,*2C
$YXXDR,A,4.4,D,PTCH,A,3.9,D,ROLL*57
$HCHDG,227.2,0.0,E,,*2C
$GPRMC,230021.6,A,4741.16310,N,12224.18619,W,000.00,064.6,010314,016.6,E,D*27
$PGRME,2.4,M,2.4,M,3.4,M*29
$SPVHW,,,,,0.00,N,,*1A
$HCHDG,227.2,0.0,E,,*2C
$HCHDG,227.2,0.0,E,,*2C
$GPRMC,230021.8,A,4741.16310,N,12224.18618,W,000.01,064.6,010314,016.6,E,D*29
$PGRME,2.4,M,2.4,M,3.4,M*29
$SPVHW,,,,,0.00,N,,*1A
$HCHDG,227.2,0.0,E,,*2C
$HCHDG,227.2,0.0,E,,*2C
$GPRMC,230022.0,A,4741.16310,N,12224.18618,W,000.01,064.6,010314,016.6,E,D*22
$GPRMB,A,3.71,L,,Lac,4823.3220,N,12229.7720,W,42.4,355,0.00,V*76
$SPVHW,,,,,0.00,N,,*1A
$PGRME,2.4,M,2.4,M,3.4,M*29
$YXXDR,A,4.5,D,PTCH,A,3.9,D,ROLL*56
$HCHDG,227.3,0.0,E,,*2D
$HCHDG,227.3,0.0,E,,*2D
$GPRMC,230022.2,A,4741.16310,N,12224.18618,W,000.01,064.6,010314,016.6,E,D*20
$SPVHW,,,,,0.00,N,,*1A
$PGRME,2.4,M,2.4,M,3.4,M*29
$HCHDG,227.3,0.0,E,,*2D
$HCHDG,227.2,0.0,E,,*2C
$GPRMC,230022.4,A,4741.16310,N,12224.18618,W,000.01,064.6,010314,016.6,E,D*26
$SPVHW,,,,,0.00,N,,*1A
$PGRME,2.4,M,2.4,M,3.4,M*29
$HCHDG,227.2,0.0,E,,*2C
$YXXDR,A,4.7,D,PTCH,A,3.8,D,ROLL*55
$PTAK,FFD1,3.8*5E
$HCHDG,227.2,0.0,E,,*2C
$GPRMC,230022.6,A,4741.16310,N,12224.18617,W,000.00,064.6,010314,016.6,E,D*2A
$SPVHW,,,,,0.00,N,,*1A
$PGRME,2.4,M,2.4,M,3.4,M*29
$HCHDG,227.1,0.0,E,,*2F
$HCHDG,227.1,0.0,E,,*2F
$GPRMC,230022.8,A,4741.16310,N,12224.18617,W,000.00,064.6,010314,016.6,E,D*24
$SPVHW,,,,,0.00,N,,*1A
$PGRME,2.4,M,2.4,M,3.4,M*29
$HCHDG,227.1,0.0,E,,*2F
$HCHDG,227.1,0.0,E,,*2F
$GPRMC,230023.0,A,4741.16310,N,12224.18617,W,000.00,064.6,010314,016.6,E,D*2D
$SPVHW,,,,,0.00,N,,*1A
$PGRME,2.4,M,2.4,M,3.4,M*29
$YXXDR,A,4.8,D,PTCH,A,3.6,D,ROLL*54
$PTAK,FFP1,HEEL,@*07
$HCHDG,227.1,0.0,E,,*2F
$HCHDG,227.1,0.0,E,,*2F
$GPRMC,230023.2,A,4741.16310,N,12224.18617,W,000.01,064.6,010314,016.6,E,D*2E
$GPRMB,A,3.71,L,,Lac,4823.3220,N,12229.7720,W,42.4,355,0.00,V*76
$SPVHW,,,,,0.00,N,,*1A
$PGRME,2.4,M,2.4,M,3.4,M*29
$HCHDG,227.1,0.0,E,,*2F
$HCHDG,227.1,0.0,E,,*2F
$GPRMC,230023.4,A,4741.16311,N,12224.18616,W,000.00,064.6,010314,016.6,E,D*29
$SPVHW,,,,,0.00,N,,*1A
$PGRME,2.4,M,2.4,M,3.4,M*29
$HCHDG,227.1,0.0,E,,*2F
$YXXDR,A,4.5,D,PTCH,A,3.8,D,ROLL*57
$PTAK,FFD1,3.8*5E
$HCHDG,227.1,0.0,E,,*2F
$GPRMC,230023.6,A,4741.16311,N,12224.18616,W,000.01,064.6,010314,016.6,E,D*2A
$SPVHW,,,,,0.00,N,,*1A
$PGRME,2.4,M,2.4,M,3.4,M*29
$HCHDG,227.1,0.0,E,,*2F
$HCHDG,227.1,0.0,E,,*2F
$GPRMC,230023.8,A,4741.16311,N,12224.18616,W,000.01,064.6,010314,016.6,E,D*24
$SPVHW,,,,,0.00,N,,*1A
$PGRME,2.4,M,2.4,M,3.4,M*29
$HCHDG,227.1,0.0,E,,*2F
$HCHDG,227.1,0.0,E,,*2F
$GPRMC,230024.0,A,4741.16311,N,12224.18616,W,000.00,064.6,010314,016.6,E,D*2A
$SPVHW,,,,,0.00,N,,*1A
$PGRME,2.4,M,2.4,M,3.4,M*29
$YXXDR,A,4.5,D,PTCH,A,3.7,D,ROLL*58
$HCHDG,227.3,0.0,E,,*2D
$HCHDG,227.2,0.0,E,,*2C
$GPRMC,230024.2,A,4741.16311,N,12224.18615,W,000.00,064.6,010314,016.6,E,D*2B
$GPRMB,A,3.71,L,,Lac,4823.3220,N,12229.7720,W,42.4,355,0.00,V*76
$SPVHW,,,,,0.00,N,,*1A
$PGRME,2.4,M,2.4,M,3.4,M*29
$HCHDG,227.2,0.0,E,,*2C
$HCHDG,227.2,0.0,E,,*2C
$GPRMC,230024.4,A,4741.16311,N,12224.18615,W,000.00,064.6,010314,016.6,E,D*2D
$SPVHW,,,,,0.00,N,,*1A
$PGRME,2.4,M,2.4,M,3.4,M*29
$HCHDG,227.0,0.0,E,,*2E
$YXXDR,A,4.7,D,PTCH,A,3.9,D,ROLL*54
$HCHDG,227.0,0.0,E,,*2E
$GPRMC,230024.6,A,4741.16311,N,12224.18615,W,000.00,064.6,010314,016.6,E,D*2F
$PGRME,2.4,M,2.4,M,3.4,M*29
$SPVHW,,,,,0.00,N,,*1A
$HCHDG,227.0,0.0,E,,*2E
$HCHDG,227.0,0.0,E,,*2E
$GPRMC,230024.8,A,4741.16311,N,12224.18615,W,000.00,064.6,010314,016.6,E,D*21
$PGRME,2.4,M,2.4,M,3.4,M*29
$SPVHW,,,,,0.00,N,,*1A
$HCHDG,227.0,0.0,E,,*2E
$HCHDG,227.0,0.0,E,,*2E
$GPRMC,230025.0,A,4741.16311,N,12224.18615,W,000.00,064.6,010314,016.6,E,D*28
$SPVHW,,,,,0.00,N,,*1A
$PGRME,2.4,M,2.4,M,3.4,M*29
$YXXDR,A,4.5,D,PTCH,A,3.8,D,ROLL*57
$PTAK,FFD1,3.8*5E
$HCHDG,227.0,0.0,E,,*2E
$HCHDG,227.0,0.0,E,,*2E
$GPRMC,230025.2,A,4741.16311,N,12224.18615,W,000.00,064.6,010314,016.6,E,D*2A
$SPVHW,,,,,0.00,N,,*1A
$PGRME,2.4,M,2.4,M,3.4,M*29
$HCHDG,227.2,0.0,E,,*2C
$HCHDG,227.2,0.0,E,,*2C
$GPRMC,230025.4,A,4741.16311,N,12224.18615,W,000.00,064.6,010314,016.6,E,D*2C
$GPRMB,A,3.71,L,,Lac,4823.3220,N,12229.7720,W,42.4,355,0.00,V*76
$SPVHW,,,,,0.00,N,,*1A
$PGRME,2.4,M,2.4,M,3.4,M*29
$HCHDG,227.2,0.0,E,,*2C
$YXXDR,A,4.5,D,PTCH,A,3.7,D,ROLL*58
$HCHDG,227.2,0.0,E,,*2C
$GPRMC,230025.6,A,4741.16311,N,12224.18614,W,000.00,064.6,010314,016.6,E,D*2F
$PGRME,2.4,M,2.4,M,3.4,M*29
$SPVHW,,,,,0.00,N,,*1A
$HCHDG,227.2,0.0,E,,*2C
$HCHDG,227.0,0.0,E,,*2E
$GPRMC,230025.8,A,4741.16311,N,12224.18614,W,000.00,064.6,010314,016.6,E,D*21
$PGRME,2.4,M,2.4,M,3.4,M*29
$SPVHW,,,,,0.00,N,,*1A
$HCHDG,227.0,0.0,E,,*2E
$HCHDG,227.0,0.0,E,,*2E
$GPRMC,230026.0,A,4741.16311,N,12224.18614,W,000.00,064.6,010314,016.6,E,D*2A
$SPVHW,,,,,0.00,N,,*1A
$PGRME,2.4,M,2.4,M,3.4,M*29
$YXXDR,A,4.5,D,PTCH,A,4.0,D,ROLL*58
$PTAK,FFD1,4.0*51
$HCHDG,227.0,0.0,E,,*2E
$HCHDG,227.0,0.0,E,,*2E
$SPVHW,,,,,0.00,N,,*1A
$GPRMC,230026.2,A,4741.16311,N,12224.18614,W,000.00,064.6,010314,016.6,E,D*28
$PGRME,2.4,M,2.4,M,3.4,M*29
$HCHDG,227.0,0.0,E,,*2E
$HCHDG,227.0,0.0,E,,*2E
$GPRMC,230026.4,A,4741.16311,N,12224.18614,W,000.01,064.6,010314,016.6,E,D*2F
$GPRMB,A,3.71,L,,Lac,4823.3220,N,12229.7720,W,42.4,355,0.00,V*76
$SPVHW,,,,,0.00,N,,*1A
$PGRME,2.4,M,2.4,M,3.4,M*29
$HCHDG,227.2,0.0,E,,*2C
$YXXDR,A,4.5,D,PTCH,A,3.7,D,ROLL*58
$HCHDG,227.2,0.0,E,,*2C
$GPRMC,230026.6,A,4741.16311,N,12224.18614,W,000.00,064.6,010314,016.6,E,D*2C
$SPVHW,,,,,0.00,N,,*1A
$PGRME,2.4,M,2.4,M,3.4,M*29
$HCHDG,227.2,0.0,E,,*2C
$HCHDG,227.2,0.0,E,,*2C
$GPRMC,230026.8,A,4741.16311,N,12224.18614,W,000.00,064.6,010314,016.6,E,D*22
$SPVHW,,,,,0.00,N,,*1A
$PGRME,2.4,M,2.4,M,3.4,M*29
$HCHDG,227.2,0.0,E,,*2C
$HCHDG,227.0,0.0,E,,*2E
$GPRMC,230027.0,A,4741.16311,N,12224.18613,W,000.00,064.6,010314,016.6,E,D*2C
$PGRME,2.4,M,2.4,M,3.4,M*29
$SPVHW,,,,,0.00,N,,*1A
$YXXDR,A,4.5,D,PTCH,A,4.0,D,ROLL*58
$HCHDG,227.0,0.0,E,,*2E
$PTAK,FFP1,HEEL,@*07
$HCHDG,227.0,0.0,E,,*2E
$GPRMC,230027.2,A,4741.16311,N,12224.18613,W,000.00,064.6,010314,016.6,E,D*2E
$SPVHW,,,,,0.00,N,,*1A
$PGRME,2.4,M,2.4,M,3.4,M*29
$HCHDG,227.0,0.0,E,,*2E
$HCHDG,227.0,0.0,E,,*2E
$GPRMC,230027.4,A,4741.16312,N,12224.18613,W,000.01,064.6,010314,016.6,E,D*2A
$SPVHW,,,,,0.00,N,,*1A
$PGRME,2.4,M,2.4,M,3.4,M*29
$HCHDG,227.0,0.0,E,,*2E
$YXXDR,A,4.5,D,PTCH,A,3.7,D,ROLL*58
$PTAK,FFD1,3.7*51
$HCHDG,227.3,0.0,E,,*2D
$GPRMC,230027.6,A,4741.16312,N,12224.18613,W,000.01,064.6,010314,016.6,E,D*28
$GPRMB,A,3.71,L,,Lac,4823.3220,N,12229.7720,W,42.4,355,0.00,V*76
$SPVHW,,,,,0.00,N,,*1A
$PGRME,2.4,M,2.4,M,3.4,M*29
$HCHDG,227.3,0.0,E,,*2D
$HCHDG,227.3,0.0,E,,*2D
$GPRMC,230027.8,A,4741.16312,N,12224.18613,W,000.00,064.6,010314,016.6,E,D*27
$SPVHW,,,,,0.00,N,,*1A
$PGRME,2.4,M,2.4,M,3.4,M*29
$HCHDG,227.3,0.0,E,,*2D
$HCHDG,227.3,0.0,E,,*2D
$GPRMC,230028.0,A,4741.16312,N,12224.18613,W,000.00,064.6,010314,016.6,E,D*20
$PGRME,2.4,M,2.4,M,3.4,M*29
$SPVHW,,,,,0.00,N,,*1A
$YXXDR,A,4.5,D,PTCH,A,3.8,D,ROLL*57
$HCHDG,227.3,0.0,E,,*2D
$HCHDG,227.0,0.0,E,,*2E
$GPRMC,230028.2,A,4741.16312,N,12224.18613,W,000.00,064.6,010314,016.6,E,D*22
$PGRME,2.4,M,2.4,M,3.4,M*29
$SPVHW,,,,,0.00,N,,*1A
$HCHDG,227.0,0.0,E,,*2E
$HCHDG,227.0,0.0,E,,*2E
$GPRMC,230028.4,A,4741.16312,N,12224.18613,W,000.00,064.6,010314,016.6,E,D*24
$SPVHW,,,,,0.00,N,,*1A
$PGRME,2.4,M,2.4,M,3.4,M*29
$HCHDG,227.0,0.0,E,,*2E
$YXXDR,A,4.5,D,PTCH,A,3.8,D,ROLL*57
$PTAK,FFD1,3.8*5E
$HCHDG,227.0,0.0,E,,*2E
$GPRMC,230028.6,A,4741.16312,N,12224.18613,W,000.00,064.6,010314,016.6,E,D*26
$SPVHW,,,,,0.00,N,,*1A
$PGRME,2.4,M,2.4,M,3.4,M*29
$HCHDG,227.0,0.0,E,,*2E
$HCHDG,227.3,0.0,E,,*2D
$GPRMC,230028.8,A,4741.16312,N,12224.18613,W,000.00,064.6,010314,016.6,E,D*28
$GPRMB,A,3.71,L,,Lac,4823.3220,N,12229.7720,W,42.4,355,0.00,V*76
$PGRME,2.4,M,2.4,M,3.4,M*29
$SPVHW,,,,,0.00,N,,*1A
$HCHDG,227.3,0.0,E,,*2D
$HCHDG,227.3,0.0,E,,*2D
$GPRMC,230029.0,A,4741.16312,N,12224.18613,W,000.00,064.6,010314,016.6,E,D*21
$PGRME,2.4,M,2.4,M,3.4,M*29
$SPVHW,,,,,0.00,N,,*1A
$YXXDR,A,4.7,D,PTCH,A,3.9,D,ROLL*54
$HCHDG,227.3,0.0,E,,*2D
$HCHDG,227.3,0.0,E,,*2D
$GPRMC,230029.2,A,4741.16312,N,12224.18613,W,000.00,064.6,010314,016.6,E,D*23
$SPVHW,,,,,0.00,N,,*1A
$PGRME,2.4,M,2.4,M,3.4,M*29
$HCHDG,227.3,0.0,E,,*2D
$HCHDG,227.0,0.0,E,,*2E
$GPRMC,230029.4,A,4741.16312,N,12224.18613,W,000.00,064.6,010314,016.6,E,D*25
$SPVHW,,,,,0.00,N,,*1A
$PGRME,2.4,M,2.4,M,3.4,M*29
$HCHDG,227.0,0.0,E,,*2E
$YXXDR,A,4.5,D,PTCH,A,3.8,D,ROLL*57
$HCHDG,227.0,0.0,E,,*2E
$GPRMC,230029.6,A,4741.16312,N,12224.18613,W,000.01,064.6,010314,016.6,E,D*26
$SPVHW,,,,,0.00,N,,*1A
$PGRME,2.4,M,2.4,M,3.4,M*29
$HCHDG,227.0,0.0,E,,*2E
$HCHDG,227.0,0.0,E,,*2E
$GPRMC,230029.8,A,4741.16312,N,12224.18613,W,000.00,064.6,010314,016.6,E,D*29
$GPRMB,A,3.71,L,,Lac,4823.3220,N,12229.7720,W,42.4,355,0.00,V*76
$PGRME,2.4,M,2.4,M,3.4,M*29
$SPVHW,,,,,0.00,N,,*1A
$HCHDG,226.9,0.0,E,,*26
$HCHDG,227.0,0.0,E,,*2E
$GPRMC,230030.0,A,4741.16311,N,12224.18613,W,000.01,064.6,010314,016.6,E,D*2B
$PGRME,2.4,M,2.4,M,3.4,M*29
$SPVHW,,,,,0.00,N,,*1A
$YXXDR,A,4.7,D,PTCH,A,3.9,D,ROLL*54
$PTAK,FFD1,3.9*5F
$HCHDG,227.0,0.0,E,,*2E
$HCHDG,227.0,0.0,E,,*2E
$GPRMC,230030.2,A,4741.16312,N,12224.18613,W,000.00,064.6,010314,016.6,E,D*2B
$PGRME,2.4,M,2.4,M,3.4,M*29
$SPVHW,,,,,0.00,N,,*1A
$HCHDG,227.0,0.0,E,,*2E
$HCHDG,227.0,0.0,E,,*2E
$GPRMC,230030.4,A,4741.16312,N,12224.18613,W,000.01,064.6,010314,016.6,E,D*2C
$SPVHW,,,,,0.00,N,,*1A
$PGRME,2.4,M,2.4,M,3.4,M*29
$HCHDG,227.0,0.0,E,,*2E
$YXXDR,A,4.7,D,PTCH,A,3.9,D,ROLL*54
$HCHDG,227.0,0.0,E,,*2E
$GPRMC,230030.6,A,4741.16311,N,12224.18614,W,000.01,064.6,010314,016.6,E,D*2A
$PGRME,2.4,M,2.4,M,3.4,M*29
$SPVHW,,,,,0.00,N,,*1A
$HCHDG,227.0,0.0,E,,*2E
$HCHDG,227.0,0.0,E,,*2E
$GPRMC,230030.8,A,4741.16312,N,12224.18614,W,000.00,064.6,010314,016.6,E,D*26
$PGRME,2.4,M,2.4,M,3.4,M*29
$SPVHW,,,,,0.00,N,,*1A
$HCHDG,227.0,0.0,E,,*2E
$HCHDG,227.0,0.0,E,,*2E
$GPRMC,230031.0,A,4741.16312,N,12224.18614,W,000.00,064.6,010314,016.6,E,D*2F
$GPRMB,A,3.71,L,,Lac,4823.3220,N,12229.7720,W,42.4,355,0.00,V*76
$PGRME,2.4,M,2.4,M,3.4,M*29
$SPVHW,,,,,0.00,N,,*1A
$YXXDR,A,4.5,D,PTCH,A,3.8,D,ROLL*57
$PTAK,FFD1,3.8*5E
$PTAK,FFP1,HEEL,@*07
$HCHDG,227.0,0.0,E,,*2E
$HCHDG,227.0,0.0,E,,*2E
$GPRMC,230031.2,A,4741.16312,N,12224.18614,W,000.01,064.6,010314,016.6,E,D*2C
$PGRME,2.4,M,2.4,M,3.4,M*29
$SPVHW,,,,,0.00,N,,*1A
$HCHDG,227.0,0.0,E,,*2E
$HCHDG,227.0,0.0,E,,*2E
$GPRMC,230031.4,A,4741.16312,N,12224.18614,W,000.01,064.6,010314,016.6,E,D*2A
$SPVHW,,,,,0.00,N,,*1A
$PGRME,2.4,M,2.4,M,3.4,M*29
$HCHDG,227.0,0.0,E,,*2E
$YXXDR,A,4.5,D,PTCH,A,3.8,D,ROLL*57
$HCHDG,227.0,0.0,E,,*2E
$GPRMC,230031.6,A,4741.16312,N,12224.18614,W,000.00,064.6,010314,016.6,E,D*29
$PGRME,2.4,M,2.4,M,3.4,M*29
$SPVHW,,,,,0.00,N,,*1A
$HCHDG,227.0,0.0,E,,*2E
$HCHDG,227.0,0.0,E,,*2E
$GPRMC,230031.8,A,4741.16311,N,12224.18614,W,000.01,064.6,010314,016.6,E,D*25
$SPVHW,,,,,0.00,N,,*1A
$PGRME,2.4,M,2.4,M,3.4,M*29
$HCHDG,227.0,0.0,E,,*2E
$HCHDG,227.0,0.0,E,,*2E
$GPRMC,230032.0,A,4741.16312,N,12224.18614,W,000.00,064.6,010314,016.6,E,D*2C
$SPVHW,,,,,0.00,N,,*1A
$PGRME,2.4,M,2.4,M,3.4,M*29
$YXXDR,A,4.5,D,PTCH,A,3.8,D,ROLL*57
$HCHDG,227.0,0.0,E,,*2E
$HCHDG,227.0,0.0,E,,*2E
$GPRMC,230032.2,A,4741.16311,N,12224.18614,W,000.01,064.6,010314,016.6,E,D*2C
$GPRMB,A,3.71,L,,Lac,4823.3220,N,12229.7720,W,42.4,355,0.00,V*76
$SPVHW,,,,,0.00,N,,*1A
$PGRME,2.4,M,2.4,M,3.4,M*29
$HCHDG,227.1,0.0,E,,*2F
$HCHDG,227.1,0.0,E,,*2F
$GPRMC,230032.4,A,4741.16311,N,12224.18614,W,000.00,064.6,010314,016.6,E,D*2B
$SPVHW,,,,,0.00,N,,*1A
$PGRME,2.4,M,2.4,M,3.4,M*29
$HCHDG,227.0,0.0,E,,*2E
$YXXDR,A,4.5,D,PTCH,A,3.8,D,ROLL*57
$PTAK,FFD1,3.8*5E
$HCHDG,227.0,0.0,E,,*2E
$GPRMC,230032.6,A,4741.16311,N,12224.18614,W,000.01,064.6,010314,016.6,E,D*28
$PGRME,2.4,M,2.4,M,3.4,M*29
$SPVHW,,,,,0.00,N,,*1A
$HCHDG,227.0,0.0,E,,*2E
$HCHDG,227.0,0.0,E,,*2E
$GPRMC,230032.8,A,4741.16311,N,12224.18614,W,000.00,064.6,010314,016.6,E,D*27
$PGRME,2.4,M,2.4,M,3.4,M*29
$SPVHW,,,,,0.00,N,,*1A
$HCHDG,227.0,0.0,E,,*2E
$HCHDG,227.0,0.0,E,,*2E
$GPRMC,230033.0,A,4741.16312,N,12224.18615,W,000.00,064.6,010314,016.6,E,D*2C
$SPVHW,,,,,0.00,N,,*1A
$PGRME,2.4,M,2.4,M,3.4,M*29
$YXXDR,A,4.5,D,PTCH,A,3.8,D,ROLL*57
$HCHDG,227.0,0.0,E,,*2E
$HCHDG,227.0,0.0,E,,*2E
$GPRMC,230033.2,A,4741.16312,N,12224.18615,W,000.01,064.6,010314,016.6,E,D*2F
$PGRME,2.4,M,2.4,M,3.4,M*29
$SPVHW,,,,,0.00,N,,*1A
$HCHDG,227.0,0.0,E,,*2E
$HCHDG,227.0,0.0,E,,*2E
$GPRMC,230033.4,A,4741.16312,N,12224.18615,W,000.00,064.6,010314,016.6,E,D*28
$GPRMB,A,3.71,L,,Lac,4823.3220,N,12229.7720,W,42.4,355,0.00,V*76
$SPVHW,,,,,0.00,N,,*1A
$PGRME,2.4,M,2.4,M,3.4,M*29
$HCHDG,227.0,0.0,E,,*2E
$YXXDR,A,4.5,D,PTCH,A,3.8,D,ROLL*57
$PTAK,FFD1,3.8*5E
$HCHDG,227.0,0.0,E,,*2E
$GPRMC,230033.6,A,4741.16312,N,12224.18615,W,000.00,064.6,010314,016.6,E,D*2A
$SPVHW,,,,,0.00,N,,*1A
$PGRME,2.4,M,2.4,M,3.4,M*29
$HCHDG,227.0,0.0,E,,*2E
$HCHDG,227.0,0.0,E,,*2E
$GPRMC,230033.8,A,4741.16312,N,12224.18615,W,000.01,064.6,010314,016.6,E,D*25
$SPVHW,,,,,0.00,N,,*1A
$PGRME,2.4,M,2.4,M,3.4,M*29
$HCHDG,227.0,0.0,E,,*2E
$HCHDG,227.0,0.0,E,,*2E
$GPRMC,230034.0,A,4741.16312,N,12224.18615,W,000.01,064.6,010314,016.6,E,D*2A
$SPVHW,,,,,0.00,N,,*1A
$PGRME,2.4,M,2.4,M,3.4,M*29
$YXXDR,A,4.5,D,PTCH,A,3.8,D,ROLL*57
$HCHDG,227.0,0.0,E,,*2E
$HCHDG,227.0,0.0,E,,*2E
$GPRMC,230034.2,A,4741.16312,N,12224.18615,W,000.00,064.6,010314,016.6,E,D*29
$SPVHW,,,,,0.00,N,,*1A
$PGRME,2.4,M,2.4,M,3.4,M*29
$HCHDG,227.0,0.0,E,,*2E
$HCHDG,227.0,0.0,E,,*2E
$GPRMC,230034.4,A,4741.16312,N,12224.18615,W,000.00,064.6,010314,016.6,E,D*2F
$SPVHW,,,,,0.00,N,,*1A
$PGRME,2.4,M,2.4,M,3.4,M*29
$HCHDG,227.0,0.0,E,,*2E
$YXXDR,A,4.7,D,PTCH,A,3.9,D,ROLL*54
$HCHDG,227.0,0.0,E,,*2E
$GPRMC,230034.6,A,4741.16312,N,12224.18615,W,000.01,064.6,010314,016.6,E,D*2C
$GPRMB,A,3.71,L,,Lac,4823.3220,N,12229.7720,W,42.4,355,0.00,V*76
$SPVHW,,,,,0.00,N,,*1A
$PGRME,2.4,M,2.4,M,3.4,M*29
$HCHDG,227.0,0.0,E,,*2E
$HCHDG,227.0,0.0,E,,*2E
$GPRMC,230034.8,A,4741.16312,N,12224.18615,W,000.00,064.6,010314,016.6,E,D*23
$SPVHW,,,,,0.00,N,,*1A
$PGRME,2.4,M,2.4,M,3.4,M*29
$HCHDG,227.0,0.0,E,,*2E
$HCHDG,227.0,0.0,E,,*2E
$GPRMC,230035.0,A,4741.16312,N,12224.18615,W,000.00,064.6,010314,016.6,E,D*2A
$SPVHW,,,,,0.00,N,,*1A
$PGRME,2.4,M,2.4,M,3.4,M*29
$YXXDR,A,4.5,D,PTCH,A,3.8,D,ROLL*57
$PTAK,FFD1,3.8*5E
$HCHDG,227.0,0.0,E,,*2E
$HCHDG,227.0,0.0,E,,*2E
$GPRMC,230035.2,A,4741.16312,N,12224.18615,W,000.01,064.6,010314,016.6,E,D*29
$SPVHW,,,,,0.00,N,,*1A
$PGRME,2.4,M,2.4,M,3.4,M*29
$HCHDG,227.0,0.0,E,,*2E
$PTAK,FFP1,HEEL,@*07
$HCHDG,227.0,0.0,E,,*2E
$GPRMC,230035.4,A,4741.16312,N,12224.18615,W,000.01,064.6,010314,016.6,E,D*2F
$SPVHW,,,,,0.00,N,,*1A
$PGRME,2.4,M,2.4,M,3.4,M*29
$HCHDG,227.0,0.0,E,,*2E
$YXXDR,A,4.5,D,PTCH,A,3.8,D,ROLL*57
$HCHDG,227.0,0.0,E,,*2E
$GPRMC,230035.6,A,4741.16312,N,12224.18615,W,000.00,064.6,010314,016.6,E,D*2C
$GPRMB,A,3.71,L,,Lac,4823.3220,N,12229.7720,W,42.4,355,0.00,V*76
$PGRME,2.4,M,2.4,M,3.4,M*29
$SPVHW,,,,,0.00,N,,*1A
$HCHDG,227.0,0.0,E,,*2E
$HCHDG,227.0,0.0,E,,*2E
$GPRMC,230035.8,A,4741.16312,N,12224.18615,W,000.00,064.6,010314,016.6,E,D*22
$SPVHW,,,,,0.00,N,,*1A
$PGRME,2.4,M,2.4,M,3.4,M*29
$HCHDG,227.0,0.0,E,,*2E
$HCHDG,227.0,0.0,E,,*2E
$GPRMC,230036.0,A,4741.16312,N,12224.18615,W,000.01,064.6,010314,016.6,E,D*28
$SPVHW,,,,,0.00,N,,*1A
$PGRME,2.4,M,2.4,M,3.4,M*29
$YXXDR,A,4.5,D,PTCH,A,3.8,D,ROLL*57
$HCHDG,227.0,0.0,E,,*2E
$HCHDG,227.0,0.0,E,,*2E
$GPRMC,230036.2,A,4741.16312,N,12224.18615,W,000.01,064.6,010314,016.6,E,D*2A
$SPVHW,,,,,0.00,N,,*1A
$PGRME,2.4,M,2.4,M,3.4,M*29
$HCHDG,227.0,0.0,E,,*2E
$HCHDG,227.0,0.0,E,,*2E
$GPRMC,230036.4,A,4741.16312,N,12224.18614,W,000.00,064.6,010314,016.6,E,D*2C
$SPVHW,,,,,0.00,N,,*1A
$PGRME,2.4,M,2.4,M,3.4,M*29
$HCHDG,227.0,0.0,E,,*2E
$YXXDR,A,4.7,D,PTCH,A,3.9,D,ROLL*54
$PTAK,FFD1,3.9*5F
$HCHDG,227.0,0.0,E,,*2E
$GPRMC,230036.6,A,4741.16312,N,12224.18614,W,000.00,064.6,010314,016.6,E,D*2E
$GPRMB,A,3.71,L,,Lac,4823.3220,N,12229.7720,W,42.4,355,0.00,V*76
$SPVHW,,,,,0.00,N,,*1A
$PGRME,2.4,M,2.4,M,3.4,M*29
$HCHDG,227.0,0.0,E,,*2E
$HCHDG,227.0,0.0,E,,*2E
$GPRMC,230036.8,A,4741.16312,N,12224.18614,W,000.01,064.6,010314,016.6,E,D*21
$SPVHW,,,,,0.00,N,,*1A
$PGRME,2.4,M,2.4,M,3.4,M*29
$HCHDG,227.0,0.0,E,,*2E
$HCHDG,227.0,0.0,E,,*2E
$GPRMC,230037.0,A,4741.16312,N,12224.18614,W,000.00,064.6,010314,016.6,E,D*29
$SPVHW,,,,,0.00,N,,*1A
$PGRME,2.4,M,2.4,M,3.4,M*29
$YXXDR,A,4.5,D,PTCH,A,3.8,D,ROLL*57
$HCHDG,227.0,0.0,E,,*2E
$HCHDG,227.0,0.0,E,,*2E
$GPRMC,230037.2,A,4741.16312,N,12224.18614,W,000.00,064.6,010314,016.6,E,D*2B
$SPVHW,,,,,0.00,N,,*1A
$PGRME,2.4,M,2.4,M,3.4,M*29
$HCHDG,227.0,0.0,E,,*2E
$HCHDG,227.0,0.0,E,,*2E
$GPRMC,230037.4,A,4741.16312,N,12224.18614,W,000.00,064.6,010314,016.6,E,D*2D
$SPVHW,,,,,0.00,N,,*1A
$PGRME,2.4,M,2.4,M,3.4,M*29
$HCHDG,227.0,0.0,E,,*2E
$YXXDR,A,4.7,D,PTCH,A,3.9,D,ROLL*54
$PTAK,FFD1,3.9*5F
$HCHDG,227.0,0.0,E,,*2E
$GPRMC,230037.6,A,4741.16312,N,12224.18614,W,000.01,064.6,010314,016.6,E,D*2E
$GPRMB,A,3.71,L,,Lac,4823.3220,N,12229.7720,W,42.4,355,0.00,V*76
$SPVHW,,,,,0.00,N,,*1A
$PGRME,2.4,M,2.4,M,3.4,M*29
$HCHDG,227.0,0.0,E,,*2E
$HCHDG,227.0,0.0,E,,*2E
$GPRMC,230037.8,A,4741.16312,N,12224.18614,W,000.00,064.6,010314,016.6,E,D*21
$SPVHW,,,,,0.00,N,,*1A
$PGRME,2.4,M,2.4,M,3.4,M*29
$HCHDG,227.0,0.0,E,,*2E
$HCHDG,227.0,0.0,E,,*2E
$GPRMC,230038.0,A,4741.16312,N,12224.18614,W,000.00,064.6,010314,016.6,E,D*26
$SPVHW,,,,,0.00,N,,*1A
$PGRME,2.4,M,2.4,M,3.4,M*29
$YXXDR,A,4.5,D,PTCH,A,3.8,D,ROLL*57
$HCHDG,227.0,0.0,E,,*2E
$HCHDG,227.0,0.0,E,,*2E
$GPRMC,230038.2,A,4741.16312,N,12224.18614,W,000.00,064.6,010314,016.6,E,D*24
$SPVHW,,,,,0.00,N,,*1A
$PGRME,2.4,M,2.4,M,3.4,M*29
$HCHDG,227.0,0.0,E,,*2E
$HCHDG,227.0,0.0,E,,*2E
$GPRMC,230038.4,A,4741.16312,N,12224.18614,W,000.00,064.6,010314,016.6,E,D*22
$SPVHW,,,,,0.00,N,,*1A
$PGRME,2.4,M,2.4,M,3.4,M*29
$HCHDG,227.0,0.0,E,,*2E
$YXXDR,A,4.5,D,PTCH,A,3.8,D,ROLL*57
$PTAK,FFD1,3.8*5E
$HCHDG,227.0,0.0,E,,*2E
$GPRMC,230038.6,A,4741.16312,N,12224.18614,W,000.00,064.6,010314,016.6,E,D*20
$GPRMB,A,3.71,L,,Lac,4823.3220,N,12229.7720,W,42.4,355,0.00,V*76
$SPVHW,,,,,0.00,N,,*1A
$PGRME,2.4,M,2.4,M,3.4,M*29
$HCHDG,227.0,0.0,E,,*2E
$HCHDG,227.0,0.0,E,,*2E
$GPRMC,230038.8,A,4741.16312,N,12224.18614,W,000.00,064.6,010314,016.6,E,D*2E
$SPVHW,,,,,0.00,N,,*1A
$PGRME,2.4,M,2.4,M,3.4,M*29
$HCHDG,227.0,0.0,E,,*2E
$HCHDG,227.0,0.0,E,,*2E
$GPRMC,230039.0,A,4741.16312,N,12224.18614,W,000.00,064.6,010314,016.6,E,D*27
$PGRME,2.4,M,2.4,M,3.4,M*29
$SPVHW,,,,,0.00,N,,*1A
$YXXDR,A,4.5,D,PTCH,A,3.8,D,ROLL*57
$HCHDG,226.9,0.0,E,,*26
$HCHDG,226.9,0.0,E,,*26
$GPRMC,230039.2,A,4741.16313,N,12224.18614,W,000.01,064.6,010314,016.6,E,D*25
$PGRME,2.4,M,2.4,M,3.4,M*29
$SPVHW,,,,,0.00,N,,*1A
$HCHDG,226.9,0.0,E,,*26
$HCHDG,226.9,0.0,E,,*26
$PTAK,FFP1,HEEL,@*07
$GPRMC,230039.4,A,4741.16313,N,12224.18613,W,000.00,064.6,010314,016.6,E,D*25
$SPVHW,,,,,0.00,N,,*1A
$PGRME,2.4,M,2.4,M,3.4,M*29
$HCHDG,226.9,0.0,E,,*26
$YXXDR,A,4.5,D,PTCH,A,3.8,D,ROLL*57
$HCHDG,227.2,0.0,E,,*2C
$GPRMC,230039.6,A,4741.16313,N,12224.18613,W,000.01,064.6,010314,016.6,E,D*26
$PGRME,2.4,M,2.4,M,3.4,M*29
$SPVHW,,,,,0.00,N,,*1A
$HCHDG,227.2,0.0,E,,*2C
$HCHDG,227.2,0.0,E,,*2C
$GPRMC,230039.8,A,4741.16313,N,12224.18613,W,000.00,064.6,010314,016.6,E,D*29
$GPRMB,A,3.71,L,,Lac,4823.3220,N,12229.7720,W,42.4,355,0.00,V*76
$SPVHW,,,,,0.00,N,,*1A
$PGRME,2.4,M,2.4,M,3.4,M*29
$HCHDG,227.2,0.0,E,,*2C
$HCHDG,227.2,0.0,E,,*2C
$GPRMC,230040.0,A,4741.16313,N,12224.18613,W,000.00,064.6,010314,016.6,E,D*2F
$SPVHW,,,,,0.00,N,,*1A
$PGRME,2.4,M,2.4,M,3.4,M*29
$YXXDR,A,4.5,D,PTCH,A,3.8,D,ROLL*57
$PTAK,FFD1,3.8*5E
$HCHDG,227.2,0.0,E,,*2C
$HCHDG,227.2,0.0,E,,*2C
$GPRMC,230040.2,A,4741.16313,N,12224.18613,W,000.00,064.6,010314,016.6,E,D*2D
$SPVHW,,,,,0.00,N,,*1A
$PGRME,2.4,M,2.4,M,3.4,M*29
$HCHDG,227.3,0.0,E,,*2D
$HCHDG,227.3,0.0,E,,*2D
$GPRMC,230040.4,A,4741.16313,N,12224.18613,W,000.00,064.6,010314,016.6,E,D*2B
$SPVHW,,,,,0.00,N,,*1A
$PGRME,2.4,M,2.4,M,3.4,M*29
$HCHDG,227.3,0.0,E,,*2D
$YXXDR,A,4.5,D,PTCH,A,3.8,D,ROLL*57
$HCHDG,227.3,0.0,E,,*2D
$GPRMC,230040.6,A,4741.16313,N,12224.18612,W,000.01,064.6,010314,016.6,E,D*29
$SPVHW,,,,,0.00,N,,*1A
$PGRME,2.4,M,2.4,M,3.4,M*29
$HCHDG,227.3,0.0,E,,*2D
$HCHDG,227.3,0.0,E,,*2D
$GPRMC,230040.8,A,4741.16313,N,12224.18612,W,000.00,064.6,010314,016.6,E,D*26
$SPVHW,,,,,0.00,N,,*1A
$PGRME,2.4,M,2.4,M,3.4,M*29
$HCHDG,227.3,0.0,E,,*2D
$HCHDG,227.3,0.0,E,,*2D
$GPRMC,230041.0,A,4741.16313,N,12224.18612,W,000.00,064.6,010314,016.6,E,D*2F
$GPRMB,A,3.71,L,,Lac,4823.3220,N,12229.7720,W,42.4,355,0.00,V*76
$SPVHW,,,,,0.00,N,,*1A
$PGRME,2.4,M,2.4,M,3.4,M*29
$YXXDR,A,4.7,D,PTCH,A,3.9,D,ROLL*54
$PTAK,FFD1,3.9*5F
$HCHDG,227.3,0.0,E,,*2D
$HCHDG,227.3,0.0,E,,*2D
$GPRMC,230041.2,A,4741.16313,N,12224.18612,W,000.00,064.6,010314,016.6,E,D*2D
$SPVHW,,,,,0.00,N,,*1A
$PGRME,2.4,M,2.4,M,3.4,M*29
$HCHDG,227.3,0.0,E,,*2D
$HCHDG,227.3,0.0,E,,*2D
$GPRMC,230041.4,A,4741.16313,N,12224.18612,W,000.00,064.6,010314,016.6,E,D*2B
$SPVHW,,,,,0.00,N,,*1A
$PGRME,2.4,M,2.4,M,3.4,M*29
$HCHDG,227.3,0.0,E,,*2D
$YXXDR,A,4.5,D,PTCH,A,3.8,D,ROLL*57
$HCHDG,227.3,0.0,E,,*2D
$GPRMC,230041.6,A,4741.16313,N,12224.18611,W,000.00,064.6,010314,016.6,E,D*2A
$PGRME,2.4,M,2.4,M,3.4,M*29
$SPVHW,,,,,0.00,N,,*1A
$HCHDG,227.3,0.0,E,,*2D
$HCHDG,227.3,0.0,E,,*2D
$GPRMC,230041.8,A,4741.16313,N,12224.18611,W,000.00,064.6,010314,016.6,E,D*24
$SPVHW,,,,,0.00,N,,*1A
$PGRME,2.4,M,2.4,M,3.4,M*29
$HCHDG,227.3,0.0,E,,*2D
$HCHDG,227.3,0.0,E,,*2D
$GPRMC,230042.0,A,4741.16313,N,12224.18611,W,000.00,064.6,010314,016.6,E,D*2F
$SPVHW,,,,,0.00,N,,*1A
$PGRME,2.4,M,2.4,M,3.4,M*29
$YXXDR,A,4.5,D,PTCH,A,3.8,D,ROLL*57
$HCHDG,227.3,0.0,E,,*2D
$HCHDG,227.3,0.0,E,,*2D
$GPRMC,230042.2,A,4741.16313,N,12224.18611,W,000.00,064.6,010314,016.6,E,D*2D
$GPRMB,A,3.71,L,,Lac,4823.3220,N,12229.7720,W,42.4,355,0.00,V*76
$SPVHW,,,,,0.00,N,,*1A
$PGRME,2.4,M,2.4,M,3.4,M*29
$HCHDG,227.3,0.0,E,,*2D
$HCHDG,227.3,0.0,E,,*2D
$GPRMC,230042.4,A,4741.16313,N,12224.18611,W,000.00,064.6,010314,016.6,E,D*2B
$SPVHW,,,,,0.00,N,,*1A
$PGRME,2.4,M,2.4,M,3.4,M*29
$HCHDG,227.3,0.0,E,,*2D
$YXXDR,A,4.5,D,PTCH,A,3.8,D,ROLL*57
$PTAK,FFD1,3.8*5E
$HCHDG,227.3,0.0,E,,*2D
$GPRMC,230042.6,A,4741.16313,N,12224.18611,W,000.00,064.6,010314,016.6,E,D*29
$SPVHW,,,,,0.00,N,,*1A
$PGRME,2.4,M,2.4,M,3.4,M*29
$HCHDG,227.3,0.0,E,,*2D
$HCHDG,227.3,0.0,E,,*2D
$GPRMC,230042.8,A,4741.16313,N,12224.18610,W,000.00,064.6,010314,016.6,E,D*26
$SPVHW,,,,,0.00,N,,*1A
$PGRME,2.4,M,2.4,M,3.4,M*29
$HCHDG,227.3,0.0,E,,*2D
$HCHDG,227.3,0.0,E,,*2D
$GPRMC,230043.0,A,4741.16313,N,12224.18610,W,000.00,064.6,010314,016.6,E,D*2F
$SPVHW,,,,,0.00,N,,*1A
$PGRME,2.4,M,2.4,M,3.4,M*29
$YXXDR,A,4.5,D,PTCH,A,3.8,D,ROLL*57
$HCHDG,227.3,0.0,E,,*2D
$HCHDG,227.3,0.0,E,,*2D
$GPRMC,230043.2,A,4741.16313,N,12224.18610,W,000.01,064.6,010314,016.6,E,D*2C
$SPVHW,,,,,0.00,N,,*1A
$PGRME,2.4,M,2.4,M,3.4,M*29
$HCHDG,227.3,0.0,E,,*2D
$HCHDG,227.3,0.0,E,,*2D
$GPRMC,230043.4,A,4741.16313,N,12224.18610,W,000.00,064.6,010314,016.6,E,D*2B
$GPRMB,A,3.71,L,,Lac,4823.3220,N,12229.7720,W,42.4,355,0.00,V*76
$PTAK,FFP1,HEEL,@*07
$SPVHW,,,,,0.00,N,,*1A
$PGRME,2.4,M,2.4,M,3.4,M*29
$HCHDG,227.3,0.0,E,,*2D
$YXXDR,A,4.5,D,PTCH,A,3.8,D,ROLL*57
$PTAK,FFD1,3.8*5E
$HCHDG,227.3,0.0,E,,*2D
$GPRMC,230043.6,A,4741.16313,N,12224.18610,W,000.01,064.6,010314,016.6,E,D*28
$SPVHW,,,,,0.00,N,,*1A
$PGRME,2.4,M,2.4,M,3.4,M*29
$HCHDG,227.3,0.0,E,,*2D
$HCHDG,227.3,0.0,E,,*2D
$GPRMC,230043.8,A,4741.16313,N,12224.18610,W,000.00,064.6,010314,016.6,E,D*27
$SPVHW,,,,,0.00,N,,*1A
$PGRME,2.4,M,2.4,M,3.4,M*29
$HCHDG,227.3,0.0,E,,*2D
$HCHDG,227.3,0.0,E,,*2D
$GPRMC,230044.0,A,4741.16313,N,12224.18610,W,000.01,064.6,010314,016.6,E,D*29
$SPVHW,,,,,0.00,N,,*1A
$PGRME,2.4,M,2.4,M,3.4,M*29
$PGRMT,GPS 18x-5Hz software ver. 3.20,,,,,,,,*30
$YXXDR,A,4.5,D,PTCH,A,3.8,D,ROLL*57
$HCHDG,227.3,0.0,E,,*2D
$HCHDG,227.3,0.0,E,,*2D
$GPRMC,230044.2,A,4741.16312,N,12224.18609,W,000.01,064.6,010314,016.6,E,D*22
$SPVHW,,,,,0.00,N,,*1A
$PGRME,2.4,M,2.4,M,3.4,M*29
$HCHDG,227.3,0.0,E,,*2D
$HCHDG,227.3,0.0,E,,*2D
$GPRMC,230044.4,A,4741.16312,N,12224.18609,W,000.01,064.6,010314,016.6,E,D*24
$SPVHW,,,,,0.00,N,,*1A
$PGRME,2.4,M,2.4,M,3.4,M*29
$HCHDG,227.3,0.0,E,,*2D
$YXXDR,A,4.5,D,PTCH,A,3.8,D,ROLL*57
$HCHDG,227.3,0.0,E,,*2D
$GPRMC,230044.6,A,4741.16312,N,12224.18609,W,000.00,064.6,010314,016.6,E,D*27
$GPRMB,A,3.71,L,,Lac,4823.3220,N,12229.7720,W,42.4,355,0.00,V*76
$SPVHW,,,,,0.00,N,,*1A
$PGRME,2.4,M,2.4,M,3.4,M*29
$HCHDG,227.3,0.0,E,,*2D
$HCHDG,227.3,0.0,E,,*2D
$GPRMC,230044.8,A,4741.16312,N,12224.18609,W,000.00,064.6,010314,016.6,E,D*29
$SPVHW,,,,,0.00,N,,*1A
$PGRME,2.4,M,2.4,M,3.4,M*29
$HCHDG,227.3,0.0,E,,*2D
$HCHDG,227.3,0.0,E,,*2D
$GPRMC,230045.0,A,4741.16312,N,12224.18609,W,000.00,064.6,010314,016.6,E,D*20
$SPVHW,,,,,0.00,N,,*1A
$PGRME,2.4,M,2.4,M,3.4,M*29
$YXXDR,A,4.5,D,PTCH,A,3.8,D,ROLL*57
$PTAK,FFD1,3.8*5E
$HCHDG,227.3,0.0,E,,*2D
$HCHDG,227.3,0.0,E,,*2D
$GPRMC,230045.2,A,4741.16312,N,12224.18609,W,000.00,064.6,010314,016.6,E,D*22
$SPVHW,,,,,0.00,N,,*1A
$PGRME,2.4,M,2.4,M,3.4,M*29
$HCHDG,227.3,0.0,E,,*2D
$HCHDG,227.3,0.0,E,,*2D
$GPRMC,230045.4,A,4741.16312,N,12224.18609,W,000.00,064.6,010314,016.6,E,D*24
$SPVHW,,,,,0.00,N,,*1A
$PGRME,2.4,M,2.4,M,3.4,M*29
$HCHDG,227.3,0.0,E,,*2D
$YXXDR,A,4.5,D,PTCH,A,3.8,D,ROLL*57
$HCHDG,227.3,0.0,E,,*2D
$GPRMC,230045.6,A,4741.16312,N,12224.18609,W,000.00,064.6,010314,016.6,E,D*26
$GPRMB,A,3.71,L,,Lac,4823.3220,N,12229.7720,W,42.4,355,0.00,V*76
$SPVHW,,,,,0.00,N,,*1A
$PGRME,2.4,M,2.4,M,3.4,M*29
$HCHDG,227.3,0.0,E,,*2D
$HCHDG,227.3,0.0,E,,*2D
$GPRMC,230045.8,A,4741.16312,N,12224.18609,W,000.01,064.6,010314,016.6,E,D*29
$SPVHW,,,,,0.00,N,,*1A
$PGRME,2.4,M,2.4,M,3.4,M*29
$HCHDG,227.3,0.0,E,,*2D
$HCHDG,227.3,0.0,E,,*2D
$GPRMC,230046.0,A,4741.16312,N,12224.18609,W,000.00,064.6,010314,016.6,E,D*23
$SPVHW,,,,,0.00,N,,*1A
$PGRME,2.4,M,2.4,M,3.4,M*29
$YXXDR,A,4.5,D,PTCH,A,3.8,D,ROLL*57
$HCHDG,227.3,0.0,E,,*2D
$HCHDG,227.2,0.0,E,,*2C
$GPRMC,230046.2,A,4741.16312,N,12224.18609,W,000.01,064.6,010314,016.6,E,D*20
$SPVHW,,,,,0.00,N,,*1A
$PGRME,2.4,M,2.4,M,3.4,M*29
$HCHDG,227.2,0.0,E,,*2C
$HCHDG,227.2,0.0,E,,*2C
$GPRMC,230046.4,A,4741.16312,N,12224.18609,W,000.01,064.6,010314,016.6,E,D*26
$SPVHW,,,,,0.00,N,,*1A
$PGRME,2.4,M,2.4,M,3.4,M*29
$HCHDG,227.2,0.0,E,,*2C
$YXXDR,A,4.5,D,PTCH,A,3.8,D,ROLL*57
$PTAK,FFD1,3.8*5E
$HCHDG,227.2,0.0,E,,*2C
$GPRMC,230046.6,A,4741.16311,N,12224.18609,W,000.01,064.6,010314,016.6,E,D*27
$GPRMB,A,3.71,L,,Lac,4823.3220,N,12229.7720,W,42.4,355,0.00,V*76
$PGRME,2.4,M,2.4,M,3.4,M*29
$SPVHW,,,,,0.00,N,,*1A
$HCHDG,227.2,0.0,E,,*2C
$HCHDG,227.2,0.0,E,,*2C
$GPRMC,230046.8,A,4741.16311,N,12224.18609,W,000.01,064.6,010314,016.6,E,D*29
$SPVHW,,,,,0.00,N,,*1A
$PGRME,2.4,M,2.4,M,3.4,M*29
$HCHDG,227.2,0.0,E,,*2C
$HCHDG,227.2,0.0,E,,*2C
$GPRMC,230047.0,A,4741.16311,N,12224.18609,W,000.01,064.6,010314,016.6,E,D*20
$SPVHW,,,,,0.00,N,,*1A
$PGRME,2.4,M,2.4,M,3.4,M*29
$YXXDR,A,4.5,D,PTCH,A,3.8,D,ROLL*57
$HCHDG,227.2,0.0,E,,*2C
$HCHDG,227.2,0.0,E,,*2C
$GPRMC,230047.2,A,4741.16311,N,12224.18609,W,000.00,064.6,010314,016.6,E,D*23
$SPVHW,,,,,0.00,N,,*1A
$PGRME,2.4,M,2.4,M,3.4,M*29
$HCHDG,227.2,0.0,E,,*2C
$HCHDG,227.2,0.0,E,,*2C
$GPRMC,230047.4,A,4741.16311,N,12224.18609,W,000.01,064.6,010314,016.6,E,D*24
$SPVHW,,,,,0.00,N,,*1A
$PGRME,2.4,M,2.4,M,3.4,M*29
$HCHDG,227.2,0.0,E,,*2C
$PTAK,FFP1,HEEL,@*07
$YXXDR,A,4.5,D,PTCH,A,3.8,D,ROLL*57
$HCHDG,227.2,0.0,E,,*2C
$GPRMC,230047.6,A,4741.16311,N,12224.18609,W,000.01,064.6,010314,016.6,E,D*26
$SPVHW,,,,,0.00,N,,*1A
$PGRME,2.4,M,2.4,M,3.4,M*29
$HCHDG,227.2,0.0,E,,*2C
$HCHDG,227.2,0.0,E,,*2C
$GPRMC,230047.8,A,4741.16311,N,12224.18609,W,000.01,064.6,010314,016.6,E,D*28
$GPRMB,A,3.71,L,,Lac,4823.3220,N,12229.7720,W,42.4,355,0.00,V*76
$SPVHW,,,,,0.00,N,,*1A
$PGRME,2.4,M,2.4,M,3.4,M*29
$HCHDG,227.2,0.0,E,,*2C
$HCHDG,227.2,0.0,E,,*2C
$GPRMC,230048.0,A,4741.16311,N,12224.18608,W,000.01,064.6,010314,016.6,E,D*2E
$SPVHW,,,,,0.00,N,,*1A
$PGRME,2.4,M,2.4,M,3.4,M*29
$YXXDR,A,4.7,D,PTCH,A,3.9,D,ROLL*54
$PTAK,FFD1,3.9*5F
$HCHDG,227.2,0.0,E,,*2C
$HCHDG,227.2,0.0,E,,*2C
$GPRMC,230048.2,A,4741.16311,N,12224.18608,W,000.00,064.6,010314,016.6,E,D*2D
$SPVHW,,,,,0.00,N,,*1A
$PGRME,2.4,M,2.4,M,3.4,M*29
$HCHDG,227.3,0.0,E,,*2D
$HCHDG,227.3,0.0,E,,*2D
$GPRMC,230048.4,A,4741.16311,N,12224.18608,W,000.00,064.6,010314,016.6,E,D*2B
$SPVHW,,,,,0.00,N,,*1A
$PGRME,2.4,M,2.4,M,3.4,M*29
$HCHDG,227.3,0.0,E,,*2D
$YXXDR,A,4.5,D,PTCH,A,3.8,D,ROLL*57
$HCHDG,227.3,0.0,E,,*2D
$GPRMC,230048.6,A,4741.16311,N,12224.18608,W,000.00,064.6,010314,016.6,E,D*29
$SPVHW,,,,,0.00,N,,*1A
$PGRME,2.4,M,2.4,M,3.4,M*29
$HCHDG,227.3,0.0,E,,*2D
$HCHDG,227.3,0.0,E,,*2D
$GPRMC,230048.8,A,4741.16311,N,12224.18608,W,000.01,064.6,010314,016.6,E,D*26
$GPRMB,A,3.71,L,,Lac,4823.3220,N,12229.7720,W,42.4,355,0.00,V*76
$SPVHW,,,,,0.00,N,,*1A
$PGRME,2.4,M,2.4,M,3.4,M*29
$HCHDG,227.3,0.0,E,,*2D
$HCHDG,227.3,0.0,E,,*2D
$GPRMC,230049.0,A,4741.16311,N,12224.18608,W,000.01,064.6,010314,016.6,E,D*2F
$SPVHW,,,,,0.00,N,,*1A
$PGRME,2.4,M,2.4,M,3.4,M*29
$YXXDR,A,4.5,D,PTCH,A,3.8,D,ROLL*57
$PTAK,FFD1,3.8*5E
$HCHDG,227.3,0.0,E,,*2D
$HCHDG,227.2,0.0,E,,*2C
$GPRMC,230049.2,A,4741.16311,N,12224.18608,W,000.00,064.6,010314,016.6,E,D*2C
$SPVHW,,,,,0.00,N,,*1A
$PGRME,2.4,M,2.4,M,3.4,M*29
$HCHDG,227.2,0.0,E,,*2C
$HCHDG,227.2,0.0,E,,*2C
$GPRMC,230049.4,A,4741.16311,N,12224.18608,W,000.00,064.6,010314,016.6,E,D*2A
$SPVHW,,,,,0.00,N,,*1A
$PGRME,2.4,M,2.4,M,3.4,M*29
$HCHDG,227.3,0.0,E,,*2D
$YXXDR,A,4.5,D,PTCH,A,3.8,D,ROLL*57
$HCHDG,227.4,0.0,E,,*2A
$GPRMC,230049.6,A,4741.16311,N,12224.18608,W,000.01,064.6,010314,016.6,E,D*29
$SPVHW,,,,,0.00,N,,*1A
$PGRME,2.4,M,2.4,M,3.4,M*29
$HCHDG,227.4,0.0,E,,*2A
$HCHDG,227.4,0.0,E,,*2A
$GPRMC,230049.8,A,4741.16311,N,12224.18608,W,000.00,064.6,010314,016.6,E,D*26
$GPRMB,A,3.71,L,,Lac,4823.3220,N,12229.7720,W,42.4,355,0.00,V*76
$SPVHW,,,,,0.00,N,,*1A
$PGRME,2.4,M,2.4,M,3.4,M*29
$HCHDG,227.4,0.0,E,,*2A
$HCHDG,227.4,0.0,E,,*2A
$GPRMC,230050.0,A,4741.16311,N,12224.18608,W,000.00,064.6,010314,016.6,E,D*26
$SPVHW,,,,,0.00,N,,*1A
$PGRME,2.4,M,2.4,M,3.4,M*29
$YXXDR,A,4.5,D,PTCH,A,3.8,D,ROLL*57
$HCHDG,227.4,0.0,E,,*2A
$HCHDG,227.4,0.0,E,,*2A
$GPRMC,230050.2,A,4741.16311,N,12224.18609,W,000.00,064.6,010314,016.6,E,D*25
$SPVHW,,,,,0.00,N,,*1A
$PGRME,2.4,M,2.4,M,3.4,M*29
$HCHDG,227.4,0.0,E,,*2A
$HCHDG,227.4,0.0,E,,*2A
$GPRMC,230050.4,A,4741.16311,N,12224.18609,W,000.00,064.6,010314,016.6,E,D*23
$SPVHW,,,,,0.00,N,,*1A
$PGRME,2.4,M,2.4,M,3.4,M*29
$HCHDG,227.4,0.0,E,,*2A
$YXXDR,A,4.5,D,PTCH,A,3.8,D,ROLL*57
$PTAK,FFD1,3.8*5E
$HCHDG,227.4,0.0,E,,*2A
$GPRMC,230050.6,A,4741.16311,N,12224.18609,W,000.00,064.6,010314,016.6,E,D*21
$SPVHW,,,,,0.00,N,,*1A
$PGRME,2.4,M,2.4,M,3.4,M*29
$HCHDG,227.4,0.0,E,,*2A
$HCHDG,227.4,0.0,E,,*2A
$GPRMC,230050.8,A,4741.16311,N,12224.18609,W,000.00,064.6,010314,016.6,E,D*2F
$GPRMB,A,3.71,L,,Lac,4823.3220,N,12229.7720,W,42.4,355,0.00,V*76
$SPVHW,,,,,0.00,N,,*1A
$PGRME,2.4,M,2.4,M,3.4,M*29
$HCHDG,227.4,0.0,E,,*2A
$HCHDG,227.4,0.0,E,,*2A
$GPRMC,230051.0,A,4741.16311,N,12224.18609,W,000.01,064.6,010314,016.6,E,D*27
$SPVHW,,,,,0.00,N,,*1A
$PGRME,2.4,M,2.4,M,3.4,M*29
$YXXDR,A,4.5,D,PTCH,A,3.7,D,ROLL*58
$HCHDG,227.4,0.0,E,,*2A
$HCHDG,227.4,0.0,E,,*2A
$GPRMC,230051.2,A,4741.16311,N,12224.18609,W,000.00,064.6,010314,016.6,E,D*24
$SPVHW,,,,,0.00,N,,*1A
$PGRME,2.4,M,2.4,M,3.4,M*29
$HCHDG,227.3,0.0,E,,*2D
$HCHDG,227.3,0.0,E,,*2D
$GPRMC,230051.4,A,4741.16311,N,12224.18609,W,000.00,064.6,010314,016.6,E,D*22
$SPVHW,,,,,0.00,N,,*1A
$PGRME,2.4,M,2.4,M,3.4,M*29
$HCHDG,227.3,0.0,E,,*2D
$YXXDR,A,4.5,D,PTCH,A,3.8,D,ROLL*57
$PTAK,FFP1,HEEL,@*07
$HCHDG,227.3,0.0,E,,*2D
$GPRMC,230051.6,A,4741.16311,N,12224.18609,W,000.01,064.6,010314,016.6,E,D*21
$SPVHW,,,,,0.00,N,,*1A
$PGRME,2.4,M,2.4,M,3.4,M*29
$HCHDG,227.3,0.0,E,,*2D
$HCHDG,227.3,0.0,E,,*2D
$GPRMC,230051.8,A,4741.16311,N,12224.18609,W,000.00,064.6,010314,016.6,E,D*2E
$SPVHW,,,,,0.00,N,,*1A
$PGRME,2.4,M,2.4,M,3.4,M*29
$HCHDG,227.3,0.0,E,,*2D
$HCHDG,227.3,0.0,E,,*2D
$GPRMC,230052.0,A,4741.16311,N,12224.18609,W,000.01,064.6,010314,016.6,E,D*24
$GPRMB,A,3.71,L,,Lac,4823.3220,N,12229.7720,W,42.4,355,0.00,V*76
$SPVHW,,,,,0.00,N,,*1A
$PGRME,2.4,M,2.4,M,3.4,M*29
$YXXDR,A,4.5,D,PTCH,A,3.8,D,ROLL*57
$PTAK,FFD1,3.8*5E
$HCHDG,227.3,0.0,E,,*2D
$HCHDG,227.3,0.0,E,,*2D
$GPRMC,230052.2,A,4741.16311,N,12224.18609,W,000.01,064.6,010314,016.6,E,D*26
$SPVHW,,,,,0.00,N,,*1A
$PGRME,2.4,M,2.4,M,3.4,M*29
$HCHDG,227.3,0.0,E,,*2D
$HCHDG,227.3,0.0,E,,*2D
$GPRMC,230052.4,A,4741.16311,N,12224.18610,W,000.00,064.6,010314,016.6,E,D*29
$SPVHW,,,,,0.00,N,,*1A
$PGRME,2.4,M,2.4,M,3.4,M*29
$HCHDG,227.3,0.0,E,,*2D
$YXXDR,A,4.7,D,PTCH,A,3.9,D,ROLL*54
$HCHDG,227.3,0.0,E,,*2D
$GPRMC,230052.6,A,4741.16311,N,12224.18610,W,000.00,064.6,010314,016.6,E,D*2B
$SPVHW,,,,,0.00,N,,*1A
$PGRME,2.4,M,2.4,M,3.4,M*29
$HCHDG,227.3,0.0,E,,*2D
$HCHDG,227.3,0.0,E,,*2D
$GPRMC,230052.8,A,4741.16311,N,12224.18610,W,000.00,064.6,010314,016.6,E,D*25
$SPVHW,,,,,0.00,N,,*1A
$PGRME,2.4,M,2.4,M,3.4,M*29
$HCHDG,227.3,0.0,E,,*2D
$HCHDG,227.3,0.0,E,,*2D
$GPRMC,230053.0,A,4741.16311,N,12224.18610,W,000.01,064.6,010314,016.6,E,D*2D
$SPVHW,,,,,0.00,N,,*1A
$PGRME,2.4,M,2.4,M,3.4,M*29
$YXXDR,A,4.5,D,PTCH,A,3.8,D,ROLL*57
$HCHDG,227.3,0.0,E,,*2D
$HCHDG,227.3,0.0,E,,*2D
$GPRMC,230053.2,A,4741.16311,N,12224.18610,W,000.00,064.6,010314,016.6,E,D*2E
$GPRMB,A,3.71,L,,Lac,4823.3220,N,12229.7720,W,42.4,355,0.00,V*76
$SPVHW,,,,,0.00,N,,*1A
$PGRME,2.4,M,2.4,M,3.4,M*29
$HCHDG,227.3,0.0,E,,*2D
$HCHDG,227.3,0.0,E,,*2D
$GPRMC,230053.4,A,4741.16311,N,12224.18610,W,000.00,064.6,010314,016.6,E,D*28
$SPVHW,,,,,0.00,N,,*1A
$PGRME,2.4,M,2.4,M,3.4,M*29
$HCHDG,227.3,0.0,E,,*2D
$YXXDR,A,4.7,D,PTCH,A,3.9,D,ROLL*54
$PTAK,FFD1,3.9*5F
$HCHDG,227.3,0.0,E,,*2D
$GPRMC,230053.6,A,4741.16311,N,12224.18610,W,000.00,064.6,010314,016.6,E,D*2A
$PGRME,2.4,M,2.4,M,3.4,M*29
$SPVHW,,,,,0.00,N,,*1A
$HCHDG,227.3,0.0,E,,*2D
$HCHDG,227.3,0.0,E,,*2D
$GPRMC,230053.8,A,4741.16311,N,12224.18610,W,000.00,064.6,010314,016.6,E,D*24
$SPVHW,,,,,0.00,N,,*1A
$PGRME,2.4,M,2.4,M,3.4,M*29
$HCHDG,227.3,0.0,E,,*2D
$HCHDG,227.3,0.0,E,,*2D
$GPRMC,230054.0,A,4741.16311,N,12224.18610,W,000.00,064.6,010314,016.6,E,D*2B
$SPVHW,,,,,0.00,N,,*1A
$PGRME,2.4,M,2.4,M,3.4,M*29
$YXXDR,A,4.7,D,PTCH,A,3.9,D,ROLL*54
$HCHDG,227.2,0.0,E,,*2C
$HCHDG,227.2,0.0,E,,*2C
$GPRMC,230054.2,A,4741.16311,N,12224.18610,W,000.00,064.6,010314,016.6,E,D*29
$SPVHW,,,,,0.00,N,,*1A
$PGRME,2.4,M,2.4,M,3.4,M*29
$HCHDG,227.2,0.0,E,,*2C
$HCHDG,227.2,0.0,E,,*2C
$GPRMC,230054.4,A,4741.16311,N,12224.18610,W,000.01,064.6,010314,016.6,E,D*2E
$GPRMB,A,3.71,L,,Lac,4823.3220,N,12229.7720,W,42.4,355,0.00,V*76
$SPVHW,,,,,0.00,N,,*1A
$PGRME,2.4,M,2.4,M,3.4,M*29
$HCHDG,227.2,0.0,E,,*2C
$YXXDR,A,4.7,D,PTCH,A,3.9,D,ROLL*54
$PTAK,FFD1,3.9*5F
$HCHDG,227.2,0.0,E,,*2C
$GPRMC,230054.6,A,4741.16311,N,12224.18610,W,000.01,064.6,010314,016.6,E,D*2C
$SPVHW,,,,,0.00,N,,*1A
$PGRME,2.4,M,2.4,M,3.4,M*29
$HCHDG,227.2,0.0,E,,*2C
$HCHDG,227.2,0.0,E,,*2C
$GPRMC,230054.8,A,4741.16311,N,12224.18610,W,000.01,064.6,010314,016.6,E,D*22
$SPVHW,,,,,0.00,N,,*1A
$PGRME,2.4,M,2.4,M,3.4,M*29
$HCHDG,227.2,0.0,E,,*2C
$HCHDG,227.2,0.0,E,,*2C
$GPRMC,230055.0,A,4741.16311,N,12224.18610,W,000.00,064.6,010314,016.6,E,D*2A
$SPVHW,,,,,0.00,N,,*1A
$PGRME,2.4,M,2.4,M,3.4,M*29
$YXXDR,A,4.7,D,PTCH,A,3.9,D,ROLL*54
$HCHDG,227.2,0.0,E,,*2C
$HCHDG,227.2,0.0,E,,*2C
$GPRMC,230055.2,A,4741.16311,N,12224.18610,W,000.00,064.6,010314,016.6,E,D*28
$SPVHW,,,,,0.00,N,,*1A
$PGRME,2.4,M,2.4,M,3.4,M*29
$HCHDG,227.2,0.0,E,,*2C
$HCHDG,227.2,0.0,E,,*2C
$GPRMC,230055.4,A,4741.16311,N,12224.18610,W,000.01,064.6,010314,016.6,E,D*2F
$GPRMB,A,3.71,L,,Lac,4823.3220,N,12229.7720,W,42.4,355,0.00,V*76
$SPVHW,,,,,0.00,N,,*1A
$PGRME,2.4,M,2.4,M,3.4,M*29
$HCHDG,227.2,0.0,E,,*2C
$PTAK,FFP1,HEEL,@*07
$YXXDR,A,4.7,D,PTCH,A,3.9,D,ROLL*54
$PTAK,FFD1,3.9*5F
$HCHDG,227.2,0.0,E,,*2C
$GPRMC,230055.6,A,4741.16311,N,12224.18610,W,000.00,064.6,010314,016.6,E,D*2C
$SPVHW,,,,,0.00,N,,*1A
$PGRME,2.4,M,2.4,M,3.4,M*29
$HCHDG,227.2,0.0,E,,*2C
$HCHDG,227.2,0.0,E,,*2C
$GPRMC,230055.8,A,4741.16311,N,12224.18610,W,000.00,064.6,010314,016.6,E,D*22
$SPVHW,,,,,0.00,N,,*1A
$PGRME,2.4,M,2.4,M,3.4,M*29
$HCHDG,227.2,0.0,E,,*2C
$HCHDG,227.2,0.0,E,,*2C
$GPRMC,230056.0,A,4741.16311,N,12224.18609,W,000.00,064.6,010314,016.6,E,D*21
$SPVHW,,,,,0.00,N,,*1A
$PGRME,2.4,M,2.4,M,3.4,M*29
$YXXDR,A,4.5,D,PTCH,A,3.8,D,ROLL*57
$HCHDG,227.2,0.0,E,,*2C
$HCHDG,227.3,0.0,E,,*2D
$GPRMC,230056.2,A,4741.16311,N,12224.18609,W,000.00,064.6,010314,016.6,E,D*23
$SPVHW,,,,,0.00,N,,*1A
$PGRME,2.4,M,2.4,M,3.4,M*29
$HCHDG,227.3,0.0,E,,*2D
$HCHDG,227.3,0.0,E,,*2D
$GPRMC,230056.4,A,4741.16311,N,12224.18609,W,000.01,064.6,010314,016.6,E,D*24
$PGRME,2.4,M,2.4,M,3.4,M*29
$SPVHW,,,,,0.00,N,,*1A
$HCHDG,227.3,0.0,E,,*2D
$YXXDR,A,4.5,D,PTCH,A,3.8,D,ROLL*57
$HCHDG,227.3,0.0,E,,*2D
$GPRMC,230056.6,A,4741.16311,N,12224.18609,W,000.01,064.6,010314,016.6,E,D*26
$GPRMB,A,3.71,L,,Lac,4823.3220,N,12229.7720,W,42.4,355,0.00,V*76
$PGRME,2.4,M,2.4,M,3.4,M*29
$SPVHW,,,,,0.00,N,,*1A
$HCHDG,227.3,0.0,E,,*2D
$HCHDG,227.3,0.0,E,,*2D
$GPRMC,230056.8,A,4741.16311,N,12224.18609,W,000.00,064.6,010314,016.6,E,D*29
$PGRME,2.4,M,2.4,M,3.4,M*29
$SPVHW,,,,,0.00,N,,*1A
$HCHDG,227.3,0.0,E,,*2D
$HCHDG,227.3,0.0,E,,*2D
$GPRMC,230057.0,A,4741.16311,N,12224.18609,W,000.00,064.6,010314,016.6,E,D*20
$SPVHW,,,,,0.00,N,,*1A
