$GPRMB,A,3.66,L,,Lac,4823.3220,N,12229.7720,W,42.3,355,-0.00,V*5A
$IIVHW,,,,,0.00,N,,*19
$PGRME,2.4,M,2.4,M,3.4,M*29
$P,0
$HCHDG,266.6,0.0,E,,*2D
$IIRMB,A,3.00,L,,Lac ,,,,,042.3,355,,V,A*2C
$YXXDR,A,5.4,D,PTCH,A,3.1,D,ROLL*5E
$PTAK,FFD1,3.1*57
$HCHDG,266.6,0.0,E,,*2D
$GPRMC,010000.8,A,4741.20042,N,12224.26426,W,000.00,223.3,090314,016.6,E,D*24
$IIRMC,005900,A,4741.200,N,12224.264,W,00.0,223,080314,16,E,A*1B
$IIVHW,,,,,0.00,N,,*19
$PGRME,2.4,M,2.4,M,3.4,M*29
$HCHDG,266.5,0.0,E,,*2E
$IIVLW,06480,N,000.0,N*59
$HCHDG,266.5,0.0,E,,*2E
$IIVWR,175,R,05.0,N,,,,*67
$GPRMC,010001.0,A,4741.20042,N,12224.26426,W,000.00,223.3,090314,016.6,E,D*2D
$PGRME,2.4,M,2.4,M,3.4,M*29
$IIVHW,,,,,0.00,N,,*19
$IIDPT,005.5,-1.0,*40
$HCHDG,266.6,0.0,E,,*2D
$IIGLL,4741.200,N,12224.264,W,005900,A,A*4D
$HCHDG,266.7,0.0,E,,*2C
$IIMWV,175,R,05.0,N,A*15
$GPRMC,010001.2,A,4741.20042,N,12224.26426,W,000.00,223.3,090314,016.6,E,D*2F
$PGRME,2.4,M,2.4,M,3.4,M*29
$IIVHW,,,,,0.00,N,,*19
$YXXDR,A,5.4,D,PTCH,A,3.3,D,ROLL*5C
$HCHDG,266.7,0.0,E,,*2C
$HCHDG,266.7,0.0,E,,*2C
$GPRMC,010001.4,A,4741.20042,N,12224.26426,W,000.00,223.3,090314,016.6,E,D*29
$PGRME,2.4,M,2.4,M,3.4,M*29
$IIVHW,,,,,0.00,N,,*19
$HCHDG,266.7,0.0,E,,*2C
$PTAK,FFP1,HEEL,@*07
$HCHDG,266.7,0.0,E,,*2C
$GPRMC,010001.6,A,4741.20042,N,12224.26426,W,000.01,223.3,090314,016.6,E,D*2A
$P,0
$PGRME,2.4,M,2.4,M,3.4,M*29
$IIVHW,,,,,0.00,N,,*19
$IIMWV,175,T,05.0,N,A*13
$HCHDG,266.7,0.0,E,,*2C
$IIRMB,A,3.00,L,,Lac ,,,,,042.3,355,,V,A*2C
$YXXDR,A,5.4,D,PTCH,A,3.1,D,ROLL*5E
$HCHDG,266.7,0.0,E,,*2C
$GPRMC,010001.8,A,4741.20042,N,12224.26426,W,000.00,223.3,090314,016.6,E,D*25
$GPRMB,A,3.66,L,,Lac,4823.3220,N,12229.7720,W,42.3,355,-0.00,V*5A
$PGRME,2.4,M,2.4,M,3.4,M*29
$IIVHW,,,,,0.00,N,,*19
$HCHDG,266.8,0.0,E,,*23
$IIRMC,010000,A,4741.200,N,12224.264,W,00.0,223,080314,16,E,A*16
$HCHDG,266.8,0.0,E,,*23
$IIVLW,06480,N,000.0,N*59
$GPRMC,010002.0,A,4741.20042,N,12224.26426,W,000.01,223.3,090314,016.6,E,D*2F
$IIVHW,,,,,0.00,N,,*19
$PGRME,2.4,M,2.4,M,3.4,M*29
$IIVWR,174,R,04.9,N,,,,*6E
$HCHDG,266.8,0.0,E,,*23
$IIDPT,005.5,-1.0,*40
$HCHDG,266.8,0.0,E,,*23
$IIGLL,4741.200,N,12224.264,W,010000,A,A*40
$GPRMC,010002.2,A,4741.20042,N,12224.26426,W,000.00,223.3,090314,016.6,E,D*2C
$IIVHW,,,,,0.00,N,,*19
$PGRME,2.4,M,2.4,M,3.4,M*29
$YXXDR,A,5.2,D,PTCH,A,3.1,D,ROLL*58
$PTAK,FFD1,3.1*57
$HCHDG,266.8,0.0,E,,*23
$HCHDG,266.8,0.0,E,,*23
$GPRMC,010002.4,A,4741.20042,N,12224.26426,W,000.00,223.3,090314,016.6,E,D*2A
$PGRME,2.4,M,2.4,M,3.4,M*29
$IIVHW,,,,,0.00,N,,*19
$HCHDG,266.8,0.0,E,,*23
$HCHDG,266.8,0.0,E,,*23
$GPRMC,010002.6,A,4741.20041,N,12224.26426,W,000.00,223.3,090314,016.6,E,D*2B
$P,0
$PGRME,2.4,M,2.4,M,3.4,M*29
$IIVHW,,,,,0.00,N,,*19
$IIMWV,175,R,04.8,N,A*1C
$HCHDG,267.0,0.0,E,,*2A
$IIMWV,174,T,04.9,N,A*1A
$YXXDR,A,5.4,D,PTCH,A,3.0,D,ROLL*5F
$IIRMB,A,3.00,L,,Lac ,,,,,042.3,355,,V,A*2C
$HCHDG,267.0,0.0,E,,*2A
$GPRMC,010002.8,A,4741.20041,N,12224.26426,W,000.00,223.3,090314,016.6,E,D*25
$GPRMB,A,3.66,L,,Lac,4823.3220,N,12229.7720,W,42.3,355,-0.00,V*5A
$PGRME,2.4,M,2.4,M,3.4,M*29
$IIVHW,,,,,0.00,N,,*19
$HCHDG,267.1,0.0,E,,*2B
$IIRMC,010000,A,4741.200,N,12224.264,W,00.0,223,080314,16,E,A*16
$HCHDG,267.1,0.0,E,,*2B
$GPRMC,010003.0,A,4741.20041,N,12224.26426,W,000.01,223.3,090314,016.6,E,D*2D
$PGRME,2.4,M,2.4,M,3.4,M*29
$IIVHW,,,,,0.00,N,,*19
$IIVLW,06480,N,000.0,N*59
$HCHDG,267.1,0.0,E,,*2B
$IIVWR,175,R,04.8,N,,,,*6E
$IIDPT,005.5,-1.0,*40
$HCHDG,266.9,0.0,E,,*22
$GPRMC,010003.2,A,4741.20041,N,12224.26426,W,000.01,223.3,090314,016.6,E,D*2F
$PGRME,2.4,M,2.4,M,3.4,M*29
$IIVHW,,,,,0.00,N,,*19
$YXXDR,A,5.3,D,PTCH,A,2.8,D,ROLL*51
$HCHDG,266.9,0.0,E,,*22
$HCHDG,266.9,0.0,E,,*22
$GPRMC,010003.4,A,4741.20040,N,12224.26426,W,000.01,223.3,090314,016.6,E,D*28
$PGRME,2.4,M,2.4,M,3.4,M*29
$IIVHW,,,,,0.00,N,,*19
$HCHDG,267.0,0.0,E,,*2A
$HCHDG,267.0,0.0,E,,*2A
$GPRMC,010003.6,A,4741.20040,N,12224.26427,W,000.01,223.3,090314,016.6,E,D*2B
$P,0
$PGRME,2.4,M,2.4,M,3.4,M*29
$IIVHW,,,,,0.00,N,,*19
$HCHDG,267.0,0.0,E,,*2A
$IIGLL,4741.200,N,12224.264,W,010000,A,A*40
$IIMWV,177,R,04.8,N,A*1E
$YXXDR,A,5.2,D,PTCH,A,3.0,D,ROLL*59
$PTAK,FFD1,3.0*56
$HCHDG,267.0,0.0,E,,*2A
$IIMWV,175,T,04.8,N,A*1A
$GPRMC,010003.8,A,4741.20040,N,12224.26426,W,000.01,223.3,090314,016.6,E,D*24
$PGRME,2.4,M,2.4,M,3.4,M*29
$IIVHW,,,,,0.00,N,,*19
$HCHDG,267.0,0.0,E,,*2A
$IIRMB,A,3.00,L,,Lac ,,,,,042.3,355,,V,A*2C
$HCHDG,267.0,0.0,E,,*2A
$GPRMC,010004.0,A,4741.20040,N,12224.26426,W,000.00,223.3,090314,016.6,E,D*2A
$GPRMB,A,3.66,L,,Lac,4823.3220,N,12229.7720,W,42.3,355,-0.00,V*5A
$IIRMC,010000,A,4741.200,N,12224.264,W,00.0,223,080314,16,E,A*16
$PGRME,2.4,M,2.4,M,3.4,M*29
$IIVHW,,,,,0.00,N,,*19
$HCHDG,266.9,0.0,E,,*22
$IIVLW,06480,N,000.0,N*59
$HCHDG,267.0,0.0,E,,*2A
$IIVWR,177,R,04.8,N,,,,*6C
$GPRMC,010004.2,A,4741.20040,N,12224.26426,W,000.01,223.3,090314,016.6,E,D*29
$PGRME,2.4,M,2.4,M,3.4,M*29
$IIVHW,,,,,0.00,N,,*19
$YXXDR,A,5.4,D,PTCH,A,3.1,D,ROLL*5E
$HCHDG,267.0,0.0,E,,*2A
$HCHDG,267.0,0.0,E,,*2A
$GPRMC,010004.4,A,4741.20039,N,12224.26426,W,000.00,223.3,090314,016.6,E,D*20
$IIVHW,,,,,0.00,N,,*19
$PGRME,2.4,M,2.4,M,3.4,M*29
$HCHDG,267.0,0.0,E,,*2A
$HCHDG,267.0,0.0,E,,*2A
$GPRMC,010004.6,A,4741.20039,N,12224.26426,W,000.00,223.3,090314,016.6,E,D*22
$P,0
$PGRME,2.4,M,2.4,M,3.4,M*29
$IIVHW,,,,,0.00,N,,*19
$IIDPT,005.5,-1.0,*40
$HCHDG,267.0,0.0,E,,*2A
$IIGLL,4741.200,N,12224.264,W,010000,A,A*40
$YXXDR,A,5.3,D,PTCH,A,3.5,D,ROLL*5D
$IIMWV,183,R,04.7,N,A*1A
$HCHDG,267.0,0.0,E,,*2A
$GPRMC,010004.8,A,4741.20039,N,12224.26427,W,000.01,223.3,090314,016.6,E,D*2C
$PGRME,2.4,M,2.4,M,3.4,M*29
$IIVHW,,,,,0.00,N,,*19
$IIMWV,177,T,04.8,N,A*18
$HCHDG,267.0,0.0,E,,*2A
$IIRMB,A,3.00,L,,Lac ,,,,,042.3,355,,V,A*2C
$HCHDG,267.0,0.0,E,,*2A
$GPRMC,010005.0,A,4741.20039,N,12224.26427,W,000.01,223.3,090314,016.6,E,D*25
$PGRME,2.4,M,2.4,M,3.4,M*29
$IIVHW,,,,,0.00,N,,*19
$HCHDG,267.0,0.0,E,,*2A
$IIRMC,010000,A,4741.200,N,12224.264,W,00.0,223,080314,16,E,A*16
$HCHDG,267.0,0.0,E,,*2A
$IIVLW,06480,N,000.0,N*59
$GPRMC,010005.2,A,4741.20039,N,12224.26427,W,000.01,223.3,090314,016.6,E,D*27
$GPRMB,A,3.66,L,,Lac,4823.3220,N,12229.7720,W,42.3,355,-0.01,V*5B
$PGRME,2.4,M,2.4,M,3.4,M*29
$IIVHW,,,,,0.00,N,,*19
$YXXDR,A,5.3,D,PTCH,A,3.3,D,ROLL*5B
$PTAK,FFD1,3.3*55
$HCHDG,267.0,0.0,E,,*2A
$HCHDG,267.1,0.0,E,,*2B
$GPRMC,010005.4,A,4741.20038,N,12224.26427,W,000.01,223.3,090314,016.6,E,D*20
$IIVHW,,,,,0.00,N,,*19
$PTAK,FFP1,HEEL,@*07
$PGRME,2.4,M,2.4,M,3.4,M*29
$HCHDG,267.1,0.0,E,,*2B
$HCHDG,267.1,0.0,E,,*2B
$GPRMC,010005.6,A,4741.20038,N,12224.26426,W,000.01,223.3,090314,016.6,E,D*23
$P,0
$IIVHW,,,,,0.00,N,,*19
$PGRME,2.4,M,2.4,M,3.4,M*29
$IIVWR,172,L,04.7,N,,,,*78
$HCHDG,267.1,0.0,E,,*2B
$IIDPT,005.5,-1.0,*40
$YXXDR,A,5.4,D,PTCH,A,3.0,D,ROLL*5F
$IIGLL,4741.200,N,12224.264,W,010000,A,A*40
$HCHDG,267.1,0.0,E,,*2B
$GPRMC,010005.8,A,4741.20038,N,12224.26427,W,000.00,223.3,090314,016.6,E,D*2D
$PGRME,2.4,M,2.4,M,3.4,M*29
$IIVHW,,,,,0.00,N,,*19
$IIMWV,188,R,04.7,N,A*11
$HCHDG,267.1,0.0,E,,*2B
$IIMWV,183,T,04.7,N,A*1C
$HCHDG,267.1,0.0,E,,*2B
$IIRMB,A,3.00,L,,Lac ,,,,,042.3,355,,V,A*2C
$GPRMC,010006.0,A,4741.20038,N,12224.26427,W,000.01,223.3,090314,016.6,E,D*27
$PGRME,2.4,M,2.4,M,3.4,M*29
$IIVHW,,,,,0.00,N,,*19
$HCHDG,267.1,0.0,E,,*2B
$IIRMC,010000,A,4741.200,N,12224.264,W,00.0,223,080314,16,E,A*16
$HCHDG,267.1,0.0,E,,*2B
$GPRMC,010006.2,A,4741.20038,N,12224.26427,W,000.01,223.3,090314,016.6,E,D*25
$PGRME,2.4,M,2.4,M,3.4,M*29
$IIVHW,,,,,0.00,N,,*19
$YXXDR,A,5.4,D,PTCH,A,3.0,D,ROLL*5F
$HCHDG,267.1,0.0,E,,*2B
$HCHDG,267.1,0.0,E,,*2B
$GPRMC,010006.4,A,4741.20038,N,12224.26427,W,000.01,223.3,090314,016.6,E,D*23
$GPRMB,A,3.66,L,,Lac,4823.3220,N,12229.7720,W,42.3,355,-0.01,V*5B
$IIVHW,,,,,0.00,N,,*19
$PGRME,2.4,M,2.4,M,3.4,M*29
$HCHDG,267.1,0.0,E,,*2B
$HCHDG,267.1,0.0,E,,*2B
$GPRMC,010006.6,A,4741.20038,N,12224.26426,W,000.00,223.3,090314,016.6,E,D*21
$P,0
$PGRME,2.4,M,2.4,M,3.4,M*29
$IIVHW,,,,,0.00,N,,*19
$IIVLW,06480,N,000.0,N*59
$HCHDG,267.1,0.0,E,,*2B
$IIVWR,172,L,04.2,N,,,,*7D
$YXXDR,A,5.4,D,PTCH,A,3.0,D,ROLL*5F
$PTAK,FFD1,3.0*56
$IIDPT,005.5,-1.0,*40
$HCHDG,267.2,0.0,E,,*28
$GPRMC,010006.8,A,4741.20037,N,12224.26426,W,000.00,223.3,090314,016.6,E,D*20
$IIVHW,,,,,0.00,N,,*19
$PGRME,2.4,M,2.4,M,3.4,M*29
$IIGLL,4741.200,N,12224.264,W,010000,A,A*40
$HCHDG,267.2,0.0,E,,*28
$IIMWV,188,R,04.2,N,A*14
$IIMWV,188,T,04.7,N,A*17
$HCHDG,267.2,0.0,E,,*28
$GPRMC,010007.0,A,4741.20037,N,12224.26426,W,000.01,223.3,090314,016.6,E,D*28
$PGRME,2.4,M,2.4,M,3.4,M*29
$IIVHW,,,,,0.00,N,,*19
$IIRMB,A,3.00,L,,Lac ,,,,,042.3,355,,V,A*2C
$HCHDG,267.2,0.0,E,,*28
$HCHDG,267.2,0.0,E,,*28
$IIRMC,010000,A,4741.200,N,12224.264,W,00.0,223,080314,16,E,A*16
$GPRMC,010007.2,A,4741.20037,N,12224.26426,W,000.01,223.3,090314,016.6,E,D*2A
$IIVHW,,,,,0.00,N,,*19
$PGRME,2.4,M,2.4,M,3.4,M*29
$YXXDR,A,5.4,D,PTCH,A,3.0,D,ROLL*5F
$HCHDG,267.2,0.0,E,,*28
$HCHDG,267.2,0.0,E,,*28
$GPRMC,010007.4,A,4741.20037,N,12224.26426,W,000.00,223.3,090314,016.6,E,D*2D
$GPRMB,A,3.66,L,,Lac,4823.3220,N,12229.7720,W,42.3,355,-0.00,V*5A
$IIVHW,,,,,0.00,N,,*19
$PGRME,2.4,M,2.4,M,3.4,M*29
$HCHDG,267.1,0.0,E,,*2B
$HCHDG,267.1,0.0,E,,*2B
$GPRMC,010007.6,A,4741.20037,N,12224.26426,W,000.01,223.3,090314,016.6,E,D*2E
$P,0
$IIVHW,,,,,0.00,N,,*19
$PGRME,2.4,M,2.4,M,3.4,M*29
$HCHDG,267.1,0.0,E,,*2B
$IIVLW,06480,N,000.0,N*59
$YXXDR,A,5.4,D,PTCH,A,3.1,D,ROLL*5E
$IIVWR,178,L,04.3,N,,,,*76
$HCHDG,267.1,0.0,E,,*2B
$IIDPT,005.5,-1.0,*40
$GPRMC,010007.8,A,4741.20037,N,12224.26426,W,000.01,223.3,090314,016.6,E,D*20
$IIVHW,,,,,0.00,N,,*19
$PGRME,2.4,M,2.4,M,3.4,M*29
$HCHDG,267.1,0.0,E,,*2B
$IIGLL,4741.200,N,12224.264,W,010000,A,A*40
$IIMWV,182,R,04.3,N,A*1F
$HCHDG,267.1,0.0,E,,*2B
$IIMWV,188,T,04.2,N,A*12
$GPRMC,010008.0,A,4741.20037,N,12224.26426,W,000.01,223.3,090314,016.6,E,D*27
$IIVHW,,,,,0.00,N,,*19
$PGRME,2.4,M,2.4,M,3.4,M*29
$HCHDG,267.1,0.0,E,,*2B
$IIRMB,A,3.00,L,,Lac ,,,,,042.3,355,,V,A*2C
$HCHDG,267.1,0.0,E,,*2B
$GPRMC,010008.2,A,4741.20037,N,12224.26426,W,000.01,223.3,090314,016.6,E,D*25
$IIVHW,,,,,0.00,N,,*19
$PGRME,2.4,M,2.4,M,3.4,M*29
$YXXDR,A,5.4,D,PTCH,A,3.1,D,ROLL*5E
$PTAK,FFD1,3.1*57
$HCHDG,267.1,0.0,E,,*2B
$HCHDG,267.1,0.0,E,,*2B
$GPRMC,010008.4,A,4741.20037,N,12224.26425,W,000.01,223.3,090314,016.6,E,D*20
$GPRMB,A,3.66,L,,Lac,4823.3220,N,12229.7720,W,42.3,355,-0.01,V*5B
$PGRME,2.4,M,2.4,M,3.4,M*29
$IIVHW,,,,,0.00,N,,*19
$HCHDG,267.1,0.0,E,,*2B
$HCHDG,267.1,0.0,E,,*2B
$GPRMC,010008.6,A,4741.20037,N,12224.26425,W,000.00,223.3,090314,016.6,E,D*23
$P,0
$IIVHW,,,,,0.00,N,,*19
$PGRME,2.4,M,2.4,M,3.4,M*29
$HCHDG,267.1,0.0,E,,*2B
$IIRMC,010000,A,4741.200,N,12224.264,W,00.0,223,080314,16,E,A*16
$YXXDR,A,5.3,D,PTCH,A,3.3,D,ROLL*5B
$HCHDG,267.1,0.0,E,,*2B
$GPRMC,010008.8,A,4741.20036,N,12224.26425,W,000.01,223.3,090314,016.6,E,D*2D
$IIVHW,,,,,0.00,N,,*19
$PGRME,2.4,M,2.4,M,3.4,M*29
$IIVLW,06480,N,000.0,N*59
$HCHDG,267.1,0.0,E,,*2B
$IIVWR,173,R,04.0,N,,,,*60
$IIDPT,005.5,-1.0,*40
$HCHDG,267.1,0.0,E,,*2B
$GPRMC,010009.0,A,4741.20036,N,12224.26425,W,000.01,223.3,090314,016.6,E,D*24
$PGRME,2.4,M,2.4,M,3.4,M*29
$IIVHW,,,,,0.00,N,,*19
$IIGLL,4741.200,N,12224.264,W,010000,A,A*40
$HCHDG,267.1,0.0,E,,*2B
$IIMWV,173,R,04.0,N,A*12
$IIMWV,182,T,04.3,N,A*19
$HCHDG,267.1,0.0,E,,*2B
$GPRMC,010009.2,A,4741.20036,N,12224.26425,W,000.00,223.3,090314,016.6,E,D*27
$IIVHW,,,,,0.00,N,,*19
$PGRME,2.4,M,2.4,M,3.4,M*29
$YXXDR,A,5.2,D,PTCH,A,3.1,D,ROLL*58
$PTAK,FFD1,3.1*57
$HCHDG,267.0,0.0,E,,*2A
$HCHDG,267.0,0.0,E,,*2A
$GPRMC,010009.4,A,4741.20036,N,12224.26425,W,000.01,223.3,090314,016.6,E,D*20
$IIVHW,,,,,0.00,N,,*19
$PGRME,2.4,M,2.4,M,3.4,M*29
$HCHDG,267.0,0.0,E,,*2A
$HCHDG,266.9,0.0,E,,*22
$GPRMC,010009.6,A,4741.20036,N,12224.26425,W,000.01,223.3,090314,016.6,E,D*22
$GPRMB,A,3.66,L,,Lac,4823.3220,N,12229.7720,W,42.3,355,-0.01,V*5B
$PTAK,FFP1,HEEL,@*07
$IIVHW,,,,,0.00,N,,*19
$P,0
$PGRME,2.4,M,2.4,M,3.4,M*29
$HCHDG,266.9,0.0,E,,*22
$IIRMB,A,3.00,L,,Lac ,,,,,042.3,355,,V,A*2C
$YXXDR,A,5.4,D,PTCH,A,3.1,D,ROLL*5E
$HCHDG,266.9,0.0,E,,*22
$GPRMC,010009.8,A,4741.20036,N,12224.26425,W,000.01,223.3,090314,016.6,E,D*2C
$IIRMC,010000,A,4741.200,N,12224.264,W,00.0,223,080314,16,E,A*16
$IIVHW,,,,,0.00,N,,*19
$PGRME,2.4,M,2.4,M,3.4,M*29
$HCHDG,266.9,0.0,E,,*22
$IIVLW,06480,N,000.0,N*59
$HCHDG,266.8,0.0,E,,*23
$IIVWR,168,R,03.8,N,,,,*65
$GPRMC,010010.0,A,4741.20036,N,12224.26425,W,000.01,223.3,090314,016.6,E,D*2C
$IIVHW,,,,,0.00,N,,*19
$PGRME,2.4,M,2.4,M,3.4,M*29
$IIDPT,005.5,-1.0,*40
$HCHDG,266.7,0.0,E,,*2C
$IIGLL,4741.200,N,12224.264,W,010000,A,A*40
$HCHDG,266.7,0.0,E,,*2C
$IIMWV,168,R,03.8,N,A*17
$GPRMC,010010.2,A,4741.20036,N,12224.26425,W,000.01,223.3,090314,016.6,E,D*2E
$IIVHW,,,,,0.00,N,,*19
$PGRME,2.4,M,2.4,M,3.4,M*29
$YXXDR,A,5.4,D,PTCH,A,3.0,D,ROLL*5F
$HCHDG,266.8,0.0,E,,*23
$HCHDG,266.8,0.0,E,,*23
$GPRMC,010010.4,A,4741.20036,N,12224.26425,W,000.01,223.3,090314,016.6,E,D*28
$IIVHW,,,,,0.00,N,,*19
$PGRME,2.4,M,2.4,M,3.4,M*29
$HCHDG,266.8,0.0,E,,*23
$HCHDG,266.8,0.0,E,,*23
$GPRMC,010010.6,A,4741.20035,N,12224.26425,W,000.01,223.3,090314,016.6,E,D*29
$P,0
$IIVHW,,,,,0.00,N,,*19
$PGRME,2.4,M,2.4,M,3.4,M*29
$IIMWV,168,T,03.8,N,A*11
$HCHDG,266.8,0.0,E,,*23
$IIRMB,A,3.00,L,,Lac ,,,,,042.3,355,,V,A*2C
$YXXDR,A,5.4,D,PTCH,A,3.0,D,ROLL*5F
$PTAK,FFD1,3.0*56
$HCHDG,266.8,0.0,E,,*23
$GPRMC,010010.8,A,4741.20035,N,12224.26425,W,000.01,223.3,090314,016.6,E,D*27
$GPRMB,A,3.66,L,,Lac,4823.3220,N,12229.7720,W,42.3,355,-0.01,V*5B
$IIVHW,,,,,0.00,N,,*19
$PGRME,2.4,M,2.4,M,3.4,M*29
$HCHDG,266.7,0.0,E,,*2C
$IIRMC,010000,A,4741.200,N,12224.264,W,00.0,223,080314,16,E,A*16
$HCHDG,266.7,0.0,E,,*2C
$IIVLW,06480,N,000.0,N*59
$GPRMC,010011.0,A,4741.20035,N,12224.26424,W,000.01,223.3,090314,016.6,E,D*2F
$IIVHW,,,,,0.00,N,,*19
$PGRME,2.4,M,2.4,M,3.4,M*29
$IIVWR,171,R,03.7,N,,,,*62
$HCHDG,266.7,0.0,E,,*2C
$IIDPT,005.5,-1.0,*40
$HCHDG,266.7,0.0,E,,*2C
$IIGLL,4741.200,N,12224.264,W,010000,A,A*40
$GPRMC,010011.2,A,4741.20035,N,12224.26424,W,000.00,223.3,090314,016.6,E,D*2C
$IIVHW,,,,,0.00,N,,*19
$PGRME,2.4,M,2.4,M,3.4,M*29
$YXXDR,A,5.4,D,PTCH,A,3.1,D,ROLL*5E
$HCHDG,266.7,0.0,E,,*2C
$HCHDG,266.8,0.0,E,,*23
$GPRMC,010011.4,A,4741.20035,N,12224.26424,W,000.00,223.3,090314,016.6,E,D*2A
$IIVHW,,,,,0.00,N,,*19
$PGRME,2.4,M,2.4,M,3.4,M*29
$HCHDG,266.7,0.0,E,,*2C
$HCHDG,266.7,0.0,E,,*2C
$GPRMC,010011.6,A,4741.20035,N,12224.26424,W,000.01,223.3,090314,016.6,E,D*29
$P,0
$IIVHW,,,,,0.00,N,,*19
$PGRME,2.4,M,2.4,M,3.4,M*29
$IIMWV,186,R,03.4,N,A*1B
$HCHDG,266.7,0.0,E,,*2C
$IIMWV,171,T,03.7,N,A*16
$YXXDR,A,5.4,D,PTCH,A,3.1,D,ROLL*5E
$HCHDG,266.7,0.0,E,,*2C
$IIRMB,A,3.00,L,,Lac ,,,,,042.3,355,,V,A*2C
$GPRMC,010011.8,A,4741.20035,N,12224.26424,W,000.01,223.3,090314,016.6,E,D*27
$GPRMB,A,3.66,L,,Lac,4823.3220,N,12229.7720,W,42.3,355,-0.01,V*5B
$IIVHW,,,,,0.00,N,,*19
$PGRME,2.4,M,2.4,M,3.4,M*29
$HCHDG,266.6,0.0,E,,*2D
$IIRMC,010000,A,4741.200,N,12224.264,W,00.0,223,080314,16,E,A*16
$HCHDG,266.6,0.0,E,,*2D
$GPRMC,010012.0,A,4741.20035,N,12224.26424,W,000.01,223.3,090314,016.6,E,D*2C
$IIVHW,,,,,0.00,N,,*19
$PGRME,2.4,M,2.4,M,3.4,M*29
$IIVLW,06480,N,000.0,N*59
$HCHDG,266.6,0.0,E,,*2D
$IIVWR,174,L,03.4,N,,,,*7A
$IIDPT,005.5,-1.0,*40
$HCHDG,266.5,0.0,E,,*2E
$GPRMC,010012.2,A,4741.20035,N,12224.26424,W,000.00,223.3,090314,016.6,E,D*2F
$IIVHW,,,,,0.00,N,,*19
$PGRME,2.4,M,2.4,M,3.4,M*29
$YXXDR,A,5.3,D,PTCH,A,3.3,D,ROLL*5B
$PTAK,FFD1,3.3*55
$HCHDG,266.5,0.0,E,,*2E
$HCHDG,266.4,0.0,E,,*2F
$GPRMC,010012.4,A,4741.20035,N,12224.26424,W,000.01,223.3,090314,016.6,E,D*28
$IIVHW,,,,,0.00,N,,*19
$PGRME,2.4,M,2.4,M,3.4,M*29
$HCHDG,266.4,0.0,E,,*2F
$HCHDG,266.3,0.0,E,,*28
$GPRMC,010012.6,A,4741.20035,N,12224.26424,W,000.01,223.3,090314,016.6,E,D*2A
$P,0
$IIVHW,,,,,0.00,N,,*19
$PGRME,2.4,M,2.4,M,3.4,M*29
$HCHDG,266.3,0.0,E,,*28
$IIGLL,4741.200,N,12224.264,W,010000,A,A*40
$IIMWV,201,R,03.3,N,A*10
$YXXDR,A,5.3,D,PTCH,A,3.3,D,ROLL*5B
$HCHDG,266.3,0.0,E,,*28
$IIMWV,186,T,03.4,N,A*1D
$GPRMC,010012.8,A,4741.20035,N,12224.26424,W,000.01,223.3,090314,016.6,E,D*24
$IIVHW,,,,,0.00,N,,*19
$PGRME,2.4,M,2.4,M,3.4,M*29
$HCHDG,266.3,0.0,E,,*28
$IIRMB,A,3.00,L,,Lac ,,,,,042.3,355,,V,A*2C
$HCHDG,266.3,0.0,E,,*28
$GPRMC,010013.0,A,4741.20035,N,12224.26424,W,000.01,223.3,090314,016.6,E,D*2D
$GPRMB,A,3.66,L,,Lac,4823.3220,N,12229.7720,W,42.3,355,-0.01,V*5B
$IIRMC,010000,A,4741.200,N,12224.264,W,00.0,223,080314,16,E,A*16
$IIVHW,,,,,0.00,N,,*19
$PGRME,2.4,M,2.4,M,3.4,M*29
$HCHDG,266.3,0.0,E,,*28
$IIVLW,06480,N,000.0,N*59
$HCHDG,266.2,0.0,E,,*29
$IIVWR,159,L,03.3,N,,,,*72
$GPRMC,010013.2,A,4741.20034,N,12224.26424,W,000.00,223.3,090314,016.6,E,D*2F
$PGRME,2.4,M,2.4,M,3.4,M*29
$IIVHW,,,,,0.00,N,,*19
$YXXDR,A,5.4,D,PTCH,A,3.1,D,ROLL*5E
$PTAK,FFD1,3.1*57
$HCHDG,266.2,0.0,E,,*29
$HCHDG,266.2,0.0,E,,*29
$GPRMC,010013.4,A,4741.20034,N,12224.26424,W,000.00,223.3,090314,016.6,E,D*29
$PGRME,2.4,M,2.4,M,3.4,M*29
$IIVHW,,,,,0.00,N,,*19
$HCHDG,266.2,0.0,E,,*29
$HCHDG,266.2,0.0,E,,*29
$GPRMC,010013.6,A,4741.20034,N,12224.26424,W,000.01,223.3,090314,016.6,E,D*2A
$P,0
$PGRME,2.4,M,2.4,M,3.4,M*29
$IIVHW,,,,,0.00,N,,*19
$PTAK,FFP1,HEEL,@*07
$IIDPT,005.5,-1.0,*40
$HCHDG,266.1,0.0,E,,*2A
$IIGLL,4741.200,N,12224.264,W,010000,A,A*40
$YXXDR,A,5.4,D,PTCH,A,3.0,D,ROLL*5F
$IIMWV,207,R,02.7,N,A*13
$HCHDG,266.2,0.0,E,,*29
$GPRMC,010013.8,A,4741.20034,N,12224.26424,W,000.01,223.3,090314,016.6,E,D*24
$PGRME,2.4,M,2.4,M,3.4,M*29
$IIVHW,,,,,0.00,N,,*19
$IIMWV,201,T,03.3,N,A*16
$HCHDG,266.2,0.0,E,,*29
$IIRMB,A,3.00,L,,Lac ,,,,,042.3,355,,V,A*2C
$HCHDG,266.2,0.0,E,,*29
$GPRMC,010014.0,A,4741.20034,N,12224.26424,W,000.00,223.3,090314,016.6,E,D*2A
$IIVHW,,,,,0.00,N,,*19
$PGRME,2.4,M,2.4,M,3.4,M*29
$HCHDG,266.2,0.0,E,,*29
$IIRMC,010000,A,4741.200,N,12224.264,W,00.0,223,080314,16,E,A*16
$HCHDG,266.1,0.0,E,,*2A
$IIVLW,06480,N,000.0,N*59
$GPRMC,010014.2,A,4741.20034,N,12224.26424,W,000.00,223.3,090314,016.6,E,D*28
$GPRMB,A,3.66,L,,Lac,4823.3220,N,12229.7720,W,42.3,355,-0.00,V*5A
$IIVHW,,,,,0.00,N,,*19
$PGRME,2.4,M,2.4,M,3.4,M*29
$YXXDR,A,5.4,D,PTCH,A,3.0,D,ROLL*5F
$PTAK,FFD1,3.0*56
$HCHDG,266.1,0.0,E,,*2A
$HCHDG,266.1,0.0,E,,*2A
$GPRMC,010014.4,A,4741.20034,N,12224.26424,W,000.01,223.3,090314,016.6,E,D*2F
$IIVHW,,,,,0.00,N,,*19
$PGRME,2.4,M,2.4,M,3.4,M*29
$HCHDG,266.1,0.0,E,,*2A
$HCHDG,266.1,0.0,E,,*2A
$GPRMC,010014.6,A,4741.20034,N,12224.26423,W,000.01,223.3,090314,016.6,E,D*2A
$P,0
$PGRME,2.4,M,2.4,M,3.4,M*29
$IIVHW,,,,,0.00,N,,*19
$IIVWR,161,L,02.5,N,,,,*7E
$HCHDG,266.0,0.0,E,,*2B
$IIDPT,005.5,-1.0,*40
$YXXDR,A,5.4,D,PTCH,A,3.0,D,ROLL*5F
$IIGLL,4741.200,N,12224.264,W,010000,A,A*40
$HCHDG,266.0,0.0,E,,*2B
$GPRMC,010014.8,A,4741.20034,N,12224.26423,W,000.00,223.3,090314,016.6,E,D*25
$PGRME,2.4,M,2.4,M,3.4,M*29
$IIVHW,,,,,0.00,N,,*19
$IIMWV,199,R,02.5,N,A*15
$HCHDG,266.1,0.0,E,,*2A
$IIMWV,207,T,02.7,N,A*15
$HCHDG,266.0,0.0,E,,*2B
$IIRMB,A,3.00,L,,Lac ,,,,,042.3,355,,V,A*2C
$GPRMC,010015.0,A,4741.20034,N,12224.26423,W,000.01,223.3,090314,016.6,E,D*2D
$PGRME,2.4,M,2.4,M,3.4,M*29
$IIVHW,,,,,0.00,N,,*19
$HCHDG,266.0,0.0,E,,*2B
$IIRMC,010000,A,4741.200,N,12224.264,W,00.0,223,080314,16,E,A*16
$HCHDG,265.9,0.0,E,,*21
$GPRMC,010015.2,A,4741.20034,N,12224.26423,W,000.00,223.3,090314,016.6,E,D*2E
$GPRMB,A,3.66,L,,Lac,4823.3220,N,12229.7720,W,42.3,355,-0.00,V*5A
$IIVHW,,,,,0.00,N,,*19
$PGRME,2.4,M,2.4,M,3.4,M*29
$YXXDR,A,5.4,D,PTCH,A,3.1,D,ROLL*5E
$HCHDG,265.9,0.0,E,,*21
$HCHDG,265.9,0.0,E,,*21
$GPRMC,010015.4,A,4741.20034,N,12224.26423,W,000.01,223.3,090314,016.6,E,D*29
$IIVHW,,,,,0.00,N,,*19
$PGRME,2.4,M,2.4,M,3.4,M*29
$HCHDG,265.9,0.0,E,,*21
$HCHDG,265.8,0.0,E,,*20
$GPRMC,010015.6,A,4741.20034,N,12224.26423,W,000.00,223.3,090314,016.6,E,D*2A
$P,0
$IIVHW,,,,,0.00,N,,*19
$PGRME,2.4,M,2.4,M,3.4,M*29
$IIVLW,06480,N,000.0,N*59
$HCHDG,265.8,0.0,E,,*20
$IIVWR,167,L,02.1,N,,,,*7C
$YXXDR,A,5.3,D,PTCH,A,3.3,D,ROLL*5B
$PTAK,FFD1,3.3*55
$IIDPT,005.5,-1.0,*40
$HCHDG,265.8,0.0,E,,*20
$GPRMC,010015.8,A,4741.20033,N,12224.26423,W,000.01,223.3,090314,016.6,E,D*22
$IIVHW,,,,,0.00,N,,*19
$PGRME,2.4,M,2.4,M,3.4,M*29
$IIGLL,4741.200,N,12224.264,W,010000,A,A*40
$HCHDG,265.7,0.0,E,,*2F
$IIMWV,193,R,02.1,N,A*1B
$IIMWV,199,T,02.5,N,A*13
$HCHDG,265.8,0.0,E,,*20
$GPRMC,010016.0,A,4741.20033,N,12224.26423,W,000.01,223.3,090314,016.6,E,D*29
$IIVHW,,,,,0.00,N,,*19
$PGRME,2.4,M,2.4,M,3.4,M*29
$IIRMB,A,3.00,L,,Lac ,,,,,042.3,355,,V,A*2C
$HCHDG,265.8,0.0,E,,*20
$HCHDG,265.8,0.0,E,,*20
$IIRMC,010000,A,4741.200,N,12224.264,W,00.0,223,080314,16,E,A*16
$GPRMC,010016.2,A,4741.20033,N,12224.26423,W,000.01,223.3,090314,016.6,E,D*2B
$GPRMB,A,3.66,L,,Lac,4823.3220,N,12229.7720,W,42.3,355,-0.01,V*5B
$IIVHW,,,,,0.00,N,,*19
$PGRME,2.4,M,2.4,M,3.4,M*29
$YXXDR,A,5.3,D,PTCH,A,3.3,D,ROLL*5B
$HCHDG,265.8,0.0,E,,*20
$HCHDG,265.7,0.0,E,,*2F
$GPRMC,010016.4,A,4741.20033,N,12224.26423,W,000.00,223.3,090314,016.6,E,D*2C
$IIVHW,,,,,0.00,N,,*19
$PGRME,2.4,M,2.4,M,3.4,M*29
$HCHDG,265.7,0.0,E,,*2F
$HCHDG,265.7,0.0,E,,*2F
$GPRMC,010016.6,A,4741.20033,N,12224.26423,W,000.00,223.3,090314,016.6,E,D*2E
$P,0
$IIVHW,,,,,0.00,N,,*19
$PGRME,2.4,M,2.4,M,3.4,M*29
$HCHDG,265.6,0.0,E,,*2E
$IIVLW,06480,N,000.0,N*59
$YXXDR,A,5.4,D,PTCH,A,3.1,D,ROLL*5E
$IIVWR,153,L,02.1,N,,,,*7B
$HCHDG,265.6,0.0,E,,*2E
$IIDPT,005.3,-1.0,*46
$GPRMC,010016.8,A,4741.20033,N,12224.26423,W,000.00,223.3,090314,016.6,E,D*20
$IIVHW,,,,,0.00,N,,*19
$PGRME,2.4,M,2.4,M,3.4,M*29
$HCHDG,265.6,0.0,E,,*2E
$IIGLL,4741.200,N,12224.264,W,010000,A,A*40
$IIMWV,207,R,02.1,N,A*15
$HCHDG,265.5,0.0,E,,*2D
$IIMWV,193,T,02.1,N,A*1D
$GPRMC,010017.0,A,4741.20033,N,12224.26423,W,000.00,223.3,090314,016.6,E,D*29
$IIVHW,,,,,0.00,N,,*19
$PGRME,2.4,M,2.4,M,3.4,M*29
$HCHDG,265.4,0.0,E,,*2C
$IIRMB,A,3.00,L,,Lac ,,,,,042.3,355,,V,A*2C
$HCHDG,265.4,0.0,E,,*2C
$GPRMC,010017.2,A,4741.20033,N,12224.26423,W,000.00,223.3,090314,016.6,E,D*2B
$IIVHW,,,,,0.00,N,,*19
$PGRME,2.4,M,2.4,M,3.4,M*29
$YXXDR,A,5.4,D,PTCH,A,3.1,D,ROLL*5E
$PTAK,FFD1,3.1*57
$HCHDG,265.4,0.0,E,,*2C
$HCHDG,265.3,0.0,E,,*2B
$IIVHW,,,,,0.00,N,,*19
$GPRMC,010017.4,A,4741.20033,N,12224.26423,W,000.01,223.3,090314,016.6,E,D*2C
$GPRMB,A,3.66,L,,Lac,4823.3220,N,12229.7720,W,42.3,355,-0.01,V*5B
$PGRME,2.4,M,2.4,M,3.4,M*29
$HCHDG,265.3,0.0,E,,*2B
$HCHDG,265.3,0.0,E,,*2B
$GPRMC,010017.6,A,4741.20033,N,12224.26423,W,000.01,223.3,090314,016.6,E,D*2E
$P,0
$IIVHW,,,,,0.00,N,,*19
$PTAK,FFP1,HEEL,@*07
$PGRME,2.4,M,2.4,M,3.4,M*29
$HCHDG,265.3,0.0,E,,*2B
$IIRMC,010000,A,4741.200,N,12224.264,W,00.0,223,080314,16,E,A*16
$YXXDR,A,5.4,D,PTCH,A,2.9,D,ROLL*57
$HCHDG,265.3,0.0,E,,*2B
$GPRMC,010017.8,A,4741.20033,N,12224.26423,W,000.01,223.3,090314,016.6,E,D*20
$IIVHW,,,,,0.00,N,,*19
$PGRME,2.4,M,2.4,M,3.4,M*29
$IIVLW,06480,N,000.0,N*59
$HCHDG,265.3,0.0,E,,*2B
$IIVWR,142,L,02.2,N,,,,*78
$IIDPT,005.3,-1.0,*46
$HCHDG,265.3,0.0,E,,*2B
$GPRMC,010018.0,A,4741.20033,N,12224.26423,W,000.00,223.3,090314,016.6,E,D*26
$PGRME,2.4,M,2.4,M,3.4,M*29
$IIVHW,,,,,0.00,N,,*19
$IIGLL,4741.200,N,12224.264,W,010000,A,A*40
$HCHDG,265.2,0.0,E,,*2A
$IIMWV,218,R,02.2,N,A*18
$IIMWV,207,T,02.1,N,A*13
$HCHDG,265.2,0.0,E,,*2A
$GPRMC,010018.2,A,4741.20033,N,12224.26423,W,000.01,223.3,090314,016.6,E,D*25
$IIVHW,,,,,0.00,N,,*19
$PGRME,2.4,M,2.4,M,3.4,M*29
$YXXDR,A,5.4,D,PTCH,A,3.0,D,ROLL*5F
$PTAK,FFD1,3.0*56
$HCHDG,265.1,0.0,E,,*29
$HCHDG,265.1,0.0,E,,*29
$GPRMC,010018.4,A,4741.20033,N,12224.26422,W,000.01,223.3,090314,016.6,E,D*22
$PGRME,2.4,M,2.4,M,3.4,M*29
$IIVHW,,,,,0.00,N,,*19
$HCHDG,265.1,0.0,E,,*29
$HCHDG,265.1,0.0,E,,*29
$GPRMC,010018.6,A,4741.20033,N,12224.26422,W,000.01,223.3,090314,016.6,E,D*20
$GPRMB,A,3.66,L,,Lac,4823.3220,N,12229.7720,W,42.3,355,-0.01,V*5B
$P,0
$PGRME,2.4,M,2.4,M,3.4,M*29
$IIVHW,,,,,0.00,N,,*19
$HCHDG,265.2,0.0,E,,*2A
$IIRMB,A,3.00,L,,Lac ,,,,,042.3,355,,V,A*2C
$YXXDR,A,5.4,D,PTCH,A,3.1,D,ROLL*5E
$HCHDG,265.0,0.0,E,,*28
$GPRMC,010018.8,A,4741.20033,N,12224.26422,W,000.00,223.3,090314,016.6,E,D*2F
$IIRMC,010000,A,4741.200,N,12224.264,W,00.0,223,080314,16,E,A*16
$IIVHW,,,,,0.00,N,,*19
$PGRME,2.4,M,2.4,M,3.4,M*29
$HCHDG,265.0,0.0,E,,*28
$IIVLW,06480,N,000.0,N*59
$HCHDG,265.0,0.0,E,,*28
$IIVWR,139,L,02.5,N,,,,*73
$GPRMC,010019.0,A,4741.20033,N,12224.26422,W,000.01,223.3,090314,016.6,E,D*27
$PGRME,2.4,M,2.4,M,3.4,M*29
$IIVHW,,,,,0.00,N,,*19
$IIDPT,005.3,-1.0,*46
$HCHDG,264.9,0.0,E,,*20
$IIGLL,4741.200,N,12224.264,W,010000,A,A*40
$HCHDG,264.9,0.0,E,,*20
$IIMWV,221,R,02.5,N,A*15
$GPRMC,010019.2,A,4741.20033,N,12224.26422,W,000.02,223.3,090314,016.6,E,D*26
$PGRME,2.4,M,2.4,M,3.4,M*29
$IIVHW,,,,,0.00,N,,*19
$YXXDR,A,5.4,D,PTCH,A,3.3,D,ROLL*5C
$HCHDG,264.9,0.0,E,,*20
$HCHDG,264.9,0.0,E,,*20
$GPRMC,010019.4,A,4741.20033,N,12224.26422,W,000.00,223.3,090314,016.6,E,D*22
$IIVHW,,,,,0.00,N,,*19
$PGRME,2.4,M,2.4,M,3.4,M*29
$HCHDG,264.8,0.0,E,,*21
$HCHDG,264.8,0.0,E,,*21
$GPRMC,010019.6,A,4741.20033,N,12224.26422,W,000.01,223.3,090314,016.6,E,D*21
$GPRMB,A,3.66,L,,Lac,4823.3220,N,12229.7720,W,42.3,355,-0.01,V*5B
$P,0
$PGRME,2.4,M,2.4,M,3.4,M*29
$IIVHW,,,,,0.00,N,,*19
$IIMWV,221,T,02.5,N,A*13
$HCHDG,264.7,0.0,E,,*2E
$IIRMB,A,3.00,L,,Lac ,,,,,042.3,355,,V,A*2C
$YXXDR,A,5.3,D,PTCH,A,3.3,D,ROLL*5B
$PTAK,FFD1,3.3*55
$HCHDG,264.8,0.0,E,,*21
$GPRMC,010019.8,A,4741.20033,N,12224.26421,W,000.01,223.3,090314,016.6,E,D*2C
$PGRME,2.4,M,2.4,M,3.4,M*29
$IIVHW,,,,,0.00,N,,*19
$HCHDG,264.8,0.0,E,,*21
$IIRMC,010000,A,4741.200,N,12224.264,W,00.0,223,080314,16,E,A*16
$HCHDG,264.8,0.0,E,,*21
$IIVLW,06480,N,000.0,N*59
$GPRMC,010020.0,A,4741.20033,N,12224.26421,W,000.01,223.3,090314,016.6,E,D*2E
$PGRME,2.4,M,2.4,M,3.4,M*29
$IIVHW,,,,,0.00,N,,*19
$IIVWR,136,L,02.8,N,,,,*71
$HCHDG,264.8,0.0,E,,*21
$IIDPT,005.3,-1.0,*46
$HCHDG,264.8,0.0,E,,*21
$IIGLL,4741.200,N,12224.264,W,010000,A,A*40
$GPRMC,010020.2,A,4741.20033,N,12224.26421,W,000.00,223.3,090314,016.6,E,D*2D
$IIVHW,,,,,0.00,N,,*19
$PGRME,2.4,M,2.4,M,3.4,M*29
$YXXDR,A,5.4,D,PTCH,A,3.1,D,ROLL*5E
$HCHDG,264.7,0.0,E,,*2E
$HCHDG,264.7,0.0,E,,*2E
$GPRMC,010020.4,A,4741.20033,N,12224.26421,W,000.00,223.3,090314,016.6,E,D*2B
$IIVHW,,,,,0.00,N,,*19
$PGRME,2.4,M,2.4,M,3.4,M*29
$HCHDG,264.7,0.0,E,,*2E
$HCHDG,264.7,0.0,E,,*2E
$GPRMC,010020.6,A,4741.20033,N,12224.26421,W,000.01,223.3,090314,016.6,E,D*28
$GPRMB,A,3.66,L,,Lac,4823.3220,N,12229.7720,W,42.3,355,-0.01,V*5B
$P,0
$PGRME,2.4,M,2.4,M,3.4,M*29
$IIVHW,,,,,0.00,N,,*19
$IIMWV,230,R,03.0,N,A*11
$HCHDG,264.6,0.0,E,,*2F
$IIMWV,224,T,02.8,N,A*1B
$YXXDR,A,5.4,D,PTCH,A,3.1,D,ROLL*5E
$IIRMB,A,3.00,L,,Lac ,,,,,042.3,355,,V,A*2C
$HCHDG,264.6,0.0,E,,*2F
$GPRMC,010020.8,A,4741.20033,N,12224.26421,W,000.01,223.3,090314,016.6,E,D*26
$PGRME,2.4,M,2.4,M,3.4,M*29
$IIVHW,,,,,0.00,N,,*19
$HCHDG,264.6,0.0,E,,*2F
$IIRMC,010000,A,4741.200,N,12224.264,W,00.0,223,080314,16,E,A*16
$HCHDG,264.5,0.0,E,,*2C
$GPRMC,010021.0,A,4741.20033,N,12224.26421,W,000.01,223.3,090314,016.6,E,D*2F
$PGRME,2.4,M,2.4,M,3.4,M*29
$IIVHW,,,,,0.00,N,,*19
$IIVLW,06480,N,000.0,N*59
$HCHDG,264.5,0.0,E,,*2C
$IIVWR,130,L,03.0,N,,,,*7E
$IIDPT,005.3,-1.0,*46
$HCHDG,264.4,0.0,E,,*2D
$GPRMC,010021.2,A,4741.20033,N,12224.26421,W,000.01,223.3,090314,016.6,E,D*2D
$PGRME,2.4,M,2.4,M,3.4,M*29
$IIVHW,,,,,0.00,N,,*19
$YXXDR,A,5.4,D,PTCH,A,3.1,D,ROLL*5E
$PTAK,FFD1,3.1*57
$HCHDG,264.4,0.0,E,,*2D
$HCHDG,264.4,0.0,E,,*2D
$GPRMC,010021.4,A,4741.20033,N,12224.26421,W,000.01,223.3,090314,016.6,E,D*2B
$PGRME,2.4,M,2.4,M,3.4,M*29
$IIVHW,,,,,0.00,N,,*19
$HCHDG,264.3,0.0,E,,*2A
$HCHDG,264.3,0.0,E,,*2A
$GPRMC,010021.6,A,4741.20032,N,12224.26420,W,000.01,223.3,090314,016.6,E,D*29
$GPRMB,A,3.66,L,,Lac,4823.3220,N,12229.7720,W,42.3,355,-0.01,V*5B
$P,0
$PGRME,2.4,M,2.4,M,3.4,M*29
$IIVHW,,,,,0.00,N,,*19
$PTAK,FFP1,HEEL,@*07
$HCHDG,264.3,0.0,E,,*2A
$IIGLL,4741.200,N,12224.264,W,010000,A,A*40
$IIMWV,237,R,03.2,N,A*14
$YXXDR,A,5.2,D,PTCH,A,3.1,D,ROLL*58
$IIMWV,230,T,03.0,N,A*17
$HCHDG,264.3,0.0,E,,*2A
$GPRMC,010021.8,A,4741.20032,N,12224.26420,W,000.00,223.3,090314,016.6,E,D*26
$PGRME,2.4,M,2.4,M,3.4,M*29
$IIVHW,,,,,0.00,N,,*19
$HCHDG,264.3,0.0,E,,*2A
$IIRMB,A,3.00,L,,Lac ,,,,,042.3,355,,V,A*2C
$HCHDG,264.3,0.0,E,,*2A
$GPRMC,010022.0,A,4741.20032,N,12224.26420,W,000.00,223.3,090314,016.6,E,D*2D
$IIRMC,010000,A,4741.200,N,12224.264,W,00.0,223,080314,16,E,A*16
$IIVHW,,,,,0.00,N,,*19
$PGRME,2.4,M,2.4,M,3.4,M*29
$HCHDG,264.3,0.0,E,,*2A
$IIVLW,06480,N,000.0,N*59
$HCHDG,264.3,0.0,E,,*2A
$IIVWR,123,L,03.2,N,,,,*7E
$GPRMC,010022.2,A,4741.20033,N,12224.26420,W,000.01,223.3,090314,016.6,E,D*2F
$PGRME,2.4,M,2.4,M,3.4,M*29
$IIVHW,,,,,0.00,N,,*19
$YXXDR,A,5.4,D,PTCH,A,3.0,D,ROLL*5F
$PTAK,FFD1,3.0*56
$HCHDG,264.3,0.0,E,,*2A
$HCHDG,264.3,0.0,E,,*2A
$GPRMC,010022.4,A,4741.20033,N,12224.26420,W,000.01,223.3,090314,016.6,E,D*29
$PGRME,2.4,M,2.4,M,3.4,M*29
$IIVHW,,,,,0.00,N,,*19
$HCHDG,264.3,0.0,E,,*2A
$HCHDG,264.2,0.0,E,,*2B
$GPRMC,010022.6,A,4741.20033,N,12224.26420,W,000.01,223.3,090314,016.6,E,D*2B
$P,0
$PGRME,2.4,M,2.4,M,3.4,M*29
$IIVHW,,,,,0.00,N,,*19
$IIDPT,005.5,-1.0,*40
$HCHDG,264.2,0.0,E,,*2B
$IIGLL,4741.200,N,12224.264,W,010000,A,A*40
$YXXDR,A,5.3,D,PTCH,A,3.3,D,ROLL*5B
$IIMWV,237,R,03.3,N,A*15
$HCHDG,264.2,0.0,E,,*2B
$GPRMC,010022.8,A,4741.20033,N,12224.26420,W,000.01,223.3,090314,016.6,E,D*25
$GPRMB,A,3.66,L,,Lac,4823.3220,N,12229.7720,W,42.3,355,-0.01,V*5B
$PGRME,2.4,M,2.4,M,3.4,M*29
$IIVHW,,,,,0.00,N,,*19
$IIMWV,237,T,03.2,N,A*12
$HCHDG,264.2,0.0,E,,*2B
$IIRMB,A,3.00,L,,Lac ,,,,,042.3,355,,V,A*2C
$HCHDG,264.2,0.0,E,,*2B
$GPRMC,010023.0,A,4741.20033,N,12224.26420,W,000.01,223.3,090314,016.6,E,D*2C
$PGRME,2.4,M,2.4,M,3.4,M*29
$IIVHW,,,,,0.00,N,,*19
$HCHDG,264.2,0.0,E,,*2B
$IIRMC,010000,A,4741.200,N,12224.264,W,00.0,223,080314,16,E,A*16
$HCHDG,264.1,0.0,E,,*28
$IIVLW,06480,N,000.0,N*59
$GPRMC,010023.2,A,4741.20033,N,12224.26420,W,000.00,223.3,090314,016.6,E,D*2F
$IIVHW,,,,,0.00,N,,*19
$PGRME,2.4,M,2.4,M,3.4,M*29
$YXXDR,A,5.4,D,PTCH,A,3.3,D,ROLL*5C
$PTAK,FFD1,3.3*55
$HCHDG,264.1,0.0,E,,*28
$HCHDG,264.1,0.0,E,,*28
$GPRMC,010023.4,A,4741.20032,N,12224.26420,W,000.00,223.3,090314,016.6,E,D*28
$IIVHW,,,,,0.00,N,,*19
$PGRME,2.4,M,2.4,M,3.4,M*29
$HCHDG,264.0,0.0,E,,*29
$HCHDG,264.0,0.0,E,,*29
$GPRMC,010023.6,A,4741.20032,N,12224.26420,W,000.01,223.3,090314,016.6,E,D*2B
$P,0
$IIVHW,,,,,0.00,N,,*19
$PGRME,2.4,M,2.4,M,3.4,M*29
$IIVWR,123,L,03.0,N,,,,*7C
$HCHDG,264.0,0.0,E,,*29
$IIDPT,005.5,-1.0,*40
$YXXDR,A,5.4,D,PTCH,A,3.3,D,ROLL*5C
$IIGLL,4741.200,N,12224.264,W,010000,A,A*40
$HCHDG,264.0,0.0,E,,*29
$GPRMC,010023.8,A,4741.20032,N,12224.26420,W,000.01,223.3,090314,016.6,E,D*25
$GPRMB,A,3.66,L,,Lac,4823.3220,N,12229.7720,W,42.3,355,-0.01,V*5B
$IIVHW,,,,,0.00,N,,*19
$PGRME,2.4,M,2.4,M,3.4,M*29
$IIMWV,237,R,03.0,N,A*16
$HCHDG,264.0,0.0,E,,*29
$IIMWV,237,T,03.3,N,A*13
$HCHDG,264.0,0.0,E,,*29
$IIRMB,A,3.00,L,,Lac ,,,,,042.3,355,,V,A*2C
$GPRMC,010024.0,A,4741.20032,N,12224.26420,W,000.01,223.3,090314,016.6,E,D*2A
$IIVHW,,,,,0.00,N,,*19
$PGRME,2.4,M,2.4,M,3.4,M*29
$HCHDG,263.9,0.0,E,,*27
$IIRMC,010000,A,4741.200,N,12224.264,W,00.0,223,080314,16,E,A*16
$HCHDG,263.9,0.0,E,,*27
$GPRMC,010024.2,A,4741.20032,N,12224.26420,W,000.01,223.3,090314,016.6,E,D*28
$IIVHW,,,,,0.00,N,,*19
$PGRME,2.4,M,2.4,M,3.4,M*29
$YXXDR,A,5.3,D,PTCH,A,3.3,D,ROLL*5B
$HCHDG,263.9,0.0,E,,*27
$HCHDG,263.8,0.0,E,,*26
$GPRMC,010024.4,A,4741.20032,N,12224.26420,W,000.00,223.3,090314,016.6,E,D*2F
$IIVHW,,,,,0.00,N,,*19
$PGRME,2.4,M,2.4,M,3.4,M*29
$HCHDG,263.8,0.0,E,,*26
$HCHDG,263.8,0.0,E,,*26
$GPRMC,010024.6,A,4741.20032,N,12224.26420,W,000.00,223.3,090314,016.6,E,D*2D
$P,0
$IIVHW,,,,,0.00,N,,*19
$PGRME,2.4,M,2.4,M,3.4,M*29
$IIVLW,06480,N,000.0,N*59
$HCHDG,263.8,0.0,E,,*26
$IIVWR,121,L,03.1,N,,,,*7F
$YXXDR,A,5.4,D,PTCH,A,3.0,D,ROLL*5F
$PTAK,FFD1,3.0*56
$IIDPT,005.5,-1.0,*40
$HCHDG,263.8,0.0,E,,*26
$GPRMC,010024.8,A,4741.20032,N,12224.26420,W,000.00,223.3,090314,016.6,E,D*23
$IIVHW,,,,,0.00,N,,*19
$PGRME,2.4,M,2.4,M,3.4,M*29
$IIGLL,4741.200,N,12224.264,W,010000,A,A*40
$HCHDG,263.8,0.0,E,,*26
$IIMWV,239,R,03.1,N,A*19
$IIMWV,237,T,03.0,N,A*10
$HCHDG,263.7,0.0,E,,*29
$GPRMC,010025.0,A,4741.20032,N,12224.26420,W,000.00,223.3,090314,016.6,E,D*2A
$GPRMB,A,3.66,L,,Lac,4823.3220,N,12229.7720,W,42.3,355,-0.00,V*5A
$IIVHW,,,,,0.00,N,,*19
$PGRME,2.4,M,2.4,M,3.4,M*29
$IIRMB,A,3.00,L,,Lac ,,,,,042.3,355,,V,A*2C
$HCHDG,263.7,0.0,E,,*29
$HCHDG,263.7,0.0,E,,*29
$IIRMC,010000,A,4741.200,N,12224.264,W,00.0,223,080314,16,E,A*16
$GPRMC,010025.2,A,4741.20032,N,12224.26420,W,000.01,223.3,090314,016.6,E,D*29
$IIVHW,,,,,0.00,N,,*19
$PGRME,2.4,M,2.4,M,3.4,M*29
$YXXDR,A,5.4,D,PTCH,A,3.1,D,ROLL*5E
$HCHDG,263.7,0.0,E,,*29
$HCHDG,263.9,0.0,E,,*27
$GPRMC,010025.4,A,4741.20032,N,12224.26420,W,000.00,223.3,090314,016.6,E,D*2E
$IIVHW,,,,,0.00,N,,*19
$PGRME,2.4,M,2.4,M,3.4,M*29
$HCHDG,263.9,0.0,E,,*27
$HCHDG,263.8,0.0,E,,*26
$GPRMC,010025.6,A,4741.20032,N,12224.26420,W,000.00,223.3,090314,016.6,E,D*2C
$P,0
$IIVHW,,,,,0.00,N,,*19
$PGRME,2.4,M,2.4,M,3.4,M*29
$HCHDG,263.8,0.0,E,,*26
$IIVLW,06480,N,000.0,N*59
$YXXDR,A,5.4,D,PTCH,A,3.1,D,ROLL*5E
$IIVWR,120,L,03.2,N,,,,*7D
$HCHDG,263.8,0.0,E,,*26
$IIDPT,005.3,-1.0,*46
$GPRMC,010025.8,A,4741.20032,N,12224.26420,W,000.00,223.3,090314,016.6,E,D*22
$PTAK,FFP1,HEEL,@*07
$IIVHW,,,,,0.00,N,,*19
$PGRME,2.4,M,2.4,M,3.4,M*29
$HCHDG,263.8,0.0,E,,*26
$IIGLL,4741.200,N,12224.264,W,010000,A,A*40
$IIMWV,240,R,03.2,N,A*14
$HCHDG,263.8,0.0,E,,*26
$IIMWV,239,T,03.1,N,A*1F
$GPRMC,010026.0,A,4741.20032,N,12224.26419,W,000.01,223.3,090314,016.6,E,D*22
$GPRMB,A,3.66,L,,Lac,4823.3220,N,12229.7720,W,42.3,355,-0.01,V*5B
$IIVHW,,,,,0.00,N,,*19
$PGRME,2.4,M,2.4,M,3.4,M*29
$HCHDG,263.8,0.0,E,,*26
$IIRMB,A,3.00,L,,Lac ,,,,,042.3,355,,V,A*2C
$HCHDG,263.8,0.0,E,,*26
$GPRMC,010026.2,A,4741.20031,N,12224.26419,W,000.01,223.3,090314,016.6,E,D*23
$IIVHW,,,,,0.00,N,,*19
$PGRME,2.4,M,2.4,M,3.4,M*29
$YXXDR,A,5.4,D,PTCH,A,3.1,D,ROLL*5E
$PTAK,FFD1,3.1*57
$HCHDG,263.7,0.0,E,,*29
$HCHDG,263.7,0.0,E,,*29
$GPRMC,010026.4,A,4741.20031,N,12224.26419,W,000.01,223.3,090314,016.6,E,D*25
$PGRME,2.4,M,2.4,M,3.4,M*29
$IIVHW,,,,,0.00,N,,*19
$HCHDG,263.8,0.0,E,,*26
$HCHDG,263.9,0.0,E,,*27
$GPRMC,010026.6,A,4741.20031,N,12224.26419,W,000.00,223.3,090314,016.6,E,D*26
$P,0
$PGRME,2.4,M,2.4,M,3.4,M*29
$IIVHW,,,,,0.00,N,,*19
$HCHDG,263.9,0.0,E,,*27
$IIRMC,010000,A,4741.200,N,12224.264,W,00.0,223,080314,16,E,A*16
$YXXDR,A,5.3,D,PTCH,A,3.3,D,ROLL*5B
$HCHDG,263.9,0.0,E,,*27
$GPRMC,010026.8,A,4741.20031,N,12224.26419,W,000.00,223.3,090314,016.6,E,D*28
$PGRME,2.4,M,2.4,M,3.4,M*29
$IIVHW,,,,,0.00,N,,*19
$IIVLW,06480,N,000.0,N*59
$HCHDG,263.9,0.0,E,,*27
$IIVWR,116,L,03.3,N,,,,*79
$IIDPT,005.5,-1.0,*40
$HCHDG,263.8,0.0,E,,*26
$GPRMC,010027.0,A,4741.20031,N,12224.26418,W,000.00,223.3,090314,016.6,E,D*20
$PGRME,2.4,M,2.4,M,3.4,M*29
$IIVHW,,,,,0.00,N,,*19
$IIGLL,4741.200,N,12224.264,W,010000,A,A*40
$HCHDG,263.8,0.0,E,,*26
$IIMWV,244,R,03.3,N,A*11
$IIMWV,240,T,03.2,N,A*12
$HCHDG,263.9,0.0,E,,*27
$GPRMC,010027.2,A,4741.20031,N,12224.26418,W,000.02,223.3,090314,016.6,E,D*20
$GPRMB,A,3.66,L,,Lac,4823.3220,N,12229.7720,W,42.3,355,-0.01,V*5B
$IIVHW,,,,,0.00,N,,*19
$PGRME,2.4,M,2.4,M,3.4,M*29
$YXXDR,A,5.3,D,PTCH,A,3.5,D,ROLL*5D
$PTAK,FFD1,3.5*53
$HCHDG,263.9,0.0,E,,*27
$HCHDG,263.9,0.0,E,,*27
$GPRMC,010027.4,A,4741.20031,N,12224.26418,W,000.00,223.3,090314,016.6,E,D*24
$IIVHW,,,,,0.00,N,,*19
$PGRME,2.4,M,2.4,M,3.4,M*29
$HCHDG,263.9,0.0,E,,*27
$HCHDG,263.9,0.0,E,,*27
$GPRMC,010027.6,A,4741.20031,N,12224.26418,W,000.00,223.3,090314,016.6,E,D*26
$P,0
$PGRME,2.4,M,2.4,M,3.4,M*29
$IIVHW,,,,,0.00,N,,*19
$HCHDG,263.8,0.0,E,,*26
$IIRMB,A,3.00,L,,Lac ,,,,,042.3,355,,V,A*2C
$YXXDR,A,5.4,D,PTCH,A,3.3,D,ROLL*5C
$HCHDG,263.9,0.0,E,,*27
$IIRMC,010000,A,4741.200,N,12224.264,W,00.0,223,080314,16,E,A*16
$GPRMC,010027.8,A,4741.20031,N,12224.26418,W,000.00,223.3,090314,016.6,E,D*28
$PGRME,2.4,M,2.4,M,3.4,M*29
$IIVHW,,,,,0.00,N,,*19
$HCHDG,263.9,0.0,E,,*27
$IIVLW,06480,N,000.0,N*59
$HCHDG,263.9,0.0,E,,*27
$IIVWR,117,L,03.7,N,,,,*7C
$GPRMC,010028.0,A,4741.20031,N,12224.26418,W,000.00,223.3,090314,016.6,E,D*2F
$PGRME,2.4,M,2.4,M,3.4,M*29
$IIDPT,005.5,-1.0,*40
$IIVHW,,,,,0.00,N,,*19
$HCHDG,263.8,0.0,E,,*26
$IIGLL,4741.200,N,12224.264,W,010000,A,A*40
$HCHDG,263.8,0.0,E,,*26
$IIMWV,243,R,03.7,N,A*12
$GPRMC,010028.2,A,4741.20031,N,12224.26417,W,000.00,223.3,090314,016.6,E,D*22
$GPRMB,A,3.66,L,,Lac,4823.3220,N,12229.7720,W,42.3,355,-0.00,V*5A
$PGRME,2.4,M,2.4,M,3.4,M*29
$IIVHW,,,,,0.00,N,,*19
$YXXDR,A,5.4,D,PTCH,A,3.1,D,ROLL*5E
$PTAK,FFD1,3.1*57
$HCHDG,263.8,0.0,E,,*26
$HCHDG,263.8,0.0,E,,*26
$GPRMC,010028.4,A,4741.20031,N,12224.26417,W,000.00,223.3,090314,016.6,E,D*24
$PGRME,2.4,M,2.4,M,3.4,M*29
$IIVHW,,,,,0.00,N,,*19
$HCHDG,263.8,0.0,E,,*26
$HCHDG,263.8,0.0,E,,*26
$GPRMC,010028.6,A,4741.20031,N,12224.26417,W,000.01,223.3,090314,016.6,E,D*27
$P,0
$PGRME,2.4,M,2.4,M,3.4,M*29
$IIVHW,,,,,0.00,N,,*19
$IIMWV,243,T,03.7,N,A*14
$HCHDG,263.8,0.0,E,,*26
$IIRMB,A,3.00,L,,Lac ,,,,,042.3,355,,V,A*2C
$YXXDR,A,5.4,D,PTCH,A,3.1,D,ROLL*5E
$HCHDG,263.8,0.0,E,,*26
$GPRMC,010028.8,A,4741.20031,N,12224.26417,W,000.00,223.3,090314,016.6,E,D*28
$IIVHW,,,,,0.00,N,,*19
$PGRME,2.4,M,2.4,M,3.4,M*29
$HCHDG,263.8,0.0,E,,*26
$IIRMC,010000,A,4741.200,N,12224.264,W,00.0,223,080314,16,E,A*16
$HCHDG,263.8,0.0,E,,*26
$IIVLW,06480,N,000.0,N*59
$GPRMC,010029.0,A,4741.20031,N,12224.26417,W,000.01,223.3,090314,016.6,E,D*20
$PGRME,2.4,M,2.4,M,3.4,M*29
$IIVHW,,,,,0.00,N,,*19
$IIVWR,115,L,03.6,N,,,,*7F
$HCHDG,263.7,0.0,E,,*29
$IIDPT,005.5,-1.0,*40
$HCHDG,263.7,0.0,E,,*29
$IIGLL,4741.200,N,12224.264,W,010000,A,A*40
$GPRMC,010029.2,A,4741.20031,N,12224.26417,W,000.00,223.3,090314,016.6,E,D*23
$GPRMB,A,3.66,L,,Lac,4823.3220,N,12229.7720,W,42.3,355,-0.00,V*5A
$PGRME,2.4,M,2.4,M,3.4,M*29
$IIVHW,,,,,0.00,N,,*19
$YXXDR,A,5.4,D,PTCH,A,3.1,D,ROLL*5E
$PTAK,FFD1,3.1*57
$HCHDG,263.7,0.0,E,,*29
$HCHDG,263.7,0.0,E,,*29
$GPRMC,010029.4,A,4741.20031,N,12224.26417,W,000.01,223.3,090314,016.6,E,D*24
$IIVHW,,,,,0.00,N,,*19
$PGRME,2.4,M,2.4,M,3.4,M*29
$HCHDG,263.7,0.0,E,,*29
$HCHDG,263.7,0.0,E,,*29
$GPRMC,010029.6,A,4741.20031,N,12224.26416,W,000.01,223.3,090314,016.6,E,D*27
$P,0
$PGRME,2.4,M,2.4,M,3.4,M*29
$IIVHW,,,,,0.00,N,,*19
$IIMWV,242,R,04.0,N,A*13
$HCHDG,263.7,0.0,E,,*29
$IIMWV,245,T,03.6,N,A*13
$YXXDR,A,5.4,D,PTCH,A,3.1,D,ROLL*5E
$IIRMB,A,3.00,L,,Lac ,,,,,042.3,355,,V,A*2C
$HCHDG,263.7,0.0,E,,*29
$GPRMC,010029.8,A,4741.20031,N,12224.26416,W,000.01,223.3,090314,016.6,E,D*29
$PGRME,2.4,M,2.4,M,3.4,M*29
$IIVHW,,,,,0.00,N,,*19
$PTAK,FFP1,HEEL,@*07
$HCHDG,263.7,0.0,E,,*29
$IIRMC,010000,A,4741.200,N,12224.264,W,00.0,223,080314,16,E,A*16
$HCHDG,263.8,0.0,E,,*26
$GPRMC,010030.0,A,4741.20031,N,12224.26416,W,000.01,223.3,090314,016.6,E,D*29
$IIVHW,,,,,0.00,N,,*19
$PGRME,2.4,M,2.4,M,3.4,M*29
$IIVLW,06480,N,000.0,N*59
$HCHDG,263.8,0.0,E,,*26
$IIVWR,118,L,04.0,N,,,,*73
$IIDPT,005.5,-1.0,*40
$HCHDG,263.8,0.0,E,,*26
$GPRMC,010030.2,A,4741.20031,N,12224.26416,W,000.00,223.3,090314,016.6,E,D*2A
$PGRME,2.4,M,2.4,M,3.4,M*29
$IIVHW,,,,,0.00,N,,*19
$YXXDR,A,5.4,D,PTCH,A,3.3,D,ROLL*5C
$HCHDG,263.8,0.0,E,,*26
$HCHDG,263.9,0.0,E,,*27
$GPRMC,010030.4,A,4741.20031,N,12224.26416,W,000.00,223.3,090314,016.6,E,D*2C
$GPRMB,A,3.66,L,,Lac,4823.3220,N,12229.7720,W,42.3,355,-0.00,V*5A
$IIVHW,,,,,0.00,N,,*19
$PGRME,2.4,M,2.4,M,3.4,M*29
$HCHDG,263.9,0.0,E,,*27
$HCHDG,264.0,0.0,E,,*29
$P,0
$GPRMC,010030.6,A,4741.20031,N,12224.26416,W,000.01,223.3,090314,016.6,E,D*2F
$IIVHW,,,,,0.00,N,,*19
$PGRME,2.4,M,2.4,M,3.4,M*29
$HCHDG,264.0,0.0,E,,*29
$IIGLL,4741.200,N,12224.264,W,010000,A,A*40
$IIMWV,238,R,03.8,N,A*11
$YXXDR,A,5.3,D,PTCH,A,3.3,D,ROLL*5B
$PTAK,FFD1,3.3*55
$IIMWV,242,T,04.0,N,A*15
$HCHDG,264.0,0.0,E,,*29
$GPRMC,010030.8,A,4741.20031,N,12224.26416,W,000.00,223.3,090314,016.6,E,D*20
$IIVHW,,,,,0.00,N,,*19
$PGRME,2.4,M,2.4,M,3.4,M*29
$HCHDG,264.0,0.0,E,,*29
$IIRMB,A,3.00,L,,Lac ,,,,,042.3,355,,V,A*2C
$HCHDG,264.0,0.0,E,,*29
$IIRMC,010000,A,4741.200,N,12224.264,W,00.0,223,080314,16,E,A*16
$GPRMC,010031.0,A,4741.20031,N,12224.26415,W,000.00,223.3,090314,016.6,E,D*2A
$IIVHW,,,,,0.00,N,,*19
$PGRME,2.4,M,2.4,M,3.4,M*29
$HCHDG,264.0,0.0,E,,*29
$IIVLW,06480,N,000.0,N*59
$HCHDG,263.9,0.0,E,,*27
$IIVWR,122,L,03.8,N,,,,*75
$GPRMC,010031.2,A,4741.20031,N,12224.26415,W,000.00,223.3,090314,016.6,E,D*28
$PGRME,2.4,M,2.4,M,3.4,M*29
$IIVHW,,,,,0.00,N,,*19
$YXXDR,A,5.4,D,PTCH,A,3.3,D,ROLL*5C
$HCHDG,263.9,0.0,E,,*27
$HCHDG,263.9,0.0,E,,*27
$GPRMC,010031.4,A,4741.20031,N,12224.26415,W,000.01,223.3,090314,016.6,E,D*2F
$IIVHW,,,,,0.00,N,,*19
$PGRME,2.4,M,2.4,M,3.4,M*29
$HCHDG,263.9,0.0,E,,*27
$HCHDG,263.9,0.0,E,,*27
$GPRMC,010031.6,A,4741.20031,N,12224.26415,W,000.01,223.3,090314,016.6,E,D*2D
$GPRMB,A,3.66,L,,Lac,4823.3220,N,12229.7720,W,42.3,355,-0.01,V*5B
$P,0
$PGRME,2.4,M,2.4,M,3.4,M*29
$IIVHW,,,,,0.00,N,,*19
$IIDPT,005.5,-1.0,*40
$HCHDG,263.9,0.0,E,,*27
$IIGLL,4741.200,N,12224.264,W,010000,A,A*40
$YXXDR,A,5.4,D,PTCH,A,3.1,D,ROLL*5E
$PTAK,FFD1,3.1*57
$IIMWV,239,R,03.6,N,A*1E
$HCHDG,264.0,0.0,E,,*29
$GPRMC,010031.8,A,4741.20031,N,12224.26415,W,000.00,223.3,090314,016.6,E,D*22
$PGRME,2.4,M,2.4,M,3.4,M*29
$IIVHW,,,,,0.00,N,,*19
$IIMWV,238,T,03.8,N,A*17
$HCHDG,264.1,0.0,E,,*28
$IIRMB,A,3.00,L,,Lac ,,,,,042.3,355,,V,A*2C
$HCHDG,264.1,0.0,E,,*28
$GPRMC,010032.0,A,4741.20031,N,12224.26415,W,000.00,223.3,090314,016.6,E,D*29
$PGRME,2.4,M,2.4,M,3.4,M*29
$IIVHW,,,,,0.00,N,,*19
$HCHDG,264.1,0.0,E,,*28
$IIRMC,010000,A,4741.200,N,12224.264,W,00.0,223,080314,16,E,A*16
$HCHDG,264.0,0.0,E,,*29
$IIVLW,06480,N,000.0,N*59
$GPRMC,010032.2,A,4741.20031,N,12224.26415,W,000.01,223.3,090314,016.6,E,D*2A
$IIVHW,,,,,0.00,N,,*19
$PGRME,2.4,M,2.4,M,3.4,M*29
$YXXDR,A,5.4,D,PTCH,A,3.1,D,ROLL*5E
$HCHDG,264.0,0.0,E,,*29
$HCHDG,264.0,0.0,E,,*29
$GPRMC,010032.4,A,4741.20031,N,12224.26415,W,000.00,223.3,090314,016.6,E,D*2D
$PGRME,2.4,M,2.4,M,3.4,M*29
$IIVHW,,,,,0.00,N,,*19
$HCHDG,264.0,0.0,E,,*29
$HCHDG,264.1,0.0,E,,*28
$GPRMC,010032.6,A,4741.20031,N,12224.26415,W,000.00,223.3,090314,016.6,E,D*2F
$P,0
$PGRME,2.4,M,2.4,M,3.4,M*29
$IIVHW,,,,,0.00,N,,*19
$IIVWR,125,L,03.6,N,,,,*7C
$HCHDG,264.1,0.0,E,,*28
$IIDPT,005.3,-1.0,*46
$YXXDR,A,5.4,D,PTCH,A,3.1,D,ROLL*5E
$IIGLL,4741.200,N,12224.264,W,010000,A,A*40
$HCHDG,264.1,0.0,E,,*28
$GPRMC,010032.8,A,4741.20031,N,12224.26415,W,000.01,223.3,090314,016.6,E,D*20
$GPRMB,A,3.66,L,,Lac,4823.3220,N,12229.7720,W,42.3,355,-0.01,V*5B
$PGRME,2.4,M,2.4,M,3.4,M*29
$IIVHW,,,,,0.00,N,,*19
$IIMWV,235,R,03.6,N,A*12
$HCHDG,264.2,0.0,E,,*2B
$IIMWV,239,T,03.6,N,A*18
$HCHDG,264.2,0.0,E,,*2B
$IIRMB,A,3.00,L,,Lac ,,,,,042.3,355,,V,A*2C
$GPRMC,010033.0,A,4741.20031,N,12224.26414,W,000.01,223.3,090314,016.6,E,D*28
$PGRME,2.4,M,2.4,M,3.4,M*29
$IIVHW,,,,,0.00,N,,*19
$HCHDG,264.2,0.0,E,,*2B
$IIRMC,010000,A,4741.200,N,12224.264,W,00.0,223,080314,16,E,A*16
$HCHDG,264.2,0.0,E,,*2B
$GPRMC,010033.2,A,4741.20031,N,12224.26414,W,000.01,223.3,090314,016.6,E,D*2A
$PGRME,2.4,M,2.4,M,3.4,M*29
$IIVHW,,,,,0.00,N,,*19
$YXXDR,A,5.3,D,PTCH,A,3.3,D,ROLL*5B
$PTAK,FFD1,3.3*55
$HCHDG,264.2,0.0,E,,*2B
$HCHDG,264.3,0.0,E,,*2A
$GPRMC,010033.4,A,4741.20031,N,12224.26414,W,000.00,223.3,090314,016.6,E,D*2D
$IIVHW,,,,,0.00,N,,*19
$PGRME,2.4,M,2.4,M,3.4,M*29
$HCHDG,264.4,0.0,E,,*2D
$HCHDG,264.3,0.0,E,,*2A
$GPRMC,010033.6,A,4741.20031,N,12224.26414,W,000.01,223.3,090314,016.6,E,D*2E
$P,0
$PGRME,2.4,M,2.4,M,3.4,M*29
$IIVHW,,,,,0.00,N,,*19
$IIVLW,06480,N,000.0,N*59
$HCHDG,264.3,0.0,E,,*2A
$IIVWR,124,L,03.6,N,,,,*7D
$YXXDR,A,5.3,D,PTCH,A,3.3,D,ROLL*5B
$IIDPT,005.3,-1.0,*46
$HCHDG,264.3,0.0,E,,*2A
$GPRMC,010033.8,A,4741.20031,N,12224.26413,W,000.01,223.3,090314,016.6,E,D*27
$PGRME,2.4,M,2.4,M,3.4,M*29
$IIVHW,,,,,0.00,N,,*19
$IIGLL,4741.200,N,12224.264,W,010000,A,A*40
$HCHDG,264.3,0.0,E,,*2A
$PTAK,FFP1,HEEL,@*07
$IIMWV,236,R,03.6,N,A*11
$IIMWV,235,T,03.6,N,A*14
$HCHDG,264.3,0.0,E,,*2A
$GPRMC,010034.0,A,4741.20030,N,12224.26413,W,000.00,223.3,090314,016.6,E,D*28
$GPRMB,A,3.66,L,,Lac,4823.3220,N,12229.7720,W,42.3,355,-0.00,V*5A
$PGRME,2.4,M,2.4,M,3.4,M*29
$IIVHW,,,,,0.00,N,,*19
$IIRMB,A,3.00,L,,Lac ,,,,,042.3,355,,V,A*2C
$HCHDG,264.5,0.0,E,,*2C
$HCHDG,264.5,0.0,E,,*2C
$IIRMC,010000,A,4741.200,N,12224.264,W,00.0,223,080314,16,E,A*16
$GPRMC,010034.2,A,4741.20030,N,12224.26413,W,000.01,223.3,090314,016.6,E,D*2B
$PGRME,2.4,M,2.4,M,3.4,M*29
$IIVHW,,,,,0.00,N,,*19
$YXXDR,A,5.4,D,PTCH,A,3.1,D,ROLL*5E
$PTAK,FFD1,3.1*57
$HCHDG,264.5,0.0,E,,*2C
$HCHDG,264.4,0.0,E,,*2D
$GPRMC,010034.4,A,4741.20030,N,12224.26413,W,000.01,223.3,090314,016.6,E,D*2D
$PGRME,2.4,M,2.4,M,3.4,M*29
$IIVHW,,,,,0.00,N,,*19
$HCHDG,264.4,0.0,E,,*2D
$HCHDG,264.5,0.0,E,,*2C
$GPRMC,010034.6,A,4741.20030,N,12224.26413,W,000.01,223.3,090314,016.6,E,D*2F
$P,0
$PGRME,2.4,M,2.4,M,3.4,M*29
$IIVHW,,,,,0.00,N,,*19
$HCHDG,264.5,0.0,E,,*2C
$IIVLW,06480,N,000.0,N*59
$YXXDR,A,5.4,D,PTCH,A,3.3,D,ROLL*5C
$IIVWR,116,L,03.5,N,,,,*7F
$HCHDG,264.5,0.0,E,,*2C
$IIDPT,005.3,-1.0,*46
$GPRMC,010034.8,A,4741.20030,N,12224.26413,W,000.01,223.3,090314,016.6,E,D*21
$PGRME,2.4,M,2.4,M,3.4,M*29
$IIVHW,,,,,0.00,N,,*19
$HCHDG,264.6,0.0,E,,*2F
$IIGLL,4741.200,N,12224.264,W,010000,A,A*40
$IIMWV,244,R,03.5,N,A*17
$HCHDG,264.6,0.0,E,,*2F
$IIMWV,236,T,03.6,N,A*17
$GPRMC,010035.0,A,4741.20030,N,12224.26413,W,000.01,223.3,090314,016.6,E,D*28
$GPRMB,A,3.66,L,,Lac,4823.3220,N,12229.7720,W,42.3,355,-0.01,V*5B
$IIVHW,,,,,0.00,N,,*19
$PGRME,2.4,M,2.4,M,3.4,M*29
$HCHDG,264.7,0.0,E,,*2E
$IIRMB,A,3.00,L,,Lac ,,,,,042.3,355,,V,A*2C
$HCHDG,264.8,0.0,E,,*21
$GPRMC,010035.2,A,4741.20030,N,12224.26413,W,000.01,223.3,090314,016.6,E,D*2A
$IIVHW,,,,,0.00,N,,*19
$PGRME,2.4,M,2.4,M,3.4,M*29
$YXXDR,A,5.3,D,PTCH,A,3.3,D,ROLL*5B
$PTAK,FFD1,3.3*55
$HCHDG,264.8,0.0,E,,*21
$HCHDG,264.9,0.0,E,,*20
$GPRMC,010035.4,A,4741.20029,N,12224.26412,W,000.01,223.3,090314,016.6,E,D*25
$IIVHW,,,,,0.00,N,,*19
$PGRME,2.4,M,2.4,M,3.4,M*29
$HCHDG,265.0,0.0,E,,*28
$HCHDG,265.0,0.0,E,,*28
$GPRMC,010035.6,A,4741.20029,N,12224.26412,W,000.01,223.3,090314,016.6,E,D*27
$P,0
$PGRME,2.4,M,2.4,M,3.4,M*29
$IIVHW,,,,,0.00,N,,*19
$HCHDG,264.9,0.0,E,,*20
$IIRMC,010000,A,4741.200,N,12224.264,W,00.0,223,080314,16,E,A*16
$YXXDR,A,5.4,D,PTCH,A,3.3,D,ROLL*5C
$HCHDG,265.0,0.0,E,,*28
$GPRMC,010035.8,A,4741.20029,N,12224.26412,W,000.00,223.3,090314,016.6,E,D*28
$PGRME,2.4,M,2.4,M,3.4,M*29
$IIVHW,,,,,0.00,N,,*19
$IIVLW,06480,N,000.0,N*59
$HCHDG,265.0,0.0,E,,*28
$IIVWR,111,L,03.5,N,,,,*78
$IIDPT,005.5,-1.0,*40
$HCHDG,265.0,0.0,E,,*28
$GPRMC,010036.0,A,4741.20029,N,12224.26412,W,000.00,223.3,090314,016.6,E,D*23
$IIVHW,,,,,0.00,N,,*19
$PGRME,2.4,M,2.4,M,3.4,M*29
$IIGLL,4741.200,N,12224.264,W,010000,A,A*40
$HCHDG,265.0,0.0,E,,*28
$IIMWV,249,R,03.5,N,A*1A
$IIMWV,244,T,03.5,N,A*11
$HCHDG,265.0,0.0,E,,*28
$GPRMC,010036.2,A,4741.20029,N,12224.26412,W,000.00,223.3,090314,016.6,E,D*21
$GPRMB,A,3.66,L,,Lac,4823.3220,N,12229.7720,W,42.3,355,-0.00,V*5A
$IIVHW,,,,,0.00,N,,*19
$PGRME,2.4,M,2.4,M,3.4,M*29
$YXXDR,A,5.4,D,PTCH,A,3.1,D,ROLL*5E
$HCHDG,265.1,0.0,E,,*29
$HCHDG,265.1,0.0,E,,*29
$GPRMC,010036.4,A,4741.20029,N,12224.26412,W,000.00,223.3,090314,016.6,E,D*27
$IIVHW,,,,,0.00,N,,*19
$PGRME,2.4,M,2.4,M,3.4,M*29
$HCHDG,265.2,0.0,E,,*2A
$HCHDG,265.2,0.0,E,,*2A
$GPRMC,010036.6,A,4741.20029,N,12224.26412,W,000.00,223.3,090314,016.6,E,D*25
$P,0
$PGRME,2.4,M,2.4,M,3.4,M*29
$IIVHW,,,,,0.00,N,,*19
$HCHDG,265.3,0.0,E,,*2B
$IIRMB,A,3.00,L,,Lac ,,,,,042.3,355,,V,A*2C
$YXXDR,A,5.4,D,PTCH,A,3.1,D,ROLL*5E
$PTAK,FFD1,3.1*57
$HCHDG,265.2,0.0,E,,*2A
$GPRMC,010036.8,A,4741.20029,N,12224.26412,W,000.01,223.3,090314,016.6,E,D*2A
$IIRMC,010000,A,4741.200,N,12224.264,W,00.0,223,080314,16,E,A*16
$IIVHW,,,,,0.00,N,,*19
$PGRME,2.4,M,2.4,M,3.4,M*29
$HCHDG,265.3,0.0,E,,*2B
$IIVLW,06480,N,000.0,N*59
$HCHDG,265.4,0.0,E,,*2C
$IIVWR,112,L,03.9,N,,,,*77
$GPRMC,010037.0,A,4741.20029,N,12224.26411,W,000.00,223.3,090314,016.6,E,D*21
$PGRME,2.4,M,2.4,M,3.4,M*29
$IIVHW,,,,,0.00,N,,*19
$IIDPT,005.5,-1.0,*40
$HCHDG,265.5,0.0,E,,*2D
$IIGLL,4741.200,N,12224.264,W,010000,A,A*40
$HCHDG,265.4,0.0,E,,*2C
$IIMWV,248,R,03.9,N,A*17
$GPRMC,010037.2,A,4741.20028,N,12224.26411,W,000.00,223.3,090314,016.6,E,D*22
$GPRMB,A,3.66,L,,Lac,4823.3220,N,12229.7720,W,42.3,355,-0.00,V*5A
$PGRME,2.4,M,2.4,M,3.4,M*29
$IIVHW,,,,,0.00,N,,*19
$YXXDR,A,5.3,D,PTCH,A,3.3,D,ROLL*5B
$HCHDG,265.5,0.0,E,,*2D
$HCHDG,265.5,0.0,E,,*2D
$GPRMC,010037.4,A,4741.20028,N,12224.26411,W,000.00,223.3,090314,016.6,E,D*24
$PGRME,2.4,M,2.4,M,3.4,M*29
$IIVHW,,,,,0.00,N,,*19
$HCHDG,265.5,0.0,E,,*2D
$HCHDG,265.7,0.0,E,,*2F
$GPRMC,010037.6,A,4741.20028,N,12224.26411,W,000.00,223.3,090314,016.6,E,D*26
$P,0
$PGRME,2.4,M,2.4,M,3.4,M*29
$IIVHW,,,,,0.00,N,,*19
$IIMWV,248,T,03.9,N,A*11
$HCHDG,265.7,0.0,E,,*2F
$IIRMB,A,3.00,L,,Lac ,,,,,042.3,355,,V,A*2C
$YXXDR,A,5.4,D,PTCH,A,3.3,D,ROLL*5C
$PTAK,FFD1,3.3*55
$HCHDG,265.7,0.0,E,,*2F
$GPRMC,010037.8,A,4741.20028,N,12224.26411,W,000.00,223.3,090314,016.6,E,D*28
$PGRME,2.4,M,2.4,M,3.4,M*29
$IIVHW,,,,,0.00,N,,*19
$HCHDG,265.8,0.0,E,,*20
$IIRMC,010000,A,4741.200,N,12224.264,W,00.0,223,080314,16,E,A*16
$PTAK,FFP1,HEEL,@*07
$HCHDG,265.8,0.0,E,,*20
$IIVLW,06480,N,000.0,N*59
$GPRMC,010038.0,A,4741.20028,N,12224.26410,W,000.01,223.3,090314,016.6,E,D*2F
$IIVHW,,,,,0.00,N,,*19
$PGRME,2.4,M,2.4,M,3.4,M*29
$IIVWR,117,L,03.7,N,,,,*7C
$HCHDG,265.8,0.0,E,,*20
$IIDPT,005.3,-1.0,*46
$HCHDG,265.9,0.0,E,,*21
$IIGLL,4741.200,N,12224.264,W,010000,A,A*40
$GPRMC,010038.2,A,4741.20028,N,12224.26410,W,000.00,223.3,090314,016.6,E,D*2C
$GPRMB,A,3.66,L,,Lac,4823.3220,N,12229.7720,W,42.3,355,-0.00,V*5A
$IIVHW,,,,,0.00,N,,*19
$PGRME,2.4,M,2.4,M,3.4,M*29
$YXXDR,A,5.4,D,PTCH,A,3.3,D,ROLL*5C
$HCHDG,265.9,0.0,E,,*21
$HCHDG,266.0,0.0,E,,*2B
$GPRMC,010038.4,A,4741.20028,N,12224.26410,W,000.00,223.3,090314,016.6,E,D*2A
$IIVHW,,,,,0.00,N,,*19
$PGRME,2.4,M,2.4,M,3.4,M*29
$HCHDG,265.9,0.0,E,,*21
$HCHDG,265.9,0.0,E,,*21
$GPRMC,010038.6,A,4741.20028,N,12224.26410,W,000.00,223.3,090314,016.6,E,D*28
$IIVHW,,,,,0.00,N,,*19
$PGRME,2.4,M,2.4,M,3.4,M*29
$P,0
$IIMWV,238,R,04.1,N,A*1F
$HCHDG,265.9,0.0,E,,*21
$IIMWV,243,T,03.7,N,A*14
$YXXDR,A,5.3,D,PTCH,A,3.3,D,ROLL*5B
$IIRMB,A,3.00,L,,Lac ,,,,,042.3,355,,V,A*2C
$HCHDG,266.0,0.0,E,,*2B
$GPRMC,010038.8,A,4741.20028,N,12224.26410,W,000.00,223.3,090314,016.6,E,D*26
$IIVHW,,,,,0.00,N,,*19
$PGRME,2.4,M,2.4,M,3.4,M*29
$HCHDG,266.0,0.0,E,,*2B
$IIRMC,010000,A,4741.200,N,12224.264,W,00.0,223,080314,16,E,A*16
$HCHDG,266.0,0.0,E,,*2B
$GPRMC,010039.0,A,4741.20028,N,12224.26410,W,000.00,223.3,090314,016.6,E,D*2F
$IIVHW,,,,,0.00,N,,*19
$PGRME,2.4,M,2.4,M,3.4,M*29
$IIVLW,06480,N,000.0,N*59
$HCHDG,266.1,0.0,E,,*2A
$IIVWR,122,L,04.1,N,,,,*7B
$IIDPT,005.5,-1.0,*40
$HCHDG,266.1,0.0,E,,*2A
$GPRMC,010039.2,A,4741.20028,N,12224.26410,W,000.00,223.3,090314,016.6,E,D*2D
$IIVHW,,,,,0.00,N,,*19
$PGRME,2.4,M,2.4,M,3.4,M*29
$YXXDR,A,5.4,D,PTCH,A,3.1,D,ROLL*5E
$PTAK,FFD1,3.1*57
$HCHDG,266.2,0.0,E,,*29
$HCHDG,266.2,0.0,E,,*29
$GPRMC,010039.4,A,4741.20028,N,12224.26409,W,000.00,223.3,090314,016.6,E,D*23
$GPRMB,A,3.66,L,,Lac,4823.3220,N,12229.7720,W,42.3,355,-0.00,V*5A
$IIVHW,,,,,0.00,N,,*19
$PGRME,2.4,M,2.4,M,3.4,M*29
$HCHDG,266.3,0.0,E,,*28
$HCHDG,266.3,0.0,E,,*28
$GPRMC,010039.6,A,4741.20028,N,12224.26409,W,000.00,223.3,090314,016.6,E,D*21
$P,0
$IIVHW,,,,,0.00,N,,*19
$PGRME,2.4,M,2.4,M,3.4,M*29
$HCHDG,266.4,0.0,E,,*2F
$IIGLL,4741.200,N,12224.264,W,010000,A,A*40
$IIMWV,238,R,04.2,N,A*1C
$YXXDR,A,5.4,D,PTCH,A,3.1,D,ROLL*5E
$IIMWV,238,T,04.1,N,A*19
$HCHDG,266.4,0.0,E,,*2F
$GPRMC,010039.8,A,4741.20028,N,12224.26409,W,000.01,223.3,090314,016.6,E,D*2E
$IIVHW,,,,,0.00,N,,*19
$PGRME,2.4,M,2.4,M,3.4,M*29
$HCHDG,266.6,0.0,E,,*2D
$IIRMB,A,3.00,L,,Lac ,,,,,042.3,355,,V,A*2C
$HCHDG,266.6,0.0,E,,*2D
$GPRMC,010040.0,A,4741.20028,N,12224.26408,W,000.00,223.3,090314,016.6,E,D*28
$IIRMC,010000,A,4741.200,N,12224.264,W,00.0,223,080314,16,E,A*16
$IIVHW,,,,,0.00,N,,*19
$PGRME,2.4,M,2.4,M,3.4,M*29
$HCHDG,266.5,0.0,E,,*2E
$IIVLW,06480,N,000.0,N*59
$HCHDG,266.6,0.0,E,,*2D
$IIVWR,122,L,04.2,N,,,,*78
$GPRMC,010040.2,A,4741.20028,N,12224.26408,W,000.00,223.3,090314,016.6,E,D*2A
$PGRME,2.4,M,2.4,M,3.4,M*29
$IIVHW,,,,,0.00,N,,*19
$YXXDR,A,5.4,D,PTCH,A,3.1,D,ROLL*5E
$HCHDG,266.7,0.0,E,,*2C
$HCHDG,266.8,0.0,E,,*23
$GPRMC,010040.4,A,4741.20028,N,12224.26408,W,000.00,223.3,090314,016.6,E,D*2C
$IIVHW,,,,,0.00,N,,*19
$PGRME,2.4,M,2.4,M,3.4,M*29
$HCHDG,266.8,0.0,E,,*23
$HCHDG,266.8,0.0,E,,*23
$GPRMC,010040.6,A,4741.20028,N,12224.26408,W,000.00,223.3,090314,016.6,E,D*2E
$GPRMB,A,3.66,L,,Lac,4823.3220,N,12229.7720,W,42.3,355,-0.00,V*5A
$P,0
$PGRME,2.4,M,2.4,M,3.4,M*29
$IIVHW,,,,,0.00,N,,*19
$IIDPT,005.5,-1.0,*40
$HCHDG,266.9,0.0,E,,*22
$IIGLL,4741.200,N,12224.264,W,010000,A,A*40
$YXXDR,A,5.4,D,PTCH,A,3.1,D,ROLL*5E
$PTAK,FFD1,3.1*57
$IIMWV,236,R,04.4,N,A*14
$HCHDG,266.9,0.0,E,,*22
$GPRMC,010040.8,A,4741.20028,N,12224.26408,W,000.00,223.3,090314,016.6,E,D*20
$PGRME,2.4,M,2.4,M,3.4,M*29
$IIVHW,,,,,0.00,N,,*19
$IIMWV,238,T,04.2,N,A*1A
$HCHDG,267.0,0.0,E,,*2A
$IIRMB,A,3.00,L,,Lac ,,,,,042.3,355,,V,A*2C
$HCHDG,267.1,0.0,E,,*2B
$GPRMC,010041.0,A,4741.20028,N,12224.26408,W,000.00,223.3,090314,016.6,E,D*29
$IIVHW,,,,,0.00,N,,*19
$PGRME,2.4,M,2.4,M,3.4,M*29
$HCHDG,267.1,0.0,E,,*2B
$IIRMC,010000,A,4741.200,N,12224.264,W,00.0,223,080314,16,E,A*16
$HCHDG,267.1,0.0,E,,*2B
$IIVLW,06480,N,000.0,N*59
$GPRMC,010041.2,A,4741.20028,N,12224.26407,W,000.01,223.3,090314,016.6,E,D*25
$IIVHW,,,,,0.00,N,,*19
$PGRME,2.4,M,2.4,M,3.4,M*29
$YXXDR,A,5.3,D,PTCH,A,3.3,D,ROLL*5B
$HCHDG,267.1,0.0,E,,*2B
$HCHDG,267.2,0.0,E,,*28
$GPRMC,010041.4,A,4741.20028,N,12224.26407,W,000.01,223.3,090314,016.6,E,D*23
$PGRME,2.4,M,2.4,M,3.4,M*29
$IIVHW,,,,,0.00,N,,*19
$HCHDG,267.2,0.0,E,,*28
$HCHDG,267.3,0.0,E,,*29
$GPRMC,010041.6,A,4741.20028,N,12224.26407,W,000.01,223.3,090314,016.6,E,D*21
$PGRME,2.4,M,2.4,M,3.4,M*29
$P,0
$IIVHW,,,,,0.00,N,,*19
$IIVWR,123,L,04.4,N,,,,*7F
$HCHDG,267.3,0.0,E,,*29
$IIDPT,005.5,-1.0,*40
$YXXDR,A,5.3,D,PTCH,A,3.3,D,ROLL*5B
$IIGLL,4741.200,N,12224.264,W,010000,A,A*40
$HCHDG,267.3,0.0,E,,*29
$GPRMC,010041.8,A,4741.20027,N,12224.26407,W,000.01,223.3,090314,016.6,E,D*20
$GPRMB,A,3.66,L,,Lac,4823.3220,N,12229.7720,W,42.3,355,-0.01,V*5B
$PGRME,2.4,M,2.4,M,3.4,M*29
$IIVHW,,,,,0.00,N,,*19
$PTAK,FFP1,HEEL,@*07
$IIMWV,237,R,04.4,N,A*15
$HCHDG,267.5,0.0,E,,*2F
$IIMWV,236,T,04.4,N,A*12
$HCHDG,267.5,0.0,E,,*2F
$IIRMB,A,3.00,L,,Lac ,,,,,042.3,355,,V,A*2C
$GPRMC,010042.0,A,4741.20027,N,12224.26407,W,000.00,223.3,090314,016.6,E,D*2A
$PGRME,2.4,M,2.4,M,3.4,M*29
$IIVHW,,,,,0.00,N,,*19
$HCHDG,267.5,0.0,E,,*2F
$IIRMC,010000,A,4741.200,N,12224.264,W,00.0,223,080314,16,E,A*16
$HCHDG,267.5,0.0,E,,*2F
$GPRMC,010042.2,A,4741.20027,N,12224.26407,W,000.01,223.3,090314,016.6,E,D*29
$PGRME,2.4,M,2.4,M,3.4,M*29
$IIVHW,,,,,0.00,N,,*19
$YXXDR,A,5.4,D,PTCH,A,3.3,D,ROLL*5C
$PTAK,FFD1,3.3*55
$HCHDG,267.5,0.0,E,,*2F
$HCHDG,267.5,0.0,E,,*2F
$GPRMC,010042.4,A,4741.20027,N,12224.26407,W,000.01,223.3,090314,016.6,E,D*2F
$IIVHW,,,,,0.00,N,,*19
$PGRME,2.4,M,2.4,M,3.4,M*29
$HCHDG,267.6,0.0,E,,*2C
$HCHDG,267.6,0.0,E,,*2C
$GPRMC,010042.6,A,4741.20027,N,12224.26407,W,000.00,223.3,090314,016.6,E,D*2C
$P,0
$PGRME,2.4,M,2.4,M,3.4,M*29
$IIVHW,,,,,0.00,N,,*19
$IIVLW,06480,N,000.0,N*59
$HCHDG,267.6,0.0,E,,*2C
$IIVWR,120,L,04.9,N,,,,*71
$YXXDR,A,5.3,D,PTCH,A,3.3,D,ROLL*5B
$IIDPT,005.5,-1.0,*40
$HCHDG,267.7,0.0,E,,*2D
$GPRMC,010042.8,A,4741.20027,N,12224.26407,W,000.01,223.3,090314,016.6,E,D*23
$IIVHW,,,,,0.00,N,,*19
$PGRME,2.4,M,2.4,M,3.4,M*29
$IIGLL,4741.200,N,12224.264,W,010000,A,A*40
$HCHDG,267.7,0.0,E,,*2D
$IIMWV,240,R,04.9,N,A*18
$IIMWV,237,T,04.4,N,A*13
$HCHDG,267.8,0.0,E,,*22
$GPRMC,010043.0,A,4741.20027,N,12224.26407,W,000.00,223.3,090314,016.6,E,D*2B
$GPRMB,A,3.66,L,,Lac,4823.3220,N,12229.7720,W,42.3,355,-0.00,V*5A
$IIVHW,,,,,0.00,N,,*19
$PGRME,2.4,M,2.4,M,3.4,M*29
$IIRMB,A,3.00,L,,Lac ,,,,,042.3,355,,V,A*2C
$HCHDG,267.8,0.0,E,,*22
$HCHDG,267.8,0.0,E,,*22
$IIRMC,010000,A,4741.200,N,12224.264,W,00.0,223,080314,16,E,A*16
$GPRMC,010043.2,A,4741.20027,N,12224.26406,W,000.00,223.3,090314,016.6,E,D*28
$IIVHW,,,,,0.00,N,,*19
$PGRME,2.4,M,2.4,M,3.4,M*29
$YXXDR,A,5.2,D,PTCH,A,3.2,D,ROLL*5B
$PTAK,FFD1,3.2*54
$HCHDG,267.5,0.0,E,,*2F
$HCHDG,267.6,0.0,E,,*2C
$GPRMC,010043.4,A,4741.20027,N,12224.26406,W,000.00,223.3,090314,016.6,E,D*2E
$IIVHW,,,,,0.00,N,,*19
$PGRME,2.4,M,2.4,M,3.4,M*29
$HCHDG,267.6,0.0,E,,*2C
$HCHDG,267.6,0.0,E,,*2C
$GPRMC,010043.6,A,4741.20027,N,12224.26406,W,000.01,223.3,090314,016.6,E,D*2D
$P,0
$IIVHW,,,,,0.00,N,,*19
$PGRME,2.4,M,2.4,M,3.4,M*29
$HCHDG,267.7,0.0,E,,*2D
$IIVLW,06480,N,000.0,N*59
$YXXDR,A,5.2,D,PTCH,A,3.2,D,ROLL*5B
$IIVWR,116,L,04.8,N,,,,*75
$IIDPT,005.5,-1.0,*40
$HCHDG,267.7,0.0,E,,*2D
$GPRMC,010043.8,A,4741.20027,N,12224.26406,W,000.00,223.3,090314,016.6,E,D*22
$IIVHW,,,,,0.00,N,,*19
$PGRME,2.4,M,2.4,M,3.4,M*29
$HCHDG,267.7,0.0,E,,*2D
$IIGLL,4741.200,N,12224.264,W,010000,A,A*40
$IIMWV,244,R,04.8,N,A*1D
$HCHDG,267.8,0.0,E,,*22
$IIMWV,240,T,04.9,N,A*1E
$GPRMC,010044.0,A,4741.20027,N,12224.26406,W,000.01,223.3,090314,016.6,E,D*2C
$GPRMB,A,3.66,L,,Lac,4823.3220,N,12229.7720,W,42.3,355,-0.01,V*5B
$IIVHW,,,,,0.00,N,,*19
$PGRME,2.4,M,2.4,M,3.4,M*29
$PGRMT,GPS 18x-5Hz software ver. 3.20,,,,,,,,*30
$HCHDG,267.8,0.0,E,,*22
$IIRMB,A,3.00,L,,Lac ,,,,,042.3,355,,V,A*2C
$HCHDG,267.8,0.0,E,,*22
$GPRMC,010044.2,A,4741.20027,N,12224.26406,W,000.01,223.3,090314,016.6,E,D*2E
$IIVHW,,,,,0.00,N,,*19
$PGRME,2.4,M,2.4,M,3.4,M*29
$YXXDR,A,5.2,D,PTCH,A,3.1,D,ROLL*58
$HCHDG,267.8,0.0,E,,*22
$HCHDG,267.8,0.0,E,,*22
$GPRMC,010044.4,A,4741.20027,N,12224.26406,W,000.00,223.3,090314,016.6,E,D*29
$PGRME,2.4,M,2.4,M,3.4,M*29
$IIVHW,,,,,0.00,N,,*19
$HCHDG,267.8,0.0,E,,*22
$HCHDG,267.8,0.0,E,,*22
$P,0
$GPRMC,010044.6,A,4741.20027,N,12224.26405,W,000.01,223.3,090314,016.6,E,D*29
$IIVHW,,,,,0.00,N,,*19
$PGRME,2.4,M,2.4,M,3.4,M*29
$HCHDG,267.9,0.0,E,,*23
$IIRMC,010000,A,4741.200,N,12224.264,W,00.0,223,080314,16,E,A*16
$YXXDR,A,5.2,D,PTCH,A,3.1,D,ROLL*58
$PTAK,FFD1,3.1*57
$HCHDG,267.9,0.0,E,,*23
$GPRMC,010044.8,A,4741.20027,N,12224.26405,W,000.01,223.3,090314,016.6,E,D*27
$IIVHW,,,,,0.00,N,,*19
$PGRME,2.4,M,2.4,M,3.4,M*29
$IIVLW,06480,N,000.0,N*59
$HCHDG,268.0,0.0,E,,*25
$IIVWR,118,L,04.7,N,,,,*74
$IIDPT,005.5,-1.0,*40
$HCHDG,268.0,0.0,E,,*25
$GPRMC,010045.0,A,4741.20027,N,12224.26405,W,000.00,223.3,090314,016.6,E,D*2F
$IIVHW,,,,,0.00,N,,*19
$PGRME,2.4,M,2.4,M,3.4,M*29
$IIGLL,4741.200,N,12224.264,W,010000,A,A*40
$HCHDG,268.0,0.0,E,,*25
$IIMWV,242,R,04.7,N,A*14
$IIMWV,244,T,04.8,N,A*1B
$HCHDG,268.1,0.0,E,,*24
$GPRMC,010045.2,A,4741.20026,N,12224.26405,W,000.02,223.3,090314,016.6,E,D*2E
$GPRMB,A,3.66,L,,Lac,4823.3220,N,12229.7720,W,42.3,355,-0.01,V*5B
$IIVHW,,,,,0.00,N,,*19
$PGRME,2.4,M,2.4,M,3.4,M*29
$YXXDR,A,5.4,D,PTCH,A,3.1,D,ROLL*5E
$HCHDG,268.1,0.0,E,,*24
$HCHDG,268.2,0.0,E,,*27
$GPRMC,010045.4,A,4741.20026,N,12224.26405,W,000.01,223.3,090314,016.6,E,D*2B
$IIVHW,,,,,0.00,N,,*19
$PGRME,2.4,M,2.4,M,3.4,M*29
$HCHDG,268.2,0.0,E,,*27
$HCHDG,268.2,0.0,E,,*27
$P,0
$GPRMC,010045.6,A,4741.20026,N,12224.26405,W,000.00,223.3,090314,016.6,E,D*28
$IIVHW,,,,,0.00,N,,*19
$PGRME,2.4,M,2.4,M,3.4,M*29
$HCHDG,268.2,0.0,E,,*27
$IIRMB,A,3.00,L,,Lac ,,,,,042.3,355,,V,A*2C
$YXXDR,A,5.4,D,PTCH,A,3.1,D,ROLL*5E
$HCHDG,268.2,0.0,E,,*27
$GPRMC,010045.8,A,4741.20026,N,12224.26405,W,000.00,223.3,090314,016.6,E,D*26
