$P,642
$IIRMB,A,3.00,L,,Lac ,,,,,030.6,353,,V,A*2A
$GPRMC,203431.2,A,4752.99826,N,12224.06624,W,005.19,136.7,080314,016.7,E,D*2E
$PGRME,2.4,M,2.4,M,3.4,M*29
$IIVHW,,,,,6.47,N,,*1C
$P,680
$HCHDG,121.9,0.0,E,,*22
$P,650
$P,679
$IIRMC,203400,A,4752.999,N,12224.068,W,05.0,142,080314,16,E,A*14
$IIRMB,A,0.00,L,B,X,4714.072040,N,12225.414044,W,39.0,181,3.87,V39
$P,651
$HCHDG,122.0,0.0,E,,*28
$GPRMC,203431.4,A,4752.99802,N,12224.06588,W,005.23,137.9,080314,016.7,E,D*2D
$P,674
$PGRME,2.4,M,2.4,M,3.4,M*29
$IIVHW,,,,,6.43,N,,*18
$YXXDR,A,2.7,D,PTCH,A,-28.6,D,ROLL*49
$PTAK,FFD1,28.6*69
$P,657
$HCHDG,122.3,0.0,E,,*2B
$P,650
$P,637
$HCHDG,122.6,0.0,E,,*2E
$P,695
$GPRMC,203431.6,A,4752.99783,N,12224.06561,W,005.17,141.4,080314,016.7,E,D*25
$IIRMB,A,0.00,L,B,X,4714.072040,N,12225.414044,W,39.0,181,3.96,V39
$GPRMB,A,3.79,L,,Lac,4823.3220,N,12229.7720,W,30.6,353,-4.41,V*53
$PGRME,2.4,M,2.4,M,3.4,M*29
$IIVHW,,,,,6.44,N,,*1F
$P,704
$HCHDG,122.8,0.0,E,,*20
$P,696
$P,654
$HCHDG,122.9,0.0,E,,*21
$P,698
$GPRMC,203431.8,A,4752.99762,N,12224.06532,W,005.10,140.0,080314,016.7,E,D*20
$IIRMB,A,0.00,L,B,X,4714.072040,N,12225.414044,W,39.0,181,3.83,V3d
$PGRME,2.4,M,2.4,M,3.4,M*29
$IIVHW,,,,,6.48,N,,*13
$P,667
$IIVLW,06480,N,000.0,N*59
$P,732
$HCHDG,122.9,0.0,E,,*21
$IIVWR,021,R,20.5,N,,,,*65
$P,722
$P,763
$YXXDR,A,1.9,D,PTCH,A,-30.3,D,ROLL*48
$IIDPT,044.2,-1.0,*42
$P,721
$HCHDG,123.0,0.0,E,,*29
$GPRMC,203432.0,A,4752.99743,N,12224.06506,W,005.28,140.9,080314,016.7,E,D*2D
$IIVHW,,,,,6.67,N,,*1E
$PGRME,2.4,M,2.4,M,3.4,M*29
$P,726
$IIGLL,4752.998,N,12224.066,W,203400,A,A*4C
$P,665
$HCHDG,122.9,0.0,E,,*21
$IIMWV,021,R,20.5,N,A*17
$P,654
$IIMWV,021,T,20.6,N,A*12
$HCHDG,122.8,0.0,E,,*20
$P,602
$GPRMC,203432.2,A,4752.99721,N,12224.06486,W,005.33,135.3,080314,016.7,E,D*20
$IIRMB,A,0.00,L,B,X,4714.072040,N,12225.414044,W,39.0,181,3.70,V31
$IIVHW,,,,,6.79,N,,*11
$PGRME,2.4,M,2.4,M,3.4,M*29
$P,636
$IIRMB,A,3.00,L,,Lac ,,,,,030.6,353,,V,A*2A
$HCHDG,122.6,0.0,E,,*2E
$P,633
$P,709
$P,707
$HCHDG,122.5,0.0,E,,*2D
$IIRMC,203400,A,4752.998,N,12224.066,W,05.1,133,080314,16,E,A*1C
$P,746
$GPRMC,203432.4,A,4752.99698,N,12224.06451,W,005.62,130.5,080314,016.7,E,D*28
$IIRMB,A,0.00,L,B,X,4714.072040,N,12225.414044,W,39.0,181,3.55,V36
$IIVHW,,,,,6.81,N,,*16
$PGRME,2.4,M,2.4,M,3.4,M*29
$P,713
$YXXDR,A,1.3,D,PTCH,A,-27.4,D,ROLL*43
$PTAK,FFD1,27.4*64
$P,746
$HCHDG,121.9,0.0,E,,*22
$P,717
$P,769
$HCHDG,121.4,0.0,E,,*2F
$GPRMC,203432.6,A,4752.99680,N,12224.06418,W,005.32,129.5,080314,016.7,E,D*23
$IIRMB,A,0.00,L,B,X,4714.072040,N,12225.414044,W,39.0,181,3.29,V3d
$P,745
$IIVHW,,,,,6.96,N,,*10
$PGRME,2.4,M,2.4,M,3.4,M*29
$P,784
$HCHDG,121.0,0.0,E,,*2B
$P,746
$P,755
$HCHDG,120.7,0.0,E,,*2D
$P,731
$GPRMC,203432.8,A,4752.99667,N,12224.06380,W,005.16,130.5,080314,016.7,E,D*2C
$GPRMB,A,3.79,L,,Lac,4823.3220,N,12229.7720,W,30.6,353,-3.81,V*58
$P,755
$IIVHW,,,,,7.11,N,,*1E
$PTAK,FFP1,HEEL,@*07
$PGRME,2.4,M,2.4,M,3.4,M*29
$P,699
$HCHDG,120.5,0.0,E,,*2F
$IIVLW,06480,N,000.0,N*59
$P,724
$P,699
$YXXDR,A,2.9,D,PTCH,A,-26.3,D,ROLL*4C
$IIVWR,020,R,20.5,N,,,,*64
$P,734
$IIDPT,044.2,-1.0,*42
$HCHDG,120.9,0.0,E,,*23
$GPRMC,203433.0,A,4752.99650,N,12224.06342,W,004.71,138.3,080314,016.7,E,D*21
$IIRMB,A,0.00,L,B,X,4714.072040,N,12225.414044,W,39.0,181,3.44,V36
$IIVHW,,,,,7.16,N,,*19
$PGRME,2.4,M,2.4,M,3.4,M*29
$P,700
$P,732
$HCHDG,121.4,0.0,E,,*2F
$IIGLL,4752.997,N,12224.065,W,203400,A,A*40
$P,691
$IIMWV,020,R,20.5,N,A*16
$P,718
$HCHDG,121.7,0.0,E,,*2C
$P,699
$IIMWV,021,T,20.5,N,A*11
$GPRMC,203433.2,A,4752.99631,N,12224.06318,W,004.69,142.7,080314,016.7,E,D*2B
$IIVHW,,,,,7.14,N,,*1B
$PGRME,2.4,M,2.4,M,3.4,M*29
$P,712
$HCHDG,122.4,0.0,E,,*2C
$P,704
$IIRMB,A,3.00,L,,Lac ,,,,,030.6,353,,V,A*2A
$P,762
$P,725
$HCHDG,122.7,0.0,E,,*2F
$GPRMC,203433.4,A,4752.99608,N,12224.06293,W,005.14,144.1,080314,016.7,E,D*2E
$P,742
$IIVHW,,,,,7.23,N,,*1F
$PGRME,2.4,M,2.4,M,3.4,M*29
$YXXDR,A,2.9,D,PTCH,A,-30.6,D,ROLL*4E
$PTAK,FFD1,30.6*60
$P,678
$P,692
$HCHDG,123.0,0.0,E,,*29
$P,659
$HCHDG,123.2,0.0,E,,*2B
$P,674
$GPRMC,203433.6,A,4752.99591,N,12224.06285,W,004.93,143.7,080314,016.7,E,D*27
$IIRMB,A,0.00,L,B,X,4714.072040,N,12225.414044,W,39.0,181,3.90,V3f
$IIVHW,,,,,7.17,N,,*18
$PGRME,2.4,M,2.4,M,3.4,M*29
$P,650
$HCHDG,123.2,0.0,E,,*2B
$P,672
$P,664
$HCHDG,123.1,0.0,E,,*28
$P,694
$GPRMC,203433.8,A,4752.99568,N,12224.06258,W,005.66,135.3,080314,016.7,E,D*21
$IIRMB,A,0.00,L,B,X,4714.072040,N,12225.414044,W,39.0,181,3.93,V3c
$IIVHW,,,,,7.06,N,,*18
$PGRME,2.4,M,2.4,M,3.4,M*29
$P,645
$P,704
$HCHDG,123.0,0.0,E,,*29
$P,723
$IIRMC,203400,A,4752.996,N,12224.063,W,04.7,138,080314,16,E,A*1B
$P,741
$YXXDR,A,2.2,D,PTCH,A,-27.7,D,ROLL*42
$P,684
$HCHDG,122.5,0.0,E,,*2D
$GPRMC,203434.0,A,4752.99548,N,12224.06225,W,005.71,130.7,080314,016.7,E,D*21
$IIRMB,A,0.00,L,B,X,4714.072040,N,12225.414044,W,39.0,181,3.62,V32
$GPRMB,A,3.79,L,,Lac,4823.3220,N,12229.7720,W,30.6,353,-4.23,V*57
$IIVHW,,,,,6.98,N,,*1E
$PGRME,2.4,M,2.4,M,3.4,M*29
$IIVLW,06480,N,000.0,N*59
$P,692
$HCHDG,121.9,0.0,E,,*22
$P,668
$IIVWR,021,R,20.0,N,,,,*60
$P,698
$IIDPT,044.2,-1.0,*42
$HCHDG,121.4,0.0,E,,*2F
$P,677
$GPRMC,203434.2,A,4752.99528,N,12224.06188,W,005.53,130.7,080314,016.7,E,D*21
$IIRMB,A,0.00,L,B,X,4714.072040,N,12225.414044,W,39.0,181,3.51,V32
$IIVHW,,,,,6.94,N,,*12
$PGRME,2.4,M,2.4,M,3.4,M*29
$P,721
$IIGLL,4752.996,N,12224.063,W,203400,A,A*47
$P,677
$HCHDG,121.0,0.0,E,,*2B
$IIMWV,021,R,20.0,N,A*12
$P,692
$IIMWV,020,T,20.5,N,A*10
$P,705
$HCHDG,121.0,0.0,E,,*2B
$P,766
$GPRMC,203434.4,A,4752.99507,N,12224.06157,W,005.00,133.4,080314,016.7,E,D*2E
$IIVHW,,,,,6.97,N,,*11
$PGRME,2.4,M,2.4,M,3.4,M*29
$P,730
$YXXDR,A,3.5,D,PTCH,A,-23.5,D,ROLL*42
$P,787
$P,0
$HCHDG,121.3,0.0,E,,*28
$P,726
$P,752
$HCHDG,121.4,0.0,E,,*2F
$P,697
$GPRMC,203434.6,A,4752.99487,N,12224.06135,W,004.95,137.0,080314,016.7,E,D*2C
$IIVHW,,,,,6.71,N,,*19
$PGRME,2.4,M,2.4,M,3.4,M*29
$P,704
$HCHDG,121.7,0.0,E,,*2C
$P,651
$P,670
$HCHDG,122.1,0.0,E,,*29
$P,663
$GPRMC,203434.8,A,4752.99465,N,12224.06108,W,005.28,137.2,080314,016.7,E,D*25
$IIRMB,A,0.00,L,B,X,4714.072040,N,12225.414044,W,39.0,181,3.79,V38
$PGRME,2.4,M,2.4,M,3.4,M*29
$IIVHW,,,,,6.71,N,,*19
$P,678
$P,668
$HCHDG,122.5,0.0,E,,*2D
$IIRMB,A,3.00,L,,Lac ,,,,,030.6,353,,V,A*2A
$P,699
$YXXDR,A,2.7,D,PTCH,A,-28.6,D,ROLL*49
$PTAK,FFD1,28.6*69
$P,666
$GPRMC,203435.0,A,4752.99441,N,12224.06078,W,005.45,140.0,080314,016.7,E,D*25
$IIRMB,A,0.00,L,B,X,4714.072040,N,12225.414044,W,39.0,181,4.09,V38
$P,706
$IIVHW,,,,,6.74,N,,*1C
$HCHDG,123.0,0.0,E,,*29
$PGRME,2.4,M,2.4,M,3.4,M*29
$IIRMC,203400,A,4752.995,N,12224.062,W,05.7,130,080314,16,E,A*10
$IIRMB,A,0.00,L,B,X,4714.072040,N,12225.414044,W,39.0,181,3.56,V35
$P,698
$HCHDG,123.6,0.0,E,,*2F
$P,706
$IIVLW,06480,N,000.0,N*59
$P,689
$HCHDG,123.8,0.0,E,,*21
$P,701
$IIVWR,021,R,20.1,N,,,,*61
$GPRMC,203435.2,A,4752.99420,N,12224.06051,W,005.44,140.3,080314,016.7,E,D*29
$IIRMB,A,0.00,L,B,X,4714.072040,N,12225.414044,W,39.0,181,4.10,V30
$GPRMB,A,3.80,L,,Lac,4823.3220,N,12229.7720,W,30.6,353,-4.58,V*5D
$IIVHW,,,,,6.75,N,,*1D
$PGRME,2.4,M,2.4,M,3.4,M*29
$P,675
$IIDPT,044.2,-1.0,*42
$P,692
$HCHDG,124.4,0.0,E,,*2A
$P,645
$IIGLL,4752.995,N,12224.062,W,203400,A,A*45
$P,650
$HCHDG,124.6,0.0,E,,*28
$IIMWV,021,R,20.1,N,A*13
$GPRMC,203435.4,A,4752.99397,N,12224.06024,W,005.26,144.1,080314,016.7,E,D*24
$IIRMB,A,0.00,L,B,X,4714.072040,N,12225.414044,W,39.0,181,4.19,V39
$IIVHW,,,,,6.71,N,,*19
$PGRME,2.4,M,2.4,M,3.4,M*29
$P,609
$YXXDR,A,2.4,D,PTCH,A,-30.6,D,ROLL*43
$P,628
$HCHDG,124.7,0.0,E,,*29
$P,614
$P,636
$HCHDG,125.1,0.0,E,,*2E
$GPRMC,203435.6,A,4752.99372,N,12224.06001,W,005.23,144.9,080314,016.7,E,D*27
$IIRMB,A,0.00,L,B,X,4714.072040,N,12225.414044,W,39.0,181,4.21,V32
$P,639
$PGRME,2.4,M,2.4,M,3.4,M*29
$IIVHW,,,,,6.69,N,,*10
$P,752
$HCHDG,125.2,0.0,E,,*2D
$P,769
$P,806
$P,779
$HCHDG,125.4,0.0,E,,*2B
$GPRMC,203435.8,A,4752.99347,N,12224.05979,W,005.17,148.2,080314,016.7,E,D*2A
$P,828
$PGRME,2.4,M,2.4,M,3.4,M*29
$IIVHW,,,,,6.82,N,,*15
$IIMWV,021,T,20.1,N,A*15
$P,751
$HCHDG,125.3,0.0,E,,*2C
$P,770
$P,694
$IIRMB,A,3.00,L,,Lac ,,,,,030.6,353,,V,A*2A
$YXXDR,A,2.7,D,PTCH,A,-29.9,D,ROLL*47
$PTAK,FFD1,29.9*67
$P,707
$HCHDG,125.4,0.0,E,,*2B
$GPRMC,203436.0,A,4752.99324,N,12224.05959,W,005.24,145.7,080314,016.7,E,D*2E
$IIVHW,,,,,7.01,N,,*1F
$PGRME,2.4,M,2.4,M,3.4,M*29
$P,664
$P,647
$HCHDG,125.4,0.0,E,,*2B
$IIRMC,203400,A,4752.994,N,12224.060,W,05.4,140,080314,16,E,A*17
$IIRMB,A,0.00,L,B,X,4714.072040,N,12225.414044,W,39.0,181,4.05,V34
$P,589
$P,598
$HCHDG,125.3,0.0,E,,*2C
$IIVLW,06480,N,000.0,N*59
$GPRMC,203436.2,A,4752.99303,N,12224.05935,W,005.18,143.8,080314,016.7,E,D*25
$IIRMB,A,0.00,L,B,X,4714.072040,N,12225.414044,W,39.0,181,4.11,V31
$IIVHW,,,,,6.89,N,,*1E
$PGRME,2.4,M,2.4,M,3.4,M*29
$P,587
$IIVWR,021,R,20.0,N,,,,*60
$HCHDG,125.1,0.0,E,,*2E
$P,627
$IIDPT,044.2,-1.0,*42
$P,581
$P,646
$HCHDG,125.1,0.0,E,,*2E
$IIGLL,4752.994,N,12224.060,W,203400,A,A*46
$GPRMC,203436.4,A,4752.99280,N,12224.05905,W,005.49,140.1,080314,016.7,E,D*24
$IIRMB,A,0.00,L,B,X,4714.072040,N,12225.414044,W,39.0,181,4.13,V33
$GPRMB,A,3.80,L,,Lac,4823.3220,N,12229.7720,W,30.6,353,-4.62,V*54
$IIVHW,,,,,6.73,N,,*1B
$PGRME,2.4,M,2.4,M,3.4,M*29
$P,650
$YXXDR,A,1.8,D,PTCH,A,-26.9,D,ROLL*44
$P,703
$HCHDG,124.6,0.0,E,,*28
$P,667
$P,724
$HCHDG,124.2,0.0,E,,*2C
$P,696
$GPRMC,203436.6,A,4752.99256,N,12224.05873,W,005.17,135.8,080314,016.7,E,D*2D
$IIVHW,,,,,6.78,N,,*10
$PGRME,2.4,M,2.4,M,3.4,M*29
$P,734
$HCHDG,124.1,0.0,E,,*2F
$P,725
$P,761
$P,727
$HCHDG,123.6,0.0,E,,*2F
$P,761
$GPRMC,203436.8,A,4752.99230,N,12224.05831,W,005.12,141.2,080314,016.7,E,D*29
$IIRMB,A,0.00,L,B,X,4714.072040,N,12225.414044,W,39.0,181,3.91,V3e
$IIVHW,,,,,6.94,N,,*12
$PGRME,2.4,M,2.4,M,3.4,M*29
$IIMWV,021,R,19.9,N,A*11
$P,709
$HCHDG,123.3,0.0,E,,*2A
$P,728
$IIMWV,021,T,20.0,N,A*14
$P,691
$YXXDR,A,3.1,D,PTCH,A,-25.2,D,ROLL*47
$P,714
$IIRMB,A,3.00,L,,Lac ,,,,,030.6,353,,V,A*2A
$HCHDG,123.6,0.0,E,,*2F
$GPRMC,203437.0,A,4752.99205,N,12224.05799,W,005.15,142.0,080314,016.7,E,D*2D
$IIVHW,,,,,6.95,N,,*13
$PGRME,2.4,M,2.4,M,3.4,M*29
$P,662
$P,684
$HCHDG,123.8,0.0,E,,*21
$P,658
$IIRMC,203400,A,4752.993,N,12224.059,W,05.2,145,080314,16,E,A*19
$IIRMB,A,0.00,L,B,X,4714.072040,N,12225.414044,W,39.0,181,4.19,V39
$P,699
$HCHDG,124.2,0.0,E,,*2C
$PTAK,FFP1,HEEL,@*07
$P,668
$GPRMC,203437.2,A,4752.99175,N,12224.05766,W,005.08,145.4,080314,016.7,E,D*24
$IIRMB,A,0.00,L,B,X,4714.072040,N,12225.414044,W,39.0,181,4.11,V31
$PGRME,2.4,M,2.4,M,3.4,M*29
$IIVHW,,,,,6.83,N,,*14
$IIVLW,06480,N,000.0,N*59
$P,694
$HCHDG,124.2,0.0,E,,*2C
$P,670
$IIVWR,021,R,19.9,N,,,,*63
$P,715
$IIDPT,044.2,-1.0,*42
$HCHDG,124.2,0.0,E,,*2C
$P,726
$GPRMC,203437.4,A,4752.99162,N,12224.05728,W,005.01,146.6,080314,016.7,E,D*26
$IIRMB,A,0.00,L,B,X,4714.072040,N,12225.414044,W,39.0,181,4.12,V32
$PGRME,2.4,M,2.4,M,3.4,M*29
$IIVHW,,,,,6.87,N,,*10
$P,736
$YXXDR,A,2.9,D,PTCH,A,-27.9,D,ROLL*47
$PTAK,FFD1,27.9*69
$P,705
$P,745
$HCHDG,124.2,0.0,E,,*2C
$P,734
$HCHDG,124.1,0.0,E,,*2F
$P,744
$GPRMC,203437.6,A,4752.99140,N,12224.05700,W,005.34,142.5,080314,016.7,E,D*2F
$GPRMB,A,3.80,L,,Lac,4823.3220,N,12229.7720,W,30.6,353,-4.61,V*57
$IIVHW,,,,,7.07,N,,*19
$PGRME,2.4,M,2.4,M,3.4,M*29
$P,730
$P,720
$HCHDG,124.1,0.0,E,,*2F
$P,663
$P,690
$HCHDG,123.8,0.0,E,,*21
$P,678
$GPRMC,203437.8,A,4752.99118,N,12224.05673,W,005.28,142.0,080314,016.7,E,D*21
$IIRMB,A,0.00,L,B,X,4714.072040,N,12225.414044,W,39.0,181,4.08,V39
$IIVHW,,,,,7.07,N,,*19
$PGRME,2.4,M,2.4,M,3.4,M*29
$P,704
$HCHDG,123.4,0.0,E,,*2D
$IIGLL,4752.992,N,12224.057,W,203400,A,A*44
$P,673
$IIMWV,022,R,19.9,N,A*12
$P,696
$YXXDR,A,2.7,D,PTCH,A,-25.8,D,ROLL*4A
$P,657
$IIMWV,021,T,19.9,N,A*17
$HCHDG,123.2,0.0,E,,*2B
$GPRMC,203438.0,A,4752.99093,N,12224.05643,W,005.29,138.7,080314,016.7,E,D*2C
$IIVHW,,,,,6.99,N,,*1F
$PGRME,2.4,M,2.4,M,3.4,M*29
$P,674
$HCHDG,122.8,0.0,E,,*20
$P,642
$IIRMB,A,3.00,L,,Lac ,,,,,030.6,353,,V,A*2A
$P,688
$P,737
$HCHDG,122.3,0.0,E,,*2B
$P,796
$GPRMC,203438.2,A,4752.99069,N,12224.05612,W,005.28,136.9,080314,016.7,E,D*2E
$IIVHW,,,,,7.01,N,,*1F
$PGRME,2.4,M,2.4,M,3.4,M*29
$IIRMC,203400,A,4752.992,N,12224.057,W,05.1,142,080314,16,E,A*12
$IIRMB,A,0.00,L,B,X,4714.072040,N,12225.414044,W,39.0,181,3.94,V3b
$P,771
$HCHDG,122.1,0.0,E,,*29
$P,766
$P,737
$IIVLW,06480,N,000.0,N*59
$P,763
$HCHDG,121.8,0.0,E,,*23
$IIVWR,022,R,19.9,N,,,,*60
$P,729
$GPRMC,203438.4,A,4752.99045,N,12224.05584,W,005.05,138.3,080314,016.7,E,D*21
$IIRMB,A,0.00,L,B,X,4714.072040,N,12225.414044,W,39.0,181,3.69,V39
$PGRME,2.4,M,2.4,M,3.4,M*29
$IIVHW,,,,,7.14,N,,*1B
$P,741
$YXXDR,A,3.0,D,PTCH,A,-24.3,D,ROLL*46
$PTAK,FFD1,24.3*60
$P,722
$HCHDG,121.9,0.0,E,,*22
$P,751
$HCHDG,121.8,0.0,E,,*23
$P,672
$GPRMC,203438.6,A,4752.99025,N,12224.05561,W,004.89,141.9,080314,016.7,E,D*2F
$PGRME,2.4,M,2.4,M,3.4,M*29
$IIVHW,,,,,7.17,N,,*18
$P,684
$P,643
$HCHDG,122.0,0.0,E,,*28
$P,681
$P,673
$HCHDG,122.0,0.0,E,,*28
$P,706
$GPRMC,203438.8,A,4752.99005,N,12224.05537,W,004.88,143.8,080314,016.7,E,D*22
$IIRMB,A,0.00,L,B,X,4714.072040,N,12225.414044,W,39.0,181,3.87,V39
$GPRMB,A,3.80,L,,Lac,4823.3220,N,12229.7720,W,30.6,353,-4.27,V*55
$PGRME,2.4,M,2.4,M,3.4,M*29
$IIVHW,,,,,7.07,N,,*19
$P,687
$HCHDG,122.3,0.0,E,,*2B
$IIGLL,4752.990,N,12224.056,W,203400,A,A*47
$P,712
$P,686
$IIMWV,022,R,20.0,N,A*11
$YXXDR,A,2.7,D,PTCH,A,-27.0,D,ROLL*40
$P,700
$IIMWV,022,T,19.9,N,A*14
$HCHDG,122.5,0.0,E,,*2D
$GPRMC,203439.0,A,4752.98979,N,12224.05517,W,004.81,148.4,080314,016.7,E,D*24
$IIRMB,A,0.00,L,B,X,4714.072040,N,12225.414044,W,39.0,181,4.04,V35
$IIVHW,,,,,7.05,N,,*1B
$PGRME,2.4,M,2.4,M,3.4,M*29
$P,659
$P,711
$HCHDG,122.8,0.0,E,,*20
$IIRMB,A,3.00,L,,Lac ,,,,,030.6,353,,V,A*2A
$P,721
$P,720
$HCHDG,122.7,0.0,E,,*2F
$P,696
$GPRMC,203439.2,A,4752.98951,N,12224.05498,W,005.13,142.1,080314,016.7,E,D*2F
$IIVHW,,,,,7.08,N,,*16
$PGRME,2.4,M,2.4,M,3.4,M*29
$IIRMC,203400,A,4752.990,N,12224.056,W,05.2,138,080314,16,E,A*1F
$P,723
$HCHDG,122.8,0.0,E,,*20
$P,673
$IIVLW,06480,N,000.0,N*59
$P,695
$HCHDG,122.6,0.0,E,,*2E
$P,654
$IIVWR,022,R,20.0,N,,,,*63
$GPRMC,203439.4,A,4752.98926,N,12224.05475,W,005.13,141.4,080314,016.7,E,D*2C
$PGRME,2.4,M,2.4,M,3.4,M*29
$IIVHW,,,,,7.01,N,,*1F
$P,685
$YXXDR,A,2.7,D,PTCH,A,-26.7,D,ROLL*46
$P,678
$HCHDG,122.4,0.0,E,,*2C
$P,722
$P,693
$HCHDG,122.2,0.0,E,,*2A
$P,712
$GPRMC,203439.6,A,4752.98909,N,12224.05445,W,005.34,136.9,080314,016.7,E,D*28
$IIRMB,A,0.00,L,B,X,4714.072040,N,12225.414044,W,39.0,181,3.81,V3f
$IIVHW,,,,,6.96,N,,*10
$PGRME,2.4,M,2.4,M,3.4,M*29
$P,719
$HCHDG,121.8,0.0,E,,*23
$P,732
$P,709
$P,741
$HCHDG,121.7,0.0,E,,*2C
$GPRMC,203439.8,A,4752.98891,N,12224.05411,W,005.37,132.6,080314,016.7,E,D*2F
$P,729
$PGRME,2.4,M,2.4,M,3.4,M*29
$IIVHW,,,,,6.99,N,,*1F
$P,757
$HCHDG,121.3,0.0,E,,*28
$IIGLL,4752.989,N,12224.055,W,203400,A,A*4C
$P,726
$P,717
$IIMWV,023,R,20.0,N,A*10
$YXXDR,A,2.5,D,PTCH,A,-23.1,D,ROLL*47
$PTAK,FFD1,23.1*65
$P,678
$IIMWV,022,T,20.0,N,A*17
$HCHDG,120.8,0.0,E,,*22
$GPRMC,203440.0,A,4752.98869,N,12224.05380,W,005.43,131.1,080314,016.7,E,D*26
$IIRMB,A,0.00,L,B,X,4714.072040,N,12225.414044,W,39.0,181,3.47,V35
$GPRMB,A,3.80,L,,Lac,4823.3220,N,12229.7720,W,30.6,353,-4.05,V*55
$IIVHW,,,,,7.06,N,,*18
$PGRME,2.4,M,2.4,M,3.4,M*29
$P,712
$P,698
$HCHDG,120.7,0.0,E,,*2D
$IIRMB,A,3.00,L,,Lac ,,,,,030.6,353,,V,A*2A
$P,736
$P,696
$HCHDG,120.6,0.0,E,,*2C
$P,702
$GPRMC,203440.2,A,4752.98846,N,12224.05349,W,005.22,132.4,080314,016.7,E,D*2D
$IIVHW,,,,,7.08,N,,*16
$PGRME,2.4,M,2.4,M,3.4,M*29
$IIRMC,203400,A,4752.989,N,12224.055,W,04.8,148,080314,16,E,A*18
$IIRMB,A,0.00,L,B,X,4714.072040,N,12225.414044,W,39.0,181,4.01,V30
$P,652
$HCHDG,120.6,0.0,E,,*2C
$P,673
$IIVLW,06480,N,000.0,N*59
$P,625
$HCHDG,120.8,0.0,E,,*22
$P,662
$IIVWR,023,R,20.0,N,,,,*62
$GPRMC,203440.4,A,4752.98823,N,12224.05318,W,005.29,134.8,080314,016.7,E,D*2D
$IIVHW,,,,,6.98,N,,*1E
$PGRME,2.4,M,2.4,M,3.4,M*29
$P,629
$YXXDR,A,3.1,D,PTCH,A,-25.1,D,ROLL*44
$P,656
$HCHDG,120.8,0.0,E,,*22
$P,629
$HCHDG,121.5,0.0,E,,*2E
$P,628
$GPRMC,203440.6,A,4752.98808,N,12224.05285,W,005.22,138.9,080314,016.7,E,D*25
$IIRMB,A,0.00,L,B,X,4714.072040,N,12225.414044,W,39.0,181,3.85,V3b
$IIVHW,,,,,6.87,N,,*10
$PGRME,2.4,M,2.4,M,3.4,M*29
$P,641
$P,683
$HCHDG,121.9,0.0,E,,*22
$P,659
$P,665
$HCHDG,122.3,0.0,E,,*2B
$GPRMC,203440.8,A,4752.98787,N,12224.05248,W,005.40,141.5,080314,016.7,E,D*24
$IIRMB,A,0.00,L,B,X,4714.072040,N,12225.414044,W,39.0,181,4.15,V35
$P,660
$PGRME,2.4,M,2.4,M,3.4,M*29
$IIVHW,,,,,6.78,N,,*10
$P,699
$HCHDG,123.0,0.0,E,,*29
$IIGLL,4752.988,N,12224.053,W,203400,A,A*4B
$P,691
$IIMWV,023,R,20.6,N,A*16
$P,720
$YXXDR,A,2.5,D,PTCH,A,-28.8,D,ROLL*45
$PTAK,FFD1,28.8*67
$P,655
$IIMWV,023,T,20.0,N,A*16
$HCHDG,123.3,0.0,E,,*2A
$GPRMC,203441.0,A,4752.98772,N,12224.05234,W,005.42,139.0,080314,016.7,E,D*24
$IIRMB,A,0.00,L,B,X,4714.072040,N,12225.414044,W,39.0,181,4.00,V31
$GPRMB,A,3.80,L,,Lac,4823.3220,N,12229.7720,W,30.6,353,-4.50,V*55
$IIVHW,,,,,6.75,N,,*1D
$PTAK,FFP1,HEEL,@*07
$PGRME,2.4,M,2.4,M,3.4,M*29
$P,703
$HCHDG,123.6,0.0,E,,*2F
$P,683
$IIRMB,A,3.00,L,,Lac ,,,,,030.6,353,,V,A*2A
$P,718
$P,685
$HCHDG,123.6,0.0,E,,*2F
$P,724
$GPRMC,203441.2,A,4752.98753,N,12224.05199,W,005.41,142.3,080314,016.7,E,D*2D
$IIVHW,,,,,6.77,N,,*1F
$PGRME,2.4,M,2.4,M,3.4,M*29
$IIRMC,203400,A,4752.988,N,12224.053,W,05.4,131,080314,16,E,A*1C
$P,666
$HCHDG,123.7,0.0,E,,*2E
$P,729
$IIVLW,06480,N,000.0,N*59
$P,697
$HCHDG,123.8,0.0,E,,*21
$P,738
$IIVWR,023,R,20.6,N,,,,*64
$GPRMC,203441.4,A,4752.98729,N,12224.05167,W,005.63,142.5,080314,016.7,E,D*21
$IIRMB,A,0.00,L,B,X,4714.072040,N,12225.414044,W,39.0,181,4.38,V3a
$IIVHW,,,,,6.82,N,,*15
$PGRME,2.4,M,2.4,M,3.4,M*29
$P,685
$YXXDR,A,2.8,D,PTCH,A,-26.1,D,ROLL*4F
$P,693
$HCHDG,124.2,0.0,E,,*2C
$P,650
$P,678
$HCHDG,124.2,0.0,E,,*2C
$GPRMC,203441.6,A,4752.98699,N,12224.05139,W,005.43,143.8,080314,016.7,E,D*2C
$P,629
$PGRME,2.4,M,2.4,M,3.4,M*29
$IIVHW,,,,,6.82,N,,*15
$P,650
$HCHDG,124.2,0.0,E,,*2C
$P,654
$P,685
$HCHDG,124.4,0.0,E,,*2A
$P,639
$GPRMC,203441.8,A,4752.98671,N,12224.05112,W,005.47,143.7,080314,016.7,E,D*26
$IIRMB,A,0.00,L,B,X,4714.072040,N,12225.414044,W,39.0,181,4.33,V31
$PGRME,2.4,M,2.4,M,3.4,M*29
$IIVHW,,,,,6.80,N,,*17
$P,655
$HCHDG,124.6,0.0,E,,*28
$IIGLL,4752.987,N,12224.052,W,203400,A,A*45
$P,665
$P,667
$IIMWV,024,R,20.6,N,A*11
$YXXDR,A,2.7,D,PTCH,A,-25.8,D,ROLL*4A
$P,619
$IIMWV,023,T,20.6,N,A*10
$HCHDG,124.7,0.0,E,,*29
$GPRMC,203442.0,A,4752.98642,N,12224.05082,W,005.44,146.4,080314,016.7,E,D*20
$IIRMB,A,0.00,L,B,X,4714.072040,N,12225.414044,W,39.0,181,4.46,V33
$PGRME,2.4,M,2.4,M,3.4,M*29
$IIVHW,,,,,6.74,N,,*1C
$P,627
$HCHDG,124.6,0.0,E,,*28
$P,594
$IIRMB,A,3.00,L,,Lac ,,,,,030.6,353,,V,A*2A
$P,634
$HCHDG,124.8,0.0,E,,*26
$P,601
$GPRMC,203442.2,A,4752.98614,N,12224.05052,W,005.47,143.7,080314,016.7,E,D*29
$IIRMB,A,0.00,L,B,X,4714.072040,N,12225.414044,W,39.0,181,4.33,V31
$GPRMB,A,3.80,L,,Lac,4823.3220,N,12229.7720,W,30.6,353,-4.78,V*5F
$PGRME,2.4,M,2.4,M,3.4,M*29
$IIVHW,,,,,6.60,N,,*19
$IIRMC,203400,A,4752.987,N,12224.052,W,05.4,139,080314,16,E,A*1A
$P,630
$HCHDG,124.6,0.0,E,,*28
$P,614
$P,672
$IIVLW,06480,N,000.0,N*59
$HCHDG,124.3,0.0,E,,*2D
$P,642
$IIVWR,024,R,20.6,N,,,,*63
$GPRMC,203442.4,A,4752.98595,N,12224.05013,W,005.52,141.1,080314,016.7,E,D*20
$IIRMB,A,0.00,L,B,X,4714.072040,N,12225.414044,W,39.0,181,4.21,V32
$PGRME,2.4,M,2.4,M,3.4,M*29
$IIVHW,,,,,6.51,N,,*1B
$P,685
$YXXDR,A,2.5,D,PTCH,A,-24.2,D,ROLL*43
$PTAK,FFD1,24.2*61
$P,666
$HCHDG,124.3,0.0,E,,*2D
$P,729
$P,712
$HCHDG,123.7,0.0,E,,*2E
$P,732
$GPRMC,203442.6,A,4752.98568,N,12224.04989,W,005.27,141.4,080314,016.7,E,D*2C
$PGRME,2.4,M,2.4,M,3.4,M*29
$IIVHW,,,,,6.63,N,,*1A
$P,702
$HCHDG,123.3,0.0,E,,*2A
$P,733
$P,714
$P,744
$HCHDG,123.2,0.0,E,,*2B
$P,708
$GPRMC,203442.8,A,4752.98543,N,12224.04965,W,005.24,140.1,080314,016.7,E,D*2E
$PGRME,2.4,M,2.4,M,3.4,M*29
$IIVHW,,,,,6.71,N,,*19
$P,731
$HCHDG,122.9,0.0,E,,*21
$IIGLL,4752.986,N,12224.050,W,203400,A,A*46
$P,690
$P,735
$IIMWV,025,R,20.6,N,A*10
$YXXDR,A,3.1,D,PTCH,A,-23.6,D,ROLL*45
$P,687
$IIMWV,024,T,20.6,N,A*17
$HCHDG,122.5,0.0,E,,*2D
$GPRMC,203443.0,A,4752.98524,N,12224.04943,W,005.07,140.8,080314,016.7,E,D*2A
$PGRME,2.4,M,2.4,M,3.4,M*29
$IIVHW,,,,,6.81,N,,*16
$P,710
$P,705
$HCHDG,122.7,0.0,E,,*2F
$IIRMB,A,3.00,L,,Lac ,,,,,030.6,353,,V,A*2A
$P,740
$P,693
$HCHDG,122.5,0.0,E,,*2D
$P,680
$GPRMC,203443.2,A,4752.98510,N,12224.04909,W,005.08,141.3,080314,016.7,E,D*24
$IIRMB,A,0.00,L,B,X,4714.072040,N,12225.414044,W,39.0,181,3.89,V37
$GPRMB,A,3.80,L,,Lac,4823.3220,N,12229.7720,W,30.6,353,-4.33,V*50
$PGRME,2.4,M,2.4,M,3.4,M*29
$IIVHW,,,,,6.91,N,,*17
$IIRMC,203400,A,4752.986,N,12224.050,W,05.4,143,080314,16,E,A*14
$IIRMB,A,0.00,L,B,X,4714.072040,N,12225.414044,W,39.0,181,4.23,V30
$P,656
$HCHDG,122.5,0.0,E,,*2D
$P,683
$IIVLW,06480,N,000.0,N*59
$P,653
$HCHDG,122.6,0.0,E,,*2E
$P,647
$IIVWR,025,R,20.6,N,,,,*62
$GPRMC,203443.4,A,4752.98485,N,12224.04881,W,005.02,145.3,080314,016.7,E,D*20
$IIRMB,A,0.00,L,B,X,4714.072040,N,12225.414044,W,38.9,181,4.06,V3f
$IIVHW,,,,,6.96,N,,*10
$PGRME,2.4,M,2.4,M,3.4,M*29
$P,618
$YXXDR,A,3.2,D,PTCH,A,-24.7,D,ROLL*40
$P,633
$HCHDG,122.6,0.0,E,,*2E
$P,587
$HCHDG,122.7,0.0,E,,*2F
$P,617
$GPRMC,203443.6,A,4752.98463,N,12224.04860,W,005.28,141.7,080314,016.7,E,D*2D
$IIVHW,,,,,6.81,N,,*16
$PGRME,2.4,M,2.4,M,3.4,M*29
$P,595
$HCHDG,122.7,0.0,E,,*2F
$P,605
$P,556
$HCHDG,122.5,0.0,E,,*2D
$P,602
$GPRMC,203443.8,A,4752.98447,N,12224.04848,W,005.05,138.8,080314,016.7,E,D*21
$IIRMB,A,0.00,L,B,X,4714.072040,N,12225.414044,W,38.9,181,3.72,V3b
$IIVHW,,,,,6.57,N,,*1D
$PGRME,2.4,M,2.4,M,3.4,M*29
$P,606
$HCHDG,122.3,0.0,E,,*2B
$IIGLL,4752.986,N,12224.050,W,203400,A,A*46
$P,652
$P,632
$IIMWV,023,R,20.4,N,A*14
$YXXDR,A,2.4,D,PTCH,A,-24.5,D,ROLL*45
$PTAK,FFD1,24.5*66
$P,665
$IIMWV,025,T,20.6,N,A*16
$HCHDG,121.7,0.0,E,,*2C
$GPRMC,203444.0,A,4752.98427,N,12224.04820,W,005.09,134.7,080314,016.7,E,D*29
$IIRMB,A,0.00,L,B,X,4714.072040,N,12225.414044,W,38.9,181,3.49,V33
$IIVHW,,,,,6.49,N,,*12
$PGRME,2.4,M,2.4,M,3.4,M*29
$PGRMT,GPS 18x-5Hz software ver. 3.20,,,,,,,,*30
$P,639
$HCHDG,121.3,0.0,E,,*28
$P,659
$IIRMB,A,3.00,L,,Lac ,,,,,030.6,353,,V,A*2A
$P,654
$P,680
$HCHDG,120.5,0.0,E,,*2F
$GPRMC,203444.2,A,4752.98407,N,12224.04796,W,005.10,134.1,080314,016.7,E,D*25
$IIRMB,A,0.00,L,B,X,4714.072040,N,12225.414044,W,38.9,181,3.46,V3c
$P,635
$IIVHW,,,,,6.40,N,,*1B
$PGRME,2.4,M,2.4,M,3.4,M*29
$IIRMC,203400,A,4752.986,N,12224.050,W,05.4,143,080314,16,E,A*14
$IIRMB,A,0.00,L,B,X,4714.072040,N,12225.414044,W,39.0,181,4.23,V30
$P,656
$HCHDG,120.2,0.0,E,,*28
$P,603
$IIVLW,06480,N,000.0,N*59
$P,607
$HCHDG,120.0,0.0,E,,*2A
$IIVWR,023,R,20.4,N,,,,*66
$GPRMC,203444.4,A,4752.98390,N,12224.04773,W,004.81,140.2,080314,016.7,E,D*28
$IIRMB,A,0.00,L,B,X,4714.072040,N,12225.414044,W,38.9,181,3.62,V3a
$GPRMB,A,3.80,L,,Lac,4823.3220,N,12229.7720,W,30.6,353,-4.05,V*55
$P,636
$PGRME,2.4,M,2.4,M,3.4,M*29
$IIVHW,,,,,6.31,N,,*1D
$YXXDR,A,3.6,D,PTCH,A,-22.2,D,ROLL*47
$P,655
$HCHDG,119.8,0.0,E,,*28
$P,623
$P,655
$HCHDG,120.0,0.0,E,,*2A
$P,638
$GPRMC,203444.6,A,4752.98371,N,12224.04754,W,004.64,140.6,080314,016.7,E,D*2F
$IIVHW,,,,,6.30,N,,*1C
$PGRME,2.4,M,2.4,M,3.4,M*29
$P,652
$HCHDG,119.8,0.0,E,,*28
$P,636
$P,654
$HCHDG,119.9,0.0,E,,*29
$P,635
$GPRMC,203444.8,A,4752.98354,N,12224.04733,W,004.80,137.0,080314,016.7,E,D*2B
$PGRME,2.4,M,2.4,M,3.4,M*29
$IIVHW,,,,,6.35,N,,*19
$P,667
$HCHDG,120.0,0.0,E,,*2A
$IIGLL,4752.984,N,12224.047,W,203400,A,A*42
$P,632
$P,634
$IIMWV,023,R,20.1,N,A*11
$YXXDR,A,2.4,D,PTCH,A,-26.4,D,ROLL*46
$P,608
$IIMWV,023,T,20.4,N,A*12
$HCHDG,120.0,0.0,E,,*2A
$GPRMC,203445.0,A,4752.98337,N,12224.04717,W,005.07,137.2,080314,016.7,E,D*2D
$IIVHW,,,,,6.41,N,,*1A
$PGRME,2.4,M,2.4,M,3.4,M*29
$P,669
$HCHDG,119.7,0.0,E,,*27
$P,641
$IIRMB,A,3.00,L,,Lac ,,,,,030.6,353,,V,A*2A
$P,671
$HCHDG,119.4,0.0,E,,*24
$P,659
$GPRMC,203445.2,A,4752.98319,N,12224.04696,W,004.99,133.6,080314,016.7,E,D*2D
$PGRME,2.4,M,2.4,M,3.4,M*29
$IIVHW,,,,,6.44,N,,*1F
$PTAK,FFP1,HEEL,@*07
$P,690
$IIRMC,203400,A,4752.984,N,12224.047,W,05.1,134,080314,16,E,A*15
$IIRMB,A,0.00,L,B,X,4714.072040,N,12225.414044,W,38.9,181,3.45,V3f
$P,681
$HCHDG,119.4,0.0,E,,*24
$P,732
$IIVLW,06480,N,000.0,N*59
$P,715
$HCHDG,119.2,0.0,E,,*22
$IIVWR,023,R,20.1,N,,,,*63
$P,737
$GPRMC,203445.4,A,4752.98302,N,12224.04667,W,005.18,132.3,080314,016.7,E,D*23
$IIRMB,A,0.00,L,B,X,4714.072040,N,12225.414044,W,38.9,181,3.39,V34
$GPRMB,A,3.80,L,,Lac,4823.3220,N,12229.7720,W,30.6,353,-3.94,V*5A
$PGRME,2.4,M,2.4,M,3.4,M*29
$IIVHW,,,,,6.59,N,,*13
$P,712
$YXXDR,A,3.9,D,PTCH,A,-23.2,D,ROLL*49
$PTAK,FFD1,23.2*66
$P,733
$HCHDG,118.9,0.0,E,,*28
$P,654
$P,651
$HCHDG,118.9,0.0,E,,*28
$GPRMC,203445.6,A,4752.98286,N,12224.04631,W,005.20,132.5,080314,016.7,E,D*22
$IIRMB,A,0.00,L,B,X,4714.072040,N,12225.414044,W,38.9,181,3.42,V38
$PGRME,2.4,M,2.4,M,3.4,M*29
$IIVHW,,,,,6.68,N,,*11
$P,632
$P,639
$HCHDG,118.6,0.0,E,,*27
$P,638
$P,686
$HCHDG,118.5,0.0,E,,*24
$P,683
$GPRMC,203445.8,A,4752.98268,N,12224.04594,W,005.18,131.2,080314,016.7,E,D*2F
$PGRME,2.4,M,2.4,M,3.4,M*29
$IIVHW,,,,,6.68,N,,*11
$P,711
$HCHDG,118.8,0.0,E,,*29
$IIGLL,4752.983,N,12224.046,W,203400,A,A*44
$P,658
$P,685
$IIMWV,022,R,19.9,N,A*12
$YXXDR,A,2.9,D,PTCH,A,-23.9,D,ROLL*43
$P,667
$IIMWV,023,T,20.1,N,A*17
$GPRMC,203446.0,A,4752.98250,N,12224.04559,W,005.21,127.0,080314,016.7,E,D*21
$IIRMB,A,0.00,L,B,X,4714.072040,N,12225.414044,W,38.9,181,3.04,V3a
$HCHDG,118.6,0.0,E,,*27
$PGRME,2.4,M,2.4,M,3.4,M*29
$IIVHW,,,,,6.73,N,,*1B
$P,717
$P,681
$HCHDG,118.5,0.0,E,,*24
$IIRMB,A,3.00,L,,Lac ,,,,,030.6,353,,V,A*2A
$P,684
$P,648
$HCHDG,118.2,0.0,E,,*23
$P,710
$GPRMC,203446.2,A,4752.98235,N,12224.04521,W,005.21,124.6,080314,016.7,E,D*2A
$IIVHW,,,,,6.79,N,,*11
$PGRME,2.4,M,2.4,M,3.4,M*29
$IIRMC,203400,A,4752.983,N,12224.046,W,05.1,132,080314,16,E,A*15
$IIRMB,A,0.00,L,B,X,4714.072040,N,12225.414044,W,38.9,181,3.32,V3f
$P,678
$HCHDG,118.0,0.0,E,,*21
$P,714
$IIVLW,06480,N,000.0,N*59
$P,670
$HCHDG,118.0,0.0,E,,*21
$P,696
$IIVWR,022,R,19.9,N,,,,*60
$GPRMC,203446.4,A,4752.98216,N,12224.04492,W,005.29,122.3,080314,016.7,E,D*2F
$IIVHW,,,,,6.84,N,,*13
$PGRME,2.4,M,2.4,M,3.4,M*29
$P,687
$YXXDR,A,3.2,D,PTCH,A,-22.8,D,ROLL*49
$P,720
$HCHDG,118.0,0.0,E,,*21
$P,646
$P,672
$HCHDG,118.1,0.0,E,,*20
$GPRMC,203446.6,A,4752.98201,N,12224.04463,W,005.31,124.7,080314,016.7,E,D*2E
$GPRMB,A,3.81,L,,Lac,4823.3220,N,12229.7720,W,30.6,353,-3.54,V*57
$P,656
$IIVHW,,,,,6.78,N,,*10
$PGRME,2.4,M,2.4,M,3.4,M*29
$P,712
$HCHDG,118.3,0.0,E,,*22
$P,700
$P,739
$HCHDG,118.6,0.0,E,,*27
$P,711
$GPRMC,203446.8,A,4752.98183,N,12224.04433,W,005.02,126.7,080314,016.7,E,D*2E
$IIVHW,,,,,6.84,N,,*13
$PGRME,2.4,M,2.4,M,3.4,M*29
$P,772
$P,750
$HCHDG,119.1,0.0,E,,*21
$P,773
$P,718
$YXXDR,A,2.8,D,PTCH,A,-26.5,D,ROLL*4B
$PTAK,FFD1,26.5*64
$P,752
$HCHDG,119.8,0.0,E,,*28
$GPRMC,203447.0,A,4752.98164,N,12224.04402,W,005.31,132.0,080314,016.7,E,D*2E
$IIVHW,,,,,7.01,N,,*1F
$PGRME,2.4,M,2.4,M,3.4,M*29
$P,706
$P,732
$HCHDG,120.4,0.0,E,,*2E
$P,680
$P,701
$HCHDG,121.2,0.0,E,,*29
$P,681
$GPRMC,203447.2,A,4752.98147,N,12224.04377,W,005.05,137.6,080314,016.7,E,D*2C
$IIVHW,,,,,7.06,N,,*18
$PGRME,2.4,M,2.4,M,3.4,M*29
$P,694
$HCHDG,121.5,0.0,E,,*2E
$P,662
$P,692
$HCHDG,121.8,0.0,E,,*23
$P,673
$GPRMC,203447.4,A,4752.98128,N,12224.04348,W,005.08,140.0,080314,016.7,E,D*24
$IIRMB,A,0.00,L,B,X,4714.072040,N,12225.414044,W,38.9,181,3.81,V37
$IIVHW,,,,,7.04,N,,*1A
$PGRME,2.4,M,2.4,M,3.4,M*29
$P,724
$YXXDR,A,2.5,D,PTCH,A,-29.9,D,ROLL*45
$P,698
$HCHDG,122.4,0.0,E,,*2C
$P,744
$P,707
$HCHDG,122.5,0.0,E,,*2D
$P,743
$GPRMC,203447.6,A,4752.98109,N,12224.04320,W,005.10,141.1,080314,016.7,E,D*22
$IIRMB,A,0.00,L,B,X,4714.072040,N,12225.414044,W,38.9,181,3.89,V3f
$GPRMB,A,3.81,L,,Lac,4823.3220,N,12229.7720,W,30.6,353,-4.34,V*56
$IIVHW,,,,,7.09,N,,*17
$PGRME,2.4,M,2.4,M,3.4,M*29
$P,709
$HCHDG,122.4,0.0,E,,*2C
$P,694
$P,640
$HCHDG,122.7,0.0,E,,*2F
$P,690
$GPRMC,203447.8,A,4752.98084,N,12224.04290,W,005.38,139.9,080314,016.7,E,D*2F
$IIVHW,,,,,7.08,N,,*16
$PGRME,2.4,M,2.4,M,3.4,M*29
$P,661
$P,687
$HCHDG,122.6,0.0,E,,*2E
$IIGLL,4752.982,N,12224.044,W,203400,A,A*47
$P,673
$IIMWV,020,R,19.9,N,A*10
$YXXDR,A,2.4,D,PTCH,A,-29.3,D,ROLL*4E
$P,715
$IIMWV,022,T,19.9,N,A*14
$P,667
$HCHDG,122.7,0.0,E,,*2F
$GPRMC,203448.0,A,4752.98058,N,12224.04261,W,005.42,140.3,080314,016.7,E,D*2E
$IIVHW,,,,,6.97,N,,*11
$PGRME,2.4,M,2.4,M,3.4,M*29
$P,715
$HCHDG,122.7,0.0,E,,*2F
$IIRMB,A,3.00,L,,Lac ,,,,,030.6,353,,V,A*2A
$P,691
$P,755
$P,712
$P,0
$HCHDG,122.4,0.0,E,,*2C
$GPRMC,203448.2,A,4752.98034,N,12224.04235,W,005.38,139.6,080314,016.7,E,D*21
$IIRMB,A,0.00,L,B,X,4714.072040,N,12225.414044,W,38.9,181,4.01,V38
$IIVHW,,,,,4.38,N,,*16
$P,728
$PGRME,2.4,M,2.4,M,3.4,M*29
$IIRMC,203400,A,4752.982,N,12224.044,W,05.2,122,080314,16,E,A*14
$IIRMB,A,0.00,L,B,X,4714.072040,N,12225.414044,W,38.9,181,2.65,V3c
$P,706
$HCHDG,122.0,0.0,E,,*28
$P,733
$IIVLW,06480,N,000.0,N*59
$P,713
$HCHDG,121.6,0.0,E,,*2D
$IIVWR,020,R,19.9,N,,,,*62
$P,734
$GPRMC,203448.4,A,4752.98016,N,12224.04210,W,005.41,137.8,080314,016.7,E,D*2E
$IIVHW,,,,,6.74,N,,*1C
$PGRME,2.4,M,2.4,M,3.4,M*29
$P,690
$YXXDR,A,2.9,D,PTCH,A,-26.4,D,ROLL*4B
$PTAK,FFD1,26.4*65
$P,756
$HCHDG,121.5,0.0,E,,*2E
$P,698
$P,690
$HCHDG,121.2,0.0,E,,*29
$P,654
$GPRMC,203448.6,A,4752.97995,N,12224.04186,W,005.37,138.0,080314,016.7,E,D*2B
$GPRMB,A,3.81,L,,Lac,4823.3220,N,12229.7720,W,30.6,353,-4.41,V*54
$IIVHW,,,,,6.74,N,,*1C
$PGRME,2.4,M,2.4,M,3.4,M*29
$P,746
$HCHDG,121.0,0.0,E,,*2B
$P,731
$P,761
$P,742
$HCHDG,120.6,0.0,E,,*2C
$GPRMC,203448.8,A,4752.97972,N,12224.04163,W,005.41,135.2,080314,016.7,E,D*29
$IIRMB,A,0.00,L,B,X,4714.072040,N,12225.414044,W,38.9,181,3.75,V3c
$P,754
$IIVHW,,,,,6.89,N,,*1E
$PGRME,2.4,M,2.4,M,3.4,M*29
$P,718
$HCHDG,120.3,0.0,E,,*29
$IIGLL,4752.980,N,12224.042,W,203400,A,A*43
$P,735
$IIMWV,021,R,20.2,N,A*10
$P,691
$YXXDR,A,3.1,D,PTCH,A,-24.6,D,ROLL*42
$P,731
$IIMWV,021,T,20.3,N,A*17
$HCHDG,120.0,0.0,E,,*2A
$GPRMC,203449.0,A,4752.97955,N,12224.04130,W,005.42,132.3,080314,016.7,E,D*26
$IIRMB,A,0.00,L,B,X,4714.072040,N,12225.414044,W,38.9,181,3.55,V3e
$IIVHW,,,,,6.94,N,,*12
$PGRME,2.4,M,2.4,M,3.4,M*29
$P,720
$P,736
$HCHDG,119.8,0.0,E,,*28
$IIRMB,A,3.00,L,,Lac ,,,,,030.6,353,,V,A*2A
$P,676
$P,662
$HCHDG,119.5,0.0,E,,*25
$P,610
$GPRMC,203449.2,A,4752.97934,N,12224.04095,W,005.46,132.3,080314,016.7,E,D*29
$IIRMB,A,0.00,L,B,X,4714.072040,N,12225.414044,W,38.9,181,3.58,V33
$IIVHW,,,,,7.11,N,,*1E
$PGRME,2.4,M,2.4,M,3.4,M*29
$IIRMC,203400,A,4752.980,N,12224.042,W,05.4,137,080314,16,E,A*12
$IIRMB,A,0.00,L,B,X,4714.072040,N,12225.414044,W,38.9,181,3.86,V30
$P,622
$PTAK,FFP1,HEEL,@*07
$HCHDG,119.5,0.0,E,,*25
$P,624
$IIVLW,06480,N,000.0,N*59
$P,666
$HCHDG,119.7,0.0,E,,*27
$IIVWR,021,R,20.2,N,,,,*62
$P,628
$GPRMC,203449.4,A,4752.97911,N,12224.04068,W,005.50,133.0,080314,016.7,E,D*2F
$PGRME,2.4,M,2.4,M,3.4,M*29
$IIVHW,,,,,6.94,N,,*12
$P,666
$YXXDR,A,2.7,D,PTCH,A,-24.0,D,ROLL*43
$P,663
$HCHDG,119.6,0.0,E,,*26
$P,740
$HCHDG,119.9,0.0,E,,*29
$P,722
$GPRMC,203449.6,A,4752.97893,N,12224.04038,W,005.51,134.8,080314,016.7,E,D*2D
$PGRME,2.4,M,2.4,M,3.4,M*29
$P,781
$IIVHW,,,,,7.00,N,,*1E
$P,734
$HCHDG,120.4,0.0,E,,*2E
$P,758
$P,710
$HCHDG,121.1,0.0,E,,*2A
$P,748
$GPRMC,203449.8,A,4752.97867,N,12224.04003,W,005.51,136.5,080314,016.7,E,D*2F
$GPRMB,A,3.81,L,,Lac,4823.3220,N,12229.7720,W,30.6,353,-4.44,V*51
$PGRME,2.4,M,2.4,M,3.4,M*29
$IIVHW,,,,,7.03,N,,*1D
$P,725
$P,757
$HCHDG,121.4,0.0,E,,*2F
$IIGLL,4752.980,N,12224.042,W,203400,A,A*43
$P,717
$IIMWV,021,R,20.0,N,A*12
$P,735
$YXXDR,A,2.9,D,PTCH,A,-29.3,D,ROLL*43
$PTAK,FFD1,29.3*6D
$IIMWV,021,T,20.2,N,A*16
$P,703
$HCHDG,121.7,0.0,E,,*2C
$GPRMC,203450.0,A,4752.97838,N,12224.03973,W,005.31,142.6,080314,016.7,E,D*2A
$PGRME,2.4,M,2.4,M,3.4,M*29
$IIVHW,,,,,7.06,N,,*18
$P,733
$HCHDG,122.2,0.0,E,,*2A
$P,705
$IIRMB,A,3.00,L,,Lac ,,,,,030.6,353,,V,A*2A
$P,724
$P,697
$HCHDG,122.3,0.0,E,,*2B
$P,705
$GPRMC,203450.2,A,4752.97808,N,12224.03953,W,005.32,147.8,080314,016.7,E,D*21
$IIRMB,A,0.00,L,B,X,4714.072040,N,12225.414044,W,38.9,181,4.43,V3e
$IIVHW,,,,,7.06,N,,*18
$PGRME,2.4,M,2.4,M,3.4,M*29
$IIRMC,203400,A,4752.980,N,12224.042,W,05.4,137,080314,16,E,A*12
$IIRMB,A,0.00,L,B,X,4714.072040,N,12225.414044,W,38.9,181,3.86,V30
$P,687
$HCHDG,122.6,0.0,E,,*2E
$P,703
$IIVLW,06480,N,000.0,N*59
$P,640
$HCHDG,122.7,0.0,E,,*2F
$IIVWR,021,R,20.0,N,,,,*60
$P,656
$GPRMC,203450.4,A,4752.97778,N,12224.03928,W,005.38,145.1,080314,016.7,E,D*22
$IIRMB,A,0.00,L,B,X,4714.072040,N,12225.414044,W,38.9,181,4.34,V3e
$PGRME,2.4,M,2.4,M,3.4,M*29
$IIVHW,,,,,7.05,N,,*1B
$P,618
$YXXDR,A,3.0,D,PTCH,A,-29.5,D,ROLL*4D
$P,626
$HCHDG,122.6,0.0,E,,*2E
$P,588
$HCHDG,122.3,0.0,E,,*2B
$P,628
$GPRMC,203450.6,A,4752.97749,N,12224.03899,W,005.31,139.4,080314,016.7,E,D*2E
$IIVHW,,,,,6.93,N,,*15
$PGRME,2.4,M,2.4,M,3.4,M*29
$P,596
$HCHDG,121.7,0.0,E,,*2C
$P,595
$P,567
$HCHDG,121.2,0.0,E,,*29
$P,613
$GPRMC,203450.8,A,4752.97721,N,12224.03861,W,005.31,133.1,080314,016.7,E,D*26
$IIRMB,A,0.00,L,B,X,4714.072040,N,12225.414044,W,38.9,181,3.53,V38
$GPRMB,A,3.81,L,,Lac,4823.3220,N,12229.7720,W,30.6,353,-4.08,V*59
$IIVHW,,,,,6.64,N,,*1D
$PGRME,2.4,M,2.4,M,3.4,M*29
$IIDPT,073.9,-1.0,*4D
$P,614
$HCHDG,120.8,0.0,E,,*22
$P,633
$IIGLL,4752.978,N,12224.040,W,203400,A,A*46
$P,600
$YXXDR,A,2.4,D,PTCH,A,-23.0,D,ROLL*47
$IIMWV,023,R,19.8,N,A*12
$P,635
$HCHDG,120.0,0.0,E,,*2A
$GPRMC,203451.0,A,4752.97696,N,12224.03820,W,005.57,131.3,080314,016.7,E,D*27
$IIRMB,A,0.00,L,B,X,4714.072040,N,12225.414044,W,38.9,181,3.57,V3c
$PGRME,2.4,M,2.4,M,3.4,M*29
$IIVHW,,,,,6.49,N,,*12
$IIMWV,021,T,20.0,N,A*14
$P,624
$HCHDG,119.8,0.0,E,,*28
$P,680
$IIRMB,A,3.00,L,,Lac ,,,,,030.6,353,,V,A*2A
$P,658
$HCHDG,119.5,0.0,E,,*25
$P,729
$GPRMC,203451.2,A,4752.97679,N,12224.03781,W,005.52,127.0,080314,016.7,E,D*21
$IIRMB,A,0.00,L,B,X,4714.072040,N,12225.414044,W,38.9,181,3.22,V3e
$PGRME,2.4,M,2.4,M,3.4,M*29
$IIVHW,,,,,6.54,N,,*1E
$P,710
$P,725
$IIRMC,203400,A,4752.978,N,12224.040,W,05.5,134,080314,16,E,A*15
$IIRMB,A,0.00,L,B,X,4714.072040,N,12225.414044,W,38.9,181,3.72,V3b
$HCHDG,119.4,0.0,E,,*24
$P,709
$P,750
$HCHDG,119.4,0.0,E,,*24
$IIVLW,06480,N,000.0,N*59
$P,709
$GPRMC,203451.4,A,4752.97656,N,12224.03744,W,005.48,129.6,080314,016.7,E,D*20
$IIRMB,A,0.00,L,B,X,4714.072040,N,12225.414044,W,38.9,181,3.39,V34
$IIVHW,,,,,6.59,N,,*13
$PGRME,2.4,M,2.4,M,3.4,M*29
$P,723
$YXXDR,A,2.6,D,PTCH,A,-24.2,D,ROLL*40
$PTAK,FFD1,24.2*61
$P,688
$HCHDG,119.5,0.0,E,,*25
$P,683
$P,643
$HCHDG,119.5,0.0,E,,*25
$GPRMC,203451.6,A,4752.97636,N,12224.03724,W,005.17,135.4,080314,016.7,E,D*27
$IIRMB,A,0.00,L,B,X,4714.072040,N,12225.414044,W,38.9,181,3.59,V32
$IIVHW,,,,,6.61,N,,*18
$PGRME,2.4,M,2.4,M,3.4,M*29
$P,665
$P,639
$HCHDG,119.8,0.0,E,,*28
$P,653
$P,623
$HCHDG,120.2,0.0,E,,*28
$P,655
$GPRMC,203451.8,A,4752.97619,N,12224.03701,W,004.83,140.0,080314,016.7,E,D*29
$IIRMB,A,0.00,L,B,X,4714.072040,N,12225.414044,W,38.9,181,3.62,V3a
$GPRMB,A,3.81,L,,Lac,4823.3220,N,12229.7720,W,30.6,353,-4.06,V*57
$IIVHW,,,,,6.62,N,,*1B
$PGRME,2.4,M,2.4,M,3.4,M*29
$IIVWR,021,R,19.7,N,,,,*6D
$P,657
$HCHDG,120.6,0.0,E,,*2C
$IIDPT,073.9,-1.0,*4D
$P,705
$P,670
$YXXDR,A,3.0,D,PTCH,A,-28.4,D,ROLL*4D
$P,689
$IIGLL,4752.977,N,12224.038,W,203400,A,A*46
$HCHDG,120.6,0.0,E,,*2C
$GPRMC,203452.0,A,4752.97598,N,12224.03675,W,005.02,137.4,080314,016.7,E,D*26
$IIRMB,A,0.00,L,B,X,4714.072040,N,12225.414044,W,38.9,181,3.61,V39
$IIVHW,,,,,6.71,N,,*19
$PGRME,2.4,M,2.4,M,3.4,M*29
$P,641
$IIMWV,021,R,19.7,N,A*1F
$HCHDG,120.8,0.0,E,,*22
$P,686
$IIMWV,023,T,19.8,N,A*14
$P,669
$P,711
$HCHDG,120.8,0.0,E,,*22
$IIRMB,A,3.00,L,,Lac ,,,,,030.6,353,,V,A*2A
$GPRMC,203452.2,A,4752.97574,N,12224.03645,W,005.29,134.7,080314,016.7,E,D*2C
$IIVHW,,,,,6.76,N,,*1E
$PGRME,2.4,M,2.4,M,3.4,M*29
$P,671
$P,761
$HCHDG,120.6,0.0,E,,*2C
$P,772
$IIRMC,203400,A,4752.977,N,12224.038,W,05.3,139,080314,16,E,A*1E
$P,793
$HCHDG,120.4,0.0,E,,*2E
$P,738
$GPRMC,203452.4,A,4752.97555,N,12224.03618,W,005.24,132.5,080314,016.7,E,D*28
$IIRMB,A,0.00,L,B,X,4714.072040,N,12225.414044,W,38.9,181,3.45,V3f
$IIVHW,,,,,6.95,N,,*13
$PGRME,2.4,M,2.4,M,3.4,M*29
$P,731
$YXXDR,A,2.4,D,PTCH,A,-26.6,D,ROLL*44
$PTAK,FFD1,26.6*67
$P,681
$P,692
$HCHDG,120.4,0.0,E,,*2E
$P,640
$HCHDG,120.5,0.0,E,,*2F
$P,625
$GPRMC,203452.6,A,4752.97535,N,12224.03595,W,005.01,132.3,080314,016.7,E,D*2B
$IIVHW,,,,,6.86,N,,*11
$PGRME,2.4,M,2.4,M,3.4,M*29
$P,602
$HCHDG,120.6,0.0,E,,*2C
$P,629
$P,655
$HCHDG,120.6,0.0,E,,*2C
$P,690
$GPRMC,203452.8,A,4752.97515,N,12224.03553,W,005.71,127.2,080314,016.7,E,D*2F
$IIVHW,,,,,6.80,N,,*17
$PGRME,2.4,M,2.4,M,3.4,M*29
$P,662
$IIVLW,06480,N,000.0,N*59
$HCHDG,120.3,0.0,E,,*29
$P,695
$IIVWR,021,R,19.3,N,,,,*69
$P,677
$IIDPT,073.9,-1.0,*4D
$YXXDR,A,2.5,D,PTCH,A,-25.5,D,ROLL*45
$P,709
$HCHDG,120.6,0.0,E,,*2C
$GPRMC,203453.0,A,4752.97496,N,12224.03517,W,005.11,132.3,080314,016.7,E,D*2F
$GPRMB,A,3.81,L,,Lac,4823.3220,N,12229.7720,W,30.6,353,-3.88,V*56
$IIVHW,,,,,6.83,N,,*14
$PGRME,2.4,M,2.4,M,3.4,M*29
$P,681
$IIGLL,4752.976,N,12224.037,W,203400,A,A*48
$P,715
$HCHDG,120.6,0.0,E,,*2C
$IIMWV,021,R,19.3,N,A*1B
$P,697
$P,717
$IIMWV,021,T,19.7,N,A*19
$HCHDG,120.8,0.0,E,,*22
$P,662
$GPRMC,203453.2,A,4752.97476,N,12224.03487,W,005.13,136.6,080314,016.7,E,D*28
$IIRMB,A,0.00,L,B,X,4714.072040,N,12225.414044,W,38.9,181,3.64,V3c
$IIVHW,,,,,6.88,N,,*1F
$PTAK,FFP1,HEEL,@*07
$PGRME,2.4,M,2.4,M,3.4,M*29
$P,687
$IIRMB,A,3.00,L,,Lac ,,,,,030.6,353,,V,A*2A
$HCHDG,121.1,0.0,E,,*2A
$P,674
$P,696
$HCHDG,121.4,0.0,E,,*2F
$P,632
$IIRMC,203400,A,4752.976,N,12224.037,W,05.1,135,080314,16,E,A*1E
$GPRMC,203453.4,A,4752.97456,N,12224.03464,W,005.09,137.8,080314,016.7,E,D*25
$IIRMB,A,0.00,L,B,X,4714.072040,N,12225.414044,W,38.9,181,3.69,V31
$IIVHW,,,,,6.83,N,,*14
$PGRME,2.4,M,2.4,M,3.4,M*29
$P,648
$YXXDR,A,3.1,D,PTCH,A,-28.3,D,ROLL*4B
$P,612
$HCHDG,121.9,0.0,E,,*22
$P,632
$P,601
$HCHDG,121.9,0.0,E,,*22
$GPRMC,203453.6,A,4752.97435,N,12224.03434,W,005.32,138.4,080314,016.7,E,D*2C
$IIVHW,,,,,6.63,N,,*1A
$PGRME,2.4,M,2.4,M,3.4,M*29
$P,652
$P,663
$HCHDG,121.9,0.0,E,,*22
$P,721
$P,703
$HCHDG,121.9,0.0,E,,*22
$P,729
$GPRMC,203453.8,A,4752.97416,N,12224.03400,W,005.36,136.0,080314,016.7,E,D*2A
$IIVHW,,,,,6.70,N,,*18
$PGRME,2.4,M,2.4,M,3.4,M*29
$P,705
$P,713
$HCHDG,121.8,0.0,E,,*23
$IIVLW,06480,N,000.0,N*59
$P,693
$IIVWR,022,R,19.6,N,,,,*6F
$YXXDR,A,2.9,D,PTCH,A,-26.8,D,ROLL*47
$PTAK,FFD1,26.8*69
$P,710
$IIDPT,073.9,-1.0,*4D
$GPRMC,203454.0,A,4752.97397,N,12224.03368,W,005.08,137.3,080314,016.7,E,D*2D
$P,727
$IIVHW,,,,,6.82,N,,*15
$PGRME,2.4,M,2.4,M,3.4,M*29
$HCHDG,121.7,0.0,E,,*2C
$P,776
$HCHDG,121.7,0.0,E,,*2C
$P,713
$IIGLL,4752.975,N,12224.035,W,203400,A,A*49
$P,740
$IIMWV,022,R,19.6,N,A*1D
$HCHDG,121.8,0.0,E,,*23
$P,717
$IIMWV,021,T,19.3,N,A*1D
$GPRMC,203454.2,A,4752.97380,N,12224.03338,W,005.27,135.2,080314,016.7,E,D*22
$IIRMB,A,0.00,L,B,X,4714.072040,N,12225.414044,W,38.9,181,3.65,V3d
$GPRMB,A,3.81,L,,Lac,4823.3220,N,12229.7720,W,30.6,353,-4.17,V*57
$IIVHW,,,,,6.93,N,,*15
$PGRME,2.4,M,2.4,M,3.4,M*29
$P,690
$P,606
$HCHDG,121.5,0.0,E,,*2E
$IIRMB,A,3.00,L,,Lac ,,,,,030.6,353,,V,A*2A
$P,612
$P,576
$HCHDG,121.6,0.0,E,,*2D
$GPRMC,203454.4,A,4752.97362,N,12224.03321,W,005.30,136.1,080314,016.7,E,D*26
$IIRMB,A,0.00,L,B,X,4714.072040,N,12225.414044,W,38.9,181,3.73,V3a
$IIVHW,,,,,6.78,N,,*10
$PGRME,2.4,M,2.4,M,3.4,M*29
$P,599
$YXXDR,A,2.8,D,PTCH,A,-25.5,D,ROLL*48
$P,597
$HCHDG,121.7,0.0,E,,*2C
$P,626
$HCHDG,121.5,0.0,E,,*2E
$P,613
$GPRMC,203454.6,A,4752.97343,N,12224.03292,W,005.29,135.9,080314,016.7,E,D*2D
$IIVHW,,,,,6.67,N,,*1E
$PGRME,2.4,M,2.4,M,3.4,M*29
$P,635
$P,599
$HCHDG,121.6,0.0,E,,*2D
$P,633
$HCHDG,121.7,0.0,E,,*2C
$P,612
$GPRMC,203454.8,A,4752.97320,N,12224.03270,W,005.24,136.1,080314,016.7,E,D*2C
$IIVHW,,,,,6.60,N,,*19
$PGRME,2.4,M,2.4,M,3.4,M*29
$P,642
$HCHDG,121.4,0.0,E,,*2F
$P,603
$P,621
$IIRMC,203400,A,4752.974,N,12224.034,W,05.3,138,080314,16,E,A*10
$IIRMB,A,0.00,L,B,X,4714.072040,N,12225.414044,W,38.9,181,3.85,V33
$YXXDR,A,2.8,D,PTCH,A,-25.1,D,ROLL*4C
$P,588
$GPRMC,203455.0,A,4752.97297,N,12224.03244,W,005.19,136.7,080314,016.7,E,D*27
$IIRMB,A,0.00,L,B,X,4714.072040,N,12225.414044,W,38.9,181,3.69,V31
$HCHDG,121.2,0.0,E,,*29
$IIVHW,,,,,6.41,N,,*1A
$PGRME,2.4,M,2.4,M,3.4,M*29
$P,626
$IIVLW,06480,N,000.0,N*59
$HCHDG,121.3,0.0,E,,*28
$P,590
$IIVWR,022,R,19.6,N,,,,*6F
$P,586
$IIDPT,073.9,-1.0,*4D
$HCHDG,121.3,0.0,E,,*28
$P,587
$GPRMC,203455.2,A,4752.97276,N,12224.03215,W,005.22,134.3,080314,016.7,E,D*20
$IIRMB,A,0.00,L,B,X,4714.072040,N,12225.414044,W,38.9,181,3.55,V3e
$IIVHW,,,,,6.21,N,,*1C
$PGRME,2.4,M,2.4,M,3.4,M*29
$P,614
$IIGLL,4752.974,N,12224.034,W,203400,A,A*49
$HCHDG,121.1,0.0,E,,*2A
$P,604
$IIMWV,022,R,19.6,N,A*1D
$P,666
$IIMWV,022,T,19.6,N,A*1B
$HCHDG,121.1,0.0,E,,*2A
$P,657
$GPRMC,203455.4,A,4752.97257,N,12224.03178,W,005.42,132.0,080314,016.7,E,D*2E
$GPRMB,A,3.81,L,,Lac,4823.3220,N,12229.7720,W,30.6,353,-4.10,V*50
$IIVHW,,,,,6.21,N,,*1C
$PGRME,2.4,M,2.4,M,3.4,M*29
$P,666
$YXXDR,A,2.8,D,PTCH,A,-25.5,D,ROLL*48
$PTAK,FFD1,25.5*67
$P,671
$HCHDG,121.1,0.0,E,,*2A
$P,738
$P,738
$HCHDG,120.9,0.0,E,,*23
$P,774
$GPRMC,203455.6,A,4752.97238,N,12224.03147,W,005.35,136.5,080314,016.7,E,D*28
$IIRMB,A,0.00,L,B,X,4714.072040,N,12225.414044,W,38.9,181,3.79,V30
$IIVHW,,,,,6.40,N,,*1B
$PGRME,2.4,M,2.4,M,3.4,M*29
$P,728
$P,745
$HCHDG,120.7,0.0,E,,*2D
$P,710
$P,729
$HCHDG,120.9,0.0,E,,*23
$P,736
$GPRMC,203455.8,A,4752.97215,N,12224.03113,W,005.07,136.6,080314,016.7,E,D*2A
$IIVHW,,,,,6.61,N,,*18
$PGRME,2.4,M,2.4,M,3.4,M*29
$P,812
$HCHDG,121.0,0.0,E,,*2B
$P,769
$IIRMB,A,3.00,L,,Lac ,,,,,030.6,353,,V,A*2A
$P,807
$P,766
$YXXDR,A,2.8,D,PTCH,A,-26.4,D,ROLL*4A
$P,752
$HCHDG,121.3,0.0,E,,*28
$GPRMC,203456.0,A,4752.97194,N,12224.03085,W,005.50,132.0,080314,016.7,E,D*25
$IIRMB,A,0.00,L,B,X,4714.072040,N,12225.414044,W,38.9,181,3.58,V33
$IIVHW,,,,,6.91,N,,*17
$PGRME,2.4,M,2.4,M,3.4,M*29
$IIRMC,203400,A,4752.973,N,12224.032,W,05.2,135,080314,16,E,A*1D
$P,720
$HCHDG,121.4,0.0,E,,*2F
$P,762
$P,722
$IIVLW,06480,N,000.0,N*59
$P,723
$HCHDG,121.7,0.0,E,,*2C
$IIVWR,021,R,19.6,N,,,,*6C
$P,690
$GPRMC,203456.2,A,4752.97168,N,12224.03059,W,005.45,135.5,080314,016.7,E,D*23
$IIRMB,A,0.00,L,B,X,4714.072040,N,12225.414044,W,38.9,181,3.79,V30
$IIVHW,,,,,7.14,N,,*1B
$PGRME,2.4,M,2.4,M,3.4,M*29
$IIDPT,073.9,-1.0,*4D
$P,731
$HCHDG,121.8,0.0,E,,*23
$P,692
$IIGLL,4752.973,N,12224.032,W,203400,A,A*48
$P,703
$HCHDG,122.1,0.0,E,,*29
$IIMWV,021,R,19.6,N,A*1E
$P,656
$GPRMC,203456.4,A,4752.97143,N,12224.03024,W,005.43,133.4,080314,016.7,E,D*27
$IIRMB,A,0.00,L,B,X,4714.072040,N,12225.414044,W,38.9,181,3.63,V3b
$GPRMB,A,3.82,L,,Lac,4823.3220,N,12229.7720,W,30.6,353,-4.19,V*5A
$PGRME,2.4,M,2.4,M,3.4,M*29
$IIVHW,,,,,7.26,N,,*1A
$P,652
$YXXDR,A,2.4,D,PTCH,A,-27.0,D,ROLL*43
$P,613
$HCHDG,122.3,0.0,E,,*2B
$P,649
$HCHDG,122.3,0.0,E,,*2B
$P,641
$GPRMC,203456.6,A,4752.97125,N,12224.02982,W,005.37,135.0,080314,016.7,E,D*20
$IIRMB,A,0.00,L,B,X,4714.072040,N,12225.414044,W,38.9,181,3.70,V39
$PGRME,2.4,M,2.4,M,3.4,M*29
$IIVHW,,,,,7.14,N,,*1B
$P,668
$P,628
$HCHDG,122.6,0.0,E,,*2E
$P,656
$P,644
$HCHDG,122.5,0.0,E,,*2D
$GPRMC,203456.8,A,4752.97103,N,12224.02946,W,005.32,135.7,080314,016.7,E,D*20
$IIRMB,A,0.00,L,B,X,4714.072040,N,12225.414044,W,38.9,181,3.72,V3b
$P,684
$PGRME,2.4,M,2.4,M,3.4,M*29
$IIVHW,,,,,6.97,N,,*11
$IIMWV,021,T,19.6,N,A*18
$P,658
$HCHDG,122.8,0.0,E,,*20
$P,682
$IIRMB,A,3.00,L,,Lac ,,,,,030.6,353,,V,A*2A
$P,645
$YXXDR,A,2.3,D,PTCH,A,-28.4,D,ROLL*4F
$PTAK,FFD1,28.4*6B
$P,676
$GPRMC,203457.0,A,4752.97078,N,12224.02898,W,005.37,135.8,080314,016.7,E,D*2C
$HCHDG,122.8,0.0,E,,*20
$PGRME,2.4,M,2.4,M,3.4,M*29
$IIVHW,,,,,6.88,N,,*1F
$P,620
$IIRMC,203400,A,4752.972,N,12224.031,W,05.3,136,080314,16,E,A*1D
$HCHDG,122.9,0.0,E,,*21
$P,632
$P,603
$HCHDG,123.2,0.0,E,,*2B
$IIVLW,06480,N,000.0,N*59
$P,595
$GPRMC,203457.2,A,4752.97061,N,12224.02865,W,005.19,137.3,080314,016.7,E,D*21
$IIRMB,A,0.00,L,B,X,4714.072040,N,12225.414044,W,38.9,181,3.73,V3a
$IIVHW,,,,,6.53,N,,*19
$PGRME,2.4,M,2.4,M,3.4,M*29
$IIVWR,020,R,19.6,N,,,,*6D
$P,609
$HCHDG,123.1,0.0,E,,*28
$IIDPT,073.9,-1.0,*4D
$P,635
$P,640
$HCHDG,122.8,0.0,E,,*20
$PTAK,FFP1,HEEL,@*07
$IIGLL,4752.972,N,12224.031,W,203400,A,A*4A
$P,685
$GPRMC,203457.4,A,4752.97043,N,12224.02828,W,005.40,133.3,080314,016.7,E,D*26
$IIRMB,A,0.00,L,B,X,4714.072040,N,12225.414044,W,38.9,181,3.61,V39
$GPRMB,A,3.82,L,,Lac,4823.3220,N,12229.7720,W,30.6,353,-4.16,V*55
$PGRME,2.4,M,2.4,M,3.4,M*29
$IIVHW,,,,,6.52,N,,*18
$P,649
$YXXDR,A,2.3,D,PTCH,A,-28.8,D,ROLL*43
$P,667
$HCHDG,122.9,0.0,E,,*21
$P,638
$P,678
$HCHDG,122.8,0.0,E,,*20
$GPRMC,203457.6,A,4752.97022,N,12224.02789,W,005.37,137.0,080314,016.7,E,D*20
$IIRMB,A,0.00,L,B,X,4714.072040,N,12225.414044,W,38.9,181,3.84,V32
$IIVHW,,,,,6.47,N,,*1C
$PGRME,2.4,M,2.4,M,3.4,M*29
$P,684
$P,759
$HCHDG,122.7,0.0,E,,*2F
$P,738
$P,767
$HCHDG,122.8,0.0,E,,*20
$P,727
$GPRMC,203457.8,A,4752.96998,N,12224.02759,W,005.02,142.5,080314,016.7,E,D*2B
$PGRME,2.4,M,2.4,M,3.4,M*29
$IIVHW,,,,,6.65,N,,*1C
$P,731
$IIMWV,020,R,19.7,N,A*1E
$P,686
$HCHDG,123.0,0.0,E,,*29
$IIMWV,020,T,19.6,N,A*19
$P,705
$YXXDR,A,2.2,D,PTCH,A,-29.4,D,ROLL*4F
$P,654
$IIRMB,A,3.00,L,,Lac ,,,,,030.6,353,,V,A*2A
$GPRMC,203458.0,A,4752.96975,N,12224.02732,W,005.40,139.6,080314,016.7,E,D*2B
$P,649
$HCHDG,123.1,0.0,E,,*28
$PGRME,2.4,M,2.4,M,3.4,M*29
$IIVHW,,,,,6.74,N,,*1C
$P,593
$HCHDG,123.2,0.0,E,,*2B
$P,617
$IIRMC,203400,A,4752.971,N,12224.029,W,05.3,135,080314,16,E,A*14
$IIRMB,A,0.00,L,B,X,4714.072040,N,12225.414044,W,38.9,181,3.66,V3e
$P,618
$HCHDG,123.2,0.0,E,,*2B
$P,649
$GPRMC,203458.2,A,4752.96953,N,12224.02708,W,005.36,139.6,080314,016.7,E,D*25
$IIRMB,A,0.00,L,B,X,4714.072040,N,12225.414044,W,38.9,181,4.00,V39
$PGRME,2.4,M,2.4,M,3.4,M*29
$IIVHW,,,,,6.66,N,,*1F
$IIVLW,06480,N,000.0,N*59
$P,611
$HCHDG,123.1,0.0,E,,*28
$IIVWR,020,R,19.7,N,,,,*6C
$P,638
$IIDPT,073.9,-1.0,*4D
$P,601
$HCHDG,123.1,0.0,E,,*28
$P,602
$PGRME,2.4,M,2.4,M,3.4,M*29
$GPRMC,203458.4,A,4752.96929,N,12224.02681,W,005.42,137.9,080314,016.7,E,D*2C
$IIVHW,,,,,6.61,N,,*18
$P,582
$YXXDR,A,2.0,D,PTCH,A,-28.8,D,ROLL*40
$PTAK,FFD1,28.8*67
$P,595
$HCHDG,122.8,0.0,E,,*20
$P,561
$HCHDG,122.6,0.0,E,,*2E
$GPRMC,203458.6,A,4752.96905,N,12224.02647,W,005.41,136.2,080314,016.7,E,D*23
$IIRMB,A,0.00,L,B,X,4714.072040,N,12225.414044,W,38.9,181,3.81,V37
$GPRMB,A,3.82,L,,Lac,4823.3220,N,12229.7720,W,30.6,353,-4.34,V*55
$IIVHW,,,,,6.46,N,,*1D
$PGRME,2.4,M,2.4,M,3.4,M*29
$P,586
$P,584
$HCHDG,122.4,0.0,E,,*2C
$P,654
$P,631
$HCHDG,122.4,0.0,E,,*2C
$GPRMC,203458.8,A,4752.96886,N,12224.02615,W,005.43,134.6,080314,016.7,E,D*24
$IIRMB,A,0.00,L,B,X,4714.072040,N,12225.414044,W,38.9,181,3.72,V3b
$P,662
$IIVHW,,,,,6.41,N,,*1A
$PGRME,2.4,M,2.4,M,3.4,M*29
$P,613
$HCHDG,122.4,0.0,E,,*2C
$P,637
$P,623
$YXXDR,A,2.1,D,PTCH,A,-27.6,D,ROLL*40
$P,660
$GPRMC,203459.0,A,4752.96866,N,12224.02589,W,005.38,134.9,080314,016.7,E,D*26
$IIRMB,A,0.00,L,B,X,4714.072040,N,12225.414044,W,38.9,181,3.70,V39
$IIVHW,,,,,6.29,N,,*14
$HCHDG,122.3,0.0,E,,*2B
$PGRME,2.4,M,2.4,M,3.4,M*29
$P,634
$HCHDG,122.2,0.0,E,,*2A
$P,697
$P,691
$P,707
$HCHDG,122.2,0.0,E,,*2A
$GPRMC,203459.2,A,4752.96842,N,12224.02561,W,005.36,138.7,080314,016.7,E,D*28
$IIRMB,A,0.00,L,B,X,4714.072040,N,12225.414044,W,38.9,181,3.94,V33
$PGRME,2.4,M,2.4,M,3.4,M*29
$IIVHW,,,,,6.34,N,,*18
$P,674
$P,690
$HCHDG,122.1,0.0,E,,*29
$P,667
$P,689
$HCHDG,122.3,0.0,E,,*2B
$GPRMC,203459.4,A,4752.96816,N,12224.02533,W,005.32,141.0,080314,016.7,E,D*25
$IIRMB,A,0.00,L,B,X,4714.072040,N,12225.414044,W,38.9,181,4.05,V3c
$P,674
$IIVHW,,,,,6.44,N,,*1F
$PGRME,2.4,M,2.4,M,3.4,M*29
$P,698
$YXXDR,A,3.1,D,PTCH,A,-29.1,D,ROLL*48
$PTAK,FFD1,29.1*6F
$P,695
$HCHDG,122.4,0.0,E,,*2C
$P,704
$HCHDG,122.7,0.0,E,,*2F
$P,669
$GPRMC,203459.6,A,4752.96789,N,12224.02505,W,005.27,142.8,080314,016.7,E,D*24
$IIRMB,A,0.00,L,B,X,4714.072040,N,12225.414044,W,38.9,181,4.12,V3a
$GPRMB,A,3.82,L,,Lac,4823.3220,N,12229.7720,W,30.6,353,-4.56,V*51
$PGRME,2.4,M,2.4,M,3.4,M*29
$IIVHW,,,,,6.56,N,,*1C
$P,660
$HCHDG,123.0,0.0,E,,*29
$P,649
$P,715
$P,655
$HCHDG,123.3,0.0,E,,*2A
$GPRMC,203459.8,A,4752.96763,N,12224.02479,W,005.26,142.1,080314,016.7,E,D*2C
$IIVHW,,,,,6.66,N,,*1F
$PGRME,2.4,M,2.4,M,3.4,M*29
$P,667
$P,659
$HCHDG,123.3,0.0,E,,*2A
$IIGLL,4752.970,N,12224.027,W,203400,A,A*4F
$P,725
$IIMWV,021,R,19.3,N,A*1B
$P,665
$YXXDR,A,2.3,D,PTCH,A,-29.8,D,ROLL*42
$IIMWV,020,T,19.7,N,A*18
$P,671
$GPRMC,203500.0,A,4752.96739,N,12224.02451,W,005.65,136.6,080314,016.7,E,D*2F
$HCHDG,123.0,0.0,E,,*29
$IIVHW,,,,,6.74,N,,*1C
$PGRME,2.4,M,2.4,M,3.4,M*29
$P,627
$HCHDG,123.0,0.0,E,,*29
$IIRMB,A,3.00,L,,Lac ,,,,,030.6,353,,V,A*2A
$P,703
$P,701
$HCHDG,122.6,0.0,E,,*2E
$P,730
$IIVHW,,,,,6.78,N,,*10
$GPRMC,203500.2,A,4752.96719,N,12224.02414,W,005.64,131.9,080314,016.7,E,D*27
$IIRMB,A,0.00,L,B,X,4714.072040,N,12225.414044,W,38.9,181,3.66,V3e
$IIRMC,203400,A,4752.970,N,12224.027,W,05.3,137,080314,16,E,A*19
$IIRMB,A,0.00,L,B,X,4714.072040,N,12225.414044,W,38.9,181,3.79,V30
$P,732
$PGRME,2.4,M,2.4,M,3.4,M*29
$P,757
$HCHDG,122.2,0.0,E,,*2A
$P,745
$IIVLW,06480,N,000.0,N*59
$P,786
$HCHDG,121.8,0.0,E,,*23
$P,737
$IIVWR,021,R,19.3,N,,,,*69
$GPRMC,203500.4,A,4752.96695,N,12224.02385,W,005.31,131.0,080314,016.7,E,D*22
$IIRMB,A,0.00,L,B,X,4714.072040,N,12225.414044,W,38.9,181,3.39,V34
$IIVHW,,,,,6.97,N,,*11
$PGRME,2.4,M,2.4,M,3.4,M*29
$P,757
$YXXDR,A,2.3,D,PTCH,A,-26.2,D,ROLL*47
$P,708
$P,704
$HCHDG,121.4,0.0,E,,*2F
$P,668
$HCHDG,121.3,0.0,E,,*28
$P,667
$GPRMC,203500.6,A,4752.96678,N,12224.02355,W,005.03,132.2,080314,016.7,E,D*2E
$GPRMB,A,3.82,L,,Lac,4823.3220,N,12229.7720,W,30.6,353,-3.82,V*5F
$IIVHW,,,,,7.01,N,,*1F
$PGRME,2.4,M,2.4,M,3.4,M*29
$P,614
$HCHDG,121.5,0.0,E,,*2E
$P,637
$P,614
$HCHDG,121.8,0.0,E,,*23
$P,635
$IIVHW,,,,,6.89,N,,*1E
$GPRMC,203500.8,A,4752.96659,N,12224.02327,W,005.07,137.3,080314,016.7,E,D*26
$IIRMB,A,0.00,L,B,X,4714.072040,N,12225.414044,W,38.9,181,3.64,V3c
$PGRME,2.4,M,2.4,M,3.4,M*29
$IIDPT,073.9,-1.0,*4D
$P,602
$HCHDG,122.5,0.0,E,,*2D
$P,650
$IIGLL,4752.967,N,12224.025,W,203400,A,A*4B
$P,640
$YXXDR,A,2.7,D,PTCH,A,-28.8,D,ROLL*47
$PTAK,FFD1,28.8*67
$IIMWV,021,R,19.2,N,A*1A
$P,625
$GPRMC,203501.0,A,4752.96638,N,12224.02297,W,005.27,140.9,080314,016.7,E,D*2A
$IIVHW,,,,,6.78,N,,*10
$HCHDG,123.4,0.0,E,,*2D
$PGRME,2.4,M,2.4,M,3.4,M*29
$IIMWV,021,T,19.4,N,A*1A
$P,587
$HCHDG,123.9,0.0,E,,*20
$P,616
$IIRMB,A,3.00,L,,Lac ,,,,,030.6,353,,V,A*2A
$P,608
$HCHDG,124.7,0.0,E,,*29
$P,642
$GPRMC,203501.2,A,4752.96616,N,12224.02288,W,005.28,143.3,080314,016.7,E,D*2C
$IIVHW,,,,,6.65,N,,*1C
$PGRME,2.4,M,2.4,M,3.4,M*29
$P,624
$IIRMC,203400,A,4752.967,N,12224.025,W,05.2,142,080314,16,E,A*1E
$HCHDG,124.8,0.0,E,,*26
$P,649
$P,603
$HCHDG,125.2,0.0,E,,*2D
$IIVLW,06480,N,000.0,N*59
$P,626
$GPRMC,203501.4,A,4752.96597,N,12224.02275,W,005.21,142.8,080314,016.7,E,D*21
$IIRMB,A,0.00,L,B,X,4714.072040,N,12225.414044,W,38.9,181,4.07,V3e
$PTAK,FFP1,HEEL,@*07
$IIVHW,,,,,6.51,N,,*1B
$PGRME,2.4,M,2.4,M,3.4,M*29
$P,640
$YXXDR,A,2.0,D,PTCH,A,-31.1,D,ROLL*41
$P,686
$HCHDG,125.1,0.0,E,,*2E
$P,656
$P,692
$HCHDG,125.1,0.0,E,,*2E
$GPRMC,203501.6,A,4752.96582,N,12224.02235,W,005.19,136.6,080314,016.7,E,D*25
$IIRMB,A,0.00,L,B,X,4714.072040,N,12225.414044,W,38.9,181,3.68,V30
$PGRME,2.4,M,2.4,M,3.4,M*29
$IIVHW,,,,,6.49,N,,*12
$P,639
$P,631
$HCHDG,124.9,0.0,E,,*27
$P,602
$P,614
$HCHDG,124.6,0.0,E,,*28
$GPRMC,203501.8,A,4752.96563,N,12224.02210,W,005.16,140.8,080314,016.7,E,D*23
$IIRMB,A,0.00,L,B,X,4714.072040,N,12225.414044,W,38.9,181,3.92,V35
$GPRMB,A,3.82,L,,Lac,4823.3220,N,12229.7720,W,30.6,353,-4.37,V*56
$PGRME,2.4,M,2.4,M,3.4,M*29
$P,633
$IIVHW,,,,,6.31,N,,*1D
$IIVWR,021,R,19.0,N,,,,*6A
$P,702
$HCHDG,124.2,0.0,E,,*2C
$IIDPT,073.9,-1.0,*4D
$P,654
$P,720
$YXXDR,A,2.5,D,PTCH,A,-26.7,D,ROLL*44
$PTAK,FFD1,26.7*66
$IIGLL,4752.966,N,12224.023,W,203500,A,A*4D
$P,685
$HCHDG,124.1,0.0,E,,*2F
$GPRMC,203502.0,A,4752.96544,N,12224.02188,W,005.10,138.5,080314,016.7,E,D*2B
$IIVHW,,,,,6.43,N,,*18
$PGRME,2.4,M,2.4,M,3.4,M*29
$IIHDG,207,,,16,E*10
$P,681
$HCHDG,123.9,0.0,E,,*20
$P,654
$IIMWV,021,R,19.0,N,A*18
$P,654
$IIMWV,021,T,19.2,N,A*1C
$HCHDG,123.4,0.0,E,,*2D
$P,591
$GPRMC,203502.2,A,4752.96528,N,12224.02157,W,005.08,135.7,080314,016.7,E,D*27
$IIRMB,A,0.00,L,B,X,4714.072040,N,12225.414044,W,38.9,181,3.55,V3e
$PGRME,2.4,M,2.4,M,3.4,M*29
$IIVHW,,,,,6.49,N,,*12
$P,651
$IIRMB,A,3.00,L,,Lac ,,,,,030.6,353,,V,A*2A
$HCHDG,123.3,0.0,E,,*2A
$P,636
$P,701
$P,667
$IIRMC,203500,A,4752.966,N,12224.023,W,05.0,132,080314,16,E,A*1D
$HCHDG,123.1,0.0,E,,*28
$GPRMC,203502.4,A,4752.96512,N,12224.02132,W,005.08,134.1,080314,016.7,E,D*2C
$P,695
$PGRME,2.4,M,2.4,M,3.4,M*29
$IIVHW,,,,,6.54,N,,*1E
$YXXDR,A,2.1,D,PTCH,A,-25.8,D,ROLL*4C
$P,656
$P,694
$HCHDG,123.1,0.0,E,,*28
$P,662
$HCHDG,122.9,0.0,E,,*21
$P,674
$GPRMC,203502.6,A,4752.96492,N,12224.02100,W,005.07,134.4,080314,016.7,E,D*2C
$PGRME,2.4,M,2.4,M,3.4,M*29
$IIVHW,,,,,6.61,N,,*18
$P,646
$HCHDG,123.0,0.0,E,,*29
$P,694
$P,681
$HCHDG,123.1,0.0,E,,*28
$P,669
$GPRMC,203502.8,A,4752.96479,N,12224.02068,W,005.04,137.0,080314,016.7,E,D*2C
$GPRMB,A,3.82,L,,Lac,4823.3220,N,12229.7720,W,30.6,353,-4.09,V*5B
$PGRME,2.4,M,2.4,M,3.4,M*29
$IIVHW,,,,,6.63,N,,*1A
$P,603
$IIVHW,,,207,M,00.0,N,,*61
$P,607
$HCHDG,123.2,0.0,E,,*2B
$IIVLW,06480,N,000.0,N*59
$P,574
$YXXDR,A,2.7,D,PTCH,A,-28.0,D,ROLL*4F
$PTAK,FFD1,28.0*6F
$IIVWR,021,R,19.2,N,,,,*68
$P,628
$GPRMC,203503.0,A,4752.96463,N,12224.02043,W,005.03,140.0,080314,016.7,E,D*20
$IIRMB,A,0.00,L,B,X,4714.072040,N,12225.414044,W,38.9,181,3.77,V3e
$IIDPT,073.9,-1.0,*4D
$HCHDG,123.2,0.0,E,,*2B
$PGRME,2.4,M,2.4,M,3.4,M*29
$IIVHW,,,,,6.56,N,,*1C
$P,603
$HCHDG,123.2,0.0,E,,*2B
$P,655
$IIGLL,4752.965,N,12224.022,W,203500,A,A*4F
$P,625
$IIHDG,207,,,16,E*10
$HCHDG,123.4,0.0,E,,*2D
$P,630
$IIMWV,021,R,19.2,N,A*1A
$GPRMC,203503.2,A,4752.96446,N,12224.02020,W,004.99,141.1,080314,016.7,E,D*22
$IIRMB,A,0.00,L,B,X,4714.072040,N,12225.414044,W,38.9,181,3.81,V37
$PGRME,2.4,M,2.4,M,3.4,M*29
$IIVHW,,,,,6.46,N,,*1D
$P,595
$IIMWV,021,T,19.0,N,A*1E
$HCHDG,123.4,0.0,E,,*2D
$P,586
$P,560
$IIRMB,A,3.00,L,,Lac ,,,,,030.6,353,,V,A*2A
$HCHDG,123.3,0.0,E,,*2A
$P,547
$GPRMC,203503.4,A,4752.96424,N,12224.02000,W,004.98,140.3,080314,016.7,E,D*20
$IIRMB,A,0.00,L,B,X,4714.072040,N,12225.414044,W,38.9,181,3.75,V3c
$PGRME,2.4,M,2.4,M,3.4,M*29
$IIVHW,,,,,6.25,N,,*18
$P,555
$YXXDR,A,2.6,D,PTCH,A,-28.9,D,ROLL*47
$P,609
$HCHDG,123.3,0.0,E,,*2A
$P,662
$HCHDG,123.2,0.0,E,,*2B
$P,707
$GPRMC,203503.6,A,4752.96405,N,12224.01975,W,005.00,138.2,080314,016.7,E,D*27
$IIRMB,A,0.00,L,B,X,4714.072040,N,12225.414044,W,38.9,181,3.65,V3d
$PGRME,2.4,M,2.4,M,3.4,M*29
$IIVHW,,,,,6.31,N,,*1D
$P,658
$HCHDG,122.9,0.0,E,,*21
$P,690
$P,654
$P,714
$HCHDG,122.9,0.0,E,,*21
$GPRMC,203503.8,A,4752.96386,N,12224.01943,W,005.33,133.6,080314,016.7,E,D*2F
$P,693
$PGRME,2.4,M,2.4,M,3.4,M*29
$IIVHW,,,,,6.36,N,,*1A
$P,717
$HCHDG,122.4,0.0,E,,*2C
$P,678
$IIRMC,203500,A,4752.964,N,12224.021,W,05.0,134,080314,16,E,A*1B
$P,707
$YXXDR,A,2.5,D,PTCH,A,-27.0,D,ROLL*42
$IIVHW,,,207,M,00.0,N,,*61
$P,698
$GPRMC,203504.0,A,4752.96365,N,12224.01912,W,005.29,129.9,080314,016.7,E,D*26
$IIRMB,A,0.00,L,B,X,4714.072040,N,12225.414044,W,38.9,181,3.29,V35
$GPRMB,A,3.82,L,,Lac,4823.3220,N,12229.7720,W,30.6,353,-3.87,V*5A
$HCHDG,122.1,0.0,E,,*29
$PGRME,2.4,M,2.4,M,3.4,M*29
$IIVHW,,,,,6.46,N,,*1D
$P,720
$IIVLW,06480,N,000.0,N*59
$P,704
$HCHDG,121.6,0.0,E,,*2D
$IIVWR,021,R,19.1,N,,,,*6B
$P,750
$IIDPT,073.9,-1.0,*4D
$P,757
$HCHDG,121.3,0.0,E,,*28
$P,782
$GPRMC,203504.2,A,4752.96346,N,12224.01873,W,005.26,131.2,080314,016.7,E,D*2E
$PGRME,2.4,M,2.4,M,3.4,M*29
$IIVHW,,,,,6.65,N,,*1C
$P,731
$IIGLL,4752.964,N,12224.021,W,203500,A,A*4D
$HCHDG,121.4,0.0,E,,*2F
$P,740
$IIHDG,207,,,16,E*10
$P,721
$IIMWV,021,R,19.1,N,A*19
$P,735
$HCHDG,121.5,0.0,E,,*2E
$IIMWV,021,T,19.2,N,A*1C
$P,722
$GPRMC,203504.4,A,4752.96328,N,12224.01840,W,005.04,133.4,080314,016.7,E,D*24
$IIRMB,A,0.00,L,B,X,4714.072040,N,12225.414044,W,38.9,181,3.37,V3a
$PGRME,2.4,M,2.4,M,3.4,M*29
$IIVHW,,,,,6.89,N,,*1E
$P,742
$YXXDR,A,2.5,D,PTCH,A,-26.2,D,ROLL*41
$PTAK,FFD1,26.2*63
$P,721
$HCHDG,121.7,0.0,E,,*2C
$P,740
$P,697
$HCHDG,122.0,0.0,E,,*28
$GPRMC,203504.6,A,4752.96310,N,12224.01808,W,005.31,132.8,080314,016.7,E,D*2A
$PGRME,2.4,M,2.4,M,3.4,M*29
$P,714
$IIVHW,,,,,7.10,N,,*1F
$P,680
$HCHDG,122.3,0.0,E,,*2B
$P,664
$P,630
$HCHDG,122.8,0.0,E,,*20
$P,672
$GPRMC,203504.8,A,4752.96291,N,12224.01775,W,005.34,137.3,080314,016.7,E,D*22
$IIRMB,A,0.00,L,B,X,4714.072040,N,12225.414044,W,38.9,181,3.84,V32
$PGRME,2.4,M,2.4,M,3.4,M*29
$IIVHW,,,,,7.09,N,,*17
$P,649
$HCHDG,123.1,0.0,E,,*28
$IIRMB,A,3.00,L,,Lac ,,,,,030.6,353,,V,A*2A
$P,681
$P,676
$YXXDR,A,2.3,D,PTCH,A,-28.3,D,ROLL*48
$P,744
$GPRMC,203505.0,A,4752.96272,N,12224.01740,W,005.36,134.5,080314,016.7,E,D*27
$IIRMB,A,0.00,L,B,X,4714.072040,N,12225.414044,W,38.9,181,3.66,V3e
$HCHDG,123.4,0.0,E,,*2D
$PGRME,2.4,M,2.4,M,3.4,M*29
$IIVHW,,,,,7.07,N,,*19
$IIRMC,203500,A,4752.964,N,12224.019,W,05.0,138,080314,16,E,A*1C
$P,709
$P,750
$HCHDG,123.3,0.0,E,,*2A
$IIVHW,,,207,M,00.0,N,,*61
$P,766
$IIVLW,06480,N,000.0,N*59
$P,778
$P,745
$HCHDG,123.3,0.0,E,,*2A
$IIVWR,021,R,18.9,N,,,,*62
$GPRMC,203505.2,A,4752.96256,N,12224.01703,W,005.03,141.4,080314,016.7,E,D*21
$IIRMB,A,0.00,L,B,X,4714.072040,N,12225.414044,W,38.9,181,3.85,V33
$GPRMB,A,3.82,L,,Lac,4823.3220,N,12229.7720,W,30.6,353,-4.29,V*59
$PGRME,2.4,M,2.4,M,3.4,M*29
$IIVHW,,,,,7.17,N,,*18
$P,748
$IIDPT,073.9,-1.0,*4D
$P,720
$HCHDG,123.1,0.0,E,,*28
$PTAK,FFP1,HEEL,@*07
$P,749
$IIGLL,4752.964,N,12224.019,W,203500,A,A*46
$P,732
$HCHDG,123.3,0.0,E,,*2A
$IIHDG,207,,,16,E*10
$P,752
$GPRMC,203505.4,A,4752.96234,N,12224.01675,W,005.01,145.1,080314,016.7,E,D*20
$IIRMB,A,0.00,L,B,X,4714.072040,N,12225.414044,W,38.9,181,4.04,V3d
$IIVHW,,,,,7.21,N,,*1D
$PGRME,2.4,M,2.4,M,3.4,M*29
$P,701
$YXXDR,A,3.5,D,PTCH,A,-28.8,D,ROLL*44
$PTAK,FFD1,28.8*67
$P,716
$HCHDG,123.5,0.0,E,,*2C
$P,709
$P,734
$HCHDG,123.4,0.0,E,,*2D
$GPRMC,203505.6,A,4752.96212,N,12224.01646,W,005.25,141.9,080314,016.7,E,D*2C
$P,683
$IIVHW,,,,,7.15,N,,*1A
$PGRME,2.4,M,2.4,M,3.4,M*29
$P,717
$HCHDG,123.6,0.0,E,,*2F
$P,729
$P,822
$P,792
$HCHDG,123.5,0.0,E,,*2C
$GPRMC,203505.8,A,4752.96183,N,12224.01614,W,005.25,140.1,080314,016.7,E,D*27
$IIRMB,A,0.00,L,B,X,4714.072040,N,12225.414044,W,38.9,181,3.94,V33
$P,788
$IIVHW,,,,,7.26,N,,*1A
$PGRME,2.4,M,2.4,M,3.4,M*29
$IIMWV,022,R,19.1,N,A*1A
$P,736
$HCHDG,123.3,0.0,E,,*2A
$P,704
$IIMWV,021,T,18.9,N,A*16
$P,646
$YXXDR,A,2.8,D,PTCH,A,-27.2,D,ROLL*4D
$P,638
$IIRMB,A,3.00,L,,Lac ,,,,,030.6,353,,V,A*2A
$GPRMC,203506.0,A,4752.96159,N,12224.01587,W,005.32,137.5,080314,016.7,E,D*20
