$P,549
$P,602
$HCHDG,307.5,0.0,E,,*28
$P,554
$GPRMC,200254.8,A,4754.31668,N,12226.19641,W,007.17,319.2,080314,016.7,E,D*2B
$IIRMB,A,0.00,R,B,X,4714.072040,N,12225.414044,W,40.3,179,-5.49,V*04
$PGRME,2.4,M,2.4,M,3.5,M*28
$YXXDR,A,5.5,D,PTCH,A,3.1,D,ROLL*5F
$PTAK,FFD1,3.1*57
$IIVHW,,,,,5.91,N,,*14
$P,526
$HCHDG,307.8,0.0,E,,*25
$P,546
$IIGLL,4754.315,N,12226.194,W,200200,A,A*4E
$HCHDG,308.0,0.0,E,,*22
$P,527
$IIMWV,217,R,06.7,N,A*16
$P,562
$GPRMC,200255.0,A,4754.31701,N,12226.19687,W,006.83,319.2,080314,016.7,E,D*2A
$IIRMB,A,0.00,R,B,X,4714.072040,N,12225.414044,W,40.3,179,-5.23,V*08
$PGRME,2.4,M,2.4,M,3.5,M*28
$IIVHW,,,,,5.77,N,,*1C
$IIMWV,215,T,06.9,N,A*1C
$HCHDG,308.1,0.0,E,,*23
$P,563
$P,589
$IIRMB,A,2.38,L,,Lac ,,,,,029.1,355,,V,A*29
$HCHDG,308.3,0.0,E,,*21
$P,568
$GPRMC,200255.2,A,4754.31734,N,12226.19729,W,006.86,320.6,080314,016.7,E,D*20
$IIRMB,A,0.00,R,B,X,4714.072040,N,12225.414044,W,40.3,179,-5.36,V*0C
$PGRME,2.4,M,2.4,M,3.5,M*28
$P,598
$IIVHW,,,,,5.75,N,,*1E
$HCHDG,308.4,0.0,E,,*26
$IIRMC,200200,A,4754.315,N,12226.194,W,07.2,318,080314,16,E,A*14
$IIRMB,A,0.00,R,B,X,4714.072040,N,12225.414044,W,40.3,179,-5.41,V*0C
$P,553
$YXXDR,A,5.2,D,PTCH,A,3.0,D,ROLL*59
$P,566
$IIVLW,06480,N,000.0,N*59
$HCHDG,308.3,0.0,E,,*21
$P,538
$GPRMC,200255.4,A,4754.31762,N,12226.19768,W,006.89,321.8,080314,016.7,E,D*20
$IIRMB,A,0.00,R,B,X,4714.072040,N,12225.414044,W,40.3,179,-5.47,V*0A
$PGRME,2.4,M,2.4,M,3.5,M*28
$IIVHW,,,,,5.64,N,,*1E
$IIVWR,143,L,06.7,N,,,,*78
$HCHDG,308.4,0.0,E,,*26
$P,556
$P,536
$HCHDG,308.4,0.0,E,,*26
$P,604
$P,595
$GPRMC,200255.6,A,4754.31793,N,12226.19807,W,006.85,321.8,080314,016.7,E,D*26
$IIRMB,A,0.00,R,B,X,4714.072040,N,12225.414044,W,40.3,179,-5.44,V*09
$GPRMB,A,2.37,L,,Lac,4823.3220,N,12229.7720,W,29.1,355,5.71,V*7E
$PGRME,2.4,M,2.4,M,3.5,M*28
$IIVHW,,,,,5.64,N,,*1E
$HCHDG,308.5,0.0,E,,*27
$P,604
$P,572
$HCHDG,308.7,0.0,E,,*25
$P,572
$GPRMC,200255.8,A,4754.31825,N,12226.19842,W,006.84,320.7,080314,016.7,E,D*24
$IIRMB,A,0.00,R,B,X,4714.072040,N,12225.414044,W,40.3,179,-5.35,V*0F
$PTAK,FFP1,HEEL,@*07
$P,551
$PGRME,2.4,M,2.4,M,3.5,M*28
$YXXDR,A,5.0,D,PTCH,A,2.8,D,ROLL*52
$PTAK,FFD1,2.8*5F
$IIVHW,,,,,5.66,N,,*1C
$P,560
$HCHDG,309.0,0.0,E,,*23
$P,536
$HCHDG,309.2,0.0,E,,*21
$P,569
$GPRMC,200256.0,A,4754.31855,N,12226.19877,W,006.87,321.8,080314,016.7,E,D*23
$IIRMB,A,0.00,R,B,X,4714.072040,N,12225.414044,W,40.3,179,-5.45,V*08
$PGRME,2.4,M,2.4,M,3.5,M*28
$IIVHW,,,,,5.64,N,,*1E
$P,545
$HCHDG,309.6,0.0,E,,*25
$P,546
$HCHDG,309.8,0.0,E,,*2B
$P,530
$P,564
$GPRMC,200256.2,A,4754.31887,N,12226.19913,W,006.58,321.8,080314,016.7,E,D*2F
$IIRMB,A,0.00,R,B,X,4714.072040,N,12225.414044,W,40.3,179,-5.22,V*09
$IIVHW,,,,,5.62,N,,*18
$PGRME,2.5,M,2.4,M,3.5,M*29
$HCHDG,310.4,0.0,E,,*2F
$P,545
$P,579
$YXXDR,A,5.2,D,PTCH,A,4.2,D,ROLL*5C
$HCHDG,310.7,0.0,E,,*2C
$P,541
$GPRMC,200256.4,A,4754.31918,N,12226.19939,W,006.62,321.4,080314,016.7,E,D*23
$IIRMB,A,0.00,R,B,X,4714.072040,N,12225.414044,W,40.3,179,-5.23,V*08
$PGRME,2.5,M,2.4,M,3.5,M*29
$IIVHW,,,,,5.59,N,,*10
$P,553
$HCHDG,311.3,0.0,E,,*29
$P,516
$HCHDG,311.6,0.0,E,,*2C
$P,548
$P,545
$GPRMC,200256.6,A,4754.31950,N,12226.19971,W,006.58,321.2,080314,016.7,E,D*2E
$IIRMB,A,0.00,R,B,X,4714.072040,N,12225.414044,W,40.3,179,-5.18,V*00
$PGRME,2.5,M,2.4,M,3.5,M*29
$IIVHW,,,,,5.55,N,,*1C
$HCHDG,311.7,0.0,E,,*2D
$P,560
$P,532
$HCHDG,312.1,0.0,E,,*28
$P,538
$GPRMC,200256.8,A,4754.31983,N,12226.20001,W,006.53,323.5,080314,016.7,E,D*24
$IIRMB,A,0.00,R,B,X,4714.072040,N,12225.414044,W,40.3,179,-5.30,V*0A
$GPRMB,A,2.37,L,,Lac,4823.3220,N,12229.7720,W,29.1,355,5.55,V*78
$PGRME,2.5,M,2.4,M,3.5,M*29
$YXXDR,A,5.1,D,PTCH,A,5.2,D,ROLL*5E
$PTAK,FFD1,5.2*52
$IIVHW,,,,,5.50,N,,*19
$P,513
$HCHDG,312.3,0.0,E,,*2A
$IIDPT,014.6,-1.0,*43
$P,510
$HCHDG,312.4,0.0,E,,*2D
$P,505
$IIGLL,4754.317,N,12226.196,W,200200,A,A*4E
$P,517
$GPRMC,200257.0,A,4754.32006,N,12226.20035,W,006.49,325.3,080314,016.7,E,D*26
$IIRMB,A,0.00,R,B,X,4714.072040,N,12225.414044,W,40.3,179,-5.38,V*02
$PGRME,2.5,M,2.4,M,3.5,M*29
$IIMWV,218,R,06.2,N,A*1C
$IIVHW,,,,,5.37,N,,*18
$HCHDG,312.5,0.0,E,,*2C
$P,487
$IIMWV,217,T,06.7,N,A*10
$P,532
$HCHDG,312.4,0.0,E,,*2D
$IIRMB,A,2.38,L,,Lac ,,,,,029.1,355,,V,A*29
$P,541
$GPRMC,200257.2,A,4754.32031,N,12226.20068,W,006.68,326.0,080314,016.7,E,D*2B
$IIRMB,A,0.00,R,B,X,4714.072040,N,12225.414044,W,40.3,179,-5.59,V*05
$PGRME,2.5,M,2.4,M,3.5,M*29
$IIVHW,,,,,5.33,N,,*1C
$P,553
$HCHDG,312.8,0.0,E,,*21
$P,513
$IIRMC,200200,A,4754.317,N,12226.196,W,06.8,319,080314,16,E,A*1E
$IIRMB,A,0.00,R,B,X,4714.072040,N,12225.414044,W,40.3,179,-5.19,V*01
$YXXDR,A,5.2,D,PTCH,A,4.7,D,ROLL*59
$P,550
$HCHDG,312.9,0.0,E,,*20
$IIVLW,06480,N,000.0,N*59
$P,545
$GPRMC,200257.4,A,4754.32061,N,12226.20109,W,006.62,327.2,080314,016.7,E,D*27
$IIRMB,A,0.00,R,B,X,4714.072040,N,12225.414044,W,40.3,179,-5.61,V*0E
$PGRME,2.5,M,2.4,M,3.5,M*29
$IIVHW,,,,,5.33,N,,*1C
$HCHDG,312.9,0.0,E,,*20
$P,565
$P,556
$HCHDG,313.0,0.0,E,,*28
$P,564
$GPRMC,200257.6,A,4754.32094,N,12226.20141,W,006.66,328.9,080314,016.7,E,D*23
$IIRMB,A,0.00,R,B,X,4714.072040,N,12225.414044,W,40.3,179,-5.75,V*0B
$PGRME,2.5,M,2.4,M,3.5,M*29
$IIVHW,,,,,5.36,N,,*19
$P,572
$HCHDG,313.0,0.0,E,,*28
$P,612
$P,593
$HCHDG,313.4,0.0,E,,*2C
$P,606
$GPRMC,200257.8,A,4754.32128,N,12226.20167,W,006.67,329.8,080314,016.7,E,D*2E
$IIRMB,A,0.00,R,B,X,4714.072040,N,12225.414044,W,40.3,179,-5.81,V*00
$GPRMB,A,2.37,L,,Lac,4823.3220,N,12229.7720,W,29.1,355,6.02,V*79
$YXXDR,A,5.1,D,PTCH,A,6.1,D,ROLL*5E
$PGRME,2.5,M,2.4,M,3.5,M*29
$IIVHW,,,,,5.48,N,,*10
$P,543
$HCHDG,313.3,0.0,E,,*2B
$IIVWR,143,L,06.0,N,,,,*7F
$P,545
$HCHDG,313.4,0.0,E,,*2C
$P,529
$IIGLL,4754.318,N,12226.198,W,200200,A,A*4F
$P,585
$GPRMC,200258.0,A,4754.32165,N,12226.20191,W,006.95,330.3,080314,016.7,E,D*27
$IIRMB,A,0.00,R,B,X,4714.072040,N,12225.414044,W,40.3,179,-6.08,V*02
$PGRME,2.5,M,2.4,M,3.5,M*29
$IIVHW,,,,,5.50,N,,*19
$HCHDG,313.5,0.0,E,,*2D
$IIMWV,217,R,06.0,N,A*11
$P,575
$IIMWV,223,T,05.9,N,A*1A
$P,588
$HCHDG,313.6,0.0,E,,*2E
$P,569
$IIRMB,A,2.37,L,,Lac ,,,,,029.1,355,,V,A*26
$GPRMC,200258.2,A,4754.32193,N,12226.20221,W,006.79,331.8,080314,016.7,E,D*2C
$IIRMB,A,0.00,R,B,X,4714.072040,N,12225.414044,W,40.3,179,-6.03,V*09
$P,601
$PGRME,2.5,M,2.4,M,3.5,M*29
$IIVHW,,,,,5.60,N,,*1A
$HCHDG,313.6,0.0,E,,*2E
$P,558
$YXXDR,A,5.4,D,PTCH,A,8.4,D,ROLL*50
$PTAK,FFD1,8.4*59
$IIRMC,200200,A,4754.318,N,12226.198,W,06.8,321,080314,16,E,A*14
$IIRMB,A,0.00,R,B,X,4714.072040,N,12225.414044,W,40.3,179,-5.34,V*0E
$P,558
$HCHDG,313.6,0.0,E,,*2E
$P,544
$GPRMC,200258.4,A,4754.32227,N,12226.20251,W,006.76,331.5,080314,016.7,E,D*23
$IIRMB,A,0.00,R,B,X,4714.072040,N,12225.414044,W,40.3,179,-5.98,V*08
$PGRME,2.5,M,2.4,M,3.5,M*29
$IIVHW,,,,,5.66,N,,*1C
$IIVLW,06480,N,000.0,N*59
$P,584
$HCHDG,313.5,0.0,E,,*2D
$P,553
$P,560
$HCHDG,313.6,0.0,E,,*2E
$P,571
$GPRMC,200258.6,A,4754.32263,N,12226.20274,W,006.78,331.5,080314,016.7,E,D*28
$IIRMB,A,0.00,R,B,X,4714.072040,N,12225.414044,W,40.3,179,-6.00,V*0A
$PGRME,2.5,M,2.4,M,3.5,M*29
$IIVHW,,,,,5.69,N,,*13
$HCHDG,313.7,0.0,E,,*2F
$P,658
$P,642
$HCHDG,314.0,0.0,E,,*2F
$P,704
$P,663
$GPRMC,200258.8,A,4754.32298,N,12226.20305,W,007.20,329.9,080314,016.7,E,D*2C
$IIRMB,A,0.00,R,B,X,4714.072040,N,12225.414044,W,40.3,179,-6.28,V*00
$YXXDR,A,5.5,D,PTCH,A,11.7,D,ROLL*6A
$PGRME,2.5,M,2.4,M,3.5,M*29
$IIVHW,,,,,5.88,N,,*1C
$P,712
$HCHDG,314.0,0.0,E,,*2F
$P,694
$IIVWR,149,L,06.1,N,,,,*74
$P,720
$HCHDG,314.2,0.0,E,,*2D
$IIDPT,015.3,-1.0,*47
$P,673
$P,695
$GPRMC,200259.0,A,4754.32337,N,12226.20337,W,007.01,329.2,080314,016.7,E,D*28
$IIRMB,A,0.00,R,B,X,4714.072040,N,12225.414044,W,40.3,179,-6.07,V*0D
$GPRMB,A,2.37,L,,Lac,4823.3220,N,12229.7720,W,29.1,355,6.29,V*70
$PGRME,2.5,M,2.4,M,3.5,M*29
$IIVHW,,,,,6.16,N,,*18
$IIGLL,4754.321,N,12226.201,W,200200,A,A*46
$HCHDG,314.4,0.0,E,,*2B
$P,664
$IIMWV,211,R,06.1,N,A*16
$P,687
$HCHDG,314.5,0.0,E,,*2A
$P,674
$IIMWV,217,T,06.0,N,A*17
$P,687
$GPRMC,200259.2,A,4754.32382,N,12226.20368,W,006.98,328.1,080314,016.7,E,D*2D
$IIRMB,A,0.00,R,B,X,4714.072040,N,12225.414044,W,40.3,179,-5.97,V*07
$PGRME,2.5,M,2.4,M,3.5,M*29
$IIVHW,,,,,6.31,N,,*1D
$P,651
$IIRMB,A,2.37,L,,Lac ,,,,,029.1,355,,V,A*26
$HCHDG,314.8,0.0,E,,*27
$P,637
$YXXDR,A,5.8,D,PTCH,A,14.9,D,ROLL*6C
$P,621
$HCHDG,315.0,0.0,E,,*2E
$IIRMC,200200,A,4754.321,N,12226.201,W,06.9,330,080314,16,E,A*1C
$IIRMB,A,0.00,R,B,X,4714.072040,N,12225.414044,W,40.3,179,-6.02,V*08
$P,654
$GPRMC,200259.4,A,4754.32422,N,12226.20398,W,007.14,325.5,080314,016.7,E,D*25
$IIRMB,A,0.00,R,B,X,4714.072040,N,12225.414044,W,40.3,179,-5.94,V*04
$IIVHW,,,,,6.42,N,,*19
$PGRME,2.5,M,2.4,M,3.5,M*29
$P,595
$HCHDG,315.5,0.0,E,,*2B
$P,604
$P,585
$HCHDG,316.1,0.0,E,,*2C
$P,615
$GPRMC,200259.6,A,4754.32455,N,12226.20430,W,007.17,324.8,080314,016.7,E,D*2D
$IIRMB,A,0.00,R,B,X,4714.072040,N,12225.414044,W,40.3,179,-5.91,V*01
$PGRME,2.5,M,2.4,M,3.5,M*29
$IIVHW,,,,,6.46,N,,*1D
$P,593
$HCHDG,316.6,0.0,E,,*2B
$P,610
$P,579
$HCHDG,317.0,0.0,E,,*2C
$P,634
$GPRMC,200259.8,A,4754.32486,N,12226.20461,W,006.97,326.1,080314,016.7,E,D*2B
$IIRMB,A,0.00,R,B,X,4714.072040,N,12225.414044,W,40.3,179,-5.84,V*05
$YXXDR,A,5.7,D,PTCH,A,16.9,D,ROLL*61
$PTAK,FFD1,16.9*6B
$PGRME,2.5,M,2.4,M,3.5,M*29
$IIVHW,,,,,6.44,N,,*1F
$P,608
$HCHDG,316.9,0.0,E,,*24
$P,626
$IIVLW,06480,N,000.0,N*59
$P,601
$HCHDG,316.7,0.0,E,,*2A
$IIVWR,150,L,06.2,N,,,,*7F
$P,622
$IIDPT,015.3,-1.0,*47
$GPRMC,200300.0,A,4754.32525,N,12226.20489,W,006.94,327.9,080314,016.7,E,D*2A
$IIRMB,A,0.00,R,B,X,4714.072040,N,12225.414044,W,40.3,179,-5.93,V*03
$PGRME,2.5,M,2.4,M,3.5,M*29
$IIVHW,,,,,6.32,N,,*1E
$PTAK,FFP1,HEEL,@*07
$P,618
$HCHDG,316.4,0.0,E,,*29
$P,658
$IIGLL,4754.323,N,12226.203,W,200200,A,A*46
$P,637
$HCHDG,315.9,0.0,E,,*27
$IIMWV,210,R,06.2,N,A*14
$P,644
$IIMWV,211,T,06.1,N,A*10
$GPRMC,200300.2,A,4754.32564,N,12226.20515,W,007.23,328.0,080314,016.7,E,D*22
$IIRMB,A,0.00,R,B,X,4714.072040,N,12225.414044,W,40.3,179,-6.18,V*03
$GPRMB,A,2.37,L,,Lac,4823.3220,N,12229.7720,W,29.1,355,6.42,V*7D
$PGRME,2.5,M,2.4,M,3.5,M*29
$IIVHW,,,,,6.29,N,,*14
$P,611
$HCHDG,315.4,0.0,E,,*2A
$P,628
$IIRMB,A,2.37,L,,Lac ,,,,,029.1,355,,V,A*26
$YXXDR,A,6.0,D,PTCH,A,12.4,D,ROLL*6C
$P,589
$HCHDG,315.5,0.0,E,,*2B
$P,601
$GPRMC,200300.4,A,4754.32601,N,12226.20546,W,007.47,327.2,080314,016.7,E,D*2D
$IIRMB,A,0.00,R,B,X,4714.072040,N,12225.414044,W,40.3,179,-6.33,V*0A
$IIVHW,,,,,6.17,N,,*19
$PGRME,2.4,M,2.4,M,3.5,M*28
$IIRMC,200200,A,4754.323,N,12226.203,W,07.0,329,080314,16,E,A*1C
$IIRMB,A,0.00,R,B,X,4714.072040,N,12225.414044,W,40.3,179,-6.05,V*0F
$P,603
$HCHDG,315.6,0.0,E,,*28
$P,642
$P,602
$HCHDG,315.8,0.0,E,,*26
$P,620
$GPRMC,200300.6,A,4754.32641,N,12226.20575,W,007.54,326.4,080314,016.7,E,D*2E
$IIRMB,A,0.00,R,B,X,4714.072040,N,12225.414044,W,40.3,179,-6.34,V*0D
$PGRME,2.4,M,2.4,M,3.5,M*28
$IIVHW,,,,,6.14,N,,*1A
$P,611
$HCHDG,315.7,0.0,E,,*29
$P,627
$P,623
$HCHDG,315.9,0.0,E,,*27
$P,646
$GPRMC,200300.8,A,4754.32680,N,12226.20613,W,007.50,325.8,080314,016.7,E,D*25
$IIRMB,A,0.00,R,B,X,4714.072040,N,12225.414044,W,40.3,179,-6.26,V*0E
$YXXDR,A,5.8,D,PTCH,A,12.2,D,ROLL*61
$PTAK,FFD1,12.2*64
$PGRME,2.4,M,2.4,M,3.5,M*28
$P,620
$IIVHW,,,,,6.19,N,,*17
$P,641
$HCHDG,316.1,0.0,E,,*2C
$P,616
$IIVLW,06480,N,000.0,N*59
$HCHDG,316.1,0.0,E,,*2C
$P,652
$IIVWR,147,L,06.9,N,,,,*72
$GPRMC,200301.0,A,4754.32725,N,12226.20648,W,007.87,324.3,080314,016.7,E,D*2C
$IIRMB,A,0.00,R,B,X,4714.072040,N,12225.414044,W,40.3,179,-6.45,V*0B
$P,637
$PGRME,2.4,M,2.4,M,3.5,M*28
$IIVHW,,,,,6.24,N,,*19
$HCHDG,316.0,0.0,E,,*2D
$IIDPT,015.3,-1.0,*47
$P,649
$P,608
$IIGLL,4754.325,N,12226.204,W,200300,A,A*46
$HCHDG,316.3,0.0,E,,*2E
$P,633
$IIMWV,213,R,06.9,N,A*1C
$P,634
$GPRMC,200301.2,A,4754.32762,N,12226.20694,W,007.62,325.1,080314,016.7,E,D*24
$IIRMB,A,0.00,R,B,X,4714.072040,N,12225.414044,W,40.3,179,-6.31,V*08
$GPRMB,A,2.37,L,,Lac,4823.3220,N,12229.7720,W,29.1,355,6.58,V*76
$PGRME,2.4,M,2.4,M,3.5,M*28
$IIVHW,,,,,6.26,N,,*1B
$HCHDG,316.3,0.0,E,,*2E
$IIMWV,210,T,06.2,N,A*12
$P,646
$P,606
$YXXDR,A,6.1,D,PTCH,A,10.1,D,ROLL*6A
$IIRMB,A,2.37,L,,Lac ,,,,,029.1,355,,V,A*26
$P,626
$HCHDG,316.3,0.0,E,,*2E
$P,628
$GPRMC,200301.4,A,4754.32801,N,12226.20730,W,007.63,324.3,080314,016.7,E,D*25
$IIRMB,A,0.00,R,B,X,4714.072040,N,12225.414044,W,40.3,179,-6.26,V*0E
$PGRME,2.4,M,2.4,M,3.5,M*28
$IIVHW,,,,,6.25,N,,*18
$HCHDG,316.3,0.0,E,,*2E
$P,669
$P,629
$HCHDG,316.3,0.0,E,,*2E
$P,654
$P,640
$GPRMC,200301.6,A,4754.32837,N,12226.20768,W,007.63,323.8,080314,016.7,E,D*23
$IIRMB,A,0.00,R,B,X,4714.072040,N,12225.414044,W,40.3,179,-6.22,V*0A
$PGRME,2.4,M,2.4,M,3.5,M*28
$IIVHW,,,,,6.31,N,,*1D
$HCHDG,316.3,0.0,E,,*2E
$P,673
$P,640
$P,669
$HCHDG,316.6,0.0,E,,*2B
$P,642
$GPRMC,200301.8,A,4754.32875,N,12226.20808,W,007.66,324.4,080314,016.7,E,D*2C
$IIRMB,A,0.00,R,B,X,4714.072040,N,12225.414044,W,40.3,179,-6.29,V*01
$YXXDR,A,6.3,D,PTCH,A,7.2,D,ROLL*5D
$PTAK,FFD1,7.2*50
$PGRME,2.4,M,2.4,M,3.5,M*28
$IIVHW,,,,,6.38,N,,*14
$P,661
$HCHDG,316.9,0.0,E,,*24
$P,626
$P,659
$HCHDG,317.2,0.0,E,,*2E
$IIRMC,200300,A,4754.327,N,12226.206,W,07.8,324,080314,16,E,A*19
$IIRMB,A,0.00,R,B,X,4714.072040,N,12225.414044,W,40.3,179,-6.37,V*0E
$P,619
$GPRMC,200302.0,A,4754.32917,N,12226.20842,W,007.63,325.1,080314,016.7,E,D*2D
$IIRMB,A,0.00,R,B,X,4714.072040,N,12225.414044,W,40.3,179,-6.32,V*0B
$P,638
$IIVHW,,,,,6.40,N,,*1B
$PGRME,2.4,M,2.4,M,3.5,M*28
$HCHDG,317.5,0.0,E,,*29
$P,603
$IIVLW,06480,N,000.0,N*59
$P,617
$IIVWR,147,L,07.6,N,,,,*7C
$HCHDG,317.5,0.0,E,,*29
$P,596
$IIDPT,015.3,-1.0,*47
$GPRMC,200302.2,A,4754.32956,N,12226.20889,W,007.59,325.4,080314,016.7,E,D*21
$IIRMB,A,0.00,R,B,X,4714.072040,N,12225.414044,W,40.3,179,-6.30,V*09
$P,604
$IIVHW,,,,,6.33,N,,*1F
$PGRME,2.4,M,2.4,M,3.5,M*28
$HCHDG,317.5,0.0,E,,*29
$IIGLL,4754.327,N,12226.206,W,200300,A,A*46
$P,575
$YXXDR,A,6.2,D,PTCH,A,6.2,D,ROLL*5D
$P,600
$IIMWV,213,R,07.6,N,A*12
$HCHDG,317.6,0.0,E,,*2A
$P,589
$IIMWV,213,T,06.9,N,A*1A
$GPRMC,200302.4,A,4754.32990,N,12226.20916,W,007.63,328.9,080314,016.7,E,D*23
$IIRMB,A,0.00,R,B,X,4714.072040,N,12225.414044,W,40.3,179,-6.59,V*06
$GPRMB,A,2.37,L,,Lac,4823.3220,N,12229.7720,W,29.1,355,6.83,V*70
$P,661
$IIVHW,,,,,6.28,N,,*15
$PGRME,2.4,M,2.4,M,3.5,M*28
$HCHDG,317.6,0.0,E,,*2A
$P,651
$P,673
$HCHDG,317.5,0.0,E,,*29
$P,651
$P,671
$GPRMC,200302.6,A,4754.33031,N,12226.20943,W,007.44,330.7,080314,016.7,E,D*20
$IIRMB,A,0.00,R,B,X,4714.072040,N,12225.414044,W,40.3,179,-6.54,V*0B
$PGRME,2.4,M,2.4,M,3.4,M*29
$IIVHW,,,,,6.35,N,,*19
$HCHDG,317.4,0.0,E,,*28
$P,655
$P,664
$HCHDG,317.3,0.0,E,,*2F
$P,631
$P,684
$GPRMC,200302.8,A,4754.33072,N,12226.20967,W,007.74,331.8,080314,016.7,E,D*22
$IIRMB,A,0.00,R,B,X,4714.072040,N,12225.414044,W,40.3,179,-6.87,V*05
$YXXDR,A,5.4,D,PTCH,A,4.4,D,ROLL*5C
$PTAK,FFD1,4.4*55
$PGRME,2.4,M,2.4,M,3.4,M*29
$IIVHW,,,,,6.39,N,,*15
$P,658
$HCHDG,317.2,0.0,E,,*2E
$P,701
$IIRMB,A,2.37,L,,Lac ,,,,,029.1,355,,V,A*26
$P,703
$HCHDG,317.1,0.0,E,,*2D
$P,745
$GPRMC,200303.0,A,4754.33108,N,12226.20990,W,007.76,333.0,080314,016.7,E,D*27
$IIRMB,A,0.00,R,B,X,4714.072040,N,12225.414044,W,40.3,179,-6.96,V*05
$P,724
$PGRME,2.4,M,2.4,M,3.4,M*29
$IIVHW,,,,,6.53,N,,*19
$HCHDG,317.0,0.0,E,,*2C
$P,717
$IIRMC,200300,A,4754.329,N,12226.208,W,07.6,325,080314,16,E,A*16
$IIRMB,A,0.00,R,B,X,4714.072040,N,12225.414044,W,40.3,179,-6.28,V*00
$P,717
$HCHDG,317.2,0.0,E,,*2E
$P,759
$IIVLW,06480,N,000.0,N*59
$P,736
$GPRMC,200303.2,A,4754.33145,N,12226.21018,W,007.82,333.1,080314,016.7,E,D*2E
$IIRMB,A,0.00,R,B,X,4714.072040,N,12225.414044,W,40.3,179,-7.02,V*09
$PGRME,2.4,M,2.4,M,3.4,M*29
$P,755
$IIVHW,,,,,6.70,N,,*18
$IIVWR,152,L,08.0,N,,,,*71
$HCHDG,317.2,0.0,E,,*2E
$P,691
$IIDPT,015.3,-1.0,*47
$P,727
$YXXDR,A,5.4,D,PTCH,A,5.1,D,ROLL*58
$P,724
$HCHDG,317.2,0.0,E,,*2E
$IIGLL,4754.329,N,12226.208,W,200300,A,A*46
$P,754
$GPRMC,200303.4,A,4754.33187,N,12226.21046,W,007.80,332.9,080314,016.7,E,D*26
$IIRMB,A,0.00,R,B,X,4714.072040,N,12225.414044,W,40.3,179,-6.99,V*0A
$GPRMB,A,2.37,L,,Lac,4823.3220,N,12229.7720,W,29.1,355,7.21,V*79
$PGRME,2.4,M,2.4,M,3.4,M*29
$IIMWV,208,R,08.0,N,A*11
$IIVHW,,,,,6.83,N,,*14
$P,718
$HCHDG,317.3,0.0,E,,*2F
$P,760
$P,734
$HCHDG,317.4,0.0,E,,*28
$P,764
$P,720
$GPRMC,200303.6,A,4754.33229,N,12226.21079,W,007.83,334.1,080314,016.7,E,D*22
$IIRMB,A,0.00,R,B,X,4714.072040,N,12225.414044,W,40.3,179,-7.09,V*02
$PGRME,2.4,M,2.4,M,3.4,M*29
$IIVHW,,,,,7.11,N,,*1E
$HCHDG,317.7,0.0,E,,*2B
$P,725
$P,710
$P,756
$HCHDG,317.6,0.0,E,,*2A
$P,705
$P,734
$GPRMC,200303.8,A,4754.33271,N,12226.21110,W,007.99,334.4,080314,016.7,E,D*21
$IIRMB,A,0.00,R,B,X,4714.072040,N,12225.414044,W,40.3,179,-7.25,V*0C
$YXXDR,A,5.5,D,PTCH,A,6.3,D,ROLL*58
$PGRME,2.4,M,2.4,M,3.4,M*29
$IIVHW,,,,,7.19,N,,*16
$P,713
$HCHDG,317.6,0.0,E,,*2A
$IIMWV,208,T,08.0,N,A*17
$P,745
$HCHDG,317.5,0.0,E,,*29
$P,705
$P,723
$IIRMB,A,2.37,L,,Lac ,,,,,029.1,355,,V,A*26
$GPRMC,200304.0,A,4754.33308,N,12226.21143,W,008.21,333.7,080314,016.7,E,D*2F
$IIRMB,A,0.00,R,B,X,4714.072040,N,12225.414044,W,40.3,179,-7.41,V*0E
$PGRME,2.4,M,2.4,M,3.4,M*29
$P,680
$IIVHW,,,,,7.26,N,,*1A
$PTAK,FFP1,HEEL,@*07
$HCHDG,317.6,0.0,E,,*2A
$P,722
$P,705
$IIRMC,200300,A,4754.329,N,12226.208,W,07.6,325,080314,16,E,A*16
$IIRMB,A,0.00,R,B,X,4714.072040,N,12225.414044,W,40.3,179,-6.28,V*00
$HCHDG,317.7,0.0,E,,*2B
$P,708
$P,669
$GPRMC,200304.2,A,4754.33350,N,12226.21175,W,008.24,333.6,080314,016.7,E,D*21
$IIRMB,A,0.00,R,B,X,4714.072040,N,12225.414044,W,40.3,179,-7.43,V*0C
$PGRME,2.4,M,2.4,M,3.4,M*29
$IIVLW,06480,N,000.0,N*59
$IIVHW,,,,,7.22,N,,*1E
$HCHDG,317.5,0.0,E,,*29
$P,701
$IIVWR,153,L,08.1,N,,,,*71
$P,652
$YXXDR,A,5.7,D,PTCH,A,8.0,D,ROLL*57
$PTAK,FFD1,8.0*5D
$IIDPT,015.3,-1.0,*47
$P,667
$HCHDG,317.4,0.0,E,,*28
$P,640
$GPRMC,200304.4,A,4754.33395,N,12226.21213,W,008.28,333.6,080314,016.7,E,D*21
$IIRMB,A,0.00,R,B,X,4714.072040,N,12225.414044,W,40.3,179,-7.47,V*08
$PGRME,2.4,M,2.4,M,3.4,M*29
$IIGLL,4754.329,N,12226.208,W,200300,A,A*46
$IIVHW,,,,,7.08,N,,*16
$P,655
$HCHDG,317.3,0.0,E,,*2F
$P,638
$P,655
$HCHDG,317.2,0.0,E,,*2E
$P,609
$GPRMC,200304.6,A,4754.33438,N,12226.21252,W,008.34,334.5,080314,016.7,E,D*2F
$IIRMB,A,0.00,R,B,X,4714.072040,N,12225.414044,W,40.3,179,-7.58,V*06
$GPRMB,A,2.37,L,,Lac,4823.3220,N,12229.7720,W,29.1,355,7.79,V*74
$PGRME,2.4,M,2.4,M,3.4,M*29
$P,655
$IIVHW,,,,,6.89,N,,*1E
$HCHDG,317.2,0.0,E,,*2E
$P,651
$P,660
$HCHDG,316.9,0.0,E,,*24
$P,648
$P,643
$GPRMC,200304.8,A,4754.33486,N,12226.21289,W,008.35,333.7,080314,016.7,E,D*26
$IIRMB,A,0.00,R,B,X,4714.072040,N,12225.414044,W,40.3,179,-7.53,V*0D
$YXXDR,A,5.9,D,PTCH,A,9.7,D,ROLL*5F
$PGRME,2.4,M,2.4,M,3.4,M*29
$IIVHW,,,,,6.75,N,,*1D
$P,631
$HCHDG,316.9,0.0,E,,*24
$IIMWV,202,R,08.0,N,A*1B
$P,670
$HCHDG,316.6,0.0,E,,*2B
$IIMWV,207,T,08.1,N,A*19
$P,633
$P,673
$GPRMC,200305.0,A,4754.33529,N,12226.21322,W,008.29,333.7,080314,016.7,E,D*26
$IIRMB,A,0.00,R,B,X,4714.072040,N,12225.414044,W,40.3,179,-7.48,V*07
$PGRME,2.4,M,2.4,M,3.4,M*29
$IIVHW,,,,,6.66,N,,*1F
$IIRMB,A,2.37,L,,Lac ,,,,,029.1,355,,V,A*26
$HCHDG,316.4,0.0,E,,*29
$P,661
$P,691
$HCHDG,316.1,0.0,E,,*2C
$P,656
$IIRMC,200300,A,4754.333,N,12226.211,W,08.2,333,080314,16,E,A*19
$IIRMB,A,0.00,R,B,X,4714.072040,N,12225.414044,W,40.3,179,-7.36,V*0E
$P,683
$GPRMC,200305.2,A,4754.33575,N,12226.21361,W,008.35,332.8,080314,016.7,E,D*29
$IIRMB,A,0.00,R,B,X,4714.072040,N,12225.414044,W,40.3,179,-7.48,V*07
$PGRME,2.4,M,2.4,M,3.4,M*29
$IIVHW,,,,,6.63,N,,*1A
$P,657
$HCHDG,315.6,0.0,E,,*28
$P,701
$IIVLW,06480,N,000.0,N*59
$YXXDR,A,5.7,D,PTCH,A,11.5,D,ROLL*6A
$PTAK,FFD1,11.5*60
$P,688
$IIVWR,158,L,08.0,N,,,,*7B
$P,705
$HCHDG,315.6,0.0,E,,*28
$IIDPT,015.3,-1.0,*47
$P,684
$GPRMC,200305.4,A,4754.33621,N,12226.21399,W,008.34,331.8,080314,016.7,E,D*28
$IIRMB,A,0.00,R,B,X,4714.072040,N,12225.414044,W,40.3,179,-7.40,V*0F
$PGRME,2.4,M,2.4,M,3.4,M*29
$IIVHW,,,,,6.63,N,,*1A
$HCHDG,315.5,0.0,E,,*2B
$P,706
$P,675
$HCHDG,315.7,0.0,E,,*29
$P,697
$P,714
$GPRMC,200305.6,A,4754.33666,N,12226.21430,W,008.37,327.8,080314,016.7,E,D*29
$IIRMB,A,0.00,R,B,X,4714.072040,N,12225.414044,W,40.3,179,-7.14,V*0E
$GPRMB,A,2.36,L,,Lac,4823.3220,N,12229.7720,W,29.1,355,7.42,V*7D
$PGRME,2.4,M,2.4,M,3.4,M*29
$P,728
$IIVHW,,,,,6.72,N,,*1A
$HCHDG,315.8,0.0,E,,*26
$P,691
$P,694
$HCHDG,316.1,0.0,E,,*2C
$P,673
$P,683
$GPRMC,200305.8,A,4754.33707,N,12226.21469,W,008.34,325.6,080314,016.7,E,D*22
$IIRMB,A,0.00,R,B,X,4714.072040,N,12225.414044,W,40.3,179,-6.94,V*07
$YXXDR,A,5.4,D,PTCH,A,15.6,D,ROLL*6E
$PGRME,2.4,M,2.4,M,3.4,M*29
$IIVHW,,,,,6.79,N,,*11
$P,677
$HCHDG,316.6,0.0,E,,*2B
$P,703
$IIGLL,4754.335,N,12226.213,W,200300,A,A*41
$P,685
$HCHDG,317.2,0.0,E,,*2E
$P,722
$IIMWV,203,R,08.1,N,A*1B
$GPRMC,200306.0,A,4754.33747,N,12226.21508,W,008.51,322.9,080314,016.7,E,D*20
$IIRMB,A,0.00,R,B,X,4714.072040,N,12225.414044,W,40.3,179,-6.86,V*04
$P,710
$PGRME,2.4,M,2.4,M,3.4,M*29
$IIVHW,,,,,6.86,N,,*11
$IIMWV,202,T,08.0,N,A*1D
$HCHDG,317.5,0.0,E,,*29
$P,728
$P,699
$IIRMB,A,2.37,L,,Lac ,,,,,029.1,355,,V,A*26
$HCHDG,317.7,0.0,E,,*2B
$P,714
$P,680
$GPRMC,200306.2,A,4754.33788,N,12226.21546,W,008.30,322.1,080314,016.7,E,D*24
$IIRMB,A,0.00,R,B,X,4714.072040,N,12225.414044,W,40.3,179,-6.62,V*0E
$PGRME,2.4,M,2.4,M,3.4,M*29
$IIVHW,,,,,6.94,N,,*12
$P,741
$HCHDG,317.8,0.0,E,,*24
$IIRMC,200300,A,4754.335,N,12226.213,W,08.2,333,080314,16,E,A*1D
$IIRMB,A,0.00,R,B,X,4714.072040,N,12225.414044,W,40.3,179,-7.36,V*0E
$P,720
$YXXDR,A,5.4,D,PTCH,A,17.8,D,ROLL*62
$PTAK,FFD1,17.8*6B
$P,762
$P,699
$HCHDG,318.1,0.0,E,,*22
$IIVLW,06480,N,000.0,N*59
$P,696
$GPRMC,200306.4,A,4754.33825,N,12226.21587,W,008.22,322.7,080314,016.7,E,D*22
$IIRMB,A,0.00,R,B,X,4714.072040,N,12225.414044,W,40.3,179,-6.61,V*0D
$IIVHW,,,,,7.04,N,,*1A
$PGRME,2.4,M,2.4,M,3.4,M*29
$IIVWR,157,L,08.1,N,,,,*75
$HCHDG,317.8,0.0,E,,*24
$P,660
$P,701
$HCHDG,317.6,0.0,E,,*2A
$P,674
$P,676
$GPRMC,200306.6,A,4754.33867,N,12226.21625,W,008.18,324.5,080314,016.7,E,D*20
$IIRMB,A,0.00,R,B,X,4714.072040,N,12225.414044,W,40.3,179,-6.72,V*0F
$GPRMB,A,2.36,L,,Lac,4823.3220,N,12229.7720,W,29.1,355,7.02,V*79
$PGRME,2.4,M,2.4,M,3.4,M*29
$IIVHW,,,,,7.00,N,,*1E
$P,674
$HCHDG,317.3,0.0,E,,*2F
$P,691
$P,669
$HCHDG,316.9,0.0,E,,*24
$P,715
$P,717
$GPRMC,200306.8,A,4754.33911,N,12226.21655,W,008.20,326.7,080314,016.7,E,D*22
$IIRMB,A,0.00,R,B,X,4714.072040,N,12225.414044,W,40.3,179,-6.91,V*02
$YXXDR,A,5.5,D,PTCH,A,14.2,D,ROLL*6A
$PGRME,2.4,M,2.4,M,3.4,M*29
$IIVHW,,,,,6.98,N,,*1E
$P,773
$HCHDG,316.4,0.0,E,,*29
$IIDPT,015.3,-1.0,*47
$P,712
$P,709
$HCHDG,316.0,0.0,E,,*2D
$IIGLL,4754.335,N,12226.213,W,200300,A,A*41
$P,681
$GPRMC,200307.0,A,4754.33953,N,12226.21692,W,008.42,327.5,080314,016.7,E,D*21
$IIRMB,A,0.00,R,B,X,4714.072040,N,12225.414044,W,40.3,179,-7.16,V*0C
$PGRME,2.4,M,2.4,M,3.4,M*29
$IIVHW,,,,,7.03,N,,*1D
$P,711
$IIMWV,204,R,08.0,N,A*1D
$HCHDG,316.0,0.0,E,,*2D
$P,654
$IIMWV,203,T,08.1,N,A*1D
$P,688
$HCHDG,315.7,0.0,E,,*29
$P,682
$IIRMB,A,2.36,L,,Lac ,,,,,029.1,355,,V,A*27
$P,714
$GPRMC,200307.2,A,4754.33992,N,12226.21730,W,008.35,329.0,080314,016.7,E,D*2C
$IIRMB,A,0.00,R,B,X,4714.072040,N,12225.414044,W,40.3,179,-7.21,V*08
$PGRME,2.4,M,2.4,M,3.4,M*29
$IIVHW,,,,,7.00,N,,*1E
$HCHDG,315.6,0.0,E,,*28
$P,688
$P,688
$IIRMC,200300,A,4754.335,N,12226.213,W,08.2,333,080314,16,E,A*1D
$IIRMB,A,0.00,R,B,X,4714.072040,N,12225.414044,W,40.3,179,-7.36,V*0E
$YXXDR,A,5.8,D,PTCH,A,11.8,D,ROLL*68
$PTAK,FFD1,11.8*6D
$P,644
$HCHDG,315.4,0.0,E,,*2A
$P,652
$GPRMC,200307.4,A,4754.34035,N,12226.21763,W,008.33,328.6,080314,016.7,E,D*2E
$IIRMB,A,0.00,R,B,X,4714.072040,N,12225.414044,W,40.3,179,-7.17,V*0D
$IIVLW,06480,N,000.0,N*59
$IIVHW,,,,,6.92,N,,*14
$PGRME,2.4,M,2.4,M,3.4,M*29
$P,651
$HCHDG,315.3,0.0,E,,*2D
$P,676
$P,652
$HCHDG,315.3,0.0,E,,*2D
$P,712
$GPRMC,200307.6,A,4754.34083,N,12226.21797,W,008.10,328.3,080314,016.7,E,D*2E
$IIRMB,A,0.00,R,B,X,4714.072040,N,12225.414044,W,40.3,179,-6.95,V*06
$P,694
$PGRME,2.4,M,2.4,M,3.4,M*29
$IIVHW,,,,,6.86,N,,*11
$HCHDG,315.4,0.0,E,,*2A
$P,716
$P,706
$HCHDG,315.9,0.0,E,,*27
$P,715
$P,678
$GPRMC,200307.8,A,4754.34128,N,12226.21841,W,008.02,328.1,080314,016.7,E,D*25
$IIRMB,A,0.00,R,B,X,4714.072040,N,12225.414044,W,40.3,179,-6.87,V*05
$GPRMB,A,2.36,L,,Lac,4823.3220,N,12229.7720,W,29.1,355,7.13,V*79
$YXXDR,A,6.0,D,PTCH,A,11.5,D,ROLL*6E
$PGRME,2.4,M,2.4,M,3.4,M*29
$IIVHW,,,,,6.90,N,,*16
$P,700
$HCHDG,316.1,0.0,E,,*2C
$P,659
$IIVWR,155,L,08.3,N,,,,*75
$P,669
$HCHDG,316.3,0.0,E,,*2E
$IIDPT,015.3,-1.0,*47
$P,681
$P,729
$GPRMC,200308.0,A,4754.34173,N,12226.21876,W,008.00,329.3,080314,016.7,E,D*29
$IIRMB,A,0.00,R,B,X,4714.072040,N,12225.414044,W,40.3,179,-6.93,V*00
$PTAK,FFP1,HEEL,@*07
$PGRME,2.4,M,2.4,M,3.4,M*29
$IIVHW,,,,,6.90,N,,*16
$IIGLL,4754.339,N,12226.216,W,200300,A,A*48
$HCHDG,316.2,0.0,E,,*2F
$P,698
$IIMWV,205,R,08.3,N,A*1F
$P,694
$HCHDG,316.4,0.0,E,,*29
$IIMWV,204,T,08.0,N,A*1B
$P,655
$P,698
$GPRMC,200308.2,A,4754.34223,N,12226.21918,W,008.17,329.7,080314,016.7,E,D*26
$IIRMB,A,0.00,R,B,X,4714.072040,N,12225.414044,W,40.3,179,-7.11,V*0B
$IIVHW,,,,,6.85,N,,*12
$PGRME,2.4,M,2.4,M,3.4,M*29
$IIRMB,A,2.36,L,,Lac ,,,,,029.1,355,,V,A*27
$P,682
$HCHDG,316.5,0.0,E,,*28
$P,711
$YXXDR,A,6.1,D,PTCH,A,10.2,D,ROLL*69
$P,707
$P,755
$HCHDG,316.6,0.0,E,,*2B
$IIRMC,200300,A,4754.339,N,12226.216,W,08.4,327,080314,16,E,A*17
$IIRMB,A,0.00,R,B,X,4714.072040,N,12225.414044,W,40.3,179,-7.11,V*0B
$P,717
$GPRMC,200308.4,A,4754.34266,N,12226.21954,W,008.11,329.9,080314,016.7,E,D*21
$IIRMB,A,0.00,R,B,X,4714.072040,N,12225.414044,W,40.3,179,-7.07,V*0C
$IIVHW,,,,,6.92,N,,*14
$PGRME,2.4,M,2.4,M,3.4,M*29
$HCHDG,316.5,0.0,E,,*28
$P,716
$P,681
$P,698
$HCHDG,316.3,0.0,E,,*2E
$P,673
$GPRMC,200308.6,A,4754.34308,N,12226.21994,W,008.04,332.1,080314,016.7,E,D*20
$IIRMB,A,0.00,R,B,X,4714.072040,N,12225.414044,W,40.3,179,-7.16,V*0C
$IIVHW,,,,,6.95,N,,*13
$PGRME,2.4,M,2.4,M,3.4,M*29
$P,707
$HCHDG,315.8,0.0,E,,*26
$P,702
$P,715
$HCHDG,315.6,0.0,E,,*28
$P,671
$P,680
$GPRMC,200308.8,A,4754.34352,N,12226.22034,W,008.07,331.5,080314,016.7,E,D*25
$IIRMB,A,0.00,R,B,X,4714.072040,N,12225.414044,W,40.3,179,-7.14,V*0E
$GPRMB,A,2.36,L,,Lac,4823.3220,N,12229.7720,W,29.1,355,7.38,V*70
$YXXDR,A,6.2,D,PTCH,A,8.7,D,ROLL*56
$PTAK,FFD1,8.7*5A
$PGRME,2.4,M,2.4,M,3.4,M*29
$IIVHW,,,,,6.96,N,,*10
$P,684
$HCHDG,315.5,0.0,E,,*2B
$IIVLW,06480,N,000.0,N*59
$P,690
$HCHDG,315.1,0.0,E,,*2F
$P,678
$IIVWR,154,L,08.6,N,,,,*71
$P,700
$IIDPT,015.3,-1.0,*47
$GPRMC,200309.0,A,4754.34391,N,12226.22063,W,007.83,331.7,080314,016.7,E,D*20
$IIRMB,A,0.00,R,B,X,4714.072040,N,12225.414044,W,40.3,179,-6.94,V*07
$PGRME,2.4,M,2.4,M,3.4,M*29
$IIVHW,,,,,6.94,N,,*12
$P,672
$HCHDG,315.0,0.0,E,,*2E
$P,713
$IIGLL,4754.341,N,12226.218,W,200300,A,A*49
$P,694
$HCHDG,314.9,0.0,E,,*26
$IIMWV,206,R,08.6,N,A*19
$P,746
$IIMWV,205,T,08.3,N,A*19
$P,702
$GPRMC,200309.2,A,4754.34429,N,12226.22098,W,008.21,330.1,080314,016.7,E,D*22
$IIRMB,A,0.00,R,B,X,4714.072040,N,12225.414044,W,40.3,179,-7.17,V*0D
$PGRME,2.4,M,2.4,M,3.4,M*29
$IIVHW,,,,,6.98,N,,*1E
$HCHDG,314.9,0.0,E,,*26
$P,709
$P,691
$IIRMB,A,2.36,L,,Lac ,,,,,029.1,355,,V,A*27
$YXXDR,A,5.5,D,PTCH,A,9.0,D,ROLL*54
$P,732
$HCHDG,315.0,0.0,E,,*2E
$P,722
$P,725
$GPRMC,200309.4,A,4754.34471,N,12226.22124,W,008.15,330.2,080314,016.7,E,D*2B
$IIRMB,A,0.00,R,B,X,4714.072040,N,12225.414044,W,40.3,179,-7.13,V*09
$PGRME,2.4,M,2.4,M,3.4,M*29
$IIVHW,,,,,7.02,N,,*1C
$IIRMC,200300,A,4754.341,N,12226.218,W,08.0,329,080314,16,E,A*1C
$IIRMB,A,0.00,R,B,X,4714.072040,N,12225.414044,W,40.3,179,-6.91,V*02
$HCHDG,315.1,0.0,E,,*2F
$P,673
$P,682
$HCHDG,314.9,0.0,E,,*26
$P,658
$P,694
$GPRMC,200309.6,A,4754.34512,N,12226.22146,W,007.90,329.2,080314,016.7,E,D*23
$IIRMB,A,0.00,R,B,X,4714.072040,N,12225.414044,W,40.3,179,-6.84,V*06
$PGRME,2.4,M,2.4,M,3.4,M*29
$IIVHW,,,,,6.96,N,,*10
$HCHDG,314.8,0.0,E,,*27
$P,672
$P,689
$P,652
$HCHDG,315.3,0.0,E,,*2D
$P,666
$GPRMC,200309.8,A,4754.34547,N,12226.22181,W,007.92,327.0,080314,016.7,E,D*28
$IIRMB,A,0.00,R,B,X,4714.072040,N,12225.414044,W,40.3,179,-6.70,V*0D
$YXXDR,A,5.3,D,PTCH,A,9.3,D,ROLL*51
$PGRME,2.4,M,2.4,M,3.4,M*29
$IIVHW,,,,,6.91,N,,*17
$P,634
$HCHDG,315.5,0.0,E,,*2B
$P,662
$P,639
$HCHDG,315.8,0.0,E,,*26
$IIVLW,06480,N,000.0,N*59
$P,696
$IIVWR,155,L,08.6,N,,,,*70
$P,634
$GPRMC,200310.0,A,4754.34585,N,12226.22219,W,008.10,328.0,080314,016.7,E,D*2E
$IIRMB,A,0.00,R,B,X,4714.072040,N,12225.414044,W,40.3,179,-6.93,V*00
$GPRMB,A,2.36,L,,Lac,4823.3220,N,12229.7720,W,29.1,355,7.19,V*73
$PGRME,2.4,M,2.4,M,3.4,M*29
$IIVHW,,,,,6.82,N,,*15
$HCHDG,316.3,0.0,E,,*2E
$IIDPT,015.3,-1.0,*47
$P,659
$P,644
$IIGLL,4754.343,N,12226.220,W,200300,A,A*40
$HCHDG,316.5,0.0,E,,*28
$P,651
$IIMWV,205,R,08.6,N,A*1A
$P,634
$GPRMC,200310.2,A,4754.34623,N,12226.22245,W,007.94,327.6,080314,016.7,E,D*20
$IIRMB,A,0.00,R,B,X,4714.072040,N,12225.414044,W,40.3,179,-6.76,V*0B
$PGRME,2.4,M,2.4,M,3.4,M*29
$IIVHW,,,,,6.73,N,,*1B
$HCHDG,316.8,0.0,E,,*25
$IIMWV,206,T,08.6,N,A*1F
$P,664
$P,619
$YXXDR,A,5.7,D,PTCH,A,10.0,D,ROLL*6E
$PTAK,FFD1,10.0*64
$IIRMB,A,2.36,L,,Lac ,,,,,029.1,355,,V,A*27
$P,654
$HCHDG,317.0,0.0,E,,*2C
$P,632
$GPRMC,200310.4,A,4754.34668,N,12226.22267,W,007.99,327.4,080314,016.7,E,D*26
$IIRMB,A,0.00,R,B,X,4714.072040,N,12225.414044,W,40.3,179,-6.79,V*04
$IIVHW,,,,,6.62,N,,*1B
$PGRME,2.4,M,2.4,M,3.4,M*29
$HCHDG,317.2,0.0,E,,*2E
$P,642
$P,621
$HCHDG,317.3,0.0,E,,*2F
$P,610
$P,576
$GPRMC,200310.6,A,4754.34713,N,12226.22290,W,007.77,328.3,080314,016.7,E,D*29
$IIRMB,A,0.00,R,B,X,4714.072040,N,12225.414044,W,40.3,179,-6.67,V*0B
$PGRME,2.4,M,2.4,M,3.4,M*29
$IIVHW,,,,,6.44,N,,*1F
$HCHDG,317.6,0.0,E,,*2A
$P,610
$P,631
$P,688
$HCHDG,317.6,0.0,E,,*2A
$P,669
$GPRMC,200310.8,A,4754.34757,N,12226.22327,W,007.75,327.8,080314,016.7,E,D*2C
$IIRMB,A,0.00,R,B,X,4714.072040,N,12225.414044,W,40.3,179,-6.61,V*0D
$YXXDR,A,6.3,D,PTCH,A,9.3,D,ROLL*52
$PGRME,2.4,M,2.4,M,3.4,M*29
$IIVHW,,,,,6.45,N,,*1E
$P,678
$HCHDG,318.2,0.0,E,,*21
$P,641
$P,679
$HCHDG,318.2,0.0,E,,*21
$P,675
$IIRMC,200300,A,4754.345,N,12226.222,W,08.1,328,080314,16,E,A*11
$IIRMB,A,0.00,R,B,X,4714.072040,N,12225.414044,W,40.3,179,-6.93,V*00
$P,718
$GPRMC,200311.0,A,4754.34792,N,12226.22365,W,007.91,328.9,080314,016.7,E,D*2E
$IIRMB,A,0.00,R,B,X,4714.072040,N,12225.414044,W,40.3,179,-6.83,V*01
$IIVHW,,,,,6.50,N,,*1A
$PGRME,2.4,M,2.4,M,3.4,M*29
$HCHDG,318.2,0.0,E,,*21
$P,683
$IIVLW,06480,N,000.0,N*59
$P,708
$IIVWR,161,L,08.6,N,,,,*77
$HCHDG,318.3,0.0,E,,*20
$P,718
$IIDPT,015.3,-1.0,*47
$P,744
$GPRMC,200311.2,A,4754.34824,N,12226.22397,W,007.91,329.4,080314,016.7,E,D*2F
$IIRMB,A,0.00,R,B,X,4714.072040,N,12225.414044,W,40.3,179,-6.86,V*04
$GPRMB,A,2.36,L,,Lac,4823.3220,N,12229.7720,W,29.1,355,7.11,V*7B
$PGRME,2.4,M,2.4,M,3.4,M*29
$IIVHW,,,,,6.61,N,,*18
$P,694
$HCHDG,318.2,0.0,E,,*21
$P,696
$IIGLL,4754.345,N,12226.222,W,200300,A,A*44
$P,698
$YXXDR,A,5.8,D,PTCH,A,8.7,D,ROLL*5F
$PTAK,FFD1,8.7*5A
$IIMWV,199,R,08.6,N,A*1C
$P,749
$HCHDG,318.1,0.0,E,,*22
$IIMWV,205,T,08.6,N,A*1C
$P,716
$GPRMC,200311.4,A,4754.34855,N,12226.22427,W,008.16,331.6,080314,016.7,E,D*28
$IIRMB,A,0.00,R,B,X,4714.072040,N,12225.414044,W,40.3,179,-7.23,V*0A
$IIVHW,,,,,6.73,N,,*1B
$PGRME,2.4,M,2.4,M,3.4,M*29
$HCHDG,317.7,0.0,E,,*2B
$P,733
$P,722
$P,764
$HCHDG,317.4,0.0,E,,*28
$P,727
$P,735
$GPRMC,200311.6,A,4754.34893,N,12226.22453,W,008.33,333.8,080314,016.7,E,D*28
$IIRMB,A,0.00,R,B,X,4714.072040,N,12225.414044,W,40.3,179,-7.52,V*0C
$PGRME,2.4,M,2.4,M,3.4,M*29
$IIVHW,,,,,6.90,N,,*16
$HCHDG,317.2,0.0,E,,*2E
$P,694
$P,724
$P,703
$HCHDG,317.0,0.0,E,,*2C
$P,758
$GPRMC,200311.8,A,4754.34934,N,12226.22478,W,008.39,337.1,080314,016.7,E,D*24
$IIRMB,A,0.00,R,B,X,4714.072040,N,12225.414044,W,40.3,179,-7.77,V*0B
$P,709
$YXXDR,A,4.4,D,PTCH,A,7.2,D,ROLL*58
$PGRME,2.4,M,2.4,M,3.4,M*29
$IIVHW,,,,,7.07,N,,*19
$P,747
$HCHDG,316.7,0.0,E,,*2A
$P,710
$IIRMB,A,2.36,L,,Lac ,,,,,029.1,355,,V,A*27
$HCHDG,316.5,0.0,E,,*28
$P,683
$P,655
$GPRMC,200312.0,A,4754.34985,N,12226.22509,W,008.40,336.6,080314,016.7,E,D*2A
$IIRMB,A,0.00,R,B,X,4714.072040,N,12225.414044,W,40.3,179,-7.75,V*09
$PTAK,FFP1,HEEL,@*07
$PGRME,2.4,M,2.4,M,3.4,M*29
$IIVHW,,,,,7.13,N,,*1C
$HCHDG,316.2,0.0,E,,*2F
$P,678
$IIRMC,200300,A,4754.347,N,12226.223,W,07.9,328,080314,16,E,A*15
$IIRMB,A,0.00,R,B,X,4714.072040,N,12225.414044,W,40.3,179,-6.76,V*0B
$P,645
$P,673
$HCHDG,316.0,0.0,E,,*2D
$IIVLW,06480,N,000.0,N*59
$P,671
$GPRMC,200312.2,A,4754.35023,N,12226.22542,W,008.00,334.1,080314,016.7,E,D*22
$IIRMB,A,0.00,R,B,X,4714.072040,N,12225.414044,W,40.3,179,-7.24,V*0D
$PGRME,2.4,M,2.4,M,3.4,M*29
$P,708
$IIVHW,,,,,7.06,N,,*18
$IIVWR,158,L,08.6,N,,,,*7D
$HCHDG,316.2,0.0,E,,*2F
$P,702
$IIDPT,015.3,-1.0,*47
$P,786
$YXXDR,A,5.1,D,PTCH,A,6.9,D,ROLL*56
$P,782
$HCHDG,316.6,0.0,E,,*2B
$IIGLL,4754.347,N,12226.223,W,200300,A,A*47
$P,790
$GPRMC,200312.4,A,4754.35072,N,12226.22573,W,008.02,333.0,080314,016.7,E,D*26
$IIRMB,A,0.00,R,B,X,4714.072040,N,12225.414044,W,40.3,179,-7.20,V*09
$IIMWV,202,R,08.6,N,A*1D
$P,739
$IIVHW,,,,,7.17,N,,*18
$PGRME,2.4,M,2.4,M,3.4,M*29
$HCHDG,316.8,0.0,E,,*25
$P,754
$P,733
$HCHDG,317.1,0.0,E,,*2D
$P,775
$P,742
$GPRMC,200312.6,A,4754.35112,N,12226.22607,W,008.08,332.0,080314,016.7,E,D*28
$IIRMB,A,0.00,R,B,X,4714.072040,N,12225.414044,W,40.3,179,-7.19,V*03
$GPRMB,A,2.36,L,,Lac,4823.3220,N,12229.7720,W,29.1,355,7.42,V*7D
$PGRME,2.4,M,2.4,M,3.4,M*29
$IIVHW,,,,,7.24,N,,*18
$P,733
$HCHDG,317.6,0.0,E,,*2A
$P,693
$P,731
$HCHDG,318.2,0.0,E,,*21
$P,692
$P,697
$GPRMC,200312.8,A,4754.35150,N,12226.22642,W,008.11,328.3,080314,016.7,E,D*21
$IIRMB,A,0.00,R,B,X,4714.072040,N,12225.414044,W,40.3,179,-6.96,V*05
$YXXDR,A,6.2,D,PTCH,A,8.2,D,ROLL*53
$PTAK,FFD1,8.2*5F
$PGRME,2.4,M,2.4,M,3.4,M*29
$IIVHW,,,,,7.20,N,,*1C
$P,654
$HCHDG,318.7,0.0,E,,*24
$IIMWV,202,T,08.6,N,A*1B
$P,653
$HCHDG,319.4,0.0,E,,*26
$P,601
$IIRMB,A,2.36,L,,Lac ,,,,,029.1,355,,V,A*27
$P,612
$GPRMC,200313.0,A,4754.35181,N,12226.22669,W,008.33,326.8,080314,016.7,E,D*28
$IIRMB,A,0.00,R,B,X,4714.072040,N,12225.414044,W,40.3,179,-7.03,V*08
$PGRME,2.4,M,2.4,M,3.4,M*29
$IIVHW,,,,,7.02,N,,*1C
$HCHDG,319.8,0.0,E,,*2A
$P,609
$P,637
$IIRMC,200300,A,4754.349,N,12226.225,W,08.4,336,080314,16,E,A*10
$IIRMB,A,0.00,R,B,X,4714.072040,N,12225.414044,W,40.3,179,-7.72,V*0E
$HCHDG,320.4,0.0,E,,*2C
$P,650
$P,737
$GPRMC,200313.2,A,4754.35221,N,12226.22701,W,008.40,327.9,080314,016.7,E,D*28
$IIRMB,A,0.00,R,B,X,4714.072040,N,12225.414044,W,40.3,179,-7.18,V*02
$PGRME,2.4,M,2.4,M,3.4,M*29
$IIVLW,06480,N,000.0,N*59
$IIVHW,,,,,6.94,N,,*12
$P,716
$HCHDG,320.5,0.0,E,,*2D
$P,715
$IIVWR,162,L,08.4,N,,,,*76
$YXXDR,A,7.0,D,PTCH,A,9.1,D,ROLL*52
$P,680
$P,669
$HCHDG,320.7,0.0,E,,*2F
$IIGLL,4754.349,N,12226.225,W,200300,A,A*4F
$P,692
$GPRMC,200313.4,A,4754.35261,N,12226.22730,W,008.41,328.4,080314,016.7,E,D*2B
$IIRMB,A,0.00,R,B,X,4714.072040,N,12225.414044,W,40.3,179,-7.22,V*0B
$PGRME,2.4,M,2.4,M,3.4,M*29
$IIVHW,,,,,6.96,N,,*10
$IIMWV,198,R,08.4,N,A*1F
$HCHDG,320.5,0.0,E,,*2D
$P,728
$P,701
$P,709
$HCHDG,320.5,0.0,E,,*2D
$P,689
$GPRMC,200313.6,A,4754.35299,N,12226.22767,W,008.24,328.1,080314,016.7,E,D*2A
$IIRMB,A,0.00,R,B,X,4714.072040,N,12225.414044,W,40.3,179,-7.05,V*0E
$PGRME,2.4,M,2.4,M,3.4,M*29
$IIVHW,,,,,6.91,N,,*17
$P,712
$HCHDG,320.4,0.0,E,,*2C
$P,667
$P,676
$HCHDG,320.1,0.0,E,,*29
$P,654
$P,698
$GPRMC,200313.8,A,4754.35334,N,12226.22796,W,008.31,331.0,080314,016.7,E,D*21
$IIRMB,A,0.00,R,B,X,4714.072040,N,12225.414044,W,40.3,179,-7.32,V*0A
$GPRMB,A,2.36,L,,Lac,4823.3220,N,12229.7720,W,29.1,355,7.57,V*79
$YXXDR,A,6.2,D,PTCH,A,6.2,D,ROLL*5D
$PTAK,FFD1,6.2*51
$PGRME,2.4,M,2.4,M,3.4,M*29
$IIVHW,,,,,6.82,N,,*15
$P,692
$HCHDG,319.7,0.0,E,,*25
$IIMWV,198,T,08.4,N,A*19
$P,746
$P,733
$HCHDG,319.3,0.0,E,,*21
$P,779
$IIRMB,A,2.36,L,,Lac ,,,,,029.1,355,,V,A*27
$P,757
$GPRMC,200314.0,A,4754.35380,N,12226.22828,W,008.38,333.5,080314,016.7,E,D*25
$IIRMB,A,0.00,R,B,X,4714.072040,N,12225.414044,W,40.3,179,-7.55,V*0B
$PGRME,2.4,M,2.4,M,3.4,M*29
$IIVHW,,,,,6.93,N,,*15
$HCHDG,318.9,0.0,E,,*2A
$P,767
$P,720
$IIRMC,200300,A,4754.349,N,12226.225,W,08.4,336,080314,16,E,A*10
$IIRMB,A,0.00,R,B,X,4714.072040,N,12225.414044,W,40.3,179,-7.72,V*0E
$P,769
$HCHDG,318.4,0.0,E,,*27
$P,743
$GPRMC,200314.2,A,4754.35421,N,12226.22862,W,008.40,334.5,080314,016.7,E,D*2D
$IIRMB,A,0.00,R,B,X,4714.072040,N,12225.414044,W,40.3,179,-7.63,V*0E
$P,773
$IIVLW,06480,N,000.0,N*59
$PGRME,2.4,M,2.4,M,3.4,M*29
$IIVHW,,,,,7.08,N,,*16
$HCHDG,317.9,0.0,E,,*25
$P,744
$IIVWR,162,L,08.6,N,,,,*74
$P,745
$YXXDR,A,5.6,D,PTCH,A,3.3,D,ROLL*5E
$P,741
$HCHDG,317.4,0.0,E,,*28
$IIGLL,4754.349,N,12226.225,W,200300,A,A*4F
$P,744
$GPRMC,200314.4,A,4754.35461,N,12226.22889,W,008.08,335.2,080314,016.7,E,D*20
$IIRMB,A,0.00,R,B,X,4714.072040,N,12225.414044,W,40.3,179,-7.38,V*00
$PGRME,2.4,M,2.4,M,3.4,M*29
$P,716
$IIVHW,,,,,7.24,N,,*18
$IIMWV,198,R,08.6,N,A*1D
$HCHDG,317.3,0.0,E,,*2F
$P,732
$P,705
$HCHDG,317.2,0.0,E,,*2E
$P,742
$P,684
$GPRMC,200314.6,A,4754.35503,N,12226.22918,W,008.36,335.1,080314,016.7,E,D*20
$IIRMB,A,0.00,R,B,X,4714.072040,N,12225.414044,W,40.3,179,-7.63,V*0E
$PGRME,2.4,M,2.4,M,3.4,M*29
$IIVHW,,,,,7.26,N,,*1A
$HCHDG,317.0,0.0,E,,*2C
$P,700
$P,673
$P,706
$HCHDG,317.1,0.0,E,,*2D
$P,662
$GPRMC,200314.8,A,4754.35545,N,12226.22946,W,008.08,332.5,080314,016.7,E,D*29
$IIRMB,A,0.00,R,B,X,4714.072040,N,12225.414044,W,40.3,179,-7.22,V*0B
$P,707
$YXXDR,A,5.0,D,PTCH,A,3.2,D,ROLL*59
$PGRME,2.4,M,2.4,M,3.4,M*29
$IIVHW,,,,,7.20,N,,*1C
$P,669
$HCHDG,317.3,0.0,E,,*2F
$IIMWV,198,T,08.6,N,A*1B
$P,683
$HCHDG,317.7,0.0,E,,*2B
$P,668
$IIRMB,A,2.36,L,,Lac ,,,,,029.1,355,,V,A*27
$P,705
$GPRMC,200315.0,A,4754.35587,N,12226.22974,W,008.01,331.8,080314,016.7,E,D*28
$IIRMB,A,0.00,R,B,X,4714.072040,N,12225.414044,W,40.3,179,-7.11,V*0B
$GPRMB,A,2.35,L,,Lac,4823.3220,N,12229.7720,W,29.1,355,7.34,V*7F
$PGRME,2.4,M,2.4,M,3.4,M*29
$IIVHW,,,,,7.17,N,,*18
$HCHDG,317.9,0.0,E,,*25
$P,676
$P,677
$IIRMC,200300,A,4754.353,N,12226.228,W,08.3,333,080314,16,E,A*14
$IIRMB,A,0.00,R,B,X,4714.072040,N,12225.414044,W,40.3,179,-7.45,V*0A
$P,674
$HCHDG,318.3,0.0,E,,*20
$P,725
$GPRMC,200315.2,A,4754.35629,N,12226.23000,W,008.02,332.4,080314,016.7,E,D*2A
$IIRMB,A,0.00,R,B,X,4714.072040,N,12225.414044,W,40.3,179,-7.16,V*0C
$P,686
$PGRME,2.4,M,2.4,M,3.4,M*29
$IIVLW,06480,N,000.0,N*59
$IIVHW,,,,,7.05,N,,*1B
$HCHDG,318.4,0.0,E,,*27
$P,694
$IIVWR,159,L,08.8,N,,,,*72
$P,649
$YXXDR,A,5.4,D,PTCH,A,3.6,D,ROLL*59
$PTAK,FFD1,3.6*50
$P,684
$HCHDG,318.4,0.0,E,,*27
$IIGLL,4754.353,N,12226.228,W,200300,A,A*49
$P,664
$GPRMC,200315.4,A,4754.35666,N,12226.23029,W,008.08,331.5,080314,016.7,E,D*24
$IIRMB,A,0.00,R,B,X,4714.072040,N,12225.414044,W,40.3,179,-7.15,V*0F
$IIVHW,,,,,6.92,N,,*14
$PGRME,2.4,M,2.4,M,3.4,M*29
$IIMWV,201,R,08.8,N,A*10
$HCHDG,318.8,0.0,E,,*2B
$P,687
$P,670
$P,749
$HCHDG,319.0,0.0,E,,*22
$P,729
$GPRMC,200315.6,A,4754.35708,N,12226.23057,W,008.14,330.0,080314,016.7,E,D*2F
$IIRMB,A,0.00,R,B,X,4714.072040,N,12225.414044,W,40.3,179,-7.10,V*0A
$P,747
$PGRME,2.4,M,2.4,M,3.4,M*29
$IIVHW,,,,,6.96,N,,*10
$HCHDG,319.2,0.0,E,,*20
$P,741
$P,778
$P,708
$HCHDG,319.3,0.0,E,,*21
$P,722
$GPRMC,200315.8,A,4754.35745,N,12226.23088,W,008.35,330.6,080314,016.7,E,D*2F
$IIRMB,A,0.00,R,B,X,4714.072040,N,12225.414044,W,40.3,179,-7.33,V*0B
$PGRME,2.4,M,2.4,M,3.4,M*29
$IIVHW,,,,,7.00,N,,*1E
$YXXDR,A,5.9,D,PTCH,A,3.6,D,ROLL*54
$P,724
$P,756
$HCHDG,319.5,0.0,E,,*27
$IIMWV,201,T,08.8,N,A*16
$P,750
$HCHDG,319.7,0.0,E,,*25
$P,775
$IIRMB,A,2.35,L,,Lac ,,,,,029.1,355,,V,A*24
$P,729
$GPRMC,200316.0,A,4754.35788,N,12226.23110,W,008.29,332.2,080314,016.7,E,D*2E
$IIRMB,A,0.00,R,B,X,4714.072040,N,12225.414044,W,40.3,179,-7.39,V*01
$PGRME,2.4,M,2.4,M,3.4,M*29
$IIVHW,,,,,7.11,N,,*1E
$PTAK,FFP1,HEEL,@*07
$P,731
$HCHDG,319.9,0.0,E,,*2B
$P,694
$IIRMC,200300,A,4754.355,N,12226.229,W,08.0,331,080314,16,E,A*12
$IIRMB,A,0.00,R,B,X,4714.072040,N,12225.414044,W,40.3,179,-7.05,V*0E
$P,739
$HCHDG,319.4,0.0,E,,*26
$P,740
$P,787
$GPRMC,200316.2,A,4754.35835,N,12226.23130,W,008.26,337.3,080314,016.7,E,D*2C
$IIRMB,A,0.00,R,B,X,4714.072040,N,12225.414044,W,40.3,179,-7.66,V*0B
$GPRMB,A,2.35,L,,Lac,4823.3220,N,12229.7720,W,29.1,355,7.85,V*75
$PGRME,2.4,M,2.4,M,3.4,M*29
$IIVLW,06480,N,000.0,N*59
$IIVHW,,,,,7.19,N,,*16
$P,746
$HCHDG,318.9,0.0,E,,*2A
$P,808
$IIVWR,162,L,08.8,N,,,,*7A
$YXXDR,A,5.0,D,PTCH,A,3.3,D,ROLL*58
$PTAK,FFD1,3.3*55
$P,748
$P,769
$HCHDG,318.0,0.0,E,,*23
$IIGLL,4754.355,N,12226.229,W,200300,A,A*4E
$P,738
$GPRMC,200316.4,A,4754.35877,N,12226.23155,W,008.98,338.0,080314,016.7,E,D*26
$IIRMB,A,0.00,R,B,X,4714.072040,N,12225.414044,W,40.3,179,-8.37,V*00
$PGRME,2.4,M,2.4,M,3.4,M*29
$IIVHW,,,,,7.33,N,,*1E
$IIMWV,198,R,08.8,N,A*13
$HCHDG,317.4,0.0,E,,*28
$P,744
$P,684
$P,699
$HCHDG,317.1,0.0,E,,*2D
$P,660
$GPRMC,200316.6,A,4754.35921,N,12226.23184,W,008.60,335.4,080314,016.7,E,D*24
$IIRMB,A,0.00,R,B,X,4714.072040,N,12225.414044,W,40.3,179,-7.87,V*04
$P,669
$PGRME,2.4,M,2.4,M,3.4,M*29
$IIVHW,,,,,7.33,N,,*1E
$HCHDG,317.2,0.0,E,,*2E
$P,650
$P,685
$HCHDG,317.2,0.0,E,,*2E
$P,672
$P,711
$GPRMC,200316.8,A,4754.35968,N,12226.23206,W,008.52,334.3,080314,016.7,E,D*29
$IIRMB,A,0.00,R,B,X,4714.072040,N,12225.414044,W,40.3,179,-7.73,V*0F
$YXXDR,A,5.2,D,PTCH,A,4.2,D,ROLL*5C
$PGRME,2.4,M,2.4,M,3.4,M*29
$IIVHW,,,,,7.23,N,,*1F
$P,692
$HCHDG,317.6,0.0,E,,*2A
$P,697
$P,672
$HCHDG,318.0,0.0,E,,*23
$P,799
$P,890
$GPRMC,200317.0,A,4754.36010,N,12226.23225,W,008.31,331.4,080314,016.7,E,D*23
$IIRMB,A,0.00,R,B,X,4714.072040,N,12225.414044,W,40.3,179,-7.35,V*0D
$PGRME,2.4,M,2.4,M,3.4,M*29
$IIVHW,,,,,7.29,N,,*15
$HCHDG,318.4,0.0,E,,*27
$P,980
$P,990
$P,996
$P,926
$HCHDG,319.0,0.0,E,,*22
$P,924
$P,867
$GPRMC,200317.2,A,4754.36051,N,12226.23247,W,008.59,330.2,080314,016.7,E,D*29
$IIRMB,A,0.00,R,B,X,4714.072040,N,12225.414044,W,40.3,179,-7.51,V*0F
$GPRMB,A,2.35,L,,Lac,4823.3220,N,12229.7720,W,29.1,355,7.78,V*77
$PGRME,2.4,M,2.4,M,3.4,M*29
$IIVHW,,,,,7.77,N,,*1E
$P,885
$HCHDG,319.3,0.0,E,,*21
$P,843
$P,845
$YXXDR,A,5.2,D,PTCH,A,8.7,D,ROLL*55
$P,778
$HCHDG,319.5,0.0,E,,*27
$P,761
$GPRMC,200317.4,A,4754.36086,N,12226.23283,W,008.34,328.6,080314,016.7,E,D*2B
$IIRMB,A,0.00,R,B,X,4714.072040,N,12225.414044,W,40.3,179,-7.18,V*02
$IIVHW,,,,,7.95,N,,*12
$PGRME,2.4,M,2.4,M,3.4,M*29
$P,721
$HCHDG,320.0,0.0,E,,*28
$P,770
$P,747
$HCHDG,320.2,0.0,E,,*2A
$P,773
$P,741
$GPRMC,200317.6,A,4754.36128,N,12226.23321,W,008.67,329.5,080314,016.7,E,D*21
$IIRMB,A,0.00,R,B,X,4714.072040,N,12225.414044,W,40.3,179,-7.53,V*0D
$PGRME,2.4,M,2.4,M,3.4,M*29
$IIVHW,,,,,7.91,N,,*16
$P,766
$HCHDG,320.2,0.0,E,,*2A
$P,704
$P,736
$HCHDG,320.2,0.0,E,,*2A
$P,701
$P,746
$GPRMC,200317.8,A,4754.36167,N,12226.23371,W,008.65,329.7,080314,016.7,E,D*21
$IIRMB,A,0.00,R,B,X,4714.072040,N,12225.414044,W,40.3,179,-7.53,V*0D
$YXXDR,A,5.1,D,PTCH,A,9.2,D,ROLL*52
$PTAK,FFD1,9.2*5E
$PGRME,2.4,M,2.4,M,3.4,M*29
$IIVHW,,,,,7.91,N,,*16
$P,719
$HCHDG,320.2,0.0,E,,*2A
$IIMWV,198,T,08.8,N,A*15
$P,755
$P,751
$HCHDG,320.5,0.0,E,,*2D
$P,771
$IIRMB,A,2.35,L,,Lac ,,,,,029.1,355,,V,A*24
$P,724
$GPRMC,200318.0,A,4754.36208,N,12226.23408,W,008.70,329.0,080314,016.7,E,D*26
$IIRMB,A,0.00,R,B,X,4714.072040,N,12225.414044,W,40.3,179,-7.52,V*0C
$PGRME,2.4,M,2.4,M,3.4,M*29
$IIVHW,,,,,7.94,N,,*13
$HCHDG,320.3,0.0,E,,*2B
$P,743
$P,757
$IIRMC,200300,A,4754.357,N,12226.231,W,08.2,332,080314,16,E,A*18
$IIRMB,A,0.00,R,B,X,4714.072040,N,12225.414044,W,40.3,179,-7.29,V*00
$P,791
$HCHDG,320.6,0.0,E,,*2E
$P,771
$P,799
$GPRMC,200318.2,A,4754.36252,N,12226.23444,W,008.65,328.2,080314,016.7,E,D*24
$IIRMB,A,0.00,R,B,X,4714.072040,N,12225.414044,W,40.3,179,-7.41,V*0E
$GPRMB,A,2.35,L,,Lac,4823.3220,N,12229.7720,W,29.1,355,7.70,V*7F
$IIVLW,06480,N,000.0,N*59
$PGRME,2.4,M,2.4,M,3.4,M*29
$IIVHW,,,,,7.87,N,,*11
$HCHDG,320.9,0.0,E,,*21
$P,797
$IIVWR,166,L,08.8,N,,,,*7E
$P,791
$YXXDR,A,5.4,D,PTCH,A,8.8,D,ROLL*5C
$P,744
$P,800
$HCHDG,321.0,0.0,E,,*29
$IIGLL,4754.357,N,12226.231,W,200300,A,A*45
$P,764
$GPRMC,200318.4,A,4754.36294,N,12226.23484,W,008.62,328.0,080314,016.7,E,D*21
$IIRMB,A,0.00,R,B,X,4714.072040,N,12225.414044,W,40.3,179,-7.37,V*0F
$PGRME,2.4,M,2.4,M,3.4,M*29
$IIVHW,,,,,7.65,N,,*1D
$IIMWV,194,R,08.8,N,A*1F
$HCHDG,321.2,0.0,E,,*2B
$P,795
$P,742
$P,780
$HCHDG,321.3,0.0,E,,*2A
$P,767
$P,791
$GPRMC,200318.6,A,4754.36337,N,12226.23530,W,008.62,327.7,080314,016.7,E,D*2D
$IIRMB,A,0.00,R,B,X,4714.072040,N,12225.414044,W,40.3,179,-7.35,V*0D
$PGRME,2.4,M,2.4,M,3.4,M*29
$IIVHW,,,,,7.61,N,,*19
$HCHDG,321.6,0.0,E,,*2F
$P,749
$P,767
$P,722
$HCHDG,322.0,0.0,E,,*2A
$P,738
$P,696
$YXXDR,A,5.4,D,PTCH,A,8.1,D,ROLL*55
$GPRMC,200318.8,A,4754.36375,N,12226.23583,W,008.80,327.6,080314,016.7,E,D*20
$IIRMB,A,0.00,R,B,X,4714.072040,N,12225.414044,W,40.3,179,-7.49,V*06
$PGRME,2.4,M,2.4,M,3.4,M*29
$IIVHW,,,,,7.58,N,,*13
$P,735
$HCHDG,322.2,0.0,E,,*28
$IIMWV,190,T,08.9,N,A*1C
$P,747
$P,815
$HCHDG,322.5,0.0,E,,*2F
$P,776
$IIRMB,A,2.35,L,,Lac ,,,,,029.1,355,,V,A*24
$P,783
$GPRMC,200319.0,A,4754.36418,N,12226.23639,W,008.78,329.5,080314,016.7,E,D*2D
$IIRMB,A,0.00,R,B,X,4714.072040,N,12225.414044,W,40.3,179,-7.63,V*0E
$PGRME,2.4,M,2.4,M,3.4,M*29
$IIVHW,,,,,7.62,N,,*1A
$HCHDG,322.7,0.0,E,,*2D
$P,738
$P,760
$IIRMC,200300,A,4754.362,N,12226.234,W,08.7,329,080314,16,E,A*14
$IIRMB,A,0.00,R,B,X,4714.072040,N,12225.414044,W,40.3,179,-7.52,V*0C
$P,732
$HCHDG,322.7,0.0,E,,*2D
$P,768
$GPRMC,200319.2,A,4754.36460,N,12226.23679,W,008.77,330.6,080314,016.7,E,D*20
$IIRMB,A,0.00,R,B,X,4714.072040,N,12225.414044,W,40.3,179,-7.70,V*0C
$P,737
$PGRME,2.4,M,2.4,M,3.4,M*29
$IIVHW,,,,,7.61,N,,*19
$IIVLW,06480,N,000.0,N*59
$HCHDG,322.7,0.0,E,,*2D
$P,759
$IIVWR,168,L,08.9,N,,,,*71
$P,740
$YXXDR,A,6.1,D,PTCH,A,5.0,D,ROLL*5F
$PTAK,FFD1,5.0*50
$P,738
$HCHDG,322.5,0.0,E,,*2F
$IIGLL,4754.362,N,12226.234,W,200300,A,A*46
$P,694
$GPRMC,200319.4,A,4754.36510,N,12226.23718,W,008.70,330.6,080314,016.7,E,D*21
$IIRMB,A,0.00,R,B,X,4714.072040,N,12225.414044,W,40.3,179,-7.64,V*09
$GPRMB,A,2.35,L,,Lac,4823.3220,N,12229.7720,W,29.1,355,7.90,V*71
$PGRME,2.4,M,2.4,M,3.4,M*29
$IIVHW,,,,,7.52,N,,*19
$P,731
$IIMWV,192,R,08.9,N,A*18
$HCHDG,322.4,0.0,E,,*2E
$P,708
$P,737
$HCHDG,322.7,0.0,E,,*2D
$P,703
$P,751
$GPRMC,200319.6,A,4754.36552,N,12226.23744,W,008.76,330.9,080314,016.7,E,D*25
$IIRMB,A,0.00,R,B,X,4714.072040,N,12225.414044,W,40.3,179,-7.71,V*0D
$PGRME,2.4,M,2.4,M,3.4,M*29
$IIVHW,,,,,7.46,N,,*1C
$HCHDG,323.0,0.0,E,,*2B
$P,710
$P,754
$P,728
$HCHDG,323.1,0.0,E,,*2A
$P,728
$P,736
$GPRMC,200319.8,A,4754.36591,N,12226.23773,W,008.48,330.5,080314,016.7,E,D*21
$IIRMB,A,0.00,R,B,X,4714.072040,N,12225.414044,W,40.3,179,-7.44,V*0B
$YXXDR,A,6.0,D,PTCH,A,2.2,D,ROLL*5B
$PGRME,2.4,M,2.4,M,3.4,M*29
$IIVHW,,,,,7.39,N,,*14
$P,755
$HCHDG,323.2,0.0,E,,*29
$IIMWV,192,T,08.9,N,A*1E
$P,725
$P,744
$HCHDG,323.5,0.0,E,,*2E
$P,710
$IIRMB,A,2.35,L,,Lac ,,,,,029.1,355,,V,A*24
$GPRMC,200320.0,A,4754.36630,N,12226.23802,W,008.48,332.1,080314,016.7,E,D*24
$IIRMB,A,0.00,R,B,X,4714.072040,N,12225.414044,W,40.3,179,-7.55,V*0B
$P,721
$PGRME,2.4,M,2.4,M,3.4,M*29
$IIVHW,,,,,7.37,N,,*1A
$HCHDG,323.4,0.0,E,,*2F
$P,683
$P,717
$IIRMC,200300,A,4754.364,N,12226.236,W,08.7,329,080314,16,E,A*10
$IIRMB,A,0.00,R,B,X,4714.072040,N,12225.414044,W,40.3,179,-7.52,V*0C
$HCHDG,323.6,0.0,E,,*2D
$PTAK,FFP1,HEEL,@*07
$P,680
$P,715
$GPRMC,200320.2,A,4754.36671,N,12226.23839,W,008.46,333.6,080314,016.7,E,D*23
$IIRMB,A,0.00,R,B,X,4714.072040,N,12225.414044,W,40.3,179,-7.63,V*0E
$IIVHW,,,,,7.26,N,,*1A
$PGRME,2.4,M,2.4,M,3.4,M*29
$IIVLW,06480,N,000.0,N*59
$P,702
$HCHDG,323.6,0.0,E,,*2D
$P,759
$IIVWR,165,L,08.8,N,,,,*7D
$P,750
$YXXDR,A,5.7,D,PTCH,A,-1.0,D,ROLL*73
$PTAK,FFD1,1.0*54
$P,768
$HCHDG,323.4,0.0,E,,*2F
$IIGLL,4754.364,N,12226.236,W,200300,A,A*42
$P,714
$GPRMC,200320.4,A,4754.36703,N,12226.23866,W,008.23,334.1,080314,016.7,E,D*28
$IIRMB,A,0.00,R,B,X,4714.072040,N,12225.414044,W,40.3,179,-7.45,V*0A
$GPRMB,A,2.35,L,,Lac,4823.3220,N,12229.7720,W,29.1,355,7.67,V*79
$IIVHW,,,,,7.26,N,,*1A
$PGRME,2.4,M,2.4,M,3.4,M*29
$IIMWV,195,R,08.8,N,A*1E
$HCHDG,323.5,0.0,E,,*2E
$P,711
$P,686
$P,759
$HCHDG,323.6,0.0,E,,*2D
$P,736
$P,752
$GPRMC,200320.6,A,4754.36741,N,12226.23895,W,008.22,337.3,080314,016.7,E,D*20
$IIRMB,A,0.00,R,B,X,4714.072040,N,12225.414044,W,40.3,179,-7.63,V*0E
$PGRME,2.4,M,2.4,M,3.4,M*29
$IIVHW,,,,,7.26,N,,*1A
$HCHDG,323.7,0.0,E,,*2C
$P,717
$P,719
$P,724
$HCHDG,323.6,0.0,E,,*2D
$P,767
$GPRMC,200320.8,A,4754.36784,N,12226.23912,W,008.00,338.8,080314,016.7,E,D*2D
$IIRMB,A,0.00,R,B,X,4714.072040,N,12225.414044,W,40.3,179,-7.50,V*0E
$P,748
$YXXDR,A,5.7,D,PTCH,A,-3.5,D,ROLL*74
$PGRME,2.4,M,2.4,M,3.4,M*29
$IIVHW,,,,,7.28,N,,*14
$P,755
$HCHDG,323.6,0.0,E,,*2D
$IIMWV,195,T,08.8,N,A*18
$P,714
$HCHDG,323.3,0.0,E,,*28
$P,719
$IIRMB,A,2.35,L,,Lac ,,,,,029.1,355,,V,A*24
$P,693
$GPRMC,200321.0,A,4754.36825,N,12226.23937,W,008.04,339.7,080314,016.7,E,D*2D
$IIRMB,A,0.00,R,B,X,4714.072040,N,12225.414044,W,40.3,179,-7.58,V*06
$PGRME,2.4,M,2.4,M,3.4,M*29
$IIVHW,,,,,7.26,N,,*1A
$P,727
$HCHDG,323.6,0.0,E,,*2D
$P,710
$P,729
$IIRMC,200300,A,4754.366,N,12226.238,W,08.4,332,080314,16,E,A*15
$IIRMB,A,0.00,R,B,X,4714.072040,N,12225.414044,W,40.3,179,-7.47,V*08
$HCHDG,323.3,0.0,E,,*28
$P,725
$P,757
$GPRMC,200321.2,A,4754.36864,N,12226.23959,W,008.08,342.4,080314,016.7,E,D*21
$IIRMB,A,0.00,R,B,X,4714.072040,N,12225.414044,W,40.3,179,-7.74,V*08
$PGRME,2.4,M,2.4,M,3.4,M*29
$IIVLW,06480,N,000.0,N*59
$IIVHW,,,,,7.26,N,,*1A
$HCHDG,323.4,0.0,E,,*2F
$P,686
$IIVWR,163,L,08.9,N,,,,*7A
$P,678
$YXXDR,A,4.9,D,PTCH,A,-4.7,D,ROLL*7E
$P,633
$HCHDG,323.8,0.0,E,,*23
$IIGLL,4754.366,N,12226.238,W,200300,A,A*4E
$P,647
$GPRMC,200321.4,A,4754.36904,N,12226.23976,W,007.59,342.1,080314,016.7,E,D*23
$IIRMB,A,0.00,R,B,X,4714.072040,N,12225.414044,W,40.3,179,-7.25,V*0C
$PGRME,2.4,M,2.4,M,3.4,M*29
$IIVHW,,,,,7.15,N,,*1A
$IIMWV,197,R,08.9,N,A*1D
$P,631
$HCHDG,323.8,0.0,E,,*23
$P,663
$P,641
$HCHDG,323.9,0.0,E,,*22
$P,701
$GPRMC,200321.6,A,4754.36941,N,12226.24003,W,007.60,343.4,080314,016.7,E,D*22
$IIRMB,A,0.00,R,B,X,4714.072040,N,12225.414044,W,40.3,179,-7.31,V*09
$GPRMB,A,2.35,L,,Lac,4823.3220,N,12229.7720,W,29.1,355,7.43,V*7F
$P,662
$PGRME,2.4,M,2.4,M,3.4,M*29
$IIVHW,,,,,7.01,N,,*1F
$HCHDG,324.3,0.0,E,,*2F
$P,686
$P,655
$HCHDG,324.5,0.0,E,,*29
$P,680
$P,646
$GPRMC,200321.8,A,4754.36981,N,12226.24025,W,007.54,342.9,080314,016.7,E,D*2F
$IIRMB,A,0.00,R,B,X,4714.072040,N,12225.414044,W,40.3,179,-7.24,V*0D
$YXXDR,A,5.0,D,PTCH,A,-3.7,D,ROLL*71
$PTAK,FFD1,3.7*51
$PGRME,2.4,M,2.4,M,3.4,M*29
$IIVHW,,,,,6.89,N,,*1E
$P,718
$HCHDG,324.5,0.0,E,,*29
$P,685
$IIMWV,197,T,08.9,N,A*1B
$P,721
$HCHDG,324.8,0.0,E,,*24
$P,699
$IIRMB,A,2.35,L,,Lac ,,,,,029.1,355,,V,A*24
$GPRMC,200322.0,A,4754.37015,N,12226.24044,W,007.52,342.9,080314,016.7,E,D*20
$IIRMB,A,0.00,R,B,X,4714.072040,N,12225.414044,W,40.3,179,-7.22,V*0B
$P,690
$PGRME,2.4,M,2.4,M,3.4,M*29
$IIVHW,,,,,6.88,N,,*1F
$HCHDG,325.1,0.0,E,,*2C
$P,654
$P,658
$IIRMC,200300,A,4754.368,N,12226.239,W,08.0,339,080314,16,E,A*15
$IIRMB,A,0.00,R,B,X,4714.072040,N,12225.414044,W,40.3,179,-7.51,V*0F
$HCHDG,325.2,0.0,E,,*2F
$P,629
$P,681
$GPRMC,200322.2,A,4754.37055,N,12226.24063,W,007.84,342.3,080314,016.7,E,D*22
$IIRMB,A,0.00,R,B,X,4714.072040,N,12225.414044,W,40.3,179,-7.50,V*0E
$PGRME,2.4,M,2.4,M,3.4,M*29
$IIVHW,,,,,6.78,N,,*10
$IIVLW,06480,N,000.0,N*59
$HCHDG,325.4,0.0,E,,*29
$P,654
$IIVWR,170,L,08.5,N,,,,*74
$P,667
$YXXDR,A,5.0,D,PTCH,A,-1.2,D,ROLL*76
$P,643
$HCHDG,325.9,0.0,E,,*24
$IIGLL,4754.368,N,12226.239,W,200300,A,A*41
$P,665
$GPRMC,200322.4,A,4754.37091,N,12226.24095,W,007.65,340.7,080314,016.7,E,D*2C
$IIRMB,A,0.00,R,B,X,4714.072040,N,12225.414044,W,40.3,179,-7.25,V*0C
$IIVHW,,,,,6.68,N,,*11
$PGRME,2.4,M,2.4,M,3.4,M*29
$IIMWV,190,R,08.5,N,A*16
$HCHDG,326.4,0.0,E,,*2A
$P,649
$P,691
$P,674
$HCHDG,326.9,0.0,E,,*27
$P,693
$GPRMC,200322.6,A,4754.37128,N,12226.24123,W,007.65,339.5,080314,016.7,E,D*2D
$IIRMB,A,0.00,R,B,X,4714.072040,N,12225.414044,W,40.3,179,-7.20,V*09
$GPRMB,A,2.35,L,,Lac,4823.3220,N,12229.7720,W,29.1,355,7.36,V*7D
$P,655
$PGRME,2.4,M,2.4,M,3.4,M*29
$IIVHW,,,,,6.71,N,,*19
$HCHDG,327.5,0.0,E,,*2A
$P,703
$P,688
$HCHDG,327.9,0.0,E,,*26
$P,704
$P,681
$GPRMC,200322.8,A,4754.37165,N,12226.24144,W,007.65,339.6,080314,016.7,E,D*28
$IIRMB,A,0.00,R,B,X,4714.072040,N,12225.414044,W,40.3,179,-7.21,V*08
$YXXDR,A,4.7,D,PTCH,A,2.2,D,ROLL*5E
$PGRME,2.4,M,2.4,M,3.4,M*29
$IIVHW,,,,,6.75,N,,*1D
$P,698
$HCHDG,328.4,0.0,E,,*24
$IIMWV,190,T,08.5,N,A*10
$P,643
$P,691
$HCHDG,328.8,0.0,E,,*28
$P,701
$IIRMB,A,2.35,L,,Lac ,,,,,029.1,355,,V,A*24
$GPRMC,200323.0,A,4754.37204,N,12226.24159,W,007.71,342.8,080314,016.7,E,D*2E
$IIRMB,A,0.00,R,B,X,4714.072040,N,12225.414044,W,40.3,179,-7.40,V*0F
$P,714
$IIVHW,,,,,6.79,N,,*11
$PGRME,2.4,M,2.4,M,3.4,M*29
$HCHDG,328.7,0.0,E,,*27
$P,687
$P,742
$IIRMC,200300,A,4754.370,N,12226.240,W,07.5,342,080314,16,E,A*14
$IIRMB,A,0.00,R,B,X,4714.072040,N,12225.414044,W,40.3,179,-7.16,V*0C
$HCHDG,328.7,0.0,E,,*27
$P,743
$P,731
$GPRMC,200323.2,A,4754.37250,N,12226.24172,W,007.78,344.5,080314,016.7,E,D*26
$IIRMB,A,0.00,R,B,X,4714.072040,N,12225.414044,W,40.3,179,-7.53,V*0D
$PGRME,2.4,M,2.4,M,3.4,M*29
$IIVHW,,,,,6.87,N,,*10
$IIVLW,06480,N,000.0,N*59
$P,727
$HCHDG,328.3,0.0,E,,*23
$P,760
$IIVWR,179,L,08.5,N,,,,*7D
$P,719
$YXXDR,A,4.9,D,PTCH,A,3.1,D,ROLL*52
$PTAK,FFD1,3.1*57
$P,699
$HCHDG,328.1,0.0,E,,*21
$IIGLL,4754.370,N,12226.240,W,200300,A,A*46
$P,677
$GPRMC,200323.4,A,4754.37294,N,12226.24178,W,007.57,346.6,080314,016.7,E,D*2E
$IIRMB,A,0.00,R,B,X,4714.072040,N,12225.414044,W,40.3,179,-7.39,V*01
$PGRME,2.4,M,2.4,M,3.4,M*29
$IIVHW,,,,,6.96,N,,*10
$IIMWV,181,R,08.5,N,A*16
$HCHDG,327.9,0.0,E,,*26
$P,729
$P,703
$P,714
$HCHDG,327.3,0.0,E,,*2C
$P,674
$GPRMC,200323.6,A,4754.37338,N,12226.24183,W,007.62,346.4,080314,016.7,E,D*2B
$IIRMB,A,0.00,R,B,X,4714.072040,N,12225.414044,W,40.3,179,-7.43,V*0C
$GPRMB,A,2.35,L,,Lac,4823.3220,N,12229.7720,W,29.1,355,7.53,V*7E
$P,700
$PGRME,2.4,M,2.4,M,3.4,M*29
$IIVHW,,,,,7.01,N,,*1F
$HCHDG,327.4,0.0,E,,*2B
$P,710
$P,734
$HCHDG,327.7,0.0,E,,*28
$P,690
$P,704
$GPRMC,200323.8,A,4754.37378,N,12226.24193,W,007.60,345.8,080314,016.7,E,D*2D
$IIRMB,A,0.00,R,B,X,4714.072040,N,12225.414044,W,40.3,179,-7.39,V*01
$YXXDR,A,5.0,D,PTCH,A,5.1,D,ROLL*5C
$PGRME,2.4,M,2.4,M,3.4,M*29
$IIVHW,,,,,7.05,N,,*1B
$P,677
$HCHDG,327.6,0.0,E,,*29
$P,690
$IIMWV,181,T,08.5,N,A*10
$P,675
$HCHDG,327.5,0.0,E,,*2A
$P,697
$IIRMB,A,2.35,L,,Lac ,,,,,029.1,355,,V,A*24
$GPRMC,200324.0,A,4754.37426,N,12226.24209,W,008.05,345.8,080314,016.7,E,D*22
$IIRMB,A,0.00,R,B,X,4714.072040,N,12225.414044,W,40.3,179,-7.83,V*00
$P,656
$PGRME,2.4,M,2.4,M,3.4,M*29
$IIVHW,,,,,7.03,N,,*1D
$HCHDG,327.5,0.0,E,,*2A
$P,688
$P,656
$IIRMC,200300,A,4754.372,N,12226.241,W,07.7,342,080314,16,E,A*15
$IIRMB,A,0.00,R,B,X,4714.072040,N,12225.414044,W,40.3,179,-7.36,V*0E
$HCHDG,327.5,0.0,E,,*2A
$PTAK,FFP1,HEEL,@*07
$P,678
$P,668
$GPRMC,200324.2,A,4754.37471,N,12226.24233,W,008.01,345.4,080314,016.7,E,D*23
$IIRMB,A,0.00,R,B,X,4714.072040,N,12225.414044,W,40.3,179,-7.78,V*04
$PGRME,2.4,M,2.4,M,3.4,M*29
$IIVHW,,,,,6.97,N,,*11
$IIVLW,06480,N,000.0,N*59
$HCHDG,328.0,0.0,E,,*20
$P,703
$IIVWR,173,R,08.5,N,,,,*69
$P,703
$YXXDR,A,5.1,D,PTCH,A,9.2,D,ROLL*52
$P,731
$HCHDG,328.3,0.0,E,,*23
$P,721
$IIGLL,4754.372,N,12226.241,W,200300,A,A*45
$GPRMC,200324.4,A,4754.37514,N,12226.24264,W,008.07,342.0,080314,016.7,E,D*20
$IIRMB,A,0.00,R,B,X,4714.072040,N,12225.414044,W,40.3,179,-7.71,V*0D
$P,706
$IIVHW,,,,,6.98,N,,*1E
$PGRME,2.4,M,2.4,M,3.4,M*29
$IIMWV,173,R,08.5,N,A*1B
$HCHDG,328.6,0.0,E,,*26
$P,675
$P,722
$HCHDG,328.9,0.0,E,,*29
$P,719
$P,780
$GPRMC,200324.6,A,4754.37561,N,12226.24284,W,008.05,341.2,080314,016.7,E,D*2D
$IIRMB,A,0.00,R,B,X,4714.072040,N,12225.414044,W,40.3,179,-7.66,V*0B
$GPRMB,A,2.35,L,,Lac,4823.3220,N,12229.7720,W,29.1,355,7.81,V*71
$PGRME,2.4,M,2.4,M,3.4,M*29
$IIVHW,,,,,7.01,N,,*1F
$P,740
$HCHDG,329.1,0.0,E,,*20
$P,780
$P,747
$HCHDG,329.1,0.0,E,,*20
$P,761
$P,736
$GPRMC,200324.8,A,4754.37607,N,12226.24306,W,008.30,340.0,080314,016.7,E,D*2E
$IIRMB,A,0.00,R,B,X,4714.072040,N,12225.414044,W,40.3,179,-7.84,V*07
$YXXDR,A,5.0,D,PTCH,A,13.7,D,ROLL*6D
$PTAK,FFD1,13.7*60
$PGRME,2.4,M,2.4,M,3.4,M*29
$IIVHW,,,,,7.11,N,,*1E
$P,748
$HCHDG,329.3,0.0,E,,*22
$P,724
$IIMWV,173,T,08.5,N,A*1D
$P,739
$HCHDG,329.3,0.0,E,,*22
$P,695
$IIRMB,A,2.35,L,,Lac ,,,,,029.1,355,,V,A*24
$P,734
$GPRMC,200325.0,A,4754.37650,N,12226.24333,W,008.23,336.6,080314,016.7,E,D*26
$IIRMB,A,0.00,R,B,X,4714.072040,N,12225.414044,W,40.3,179,-7.60,V*0D
$PGRME,2.4,M,2.4,M,3.4,M*29
$IIVHW,,,,,7.16,N,,*19
$HCHDG,329.8,0.0,E,,*29
$P,768
$P,792
$IIRMC,200300,A,4754.374,N,12226.242,W,08.0,345,080314,16,E,A*1F
$IIRMB,A,0.00,R,B,X,4714.072040,N,12225.414044,W,40.3,179,-7.76,V*0A
$P,745
$HCHDG,330.1,0.0,E,,*28
$P,794
$P,824
$GPRMC,200325.2,A,4754.37697,N,12226.24368,W,008.43,335.8,080314,016.7,E,D*2A
$IIRMB,A,0.00,R,B,X,4714.072040,N,12225.414044,W,40.3,179,-7.74,V*08
$PGRME,2.4,M,2.4,M,3.4,M*29
$IIVHW,,,,,7.31,N,,*1C
$IIVLW,06480,N,000.0,N*59
$P,902
$HCHDG,330.7,0.0,E,,*2E
$P,890
$IIVWR,170,R,08.5,N,,,,*6A
$P,923
$YXXDR,A,5.2,D,PTCH,A,18.4,D,ROLL*67
$P,920
$P,948
$HCHDG,330.8,0.0,E,,*21
$IIGLL,4754.374,N,12226.242,W,200300,A,A*40
$P,940
$GPRMC,200325.4,A,4754.37744,N,12226.24403,W,008.21,335.3,080314,016.7,E,D*26
$IIRMB,A,0.00,R,B,X,4714.072040,N,12225.414044,W,40.3,179,-7.51,V*0F
$PGRME,2.4,M,2.4,M,3.4,M*29
$IIVHW,,,,,6.75,N,,*1D
$P,988
$IIMWV,170,R,08.5,N,A*18
$HCHDG,331.2,0.0,E,,*2A
$P,937
$P,959
$P,907
$HCHDG,331.3,0.0,E,,*2B
$P,926
$P,865
$GPRMC,200325.6,A,4754.37783,N,12226.24439,W,008.22,333.6,080314,016.7,E,D*26
$IIRMB,A,0.00,R,B,X,4714.072040,N,12225.414044,W,40.3,179,-7.41,V*0E
$GPRMB,A,2.34,L,,Lac,4823.3220,N,12229.7720,W,29.1,355,7.63,V*7C
$IIVHW,,,,,8.23,N,,*10
$PGRME,2.4,M,2.4,M,3.4,M*29
$P,869
$HCHDG,331.5,0.0,E,,*2D
$P,797
$P,836
$HCHDG,331.4,0.0,E,,*2C
$P,815
$P,811
$GPRMC,200325.8,A,4754.37819,N,12226.24468,W,008.44,333.0,080314,016.7,E,D*26
$IIRMB,A,0.00,R,B,X,4714.072040,N,12225.414044,W,40.3,179,-7.57,V*09
$P,787
$YXXDR,A,5.1,D,PTCH,A,17.8,D,ROLL*67
$PTAK,FFD1,17.8*6B
$PGRME,2.4,M,2.4,M,3.4,M*29
$IIVHW,,,,,8.41,N,,*14
$P,833
$HCHDG,331.5,0.0,E,,*2D
$IIMWV,170,T,08.5,N,A*1E
$P,778
$P,766
$HCHDG,331.3,0.0,E,,*2B
$P,745
$IIRMB,A,2.35,L,,Lac ,,,,,029.1,355,,V,A*24
$GPRMC,200326.0,A,4754.37857,N,12226.24507,W,008.46,333.3,080314,016.7,E,D*2E
$IIRMB,A,0.00,R,B,X,4714.072040,N,12225.414044,W,40.3,179,-7.61,V*0C
$P,776
$PGRME,2.4,M,2.4,M,3.4,M*29
$IIVHW,,,,,8.39,N,,*1B
$HCHDG,331.1,0.0,E,,*29
$P,739
$P,765
$IIRMC,200300,A,4754.376,N,12226.243,W,08.2,336,080314,16,E,A*1A
$IIRMB,A,0.00,R,B,X,4714.072040,N,12225.414044,W,40.3,179,-7.54,V*0A
$P,783
$HCHDG,331.2,0.0,E,,*2A
$P,804
$P,752
$GPRMC,200326.2,A,4754.37893,N,12226.24530,W,008.43,333.9,080314,016.7,E,D*2F
$IIRMB,A,0.00,R,B,X,4714.072040,N,12225.414044,W,40.3,179,-7.62,V*0F
$IIVHW,,,,,8.36,N,,*14
$PGRME,2.4,M,2.4,M,3.4,M*29
$IIVLW,06480,N,000.0,N*59
$HCHDG,330.7,0.0,E,,*2E
$P,743
$IIVWR,172,R,08.5,N,,,,*68
$P,722
