$IIVDR,7.97,T,,,1.87,N*5D
$P,669
$GPRMC,200310.8,A,4754.34757,N,12226.22327,W,007.75,327.8,080314,016.7,E,D*2C
$IIRMB,A,0.00,L,B,X,470.019260,N,12226.594520,W,54.4,180,-6.54,V*24
$YXXDR,A,6.3,D,PTCH,A,9.3,D,ROLL*52
$PGRME,2.4,M,2.4,M,3.4,M*29
$IIVHW,,,,,6.45,N,,*1E
$P,678
$HCHDG,318.2,0.0,E,,*21
$PTAK,FFD1,*7B
$P,641
$P,679
$HCHDG,318.2,0.0,E,,*21
$PTAK,FFD1,*7B
$P,675
$IIRMC,200300,A,4754.345,N,12226.222,W,08.1,328,080314,16,E,A*11
$IIRMB,A,0.00,L,B,X,470.019260,N,12226.594520,W,54.4,180,-6.85,V*28
$P,718
$GPRMC,200311.0,A,4754.34792,N,12226.22365,W,007.91,328.9,080314,016.7,E,D*2E
$IIRMB,A,0.00,L,B,X,470.019260,N,12226.594520,W,54.4,180,-6.75,V*27
$IIVHW,,,,,6.50,N,,*1A
$PGRME,2.4,M,2.4,M,3.4,M*29
$HCHDG,318.2,0.0,E,,*21
$PTAK,FFD1,*7B
$P,683
$IIVLW,06480,N,000.0,N*59
$P,708
$IIVWR,161,L,08.6,N,,,,*77
$HCHDG,318.3,0.0,E,,*20
$PTAK,FFD1,*7B
$P,718
$IIDPT,015.3,-1.0,*47
$P,744
$GPRMC,200311.2,A,4754.34824,N,12226.22397,W,007.91,329.4,080314,016.7,E,D*2F
$IIRMB,A,0.00,L,B,X,470.019260,N,12226.594520,W,54.4,180,-6.79,V*2B
$GPRMB,A,2.36,L,,Lac,4823.3220,N,12229.7720,W,29.1,355,7.11,V*7B
$PGRME,2.4,M,2.4,M,3.4,M*29
$IIVHW,,,,,6.61,N,,*18
$P,694
$HCHDG,318.2,0.0,E,,*21
$PTAK,FFD1,*7B
$P,696
$IIGLL,4754.345,N,12226.222,W,200300,A,A*44
$P,698
$YXXDR,A,5.8,D,PTCH,A,8.7,D,ROLL*5F
$PTAK,FFD1,8.7*5A
$IIMWV,199,R,08.6,N,A*1C
$P,749
$HCHDG,318.1,0.0,E,,*22
$PTAK,FFD1,*7B
$IIMWV,205,T,08.6,N,A*1C
$P,716
$GPRMC,200311.4,A,4754.34855,N,12226.22427,W,008.16,331.6,080314,016.7,E,D*28
$IIRMB,A,0.00,L,B,X,470.019260,N,12226.594520,W,54.4,180,-7.16,V*23
$IIVHW,,,,,6.73,N,,*1B
$PGRME,2.4,M,2.4,M,3.4,M*29
$HCHDG,317.7,0.0,E,,*2B
$PTAK,FFD1,*7B
$P,733
$P,722
$P,764
$HCHDG,317.4,0.0,E,,*28
$PTAK,FFD1,*7B
$P,727
$P,735
$GPRMC,200311.6,A,4754.34893,N,12226.22453,W,008.33,333.8,080314,016.7,E,D*28
$IIRMB,A,0.00,L,B,X,470.019260,N,12226.594520,W,54.4,180,-7.46,V*26
$PGRME,2.4,M,2.4,M,3.4,M*29
$IIVHW,,,,,6.90,N,,*16
$HCHDG,317.2,0.0,E,,*2E
$PTAK,FFD1,*7B
$P,694
$P,724
$P,703
$HCHDG,317.0,0.0,E,,*2C
$PTAK,FFD1,*7B
$IIVDR,22.95,T,,,2.64,N*66
$P,758
$GPRMC,200311.8,A,4754.34934,N,12226.22478,W,008.39,337.1,080314,016.7,E,D*24
$IIRMB,A,0.00,L,B,X,470.019260,N,12226.594520,W,54.4,180,-7.71,V*22
$P,709
$YXXDR,A,4.4,D,PTCH,A,7.2,D,ROLL*58
$PGRME,2.4,M,2.4,M,3.4,M*29
$IIVHW,,,,,7.07,N,,*19
$P,747
$HCHDG,316.7,0.0,E,,*2A
$PTAK,FFD1,*7B
$P,710
$IIRMB,A,2.36,L,,Lac ,,,,,029.1,355,,V,A*27
$HCHDG,316.5,0.0,E,,*28
$PTAK,FFD1,*7B
$P,683
$P,655
$GPRMC,200312.0,A,4754.34985,N,12226.22509,W,008.40,336.6,080314,016.7,E,D*2A
$IIRMB,A,0.00,L,B,X,470.019260,N,12226.594520,W,54.4,180,-7.69,V*2B
$PTAK,FFP1,HEEL,@*07
$PGRME,2.4,M,2.4,M,3.4,M*29
$IIVHW,,,,,7.13,N,,*1C
$HCHDG,316.2,0.0,E,,*2F
$PTAK,FFD1,*7B
$P,678
$IIRMC,200300,A,4754.347,N,12226.223,W,07.9,328,080314,16,E,A*15
$IIRMB,A,0.00,L,B,X,470.019260,N,12226.594520,W,54.4,180,-6.68,V*2B
$P,645
$P,673
$HCHDG,316.0,0.0,E,,*2D
$PTAK,FFD1,*7B
$IIVLW,06480,N,000.0,N*59
$P,671
$GPRMC,200312.2,A,4754.35023,N,12226.22542,W,008.00,334.1,080314,016.7,E,D*22
$IIRMB,A,0.00,L,B,X,470.019260,N,12226.594520,W,54.4,180,-7.18,V*2D
$PGRME,2.4,M,2.4,M,3.4,M*29
$P,708
$IIVHW,,,,,7.06,N,,*18
$IIVWR,158,L,08.6,N,,,,*7D
$HCHDG,316.2,0.0,E,,*2F
$PTAK,FFD1,*7B
$P,702
$IIDPT,015.3,-1.0,*47
$P,786
$YXXDR,A,5.1,D,PTCH,A,6.9,D,ROLL*56
$P,782
$HCHDG,316.6,0.0,E,,*2B
$PTAK,FFD1,*7B
$IIGLL,4754.347,N,12226.223,W,200300,A,A*47
$P,790
$GPRMC,200312.4,A,4754.35072,N,12226.22573,W,008.02,333.0,080314,016.7,E,D*26
$IIRMB,A,0.00,L,B,X,470.019260,N,12226.594520,W,54.4,180,-7.13,V*26
$IIMWV,202,R,08.6,N,A*1D
$P,739
$IIVHW,,,,,7.17,N,,*18
$PGRME,2.4,M,2.4,M,3.4,M*29
$HCHDG,316.8,0.0,E,,*25
$PTAK,FFD1,*7B
$P,754
$P,733
$HCHDG,317.1,0.0,E,,*2D
$PTAK,FFD1,*7B
$P,775
$P,742
$GPRMC,200312.6,A,4754.35112,N,12226.22607,W,008.08,332.0,080314,016.7,E,D*28
$IIRMB,A,0.00,L,B,X,470.019260,N,12226.594520,W,54.4,180,-7.12,V*27
$GPRMB,A,2.36,L,,Lac,4823.3220,N,12229.7720,W,29.1,355,7.42,V*7D
$PGRME,2.4,M,2.4,M,3.4,M*29
$IIVHW,,,,,7.24,N,,*18
$P,733
$HCHDG,317.6,0.0,E,,*2A
$PTAK,FFD1,*7B
$P,693
$P,731
$HCHDG,318.2,0.0,E,,*21
$PTAK,FFD1,*7B
$IIVDR,30.73,T,,,2.02,N*6D
$P,692
$P,697
$GPRMC,200312.8,A,4754.35150,N,12226.22642,W,008.11,328.3,080314,016.7,E,D*21
$IIRMB,A,0.00,L,B,X,470.019260,N,12226.594520,W,54.4,180,-6.88,V*25
$YXXDR,A,6.2,D,PTCH,A,8.2,D,ROLL*53
$PTAK,FFD1,8.2*5F
$PGRME,2.4,M,2.4,M,3.4,M*29
$IIVHW,,,,,7.20,N,,*1C
$P,654
$HCHDG,318.7,0.0,E,,*24
$PTAK,FFD1,*7B
$IIMWV,202,T,08.6,N,A*1B
$P,653
$HCHDG,319.4,0.0,E,,*26
$PTAK,FFD1,*7B
$P,601
$IIRMB,A,2.36,L,,Lac ,,,,,029.1,355,,V,A*27
$P,612
$GPRMC,200313.0,A,4754.35181,N,12226.22669,W,008.33,326.8,080314,016.7,E,D*28
$IIRMB,A,0.00,L,B,X,470.019260,N,12226.594520,W,54.4,180,-6.95,V*29
$PGRME,2.4,M,2.4,M,3.4,M*29
$IIVHW,,,,,7.02,N,,*1C
$HCHDG,319.8,0.0,E,,*2A
$PTAK,FFD1,*7B
$P,609
$P,637
$IIRMC,200300,A,4754.349,N,12226.225,W,08.4,336,080314,16,E,A*10
$IIRMB,A,0.00,L,B,X,470.019260,N,12226.594520,W,54.4,180,-7.66,V*24
$HCHDG,320.4,0.0,E,,*2C
$PTAK,FFD1,*7B
$P,650
$P,737
$GPRMC,200313.2,A,4754.35221,N,12226.22701,W,008.40,327.9,080314,016.7,E,D*28
$IIRMB,A,0.00,L,B,X,470.019260,N,12226.594520,W,54.4,180,-7.10,V*25
$PGRME,2.4,M,2.4,M,3.4,M*29
$IIVLW,06480,N,000.0,N*59
$IIVHW,,,,,6.94,N,,*12
$P,716
$HCHDG,320.5,0.0,E,,*2D
$PTAK,FFD1,*7B
$P,715
$IIVWR,162,L,08.4,N,,,,*76
$YXXDR,A,7.0,D,PTCH,A,9.1,D,ROLL*52
$P,680
$P,669
$HCHDG,320.7,0.0,E,,*2F
$PTAK,FFD1,*7B
$IIGLL,4754.349,N,12226.225,W,200300,A,A*4F
$P,692
$GPRMC,200313.4,A,4754.35261,N,12226.22730,W,008.41,328.4,080314,016.7,E,D*2B
$IIRMB,A,0.00,L,B,X,470.019260,N,12226.594520,W,54.4,180,-7.14,V*21
$PGRME,2.4,M,2.4,M,3.4,M*29
$IIVHW,,,,,6.96,N,,*10
$IIMWV,198,R,08.4,N,A*1F
$HCHDG,320.5,0.0,E,,*2D
$PTAK,FFD1,*7B
$P,728
$P,701
$P,709
$HCHDG,320.5,0.0,E,,*2D
$PTAK,FFD1,*7B
$P,689
$GPRMC,200313.6,A,4754.35299,N,12226.22767,W,008.24,328.1,080314,016.7,E,D*2A
$IIRMB,A,0.00,L,B,X,470.019260,N,12226.594520,W,54.4,180,-6.98,V*24
$PGRME,2.4,M,2.4,M,3.4,M*29
$IIVHW,,,,,6.91,N,,*17
$P,712
$HCHDG,320.4,0.0,E,,*2C
$PTAK,FFD1,*7B
$P,667
$P,676
$HCHDG,320.1,0.0,E,,*29
$PTAK,FFD1,*7B
$IIVDR,2.64,T,,,1.70,N*5C
$P,654
$P,698
$GPRMC,200313.8,A,4754.35334,N,12226.22796,W,008.31,331.0,080314,016.7,E,D*21
$IIRMB,A,0.00,L,B,X,470.019260,N,12226.594520,W,54.4,180,-7.25,V*23
$GPRMB,A,2.36,L,,Lac,4823.3220,N,12229.7720,W,29.1,355,7.57,V*79
$YXXDR,A,6.2,D,PTCH,A,6.2,D,ROLL*5D
$PTAK,FFD1,6.2*51
$PGRME,2.4,M,2.4,M,3.4,M*29
$IIVHW,,,,,6.82,N,,*15
$P,692
$HCHDG,319.7,0.0,E,,*25
$PTAK,FFD1,*7B
$IIMWV,198,T,08.4,N,A*19
$P,746
$P,733
$HCHDG,319.3,0.0,E,,*21
$PTAK,FFD1,*7B
$P,779
$IIRMB,A,2.36,L,,Lac ,,,,,029.1,355,,V,A*27
$P,757
$GPRMC,200314.0,A,4754.35380,N,12226.22828,W,008.38,333.5,080314,016.7,E,D*25
$IIRMB,A,0.00,L,B,X,470.019260,N,12226.594520,W,54.4,180,-7.48,V*28
$PGRME,2.4,M,2.4,M,3.4,M*29
$IIVHW,,,,,6.93,N,,*15
$HCHDG,318.9,0.0,E,,*2A
$PTAK,FFD1,*7B
$P,767
$P,720
$IIRMC,200300,A,4754.349,N,12226.225,W,08.4,336,080314,16,E,A*10
$IIRMB,A,0.00,L,B,X,470.019260,N,12226.594520,W,54.4,180,-7.66,V*24
$P,769
$HCHDG,318.4,0.0,E,,*27
$PTAK,FFD1,*7B
$P,743
$GPRMC,200314.2,A,4754.35421,N,12226.22862,W,008.40,334.5,080314,016.7,E,D*2D
$IIRMB,A,0.00,L,B,X,470.019260,N,12226.594520,W,54.4,180,-7.57,V*26
$P,773
$IIVLW,06480,N,000.0,N*59
$PGRME,2.4,M,2.4,M,3.4,M*29
$IIVHW,,,,,7.08,N,,*16
$HCHDG,317.9,0.0,E,,*25
$PTAK,FFD1,*7B
$P,744
$IIVWR,162,L,08.6,N,,,,*74
$P,745
$YXXDR,A,5.6,D,PTCH,A,3.3,D,ROLL*5E
$P,741
$HCHDG,317.4,0.0,E,,*28
$PTAK,FFD1,*7B
$IIGLL,4754.349,N,12226.225,W,200300,A,A*4F
$P,744
$GPRMC,200314.4,A,4754.35461,N,12226.22889,W,008.08,335.2,080314,016.7,E,D*20
$IIRMB,A,0.00,L,B,X,470.019260,N,12226.594520,W,54.4,180,-7.32,V*25
$PGRME,2.4,M,2.4,M,3.4,M*29
$P,716
$IIVHW,,,,,7.24,N,,*18
$IIMWV,198,R,08.6,N,A*1D
$HCHDG,317.3,0.0,E,,*2F
$PTAK,FFD1,*7B
$P,732
$P,705
$HCHDG,317.2,0.0,E,,*2E
$PTAK,FFD1,*7B
$P,742
$P,684
$GPRMC,200314.6,A,4754.35503,N,12226.22918,W,008.36,335.1,080314,016.7,E,D*20
$IIRMB,A,0.00,L,B,X,470.019260,N,12226.594520,W,54.4,180,-7.57,V*26
$PGRME,2.4,M,2.4,M,3.4,M*29
$IIVHW,,,,,7.26,N,,*1A
$HCHDG,317.0,0.0,E,,*2C
$PTAK,FFD1,*7B
$P,700
$P,673
$P,706
$HCHDG,317.1,0.0,E,,*2D
$PTAK,FFD1,*7B
$IIVDR,32.13,T,,,2.67,N*6A
$P,662
$GPRMC,200314.8,A,4754.35545,N,12226.22946,W,008.08,332.5,080314,016.7,E,D*29
$IIRMB,A,0.00,L,B,X,470.019260,N,12226.594520,W,54.4,180,-7.15,V*20
$P,707
$YXXDR,A,5.0,D,PTCH,A,3.2,D,ROLL*59
$PGRME,2.4,M,2.4,M,3.4,M*29
$IIVHW,,,,,7.20,N,,*1C
$P,669
$HCHDG,317.3,0.0,E,,*2F
$PTAK,FFD1,*7B
$IIMWV,198,T,08.6,N,A*1B
$P,683
$HCHDG,317.7,0.0,E,,*2B
$PTAK,FFD1,*7B
$P,668
$IIRMB,A,2.36,L,,Lac ,,,,,029.1,355,,V,A*27
$P,705
$GPRMC,200315.0,A,4754.35587,N,12226.22974,W,008.01,331.8,080314,016.7,E,D*28
$IIRMB,A,0.00,L,B,X,470.019260,N,12226.594520,W,54.4,180,-7.04,V*20
$GPRMB,A,2.35,L,,Lac,4823.3220,N,12229.7720,W,29.1,355,7.34,V*7F
$PGRME,2.4,M,2.4,M,3.4,M*29
$IIVHW,,,,,7.17,N,,*18
$HCHDG,317.9,0.0,E,,*25
$PTAK,FFD1,*7B
$P,676
$P,677
$IIRMC,200300,A,4754.353,N,12226.228,W,08.3,333,080314,16,E,A*14
$IIRMB,A,0.00,L,B,X,470.019260,N,12226.594520,W,54.4,180,-7.38,V*2F
$P,674
$HCHDG,318.3,0.0,E,,*20
$PTAK,FFD1,*7B
$P,725
$GPRMC,200315.2,A,4754.35629,N,12226.23000,W,008.02,332.4,080314,016.7,E,D*2A
$IIRMB,A,0.00,L,B,X,470.019260,N,12226.594520,W,54.4,180,-7.09,V*2D
$P,686
$PGRME,2.4,M,2.4,M,3.4,M*29
$IIVLW,06480,N,000.0,N*59
$IIVHW,,,,,7.05,N,,*1B
$HCHDG,318.4,0.0,E,,*27
$PTAK,FFD1,*7B
$P,694
$IIVWR,159,L,08.8,N,,,,*72
$P,649
$YXXDR,A,5.4,D,PTCH,A,3.6,D,ROLL*59
$PTAK,FFD1,3.6*50
$P,684
$HCHDG,318.4,0.0,E,,*27
$PTAK,FFD1,*7B
$IIGLL,4754.353,N,12226.228,W,200300,A,A*49
$P,664
$GPRMC,200315.4,A,4754.35666,N,12226.23029,W,008.08,331.5,080314,016.7,E,D*24
$IIRMB,A,0.00,L,B,X,470.019260,N,12226.594520,W,54.4,180,-7.08,V*2C
$IIVHW,,,,,6.92,N,,*14
$PGRME,2.4,M,2.4,M,3.4,M*29
$IIMWV,201,R,08.8,N,A*10
$HCHDG,318.8,0.0,E,,*2B
$PTAK,FFD1,*7B
$P,687
$P,670
$P,749
$HCHDG,319.0,0.0,E,,*22
$PTAK,FFD1,*7B
$P,729
$GPRMC,200315.6,A,4754.35708,N,12226.23057,W,008.14,330.0,080314,016.7,E,D*2F
$IIRMB,A,0.00,L,B,X,470.019260,N,12226.594520,W,54.4,180,-7.03,V*27
$P,747
$PGRME,2.4,M,2.4,M,3.4,M*29
$IIVHW,,,,,6.96,N,,*10
$HCHDG,319.2,0.0,E,,*20
$PTAK,FFD1,*7B
$P,741
$P,778
$P,708
$HCHDG,319.3,0.0,E,,*21
$PTAK,FFD1,*7B
$PTAK,FFP1,*6F
$IIVDR,14.81,T,,,1.83,N*6C
$P,722
$GPRMC,200315.8,A,4754.35745,N,12226.23088,W,008.35,330.6,080314,016.7,E,D*2F
$IIRMB,A,0.00,L,B,X,470.019260,N,12226.594520,W,54.4,180,-7.26,V*20
$PGRME,2.4,M,2.4,M,3.4,M*29
$IIVHW,,,,,7.00,N,,*1E
$YXXDR,A,5.9,D,PTCH,A,3.6,D,ROLL*54
$P,724
$P,756
$HCHDG,319.5,0.0,E,,*27
$PTAK,FFD1,*7B
$IIMWV,201,T,08.8,N,A*16
$P,750
$HCHDG,319.7,0.0,E,,*25
$PTAK,FFD1,*7B
$P,775
$IIRMB,A,2.35,L,,Lac ,,,,,029.1,355,,V,A*24
$P,729
$GPRMC,200316.0,A,4754.35788,N,12226.23110,W,008.29,332.2,080314,016.7,E,D*2E
$IIRMB,A,0.00,L,B,X,470.019260,N,12226.594520,W,54.4,180,-7.32,V*25
$PGRME,2.4,M,2.4,M,3.4,M*29
$IIVHW,,,,,7.11,N,,*1E
$PTAK,FFP1,HEEL,@*07
$P,731
$HCHDG,319.9,0.0,E,,*2B
$PTAK,FFD1,*7B
$P,694
$IIRMC,200300,A,4754.355,N,12226.229,W,08.0,331,080314,16,E,A*12
$IIRMB,A,0.00,L,B,X,470.019260,N,12226.594520,W,54.4,180,-6.98,V*24
$P,739
$HCHDG,319.4,0.0,E,,*26
$PTAK,FFD1,*7B
$P,740
$P,787
$GPRMC,200316.2,A,4754.35835,N,12226.23130,W,008.26,337.3,080314,016.7,E,D*2C
$IIRMB,A,0.00,L,B,X,470.019260,N,12226.594520,W,54.4,180,-7.61,V*23
$GPRMB,A,2.35,L,,Lac,4823.3220,N,12229.7720,W,29.1,355,7.85,V*75
$PGRME,2.4,M,2.4,M,3.4,M*29
$IIVLW,06480,N,000.0,N*59
$IIVHW,,,,,7.19,N,,*16
$P,746
$HCHDG,318.9,0.0,E,,*2A
$PTAK,FFD1,*7B
$P,808
$IIVWR,162,L,08.8,N,,,,*7A
$YXXDR,A,5.0,D,PTCH,A,3.3,D,ROLL*58
$PTAK,FFD1,3.3*55
$P,748
$P,769
$HCHDG,318.0,0.0,E,,*23
$PTAK,FFD1,*7B
$IIGLL,4754.355,N,12226.229,W,200300,A,A*4E
$P,738
$GPRMC,200316.4,A,4754.35877,N,12226.23155,W,008.98,338.0,080314,016.7,E,D*26
$IIRMB,A,0.00,L,B,X,470.019260,N,12226.594520,W,54.4,180,-8.31,V*29
$PGRME,2.4,M,2.4,M,3.4,M*29
$IIVHW,,,,,7.33,N,,*1E
$IIMWV,198,R,08.8,N,A*13
$HCHDG,317.4,0.0,E,,*28
$PTAK,FFD1,*7B
$P,744
$P,684
$P,699
$HCHDG,317.1,0.0,E,,*2D
$PTAK,FFD1,*7B
$P,660
$GPRMC,200316.6,A,4754.35921,N,12226.23184,W,008.60,335.4,080314,016.7,E,D*24
$IIRMB,A,0.00,L,B,X,470.019260,N,12226.594520,W,54.4,180,-7.80,V*2C
$P,669
$PGRME,2.4,M,2.4,M,3.4,M*29
$IIVHW,,,,,7.33,N,,*1E
$HCHDG,317.2,0.0,E,,*2E
$PTAK,FFD1,*7B
$P,650
$P,685
$HCHDG,317.2,0.0,E,,*2E
$PTAK,FFD1,*7B
$IIVDR,29.84,T,,,2.81,N*66
$P,672
$P,711
$GPRMC,200316.8,A,4754.35968,N,12226.23206,W,008.52,334.3,080314,016.7,E,D*29
$IIRMB,A,0.00,L,B,X,470.019260,N,12226.594520,W,54.4,180,-7.66,V*24
$YXXDR,A,5.2,D,PTCH,A,4.2,D,ROLL*5C
$PGRME,2.4,M,2.4,M,3.4,M*29
$IIVHW,,,,,7.23,N,,*1F
$P,692
$HCHDG,317.6,0.0,E,,*2A
$PTAK,FFD1,*7B
$P,697
$P,672
$HCHDG,318.0,0.0,E,,*23
$PTAK,FFD1,*7B
$P,799
$P,890
$GPRMC,200317.0,A,4754.36010,N,12226.23225,W,008.31,331.4,080314,016.7,E,D*23
$IIRMB,A,0.00,L,B,X,470.019260,N,12226.594520,W,54.4,180,-7.28,V*2E
$PGRME,2.4,M,2.4,M,3.4,M*29
$IIVHW,,,,,7.29,N,,*15
$HCHDG,318.4,0.0,E,,*27
$PTAK,FFD1,*7B
$P,980
$P,990
$P,996
$P,926
$HCHDG,319.0,0.0,E,,*22
$PTAK,FFD1,*7B
$P,924
$P,867
$GPRMC,200317.2,A,4754.36051,N,12226.23247,W,008.59,330.2,080314,016.7,E,D*29
$IIRMB,A,0.00,L,B,X,470.019260,N,12226.594520,W,54.4,180,-7.43,V*23
$GPRMB,A,2.35,L,,Lac,4823.3220,N,12229.7720,W,29.1,355,7.78,V*77
$PGRME,2.4,M,2.4,M,3.4,M*29
$IIVHW,,,,,7.77,N,,*1E
$P,885
$HCHDG,319.3,0.0,E,,*21
$PTAK,FFD1,*7B
$P,843
$P,845
$YXXDR,A,5.2,D,PTCH,A,8.7,D,ROLL*55
$P,778
$HCHDG,319.5,0.0,E,,*27
$PTAK,FFD1,*7B
$P,761
$GPRMC,200317.4,A,4754.36086,N,12226.23283,W,008.34,328.6,080314,016.7,E,D*2B
$IIRMB,A,0.00,L,B,X,470.019260,N,12226.594520,W,54.4,180,-7.10,V*25
$IIVHW,,,,,7.95,N,,*12
$PGRME,2.4,M,2.4,M,3.4,M*29
$P,721
$HCHDG,320.0,0.0,E,,*28
$PTAK,FFD1,*7B
$P,770
$P,747
$HCHDG,320.2,0.0,E,,*2A
$PTAK,FFD1,*7B
$P,773
$P,741
$GPRMC,200317.6,A,4754.36128,N,12226.23321,W,008.67,329.5,080314,016.7,E,D*21
$IIRMB,A,0.00,L,B,X,470.019260,N,12226.594520,W,54.4,180,-7.45,V*25
$PGRME,2.4,M,2.4,M,3.4,M*29
$IIVHW,,,,,7.91,N,,*16
$P,766
$HCHDG,320.2,0.0,E,,*2A
$PTAK,FFD1,*7B
$IIVDR,25.45,T,,,1.54,N*6C
$P,704
$P,736
$HCHDG,320.2,0.0,E,,*2A
$PTAK,FFD1,*7B
$P,701
$P,746
$GPRMC,200317.8,A,4754.36167,N,12226.23371,W,008.65,329.7,080314,016.7,E,D*21
$IIRMB,A,0.00,L,B,X,470.019260,N,12226.594520,W,54.4,180,-7.45,V*25
$YXXDR,A,5.1,D,PTCH,A,9.2,D,ROLL*52
$PTAK,FFD1,9.2*5E
$PGRME,2.4,M,2.4,M,3.4,M*29
$IIVHW,,,,,7.91,N,,*16
$P,719
$HCHDG,320.2,0.0,E,,*2A
$PTAK,FFD1,*7B
$IIMWV,198,T,08.8,N,A*15
$P,755
$P,751
$HCHDG,320.5,0.0,E,,*2D
$PTAK,FFD1,*7B
$P,771
$IIRMB,A,2.35,L,,Lac ,,,,,029.1,355,,V,A*24
$P,724
$GPRMC,200318.0,A,4754.36208,N,12226.23408,W,008.70,329.0,080314,016.7,E,D*26
$IIRMB,A,0.00,L,B,X,470.019260,N,12226.594520,W,54.4,180,-7.44,V*24
$PGRME,2.4,M,2.4,M,3.4,M*29
$IIVHW,,,,,7.94,N,,*13
$HCHDG,320.3,0.0,E,,*2B
$PTAK,FFD1,*7B
$P,743
$P,757
$IIRMC,200300,A,4754.357,N,12226.231,W,08.2,332,080314,16,E,A*18
$IIRMB,A,0.00,L,B,X,470.019260,N,12226.594520,W,54.4,180,-7.22,V*24
$P,791
$HCHDG,320.6,0.0,E,,*2E
$PTAK,FFD1,*7B
$P,771
$P,799
$GPRMC,200318.2,A,4754.36252,N,12226.23444,W,008.65,328.2,080314,016.7,E,D*24
$IIRMB,A,0.00,L,B,X,470.019260,N,12226.594520,W,54.4,180,-7.33,V*24
$GPRMB,A,2.35,L,,Lac,4823.3220,N,12229.7720,W,29.1,355,7.70,V*7F
$IIVLW,06480,N,000.0,N*59
$PGRME,2.4,M,2.4,M,3.4,M*29
$IIVHW,,,,,7.87,N,,*11
$HCHDG,320.9,0.0,E,,*21
$PTAK,FFD1,*7B
$P,797
$IIVWR,166,L,08.8,N,,,,*7E
$P,791
$YXXDR,A,5.4,D,PTCH,A,8.8,D,ROLL*5C
$P,744
$P,800
$HCHDG,321.0,0.0,E,,*29
$PTAK,FFD1,*7B
$IIGLL,4754.357,N,12226.231,W,200300,A,A*45
$P,764
$GPRMC,200318.4,A,4754.36294,N,12226.23484,W,008.62,328.0,080314,016.7,E,D*21
$IIRMB,A,0.00,L,B,X,470.019260,N,12226.594520,W,54.4,180,-7.29,V*2F
$PGRME,2.4,M,2.4,M,3.4,M*29
$IIVHW,,,,,7.65,N,,*1D
$IIMWV,194,R,08.8,N,A*1F
$HCHDG,321.2,0.0,E,,*2B
$PTAK,FFD1,*7B
$P,795
$P,742
$P,780
$HCHDG,321.3,0.0,E,,*2A
$PTAK,FFD1,*7B
$P,767
$P,791
$GPRMC,200318.6,A,4754.36337,N,12226.23530,W,008.62,327.7,080314,016.7,E,D*2D
$IIRMB,A,0.00,L,B,X,470.019260,N,12226.594520,W,54.4,180,-7.27,V*21
$PGRME,2.4,M,2.4,M,3.4,M*29
$IIVHW,,,,,7.61,N,,*19
$HCHDG,321.6,0.0,E,,*2F
$PTAK,FFD1,*7B
$IIVDR,5.22,T,,,1.33,N*5E
$P,749
$P,767
$P,722
$HCHDG,322.0,0.0,E,,*2A
$PTAK,FFD1,*7B
$P,738
$P,696
$YXXDR,A,5.4,D,PTCH,A,8.1,D,ROLL*55
$GPRMC,200318.8,A,4754.36375,N,12226.23583,W,008.80,327.6,080314,016.7,E,D*20
$IIRMB,A,0.00,L,B,X,470.019260,N,12226.594520,W,54.4,180,-7.41,V*21
$PGRME,2.4,M,2.4,M,3.4,M*29
$IIVHW,,,,,7.58,N,,*13
$P,735
$HCHDG,322.2,0.0,E,,*28
$PTAK,FFD1,*7B
$IIMWV,190,T,08.9,N,A*1C
$P,747
$P,815
$HCHDG,322.5,0.0,E,,*2F
$PTAK,FFD1,*7B
$P,776
$IIRMB,A,2.35,L,,Lac ,,,,,029.1,355,,V,A*24
$P,783
$GPRMC,200319.0,A,4754.36418,N,12226.23639,W,008.78,329.5,080314,016.7,E,D*2D
$IIRMB,A,0.00,L,B,X,470.019260,N,12226.594520,W,54.4,180,-7.54,V*25
$PGRME,2.4,M,2.4,M,3.4,M*29
$IIVHW,,,,,7.62,N,,*1A
$HCHDG,322.7,0.0,E,,*2D
$PTAK,FFD1,*7B
$P,738
$P,760
$IIRMC,200300,A,4754.362,N,12226.234,W,08.7,329,080314,16,E,A*14
$IIRMB,A,0.00,L,B,X,470.019260,N,12226.594520,W,54.4,180,-7.44,V*24
$P,732
$HCHDG,322.7,0.0,E,,*2D
$PTAK,FFD1,*7B
$P,768
$GPRMC,200319.2,A,4754.36460,N,12226.23679,W,008.77,330.6,080314,016.7,E,D*20
$IIRMB,A,0.00,L,B,X,470.019260,N,12226.594520,W,54.4,180,-7.62,V*20
$P,737
$PGRME,2.4,M,2.4,M,3.4,M*29
$IIVHW,,,,,7.61,N,,*19
$IIVLW,06480,N,000.0,N*59
$HCHDG,322.7,0.0,E,,*2D
$PTAK,FFD1,*7B
$P,759
$IIVWR,168,L,08.9,N,,,,*71
$P,740
$YXXDR,A,6.1,D,PTCH,A,5.0,D,ROLL*5F
$PTAK,FFD1,5.0*50
$P,738
$HCHDG,322.5,0.0,E,,*2F
$PTAK,FFD1,*7B
$IIGLL,4754.362,N,12226.234,W,200300,A,A*46
$P,694
$GPRMC,200319.4,A,4754.36510,N,12226.23718,W,008.70,330.6,080314,016.7,E,D*21
$IIRMB,A,0.00,L,B,X,470.019260,N,12226.594520,W,54.4,180,-7.56,V*27
$GPRMB,A,2.35,L,,Lac,4823.3220,N,12229.7720,W,29.1,355,7.90,V*71
$PGRME,2.4,M,2.4,M,3.4,M*29
$IIVHW,,,,,7.52,N,,*19
$P,731
$IIMWV,192,R,08.9,N,A*18
$HCHDG,322.4,0.0,E,,*2E
$PTAK,FFD1,*7B
$P,708
$P,737
$HCHDG,322.7,0.0,E,,*2D
$PTAK,FFD1,*7B
$P,703
$P,751
$GPRMC,200319.6,A,4754.36552,N,12226.23744,W,008.76,330.9,080314,016.7,E,D*25
$IIRMB,A,0.00,L,B,X,470.019260,N,12226.594520,W,54.4,180,-7.64,V*26
$PGRME,2.4,M,2.4,M,3.4,M*29
$IIVHW,,,,,7.46,N,,*1C
$HCHDG,323.0,0.0,E,,*2B
$PTAK,FFD1,*7B
$IIVDR,7.70,T,,,1.71,N*5D
$P,710
$P,754
$P,728
$HCHDG,323.1,0.0,E,,*2A
$PTAK,FFD1,*7B
$P,728
$P,736
$GPRMC,200319.8,A,4754.36591,N,12226.23773,W,008.48,330.5,080314,016.7,E,D*21
$IIRMB,A,0.00,L,B,X,470.019260,N,12226.594520,W,54.4,180,-7.36,V*21
$YXXDR,A,6.0,D,PTCH,A,2.2,D,ROLL*5B
$PGRME,2.4,M,2.4,M,3.4,M*29
$IIVHW,,,,,7.39,N,,*14
$P,755
$HCHDG,323.2,0.0,E,,*29
$PTAK,FFD1,*7B
$IIMWV,192,T,08.9,N,A*1E
$P,725
$P,744
$HCHDG,323.5,0.0,E,,*2E
$PTAK,FFD1,*7B
$P,710
$IIRMB,A,2.35,L,,Lac ,,,,,029.1,355,,V,A*24
$GPRMC,200320.0,A,4754.36630,N,12226.23802,W,008.48,332.1,080314,016.7,E,D*24
$IIRMB,A,0.00,L,B,X,470.019260,N,12226.594520,W,54.4,180,-7.48,V*28
$P,721
$PGRME,2.4,M,2.4,M,3.4,M*29
$IIVHW,,,,,7.37,N,,*1A
$HCHDG,323.4,0.0,E,,*2F
$PTAK,FFD1,*7B
$P,683
$P,717
$IIRMC,200300,A,4754.364,N,12226.236,W,08.7,329,080314,16,E,A*10
$IIRMB,A,0.00,L,B,X,470.019260,N,12226.594520,W,54.4,180,-7.44,V*24
$HCHDG,323.6,0.0,E,,*2D
$PTAK,FFD1,*7B
$PTAK,FFP1,HEEL,@*07
$P,680
$P,715
$GPRMC,200320.2,A,4754.36671,N,12226.23839,W,008.46,333.6,080314,016.7,E,D*23
$IIRMB,A,0.00,L,B,X,470.019260,N,12226.594520,W,54.4,180,-7.56,V*27
$IIVHW,,,,,7.26,N,,*1A
$PGRME,2.4,M,2.4,M,3.4,M*29
$IIVLW,06480,N,000.0,N*59
$P,702
$HCHDG,323.6,0.0,E,,*2D
$PTAK,FFD1,*7B
$P,759
$IIVWR,165,L,08.8,N,,,,*7D
$P,750
$YXXDR,A,5.7,D,PTCH,A,-1.0,D,ROLL*73
$PTAK,FFD1,1.0*54
$P,768
$HCHDG,323.4,0.0,E,,*2F
$PTAK,FFD1,*7B
$IIGLL,4754.364,N,12226.236,W,200300,A,A*42
$P,714
$GPRMC,200320.4,A,4754.36703,N,12226.23866,W,008.23,334.1,080314,016.7,E,D*28
$IIRMB,A,0.00,L,B,X,470.019260,N,12226.594520,W,54.4,180,-7.39,V*2E
$GPRMB,A,2.35,L,,Lac,4823.3220,N,12229.7720,W,29.1,355,7.67,V*79
$IIVHW,,,,,7.26,N,,*1A
$PGRME,2.4,M,2.4,M,3.4,M*29
$IIMWV,195,R,08.8,N,A*1E
$HCHDG,323.5,0.0,E,,*2E
$PTAK,FFD1,*7B
$P,711
$P,686
$P,759
$HCHDG,323.6,0.0,E,,*2D
$PTAK,FFD1,*7B
$P,736
$P,752
$GPRMC,200320.6,A,4754.36741,N,12226.23895,W,008.22,337.3,080314,016.7,E,D*20
$IIRMB,A,0.00,L,B,X,470.019260,N,12226.594520,W,54.4,180,-7.57,V*26
$PGRME,2.4,M,2.4,M,3.4,M*29
$IIVHW,,,,,7.26,N,,*1A
$HCHDG,323.7,0.0,E,,*2C
$PTAK,FFD1,*7B
$PTAK,FFP1,*6F
$IIVDR,33.02,T,,,2.07,N*6D
$P,717
$P,719
$P,724
$HCHDG,323.6,0.0,E,,*2D
$PTAK,FFD1,*7B
$P,767
$GPRMC,200320.8,A,4754.36784,N,12226.23912,W,008.00,338.8,080314,016.7,E,D*2D
$IIRMB,A,0.00,L,B,X,470.019260,N,12226.594520,W,54.4,180,-7.45,V*25
$P,748
$YXXDR,A,5.7,D,PTCH,A,-3.5,D,ROLL*74
$PGRME,2.4,M,2.4,M,3.4,M*29
$IIVHW,,,,,7.28,N,,*14
$P,755
$HCHDG,323.6,0.0,E,,*2D
$PTAK,FFD1,*7B
$IIMWV,195,T,08.8,N,A*18
$P,714
$HCHDG,323.3,0.0,E,,*28
$PTAK,FFD1,*7B
$P,719
$IIRMB,A,2.35,L,,Lac ,,,,,029.1,355,,V,A*24
$P,693
$GPRMC,200321.0,A,4754.36825,N,12226.23937,W,008.04,339.7,080314,016.7,E,D*2D
$IIRMB,A,0.00,L,B,X,470.019260,N,12226.594520,W,54.4,180,-7.53,V*22
$PGRME,2.4,M,2.4,M,3.4,M*29
$IIVHW,,,,,7.26,N,,*1A
$P,727
$HCHDG,323.6,0.0,E,,*2D
$PTAK,FFD1,*7B
$P,710
$P,729
$IIRMC,200300,A,4754.366,N,12226.238,W,08.4,332,080314,16,E,A*15
$IIRMB,A,0.00,L,B,X,470.019260,N,12226.594520,W,54.4,180,-7.40,V*20
$HCHDG,323.3,0.0,E,,*28
$PTAK,FFD1,*7B
$P,725
$P,757
$GPRMC,200321.2,A,4754.36864,N,12226.23959,W,008.08,342.4,080314,016.7,E,D*21
$IIRMB,A,0.00,L,B,X,470.019260,N,12226.594520,W,54.4,180,-7.69,V*2B
$PGRME,2.4,M,2.4,M,3.4,M*29
$IIVLW,06480,N,000.0,N*59
$IIVHW,,,,,7.26,N,,*1A
$HCHDG,323.4,0.0,E,,*2F
$PTAK,FFD1,*7B
$P,686
$IIVWR,163,L,08.9,N,,,,*7A
$P,678
$YXXDR,A,4.9,D,PTCH,A,-4.7,D,ROLL*7E
$P,633
$HCHDG,323.8,0.0,E,,*23
$PTAK,FFD1,*7B
$IIGLL,4754.366,N,12226.238,W,200300,A,A*4E
$P,647
$GPRMC,200321.4,A,4754.36904,N,12226.23976,W,007.59,342.1,080314,016.7,E,D*23
$IIRMB,A,0.00,L,B,X,470.019260,N,12226.594520,W,54.4,180,-7.21,V*27
$PGRME,2.4,M,2.4,M,3.4,M*29
$IIVHW,,,,,7.15,N,,*1A
$IIMWV,197,R,08.9,N,A*1D
$P,631
$HCHDG,323.8,0.0,E,,*23
$PTAK,FFD1,*7B
$P,663
$P,641
$HCHDG,323.9,0.0,E,,*22
$PTAK,FFD1,*7B
$P,701
$GPRMC,200321.6,A,4754.36941,N,12226.24003,W,007.60,343.4,080314,016.7,E,D*22
$IIRMB,A,0.00,L,B,X,470.019260,N,12226.594520,W,54.4,180,-7.27,V*21
$GPRMB,A,2.35,L,,Lac,4823.3220,N,12229.7720,W,29.1,355,7.43,V*7F
$P,662
$PGRME,2.4,M,2.4,M,3.4,M*29
$IIVHW,,,,,7.01,N,,*1F
$HCHDG,324.3,0.0,E,,*2F
$PTAK,FFD1,*7B
$IIVDR,50.35,T,,,2.49,N*66
$P,686
$P,655
$HCHDG,324.5,0.0,E,,*29
$PTAK,FFD1,*7B
$P,680
$P,646
$GPRMC,200321.8,A,4754.36981,N,12226.24025,W,007.54,342.9,080314,016.7,E,D*2F
$IIRMB,A,0.00,L,B,X,470.019260,N,12226.594520,W,54.4,180,-7.20,V*26
$YXXDR,A,5.0,D,PTCH,A,-3.7,D,ROLL*71
$PTAK,FFD1,3.7*51
$PGRME,2.4,M,2.4,M,3.4,M*29
$IIVHW,,,,,6.89,N,,*1E
$P,718
$HCHDG,324.5,0.0,E,,*29
$PTAK,FFD1,*7B
$P,685
$IIMWV,197,T,08.9,N,A*1B
$P,721
$HCHDG,324.8,0.0,E,,*24
$PTAK,FFD1,*7B
$P,699
$IIRMB,A,2.35,L,,Lac ,,,,,029.1,355,,V,A*24
$GPRMC,200322.0,A,4754.37015,N,12226.24044,W,007.52,342.9,080314,016.7,E,D*20
$IIRMB,A,0.00,L,B,X,470.019260,N,12226.594520,W,54.4,180,-7.18,V*2D
$P,690
$PGRME,2.4,M,2.4,M,3.4,M*29
$IIVHW,,,,,6.88,N,,*1F
$HCHDG,325.1,0.0,E,,*2C
$PTAK,FFD1,*7B
$P,654
$P,658
$IIRMC,200300,A,4754.368,N,12226.239,W,08.0,339,080314,16,E,A*15
$IIRMB,A,0.00,L,B,X,470.019260,N,12226.594520,W,54.4,180,-7.46,V*26
$HCHDG,325.2,0.0,E,,*2F
$PTAK,FFD1,*7B
$P,629
$P,681
$GPRMC,200322.2,A,4754.37055,N,12226.24063,W,007.84,342.3,080314,016.7,E,D*22
$IIRMB,A,0.00,L,B,X,470.019260,N,12226.594520,W,54.4,180,-7.46,V*26
$PGRME,2.4,M,2.4,M,3.4,M*29
$IIVHW,,,,,6.78,N,,*10
$IIVLW,06480,N,000.0,N*59
$HCHDG,325.4,0.0,E,,*29
$PTAK,FFD1,*7B
$P,654
$IIVWR,170,L,08.5,N,,,,*74
$P,667
$YXXDR,A,5.0,D,PTCH,A,-1.2,D,ROLL*76
$P,643
$HCHDG,325.9,0.0,E,,*24
$PTAK,FFD1,*7B
$IIGLL,4754.368,N,12226.239,W,200300,A,A*41
$P,665
$GPRMC,200322.4,A,4754.37091,N,12226.24095,W,007.65,340.7,080314,016.7,E,D*2C
$IIRMB,A,0.00,L,B,X,470.019260,N,12226.594520,W,54.4,180,-7.21,V*27
$IIVHW,,,,,6.68,N,,*11
$PGRME,2.4,M,2.4,M,3.4,M*29
$IIMWV,190,R,08.5,N,A*16
$HCHDG,326.4,0.0,E,,*2A
$PTAK,FFD1,*7B
$P,649
$P,691
$P,674
$HCHDG,326.9,0.0,E,,*27
$PTAK,FFD1,*7B
$P,693
$GPRMC,200322.6,A,4754.37128,N,12226.24123,W,007.65,339.5,080314,016.7,E,D*2D
$IIRMB,A,0.00,L,B,X,470.019260,N,12226.594520,W,54.4,180,-7.15,V*20
$GPRMB,A,2.35,L,,Lac,4823.3220,N,12229.7720,W,29.1,355,7.36,V*7D
$P,655
$PGRME,2.4,M,2.4,M,3.4,M*29
$IIVHW,,,,,6.71,N,,*19
$HCHDG,327.5,0.0,E,,*2A
$PTAK,FFD1,*7B
$IIVDR,31.59,T,,,1.77,N*65
$P,703
$P,688
$HCHDG,327.9,0.0,E,,*26
$PTAK,FFD1,*7B
$P,704
$P,681
$GPRMC,200322.8,A,4754.37165,N,12226.24144,W,007.65,339.6,080314,016.7,E,D*28
$IIRMB,A,0.00,L,B,X,470.019260,N,12226.594520,W,54.4,180,-7.16,V*23
$YXXDR,A,4.7,D,PTCH,A,2.2,D,ROLL*5E
$PGRME,2.4,M,2.4,M,3.4,M*29
$IIVHW,,,,,6.75,N,,*1D
$P,698
$HCHDG,328.4,0.0,E,,*24
$PTAK,FFD1,*7B
$IIMWV,190,T,08.5,N,A*10
$P,643
$P,691
$HCHDG,328.8,0.0,E,,*28
$PTAK,FFD1,*7B
$P,701
$IIRMB,A,2.35,L,,Lac ,,,,,029.1,355,,V,A*24
$GPRMC,200323.0,A,4754.37204,N,12226.24159,W,007.71,342.8,080314,016.7,E,D*2E
$IIRMB,A,0.00,L,B,X,470.019260,N,12226.594520,W,54.4,180,-7.36,V*21
$P,714
$IIVHW,,,,,6.79,N,,*11
$PGRME,2.4,M,2.4,M,3.4,M*29
$HCHDG,328.7,0.0,E,,*27
$PTAK,FFD1,*7B
$P,687
$P,742
$IIRMC,200300,A,4754.370,N,12226.240,W,07.5,342,080314,16,E,A*14
$IIRMB,A,0.00,L,B,X,470.019260,N,12226.594520,W,54.4,180,-7.12,V*27
$HCHDG,328.7,0.0,E,,*27
$PTAK,FFD1,*7B
$P,743
$P,731
$GPRMC,200323.2,A,4754.37250,N,12226.24172,W,007.78,344.5,080314,016.7,E,D*26
$IIRMB,A,0.00,L,B,X,470.019260,N,12226.594520,W,54.4,180,-7.49,V*29
$PGRME,2.4,M,2.4,M,3.4,M*29
$IIVHW,,,,,6.87,N,,*10
$IIVLW,06480,N,000.0,N*59
$P,727
$HCHDG,328.3,0.0,E,,*23
$PTAK,FFD1,*7B
$P,760
$IIVWR,179,L,08.5,N,,,,*7D
$P,719
$YXXDR,A,4.9,D,PTCH,A,3.1,D,ROLL*52
$PTAK,FFD1,3.1*57
$P,699
$HCHDG,328.1,0.0,E,,*21
$PTAK,FFD1,*7B
$IIGLL,4754.370,N,12226.240,W,200300,A,A*46
$P,677
$GPRMC,200323.4,A,4754.37294,N,12226.24178,W,007.57,346.6,080314,016.7,E,D*2E
$IIRMB,A,0.00,L,B,X,470.019260,N,12226.594520,W,54.4,180,-7.36,V*21
$PGRME,2.4,M,2.4,M,3.4,M*29
$IIVHW,,,,,6.96,N,,*10
$IIMWV,181,R,08.5,N,A*16
$HCHDG,327.9,0.0,E,,*26
$PTAK,FFD1,*7B
$P,729
$P,703
$P,714
$HCHDG,327.3,0.0,E,,*2C
$PTAK,FFD1,*7B
$P,674
$GPRMC,200323.6,A,4754.37338,N,12226.24183,W,007.62,346.4,080314,016.7,E,D*2B
$IIRMB,A,0.00,L,B,X,470.019260,N,12226.594520,W,54.4,180,-7.40,V*20
$GPRMB,A,2.35,L,,Lac,4823.3220,N,12229.7720,W,29.1,355,7.53,V*7E
$P,700
$PGRME,2.4,M,2.4,M,3.4,M*29
$IIVHW,,,,,7.01,N,,*1F
$HCHDG,327.4,0.0,E,,*2B
$PTAK,FFD1,*7B
$IIVDR,52.91,T,,,2.49,N*6A
$P,710
$P,734
$HCHDG,327.7,0.0,E,,*28
$PTAK,FFD1,*7B
$P,690
$P,704
$GPRMC,200323.8,A,4754.37378,N,12226.24193,W,007.60,345.8,080314,016.7,E,D*2D
$IIRMB,A,0.00,L,B,X,470.019260,N,12226.594520,W,54.4,180,-7.36,V*21
$YXXDR,A,5.0,D,PTCH,A,5.1,D,ROLL*5C
$PGRME,2.4,M,2.4,M,3.4,M*29
$IIVHW,,,,,7.05,N,,*1B
$P,677
$HCHDG,327.6,0.0,E,,*29
$PTAK,FFD1,*7B
$P,690
$IIMWV,181,T,08.5,N,A*10
$P,675
$HCHDG,327.5,0.0,E,,*2A
$PTAK,FFD1,*7B
$P,697
$IIRMB,A,2.35,L,,Lac ,,,,,029.1,355,,V,A*24
$GPRMC,200324.0,A,4754.37426,N,12226.24209,W,008.05,345.8,080314,016.7,E,D*22
$IIRMB,A,0.00,L,B,X,470.019260,N,12226.594520,W,54.4,180,-7.80,V*2C
$P,656
$PGRME,2.4,M,2.4,M,3.4,M*29
$IIVHW,,,,,7.03,N,,*1D
$HCHDG,327.5,0.0,E,,*2A
$PTAK,FFD1,*7B
$P,688
$P,656
$IIRMC,200300,A,4754.372,N,12226.241,W,07.7,342,080314,16,E,A*15
$IIRMB,A,0.00,L,B,X,470.019260,N,12226.594520,W,54.4,180,-7.31,V*26
$HCHDG,327.5,0.0,E,,*2A
$PTAK,FFD1,*7B
$PTAK,FFP1,HEEL,@*07
$P,678
$P,668
$GPRMC,200324.2,A,4754.37471,N,12226.24233,W,008.01,345.4,080314,016.7,E,D*23
$IIRMB,A,0.00,L,B,X,470.019260,N,12226.594520,W,54.4,180,-7.74,V*27
$PGRME,2.4,M,2.4,M,3.4,M*29
$IIVHW,,,,,6.97,N,,*11
$IIVLW,06480,N,000.0,N*59
$HCHDG,328.0,0.0,E,,*20
$PTAK,FFD1,*7B
$P,703
$IIVWR,173,R,08.5,N,,,,*69
$P,703
$YXXDR,A,5.1,D,PTCH,A,9.2,D,ROLL*52
$P,731
$HCHDG,328.3,0.0,E,,*23
$PTAK,FFD1,*7B
$P,721
$IIGLL,4754.372,N,12226.241,W,200300,A,A*45
$GPRMC,200324.4,A,4754.37514,N,12226.24264,W,008.07,342.0,080314,016.7,E,D*20
$IIRMB,A,0.00,L,B,X,470.019260,N,12226.594520,W,54.4,180,-7.66,V*24
$P,706
$IIVHW,,,,,6.98,N,,*1E
$PGRME,2.4,M,2.4,M,3.4,M*29
$IIMWV,173,R,08.5,N,A*1B
$HCHDG,328.6,0.0,E,,*26
$PTAK,FFD1,*7B
$P,675
$P,722
$HCHDG,328.9,0.0,E,,*29
$PTAK,FFD1,*7B
$IIVDR,33.21,T,,,2.03,N*68
$P,719
$P,780
$GPRMC,200324.6,A,4754.37561,N,12226.24284,W,008.05,341.2,080314,016.7,E,D*2D
$IIRMB,A,0.00,L,B,X,470.019260,N,12226.594520,W,54.4,180,-7.61,V*23
$GPRMB,A,2.35,L,,Lac,4823.3220,N,12229.7720,W,29.1,355,7.81,V*71
$PGRME,2.4,M,2.4,M,3.4,M*29
$IIVHW,,,,,7.01,N,,*1F
$P,740
$HCHDG,329.1,0.0,E,,*20
$PTAK,FFD1,*7B
$P,780
$P,747
$HCHDG,329.1,0.0,E,,*20
$PTAK,FFD1,*7B
$P,761
$P,736
$GPRMC,200324.8,A,4754.37607,N,12226.24306,W,008.30,340.0,080314,016.7,E,D*2E
$IIRMB,A,0.00,L,B,X,470.019260,N,12226.594520,W,54.4,180,-7.79,V*2A
$YXXDR,A,5.0,D,PTCH,A,13.7,D,ROLL*6D
$PTAK,FFD1,13.7*60
$PGRME,2.4,M,2.4,M,3.4,M*29
$IIVHW,,,,,7.11,N,,*1E
$P,748
$HCHDG,329.3,0.0,E,,*22
$PTAK,FFD1,*7B
$P,724
$IIMWV,173,T,08.5,N,A*1D
$P,739
$HCHDG,329.3,0.0,E,,*22
$PTAK,FFD1,*7B
$P,695
$IIRMB,A,2.35,L,,Lac ,,,,,029.1,355,,V,A*24
$P,734
$GPRMC,200325.0,A,4754.37650,N,12226.24333,W,008.23,336.6,080314,016.7,E,D*26
$IIRMB,A,0.00,L,B,X,470.019260,N,12226.594520,W,54.4,180,-7.54,V*25
$PGRME,2.4,M,2.4,M,3.4,M*29
$IIVHW,,,,,7.16,N,,*19
$HCHDG,329.8,0.0,E,,*29
$PTAK,FFD1,*7B
$P,768
$P,792
$IIRMC,200300,A,4754.374,N,12226.242,W,08.0,345,080314,16,E,A*1F
$IIRMB,A,0.00,L,B,X,470.019260,N,12226.594520,W,54.4,180,-7.72,V*21
$P,745
$HCHDG,330.1,0.0,E,,*28
$PTAK,FFD1,*7B
$P,794
$P,824
$GPRMC,200325.2,A,4754.37697,N,12226.24368,W,008.43,335.8,080314,016.7,E,D*2A
$IIRMB,A,0.00,L,B,X,470.019260,N,12226.594520,W,54.4,180,-7.67,V*25
$PGRME,2.4,M,2.4,M,3.4,M*29
$IIVHW,,,,,7.31,N,,*1C
$IIVLW,06480,N,000.0,N*59
$P,902
$HCHDG,330.7,0.0,E,,*2E
$PTAK,FFD1,*7B
$P,890
$IIVWR,170,R,08.5,N,,,,*6A
$P,923
$YXXDR,A,5.2,D,PTCH,A,18.4,D,ROLL*67
$P,920
$P,948
$HCHDG,330.8,0.0,E,,*21
$PTAK,FFD1,*7B
$IIGLL,4754.374,N,12226.242,W,200300,A,A*40
$P,940
$GPRMC,200325.4,A,4754.37744,N,12226.24403,W,008.21,335.3,080314,016.7,E,D*26
$IIRMB,A,0.00,L,B,X,470.019260,N,12226.594520,W,54.4,180,-7.44,V*24
$PGRME,2.4,M,2.4,M,3.4,M*29
$IIVHW,,,,,6.75,N,,*1D
$P,988
$IIMWV,170,R,08.5,N,A*18
$HCHDG,331.2,0.0,E,,*2A
$PTAK,FFD1,*7B
$P,937
$P,959
$P,907
$HCHDG,331.3,0.0,E,,*2B
$PTAK,FFD1,*7B
$PTAK,FFP1,*6F
$IIVDR,352.99,T,,,1.55,N*5F
$P,926
$P,865
$GPRMC,200325.6,A,4754.37783,N,12226.24439,W,008.22,333.6,080314,016.7,E,D*26
$IIRMB,A,0.00,L,B,X,470.019260,N,12226.594520,W,54.4,180,-7.35,V*22
$GPRMB,A,2.34,L,,Lac,4823.3220,N,12229.7720,W,29.1,355,7.63,V*7C
$IIVHW,,,,,8.23,N,,*10
$PGRME,2.4,M,2.4,M,3.4,M*29
$P,869
$HCHDG,331.5,0.0,E,,*2D
$PTAK,FFD1,*7B
$P,797
$P,836
$HCHDG,331.4,0.0,E,,*2C
$PTAK,FFD1,*7B
$P,815
$P,811
$GPRMC,200325.8,A,4754.37819,N,12226.24468,W,008.44,333.0,080314,016.7,E,D*26
$IIRMB,A,0.00,L,B,X,470.019260,N,12226.594520,W,54.4,180,-7.50,V*21
$P,787
$YXXDR,A,5.1,D,PTCH,A,17.8,D,ROLL*67
$PTAK,FFD1,17.8*6B
$PGRME,2.4,M,2.4,M,3.4,M*29
$IIVHW,,,,,8.41,N,,*14
$P,833
$HCHDG,331.5,0.0,E,,*2D
$PTAK,FFD1,*7B
$IIMWV,170,T,08.5,N,A*1E
$P,778
$P,766
$HCHDG,331.3,0.0,E,,*2B
$PTAK,FFD1,*7B
$P,745
$IIRMB,A,2.35,L,,Lac ,,,,,029.1,355,,V,A*24
$GPRMC,200326.0,A,4754.37857,N,12226.24507,W,008.46,333.3,080314,016.7,E,D*2E
$IIRMB,A,0.00,L,B,X,470.019260,N,12226.594520,W,54.4,180,-7.54,V*25
$P,776
$PGRME,2.4,M,2.4,M,3.4,M*29
$IIVHW,,,,,8.39,N,,*1B
$HCHDG,331.1,0.0,E,,*29
$PTAK,FFD1,*7B
$P,739
$P,765
$IIRMC,200300,A,4754.376,N,12226.243,W,08.2,336,080314,16,E,A*1A
$IIRMB,A,0.00,L,B,X,470.019260,N,12226.594520,W,54.4,180,-7.48,V*28
$P,783
$HCHDG,331.2,0.0,E,,*2A
$PTAK,FFD1,*7B
$P,804
$P,752
$GPRMC,200326.2,A,4754.37893,N,12226.24530,W,008.43,333.9,080314,016.7,E,D*2F
$IIRMB,A,0.00,L,B,X,470.019260,N,12226.594520,W,54.4,180,-7.55,V*24
$IIVHW,,,,,8.36,N,,*14
$PGRME,2.4,M,2.4,M,3.4,M*29
$IIVLW,06480,N,000.0,N*59
$HCHDG,330.7,0.0,E,,*2E
$PTAK,FFD1,*7B
$P,743
$IIVWR,172,R,08.5,N,,,,*68
$P,722
$YXXDR,A,5.0,D,PTCH,A,15.6,D,ROLL*6A
$P,732
$HCHDG,330.4,0.0,E,,*2D
$PTAK,FFD1,*7B
$IIGLL,4754.376,N,12226.243,W,200300,A,A*43
$P,713
$GPRMC,200326.4,A,4754.37924,N,12226.24565,W,008.42,335.3,080314,016.7,E,D*29
$IIRMB,A,0.00,L,B,X,470.019260,N,12226.594520,W,54.4,180,-7.63,V*21
$IIVHW,,,,,8.08,N,,*19
$PGRME,2.4,M,2.4,M,3.4,M*29
$P,739
$IIMWV,172,R,08.5,N,A*1A
$HCHDG,330.2,0.0,E,,*2B
$PTAK,FFD1,*7B
$P,723
$P,752
$HCHDG,329.8,0.0,E,,*29
$PTAK,FFD1,*7B
$IIVDR,39.33,T,,,0.86,N*6E
$P,755
$P,800
$GPRMC,200326.6,A,4754.37958,N,12226.24597,W,008.46,334.7,080314,016.7,E,D*2C
$IIRMB,A,0.00,L,B,X,470.019260,N,12226.594520,W,54.4,180,-7.63,V*21
$PGRME,2.4,M,2.4,M,3.4,M*29
$IIVHW,,,,,7.95,N,,*12
$P,787
$HCHDG,329.6,0.0,E,,*27
$PTAK,FFD1,*7B
$P,819
$P,778
$HCHDG,329.0,0.0,E,,*21
$PTAK,FFD1,*7B
$P,822
$P,760
$GPRMC,200326.8,A,4754.38003,N,12226.24624,W,008.27,336.0,080314,016.7,E,D*23
$IIRMB,A,0.00,L,B,X,470.019260,N,12226.594520,W,54.4,180,-7.54,V*25
$GPRMB,A,2.34,L,,Lac,4823.3220,N,12229.7720,W,29.1,355,7.80,V*71
$YXXDR,A,5.0,D,PTCH,A,12.2,D,ROLL*69
$PTAK,FFD1,12.2*64
$PGRME,2.4,M,2.4,M,3.4,M*29
$P,764
$IIVHW,,,,,7.71,N,,*18
$P,740
$HCHDG,329.1,0.0,E,,*20
$PTAK,FFD1,*7B
$IIMWV,172,T,08.5,N,A*1C
$P,805
$HCHDG,328.8,0.0,E,,*28
$PTAK,FFD1,*7B
$P,781
$P,788
$IIRMB,A,2.34,L,,Lac ,,,,,029.1,355,,V,A*25
$GPRMC,200327.0,A,4754.38042,N,12226.24649,W,008.24,336.1,080314,016.7,E,D*26
$IIRMB,A,0.00,L,B,X,470.019260,N,12226.594520,W,54.4,180,-7.52,V*23
$P,734
$PGRME,2.4,M,2.4,M,3.4,M*29
$IIVHW,,,,,7.65,N,,*1D
$HCHDG,328.4,0.0,E,,*24
$PTAK,FFD1,*7B
$P,755
$P,755
$IIRMC,200300,A,4754.378,N,12226.245,W,08.4,333,080314,16,E,A*11
$IIRMB,A,0.00,L,B,X,470.019260,N,12226.594520,W,54.4,180,-7.47,V*27
$HCHDG,328.3,0.0,E,,*23
$PTAK,FFD1,*7B
$P,789
$P,733
$GPRMC,200327.2,A,4754.38084,N,12226.24675,W,008.26,338.3,080314,016.7,E,D*2F
$IIRMB,A,0.00,L,B,X,470.019260,N,12226.594520,W,54.4,180,-7.66,V*24
$PGRME,2.4,M,2.4,M,3.4,M*29
$P,744
$IIVHW,,,,,7.63,N,,*1B
$IIVLW,06480,N,000.0,N*59
$HCHDG,327.8,0.0,E,,*27
$PTAK,FFD1,*7B
$P,715
$IIVWR,178,R,08.3,N,,,,*64
$P,751
$YXXDR,A,5.1,D,PTCH,A,8.7,D,ROLL*56
$P,749
$HCHDG,327.3,0.0,E,,*2C
$PTAK,FFD1,*7B
$IIGLL,4754.378,N,12226.245,W,200300,A,A*4B
$P,769
$GPRMC,200327.4,A,4754.38128,N,12226.24705,W,008.45,338.1,080314,016.7,E,D*2F
$IIRMB,A,0.00,L,B,X,470.019260,N,12226.594520,W,54.4,180,-7.83,V*2F
$IIVHW,,,,,7.59,N,,*12
$PGRME,2.4,M,2.4,M,3.4,M*29
$P,736
$IIMWV,178,R,08.3,N,A*16
$HCHDG,326.9,0.0,E,,*27
$PTAK,FFD1,*7B
$P,774
$P,732
$HCHDG,326.9,0.0,E,,*27
$PTAK,FFD1,*7B
$IIVDR,33.83,T,,,1.78,N*6F
$P,768
$P,758
$GPRMC,200327.6,A,4754.38168,N,12226.24726,W,008.01,337.7,080314,016.7,E,D*21
$IIRMB,A,0.00,L,B,X,470.019260,N,12226.594520,W,54.4,180,-7.40,V*20
$PGRME,2.4,M,2.4,M,3.4,M*29
$IIVHW,,,,,7.61,N,,*19
$P,786
$HCHDG,327.1,0.0,E,,*2E
$PTAK,FFD1,*7B
$P,747
$P,772
$HCHDG,327.5,0.0,E,,*2A
$PTAK,FFD1,*7B
$P,713
$P,723
$GPRMC,200327.8,A,4754.38205,N,12226.24755,W,008.06,335.6,080314,016.7,E,D*27
$IIRMB,A,0.00,L,B,X,470.019260,N,12226.594520,W,54.4,180,-7.33,V*24
$GPRMB,A,2.34,L,,Lac,4823.3220,N,12229.7720,W,29.1,355,7.58,V*74
$YXXDR,A,5.3,D,PTCH,A,7.2,D,ROLL*5E
$PGRME,2.4,M,2.4,M,3.4,M*29
$IIVHW,,,,,7.56,N,,*1D
$P,699
$HCHDG,327.9,0.0,E,,*26
$PTAK,FFD1,*7B
$P,756
$IIMWV,178,T,08.3,N,A*10
$P,703
$HCHDG,328.4,0.0,E,,*24
$PTAK,FFD1,*7B
$P,754
$IIRMB,A,2.34,L,,Lac ,,,,,029.1,355,,V,A*25
$P,720
$GPRMC,200328.0,A,4754.38243,N,12226.24782,W,008.26,335.2,080314,016.7,E,D*2E
$IIRMB,A,0.00,L,B,X,470.019260,N,12226.594520,W,54.4,180,-7.48,V*28
$PGRME,2.4,M,2.4,M,3.4,M*29
$IIVHW,,,,,7.47,N,,*1D
$HCHDG,329.1,0.0,E,,*20
$PTAK,FFD1,*7B
$P,720
$P,666
$IIRMC,200300,A,4754.380,N,12226.246,W,08.2,336,080314,16,E,A*16
$IIRMB,A,0.00,L,B,X,470.019260,N,12226.594520,W,54.4,180,-7.48,V*28
$HCHDG,329.4,0.0,E,,*25
$PTAK,FFD1,*7B
$PTAK,FFP1,HEEL,@*07
$P,712
$P,693
$GPRMC,200328.2,A,4754.38289,N,12226.24805,W,008.19,336.4,080314,016.7,E,D*23
$IIRMB,A,0.00,L,B,X,470.019260,N,12226.594520,W,54.4,180,-7.49,V*29
$PGRME,2.4,M,2.4,M,3.4,M*29
$IIVHW,,,,,7.35,N,,*18
$IIVLW,06480,N,000.0,N*59
$P,709
$HCHDG,329.8,0.0,E,,*29
$PTAK,FFD1,*7B
$P,694
$IIVWR,178,L,08.3,N,,,,*7A
$P,709
$YXXDR,A,5.4,D,PTCH,A,6.7,D,ROLL*5D
$PTAK,FFD1,6.7*54
$P,655
$HCHDG,329.8,0.0,E,,*29
$PTAK,FFD1,*7B
$IIGLL,4754.380,N,12226.246,W,200300,A,A*4F
$P,644
$GPRMC,200328.4,A,4754.38331,N,12226.24824,W,008.11,338.9,080314,016.7,E,D*2F
$IIRMB,A,0.00,L,B,X,470.019260,N,12226.594520,W,54.4,180,-7.55,V*24
$IIVHW,,,,,7.18,N,,*17
$PGRME,2.4,M,2.4,M,3.4,M*29
$IIMWV,182,R,08.3,N,A*13
$HCHDG,329.5,0.0,E,,*24
$PTAK,FFD1,*7B
$P,651
$P,676
$HCHDG,329.3,0.0,E,,*22
$PTAK,FFD1,*7B
$IIVDR,28.18,T,,,1.58,N*65
$P,621
$P,652
$GPRMC,200328.6,A,4754.38376,N,12226.24844,W,008.06,339.7,080314,016.7,E,D*21
$IIRMB,A,0.00,L,B,X,470.019260,N,12226.594520,W,54.4,180,-7.55,V*24
$PGRME,2.4,M,2.4,M,3.4,M*29
$IIVHW,,,,,7.02,N,,*1C
$HCHDG,328.8,0.0,E,,*28
$PTAK,FFD1,*7B
$P,612
$P,669
$HCHDG,328.8,0.0,E,,*28
$PTAK,FFD1,*7B
$P,621
$P,623
$GPRMC,200328.8,A,4754.38425,N,12226.24867,W,007.99,340.7,080314,016.7,E,D*28
$IIRMB,A,0.00,L,B,X,470.019260,N,12226.594520,W,54.4,180,-7.53,V*22
$YXXDR,A,5.5,D,PTCH,A,2.0,D,ROLL*5F
$PGRME,2.4,M,2.4,M,3.4,M*29
$IIVHW,,,,,6.76,N,,*1E
$P,612
$HCHDG,328.4,0.0,E,,*24
$PTAK,FFD1,*7B
$IIMWV,182,T,08.3,N,A*15
$P,612
$HCHDG,328.1,0.0,E,,*21
$PTAK,FFD1,*7B
$P,602
$IIRMB,A,2.34,L,,Lac ,,,,,029.1,355,,V,A*25
$P,646
$GPRMC,200329.0,A,4754.38467,N,12226.24881,W,007.66,343.5,080314,016.7,E,D*2E
$IIRMB,A,0.00,L,B,X,470.019260,N,12226.594520,W,54.4,180,-7.34,V*23
$GPRMB,A,2.34,L,,Lac,4823.3220,N,12229.7720,W,29.1,355,7.50,V*7C
$PGRME,2.4,M,2.4,M,3.4,M*29
$IIVHW,,,,,6.61,N,,*18
$P,642
$HCHDG,327.8,0.0,E,,*27
$PTAK,FFD1,*7B
$P,656
$IIRMC,200300,A,4754.382,N,12226.247,W,08.2,335,080314,16,E,A*16
$IIRMB,A,0.00,L,B,X,470.019260,N,12226.594520,W,54.4,180,-7.42,V*22
$P,623
$HCHDG,327.3,0.0,E,,*2C
$PTAK,FFD1,*7B
$P,644
$GPRMC,200329.2,A,4754.38498,N,12226.24903,W,007.67,345.0,080314,016.7,E,D*25
$IIRMB,A,0.00,L,B,X,470.019260,N,12226.594520,W,54.4,180,-7.40,V*20
$PGRME,2.4,M,2.4,M,3.4,M*29
$IIVLW,06480,N,000.0,N*59
$IIVHW,,,,,6.49,N,,*12
$P,614
$HCHDG,327.0,0.0,E,,*2F
$PTAK,FFD1,*7B
$P,639
$IIVWR,177,L,08.6,N,,,,*70
$YXXDR,A,4.9,D,PTCH,A,0.1,D,ROLL*51
$PTAK,FFD1,0.1*54
$P,615
$HCHDG,326.7,0.0,E,,*29
$PTAK,FFD1,*7B
$IIGLL,4754.382,N,12226.247,W,200300,A,A*4C
$P,664
$GPRMC,200329.4,A,4754.38534,N,12226.24923,W,007.68,343.6,080314,016.7,E,D*29
$IIRMB,A,0.00,L,B,X,470.019260,N,12226.594520,W,54.4,180,-7.36,V*21
$P,625
$IIVHW,,,,,6.38,N,,*14
$PGRME,2.4,M,2.4,M,3.4,M*29
$IIMWV,183,R,08.6,N,A*17
$HCHDG,326.8,0.0,E,,*26
$PTAK,FFD1,*7B
$P,649
$P,626
$HCHDG,327.0,0.0,E,,*2F
$PTAK,FFD1,*7B
$IIVDR,32.93,T,,,2.40,N*67
$P,640
$GPRMC,200329.6,A,4754.38580,N,12226.24941,W,007.64,342.2,080314,016.7,E,D*29
$IIRMB,A,0.00,L,B,X,470.019260,N,12226.594520,W,54.4,180,-7.26,V*20
$P,650
$PGRME,2.4,M,2.4,M,3.4,M*29
$IIVHW,,,,,6.35,N,,*19
$HCHDG,327.6,0.0,E,,*29
$PTAK,FFD1,*7B
$P,697
$P,658
$HCHDG,328.0,0.0,E,,*20
$PTAK,FFD1,*7B
$P,643
$P,621
$GPRMC,200329.8,A,4754.38619,N,12226.24964,W,007.60,340.5,080314,016.7,E,D*22
$IIRMB,A,0.00,L,B,X,470.019260,N,12226.594520,W,54.4,180,-7.15,V*20
$YXXDR,A,4.5,D,PTCH,A,3.4,D,ROLL*5B
$PGRME,2.4,M,2.4,M,3.4,M*29
$IIVHW,,,,,6.38,N,,*14
$P,647
$HCHDG,328.5,0.0,E,,*25
$PTAK,FFD1,*7B
$IIMWV,183,T,08.6,N,A*11
$P,614
$HCHDG,329.0,0.0,E,,*21
$PTAK,FFD1,*7B
$P,649
$IIRMB,A,2.34,L,,Lac ,,,,,029.1,355,,V,A*25
$P,624
$GPRMC,200330.0,A,4754.38662,N,12226.24983,W,007.55,341.6,080314,016.7,E,D*23
$IIRMB,A,0.00,L,B,X,470.019260,N,12226.594520,W,54.4,180,-7.15,V*20
$GPRMB,A,2.34,L,,Lac,4823.3220,N,12229.7720,W,29.1,355,7.33,V*79
$PGRME,2.4,M,2.4,M,3.4,M*29
$IIVHW,,,,,6.38,N,,*14
$HCHDG,329.0,0.0,E,,*21
$PTAK,FFD1,*7B
$P,638
$P,617
$IIRMC,200300,A,4754.384,N,12226.248,W,07.6,343,080314,16,E,A*15
$IIRMB,A,0.00,L,B,X,470.019260,N,12226.594520,W,54.4,180,-7.26,V*20
$HCHDG,328.8,0.0,E,,*28
$PTAK,FFD1,*7B
$P,657
$P,636
$GPRMC,200330.2,A,4754.38705,N,12226.25000,W,007.27,345.1,080314,016.7,E,D*24
$IIRMB,A,0.00,L,B,X,470.019260,N,12226.594520,W,54.4,180,-7.02,V*26
$PGRME,2.4,M,2.4,M,3.4,M*29
$IIVHW,,,,,6.39,N,,*15
$IIVLW,06480,N,000.0,N*59
$P,657
$HCHDG,328.7,0.0,E,,*27
$PTAK,FFD1,*7B
$IIVWR,180,R,08.8,N,,,,*68
$P,634
$YXXDR,A,4.7,D,PTCH,A,4.4,D,ROLL*5E
$P,655
$HCHDG,328.3,0.0,E,,*23
$PTAK,FFD1,*7B
$IIGLL,4754.384,N,12226.248,W,200300,A,A*45
$P,637
$GPRMC,200330.4,A,4754.38739,N,12226.25011,W,007.32,347.5,080314,016.7,E,D*2F
$IIRMB,A,0.00,L,B,X,470.019260,N,12226.594520,W,54.4,180,-7.14,V*21
$IIVHW,,,,,6.40,N,,*1B
$PGRME,2.4,M,2.4,M,3.4,M*29
$P,671
$IIMWV,180,R,08.8,N,A*1A
$HCHDG,328.0,0.0,E,,*20
$PTAK,FFD1,*7B
$PTAK,FFP1,*6F
$IIVDR,46.43,T,,,2.49,N*60
$P,637
$P,654
$HCHDG,327.6,0.0,E,,*29
$PTAK,FFD1,*7B
$P,623
$GPRMC,200330.6,A,4754.38780,N,12226.25027,W,007.36,349.4,080314,016.7,E,D*21
$IIRMB,A,0.00,L,B,X,470.019260,N,12226.594520,W,54.4,180,-7.23,V*25
$P,660
$PGRME,2.4,M,2.4,M,3.4,M*29
$IIVHW,,,,,6.43,N,,*18
$HCHDG,327.1,0.0,E,,*2E
$PTAK,FFD1,*7B
$P,622
$P,658
$HCHDG,326.8,0.0,E,,*26
$PTAK,FFD1,*7B
$P,661
$P,680
$GPRMC,200330.8,A,4754.38823,N,12226.25042,W,007.39,346.9,080314,016.7,E,D*27
$IIRMB,A,0.00,L,B,X,470.019260,N,12226.594520,W,54.4,180,-7.19,V*2C
$YXXDR,A,4.5,D,PTCH,A,5.6,D,ROLL*5F
$PTAK,FFD1,5.6*56
$PGRME,2.4,M,2.4,M,3.4,M*29
$IIVHW,,,,,6.46,N,,*1D
$P,637
$HCHDG,326.9,0.0,E,,*27
$PTAK,FFD1,*7B
$IIMWV,180,T,08.8,N,A*1C
$P,636
$HCHDG,327.2,0.0,E,,*2D
$PTAK,FFD1,*7B
$P,609
$IIRMB,A,2.34,L,,Lac ,,,,,029.1,355,,V,A*25
$P,645
$GPRMC,200331.0,A,4754.38859,N,12226.25074,W,007.34,343.2,080314,016.7,E,D*25
$IIRMB,A,0.00,L,B,X,470.019260,N,12226.594520,W,54.4,180,-7.02,V*26
$GPRMB,A,2.34,L,,Lac,4823.3220,N,12229.7720,W,29.0,355,7.17,V*7E
$PGRME,2.4,M,2.4,M,3.4,M*29
$IIVHW,,,,,6.42,N,,*19
$HCHDG,327.8,0.0,E,,*27
$PTAK,FFD1,*7B
$P,618
$P,642
$IIRMC,200300,A,4754.386,N,12226.249,W,07.5,341,080314,16,E,A*17
$IIRMB,A,0.00,L,B,X,470.019260,N,12226.594520,W,54.4,180,-7.08,V*2C
$HCHDG,328.0,0.0,E,,*20
$PTAK,FFD1,*7B
$P,636
$P,676
$GPRMC,200331.2,A,4754.38892,N,12226.25089,W,007.34,341.5,080314,016.7,E,D*27
$IIRMB,A,0.00,L,B,X,470.019260,N,12226.594520,W,54.4,180,-6.95,V*29
$PGRME,2.4,M,2.4,M,3.4,M*29
$IIVLW,06480,N,000.0,N*59
$IIVHW,,,,,6.43,N,,*18
$P,693
$HCHDG,328.8,0.0,E,,*28
$PTAK,FFD1,*7B
$P,730
$IIVWR,172,R,08.9,N,,,,*64
$P,697
$YXXDR,A,4.8,D,PTCH,A,11.5,D,ROLL*64
$P,717
$HCHDG,329.2,0.0,E,,*23
$PTAK,FFD1,*7B
$IIGLL,4754.386,N,12226.249,W,200300,A,A*46
$P,704
$GPRMC,200331.4,A,4754.38927,N,12226.25108,W,007.32,339.4,080314,016.7,E,D*2E
$IIRMB,A,0.00,L,B,X,470.019260,N,12226.594520,W,54.4,180,-6.84,V*29
$IIVHW,,,,,6.59,N,,*13
$PGRME,2.4,M,2.4,M,3.4,M*29
$IIMWV,172,R,08.9,N,A*16
$HCHDG,329.5,0.0,E,,*24
$PTAK,FFD1,*7B
$IIVDR,33.24,T,,,1.40,N*69
$P,725
$P,696
$P,733
$HCHDG,330.0,0.0,E,,*29
$PTAK,FFD1,*7B
$P,709
$GPRMC,200331.6,A,4754.38963,N,12226.25134,W,007.29,340.2,080314,016.7,E,D*21
$IIRMB,A,0.00,L,B,X,470.019260,N,12226.594520,W,54.4,180,-6.85,V*28
$P,731
$PGRME,2.4,M,2.4,M,3.4,M*29
$IIVHW,,,,,6.73,N,,*1B
$HCHDG,330.6,0.0,E,,*2F
$PTAK,FFD1,*7B
$P,690
$P,693
$HCHDG,330.7,0.0,E,,*2E
$PTAK,FFD1,*7B
$P,652
$P,658
$GPRMC,200331.8,A,4754.38999,N,12226.25156,W,007.32,340.9,080314,016.7,E,D*2F
$IIRMB,A,0.00,L,B,X,470.019260,N,12226.594520,W,54.4,180,-6.91,V*2D
$PGRME,2.4,M,2.4,M,3.4,M*29
$IIVHW,,,,,6.79,N,,*11
$YXXDR,A,4.7,D,PTCH,A,14.7,D,ROLL*6C
$PTAK,FFD1,14.7*67
$P,639
$HCHDG,330.7,0.0,E,,*2E
$PTAK,FFD1,*7B
$IIMWV,172,T,08.9,N,A*10
$P,662
$P,630
$HCHDG,330.7,0.0,E,,*2E
$PTAK,FFD1,*7B
$IIRMB,A,2.34,L,,Lac ,,,,,029.0,355,,V,A*24
$P,642
$GPRMC,200332.0,A,4754.39038,N,12226.25187,W,007.72,339.4,080314,016.7,E,D*2C
$IIRMB,A,0.00,L,B,X,470.019260,N,12226.594520,W,54.4,180,-7.21,V*27
$PGRME,2.4,M,2.4,M,3.4,M*29
$IIVHW,,,,,6.75,N,,*1D
$P,670
$HCHDG,330.8,0.0,E,,*21
$PTAK,FFD1,*7B
$P,723
$IIRMC,200300,A,4754.388,N,12226.250,W,07.3,343,080314,16,E,A*15
$IIRMB,A,0.00,L,B,X,470.019260,N,12226.594520,W,54.4,180,-6.97,V*2B
$P,715
$HCHDG,330.7,0.0,E,,*2E
$PTAK,FFD1,*7B
$P,750
$PTAK,FFP1,HEEL,@*07
$P,733
$GPRMC,200332.2,A,4754.39078,N,12226.25214,W,007.65,340.6,080314,016.7,E,D*29
$IIRMB,A,0.00,L,B,X,470.019260,N,12226.594520,W,54.4,180,-7.20,V*26
$GPRMB,A,2.34,L,,Lac,4823.3220,N,12229.7720,W,29.0,355,7.40,V*7C
$IIVHW,,,,,6.85,N,,*12
$PGRME,2.4,M,2.4,M,3.4,M*29
$IIVLW,06480,N,000.0,N*59
$P,757
$HCHDG,330.5,0.0,E,,*2C
$PTAK,FFD1,*7B
$IIVWR,170,R,09.3,N,,,,*6D
$P,724
$YXXDR,A,4.5,D,PTCH,A,15.3,D,ROLL*6B
$P,750
$P,740
$IIGLL,4754.388,N,12226.250,W,200300,A,A*40
$HCHDG,330.5,0.0,E,,*2C
$PTAK,FFD1,*7B
$P,786
$GPRMC,200332.4,A,4754.39115,N,12226.25243,W,007.48,339.3,080314,016.7,E,D*23
$IIRMB,A,0.00,L,B,X,470.019260,N,12226.594520,W,54.4,180,-6.99,V*25
$PGRME,2.4,M,2.4,M,3.4,M*29
$IIVHW,,,,,7.03,N,,*1D
$IIMWV,170,R,09.3,N,A*1F
$HCHDG,330.3,0.0,E,,*2A
$PTAK,FFD1,*7B
$IIVDR,43.29,T,,,1.22,N*67
$P,759
$P,793
$P,745
$HCHDG,330.5,0.0,E,,*2C
$PTAK,FFD1,*7B
$P,823
$P,803
$GPRMC,200332.6,A,4754.39155,N,12226.25268,W,008.03,337.3,080314,016.7,E,D*22
$IIRMB,A,0.00,L,B,X,470.019260,N,12226.594520,W,54.4,180,-7.39,V*2E
$PGRME,2.4,M,2.4,M,3.4,M*29
$IIVHW,,,,,7.23,N,,*1F
$P,817
$HCHDG,330.6,0.0,E,,*2F
$PTAK,FFD1,*7B
$P,776
$P,801
$HCHDG,330.6,0.0,E,,*2F
$PTAK,FFD1,*7B
$P,806
$P,880
$GPRMC,200332.8,A,4754.39195,N,12226.25293,W,007.85,337.4,080314,016.7,E,D*22
$IIRMB,A,0.00,L,B,X,470.019260,N,12226.594520,W,54.4,180,-7.23,V*25
$IIVHW,,,,,7.40,N,,*1A
$PGRME,2.4,M,2.4,M,3.4,M*29
$YXXDR,A,5.1,D,PTCH,A,15.7,D,ROLL*6A
$P,859
$P,895
$HCHDG,331.0,0.0,E,,*28
$PTAK,FFD1,*7B
$IIMWV,170,T,09.3,N,A*19
$P,869
$P,845
$HCHDG,331.1,0.0,E,,*29
$PTAK,FFD1,*7B
$P,838
$IIRMB,A,2.34,L,,Lac ,,,,,029.0,355,,V,A*24
$P,859
$GPRMC,200333.0,A,4754.39234,N,12226.25320,W,007.78,336.5,080314,016.7,E,D*28
$IIRMB,A,0.00,L,B,X,470.019260,N,12226.594520,W,54.4,180,-7.12,V*27
$PGRME,2.4,M,2.4,M,3.4,M*29
$IIVHW,,,,,7.71,N,,*18
$P,816
$HCHDG,331.3,0.0,E,,*2B
$PTAK,FFD1,*7B
$P,846
$IIRMC,200300,A,4754.390,N,12226.251,W,07.7,339,080314,16,E,A*14
$IIRMB,A,0.00,L,B,X,470.019260,N,12226.594520,W,54.4,180,-7.18,V*2D
$P,802
$HCHDG,331.5,0.0,E,,*2D
$PTAK,FFD1,*7B
$P,815
$P,770
$GPRMC,200333.2,A,4754.39274,N,12226.25348,W,007.71,336.2,080314,016.7,E,D*2E
$IIRMB,A,0.00,L,B,X,470.019260,N,12226.594520,W,54.4,180,-7.04,V*20
$IIVHW,,,,,8.03,N,,*12
$PGRME,2.4,M,2.4,M,3.4,M*29
$IIVLW,06480,N,000.0,N*59
$P,801
$HCHDG,331.6,0.0,E,,*2E
$PTAK,FFD1,*7B
$P,769
$IIVWR,173,R,09.5,N,,,,*68
$P,817
$YXXDR,A,5.0,D,PTCH,A,15.2,D,ROLL*6E
$PTAK,FFD1,15.2*63
$P,774
$IIGLL,4754.390,N,12226.251,W,200300,A,A*48
$HCHDG,331.6,0.0,E,,*2E
$PTAK,FFD1,*7B
$P,778
$GPRMC,200333.4,A,4754.39311,N,12226.25384,W,008.00,336.6,080314,016.7,E,D*27
$IIRMB,A,0.00,L,B,X,470.019260,N,12226.594520,W,54.4,180,-7.33,V*24
$GPRMB,A,2.34,L,,Lac,4823.3220,N,12229.7720,W,29.0,355,7.57,V*7A
$IIVHW,,,,,8.06,N,,*17
$PGRME,2.4,M,2.4,M,3.4,M*29
$IIMWV,173,R,09.5,N,A*1A
$P,753
$HCHDG,331.7,0.0,E,,*2F
$PTAK,FFD1,*7B
$IIVDR,69.14,T,,,0.69,N*6F
$P,785
$P,0
$P,787
$P,850
$HCHDG,331.4,0.0,E,,*2C
$PTAK,FFD1,*7B
$P,829
$GPRMC,200333.6,A,4754.39350,N,12226.25403,W,007.93,337.5,080314,016.7,E,D*2F
$IIRMB,A,0.00,L,B,X,470.019260,N,12226.594520,W,54.4,180,-7.31,V*26
$P,848
$IIVHW,,,,,7.82,N,,*14
$PGRME,2.4,M,2.4,M,3.4,M*29
$HCHDG,331.6,0.0,E,,*2E
$PTAK,FFD1,*7B
$P,792
$P,828
$P,802
$HCHDG,331.2,0.0,E,,*2A
$PTAK,FFD1,*7B
$P,812
$P,744
$GPRMC,200333.8,A,4754.39389,N,12226.25427,W,007.96,336.5,080314,016.7,E,D*27
$IIRMB,A,0.00,L,B,X,470.019260,N,12226.594520,W,54.4,180,-7.29,V*2F
$IIVHW,,,,,7.81,N,,*17
$PGRME,2.4,M,2.4,M,3.4,M*29
$YXXDR,A,5.2,D,PTCH,A,11.9,D,ROLL*63
$P,768
$HCHDG,331.1,0.0,E,,*29
$PTAK,FFD1,*7B
$IIMWV,173,T,09.5,N,A*1C
$P,739
$P,789
$HCHDG,330.9,0.0,E,,*20
$PTAK,FFD1,*7B
$P,781
$IIRMB,A,2.34,L,,Lac ,,,,,029.0,355,,V,A*24
$P,825
$GPRMC,200334.0,A,4754.39428,N,12226.25457,W,007.98,337.3,080314,016.7,E,D*2A
$IIRMB,A,0.00,L,B,X,470.019260,N,12226.594520,W,54.4,180,-7.35,V*22
$IIVHW,,,,,7.79,N,,*10
$PGRME,2.4,M,2.4,M,3.4,M*29
$P,775
$HCHDG,331.2,0.0,E,,*2A
$PTAK,FFD1,*7B
$P,814
$IIRMC,200300,A,4754.392,N,12226.253,W,07.7,336,080314,16,E,A*1B
$IIRMB,A,0.00,L,B,X,470.019260,N,12226.594520,W,54.4,180,-7.02,V*26
$P,805
$HCHDG,331.4,0.0,E,,*2C
$PTAK,FFD1,*7B
$P,822
$P,798
$GPRMC,200334.2,A,4754.39473,N,12226.25480,W,007.96,336.2,080314,016.7,E,D*22
$IIRMB,A,0.00,L,B,X,470.019260,N,12226.594520,W,54.4,180,-7.27,V*21
$IIVHW,,,,,7.73,N,,*1A
$PGRME,2.4,M,2.4,M,3.4,M*29
$IIVLW,06480,N,000.0,N*59
$P,781
$HCHDG,331.6,0.0,E,,*2E
$PTAK,FFD1,*7B
$P,725
$IIVWR,178,R,09.5,N,,,,*63
$P,764
$YXXDR,A,5.1,D,PTCH,A,9.4,D,ROLL*54
$PTAK,FFD1,9.4*58
$P,729
$IIGLL,4754.392,N,12226.253,W,200300,A,A*48
$HCHDG,331.7,0.0,E,,*2F
$PTAK,FFD1,*7B
$P,715
$GPRMC,200334.4,A,4754.39517,N,12226.25498,W,008.14,336.7,080314,016.7,E,D*2E
$IIRMB,A,0.00,L,B,X,470.019260,N,12226.594520,W,54.4,180,-7.46,V*26
$GPRMB,A,2.34,L,,Lac,4823.3220,N,12229.7720,W,29.0,355,7.71,V*7E
$IIVHW,,,,,7.62,N,,*1A
$PGRME,2.4,M,2.4,M,3.4,M*29
$IIMWV,178,R,09.5,N,A*11
$HCHDG,332.1,0.0,E,,*2A
$PTAK,FFD1,*7B
$IIVDR,25.00,T,,,0.82,N*67
$P,652
$P,680
$P,651
$HCHDG,332.2,0.0,E,,*29
$PTAK,FFD1,*7B
$P,673
$GPRMC,200334.6,A,4754.39557,N,12226.25521,W,008.09,338.7,080314,016.7,E,D*29
$IIRMB,A,0.00,L,B,X,470.019260,N,12226.594520,W,54.4,180,-7.52,V*23
$IIVHW,,,,,7.58,N,,*13
$PGRME,2.4,M,2.4,M,3.4,M*29
$P,651
$HCHDG,332.2,0.0,E,,*29
$PTAK,FFD1,*7B
$P,689
$P,682
$HCHDG,332.2,0.0,E,,*29
$PTAK,FFD1,*7B
$P,707
$GPRMC,200334.8,A,4754.39597,N,12226.25541,W,008.11,339.4,080314,016.7,E,D*26
$IIRMB,A,0.00,L,B,X,470.019260,N,12226.594520,W,54.4,180,-7.58,V*29
$P,699
$IIVHW,,,,,7.35,N,,*18
$PGRME,2.4,M,2.4,M,3.4,M*29
$YXXDR,A,5.1,D,PTCH,A,6.4,D,ROLL*5B
$P,739
$HCHDG,332.1,0.0,E,,*2A
$PTAK,FFD1,*7B
$IIMWV,178,T,09.5,N,A*17
$P,751
$P,776
$HCHDG,332.1,0.0,E,,*2A
$PTAK,FFD1,*7B
$P,747
$IIRMB,A,2.34,L,,Lac ,,,,,029.0,355,,V,A*24
$GPRMC,200335.0,A,4754.39637,N,12226.25560,W,008.10,341.1,080314,016.7,E,D*2E
$IIRMB,A,0.00,L,B,X,470.019260,N,12226.594520,W,54.4,180,-7.65,V*27
$P,763
$IIVHW,,,,,7.36,N,,*1B
$PGRME,2.4,M,2.4,M,3.4,M*29
$HCHDG,331.8,0.0,E,,*20
$PTAK,FFD1,*7B
$P,753
$P,807
$IIRMC,200300,A,4754.394,N,12226.254,W,07.9,337,080314,16,E,A*15
$IIRMB,A,0.00,L,B,X,470.019260,N,12226.594520,W,54.4,180,-7.26,V*20
$P,757
$HCHDG,331.5,0.0,E,,*2D
$PTAK,FFD1,*7B
$P,762
$GPRMC,200335.2,A,4754.39680,N,12226.25577,W,008.07,344.2,080314,016.7,E,D*26
$IIRMB,A,0.00,L,B,X,470.019260,N,12226.594520,W,54.4,180,-7.76,V*25
$P,740
$IIVHW,,,,,7.36,N,,*1B
$PGRME,2.4,M,2.4,M,3.4,M*29
$IIVLW,06480,N,000.0,N*59
$HCHDG,331.2,0.0,E,,*2A
$PTAK,FFD1,*7B
$P,792
$IIVWR,180,R,09.5,N,,,,*64
$P,789
$YXXDR,A,5.2,D,PTCH,A,3.0,D,ROLL*59
$P,782
$HCHDG,331.0,0.0,E,,*28
$PTAK,FFD1,*7B
$PTAK,FFP1,*6F
$IIGLL,4754.394,N,12226.254,W,200300,A,A*49
$P,760
$P,830
$GPRMC,200335.4,A,4754.39724,N,12226.25595,W,008.14,345.3,080314,016.7,E,D*21
$IIRMB,A,0.00,L,B,X,470.019260,N,12226.594520,W,54.4,180,-7.86,V*2A
$GPRMB,A,2.34,L,,Lac,4823.3220,N,12229.7720,W,29.0,355,8.01,V*76
$IIVHW,,,,,7.46,N,,*1C
$PGRME,2.4,M,2.4,M,3.5,M*28
$IIMWV,180,R,09.5,N,A*16
$HCHDG,330.8,0.0,E,,*21
$PTAK,FFD1,*7B
$IIVDR,49.14,T,,,2.08,N*68
$P,749
$P,779
$P,778
$HCHDG,330.8,0.0,E,,*21
$PTAK,FFD1,*7B
$P,831
$P,770
$GPRMC,200335.6,A,4754.39771,N,12226.25616,W,008.15,344.7,080314,016.7,E,D*2F
$IIRMB,A,0.00,L,B,X,470.019260,N,12226.594520,W,54.4,180,-7.85,V*29
$IIVHW,,,,,7.49,N,,*13
$PGRME,2.4,M,2.4,M,3.5,M*28
$P,787
$HCHDG,330.7,0.0,E,,*2E
$PTAK,FFD1,*7B
$P,752
$P,799
$HCHDG,330.9,0.0,E,,*20
$PTAK,FFD1,*7B
$P,777
$P,815
$GPRMC,200335.8,A,4754.39819,N,12226.25631,W,008.33,344.9,080314,016.7,E,D*2F
$IIRMB,A,0.00,L,B,X,470.019260,N,12226.594520,W,54.4,180,-8.03,V*28
$IIVHW,,,,,7.61,N,,*19
$PGRME,2.4,M,2.4,M,3.5,M*28
$YXXDR,A,5.2,D,PTCH,A,2.7,D,ROLL*5F
$PTAK,FFD1,2.7*50
$P,806
$HCHDG,331.2,0.0,E,,*2A
$PTAK,FFD1,*7B
$P,808
$IIMWV,180,T,09.5,N,A*10
$P,768
$HCHDG,331.5,0.0,E,,*2D
$PTAK,FFD1,*7B
$P,791
$IIRMB,A,2.34,L,,Lac ,,,,,029.0,355,,V,A*24
$P,781
$GPRMC,200336.0,A,4754.39864,N,12226.25649,W,008.37,345.0,080314,016.7,E,D*2D
$IIRMB,A,0.00,L,B,X,470.019260,N,12226.594520,W,54.4,180,-8.08,V*23
$PGRME,2.4,M,2.4,M,3.5,M*28
$IIVHW,,,,,7.78,N,,*11
$P,824
$HCHDG,331.5,0.0,E,,*2D
$PTAK,FFD1,*7B
$P,788
$P,819
$IIRMC,200300,A,4754.394,N,12226.254,W,07.9,337,080314,16,E,A*15
$IIRMB,A,0.00,L,B,X,470.019260,N,12226.594520,W,54.4,180,-7.26,V*20
$HCHDG,331.6,0.0,E,,*2E
$PTAK,FFD1,*7B
$P,785
$P,824
$GPRMC,200336.2,A,4754.39912,N,12226.25660,W,008.31,347.9,080314,016.7,E,D*29
$IIRMB,A,0.00,L,B,X,470.019260,N,12226.594520,W,54.4,180,-8.12,V*28
$PTAK,FFP1,HEEL,@*07
$IIVHW,,,,,7.87,N,,*11
$PGRME,2.4,M,2.4,M,3.5,M*28
$IIVLW,06480,N,000.0,N*59
$P,782
$HCHDG,331.7,0.0,E,,*2F
$PTAK,FFD1,*7B
$P,803
$IIVWR,176,R,09.5,N,,,,*6D
$P,770
$YXXDR,A,5.2,D,PTCH,A,3.7,D,ROLL*5E
$P,821
$IIGLL,4754.394,N,12226.254,W,200300,A,A*49
$HCHDG,331.4,0.0,E,,*2C
$PTAK,FFD1,*7B
$P,812
$GPRMC,200336.4,A,4754.39961,N,12226.25674,W,008.63,346.9,080314,016.7,E,D*28
$IIRMB,A,0.00,L,B,X,470.019260,N,12226.594520,W,54.4,180,-8.40,V*2F
$P,815
$IIVHW,,,,,7.93,N,,*14
$PGRME,2.4,M,2.4,M,3.5,M*28
$IIMWV,176,R,09.5,N,A*1F
$HCHDG,331.2,0.0,E,,*2A
$PTAK,FFD1,*7B
$IIVDR,52.00,T,,,2.37,N*6B
$P,818
$P,834
$P,775
$HCHDG,331.1,0.0,E,,*29
$PTAK,FFD1,*7B
$P,771
$P,735
$GPRMC,200336.6,A,4754.40009,N,12226.25688,W,008.58,348.1,080314,016.7,E,D*2E
$IIRMB,A,0.00,L,B,X,470.019260,N,12226.594520,W,54.4,180,-8.39,V*21
$GPRMB,A,2.34,L,,Lac,4823.3220,N,12229.7720,W,29.0,355,8.51,V*73
$IIVHW,,,,,7.94,N,,*13
$PGRME,2.4,M,2.4,M,3.5,M*28
$HCHDG,331.2,0.0,E,,*2A
$PTAK,FFD1,*7B
$P,777
$P,727
$P,784
$HCHDG,331.0,0.0,E,,*28
$PTAK,FFD1,*7B
$P,740
$GPRMC,200336.8,A,4754.40058,N,12226.25706,W,008.55,345.9,080314,016.7,E,D*2B
$IIRMB,A,0.00,L,B,X,470.019260,N,12226.594520,W,54.4,180,-8.28,V*21
$P,773
$IIVHW,,,,,7.87,N,,*11
$PGRME,2.4,M,2.4,M,3.5,M*28
$YXXDR,A,5.4,D,PTCH,A,4.3,D,ROLL*5B
$PTAK,FFD1,4.3*52
$P,735
$HCHDG,331.2,0.0,E,,*2A
$PTAK,FFD1,*7B
$IIMWV,176,T,09.5,N,A*19
$P,806
$P,788
$HCHDG,331.5,0.0,E,,*2D
$PTAK,FFD1,*7B
$P,818
$IIRMB,A,2.34,L,,Lac ,,,,,029.0,355,,V,A*24
$P,765
$GPRMC,200337.0,A,4754.40107,N,12226.25716,W,008.48,346.9,080314,016.7,E,D*27
$IIRMB,A,0.00,L,B,X,470.019260,N,12226.594520,W,54.4,180,-8.25,V*2C
$IIVHW,,,,,7.86,N,,*10
$PGRME,2.4,M,2.4,M,3.5,M*28
$HCHDG,331.6,0.0,E,,*2E
$PTAK,FFD1,*7B
$P,796
$P,763
$IIRMC,200300,A,4754.398,N,12226.256,W,08.3,345,080314,16,E,A*1B
$IIRMB,A,0.00,L,B,X,470.019260,N,12226.594520,W,54.4,180,-8.01,V*2A
$P,812
$HCHDG,331.8,0.0,E,,*20
$PTAK,FFD1,*7B
$P,774
$P,765
$GPRMC,200337.2,A,4754.40153,N,12226.25729,W,008.49,345.9,080314,016.7,E,D*2A
$IIRMB,A,0.00,L,B,X,470.019260,N,12226.594520,W,54.4,180,-8.23,V*2A
$IIVHW,,,,,7.84,N,,*12
$PGRME,2.4,M,2.4,M,3.5,M*28
$IIVLW,06480,N,000.0,N*59
$P,743
$HCHDG,331.9,0.0,E,,*21
$PTAK,FFD1,*7B
$IIVWR,171,R,09.6,N,,,,*69
$P,756
$YXXDR,A,5.4,D,PTCH,A,7.1,D,ROLL*5A
$P,713
$P,777
$IIGLL,4754.398,N,12226.256,W,200300,A,A*47
$HCHDG,331.9,0.0,E,,*21
$PTAK,FFD1,*7B
$IIVDR,50.94,T,,,2.09,N*69
$P,738
$GPRMC,200337.4,A,4754.40200,N,12226.25743,W,008.43,345.9,080314,016.7,E,D*2F
$IIRMB,A,0.00,L,B,X,470.019260,N,12226.594520,W,54.4,180,-8.17,V*2D
$IIVHW,,,,,7.73,N,,*1A
$PGRME,2.4,M,2.4,M,3.5,M*28
$IIMWV,171,R,09.6,N,A*1B
$HCHDG,331.8,0.0,E,,*20
$PTAK,FFD1,*7B
$P,766
$P,765
$P,775
$HCHDG,332.0,0.0,E,,*2B
$PTAK,FFD1,*7B
$P,752
$P,792
$GPRMC,200337.6,A,4754.40249,N,12226.25758,W,008.14,345.8,080314,016.7,E,D*29
$IIRMB,A,0.00,L,B,X,470.019260,N,12226.594520,W,54.4,180,-7.88,V*24
$IIVHW,,,,,7.70,N,,*19
$PGRME,2.4,M,2.4,M,3.5,M*28
$HCHDG,332.1,0.0,E,,*2A
$PTAK,FFD1,*7B
$P,758
$P,760
$P,750
$HCHDG,332.2,0.0,E,,*29
$PTAK,FFD1,*7B
$P,782
$GPRMC,200337.8,A,4754.40291,N,12226.25772,W,008.19,344.7,080314,016.7,E,D*29
$IIRMB,A,0.00,L,B,X,470.019260,N,12226.594520,W,54.4,180,-7.89,V*25
$GPRMB,A,2.34,L,,Lac,4823.3220,N,12229.7720,W,29.0,355,8.05,V*72
$P,739
$IIVHW,,,,,7.65,N,,*1D
$PGRME,2.4,M,2.4,M,3.5,M*28
$YXXDR,A,5.4,D,PTCH,A,8.7,D,ROLL*53
$PTAK,FFD1,8.7*5A
$P,791
$HCHDG,332.3,0.0,E,,*28
$PTAK,FFD1,*7B
$IIMWV,171,T,09.6,N,A*1D
$P,763
$P,784
$HCHDG,332.7,0.0,E,,*2C
$PTAK,FFD1,*7B
$P,768
$IIRMB,A,2.34,L,,Lac ,,,,,029.0,355,,V,A*24
$P,787
$GPRMC,200338.0,A,4754.40334,N,12226.25799,W,008.26,343.4,080314,016.7,E,D*2D
$IIRMB,A,0.00,L,B,X,470.019260,N,12226.594520,W,54.4,180,-7.91,V*2C
$IIVHW,,,,,7.68,N,,*10
$PGRME,2.5,M,2.4,M,3.5,M*29
$HCHDG,332.7,0.0,E,,*2C
$PTAK,FFD1,*7B
$P,746
$P,801
$IIRMC,200300,A,4754.401,N,12226.257,W,08.4,346,080314,16,E,A*19
$IIRMB,A,0.00,L,B,X,470.019260,N,12226.594520,W,54.4,180,-8.14,V*2E
$P,760
$HCHDG,332.8,0.0,E,,*23
$PTAK,FFD1,*7B
$P,782
$P,737
$GPRMC,200338.2,A,4754.40378,N,12226.25825,W,008.33,343.1,080314,016.7,E,D*2E
$IIRMB,A,0.00,L,B,X,470.019260,N,12226.594520,W,54.4,180,-7.96,V*2B
$IIVHW,,,,,7.65,N,,*1D
$PGRME,2.5,M,2.4,M,3.5,M*29
$IIVLW,06480,N,000.0,N*59
$HCHDG,333.0,0.0,E,,*2A
$PTAK,FFD1,*7B
$P,792
$IIVWR,168,R,09.7,N,,,,*60
$P,756
$YXXDR,A,5.3,D,PTCH,A,10.2,D,ROLL*68
$IIDPT,015.9,-1.0,*4D
$P,773
$P,764
$HCHDG,333.0,0.0,E,,*2A
$PTAK,FFD1,*7B
$IIVDR,42.34,T,,,1.56,N*69
$P,790
$GPRMC,200338.4,A,4754.40425,N,12226.25843,W,007.98,343.4,080314,016.7,E,D*2C
$IIRMB,A,0.00,L,B,X,470.019260,N,12226.594520,W,54.4,180,-7.64,V*26
$IIGLL,4754.401,N,12226.257,W,200300,A,A*41
$IIVHW,,,,,7.66,N,,*1E
$PGRME,2.5,M,2.4,M,3.5,M*29
$HCHDG,333.2,0.0,E,,*28
$PTAK,FFD1,*7B
$P,755
$P,765
$P,750
$HCHDG,332.9,0.0,E,,*22
$PTAK,FFD1,*7B
$P,766
$P,731
$GPRMC,200338.6,A,4754.40473,N,12226.25868,W,008.14,342.6,080314,016.7,E,D*2C
$IIRMB,A,0.00,L,B,X,470.019260,N,12226.594520,W,54.4,180,-7.76,V*25
$PGRME,2.5,M,2.4,M,3.5,M*29
$IIVHW,,,,,7.66,N,,*1E
$HCHDG,332.8,0.0,E,,*23
$PTAK,FFD1,*7B
$P,769
$P,719
$P,728
$HCHDG,332.8,0.0,E,,*23
$PTAK,FFD1,*7B
$P,672
$GPRMC,200338.8,A,4754.40521,N,12226.25899,W,007.97,342.7,080314,016.7,E,D*2F
$IIRMB,A,0.00,L,B,X,470.019260,N,12226.594520,W,54.4,180,-7.60,V*22
$GPRMB,A,2.33,L,,Lac,4823.3220,N,12229.7720,W,29.0,355,7.78,V*70
$PGRME,2.5,M,2.4,M,3.5,M*29
$IIVHW,,,,,7.57,N,,*1C
$YXXDR,A,5.4,D,PTCH,A,9.8,D,ROLL*5D
$P,688
$P,693
$HCHDG,332.6,0.0,E,,*2D
$PTAK,FFD1,*7B
$IIMWV,168,R,09.6,N,A*13
$P,736
$IIMWV,168,T,09.7,N,A*14
$HCHDG,332.8,0.0,E,,*23
$PTAK,FFD1,*7B
$P,724
$P,743
$GPRMC,200339.0,A,4754.40567,N,12226.25914,W,007.92,342.3,080314,016.7,E,D*21
$IIRMB,A,0.00,L,B,X,470.019260,N,12226.594520,W,54.4,180,-7.53,V*22
$PGRME,2.5,M,2.4,M,3.5,M*29
$IIVHW,,,,,7.48,N,,*12
$IIRMB,A,2.34,L,,Lac ,,,,,029.0,355,,V,A*24
$P,718
$HCHDG,332.8,0.0,E,,*23
$PTAK,FFD1,*7B
$P,723
$P,701
$HCHDG,332.5,0.0,E,,*2E
$PTAK,FFD1,*7B
$P,728
