$HCHDG,2.5,0.0,E,,*2E
$YXXDR,A,5.6,D,PTCH,A,4.1,D,ROLL*5B
$HCHDG,2.6,0.0,E,,*2D
$YXXDR,A,5.6,D,PTCH,A,4.1,D,ROLL*5B
$GPRMC,164615.2,A,4916.5299,N,12311.0494,W,4.08,3.65,220614,018.2,E*79
$HCHDG,2.5,0.0,E,,*2E
$YXXDR,A,5.7,D,PTCH,A,4.1,D,ROLL*5A
$HCHDG,2.5,0.0,E,,*2E
$YXXDR,A,5.7,D,PTCH,A,4.1,D,ROLL*5A
$GPRMC,164615.4,A,4916.5301,N,12311.0493,W,3.02,18.73,220614,018.2,E*48
$HCHDG,2.4,0.0,E,,*2F
$YXXDR,A,5.8,D,PTCH,A,4.0,D,ROLL*54
$TIROT,15.0,A*0F
$HCHDG,2.3,0.0,E,,*28
$YXXDR,A,5.8,D,PTCH,A,3.9,D,ROLL*5A
$GPRMC,164615.6,A,4916.5303,N,12311.0492,W,2.93,20.85,220614,018.2,E*42
$HCHDG,2.3,0.0,E,,*28
$YXXDR,A,5.8,D,PTCH,A,3.9,D,ROLL*5A
$HCHDG,2.4,0.0,E,,*2F
$YXXDR,A,5.8,D,PTCH,A,3.9,D,ROLL*5A
$GPGGA,164615.800,4916.5304,N,12311.0491,W,1,7,1.38,14.6,M,-16.8,M,,*5F
$GPGSA,A,3,03,16,19,13,10,27,23,,,,,,1.64,1.38,0.90*09
$GPGSV,3,1,11,13,73,122,36,10,44,267,38,23,41,129,40,16,35,050,36*7B
$GPGSV,3,2,11,48,32,192,40,03,26,116,36,27,23,090,29,19,11,121,41*76
$GPGSV,3,3,11,08,,,30,05,,,35,07,,,32*77
$GPRMC,164615.8,A,4916.5304,N,12311.0491,W,2.66,23.48,220614,018.2,E*40
$HCHDG,2.1,0.0,E,,*2A
$YXXDR,A,5.8,D,PTCH,A,4.0,D,ROLL*54
$HCHDG,2.1,0.0,E,,*2A
$YXXDR,A,5.8,D,PTCH,A,3.9,D,ROLL*5A
$GPRMC,164616.0,A,4916.5306,N,12311.0490,W,2.87,21.71,220614,018.2,E*4F
$HCHDG,2.2,0.0,E,,*29
$YXXDR,A,5.8,D,PTCH,A,3.9,D,ROLL*5A
$HCHDG,2.2,0.0,E,,*29
$YXXDR,A,5.8,D,PTCH,A,3.9,D,ROLL*5A
$GPRMC,164616.2,A,4916.5307,N,12311.0489,W,2.75,20.33,220614,018.2,E*4E
$HCHDG,2.2,0.0,E,,*29
$YXXDR,A,5.6,D,PTCH,A,4.0,D,ROLL*5A
$HCHDG,2.1,0.0,E,,*2A
$YXXDR,A,5.6,D,PTCH,A,4.1,D,ROLL*5B
$GPRMC,164616.4,A,4916.5309,N,12311.0488,W,2.52,22.17,220614,018.2,E*46
$HCHDG,2.1,0.0,E,,*2A
$YXXDR,A,5.4,D,PTCH,A,4.1,D,ROLL*59
$TIROT,3.8,A*30
$HCHDG,2.3,0.0,E,,*28
$YXXDR,A,5.5,D,PTCH,A,4.2,D,ROLL*5B
$GPRMC,164616.6,A,4916.5311,N,12311.0487,W,2.68,21.52,220614,018.2,E*49
$HCHDG,2.3,0.0,E,,*28
$YXXDR,A,5.4,D,PTCH,A,4.4,D,ROLL*5C
$HCHDG,2.2,0.0,E,,*29
$YXXDR,A,5.4,D,PTCH,A,4.2,D,ROLL*5A
$GPGGA,164616.800,4916.5313,N,12311.0486,W,1,7,1.37,15.1,M,-16.8,M,,*55
$GPGSA,A,3,03,16,19,13,10,27,23,,,,,,1.64,1.37,0.90*06
$GPGSV,3,1,11,13,73,122,37,10,44,267,38,23,41,129,40,16,35,050,35*79
$GPGSV,3,2,11,48,32,192,40,03,26,116,35,27,23,090,30,19,11,121,42*7E
$GPGSV,3,3,11,08,,,36,05,,,36,07,,,32*72
$GPRMC,164616.8,A,4916.5313,N,12311.0486,W,2.81,21.51,220614,018.2,E*40
$HCHDG,2.2,0.0,E,,*29
$YXXDR,A,5.4,D,PTCH,A,4.2,D,ROLL*5A
$HCHDG,2.1,0.0,E,,*2A
$YXXDR,A,5.4,D,PTCH,A,4.2,D,ROLL*5A
$GPRMC,164617.0,A,4916.5315,N,12311.0484,W,2.76,19.37,220614,018.2,E*4E
$HCHDG,2.2,0.0,E,,*29
$YXXDR,A,5.4,D,PTCH,A,4.0,D,ROLL*58
$HCHDG,1.9,0.0,E,,*21
$YXXDR,A,5.4,D,PTCH,A,4.0,D,ROLL*58
$GPRMC,164617.2,A,4916.5316,N,12311.0482,W,2.85,20.90,220614,018.2,E*42
$HCHDG,1.9,0.0,E,,*21
$YXXDR,A,5.4,D,PTCH,A,4.0,D,ROLL*58
$HCHDG,1.8,0.0,E,,*20
$YXXDR,A,5.4,D,PTCH,A,4.0,D,ROLL*58
$GPRMC,164617.4,A,4916.5318,N,12311.0481,W,2.70,22.70,220614,018.2,E*4F
$HCHDG,1.7,0.0,E,,*2F
$YXXDR,A,5.5,D,PTCH,A,4.0,D,ROLL*59
$TIROT,17.5,A*08
$HCHDG,1.6,0.0,E,,*2E
$YXXDR,A,5.7,D,PTCH,A,4.2,D,ROLL*59
$GPRMC,164617.6,A,4916.5319,N,12311.0479,W,2.88,21.44,220614,018.2,E*48
$HCHDG,1.6,0.0,E,,*2E
$YXXDR,A,5.7,D,PTCH,A,4.2,D,ROLL*59
$HCHDG,1.8,0.0,E,,*20
$YXXDR,A,5.8,D,PTCH,A,4.6,D,ROLL*52
$GPGGA,164617.800,4916.5321,N,12311.0478,W,1,7,1.38,15.7,M,-16.8,M,,*5D
$GPGSA,A,3,03,16,19,13,10,27,23,,,,,,1.64,1.38,0.90*09
$GPGSV,3,1,11,13,73,122,36,10,44,267,41,23,41,129,40,16,35,050,35*76
$GPGSV,3,2,11,48,32,192,40,03,26,116,36,27,23,090,29,19,11,121,42*75
$GPGSV,3,3,11,08,,,34,05,,,31,07,,,37*72
$GPRMC,164617.8,A,4916.5321,N,12311.0478,W,2.65,19.67,220614,018.2,E*45
$HCHDG,1.7,0.0,E,,*2F
$YXXDR,A,5.8,D,PTCH,A,4.6,D,ROLL*52
$HCHDG,1.6,0.0,E,,*2E
$YXXDR,A,5.8,D,PTCH,A,4.9,D,ROLL*5D
$GPRMC,164618.0,A,4916.5323,N,12311.0477,W,2.54,20.66,220614,018.2,E*46
$HCHDG,1.8,0.0,E,,*20
$YXXDR,A,5.8,D,PTCH,A,4.9,D,ROLL*5D
$HCHDG,1.8,0.0,E,,*20
$YXXDR,A,5.8,D,PTCH,A,4.8,D,ROLL*5C
$GPRMC,164618.2,A,4916.5324,N,12311.0477,W,2.71,20.41,220614,018.2,E*41
$HCHDG,1.8,0.0,E,,*20
$YXXDR,A,5.8,D,PTCH,A,4.7,D,ROLL*53
$HCHDG,2.0,0.0,E,,*2B
$YXXDR,A,5.8,D,PTCH,A,4.5,D,ROLL*51
$GPRMC,164618.4,A,4916.5326,N,12311.0476,W,2.75,19.42,220614,018.2,E*49
$HCHDG,1.9,0.0,E,,*21
$YXXDR,A,5.8,D,PTCH,A,4.3,D,ROLL*57
$TIROT,11.7,A*0C
$HCHDG,1.8,0.0,E,,*20
$YXXDR,A,5.9,D,PTCH,A,4.3,D,ROLL*56
$GPRMC,164618.6,A,4916.5328,N,12311.0475,W,2.71,21.78,220614,018.2,E*40
$HCHDG,1.5,0.0,E,,*2D
$YXXDR,A,5.9,D,PTCH,A,4.3,D,ROLL*56
$HCHDG,1.5,0.0,E,,*2D
$YXXDR,A,5.8,D,PTCH,A,4.3,D,ROLL*57
$GPGGA,164618.800,4916.5329,N,12311.0474,W,1,7,1.37,15.7,M,-16.8,M,,*59
$GPGSA,A,3,03,16,19,13,10,27,23,,,,,,1.64,1.37,0.90*06
$GPGSV,3,1,11,13,73,122,36,10,44,267,41,23,41,129,40,16,35,050,35*76
$GPGSV,3,2,11,48,32,192,40,03,26,116,37,27,23,090,32,19,11,121,42*7E
$GPGSV,3,3,11,08,,,35,05,,,35,07,,,29*78
$GPRMC,164618.8,A,4916.5329,N,12311.0474,W,2.85,20.56,220614,018.2,E*48
$HCHDG,1.5,0.0,E,,*2D
$YXXDR,A,5.6,D,PTCH,A,4.1,D,ROLL*5B
$HCHDG,1.4,0.0,E,,*2C
$YXXDR,A,5.5,D,PTCH,A,4.2,D,ROLL*5B
$GPRMC,164619.0,A,4916.5331,N,12311.0473,W,2.65,20.30,220614,018.2,E*41
$HCHDG,1.4,0.0,E,,*2C
$YXXDR,A,5.4,D,PTCH,A,4.2,D,ROLL*5A
$GPRMC,164619.2,A,4916.5333,N,12311.0472,W,2.70,19.92,220614,018.2,E*46
$GPRMC,164619.4,A,4916.5334,N,12311.0471,W,2.93,20.54,220614,018.2,E*49
$GPRMC,164619.6,A,4916.5335,N,12311.0469,W,2.76,19.38,220614,018.2,E*48
$HCHDG,1.4,0.0,E,,*2C
$YXXDR,A,5.4,D,PTCH,A,4.2,D,ROLL*5A
$HCHDG,1.3,0.0,E,,*2B
$YXXDR,A,5.2,D,PTCH,A,4.3,D,ROLL*5D
$HCHDG,1.3,0.0,E,,*2B
$GPGGA,164619.800,4916.5336,N,12311.0468,W,1,7,1.38,16.4,M,-16.8,M,,*54
$GPGSA,A,3,03,16,19,13,10,27,23,,,,,,1.64,1.38,0.90*09
$GPGSV,3,1,11,13,73,122,35,10,44,267,41,23,41,129,42,16,35,050,33*71
$GPGSV,3,2,11,48,32,192,40,03,26,116,36,27,23,090,29,19,11,121,41*76
$YXXDR,A,5.2,D,PTCH,A,4.3,D,ROLL*5D
$HCHDG,1.3,0.0,E,,*2B
$YXXDR,A,5.3,D,PTCH,A,4.3,D,ROLL*5C
$TIROT,-2.6,A*12
$HCHDG,1.3,0.0,E,,*2B
$GPGSV,3,3,11,08,,,31,05,,,25,07,,,34*71
$GPRMC,164619.8,A,4916.5336,N,12311.0468,W,2.68,21.15,220614,018.2,E*4F
$GPRMC,164620.0,A,4916.5337,N,12311.0466,W,2.73,20.44,220614,018.2,E*4D
$GPRMC,164620.2,A,4916.5338,N,12311.0465,W,2.44,18.79,220614,018.2,E*42
$YXXDR,A,5.4,D,PTCH,A,4.3,D,ROLL*5B
$HCHDG,1.3,0.0,E,,*2B
$YXXDR,A,5.4,D,PTCH,A,4.3,D,ROLL*5B
$HCHDG,1.3,0.0,E,,*2B
$YXXDR,A,5.8,D,PTCH,A,4.3,D,ROLL*57
$HCHDG,1.3,0.0,E,,*2B
$GPRMC,164620.4,A,4916.5339,N,12311.0464,W,2.31,22.12,220614,018.2,E*42
$GPRMC,164620.6,A,4916.5340,N,12311.0463,W,2.44,18.75,220614,018.2,E*43
$GPGGA,164620.800,4916.5341,N,12311.0462,W,1,7,1.37,17.2,M,-16.8,M,,*5C
$GPGSA,A,3,03,16,19,13,10,27,23,,,,,,1.64,1.37,0.90*06
$YXXDR,A,5.6,D,PTCH,A,4.2,D,ROLL*58
$HCHDG,1.3,0.0,E,,*2B
$YXXDR,A,5.6,D,PTCH,A,4.1,D,ROLL*5B
$HCHDG,1.3,0.0,E,,*2B
$YXXDR,A,5.5,D,PTCH,A,4.2,D,ROLL*5B
$GPGSV,3,1,11,13,73,122,35,10,44,267,37,23,41,129,42,16,35,050,29*7B
$GPGSV,3,2,11,48,32,192,40,03,26,116,38,27,23,090,24,19,11,121,40*74
$GPGSV,3,3,11,08,,,33,05,,,30,07,,,24*76
$GPRMC,164620.8,A,4916.5341,N,12311.0462,W,2.28,20.73,220614,018.2,E*4A
$HCHDG,1.3,0.0,E,,*2B
$YXXDR,A,5.6,D,PTCH,A,4.1,D,ROLL*5B
$HCHDG,1.2,0.0,E,,*2A
$YXXDR,A,5.7,D,PTCH,A,4.2,D,ROLL*59
$HCHDG,1.2,0.0,E,,*2A
$GPRMC,164621.0,A,4916.5342,N,12311.0461,W,2.71,21.75,220614,018.2,E*48
$GPRMC,164621.2,A,4916.5343,N,12311.0460,W,2.82,20.74,220614,018.2,E*46
$GPRMC,164621.4,A,4916.5344,N,12311.0459,W,2.66,20.11,220614,018.2,E*44
$YXXDR,A,5.7,D,PTCH,A,4.2,D,ROLL*59
$HCHDG,1.2,0.0,E,,*2A
$YXXDR,A,5.7,D,PTCH,A,4.1,D,ROLL*5A
$TIROT,5.8,A*36
$HCHDG,1.3,0.0,E,,*2B
$YXXDR,A,5.7,D,PTCH,A,4.1,D,ROLL*5A
$HCHDG,1.0,0.0,E,,*28
$YXXDR,A,5.6,D,PTCH,A,4.0,D,ROLL*5A
$HCHDG,1.0,0.0,E,,*28
$YXXDR,A,5.5,D,PTCH,A,4.0,D,ROLL*59
$HCHDG,1.0,0.0,E,,*28
$YXXDR,A,5.5,D,PTCH,A,4.0,D,ROLL*59
$HCHDG,1.0,0.0,E,,*28
$YXXDR,A,5.4,D,PTCH,A,4.0,D,ROLL*58
$HCHDG,1.0,0.0,E,,*28
$YXXDR,A,5.6,D,PTCH,A,3.9,D,ROLL*54
$HCHDG,0.7,0.0,E,,*2E
$YXXDR,A,5.4,D,PTCH,A,3.9,D,ROLL*56
$HCHDG,0.8,0.0,E,,*21
$YXXDR,A,5.6,D,PTCH,A,3.9,D,ROLL*54
$HCHDG,0.8,0.0,E,,*21
$YXXDR,A,5.5,D,PTCH,A,3.8,D,ROLL*56
$HCHDG,0.8,0.0,E,,*21
$YXXDR,A,5.6,D,PTCH,A,3.8,D,ROLL*55
$TIROT,14.2,A*0C
$HCHDG,0.8,0.0,E,,*21
$YXXDR,A,5.5,D,PTCH,A,3.8,D,ROLL*56
$GPRMC,164621.6,A,4916.5346,N,12311.0458,W,2.81,21.67,220614,018.2,E*4C
$HCHDG,0.5,0.0,E,,*2C
$YXXDR,A,5.7,D,PTCH,A,3.8,D,ROLL*54
$HCHDG,0.5,0.0,E,,*2C
$YXXDR,A,5.6,D,PTCH,A,3.8,D,ROLL*55
$GPGGA,164621.800,4916.5347,N,12311.0457,W,1,7,1.37,17.5,M,-16  8,M,,*5A
$GPGSA,A,3,03,16,19,13,10,27,23,,,,,,1.64,1.37,0.90*02,192,40,03,26,116,38,27,23,090,28,19,11,121,39*76
$GPGSV,3,3,11,08,,,35,05,,,26,07,,,24*77
$GPRMC,164621.8,A,4916.5347,N,12311.0457,W,2.64,19.05,220614,018.2,E*48
$HCHDG,0.5,0.0,E,,*2C
$YXXDR,A,5.8,D,PTCH,A,3.9,D,ROLL*5A
$HCHDG,0.8,0.0,E,,*21
$YXXDR,A,5.6,D,PTCH,A,4.0,D,ROLL*5A
$GPRMC,164622.0,A,4916.5348,N,12311.0456,W,2.75,21.88,220614,018.2,E*43
$HCHDG,0.8,0.0,E,,*21
$YXXDR,A,5.6,D,PTCH,A,4.1,D,ROLL*5B
$HCHDG,0.8,0.0,E,,*21
$YXXDR,A,5.6,D,PTCH,A,4.1,D,ROLL*5B
$GPRMC,164622.2,A,4916.5349,N,12311.0456,W,2.58,21.21,220614,018.2,E*4C
$HCHDG,0.7,0.0,E,,*2E
$YXXDR,A,5.6,D,PTCH,A,4.1,D,ROLL*5B
$HCHDG,0.7,0.0,E,,*2E
$YXXDR,A,5.6,D,PTCH,A,4.0,D,ROLL*5A
$GPRMC,164622.4,A,4916.5350,N,12311.0455,W,2.39,23.24,220614,018.2,E*41
$HCHDG,0.7,0.0,E,,*2E
$YXXDR,A,5.4,D,PTCH,A,4.0,D,ROLL*58
$TIROT,3.1,A*39
$HCHDG,0.7,0.0,E,,*2E
$YXXDR,A,5.3,D,PTCH,A,4.0,D,ROLL*5F
$GPRMC,164622.6,A,4916.5351,N,12311.0454,W,2.69,17.25,220614,018.2,E*40
$HCHDG,0.6,0.0,E,,*2F
$YXXDR,A,5.2,D,PTCH,A,4.0,D,ROLL*5E
$HCHDG,0.6,0.0,E,,*2F
$YXXDR,A,5.1,D,PTCH,A,3.9,D,ROLL*53
$GPGGA,164622.800,4916.5353,N,12311.0453,W,1,7,1.37,17.4,M,-16.8,M,,*59
$GPGSA,A,3,03,16,19,13,10,27,23,,,,,,1.64,1.37,0.90*06
$GPGSV,3,1,11,13,73,122,36,10,44,267,34,23,41,129,43,16,35,050,31*73
$GPGSV,3,2,11,48,32,192,39,03,26,116,39,27,23,090,30,19,11,121,39*70
$GPGSV,3,3,11,08,,,32,05,,,25,07,,,27*70
$GPRMC,164622.8,A,4916.5353,N,12311.0453,W,2.65,16.29,220614,018.2,E*4A
$HCHDG,0.6,0.0,E,,*2F
$YXXDR,A,5.1,D,PTCH,A,3.9,D,ROLL*53
$HCHDG,0.3,0.0,E,,*2A
$YXXDR,A,5.1,D,PTCH,A,3.9,D,ROLL*53
$GPRMC,164623.0,A,4916.5354,N,12311.0452,W,2.92,21.25,220614,018.2,E*45
$HCHDG,0.2,0.0,E,,*2B
$YXXDR,A,5.3,D,PTCH,A,4.0,D,ROLL*5F
$HCHDG,0.2,0.0,E,,*2B
$YXXDR,A,5.6,D,PTCH,A,4.0,D,ROLL*5A
$GPRMC,164623.2,A,4916.5355,N,12311.0452,W,2.58,19.41,220614,018.2,E*49
$HCHDG,0.2,0.0,E,,*2B
$YXXDR,A,5.4,D,PTCH,A,4.1,D,ROLL*59
$HCHDG,0.4,0.0,E,,*2D
$YXXDR,A,5.6,D,PTCH,A,4.1,D,ROLL*5B
$GPRMC,164623.4,A,4916.5356,N,12311.0451,W,2.65,21.36,220614,018.2,E*4A
$HCHDG,0.3,0.0,E,,*2A
$YXXDR,A,5.7,D,PTCH,A,4.2,D,ROLL*59
$TIROT,23.8,A*02
$HCHDG,0.3,0.0,E,,*2A
$YXXDR,A,5.9,D,PTCH,A,4.3,D,ROLL*56
$GPRMC,164623.6,A,4916.5357,N,12311.0450,W,2.74,20.32,220614,018.2,E*4D
$HCHDG,0.1,0.0,E,,*28
$YXXDR,A,5.9,D,PTCH,A,4.3,D,ROLL*56
$HCHDG,0.5,0.0,E,,*2C
$YXXDR,A,6.0,D,PTCH,A,4.3,D,ROLL*5C
$HCHDG,0.5,0.0,E,,*2C
$YXXDR,A,5.8,D,PTCH,A,4.5,D,ROLL*51
$GPGGA,164623.800,4916.5358,N,12311.0450,W,1,7,1.37,17.0,M,-16.8,M,,*54
$GPGSV,3,1,171
$GPGSV,3,3,11,08,,,35,05,,,27,07,,,29*7B
$HCHDG,0.4,0.0,E,,*2D
$YXXDR,A,5.8,D,PTCH,A,4.5,D,ROLL*51
$GPRMC,164623.8,A,4916.5358,N,12311.0450,W,2.79,17.37,220614,018.2,E*40
$GPRMC,164624.0,A,4916.5359,N,12311.0449,W,2.15,23.24,220614,018.2,E*49
$HCHDG,0.4,0.0,E,,*2D
$YXXDR,A,5.8,D,PTCH,A,4.4,D,ROLL*50
$HCHDG,0.4,0.0,E,,*2D
$YXXDR,A,5.8,D,PTCH,A,4.3,D,ROLL*57
$GPRMC,164624.2,A,4916.5360,N,12311.0449,W,2.48,14.61,220614,018.2,E*4C
$HCHDG,0.4,0.0,E,,*2D
$YXXDR,A,5.5,D,PTCH,A,4.3,D,ROLL*5A
$HCHDG,0.3,0.0,E,,*2A
$YXXDR,A,5.4,D,PTCH,A,4.1,D,ROLL*59
$GPRMC,164624.4,A,4916.5362,N,12311.0448,W,2.66,18.79,220614,018.2,E*40
$HCHDG,0.4,0.0,E,,*2D
$YXXDR,A,5.3,D,PTCH,A,4.0,D,ROLL*5F
$TIROT,2.7,A*3E
$HCHDG,0.4,0.0,E,,*2D
$YXXDR,A,5.3,D,PTCH,A,4.0,D,ROLL*5F
$GPRMC,164624.6,A,4916.5363,N,12311.0448,W,2.68,14.93,220614,018.2,E*45
$HCHDG,0.1,0.0,E,,*28
$YXXDR,A,5.2,D,PTCH,A,4.0,D,ROLL*5E
$HCHDG,0.1,0.0,E,,*28
$YXXDR,A,5.1,D,PTCH,A,4.0,D,ROLL*5D
$GPGGA,164624.800,4916.5364,N,12311.0447,W,1,7,1.46,16.7,M,-16.8,M,,*5A
$GPGSA,A,3,03,16,19,13,10,27,23,,,,,,2.54,1.46,2.08*03
$GPGSV,3,1,11,13,73,122,38,10,44,267,37,23,41,129,39,16,35,050,25*76
$GPGSV,3,2,11,48,32,192,36,03,26,116,37,27,23,090,32,19,12,121,39*70
$GPGSV,3,3,11,08,,,36,05,,,26,07,,,34*75
$GPRMC,164624.8,A,4916.5364,N,12311.0447,W,2.76,18.56,220614,018.2,E*49
$HCHDG,0.2,0.0,E,,*2B
$YXXDR,A,5.1,D,PTCH,A,3.9,D,ROLL*53
$HCHDG,0.3,0.0,E,,*2A
$YXXDR,A,5.2,D,PTCH,A,4.0,D,ROLL*5E
$GPRMC,164625.0,A,4916.5364,N,12311.0447,W,2.44,18.79,220614,018.2,E*4C
$HCHDG,0.3,0.0,E,,*2A
$YXXDR,A,5.4,D,PTCH,A,4.0,D,ROLL*58
$HCHDG,0.5,0.0,E,,*2C
$YXXDR,A,5.4,D,PTCH,A,4.2,D,ROLL*5A
$GPRMC,164625.2,A,4916.5366,N,12311.0446,W,2.72,19.32,220614,018.2,E*46
$HCHDG,0.6,0.0,E,,*2F
$YXXDR,A,5.2,D,PTCH,A,4.2,D,ROLL*5C
$HCHDG,0.5,0.0,E,,*2C
$YXXDR,A,5.4,D,PTCH,A,4.2,D,ROLL*5A
$GPRMC,164625.4,A,4916.5367,N,12311.0446,W,2.60,22.33,220614,018.2,E*4B
$HCHDG,0.6,0.0,E,,*2F
$YXXDR,A,5.4,D,PTCH,A,4.2,D,ROLL*5A
$TIROT,69.9,A*0D
$HCHDG,0.8,0.0,E,,*21
$YXXDR,A,5.3,D,PTCH,A,3.9,D,ROLL*51
$GPRMC,164625.6,A,4916.5368,N,12311.0445,W,2.57,20.21,220614,018.2,E*40
$HCHDG,0.9,0.0,E,,*20
$YXXDR,A,5.3,D,PTCH,A,3.9,D,ROLL*51
$HCHDG,0.9,0.0,E,,*20
$YXXDR,A,5.3,D,PTCH,A,4.0,D,ROLL*5F
$GPGGA,164625.800,4916.5370,N,12311.0444,W,1,7,1.37,16.5,M,-16.8,M,,*59
$GPGSA,A,3,03,16,19,13,10,27,23,,,,,,1.64,1.37,0.90*06
$GPGSV,3,1,11,13,73,122,38,10,44,267,39,23,41,129,38,16,35,050,37*7A
$GPGSV,3,2,11,48,32,192,38,03,26,116,39,27,23,090,30,19,12,121,40*7C
$GPGSV,3,3,11,08,,,33,05,,,29,07,,,32*79
$GPRMC,164625.8,A,4916.5370,N,12311.0444,W,2.60,22.41,220614,018.2,E*46
$HCHDG,1.0,0.0,E,,*28
$YXXDR,A,5.2,D,PTCH,A,4.0,D,ROLL*5E
$HCHDG,0.8,0.0,E,,*21
$YXXDR,A,5.2,D,PTCH,A,4.0,D,ROLL*5E
$GPRMC,164626.0,A,4916.5372,N,12311.0443,W,2.75,19.67,220614,018.2,E*40
$HCHDG,0.8,0.0,E,,*21
$YXXDR,A,5.1,D,PTCH,A,3.9,D,ROLL*53
$HCHDG,0.8,0.0,E,,*21
$YXXDR,A,5.1,D,PTCH,A,3.9,D,ROLL*53
$GPRMC,164626.2,A,4916.5374,N,12311.0442,W,2.66,20.65,220614,018.2,E*4F
$HCHDG,0.8,0.0,E,,*21
$YXXDR,A,5.1,D,PTCH,A,4.0,D,ROLL*5D
$HCHDG,0.8,0.0,E,,*21
$YXXDR,A,5.1,D,PTCH,A,4.0,D,ROLL*5D
$GPRMC,164626.4,A,4916.5376,N,12311.0441,W,2.77,20.05,220614,018.2,E*4E
$HCHDG,0.8,0.0,E,,*21
$YXXDR,A,5.2,D,PTCH,A,4.0,D,ROLL*5E
$TIROT,50.1,A*0F
$HCHDG,0.8,0.0,E,,*21
$YXXDR,A,5.4,D,PTCH,A,4.0,D,ROLL*58
$GPRMC,164626.6,A,4916.5377,N,12311.0441,W,2.66,18.15,220614,018.2,E*47
$HCHDG,0.7,0.0,E,,*2E
$YXXDR,A,5.5,D,PTCH,A,4.2,D,ROLL*5B
$HCHDG,0.7,0.0,E,,*2E
$YXXDR,A,5.4,D,PTCH,A,4.2,D,ROLL*5A
$GPGGA,164626.800,4916.5379,N,12311.0440,W,1,8,1.28,16.3,M,-16.8,M,,*50
$GPGSA,A,3,08,03,16,19,13,10,27,23,,,,,1.57,1.28,0.90*00
$GPGSV,3,1,11,13,73,122,37,10,44,267,39,08,43,259,35,23,41,129,41*7C
$GPGSV,3,2,11,16,35,050,43,48,32,192,38,03,26,116,29,27,23,090,32*71
$GPGSV,3,3,11,19,12,121,39,05,,,29,07,,,33*43
$GPRMC,164626.8,A,4916.5379,N,12311.0440,W,2.61,20.96,220614,018.2,E*41
$HCHDG,0.5,0.0,E,,*2C
$YXXDR,A,5.4,D,PTCH,A,4.2,D,ROLL*5A
$HCHDG,0.6,0.0,E,,*2F
$YXXDR,A,5.5,D,PTCH,A,4.2,D,ROLL*5B
$GPRMC,164627.0,A,4916.5381,N,12311.0439,W,2.64,21.11,220614,018.2,E*4A
$HCHDG,0.6,0.0,E,,*2F
$YXXDR,A,5.5,D,PTCH,A,4.2,D,ROLL*5B
$HCHDG,0.5,0.0,E,,*2C
$YXXDR,A,5.6,D,PTCH,A,4.1,D,ROLL*5B
$GPRMC,164627.2,A,4916.5382,N,12311.0438,W,2.53,23.89,220614,018.2,E*4D
$HCHDG,0.6,0.0,E,,*2F
$YXXDR,A,5.6,D,PTCH,A,3.8,D,ROLL*55
$HCHDG,0.6,0.0,E,,*2F
$YXXDR,A,5.6,D,PTCH,A,3.8,D,ROLL*55
$GPRMC,164627.4,A,4916.5384,N,12311.0437,W,2.66,21.59,220614,018.2,E*4B
$HCHDG,0.5,0.0,E,,*2C
$YXXDR,A,5.5,D,PTCH,A,3.8,D,ROLL*56
$TIROT,3.2,A*3A
$HCHDG,0.2,0.0,E,,*2B
$YXXDR,A,5.4,D,PTCH,A,3.8,D,ROLL*57
$GPRMC,164627.6,A,4916.5385,N,12311.0436,W,2.65,21.66,220614,018.2,E*46
$HCHDG,0.2,0.0,E,,*2B
$YXXDR,A,5.2,D,PTCH,A,3.7,D,ROLL*5E
$HCHDG,0.1,0.0,E,,*28
$YXXDR,A,5.0,D,PTCH,A,3.7,D,ROLL*5C
$HCHDG,0.0,0.0,E,,*29
$YXXDR,A,5.0,D,PTCH,A,3.9,D,ROLL*52
$GPGGA,164627.800,4916.5387,N,12311.0435,W,1,8,1.28,16.3,M,-16.8,M,,*52
$GPGSA,A,3,08,03,16,19,13,10,27,23,,,,,1.57,1.28,0.90*00
$GPGSV,3,1,11,13,73,122,36,10,44,267,35,08,43,259,35,23,41,129,40*70
$GPGSV,3,2,11,16,35,050,43,48,32,192,39,03,26,116,38,27,23,090,30*72
$GPGSV,3,3,11,19,12,121,40,05,,,31,07,,,28*4E
$GPRMC,164627.8,A,4916.5387,N,12311.0435,W,2.61,18.07,220614,018.2,E*40
$HCHDG,359.8,0.0,E,,*2E
$YXXDR,A,4.9,D,PTCH,A,3.8,D,ROLL*5B
$GPRMC,164628.0,A,4916.5388,N,12311.0435,W,2.72,23.94,220614,018.2,E*48
$HCHDG,359.9,0.0,E,,*2F
$YXXDR,A,5.1,D,PTCH,A,3.9,D,ROLL*53
$HCHDG,359.8,0.0,E,,*2E
$YXXDR,A,5.1,D,PTCH,A,4.0,D,ROLL*5D
$GPRMC,164628.2,A,4916.5390,N,12311.0434,W,2.64,17.97,220614,018.2,E*41
$HCHDG,0.1,0.0,E,,*28
$YXXDR,A,5.2,D,PTCH,A,4.2,D,ROLL*5C
$HCHDG,0.1,0.0,E,,*28
$YXXDR,A,5.2,D,PTCH,A,4.2,D,ROLL*5C
$GPRMC,164628.4,A,4916.5391,N,12311.0433,W,2.67,21.81,220614,018.2,E*40
$HCHDG,0.0,0.0,E,,*29
$YXXDR,A,5.4,D,PTCH,A,4.2,D,ROLL*5A
$TIROT,-29.6,A*2B
$HCHDG,0.0,0.0,E,,*29
$YXXDR,A,5.4,D,PTCH,A,4.2,D,ROLL*5A
$GPRMC,164628.6,A,4916.5393,N,12311.0432,W,2.55,21.59,220614,018.2,E*45
$HCHDG,359.9,0.0,E,,*2F
$YXXDR,A,5.4,D,PTCH,A,4.3,D,ROLL*5B
$HCHDG,359.9,0.0,E,,*2F
$YXXDR,A,5.4,D,PTCH,A,4.2,D,ROLL*5A
$GPGGA,164628.800,4916.5394,N,12311.0432,W,1,8,1.28,16.4,M,-16.8,M,,*5F
$GPGSA,A,3,08,03,16,19,13,10,27,23,,,,,1.57,1.28,0.90*00
$GPGSV,3,1,11,13,73,122,39,10,44,267,37,08,43,259,37,23,41,129,42*7D
$GPGSV,3,2,11,16,35,050,42,48,32,192,38,03,26,116,30,27,23,090,35*7F
$GPGSV,3,3,11,19,12,121,40,05,,,32,07,,,32*46
$GPRMC,164628.8,A,4916.5394,N,12311.0432,W,2.61,19.56,220614,018.2,E*4F
$HCHDG,359.8,0.0,E,,*2E
$YXXDR,A,5.2,D,PTCH,A,3.7,D,ROLL*5E
$HCHDG,359.7,0.0,E,,*21
$YXXDR,A,5.3,D,PTCH,A,3.6,D,ROLL*5E
$GPRMC,164629.0,A,4916.5395,N,12311.0431,W,2.57,17.86,220614,018.2,E*42
$HCHDG,359.7,0.0,E,,*21
$YXXDR,A,5.2,D,PTCH,A,3.6,D,ROLL*5F
$HCHDG,359.6,0.0,E,,*20
$YXXDR,A,5.2,D,PTCH,A,3.6,D,ROLL*5F
$GPRMC,164629.2,A,4916.5397,N,12311.0430,W,2.56,21.06,220614,018.2,E*4F
$HCHDG,359.6,0.0,E,,*20
$YXXDR,A,5.0,D,PTCH,A,3.6,D,ROLL*5D
$HCHDG,359.3,0.0,E,,*25
$YXXDR,A,5.0,D,PTCH,A,3.6,D,ROLL*5D
$GPRMC,164629.4,A,4916.5398,N,12311.0430,W,2.66,23.27,220614,018.2,E*44
$HCHDG,359.2,0.0,E,,*24
$YXXDR,A,5.0,D,PTCH,A,3.6,D,ROLL*5D
$TIROT,-47.8,A*2D
$HCHDG,359.1,0.0,E,,*27
$YXXDR,A,5.0,D,PTCH,A,3.6,D,ROLL*5D
$GPRMC,164629.6,A,4916.5399,N,12311.0429,W,2.64,24.36,220614,018.2,E*4A
$HCHDG,358.9,0.0,E,,*2E
$YXXDR,A,5.0,D,PTCH,A,3.6,D,ROLL*5D
$HCHDG,358.9,0.0,E,,*2E
$YXXDR,A,5.0,D,PTCH,A,3.6,D,ROLL*5D
$GPGGA,164629.800,4916.5401,N,12311.0428,W,1,8,1.28,16.6,M,-16.8,M,,*5C
$GPGSA,A,3,08,03,16,19,13,10,27,23,,,,,1.57,1.28,0.90*00
$GPGSV,3,1,11,13,73,122,38,10,44,267,38,08,43,259,36,23,41,129,42*72
$GPGSV,3,2,11,16,35,050,39,48,32,192,35,03,26,116,38,27,23,090,34*77
$GPGSV,3,3,11,19,12,121,42,05,,,35,07,,,29*49
$GPRMC,164629.8,A,4916.5401,N,12311.0428,W,2.52,18.85,220614,018.2,E*41
$HCHDG,358.8,0.0,E,,*2F
$YXXDR,A,5.2,D,PTCH,A,3.6,D,ROLL*5F
$HCHDG,358.6,0.0,E,,*21
$YXXDR,A,5.2,D,PTCH,A,3.8,D,ROLL*51
$GPRMC,164630.0,A,4916.5402,N,12311.0428,W,2.63,21.50,220614,018.2,E*42
$HCHDG,358.7,0.0,E,,*20
$YXXDR,A,5.2,D,PTCH,A,3.8,D,ROLL*51
$HCHDG,358.5,0.0,E,,*22
$YXXDR,A,5.2,D,PTCH,A,4.0,D,ROLL*5E
$GPRMC,164630.2,A,4916.5403,N,12311.0427,W,2.54,17.85,220614,018.2,E*47
$HCHDG,358.4,0.0,E,,*23
$YXXDR,A,5.3,D,PTCH,A,4.0,D,ROLL*5F
$HCHDG,358.4,0.0,E,,*23
$YXXDR,A,5.3,D,PTCH,A,4.0,D,ROLL*5F
$GPRMC,164630.4,A,4916.5405,N,12311.0426,W,2.63,17.95,220614,018.2,E*43
$HCHDG,358.3,0.0,E,,*24
$YXXDR,A,5.3,D,PTCH,A,4.0,D,ROLL*5F
$TIROT,-25.4,A*25
$HCHDG,358.3,0.0,E,,*24
$YXXDR,A,5.3,D,PTCH,A,4.0,D,ROLL*5F
$GPRMC,164630.6,A,4916.5406,N,12311.0425,W,2.64,20.22,220614,018.2,E*4E
$HCHDG,358.1,0.0,E,,*26
$YXXDR,A,5.3,D,PTCH,A,3.9,D,ROLL*51
$HCHDG,358.2,0.0,E,,*25
$YXXDR,A,5.3,D,PTCH,A,3.9,D,ROLL*51
$GPGGA,164630.800,4916.5408,N,12311.0425,W,1,8,1.28,16.6,M,-16.8,M,,*50
$GPGSA,A,3,08,03,16,19,13,10,27,23,,,,,1.57,1.28,0.90*00
$GPGSV,3,1,11,13,73,122,37,10,44,267,29,08,43,259,36,23,41,129,40*7F
$GPGSV,3,2,11,16,35,050,41,48,32,192,36,03,26,116,35,27,23,090,34*76
$GPGSV,3,3,11,19,12,121,42,05,,,39,07,,,36*4B
$GPRMC,164630.8,A,4916.5408,N,12311.0425,W,2.79,18.92,220614,018.2,E*42
$HCHDG,358.0,0.0,E,,*27
$YXXDR,A,5.2,D,PTCH,A,3.7,D,ROLL*5E
$HCHDG,357.9,0.0,E,,*21
$YXXDR,A,5.0,D,PTCH,A,3.7,D,ROLL*5C
$GPRMC,164631.0,A,4916.5409,N,12311.0424,W,2.59,21.43,220614,018.2,E*4F
$HCHDG,357.8,0.0,E,,*20
$YXXDR,A,5.0,D,PTCH,A,3.8,D,ROLL*53
$HCHDG,357.7,0.0,E,,*2F
$YXXDR,A,4.7,D,PTCH,A,3.8,D,ROLL*55
$GPRMC,164631.2,A,4916.5411,N,12311.0423,W,2.64,19.41,220614,018.2,E*44
$HCHDG,357.7,0.0,E,,*2F
$YXXDR,A,4.7,D,PTCH,A,3.8,D,ROLL*55
$HCHDG,357.6,0.0,E,,*2E
$YXXDR,A,4.7,D,PTCH,A,3.8,D,ROLL*55
$GPRMC,164631.4,A,4916.5412,N,12311.0423,W,2.71,20.32,220614,018.2,E*4B
$HCHDG,357.4,0.0,E,,*2C
$YXXDR,A,4.9,D,PTCH,A,3.8,D,ROLL*5B
$TIROT,-38.9,A*24
$HCHDG,357.4,0.0,E,,*2C
$YXXDR,A,5.0,D,PTCH,A,3.9,D,ROLL*52
$GPRMC,164631.6,A,4916.5414,N,12311.0422,W,2.75,21.16,220614,018.2,E*4D
$HCHDG,357.2,0.0,E,,*2A
$YXXDR,A,5.1,D,PTCH,A,3.9,D,ROLL*53
$HCHDG,357.3,0.0,E,,*2B
$YXXDR,A,5.1,D,PTCH,A,3.9,D,ROLL*53
$GPGGA,164631.800,4916.5415,N,12311.0421,W,1,8,1.28,16.7,M,-16.8,M,,*58
$GPGSA,A,3,08,03,16,19,13,10,27,23,,,,,1.57,1.28,0.90*00
$GPGSV,3,1,11,13,73,122,39,10,44,267,35,08,43,259,34,23,41,129,38*71
$GPGSV,3,2,11,16,35,050,42,48,32,192,35,03,26,116,33,27,23,090,36*72
$GPGSV,3,3,11,19,12,121,41,05,,,39,07,,,34*4A
$GPRMC,164631.8,A,4916.5415,N,12311.0421,W,2.75,21.07,220614,018.2,E*41
$HCHDG,357.1,0.0,E,,*29
$YXXDR,A,5.2,D,PTCH,A,4.0,D,ROLL*5E
$HCHDG,357.2,0.0,E,,*2A
$YXXDR,A,5.2,D,PTCH,A,4.0,D,ROLL*5E
$GPRMC,164632.0,A,4916.5417,N,12311.0421,W,2.59,18.72,220614,018.2,E*4E
$HCHDG,357.1,0.0,E,,*29
$YXXDR,A,5.3,D,PTCH,A,3.8,D,ROLL*50
$HCHDG,357.2,0.0,E,,*2A
$YXXDR,A,5.3,D,PTCH,A,3.8,D,ROLL*50
$GPRMC,164632.2,A,4916.5418,N,12311.0420,W,2.60,14.26,220614,018.2,E*45
$HCHDG,357.0,0.0,E,,*28
$YXXDR,A,5.3,D,PTCH,A,3.6,D,ROLL*5E
$HCHDG,357.0,0.0,E,,*28
$YXXDR,A,5.4,D,PTCH,A,3.6,D,ROLL*59
$GPRMC,164632.4,A,4916.5420,N,12311.0419,W,2.72,18.47,220614,018.2,E*4A
$HCHDG,356.8,0.0,E,,*21
$YXXDR,A,5.3,D,PTCH,A,3.5,D,ROLL*5D
$TIROT,-37.2,A*20
$HCHDG,356.6,0.0,E,,*2F
$YXXDR,A,5.1,D,PTCH,A,3.5,D,ROLL*5F
$GPRMC,164632.6,A,4916.5421,N,12311.0419,W,2.78,16.89,220614,018.2,E*4F
$HCHDG,356.6,0.0,E,,*2F
$YXXDR,A,5.0,D,PTCH,A,3.4,D,ROLL*5F
$HCHDG,356.3,0.0,E,,*2A
$YXXDR,A,4.7,D,PTCH,A,3.3,D,ROLL*5E
$HCHDG,356.4,0.0,E,,*2D
$YXXDR,A,4.7,D,PTCH,A,3.2,D,ROLL*5F
$GPGGA,164632.800,4916.5423,N,12311.0418,W,1,8,1.28,16.8,M,-16.8,M,,*5B
$GPGSA,A,3,08,03,16,19,13,10,27,23,,,,,1.57,1.28,0.90*00
$GPGSV,3,1,11,13,73,122,39,10,44,267,25,08,43,259,36,23,41,129,39*73
$GPGSV,3,2,11,16,35,050,40,48,32,192,36,03,26,116,35,27,23,090,33*70
$GPGSV,3,3,11,19,12,121,42,05,,,37,07,,,41*45
$GPRMC,164632.8,A,4916.5423,N,12311.0418,W,2.70,15.84,220614,018.2,E*44
$GPRMC,164633.0,A,4916.5424,N,12311.0418,W,2.58,17.06,220614,018.2,E*48
$HCHDG,3  6.1,0.0,E,,*28
$YXXDR,,4.7,D,PTCH,A,3.1,D,ROLL*5C
$HCHDG,356.2,0.0,E,,*2B
$YXXDR,A,4.7,D,PTCH,A,3.1,D,ROLL*5C
$HCHDG,356.2,0.0,E,,*2B
$YXXDR,A,4.8,D,PTCH,A,3.0,D,ROLL*52
$GPRMC,164633.2,A,4916.5425,N,12311.0417,W,2.58,18.37,220614,018.2,E*49
$HCHDG,355.9,0.0,E,,*23
$YXXDR,A,4.9,D,PTCH,A,3.0,D,ROLL*53
$HCHDG,356.1,0.0,E,,*28
$YXXDR,A,4.9,D,PTCH,A,3.0,D,ROLL*53
$GPRMC,164633.4,A,4916.5427,N,12311.0417,W,2.62,16.44,220614,018.2,E*4E
$HCHDG,355.8,0.0,E,,*22
$YXXDR,A,5.1,D,PTCH,A,2.9,D,ROLL*52
$TIROT,-9.8,A*17
$HCHDG,355.8,0.0,E,,*22
$YXXDR,A,5.1,D,PTCH,A,2.8,D,ROLL*53
$GPRMC,164633.6,A,4916.5428,N,12311.0417,W,2.59,14.53,220614,018.2,E*4F
$HCHDG,355.7,0.0,E,,*2D
$YXXDR,A,5.3,D,PTCH,A,2.8,D,ROLL*51
$HCHDG,355.5,0.0,E,,*2F
$YXXDR,A,5.3,D,PTCH,A,2.8,D,ROLL*51
$GPGGA,164633.800,4916.5430,N,12311.0416,W,1,8,1.34,16.6,M,-16.8,M,,*55
$GPGSA,A,3,08,03,16,19,13,10,27,23,,,,,2.43,1.34,2.02*02
$GPGSV,3,1,11,13,73,122,42,10,44,267,36,08,43,259,35,23,41,129,37*70
$GPGSV,3,2,11,16,35,050,41,48,32,192,34,03,26,116,38,27,23,090,24*78
$GPGSV,3,3,11,19,12,121,40,05,,,24,07,,,44*40
$GPRMC,164633.8,A,4916.5430,N,12311.0416,W,2.81,16.50,220614,018.2,E*4D
$HCHDG,355.2,0.0,E,,*28
$YXXDR,A,5.4,D,PTCH,A,2.9,D,ROLL*57
$HCHDG,355.2,0.0,E,,*28
$YXXDR,A,5.4,D,PTCH,A,3.0,D,ROLL*5F
$GPRMC,164634.0,A,4916.5431,N,12311.0416,W,2.64,12.07,220614,018.2,E*4E
$HCHDG,355.3,0.0,E,,*29
$YXXDR,A,5.2,D,PTCH,A,3.0,D,ROLL*59
$HCHDG,354.9,0.0,E,,*22
$YXXDR,A,5.4,D,PTCH,A,3.0,D,ROLL*5F
$GPRMC,164634.2,A,4916.5433,N,12311.0415,W,2.63,22.91,220614,018.2,E*46
$HCHDG,354.9,0.0,E,,*22
$YXXDR,A,5.1,D,PTCH,A,3.0,D,ROLL*5A
$HCHDG,355.1,0.0,E,,*2B
$YXXDR,A,5.2,D,PTCH,A,3.1,D,ROLL*58
$GPRMC,164634.4,A,4916.5434,N,12311.0415,W,2.61,15.89,220614,018.2,E*48
$HCHDG,355.0,0.0,E,,*2A
$YXXDR,A,5.1,D,PTCH,A,3.4,D,ROLL*5E
$TIROT,-6.8,A*18
$HCHDG,354.9,0.0,E,,*22
$YXXDR,A,5.0,D,PTCH,A,3.4,D,ROLL*5F
$GPRMC,164634.6,A,4916.5436,N,12311.0414,W,2.62,15.18,220614,018.2,E*42
$HCHDG,354.8,0.0,E,,*23
$YXXDR,A,4.9,D,PTCH,A,3.6,D,ROLL*55
$HCHDG,354.7,0.0,E,,*2C
$YXXDR,A,4.7,D,PTCH,A,3.6,D,ROLL*5B
$GPGGA,164634.800,4916.5437,N,12311.0414,W,1,8,1.28,16.6,M,-16.8,M,,*5A
$GPGSA,A,3,08,03,16,19,13,10,27,23,,,,,1.57,1.28,0.90*00
$GPGSV,3,1,11,13,73,122,43,10,44,267,37,08,43,259,36,23,41,129,39*7D
$GPGSV,3,2,11,16,35,050,38,48,32,192,33,03,26,116,38,27,23,090,24*71
$GPGSV,3,3,11,19,12,121,40,05,,,27,07,,,43*44
$GPRMC,164634.8,A,4916.5437,N,12311.0414,W,2.63,15.86,220614,018.2,E*4B
$HCHDG,354.8,0.0,E,,*23
$YXXDR,A,4.7,D,PTCH,A,3.6,D,ROLL*5B
$HCHDG,354.6,0.0,E,,*2D
$YXXDR,A,4.8,D,PTCH,A,3.6,D,ROLL*54
$GPRMC,164635.0,A,4916.5438,N,12311.0414,W,2.70,17.60,220614,018.2,E*45
$HCHDG,354.5,0.0,E,,*2E
$YXXDR,A,4.9,D,PTCH,A,3.8,D,ROLL*5B
$HCHDG,354.3,0.0,E,,*28
$YXXDR,A,4.9,D,PTCH,A,3.8,D,ROLL*5B
$GPRMC,164635.2,A,4916.5440,N,12311.0413,W,2.50,23.12,220614,018.2,E*4F
$HCHDG,354.3,0.0,E,,*28
$YXXDR,A,4.9,D,PTCH,A,3.8,D,ROLL*5B
$HCHDG,354.3,0.0,E,,*28
$YXXDR,A,5.1,D,PTCH,A,3.9,D,ROLL*53
$GPRMC,164635.4,A,4916.5441,N,12311.0412,W,2.76,14.91,220614,018.2,E*42
$HCHDG,354.1,0.0,E,,*2A
$YXXDR,A,5.0,D,PTCH,A,3.9,D,ROLL*52
$TIROT,0.5,A*3E
$HCHDG,353.8,0.0,E,,*24
$YXXDR,A,5.1,D,PTCH,A,3.9,D,ROLL*53
$GPRMC,164635.6,A,4916.5442,N,12311.0412,W,2.68,14.99,220614,018.2,E*44
$HCHDG,353.9,0.0,E,,*25
$YXXDR,A,5.1,D,PTCH,A,4.2,D,ROLL*5F
$HCHDG,353.7,0.0,E,,*2B
$YXXDR,A,5.3,D,PTCH,A,4.3,D,ROLL*5C
$GPGGA,164635.800,4916.5444,N,12311.0411,W,1,8,1.34,16.5,M,-16.8,M,,*54
$GPGSA,A,3,08,03,16,19,13,10,27,23,,,,,2.43,1.34,2.02*02
$GPGSV,3,1,11,13,73,122,43,10,44,267,37,08,43,259,36,23,41,129,37*73
$GPGSV,3,2,11,16,35,050,40,48,32,192,32,03,26,116,30,27,23,090,26*75
$GPGSV,3,3,11,19,12,121,41,05,,,26,07,,,39*49
$GPRMC,164635.8,A,4916.5444,N,12311.0411,W,2.70,16.71,220614,018.2,E*42
$HCHDG,353.7,0.0,E,,*2B
$YXXDR,A,5.3,D,PTCH,A,4.3,D,ROLL*5C
$HCHDG,353.7,0.0,E,,*2B
$YXXDR,A,5.2,D,PTCH,A,4.4,D,ROLL*5A
$GPRMC,164636.0,A,4916.5445,N,12311.0411,W,2.69,16.69,220614,018.2,E*49
$HCHDG,353.6,0.0,E,,*2A
$YXXDR,A,5.1,D,PTCH,A,4.7,D,ROLL*5A
$HCHDG,353.6,0.0,E,,*2A
$YXXDR,A,5.1,D,PTCH,A,4.7,D,ROLL*5A
$GPRMC,164636.2,A,4916.5446,N,12311.0411,W,2.74,16.31,220614,018.2,E*49
$HCHDG,353.6,0.0,E,,*2A
$YXXDR,A,5.1,D,PTCH,A,4.9,D,ROLL*54
$HCHDG,353.4,0.0,E,,*28
$YXXDR,A,5.1,D,PTCH,A,4.9,D,ROLL*54
$GPRMC,164636.4,A,4916.5448,N,12311.0410,W,2.76,15.02,220614,018.2,E*41
$HCHDG,353.4,0.0,E,,*28
$YXXDR,A,5.1,D,PTCH,A,4.9,D,ROLL*54
$TIROT,-42.9,A*29
$HCHDG,353.2,0.0,E,,*2E
$YXXDR,A,5.1,D,PTCH,A,4.8,D,ROLL*55
$GPRMC,164636.6,A,4916.5449,N,12311.0410,W,2.80,13.20,220614,018.2,E*4D
$HCHDG,353.2,0.0,E,,*2E
$YXXDR,A,5.3,D,PTCH,A,4.8,D,ROLL*57
$HCHDG,353.0,0.0,E,,*2C
$YXXDR,A,5.2,D,PTCH,A,4.4,D,ROLL*5A
$GPGGA,164636.800,4916.5450,N,12311.0410,W,1,8,1.34,16.2,M,-16.8,M,,*54
$GPGSA,A,3,08,03,16,19,13,10,27,23,,,,,2.43,1.34,2.02*02
$GPGSV,3,1,11,13,73,122,43,10,44,267,37,08,43,259,32,23,41,129,34*74
$GPGSV,3,2,11,16,35,050,40,48,32,192,32,03,26,116,34,27,23,090,24*73
$GPGSV,3,3,11,19,12,121,42,05,,,34,07,,,35*45
$GPRMC,164636.8,A,4916.5450,N,12311.0410,W,2.59,16.50,220614,018.2,E*4D
$HCHDG,352.9,0.0,E,,*24
$YXXDR,A,5.0,D,PTCH,A,4.5,D,ROLL*59
$HCHDG,352.6,0.0,E,,*2B
$YXXDR,A,5.3,D,PTCH,A,4.4,D,ROLL*5B
$GPRMC,164637.0,A,4916.5452,N,12311.0409,W,2.61,12.66,220614,018.2,E*44
$HCHDG,352.7,0.0,E,,*2A
$YXXDR,A,5.4,D,PTCH,A,4.4,D,ROLL*5C
$HCHDG,352.6,0.0,E,,*2B
$YXXDR,A,5.3,D,PTCH,A,4.4,D,ROLL*5B
$GPRMC,164637.2,A,4916.5453,N,12311.0409,W,2.62,11.76,220614,018.2,E*46
$HCHDG,352.5,0.0,E,,*28
$YXXDR,A,5.3,D,PTCH,A,4.4,D,ROLL*5B
$HCHDG,352.3,0.0,E,,*2E
$YXXDR,A,5.3,D,PTCH,A,4.4,D,ROLL*5B
$GPRMC,164637.4,A,4916.5454,N,12311.0408,W,2.79,16.01,220614,018.2,E*4B
$HCHDG,352.3,0.0,E,,*2E
$YXXDR,A,5.2,D,PTCH,A,4.6,D,ROLL*58
$TIROT,-42.4,A*24
$HCHDG,352.3,0.0,E,,*2E
$YXXDR,A,5.1,D,PTCH,A,4.5,D,ROLL*58
$GPRMC,164637.6,A,4916.5456,N,12311.0408,W,2.47,13.26,220614,018.2,E*46
$HCHDG,352.1,0.0,E,,*2C
$YXXDR,A,5.1,D,PTCH,A,4.6,D,ROLL*5B
$HCHDG,351.9,0.0,E,,*27
$YXXDR,A,5.0,D,PTCH,A,4.7,D,ROLL*5B
$GPGGA,164637.800,4916.5457,N,12311.0408,W,1,8,1.34,16.1,M,-16.8,M,,*58
$GPGSA,A,3,08,03,16,19,13,10,27,23,,,,,2.43,1.34,2.02*02
$GPGSV,3,1,11,13,73,122,43,10,44,267,36,08,43,259,37,23,41,129,36*72
$GPGSV,3,2,11,16,35,050,39,48,32,192,31,03,26,116,36,27,23,090,26*7E
$GPGSV,3,3,11,19,12,121,42,05,,,35,07,,,32*43
$GPRMC,164637.8,A,4916.5457,N,12311.0408,W,2.53,11.60,220614,018.2,E*4C
$HCHDG,352.1,0.0,E,,*2C
$YXXDR,A,4.9,D,PTCH,A,4.7,D,ROLL*53
$HCHDG,351.9,0.0,E,,*27
$YXXDR,A,4.8,D,PTCH,A,4.8,D,ROLL*5D
$GPRMC,164638.0,A,4916.5458,N,12311.0407,W,2.59,12.42,220614,018.2,E*42
$HCHDG,351.8,0.0,E,,*26
$YXXDR,A,4.6,D,PTCH,A,4.8,D,ROLL*53
$HCHDG,351.8,0.0,E,,*26
$YXXDR,A,4.6,D,PTCH,A,4.8,D,ROLL*53
$GPRMC,164638.2,A,4916.5459,N,12311.0407,W,2.54,14.51,220614,018.2,E*48
$HCHDG,351.7,0.0,E,,*29
$YXXDR,A,4.8,D,PTCH,A,4.6,D,ROLL*53
$HCHDG,351.6,0.0,E,,*28
$YXXDR,A,4.8,D,PTCH,A,4.6,D,ROLL*53
$GPRMC,164638.4,A,4916.5461,N,12311.0407,W,2.59,10.13,220614,018.2,E*4A
$HCHDG,351.5,0.0,E,,*2B
$YXXDR,A,4.9,D,PTCH,A,4.4,D,ROLL*50
$TIROT,-13.1,A*25
$HCHDG,351.3,0.0,E,,*2D
$YXXDR,A,5.0,D,PTCH,A,4.3,D,ROLL*5F
$GPRMC,164638.6,A,4916.5462,N,12311.0406,W,2.62,11.19,220614,018.2,E*49
$HCHDG,351.1,0.0,E,,*2F
$YXXDR,A,5.0,D,PTCH,A,4.2,D,ROLL*5E
$HCHDG,351.1,0.0,E,,*2F
$YXXDR,A,5.1,D,PTCH,A,4.2,D,ROLL*5F
$GPGGA,164638.800,4916.5464,N,12311.0406,W,1,8,1.34,16.0,M,-16.8,M,,*58
$GPGSA,A,3,08,03,16,19,13,10,27,23,,,,,2.43,1.34,2.02*02
$GPGSV,3,1,11,13,73,122,43,10,44,267,34,08,43,259,29,23,41,130,37*76
$GPGSV,3,2,11,16,35,050,41,48,32,192,29,03,26,116,33,27,23,090,23*78
$GPGSV,3,3,11,19,12,121,42,05,,,37,07,,,34*47
$GPRMC,164638.8,A,4916.5464,N,12311.0406,W,2.64,14.75,220614,018.2,E*48
$HCHDG,351.1,0.0,E,,*2F
$YXXDR,A,5.1,D,PTCH,A,4.2,D,ROLL*5F
$HCHDG,350.9,0.0,E,,*26
$YXXDR,A,5.1,D,PTCH,A,4.2,D,ROLL*5F
$GPRMC,164639.0,A,4916.5465,N,12311.0406,W,2.66,11.98,220614,018.2,E*44
$HCHDG,350.9,0.0,E,,*26
$YXXDR,A,5.2,D,PTCH,A,4.2,D,ROLL*5C
$HCHDG,350.7,0.0,E,,*28
$YXXDR,A,5.2,D,PTCH,A,4.2,D,ROLL*5C
$GPRMC,164639.2,A,4916.5466,N,12311.0405,W,2.66,12.47,220614,018.2,E*47
$HCHDG,350.6,0.0,E,,*29
$YXXDR,A,5.2,D,PTCH,A,4.3,D,ROLL*5D
$HCHDG,350.4,0.0,E,,*2B
$YXXDR,A,5.3,D,PTCH,A,4.3,D,ROLL*5C
$GPRMC,164639.4,A,4916.5468,N,12311.0405,W,2.66,11.29,220614,018.2,E*44
$HCHDG,350.2,0.0,E,,*2D
$YXXDR,A,5.3,D,PTCH,A,4.3,D,ROLL*5C
$TIROT,-58.4,A*2F
$HCHDG,350.2,0.0,E,,*2D
$YXXDR,A,5.3,D,PTCH,A,4.3,D,ROLL*5C
$GPRMC,164639.6,A,4916.5469,N,12311.0405,W,2.68,11.33,220614,018.2,E*42
$HCHDG,350.0,0.0,E,,*2F
$YXXDR,A,5.3,D,PTCH,A,4.4,D,ROLL*5B
$HCHDG,350.0,0.0,E,,*2F
$YXXDR,A,5.2,D,PTCH,A,4.4,D,ROLL*5A
$GPGGA,164639.800,4916.5470,N,12311.0405,W,1,8,1.34,15.8,M,-16.8,M,,*54
$GPGSA,A,3,08,03,16,19,13,10,27,23,,,,,2.43,1.34,2.02*02
$GPGSV,3,1,11,13,73,122,43,10,44,267,38,08,43,259,37,23,41,130,37*75
$HCHDG,349.8,0.0,E,,*2F
$GPGSV,3,2,11,16,35,050,42,48,32,192,27,03,26,116,29,27,23,089,35*71
$GPGSV,3,3,11,19,12,121,41,05,,,36,07,,,32*43
$GPRMC,164639.8,A,4916.5470,N,12311.0405,W,2.66,10.08,220614,018.2,E*43
$YXXDR,A,5.2,D,PTCH,A,4.6,D,ROLL*58
$HCHDG,350.1,0.0,E,,*2E
$YXXDR,A,5.1,D,PTCH,A,4.6,D,ROLL*5B
$GPRMC,164640.0,A,4916.5472,N,12311.0405,W,2.65,9.78,220614,018.2,E*7B
$HCHDG,349.8,0.0,E,,*2F
$YXXDR,A,5.1,D,PTCH,A,4.6,D,ROLL*5B
$HCHDG,349.8,0.0,E,,*2F
$YXXDR,A,5.2,D,PTCH,A,4.7,D,ROLL*59
$GPRMC,164640.2,A,4916.5473,N,12311.0404,W,2.64,8.64,220614,018.2,E*74
$HCHDG,349.8,0.0,E,,*2F
$YXXDR,A,5.4,D,PTCH,A,4.7,D,ROLL*5F
$HCHDG,349.7,0.0,E,,*20
$YXXDR,A,5.4,D,PTCH,A,4.6,D,ROLL*5E
$GPRMC,164640.4,A,4916.5475,N,12311.0404,W,2.64,11.78,220614,018.2,E*41
$HCHDG,349.6,0.0,E,,*21
$YXXDR,A,5.4,D,PTCH,A,4.6,D,ROLL*5E
$TIROT,-30.8,A*2D
$HCHDG,349.5,0.0,E,,*22
$YXXDR,A,5.4,D,PTCH,A,4.5,D,ROLL*5D
$GPRMC,164640.6,A,4916.5476,N,12311.0404,W,2.66,10.50,220614,018.2,E*49
$HCHDG,349.4,0.0,E,,*23
$YXXDR,A,5.6,D,PTCH,A,4.5,D,ROLL*5F
$HCHDG,349.4,0.0,E,,*23
$YXXDR,A,5.6,D,PTCH,A,4.4,D,ROLL*5E
$GPGGA,164640.800,4916.5478,N,12311.0404,W,1,8,1.34,15.7,M,-16.8,M,,*5C
$GPGSA,A,3,08,03,16,19,13,10,27,23,,,,,2.43,1.34,2.03*03
$GPGSV,3,1,11,13,73,122,43,10,44,267,38,08,43,259,35,23,41,130,36*76
$GPGSV,3,2,11,16,35,050,41,48,32,192,29,03,26,116,32,27,23,089,34*77
$GPGSV,3,3,11,19,12,121,41,05,,,35,07,,,33*41
$GPRMC,164640.8,A,4916.5478,N,12311.0404,W,2.68,7.94,220614,018.2,E*79
$HCHDG,349.4,0.0,E,,*23
$YXXDR,A,5.6,D,PTCH,A,4.4,D,ROLL*5E
$HCHDG,349.3,0.0,E,,*24
$YXXDR,A,5.6,D,PTCH,A,4.3,D,ROL59
$GPRMC,164641.0,A,4916.5479,N,12311.0404,W,2.67,8.18,220614,018.2,E*75
$HCHDG,349.2,0.0,E,,*25
$YXXDR,A,5.4,D,PTCH,A,4.3,D,ROLL*5B
$HCHDG,348.8,0.0,E,,*2E
$YXXDR,A,5.4,D,PTCH,A,4.2,D,ROLL*5A
$GPRMC,164641.2,A,4916.5480,N,12311.0404,W,2.66,10.05,220614,018.2,E*45
$HCHDG,348.7,0.0,E,,*21
$YXXDR,A,5.4,D,PTCH,A,4.2,D,ROLL*5A
$HCHDG,348.6,0.0,E,,*20
$YXXDR,A,5.2,D,PTCH,A,4.2,D,ROLL*5C
$GPRMC,164641.4,A,4916.5482,N,12311.0404,W,2.67,8.50,220614,018.2,E*79
$HCHDG,348.5,0.0,E,,*23
$YXXDR,A,5.2,D,PTCH,A,4.2,D,ROLL*5C
$TIROT,-40.5,A*27
$HCHDG,348.4,0.0,E,,*22
$YXXDR,A,5.1,D,PTCH,A,4.2,D,ROLL*5F
$GPRMC,164641.6,A,4916.5483,N,12311.0404,W,2.70,8.36,220614,018.2,E*7C
$HCHDG,348.2,0.0,E,,*24
$YXXDR,A,5.2,D,PTCH,A,4.2,D,ROLL*5C
$HCHDG,348.2,0.0,E,,*24
$YXXDR,A,5.1,D,PTCH,A,4.3,D,ROLL*5E
$GPGGA,164641.800,4916.5485,N,12311.0404,W,1,8,1.34,15.4,M,-16.8,M,,*5C
$GPGSA,A,3,08,03,16,19,13,10,27,23,,,,,2.43,1.34,2.03*03
$GPGSV,3,1,11,13,73,122,43,10,44,267,41,08,43,259,35,23,41,130,36*78
$GPGSV,3,2,11,16,35,050,41,48,32,192,32,03,26,116,34,27,23,089,36*79
$GPGSV,3,3,11,19,12,121,41,05,,,38,07,,,38*47
$GPRMC,164641.8,A,4916.5485,N,12311.0404,W,2.70,9.32,220614,018.2,E*71
$HCHDG,348.1,0.0,E,,*27
$YXXDR,A,5.2,D,PTCH,A,4.4,D,ROLL*5A
$HCHDG,348.3,0.0,E,,*25
$YXXDR,A,5.2,D,PTCH,A,4.6,D,ROLL*58
$GPRMC,164642.0,A,4916.5486,N,12311.0404,W,2.67,6.61,220614,018.2,E*76
$HCHDG,348.1,0.0,E,,*27
$YXXDR,A,5.2,D,PTCH,A,4.7,D,ROLL*59
$HCHDG,348.0,0.0,E,,*26
$YXXDR,A,5.1,D,PTCH,A,4.8,D,ROLL*55
$GPRMC,164642.2,A,4916.5488,N,12311.0404,W,2.65,5.63,220614,018.2,E*79
$HCHDG,348.4,0.0,E,,*22
$YXXDR,A,5.1,D,PTCH,A,5.0,D,ROLL*5C
$HCHDG,348.3,0.0,E,,*25
$YXXDR,A,5.1,D,PTCH,A,5.0,D,ROLL*5C
$GPRMC,164642.4,A,4916.5489,N,12311.0405,W,2.63,4.79,220614,018.2,E*73
$HCHDG,348.2,0.0,E,,*24
$YXXDR,A,5.1,D,PTCH,A,5.0,D,ROLL*5C
$TIROT,14.9,A*07
$HCHDG,348.6,0.0,E,,*20
$YXXDR,A,5.1,D,PTCH,A,5.0,D,ROLL*5C
$GPRMC,164642.6,A,4916.5491,N,12311.0405,W,2.59,5.61,220614,018.2,E*79
$HCHDG,348.5,0.0,E,,*23
$YXXDR,A,5.1,D,PTCH,A,4.8,D,ROLL*55
$HCHDG,348.4,0.0,E,,*22
$YXXDR,A,5.2,D,PTCH,A,4.7,D,ROLL*59
$GPGGA,164642.800,4916.5492,N,12311.0405,W,1,8,1.34,15.2,M,-16.8,M,,*5E
$GPGSA,A,3,08,03,16,19,13,10,27,23,,,,,2.43,1.34,2.03*03
$GPGSV,3,1,11,13,73,122,43,10,44,267,41,08,43,259,30,23,41,130,34*7F
$GPGSV,3,2,11,16,35,050,39,48,32,192,32,03,26,116,33,27,23,089,37*70
$GPGSV,3,3,11,19,12,121,40,05,,,39,07,,,40*48
$GPRMC,164642.8,A,4916.5492,N,12311.0405,W,2.60,5.64,220614,018.2,E*7B
$HCHDG,348.4,0.0,E,,*22
$YXXDR,A,5.2,D,PTCH,A,4.7,D,ROLL*59
$HCHDG,348.2,0.0,E,,*24
$YXXDR,A,5.1,D,PTCH,A,4.6,D,ROLL*5B
$GPRMC,164643.0,A,4916.5494,N,12311.0405,W,2.59,4.46,220614,018.2,E*7F
$HCHDG,348.3,0.0,E,,*25
$YXXDR,A,5.1,D,PTCH,A,4.5,D,ROLL*58
$HCHDG,348.3,0.0,E,,*25
$YXXDR,A,5.0,D,PTCH,A,4.3,D,ROLL*5F
$GPRMC,164643.2,A,4916.5496,N,12311.0405,W,2.61,6.46,220614,018.2,E*76
$HCHDG,348.1,0.0,E,,*27
$YXXDR,A,5.0,D,PTCH,A,4.2,D,ROLL*5E
$HCHDG,348.1,0.0,E,,*27
$YXXDR,A,5.0,D,PTCH,A,4.0,D,ROLL*5C
$GPRMC,164643.4,A,4916.5497,N,12311.0405,W,2.62,7.69,220614,018.2,E*7E
$HCHDG,347.8,0.0,E,,*21
$YXXDR,A,5.0,D,PTCH,A,4.0,D,ROLL*5C
$TIROT,29.9,A*09
$HCHDG,347.9,0.0,E,,*20
$YXXDR,A,5.0,D,PTCH,A,4.0,D,ROLL*5C
$GPRMC,164643.6,A,4916.5499,N,12311.0405,W,2.62,7.66,220614,018.2,E*7D
$HCHDG,347.6,0.0,E,,*2F
$YXXDR,A,5.0,D,PTCH,A,4.0,D,ROLL*5C
$HCHDG,347.7,0.0,E,,*2E
$YXXDR,A,5.1,D,PTCH,A,3.9,D,ROLL*53
$GPGGA,164643.800,4916.5500,N,12311.0405,W,1,8,1.34,15.0,M,-16.8,M,,*57
$GPGSA,A,3,08,03,16,19,13,10,27,23,,,,,2.43,1.34,2.03*03
$GPGSV,3,1,11,13,73,123,42,10,44,267,42,08,43,259,35,23,41,130,35*78
$GPGSV,3,2,11,16,35,050,40,48,32,192,31,03,26,116,37,27,23,089,35*7B
$GPGSV,3,3,11,19,12,121,40,05,,,38,07,,,40*49
$GPRMC,164643.8,A,4916.5500,N,12311.0405,W,2.63,6.24,220614,018.2,E*74
$HCHDG,347.9,0.0,E,,*20
$YXXDR,A,5.2,D,PTCH,A,4.0,D,ROLL*5E
$HCHDG,347.9,0.0,E,,*20
$YXXDR,A,5.1,D,PTCH,A,3.9,D,ROLL*53
$GPRMC,164644.0,A,4916.5502,N,12311.0405,W,2.65,6.56,220614,018.2,E*7A
$HCHDG,348.0,0.0,E,,*26
$YXXDR,A,5.1,D,PTCH,A,3.9,D,ROLL*53
$HCHDG,347.8,0.0,E,,*21
$YXXDR,A,5.1,D,PTCH,A,3.9,D,ROLL*53
$GPRMC,164644.2,A,4916.5504,N,12311.0405,W,2.62,7.42,220614,018.2,E*7D
$HCHDG,347.9,0.0,E,,*20
$YXXDR,A,5.1,D,PTCH,A,3.9,D,ROLL*53
$HCHDG,348.0,0.0,E,,*26
$YXXDR,A,5.3,D,PTCH,A,4.0,D,ROLL*5F
$GPRMC,164644.4,A,4916.5505,N,12311.0405,W,2.64,8.00,220614,018.2,E*75
$HCHDG,348.0,0.0,E,,*26
$YXXDR,A,5.3,D,PTCH,A,4.0,D,ROLL*5F
$TIROT,59.9,A*0E
$HCHDG,348.1,0.0,E,,*27
$YXXDR,A,5.3,D,PTCH,A,4.0,D,ROLL*5F
$GPRMC,164644.6,A,4916.5507,N,12311.0405,W,2.65,6.06,220614,018.2,E*7C
$HCHDG,348.2,0.0,E,,*24
$YXXDR,A,5.3,D,PTCH,A,4.0,D,ROLL*5F
$HCHDG,348.2,0.0,E,,*24
$YXXDR,A,5.3,D,PTCH,A,4.0,D,ROLL*5F
$GPGGA,164644.800,4916.5508,N,12311.0405,W,1,8,1.34,14.8,M,-16.8,M,,*51
$GPGSA,A,3,08,03,16,19,13,10,27,23,,,,,2.43,1.34,2.03*03
$GPGSV,3,1,11,13,73,123,42,10,44,267,42,08,43,259,32,23,41,130,36*7C
$GPGSV,3,2,11,16,35,050,40,48,32,192,29,03,26,116,34,27,23,089,37*73
$GPGSV,3,3,11,19,12,121,40,05,,,38,07,,,39*47
$GPRMC,164644.8,A,4916.5508,N,12311.0405,W,2.64,6.42,220614,018.2,E*7C
$HCHDG,348.3,0.0,E,,*25
$YXXDR,A,5.4,D,PTCH,A,4.2,D,ROLL*5A
$HCHDG,348.4,0.0,E,,*22
$YXXDR,A,5.4,D,PTCH,A,4.2,D,ROLL*5A
$GPRMC,164645.0,A,4916.5510,N,12311.0405,W,2.64,5.28,220614,018.2,E*73
$HCHDG,348.5,0.0,E,,*23
$YXXDR,A,5.4,D,PTCH,A,4.1,D,ROLL*59
$HCHDG,348.4,0.0,E,,*22
$YXXDR,A,5.4,D,PTCH,A,4.1,D,ROLL*59
$GPRMC,164645.2,A,4916.5511,N,12311.0405,W,2.64,7.62,220614,018.2,E*7C
$HCHDG,348.2,0.0,E,,*24
$YXXDR,A,5.4,D,PTCH,A,4.0,D,ROLL*58
$HCHDG,348.2,0.0,E,,*24
$YXXDR,A,5.4,D,PTCH,A,4.0,D,ROLL*58
$GPRMC,164645.4,A,4916.5513,N,12311.0404,W,2.63,8.30,220614,018.2,E*76
$HCHDG,348.2,0.0,E,,*24
$YXXDR,A,5.3,D,PTCH,A,3.9,D,ROLL*51
$TIROT,36.1,A*0F
$HCHDG,348.2,0.0,E,,*24
$YXXDR,A,5.2,D,PTCH,A,3.9,D,ROLL*50
$GPRMC,164645.6,A,4916.5514,N,12311.0404,W,2.66,7.51,220614,018.2,E*7E
$HCHDG,347.9,0.0,E,,*20
$YXXDR,A,5.2,D,PTCH,A,3.7,D,ROLL*5E
$HCHDG,347.8,0.0,E,,*21
$YXXDR,A,5.2,D,PTCH,A,3.6,D,ROLL*5F
$GPGGA,164645.800,4916.5516,N,12311.0404,W,1,8,1.34,14.6,M,-16.8,M,,*50
$GPGSA,A,3,08,03,16,19,13,10,27,23,,,,,2.43,1.34,2.03*03
$GPGSV,3,1,11,13,73,123,42,10,44,267,41,08,43,259,33,23,41,130,36*7E
$GPGSV,3,2,11,16,35,050,40,48,32,192,29,03,26,116,32,27,23,089,34*76
$GPGSV,3,3,11,19,12,121,41,05,,,38,07,,,38*47
$GPRMC,164645.8,A,4916.5516,N,12311.0404,W,2.71,7.18,220614,018.2,E*79
$HCHDG,347.8,0.0,E,,*21
$YXXDR,A,5.2,D,PTCH,A,3.6,D,ROLL*5F
$HCHDG,347.5,0.0,E,,*2C
$YXXDR,A,5.1,D,PTCH,A,3.6,D,ROLL*5C
$GPRMC,164646.0,A,4916.5517,N,12311.0404,W,2.69,11.32,220614,018.2,E*45
$HCHDG,347.5,0.0,E,,*2C
$YXXDR,A,5.0,D,PTCH,A,3.6,D,ROLL*5D
$HCHDG,347.4,0.0,E,,*2D
$YXXDR,A,5.0,D,PTCH,A,3.7,D,ROLL*5C
$GPRMC,164646.2,A,4916.5519,N,12311.0404,W,2.70,6.83,220614,018.2,E*7D
$HCHDG,347.4,0.0,E,,*2D
$YXXDR,A,5.0,D,PTCH,A,3.8,D,ROLL*53
$HCHDG,347.3,0.0,E,,*2A
$YXXDR,A,5.1,D,PTCH,A,3.9,D,ROLL*53
$GPRMC,164646.4,A,4916.5521,N,12311.0404,W,2.74,9.07,220614,018.2,E*77
$HCHDG,347.6,0.0,E,,*2F
$YXXDR,A,5.1,D,PTCH,A,3.9,D,ROLL*53
$TIROT,16.3,A*0F
$HCHDG,347.5,0.0,E,,*2C
$YXXDR,A,5.2,D,PTCH,A,4.0,D,ROLL*5E
$GPRMC,164646.6,A,4916.5522,N,12311.0404,W,2.57,7.54,220614,018.2,E*7F
$HCHDG,347.7,0.0,E,,*2E
$YXXDR,A,5.2,D,PTCH,A,4.3,D,ROLL*5D
$HCHDG,347.6,0.0,E,,*2F
$YXXDR,A,5.3,D,PTCH,A,4.3,D,ROLL*5C
$GPGGA,164646.800,4916.5524,N,12311.0404,W,1,8,1.34,14.4,M,-16.8,M,,*50
$GPGSA,A,3,08,03,16,19,13,10,27,23,,,,,2.43,1.34,2.03*03
$GPGSV,3,1,11,13,73,123,41,10,44,267,39,08,43,259,34,23,41,130,37*74
$GPGSV,3,2,11,16,35,050,41,48,32,192,30,03,26,116,33,27,23,089,33*79
$GPGSV,3,3,11,19,12,121,40,05,,,33,07,,,25*41
$GPRMC,164646.8,A,4916.5524,N,12311.0404,W,2.75,6.16,220614,018.2,E*70
$HCHDG,348.0,0.0,E,,*26
$YXXDR,A,5.3,D,PTCH,A,4.5,D,ROLL*5A
$HCHDG,348.0,0.0,E,,*26
$YXXDR,A,5.4,D,PTCH,A,4.6,D,ROLL*5E
$GPRMC,164647.0,A,4916.5525,N,12311.0403,W,2.60,9.64,220614,018.2,E*71
$HCHDG,348.2,0.0,E,,*24
$YXXDR,A,5.4,D,PTCH,A,4.6,D,ROLL*5E
$HCHDG,348.2,0.0,E,,*24
$YXXDR,A,5.4,D,PTCH,A,4.5,D,ROLL*5D
$GPRMC,164647.2,A,4916.5527,N,12311.0403,W,2.59,7.25,220614,018.2,E*70
$HCHDG,348.2,0.0,E,,*24
$YXXDR,A,5.3,D,PTCH,A,4.3,D,ROLL*5C
$HCHDG,348.2,0.0,E,,*24
$YXXDR,A,5.3,D,PTCH,A,4.3,D,ROLL*5C
$GPRMC,164647.4,A,4916.5528,N,12311.0403,W,2.60,9.46,220614,018.2,E*78
$HCHDG,348.1,0.0,E,,*27
$YXXDR,A,5.4,D,PTCH,A,4.2,D,ROLL*5A
$TIROT,10.4,A*0E
$HCHDG,348.0,0.0,E,,*26
$YXXDR,A,5.2,D,PTCH,A,4.3,D,ROLL*5D
$GPRMC,164647.6,A,4916.5530,N,12311.0403,W,2.65,9.51,220614,018.2,E*70
$HCHDG,348.0,0.0,E,,*26
$YXXDR,A,5.2,D,PTCH,A,4.3,D,ROLL*5D
$HCHDG,348.0,0.0,E,,*26
$YXXDR,A,5.3,D,PTCH,A,4.3,D,ROLL*5C
$GPGGA,164647.800,4916.5531,N,12311.0403,W,1,8,1.34,14.3,M,-16.8,M,,*55
$GPGSA,A,3,08,03,16,19,13,10,27,23,,,,,2.43,1.34,2.03*03
$GPGSV,3,1,11,13,73,123,41,10,44,267,41,08,43,259,35,23,41,130,35*78
$HCHDG,347.5,0.0,E,,*2C
$YXXDR,A,5.2,D,PTCH,A,4.3,D,ROLL*5D
$GPGSV,3,2,11,16,35,050,41,48,32,192,30,03,26,116,28,27,23,089,34*74
$GPGSV,3,3,11,19,12,121,42,05,,,37,07,,,35*46
$GPRMC,164647.8,A,4916.5531,N,12311.0403,W,2.66,8.71,220614,018.2,E*7F
$GPRMC,164648.0,A,4916.5533,N,12311.0403,W,2.71,9.00,220614,018.2,E*7B
$HCHDG,347.5,0.0,E,,*2C
$YXXDR,A,5.2,D,PTCH,A,4.3,D,ROLL*5D
$HCHDG,347.4,0.0,E,,*2D
$YXXDR,A,5.1,D,PTCH,A,4.3,D,ROLL*5E
$HCHDG,347.4,0.0,E,,*2D
$YXXDR,A,5.2,D,PTCH,A,4.3,D,ROLL*5D
$GPRMC,164648.2,A,4916.5535,N,12311.0402,W,2.70,10.04,220614,018.2,E*43
$HCHDG,347.2,0.0,E,,*2B
$YXXDR,A,5.2,D,PTCH,A,4.3,D,ROLL*5D
$HCHDG,347.4,0.0,E,,*2D
$YXXDR,A,5.2,D,PTCH,A,4.6,D,ROLL*58
$GPRMC,164648.4,A,4916.5536,N,12311.0402,W,2.50,11.65,220614,018.2,E*42
$HCHDG,347.4,0.0,E,,*2D
$YXXDR,A,5.3,D,PTCH,A,4.6,D,ROLL*59
$TIROT,7.3,A*3F
$HCHDG,347.6,0.0,E,,*2F
$YXXDR,A,5.3,D,PTCH,A,4.8,D,ROLL*57
$GPRMC,164648.6,A,4916.5537,N,12311.0402,W,2.73,8.44,220614,018.2,E*7B
$HCHDG,347.5,0.0,E,,*2C
$YXXDR,A,5.4,D,PTCH,A,4.9,D,ROLL*51
$HCHDG,347.7,0.0,E,,*2E
$YXXDR,A,5.3,D,PTCH,A,5.0,D,ROLL*5E
$GPGGA,164648.800,4916.5539,N,12311.0402,W,1,8,1.34,14.3,M,-16.8,M,,*53
$GPGSA,A,3,08,03,16,19,13,10,27,23,,,,,2.43,1.34,2.03*03
$GPGSV,3,1,11,13,73,123,39,10,44,267,44,08,43,259,35,23,41,130,35*72
$GPGSV,3,2,11,16,35,050,41,48,32,192,31,03,26,116,29,27,23,089,35*75
$GPGSV,3,3,11,19,12,121,41,05,,,35,07,,,33*41
$GPRMC,164648.8,A,4916.5539,N,12311.0402,W,2.57,7.56,220614,018.2,E*71
$HCHDG,347.6,0.0,E,,*2F
$YXXDR,A,5.5,D,PTCH,A,5.1,D,ROLL*59
$HCHDG,347.8,0.0,E,,*21
$YXXDR,A,5.5,D,PTCH,A,5.1,D,ROLL*59
$GPRMC,164649.0,A,4916.5540,N,12311.0402,W,2.52,10.08,220614,018.2,E*4E
$HCHDG,347.7,0.0,E,,*2E
$YXXDR,A,5.4,D,PTCH,A,5.2,D,ROLL*5B
$HCHDG,347.9,0.0,E,,*20
$YXXDR,A,5.6,D,PTCH,A,5.3,D,ROLL*58
$GPRMC,164649.2,A,4916.5542,N,12311.0402,W,2.91,8.64,220614,018.2,E*72
$HCHDG,347.8,0.0,E,,*21
$YXXDR,A,5.6,D,PTCH,A,5.5,D,ROLL*5E
$HCHDG,347.9,0.0,E,,*20
$YXXDR,A,5.7,D,PTCH,A,5.5,D,ROLL*5F
$GPRMC,164649.4,A,4916.5543,N,12311.0401,W,2.67,9.37,220614,018.2,E*78
$HCHDG,347.9,0.0,E,,*20
$YXXDR,A,5.7,D,PTCH,A,5.6,D,ROLL*5C
$TIROT,29.3,A*03
$HCHDG,347.9,0.0,E,,*20
$YXXDR,A,5.7,D,PTCH,A,5.7,D,ROLL*5D
$GPRMC,164649.6,A,4916.5545,N,12311.0401,W,2.66,10.13,220614,018.2,E*43
$HCHDG,347.7,0.0,E,,*2E
$YXXDR,A,5.7,D,PTCH,A,5.7,D,ROLL*5D
$HCHDG,348.0,0.0,E,,*26
$YXXDR,A,5.2,D,PTCH,A,5.4,D,ROLL*5B
$GPGGA,164649.800,4916.5546,N,12311.0401,W,1,8,1.34,14.3,M,-16.8,M,,*59
$GPGSA,A,3,08,03,16,19,13,10,27,23,,,,,2.43,1.34,2.03*03
$GPGSV,3,1,11,13,73,123,39,10,44,267,42,08,43,259,32,23,41,130,33*75
$GPGSV,3,2,11,16,35,050,39,48,32,192,32,03,26,116,26,27,23,089,36*75
$GPGSV,3,3,11,19,12,121,42,05,,,38,07,,,29*44
$GPRMC,164649.8,A,4916.5546,N,12311.0401,W,2.66,8.12,220614,018.2,E*76
$HCHDG,347.8,0.0,E,,*21
$YXXDR,A,5.2,D,PTCH,A,5.6,D,ROLL*59
$HCHDG,347.9,0.0,E,,*20
$YXXDR,A,5.2,D,PTCH,A,5.6,D,ROLL*59
$GPRMC,164650.0,A,4916.5548,N,12311.0401,W,2.42,6.81,220614,018.2,E*7A
$HCHDG,347.8,0.0,E,,*21
$YXXDR,A,5.3,D,PTCH,A,5.6,D,ROLL*58
$HCHDG,347.5,0.0,E,,*2C
$YXXDR,A,5.3,D,PTCH,A,5.8,D,ROLL*56
$GPRMC,164650.2,A,4916.5549,N,12311.0401,W,2.75,9.59,220614,018.2,E*77
$HCHDG,347.6,0.0,E,,*2F
$YXXDR,A,5.3,D,PTCH,A,5.9,D,ROLL*57
$HCHDG,347.7,0.0,E,,*2E
$YXXDR,A,5.3,D,PTCH,A,6.0,D,ROLL*5D
$GPRMC,164650.4,A,4916.5551,N,12311.0400,W,2.37,9.47,220614,018.2,E*70
$HCHDG,347.5,0.0,E,,*2C
$YXXDR,A,5.4,D,PTCH,A,6.0,D,ROLL*5A
$TIROT,5.9,A*37
$HCHDG,347.5,0.0,E,,*2C
$YXXDR,A,5.4,D,PTCH,A,6.0,D,ROLL*5A
$GPRMC,164650.6,A,4916.5552,N,12311.0400,W,2.81,12.49,220614,018.2,E*48
$HCHDG,347.3,0.0,E,,*2A
$YXXDR,A,5.3,D,PTCH,A,6.1,D,ROLL*5C
$HCHDG,347.3,0.0,E,,*2A
$YXXDR,A,5.3,D,PTCH,A,6.2,D,ROLL*5F
$GPGGA,164650.800,4916.5554,N,12311.0400,W,1,8,1.34,14.4,M,-16.8,M,,*54
$GPGSA,A,3,08,03,16,19,13,10,27,23,,,,,2.43,1.34,2.03*03
$GPGSV,3,1,11,13,73,123,33,10,44,267,31,08,43,259,29,23,41,130,33*71
$GPGSV,3,2,11,16,35,050,38,48,32,192,34,03,26,116,33,27,23,089,36*76
$GPGSV,3,3,11,19,12,121,41,05,,,38,07,,,33*4C
$GPRMC,164650.8,A,4916.5554,N,12311.0400,W,2.55,6.23,220614,018.2,E*70
$HCHDG,347.4,0.0,E,,*2D
$YXXDR,A,5.1,D,PTCH,A,6.4,D,ROLL*5B
$HCHDG,347.2,0.0,E,,*2B
$YXXDR,A,5.2,D,PTCH,A,6.4,D,ROLL*58
$GPRMC,164651.0,A,4916.5555,N,12311.0399,W,2.56,10.31,220614,018.2,E*48
$HCHDG,347.2,0.0,E,,*2B
$YXXDR,A,5.3,D,PTCH,A,6.6,D,ROLL*5B
$HCHDG,347.0,0.0,E,,*29
$YXXDR,A,5.3,D,PTCH,A,6.4,D,ROLL*59
$GPRMC,164651.2,A,4916.5557,N,12311.0399,W,2.82,11.59,220614,018.2,E*4E
$HCHDG,346.9,0.0,E,,*21
$YXXDR,A,5.4,D,PTCH,A,6.5,D,ROLL*5F
$HCHDG,347.0,0.0,E,,*29
$YXXDR,A,5.3,D,PTCH,A,6.7,D,ROLL*5A
$GPRMC,164651.4,A,4916.5558,N,12311.0398,W,2.60,7.33,220614,018.2,E*71
$HCHDG,347.0,0.0,E,,*29
$YXXDR,A,5.4,D,PTCH,A,7.4,D,ROLL*5F
$TIROT,-7.3,A*12
$HCHDG,346.9,0.0,E,,*21
$YXXDR,A,5.4,D,PTCH,A,7.4,D,ROLL*5F
$GPRMC,164651.6,A,4916.5560,N,12311.0398,W,2.52,6.75,220614,018.2,E*7A
$HCHDG,346.9,0.0,E,,*21
$YXXDR,A,5.3,D,PTCH,A,7.6,D,ROLL*5A
$HCHDG,346.9,0.0,E,,*21
$YXXDR,A,5.3,D,PTCH,A,7.6,D,ROLL*5A
$GPGGA,164651.800,4916.5561,N,12311.0398,W,1,8,1.34,14.3,M,-16.8,M,,*52
$GPGSA,A,3,08,03,16,19,13,10,27,23,,,,,2.43,1.34,2.03*03
$GPGSV,3,1,11,13,73,123,35,10,44,267,38,08,43,259,27,23,41,130,40*74
$GPGSV,3,2,11,16,35,050,33,48,32,192,29,03,26,116,36,27,23,089,28*7B
$GPGSV,3,3,11,19,12,121,38,05,,,27,07,,,36*49
$GPRMC,164651.8,A,4916.5561,N,12311.0398,W,2.47,7.54,220614,018.2,E*73
$HCHDG,347.0,0.0,E,,*29
$YXXDR,A,5.5,D,PTCH,A,7.7,D,ROLL*5D
$HCHDG,347.0,0.0,E,,*29
$YXXDR,A,5.7,D,PTCH,A,7.6,D,ROLL*5E
$GPRMC,164652.0,A,4916.5563,N,12311.0398,W,2.46,10.69,220614,018.2,E*43
$HCHDG,347.0,0.0,E,,*29
$YXXDR,A,5.8,D,PTCH,A,7.5,D,ROLL*52
$HCHDG,347.1,0.0,E,,*28
$YXXDR,A,5.8,D,PTCH,A,7.5,D,ROLL*52
$GPRMC,164652.2,A,4916.5564,N,12311.0398,W,2.44,6.44,220614,018.2,E*7C
$HCHDG,346.9,0.0,E,,*21
$YXXDR,A,5.8,D,PTCH,A,7.5,D,ROLL*52
$HCHDG,347.0,0.0,E,,*29
$YXXDR,A,5.8,D,PTCH,A,7.5,D,ROLL*52
$GPRMC,164652.4,A,4916.5566,N,12311.0398,W,2.49,11.10,220614,018.2,E*42
$HCHDG,347.0,0.0,E,,*29
$YXXDR,A,5.5,D,PTCH,A,7.5,D,ROLL*5F
$TIROT,2.8,A*31
$HCHDG,346.8,0.0,E,,*20
$YXXDR,A,5.5,D,PTCH,A,7.5,D,ROLL*5F
$GPRMC,164652.6,A,4916.5567,N,12311.0398,W,2.66,6.91,220614,018.2,E*73
$HCHDG,346.9,0.0,E,,*21
$YXXDR,A,5.5,D,PTCH,A,7.5,D,ROLL*5F
$HCHDG,346.7,0.0,E,,*2F
$YXXDR,A,5.5,D,PTCH,A,7.5,D,ROLL*5F
$GPGGA,164652.800,4916.5569,N,12311.0397,W,1,8,1.34,14.3,M,-16.8,M,,*56
$GPGSA,A,3,08,03,16,19,13,10,27,23,,,,,2.43,1.34,2.03*03
$GPGSV,3,1,11,13,73,123,34,10,44,267,36,08,43,259,28,23,41,130,38*7B
$HCHDG,346.9,0.0,E,,*21
$YXXDR,A,5.6,D,PTCH,A,7.6,D,ROLL*5F
$GPGSV,3,2,11,16,35,050,24,48,32,192,26,03,26,116,40,27,23,089,31*7B
$GPGSV,3,3,11,19,12,121,39,05,,,32,07,,,38*42
$GPRMC,164652.8,A,4916.5569,N,12311.0397,W,2.66,5.39,220614,018.2,E*7D
$GPRMC,164653.0,A,4916.5570,N,12311.0397,W,2.65,6.05,220614,018.2,E*73
$HCHDG,346.7,0.0,E,,*2F
$YXXDR,A,5.6,D,PTCH,A,7.6,D,ROLL*5
$HCHDG,346.9,0.0,E,,*21
$YXXDR,A,5.6,D,PTCH,A,7.6,D,ROLL*5F
$HCHDG,346.7,0.0,E,,*2F
$YXXDR,A,5.6,D,PTCH,A,7.6,D,ROLL*5F
$GPRMC,164653.2,A,4916.5572,N,12311.0397,W,2.62,6.79,220614,018.2,E*7F
$HCHDG,346.6,0.0,E,,*2E
$YXXDR,A,5.6,D,PTCH,A,7.5,D,ROLL*5C
$HCHDG,346.8,0.0,E,,*20
$YXXDR,A,5.6,D,PTCH,A,7.4,D,ROLL*5D
$GPRMC,164653.4,A,4916.5573,N,12311.0397,W,2.55,7.13,220614,018.2,E*71
$HCHDG,346.7,0.0,E,,*2F
$YXXDR,A,5.6,D,PTCH,A,7.2,D,ROLL*5B
$TIROT,-9.2,A*1D
$HCHDG,346.3,0.0,E,,*2B
$YXXDR,A,5.7,D,PTCH,A,6.9,D,ROLL*50
$GPRMC,164653.6,A,4916.5574,N,12311.0397,W,2.24,5.74,220614,018.2,E*71
$HCHDG,346.2,0.0,E,,*2A
$YXXDR,A,5.7,D,PTCH,A,6.9,D,ROLL*50
$HCHDG,346.0,0.0,E,,*28
$YXXDR,A,5.5,D,PTCH,A,6.9,D,ROLL*52
$GPGGA,164653.800,4916.5575,N,12311.0397,W,1,8,1.34,14.2,M,-16.8,M,,*5B
$GPGSA,A,3,08,03,16,19,13,10,27,23,,,,,2.43,1.34,2.03*03
$GPGSV,3,1,11,13,73,123,32,10,44,267,37,08,43,259,23,23,41,130,38*77
$GPGSV,3,2,11,16,35,050,32,48,32,192,27,03,26,116,30,27,23,089,31*7A
$GPGSV,3,3,11,19,12,121,41,05,,,31,07,,,36*40
$GPRMC,164653.8,A,4916.5575,N,12311.0397,W,2.27,3.73,220614,018.2,E*7C
$HCHDG,345.8,0.0,E,,*23
$YXXDR,A,5.4,D,PTCH,A,6.9,D,ROLL*53
$HCHDG,345.7,0.0,E,,*2C
$YXXDR,A,5.4,D,PTCH,A,6.9,D,ROLL*53
$GPRMC,164654.0,A,4916.5577,N,12311.0397,W,2.52,9.73,220614,018.2,E*79
$HCHDG,345.5,0.0,E,,*2E
$YXXDR,A,5.4,D,PTCH,A,6.9,D,ROLL*53
$HCHDG,345.4,0.0,E,,*2F
$YXXDR,A,5.4,D,PTCH,A,7.0,D,ROLL*5B
$GPRMC,164654.2,A,4916.5578,N,12311.0397,W,2.49,6.69,220614,018.2,E*7A
$HCHDG,345.3,0.0,E,,*28
$YXXDR,A,5.3,D,PTCH,A,7.0,D,ROLL*5C
$HCHDG,345.2,0.0,E,,*29
$YXXDR,A,5.4,D,PTCH,A,7.1,D,ROLL*5A
$GPRMC,164654.4,A,4916.5580,N,12311.0396,W,2.52,10.34,220614,018.2,E*4F
$HCHDG,345.0,0.0,E,,*2B
$YXXDR,A,5.4,D,PTCH,A,7.2,D,ROLL*59
$TIROT,-42.8,A*28
$HCHDG,345.3,0.0,E,,*28
$YXXDR,A,5.4,D,PTCH,A,7.2,D,ROLL*59
$GPRMC,164654.6,A,4916.5581,N,12311.0396,W,2.56,9.73,220614,018.2,E*73
$HCHDG,345.1,0.0,E,,*2A
$YXXDR,A,5.4,D,PTCH,A,7.3,D,ROLL*58
$HCHDG,345.0,0.0,E,,*2B
$YXXDR,A,5.4,D,PTCH,A,7.3,D,ROLL*58
$GPGGA,164654.800,4916.5583,N,12311.0396,W,1,8,1.34,14.1,M,-16.8,M,,*57
$GPGSA,A,3,08,03,16,19,13,10,27,23,,,,,2.43,1.34,2.03*03
$GPGSV,3,1,11,13,73,123,31,10,44,267,32,08,43,259,26,23,41,130,39*75
$GPGSV,3,2,11,16,35,050,23,48,32,192,24,03,26,116,36,27,23,089,32*7C
$GPGSV,3,3,11,19,12,121,38,05,,,28,07,,,33*43
$GPRMC,164654.8,A,4916.5583,N,12311.0396,W,2.62,10.35,220614,018.2,E*42
$HCHDG,344.8,0.0,E,,*22
$YXXDR,A,5.6,D,PTCH,A,7.4,D,ROLL*5D
$HCHDG,344.8,0.0,E,,*22
$YXXDR,A,5.6,D,PTCH,A,7.4,D,ROLL*5D
$GPRMC,164655.0,A,4916.5584,N,12311.0395,W,2.67,10.24,220614,018.2,E*4A
$HCHDG,344.8,0.0,E,,*22
$YXXDR,A,5.6,D,PTCH,A,7.4,D,ROLL*5D
$HCHDG,344.9,0.0,E,,*23
$YXXDR,A,5.6,D,PTCH,A,7.4,D,ROLL*5D
$GPRMC,164655.2,A,4916.5586,N,12311.0395,W,2.65,7.63,220614,018.2,E*7D
$HCHDG,344.8,0.0,E,,*22
$YXXDR,A,5.6,D,PTCH,A,7.4,D,ROLL*5D
$HCHDG,344.7,0.0,E,,*2D
$YXXDR,A,5.6,D,PTCH,A,7.4,D,ROLL*5D
$GPRMC,164655.4,A,4916.5587,N,12311.0395,W,2.66,10.35,220614,018.2,E*4C
$HCHDG,344.6,0.0,E,,*2C
$YXXDR,A,5.8,D,PTCH,A,7.5,D,ROLL*52
$TIROT,-31.5,A*21
$HCHDG,344.6,0.0,E,,*2C
$YXXDR,A,5.8,D,PTCH,A,7.5,D,ROLL*52
$GPRMC,164655.6,A,4916.5589,N,12311.0395,W,2.67,11.02,220614,018.2,E*44
$HCHDG,344.4,0.0,E,,*2E
$YXXDR,A,5.7,D,PTCH,A,7.4,D,ROLL*5C
$HCHDG,344.3,0.0,E,,*29
$YXXDR,A,5.7,D,PTCH,A,7.4,D,ROLL*5C
$GPGGA,164655.800,4916.5590,N,12311.0395,W,1,8,1.34,13.9,M,-16.8,M,,*58
$GPGSA,A,3,08,03,16,19,13,10,27,23,,,,,2.43,1.34,2.03*03
$GPGSV,3,1,11,13,73,123,32,10,44,267,21,08,43,259,34,23,41,130,40*79
$GPGSV,3,2,11,16,35,050,24,48,32,192,27,03,26,116,37,27,23,089,33*78
$GPGSV,3,3,11,19,12,121,40,05,,,32,07,,,36*42
$GPRMC,164655.8,A,4916.5590,N,12311.0395,W,2.45,8.71,220614,018.2,E*7E
$HCHDG,344.1,0.0,E,,*2B
$YXXDR,A,5.6,D,PTCH,A,7.4,D,ROLL*5D
$HCHDG,344.4,0.0,E,,*2E
$YXXDR,A,5.6,D,PTCH,A,7.4,D,ROLL*5D
$GPRMC,164656.0,A,4916.5591,N,12311.0395,W,2.43,4.49,220614,018.2,E*75
$HCHDG,344.3,0.0,E,,*29
$YXXDR,A,5.6,D,PTCH,A,7.4,D,ROLL*5D
$HCHDG,344.1,0.0,E,,*2B
$YXXDR,A,5.4,D,PTCH,A,7.3,D,ROLL*58
$GPRMC,164656.2,A,4916.5593,N,12311.0395,W,2.39,2.50,220614,018.2,E*76
$HCHDG,344.0,0.0,E,,*2A
$YXXDR,A,5.4,D,PTCH,A,7.3,D,ROLL*58
$HCHDG,344.0,0.0,E,,*2A
$YXXDR,A,5.4,D,PTCH,A,7.2,D,ROLL*59
$GPRMC,164656.4,A,4916.5595,N,12311.0395,W,2.42,0.27,220614,018.2,E*78
$HCHDG,344.0,0.0,E,,*2A
$YXXDR,A,5.4,D,PTCH,A,7.2,D,ROLL*59
$TIROT,2.3,A*3A
$HCHDG,344.1,0.0,E,,*2B
$YXXDR,A,5.4,D,PTCH,A,7.2,D,ROLL*59
$GPRMC,164656.6,A,4916.5599,N,12311.0396,W,2.38,359.16,220614,018.2,E*75
$HCHDG,344.1,0.0,E,,*2B
$YXXDR,A,5.5,D,PTCH,A,7.0,D,ROLL*5A
$HCHDG,343.8,0.0,E,,*25
$YXXDR,A,5.7,D,PTCH,A,6.9,D,ROLL*50
$GPGGA,164656.800,4916.5603,N,12311.0397,W,1,9,1.10,13.5,M,-16.8,M,,*5B
$GPGSA,A,3,08,03,16,19,13,10,27,23,05,,,,1.97,1.10,1.64*08
$GPGSV,3,1,11,13,73,123,34,10,44,267,27,08,43,259,34,23,41,130,40*79
$GPGSV,3,2,11,16,35,050,23,48,32,192,31,03,26,116,29,27,23,089,31*75
$GPGSV,3,3,11,05,17,320,32,19,12,121,40,07,,,37*74
$GPRMC,164656.8,A,4916.5603,N,12311.0397,W,2.40,1.19,220614,018.2,E*74
$HCHDG,343.9,0.0,E,,*24
$YXXDR,A,5.7,D,PTCH,A,6.7,D,ROLL*5E
$HCHDG,343.9,0.0,E,,*24
$YXXDR,A,5.6,D,PTCH,A,6.5,D,ROLL*5D
$GPRMC,164657.0,A,4916.5606,N,12311.0397,W,2.41,3.42,220614,018.2,E*75
$HCHDG,343.6,0.0,E,,*2B
$YXXDR,A,5.7,D,PTCH,A,6.3,D,ROLL*5A
$HCHDG,343.6,0.0,E,,*2B
$YXXDR,A,5.6,D,PTCH,A,6.2,D,ROLL*5A
$GPRMC,164657.2,A,4916.5609,N,12311.0397,W,2.43,4.06,220614,018.2,E*7D
$HCHDG,343.6,0.0,E,,*2B
$YXXDR,A,5.6,D,PTCH,A,6.2,D,ROLL*5A
$HCHDG,343.6,0.0,E,,*2B
$YXXDR,A,5.6,D,PTCH,A,6.2,D,ROLL*5A
$GPRMC,164657.4,A,4916.5612,N,12311.0398,W,2.44,4.41,220614,018.2,E*7A
$HCHDG,343.3,0.0,E,,*2E
$YXXDR,A,5.6,D,PTCH,A,6.2,D,ROLL*5A
$TIROT,13.4,A*0D
$HCHDG,343.3,0.0,E,,*2E
$YXXDR,A,5.6,D,PTCH,A,6.5,D,ROLL*5D
$GPRMC,164657.6,A,4916.5616,N,12311.0397,W,2.69,3.78,220614,018.2,E*71
$HCHDG,343.7,0.0,E,,*2A
$YXXDR,A,5.6,D,PTCH,A,6.5,D,ROLL*5D
$HCHDG,343.7,0.0,E,,*2A
$YXXDR,A,5.7,D,PTCH,A,6.7,D,ROLL*5E
$GPGGA,164657.800,4916.5618,N,12311.0398,W,2,9,1.10,12.9,M,-16.8,M,0000,0000*51
$GPGSA,A,3,08,03,16,19,13,10,27,23,05,,,,1.97,1.10,1.64*08
$GPGSV,3,1,11,13,73,123,35,10,44,267,32,08,43,259,35,23,41,130,39*73
$HCHDG,343.7,0.0,E,,*2A
$YXXDR,A,6.0,D,PTCH,A,7.0,D,ROLL*5C
$GPGSV,3,2,11,16,35,050,23,48,32,192,30,03,26,116,30,27,23,089,32*7F
$GPGSV,3,3,11,05,17,320,32,19,12,121,40,07,,,39*7A
$GPRMC,164657.8,A,4916.5618,N,12311.0398,W,2.63,2.39,220614,018.2,E*70
$GPRMC,164658.0,A,4916.5621,N,12311.0398,W,2.64,1.02,220614,018.2,E*71
$HCHDG,343.8,0.0,E,,*25
$YXXDR,A,6.0,D,PTCH,A,7.0,D,ROLL*5C
$HCHDG,343.8,0.0,E,,*25
$YXXDR,A,5.9,D,PTCH,A,6.7,D,ROLL*50
$HCHDG,343.6,0.0,E,,*2B
$YXXDR,A,5.8,D,PTCH,A,6.5,D,ROLL*53
$GPRMC,164658.2,A,4916.5623,N,12311.0398,W,2.62,1.87,220614,018.2,E*7A
$HCHDG,343.6,0.0,E,,*2B
$YXXDR,A,5.8,D,PTCH,A,6.3,D,ROLL*55
$HCHDG,343.6,0.0,E,,*2B
$YXXDR,A,5.6,D,PTCH,A,6.0,D,ROLL*58
$GPRMC,164658.4,A,4916.5626,N,12311.0398,W,2.65,3.78,220614,018.2,E*7C
$HCHDG,343.4,0.0,E,,*29
$YXXDR,A,5.6,D,PTCH,A,6.0,D,ROLL*58
$TIROT,29.2,A*02
$HCHDG,343.6,0.0,E,,*2B
$YXXDR,A,5.6,D,PTCH,A,6.0,D,ROLL*58
$GPRMC,164658.6,A,4916.5629,N,12311.0398,W,2.66,5.12,220614,018.2,E*78
$HCHDG,343.6,0.0,E,,*2B
$YXXDR,A,5.6,D,PTCH,A,6.2,D,ROLL*5A
$HCHDG,343.6,0.0,E,,*2B
$YXXDR,A,5.5,D,PTCH,A,6.4,D,ROLL*5F
$GPGGA,164658.800,4916.5631,N,12311.0398,W,2,9,1.10,12.4,M,-16.8,M,0000,0000*58
$GPGSA,A,3,08,03,16,19,13,10,27,23,05,,,,1.97,1.10,1.64*08
$GPGSV,3,1,11,13,73,123,36,10,44,267,31,08,43,259,35,23,41,130,39*73
$GPGSV,3,2,11,16,35,050,26,48,32,192,31,03,26,116,32,27,23,089,32*79
$GPGSV,3,3,11,05,17,320,33,19,12,121,40,07,,,38*7A
$GPRMC,164658.8,A,4916.5631,N,12311.0398,W,2.66,3.21,220614,018.2,E*79
$HCHDG,343.6,0.0,E,,*2B
$YXXDR,A,5.5,D,PTCH,A,6.5,D,ROLL*5E
$HCHDG,343.8,0.0,E,,*25
$YXXDR,A,5.5,D,PTCH,A,6.6,D,ROLL*5D
$GPRMC,164659.0,A,4916.5632,N,12311.0398,W,2.66,4.59,220614,018.2,E*7B
$HCHDG,343.9,0.0,E,,*24
$YXXDR,A,5.5,D,PTCH,A,6.6,D,ROLL*5D
$HCHDG,344.1,0.0,E,,*2B
$YXXDR,A,5.5,D,PTCH,A,6.6,D,ROLL*5D
$GPRMC,164659.2,A,4916.5633,N,12311.0398,W,2.49,4.29,220614,018.2,E*72
$HCHDG,344.0,0.0,E,,*2A
$YXXDR,A,5.5,D,PTCH,A,6.5,D,ROLL*5E
$HCHDG,343.9,0.0,E,,*24
$YXXDR,A,5.3,D,PTCH,A,6.4,D,ROLL*59
$GPRMC,164659.4,A,4916.5634,N,12311.0398,W,2.49,3.07,220614,018.2,E*78
$HCHDG,344.1,0.0,E,,*2B
$YXXDR,A,5.5,D,PTCH,A,6.3,D,ROLL*58
$TIROT,69.8,A*0C
$HCHDG,344.0,0.0,E,,*2A
$YXXDR,A,5.6,D,PTCH,A,6.1,D,ROLL*59
$GPRMC,164659.6,A,4916.5635,N,12311.0398,W,2.48,4.25,220614,018.2,E*7D
$HCHDG,344.1,0.0,E,,*2B
$YXXDR,A,5.6,D,PTCH,A,6.1,D,ROLL*59
$HCHDG,343.9,0.0,E,,*24
$YXXDR,A,5.6,D,PTCH,A,5.9,D,ROLL*52
$GPGGA,164659.800,4916.5637,N,12311.0398,W,2,9,1.10,12.0,M,-16.8,M,0000,0000*5B
$GPGSA,A,3,08,03,16,19,13,10,27,23,05,,,,1.97,1.10,1.64*08
$GPGSV,3,1,11,13,73,123,36,10,44,267,28,08,43,259,35,23,41,130,38*7A
$GPGSV,3,2,11,1  ,35,050,27,48,32,192,27,03,26,116,27,27,23,089,33*7A
$HCHDG,344.1,0.0,E,,*2B
$YXXDR,A,5.6,D,PTCH,A,5.7,D,ROLL*5C
$HCHDG,344.0,0.0,E,,*2A
$YXXDR,A,5.6,D,PTCH,A,5.7,D,ROLL*5C
$GPGSV,3,$GPRMC,164700.000,A,4916.5638,N,12311.0398,W,2.58,5.12,220614,,,D*77
$HCHDG,344.1,0.0,E,,*2B
$YXXDR,A,5.5,D,PTCH,A,5.8,D,ROLL*50
$HCHDG,344.2,0.0,E,,*28
$YXXDR,A,5.5,D,PTCH,A,5.8,D,ROLL*50
$GPRMC,164700.2,A,4916.5640,N,12311.0398,W,2.61,2.71,220614,018.2,E*7A
$HCHDG,344.3,0.0,E,,*29
$YXXDR,A,5.6,D,PTCH,A,6.0,D,ROLL*58
$HCHDG,344.5,0.0,E,,*2F
$YXXDR,A,5.9,D,PTCH,A,6.2,D,ROLL*55
$GPRMC,164700.4,A,4916.5642,N,12311.0399,W,2.59,6.19,220614,018.2,E*7E
$HCHDG,344.5,0.0,E,,*2F
$YXXDR,A,5.9,D,PTCH,A,6.2,D,ROLL*55
$TIROT,64.4,A*0D
$HCHDG,344.6,0.0,E,,*2C
$YXXDR,A,6.0,D,PTCH,A,6.3,D,ROLL*5E
$GPRMC,164700.6,A,4916.5644,N,12311.0399,W,2.63,5.05,220614,018.2,E*7D
$HCHDG,344.8,0.0,E,,*22
$YXXDR,A,6.0,D,PTCH,A,6.3,D,ROLL*5E
$HCHDG,344.8,0.0,E,,*22
$YXXDR,A,6.0,D,PTCH,A,6.3,D,ROLL*5E
$GPGGA,164700.800,4916.5646,N,12311.0399,W,2,9,1.10,11.6,M,-16.8,M,0000,0000*54
$GPGSA,A,3,08,03,16,19,13,10,27,23,05,,,,1.97,1.10,1.64*08
$GPGSV,3,1,11,13,73,123,33,10,44,267  35,08,43,259,35,23,41,130,33*78
$GPGSV,3,2,11,16,35,050,25,48,,12311.0399,W,2.61,7.30,220614,,,D*7F
$HCHDG,344.6,0.0,E,,*2C
$YXXDR,A,6.0,D,PTCH,A,6.3,D,ROLL*5E
$HCHDG,344.8,0.0,E,,*22
$YXXDR,A,6.0,D,PTCH,A,6.3,D,ROLL*5E
$GPRMC,164701.0,A,4916.5649,N,12311.0400,W,2.80,2.07,220614,018.2,E*78
$HCHDG,344.8,0.0,E,,*22
$YXXDR,A,5.8,D,PTCH,A,6.1,D,ROLL*57
$HCHDG,345.0,0.0,E,,*2B
