$HCHDG,79.2,0.0,E,,*15
$YXXDR,A,4.5,D,PTCH,A,-1.5,D,ROLL*75
$HCHDG,78.9,0.0,E,,*1F
$YXXDR,A,4.6,D,PTCH,A,-1.8,D,ROLL*7B
$HCHDG,78.6,0.0,E,,*10
$YXXDR,A,4.5,D,PTCH,A,-2.0,D,ROLL*73
$HCHDG,78.4,0.0,E,,*12
$YXXDR,A,4.6,D,PTCH,A,-2.0,D,ROLL*70
$HCHDG,78.5,0.0,E,,*13
$IIMTW,+14.5,C*38
$YXXDR,A,4.5,D,PTCH,A,-2.1,D,ROLL*72
$GPGSV,4,1,13,17,59,060,34,24,56,283,38,04,41,140,34,06,36,153,39*7F
$GPGSV,4,2,13,48,32,192,29,12,26,288,32,28,22,097,33,02,14,179,37*7D
$GPGSV,4,3,13,15,10,235,25,01,09,033,25,14,07,336,24,20,06,063,34*71
$GPGSV,4,4,13,32,02,026,*4C
$GPRMC,230000.6,A,4917.5748,N,12312.1473,W,6.80,94.70,210614,018.2,E*45
$IIMWV,123,R,06.4,N,A*11
$HCHDG,78.1,0.0,E,,*17
$YXXDR,A,4.5,D,PTCH,A,-2.1,D,ROLL*72
$IIMWV,153,T,11.3,N,A*11
$HCHDG,77.7,0.0,E,,*1E
$YXXDR,A,4.5,D,PTCH,A,-2.1,D,ROLL*72
$GPRMC,230000.8,A,4917.5748,N,12312.1468,W,6.80,94.79,210614,018.2,E*48
$HCHDG,77.5,0.0,E,,*1C
$IIVHW,,,,,06.5,N,,*1A
$YXXDR,A,4.6,D,PTCH,A,-2.0,D,ROLL*70
$IIVLW,06850,N,036.8,N*55
$HCHDG,77.3,0.0,E,,*1A
$YXXDR,A,4.6,D,PTCH,A,-1.7,D,ROLL*74
$IIVWR,123,R,06.4,N,,,,*63
$GPGGA,230001.000,4917.5748,N,12312.1463,W,2,11,0.71,-6.3,M,-16.8,M,0000,0000*77
$GPGSA,A,3,20,17,02,06,24,01,12,15,04,14,28,,1.35,0.71,1.15*0D
$GPRMC,230001.0,A,4917.5748,N,12312.1463,W,6.80,94.65,210614,018.2,E*47
$HCHDG,77.2,0.0,E,,*1B
$YXXDR,A,4.6,D,PTCH,A,-1.3,D,ROLL*70
$TIROT,-134.1,A*11
$HCHDG,76.7,0.0,E,,*1F
$YXXDR,A,4.7,D,PTCH,A,-1.1,D,ROLL*73
$GPRMC,230001.2,A,4917.5747,N,12312.1458,W,6.79,94.24,210614,018.2,E*41
$HCHDG,76.5,0.0,E,,*1D
$YXXDR,A,4.6,D,PTCH,A,-0.8,D,ROLL*7A
$HCHDG,76.3,0.0,E,,*1B
$YXXDR,A,4.7,D,PTCH,A,-0.9,D,ROLL*7A
$GPRMC,230001.4,A,4917.5748,N,12312.1453,W,6.79,93.89,210614,018.2,E*43
$HCHDG,76.0,0.0,E,,*18
$YXXDR,A,4.8,D,PTCH,A,-1.0,D,ROLL*7D
$HCHDG,75.8,0.0,E,,*13
$IIMTW,+14.5,C*38
$YXXDR,A,4.7,D,PTCH,A,-0.8,D,ROLL*7B
$GPGSV,4,1,13,17,59,060,40,24,56,283,35,04,41,140,35,06,36,153,42*7C
$GPGSV,4,2,13,48,32,192,31,12,26,288,30,28,22,097,36,02,14,179,39*7D
$GPGSV,4,3,13,15,10,235,36,01,09,033,31,14,07,336,29,20,06,063,29*77
$GPGSV,4,4,13,32,02,026,*4C
$GPRMC,230001.6,A,4917.5748,N,12312.1448,W,6.79,93.75,210614,018.2,E*48
$IIMWV,126,R,06.3,N,A*13
$HCHDG,75.6,0.0,E,,*1D
$YXXDR,A,4.7,D,PTCH,A,-0.8,D,ROLL*7B
$IIMWV,152,T,11.2,N,A*11
$HCHDG,75.2,0.0,E,,*19
$YXXDR,A,4.8,D,PTCH,A,-0.6,D,ROLL*7A
$GPRMC,230001.8,A,4917.5748,N,12312.1442,W,6.77,93.38,210614,018.2,E*4B
$HCHDG,74.8,0.0,E,,*12
$IIVHW,,,,,06.4,N,,*1B
$YXXDR,A,4.9,D,PTCH,A,-0.3,D,ROLL*7E
$IIVLW,06850,N,036.8,N*55
$HCHDG,74.4,0.0,E,,*1E
$YXXDR,A,4.9,D,PTCH,A,-0.1,D,ROLL*7C
$IIVWR,126,R,06.3,N,,,,*61
$GPGGA,230002.000,4917.5748,N,12312.1437,W,2,11,0.71,-5.4,M,-16.8,M,0000,0000*71
$GPGSA,A,3,20,17,02,06,24,01,12,15,04,14,28,,1.35,0.71,1.15*0D
$GPRMC,230002.0,A,4917.5748,N,12312.1437,W,6.77,93.41,210614,018.2,E*4C
$HCHDG,74.3,0.0,E,,*19
$YXXDR,A,4.8,D,PTCH,A,0.1,D,ROLL*50
$TIROT,-129.3,A*1F
$HCHDG,74.1,0.0,E,,*1B
$YXXDR,A,4.8,D,PTCH,A,0.3,D,ROLL*52
$GPRMC,230002.2,A,4917.5748,N,12312.1432,W,6.76,93.64,210614,018.2,E*4D
$HCHDG,74.2,0.0,E,,*18
$YXXDR,A,4.7,D,PTCH,A,0.6,D,ROLL*58
$HCHDG,74.1,0.0,E,,*1B
$YXXDR,A,4.5,D,PTCH,A,0.8,D,ROLL*54
$GPRMC,230002.4,A,4917.5748,N,12312.1426,W,6.78,92.70,210614,018.2,E*44
$HCHDG,73.9,0.0,E,,*14
$YXXDR,A,4.6,D,PTCH,A,1.0,D,ROLL*5E
$HCHDG,74.0,0.0,E,,*1A
$IIMTW,+14.5,C*38
$YXXDR,A,4.5,D,PTCH,A,1.1,D,ROLL*5C
$GPGSV,4,1,13,17,59,060,40,24,56,283,35,04,41,140,37,06,36,153,42*7E
$GPGSV,4,2,13,48,32,192,30,12,26,288,28,28,22,097,36,02,14,179,42*79
$GPGSV,4,3,13,15,10,235,36,01,09,033,35,14,07,336,33,20,06,063,25*74
$GPGSV,4,4,13,32,02,026,*4C
$GPRMC,230002.6,A,4917.5748,N,12312.1421,W,6.81,92.00,210614,018.2,E*40
$IIMWV,127,R,06.6,N,A*17
$HCHDG,73.9,0.0,E,,*14
$YXXDR,A,4.7,D,PTCH,A,1.4,D,ROLL*5B
$IIMWV,153,T,11.3,N,A*11
$HCHDG,73.6,0.0,E,,*1B
$YXXDR,A,4.8,D,PTCH,A,1.7,D,ROLL*57
$GPRMC,230002.8,A,4917.5748,N,12312.1415,W,7.02,91.58,210614,018.2,E*4D
$HCHDG,73.7,0.0,E,,*1A
$IIVHW,,,,,06.5,N,,*1A
$YXXDR,A,5.3,D,PTCH,A,3.5,D,ROLL*5D
$IIVLW,06850,N,036.8,N*55
$HCHDG,73.7,0.0,E,,*1A
$YXXDR,A,5.2,D,PTCH,A,3.6,D,ROLL*5F
$IIVWR,127,R,06.6,N,,,,*65
$HCHDG,73.7,0.0,E,,*1A
$YXXDR,A,5.2,D,PTCH,A,3.5,D,ROLL*5C
$TIROT,-21.1,A*24
$HCHDG,73.7,0.0,E,,*1A
$YXXDR,A,5.1,D,PTCH,A,3.4,D,ROLL*5E
$GPRMC,230003.2,A,4917.5750,N,12312.1403,W,6.77,88.67,210614,018.2,E*4F
$HCHDG,73.8,0.0,E,,*15
$YXXDR,A,5.1,D,PTCH,A,3.0,D,ROLL*5A
$HCHDG,73.8,0.0,E,,*15
$YXXDR,A,5.0,D,PTCH,A,2.9,D,ROLL*53
$GPRMC,230003.4,A,4917.5750,N,12312.1398,W,6.72,88.30,210614,018.2,E*4B
$HCHDG,73.8,0.0,E,,*15
$YXXDR,A,4.9,D,PTCH,A,2.6,D,ROLL*54
$HCHDG,73.8,0.0,E,,*15
$YXXDR,A,4.8,D,PTCH,A,2.4,D,ROLL*57
$IIMTW,+14.5,C*38
$IIMWV,126,R,06.7,N,A*17
$GPGSV,4,1,13,17,59,060,38,24,56,283,38,04,41,140,38,06,36,153,43*72
$GPGSV,4,2,13,48,32,192,31,12,26,288,29,28,22,097,34,02,14,179,39*77
$GPGSV,4,3,13,15,10,235,37,01,09,033,37,14,07,336,32,20,06,063,28*7B
$GPGSV,4,4,13,32,02,026,*4C
$GPRMC,230003.6,A,4917.5751,N,12312.1392,W,6.70,88.63,210614,018.2,E*46
$IIMWV,153,T,11.6,N,A*14
$HCHDG,73.8,0.0,E,,*15
$YXXDR,A,4.8,D,PTCH,A,2.3,D,ROLL*50
$HCHDG,73.7,0.0,E,,*1A
$YXXDR,A,4.7,D,PTCH,A,2.1,D,ROLL*5D
$HCHDG,73.6,0.0,E,,*1B
$GPRMC,230003.8,A,4917.5752,N,12312.1386,W,6.62,88.76,210614,018.2,E*49
$IIVHW,,,,,06.4,N,,*1B
$YXXDR,A,4.6,D,PTCH,A,1.8,D,ROLL*56
$IIVLW,06850,N,036.8,N*55
$HCHDG,73.8,0.0,E,,*15
$YXXDR,A,4.5,D,PTCH,A,1.5,D,ROLL*58
$IIVWR,126,R,06.7,N,,,,*65
$GPGGA,230004.000,4917.5752,N,12312.1381,W,2,11,0.71,-5.3,M,-16.8,M,0000,0000*71
$GPGSA,A,3,20,17,02,06,24,01,12,15,04,14,28,,1.35,0.71,1.15*0D
$GPRMC,230004.0,A,4917.5752,N,12312.1381,W,6.58,88.97,210614,018.2,E*47
$HCHDG,73.7,0.0,E,,*1A
$YXXDR,A,4.5,D,PTCH,A,1.5,D,ROLL*58
$TIROT,-36.7,A*24
$HCHDG,73.9,0.0,E,,*14
$YXXDR,A,4.3,D,PTCH,A,1.7,D,ROLL*5C
$GPRMC,230004.2,A,4917.5753,N,12312.1375,W,6.57,87.41,210614,018.2,E*44
$HCHDG,73.9,0.0,E,,*14
$YXXDR,A,4.3,D,PTCH,A,1.9,D,ROLL*52
$HCHDG,74.0,0.0,E,,*1A
$YXXDR,A,4.3,D,PTCH,A,1.9,D,ROLL*52
$GPRMC,230004.4,A,4917.5753,N,12312.1369,W,6.52,88.15,210614,018.2,E*44
$HCHDG,74.0,0.0,E,,*1A
$YXXDR,A,4.2,D,PTCH,A,2.1,D,ROLL*58
$HCHDG,73.7,0.0,E,,*1A
$IIMTW,+14.5,C*38
$YXXDR,A,4.2,D,PTCH,A,2.1,D,ROLL*58
$GPGSV,4,1,13,17,59,060,39,24,56,283,40,04,41,140,39,06,36,153,42*7C
$GPGSV,4,2,13,48,32,192,30,12,26,288,29,28,22,097,23,02,14,179,40*7E
$GPGSV,4,3,13,15,10,235,38,01,09,033,36,14,07,336,30,20,06,063,31*7F
$GPGSV,4,4,13,32,02,026,*4C
$GPRMC,230004.6,A,4917.5753,N,12312.1364,W,6.46,88.64,210614,018.2,E*48
$IIMWV,134,R,06.6,N,A*15
$HCHDG,73.8,0.0,E,,*15
$IIMWV,152,T,11.6,N,A*15
$YXXDR,A,4.2,D,PTCH,A,1.9,D,ROLL*53
$HCHDG,73.7,0.0,E,,*1A
$YXXDR,A,4.3,D,PTCH,A,1.8,D,ROLL*53
$GPRMC,230004.8,A,4917.5753,N,12312.1358,W,6.24,88.03,210614,018.2,E*4C
$HCHDG,74.0,0.0,E,,*1A
$IIVHW,,,,,06.2,N,,*1D
$YXXDR,A,4.5,D,PTCH,A,1.1,D,ROLL*5C
$IIVLW,06850,N,036.8,N*55
$HCHDG,73.9,0.0,E,,*14
$IIVWR,134,R,06.6,N,,,,*67
$YXXDR,A,4.3,D,PTCH,A,1.2,D,ROLL*59
$GPGGA,230005.000,4917.5753,N,12312.1352,W,2,11,0.71,-5.4,M,-16.8,M,0000,0000*78
$GPGSA,A,3,20,17,02,06,24,01,12,15,04,14,28,,1.35,0.71,1.15*0D
$GPRMC,230005.0,A,4917.5753,N,12312.1352,W,6.28,88.30,210614,018.2,E*43
$HCHDG,73.9,0.0,E,,*14
$YXXDR,A,4.3,D,PTCH,A,1.3,D,ROLL*58
$TIROT,7.3,A*3F
$HCHDG,74.0,0.0,E,,*1A
$YXXDR,A,4.3,D,PTCH,A,1.3,D,ROLL*58
$GPRMC,230005.2,A,4917.5753,N,12312.1345,W,6.27,88.11,210614,018.2,E*4B
$HCHDG,73.9,0.0,E,,*14
$YXXDR,A,4.3,D,PTCH,A,1.4,D,ROLL*5F
$HCHDG,73.7,0.0,E,,*1A
$YXXDR,A,4.2,D,PTCH,A,1.4,D,ROLL*5E
$GPRMC,230005.4,A,4917.5753,N,12312.1338,W,6.26,87.20,210614,018.2,E*4B
$HCHDG,73.8,0.0,E,,*15
$YXXDR,A,4.3,D,PTCH,A,1.5,D,ROLL*5E
$HCHDG,73.6,0.0,E,,*1B
$IIMTW,+14.5,C*38
$YXXDR,A,4.3,D,PTCH,A,1.5,D,ROLL*5E
$GPGSV,4,1,13,17,59,060,38,24,56,283,41,04,41,140,39,06,36,153,42*7C
$GPGSV,4,2,13,48,32,192,32,12,26,288,32,28,22,097,24,02,14,179,38*7E
$GPGSV,4,3,13,15,10,235,36,01,09,033,36,14,07,336,29,20,06,063,32*7A
$GPGSV,4,4,13,32,02,026,*4C
$GPRMC,230005.6,A,4917.5753,N,12312.1332,W,6.22,86.86,210614,018.2,E*4A
$IIMWV,136,R,06.4,N,A*15
$HCHDG,73.4,0.0,E,,*19
$IIMWV,156,T,11.6,N,A*11
$YXXDR,A,4.4,D,PTCH,A,1.6,D,ROLL*5A
$HCHDG,73.5,0.0,E,,*18
$YXXDR,A,4.4,D,PTCH,A,1.9,D,ROLL*55
$GPRMC,230005.8,A,4917.5754,N,12312.1326,W,6.21,87.10,210614,018.2,E*4B
$HCHDG,73.7,0.0,E,,*1A
$IIVHW,,,,,06.1,N,,*1E
$YXXDR,A,4.4,D,PTCH,A,2.0,D,ROLL*5F
$IIVLW,06850,N,036.8,N*55
$HCHDG,73.4,0.0,E,,*19
$YXXDR,A,4.6,D,PTCH,A,2.3,D,ROLL*5E
$IIVWR,136,R,06.4,N,,,,*67
$GPGGA,230006.000,4917.5755,N,12312.1321,W,2,11,0.71,-5.5,M,-16.8,M,0000,0000*78
$GPGSA,A,3,20,17,02,06,24,01,12,15,04,14,28,,1.35,0.71,1.15*0D
$GPRMC,230006.0,A,4917.5755,N,12312.1321,W,6.20,86.74,210614,018.2,E*44
$HCHDG,73.4,0.0,E,,*19
$YXXDR,A,4.7,D,PTCH,A,2.3,D,ROLL*5F
$TIROT,76.3,A*09
$HCHDG,73.9,0.0,E,,*14
$YXXDR,A,4.6,D,PTCH,A,2.3,D,ROLL*5E
$GPRMC,230006.2,A,4917.5756,N,12312.1316,W,6.18,86.54,210614,018.2,E*48
$HCHDG,73.8,0.0,E,,*15
$YXXDR,A,4.6,D,PTCH,A,2.1,D,ROLL*5C
$HCHDG,73.9,0.0,E,,*14
$YXXDR,A,4.5,D,PTCH,A,2.0,D,ROLL*5E
$GPRMC,230006.4,A,4917.5757,N,12312.1310,W,6.14,87.61,210614,018.2,E*42
$HCHDG,73.9,0.0,E,,*14
$YXXDR,A,4.7,D,PTCH,A,1.6,D,ROLL*59
$HCHDG,74.2,0.0,E,,*18
$YXXDR,A,4.5,D,PTCH,A,1.5,D,ROLL*58
$IIMTW,+14.5,C*38
$IIMWV,136,R,06.3,N,A*12
$GPGSV,4,1,13,17,59,060,34,24,56,283,41,04,41,140,41,06,36,153,42*7F
$GPGSV,4,2,13,48,32,192,30,12,26,288,29,28,22,097,24,02,14,179,39*77
$GPGSV,4,3,13,15,10,235,36,01,09,033,36,14,07,336,28,20,06,063,30*79
$GPGSV,4,4,13,32,02,026,*4C
$GPRMC,230006.6,A,4917.5757,N,12312.1304,W,6.12,88.86,210614,018.2,E*45
$IIMWV,158,T,11.6,N,A*1F
$HCHDG,74.2,0.0,E,,*18
$YXXDR,A,4.7,D,PTCH,A,1.3,D,ROLL*5C
$HCHDG,74.3,0.0,E,,*19
$YXXDR,A,4.5,D,PTCH,A,1.2,D,ROLL*5F
$GPRMC,230006.8,A,4917.5758,N,12312.1299,W,6.13,89.06,210614,018.2,E*49
$HCHDG,74.4,0.0,E,,*1E
$IIVHW,,,,,05.9,N,,*15
$YXXDR,A,4.6,D,PTCH,A,1.0,D,ROLL*5E
$IIVLW,06850,N,036.8,N*55
$HCHDG,74.3,0.0,E,,*19
$YXXDR,A,4.7,D,PTCH,A,1.1,D,ROLL*5E
$IIVWR,136,R,06.3,N,,,,*60
$GPGGA,230007.000,4917.5758,N,12312.1293,W,2,11,0.71,-5.5,M,-16.8,M,0000,0000*7C
$GPGSA,A,3,20,17,02,06,24,01,12,15,04,14,28,,1.35,0.71,1.15*0D
$GPRMC,230007.0,A,4917.5758,N,12312.1293,W,6.15,88.80,210614,018.2,E*43
$HCHDG,74.4,0.0,E,,*1E
$YXXDR,A,4.5,D,PTCH,A,1.1,D,ROLL*5C
$TIROT,86.2,A*07
$HCHDG,74.6,0.0,E,,*1C
$YXXDR,A,4.7,D,PTCH,A,1.3,D,ROLL*5C
$GPRMC,230007.2,A,4917.5758,N,12312.1287,W,6.13,89.28,210614,018.2,E*41
$HCHDG,74.9,0.0,E,,*13
$YXXDR,A,4.7,D,PTCH,A,1.3,D,ROLL*5C
$HCHDG,74.9,0.0,E,,*13
$YXXDR,A,4.7,D,PTCH,A,1.3,D,ROLL*5C
$GPRMC,230007.4,A,4917.5758,N,12312.1282,W,5.89,87.66,210614,018.2,E*46
$HCHDG,75.0,0.0,E,,*1B
$YXXDR,A,4.9,D,PTCH,A,1.2,D,ROLL*53
$HCHDG,74.8,0.0,E,,*12
$IIMTW,+14.5,C*38
$YXXDR,A,4.8,D,PTCH,A,1.4,D,ROLL*54
$GPGSV,4,1,13,17,59,060,29,24,56,283,39,04,41,140,36,06,36,153,41*7F
$GPGSV,4,2,13,48,32,192,31,12,26,288,31,28,22,097,27,02,14,179,38*7D
$GPGSV,4,3,13,15,10,235,33,01,09,033,36,14,07,336,25,20,06,063,30*71
$GPGSV,4,4,13,32,02,026,*4C
$GPRMC,230007.6,A,4917.5759,N,12312.1276,W,5.93,88.72,210614,018.2,E*4F
$IIMWV,137,R,06.6,N,A*16
$HCHDG,74.9,0.0,E,,*13
$YXXDR,A,4.8,D,PTCH,A,1.4,D,ROLL*54
$IIMWV,158,T,11.3,N,A*1A
$HCHDG,75.0,0.0,E,,*1B
$YXXDR,A,4.8,D,PTCH,A,1.3,D,ROLL*53
$GPRMC,230007.8,A,4917.5759,N,12312.1271,W,5.99,88.31,210614,018.2,E*4B
$HCHDG,75.0,0.0,E,,*1B
$IIVHW,,,,,05.8,N,,*14
$YXXDR,A,4.8,D,PTCH,A,1.3,D,ROLL*53
$IIVLW,06850,N,036.8,N*55
$HCHDG,75.0,0.0,E,,*1B
$YXXDR,A,4.7,D,PTCH,A,1.3,D,ROLL*5C
$IIVWR,137,R,06.6,N,,,,*64
$GPGGA,230008.000,4917.5759,N,12312.1265,W,2,11,0.71,-5.5,M,-16.8,M,0000,0000*7B
$GPGSA,A,3,20,17,02,06,24,01,12,15,04,14,28,,1.35,0.71,1.15*0D
$GPRMC,230008.0,A,4917.5759,N,12312.1265,W,6.03,88.82,210614,018.2,E*41
$HCHDG,75.5,0.0,E,,*1E
$YXXDR,A,4.7,D,PTCH,A,1.3,D,ROLL*5C
$TIROT,107.0,A*3D
$HCHDG,75.7,0.0,E,,*1C
$YXXDR,A,4.8,D,PTCH,A,1.3,D,ROLL*53
$GPRMC,230008.2,A,4917.5759,N,12312.1260,W,6.24,88.88,210614,018.2,E*49
$HCHDG,75.6,0.0,E,,*1D
$YXXDR,A,4.8,D,PTCH,A,1.3,D,ROLL*53
$HCHDG,75.9,0.0,E,,*12
$YXXDR,A,4.8,D,PTCH,A,1.1,D,ROLL*51
$GPRMC,230008.4,A,4917.5759,N,12312.1254,W,5.85,90.61,210614,018.2,E*4E
$HCHDG,75.9,0.0,E,,*12
$YXXDR,A,4.8,D,PTCH,A,1.1,D,ROLL*51
$HCHDG,76.5,0.0,E,,*1D
$IIMTW,+14.5,C*38
$YXXDR,A,4.7,D,PTCH,A,0.9,D,ROLL*57
$GPGSV,4,1,13,17,59,060,27,24,56,283,40,04,41,140,32,06,36,153,40*7A
$GPGSV,4,2,13,48,32,192,32,12,26,288,34,2  ,22,097,25,02,14,179,38*79
$GPGSV,4,3,13,15,10,235,31,01,09,032.1248,W,5.89,90.01,210614,,,D*43
$IIMWV,138,R,06.9,N,A*16
$HCHDG,76.4,0.0,E,,*1C
$IIMWV,158,T,11.5,N,A*1C
$YXXDR,A,4.6,D,PTCH,A,0.8,D,ROLL*57
$HCHDG,76.8,0.0,E,,*10
$YXXDR,A,4.7,D,PTCH,A,0.4,D,ROLL*5A
$GPRMC,230008.8,A,4917.5759,N,12312.1243,W,5.91,89.85,210614,018.2,E*43
$HCHDG,76.7,0.0,E,,*1F
$IIVHW,,,,,05.7,N,,*1B
$YXXDR,A,4.5,D,PTCH,A,0.3,D,ROLL*5F
$IIVLW,06850,N,036.8,N*55
$HCHDG,76.9,0.0,E,,*11
$IIVWR,138,R,06.9,N,,,,*64
$YXXDR,A,4.7,D,PTCH,A,0.2,D,ROLL*5C
$GPGGA,230009.000,4917.5759,N,12312.1238,W,2,11,0.71,-5.6,M,-16.8,M,0000,0000*71
$GPGSA,A,3,20,17,02,06,24,01,12,15,04,14,28,,1.35,0.71,1.15*0D
$GPRMC,230009.0,A,4917.5759,N,12312.1238,W,5.92,90.64,210614,018.2,E*42
$HCHDG,77.1,0.0,E,,*18
$YXXDR,A,4.7,D,PTCH,A,0.0,D,ROLL*5E
$TIROT,158.3,A*34
$HCHDG,77.1,0.0,E,,*18
$YXXDR,A,4.8,D,PTCH,A,0.1,D,ROLL*50
$GPRMC,230009.2,A,4917.5759,N,12312.1232,W,5.96,89.91,210614,018.2,E*4C
$HCHDG,77.5,0.0,E,,*1C
$YXXDR,A,4.8,D,PTCH,A,0.1,D,ROLL*50
$HCHDG,77.9,0.0,E,,*10
$YXXDR,A,4.9,D,PTCH,A,0.3,D,ROLL*53
$GPRMC,230009.4,A,4917.5759,N,12312.1227,W,6.00,89.43,210614,018.2,E*4D
$HCHDG,78.1,0.0,E,,*17
$YXXDR,A,4.9,D,PTCH,A,0.3,D,ROLL*53
$HCHDG,78.3,0.0,E,,*15
$IIMTW,+14.5,C*38
$YXXDR,A,4.9,D,PTCH,A,0.3,D,ROLL*53
$GPGSV,4,4,13,32,02,026,*4C
$GPRMC,230009.6,A,4917.5759,N,12312.1222,W,6.03,88.99,210614,018.2,E*4F
$IIMWV,139,R,06.9,N,A*17
$HCHDG,78.5,0.0,E,,*13
$YXXDR,A,4.9,D,PTCH,A,0.1,D,ROLL*51
$IIMWV,157,T,11.7,N,A*11
$HCHDG,78.7,0.0,E,,*11
$YXXDR,A,4.8,D,PTCH,A,0.0,D,ROLL*51
$GPRMC,230009.8,A,4917.5759,N,12312.1217,W,6.07,89.38,210614,018.2,E*49
$HCHDG,78.8,0.0,E,,*1E
$IIVHW,,,,,05.6,N,,*1A
$YXXDR,A,4.8,D,PTCH,A,-0.1,D,ROLL*7D
$IIVLW,06850,N,036.8,N*55
$HCHDG,79.1,0.0,E,,*16
$YXXDR,A,4.8,D,PTCH,A,-0.1,D,ROLL*7D
$IIVWR,139,R,06.9,N,,,,*65
$GPGGA,230010.000,4917.5759,N,12312.1212,W,2,11,0.71,-5.5,M,-16.8,M,0000,0000*72
$GPGSA,A,3,20,17,02,06,24,01,12,15,04,14,28,,1.35,0.71,1.15*0D
$GPRMC,230010.0,A,4917.5759,N,12312.1212,W,6.07,89.81,210614,018.2,E*4E
$HCHDG,79.6,0.0,E,,*11
$YXXDR,A,4.9,D,PTCH,A,-0.1,D,ROLL*7C
$TIROT,176.2,A*39
$HCHDG,80.0,0.0,E,,*11
$YXXDR,A,4.7,D,PTCH,A,0.0,D,ROLL*5E
$GPRMC,230010.2,A,4917.5759,N,12312.1207,W,6.04,90.40,210614,018.2,E*4E
$HCHDG,80.4,0.0,E,,*15
$YXXDR,A,4.7,D,PTCH,A,0.2,D,ROLL*5C
$HCHDG,80.4,0.0,E,,*15
$YXXDR,A,4.7,D,PTCH,A,0.2,D,ROLL*5C
$GPRMC,230010.4,A,4917.5759,N,12312.1201,W,6.01,91.14,210614,018.2,E*4B
$HCHDG,80.8,0.0,E,,*19
$YXXDR,A,4.7,D,PTCH,A,0.0,D,ROLL*5E
$HCHDG,81.3,0.0,E,,*13
$YXXDR,A,4.5,D,PTCH,A,0.0,D,ROLL*5C
$GPGSV,4,1,13,17,59,060,34,24,56,283,35,04,41,140,34,06,36,153,39*72
$GPGSV,4,2,13,48,32,192,36,12,26,288,34,28,22,097,35,02,14,179,37*73
$GPGSV,4,3,13,15,10,235,30,01,09,033,33,14,07,336,27,20,06,063,36*73
$GPGSV,4,4,13,32,02,026,*4C
$GPRMC,230010.6,A,4917.5759,N,12312.1196,W,5.97,91.36,210614,018.2,E*48
$HCHDG,81.7,0.0,E,,*17
$YXXDR,A,4.7,D,PTCH,A,-0.2,D,ROLL*71
$HCHDG,81.6,0.0,E,,*16
$YXXDR,A,4.6,D,PTCH,A,-0.5,D,ROLL*77
$GPRMC,230010.8,A,4917.5759,N,12312.1192,W,5.94,92.63,210614,018.2,E*42
$HCHDG,82.1,0.0,E,,*12
$YXXDR,A,4.7,D,PTCH,A,-0.9,D,ROLL*7A
$HCHDG,82.6,0.0,E,,*15
$YXXDR,A,4.7,D,PTCH,A,-1.3,D,ROLL*71
$GPGGA,230011.000,4917.5759,N,12312.1187,W,2,11,0.71,-5.5,M,-16.8,M,0000,0000*7C
$GPGSA,A,3,20,17,02,06,24,01,12,15,04,14,28,,1.35,0.71,1.15*0D
$GPRMC,230011.0,A,4917.5759,N,12312.1187,W,5.90,94.11,210614,018.2,E*48
$HCHDG,82.9,0.0,E,,*1A
$YXXDR,A,4.7,D,PTCH,A,-1.6,D,ROLL*74
$TIROT,170.4,A*39
$HCHDG,83.0,0.0,E,,*12
$YXXDR,A,4.7,D,PTCH,A,-1.9,D,ROLL*7B
$GPRMC,230011.2,A,4917.5759,N,12312.1182,W,5.86,95.03,210614,018.2,E*4A
$HCHDG,83.1,0.0,E,,*13
$YXXDR,A,4.8,D,PTCH,A,-2.1,D,ROLL*7F
$HCHDG,83.4,0.0,E,,*16
$YXXDR,A,4.8,D,PTCH,A,-2.1,D,ROLL*7F
$GPRMC,230011.4,A,4917.5759,N,12312.1177,W,5.82,95.77,210614,018.2,E*41
$HCHDG,83.6,0.0,E,,*14
$YXXDR,A,4.8,D,PTCH,A,-2.1,D,ROLL*7F
$HCHDG,83.6,0.0,E,,*14
$YXXDR,A,4.8,D,PTCH,A,-2.1,D,ROLL*7F
$IIMTW,+14.5,C*38
$IIMWV,145,R,06.7,N,A*12
$GPGSV,4,1,13,17,59,060,36,24,56,283,38,04,41,140,38,06,36,153,38*70
$GPGSV,4,2,13,48,32,192,34,12,26,288,35,28,22,097,32,02,14,179,38*78
$GPGSV,4,3,13,15,10,235,26,01,09,033,29,14,07,336,29,20,06,063,36*71
$GPGSV,4,4,13,32,02,026,*4C
$GPRMC,230011.6,A,4917.5758,N,12312.1172,W,5.79,96.22,210614,018.2,E*40
$IIMWV,157,T,11.6,N,A*10
$HCHDG,83.6,0.0,E,,*14
$YXXDR,A,4.8,D,PTCH,A,-2.1,D,ROLL*7F
$HCHDG,83.8,0.0,E,,*1A
$YXXDR,A,4.8,D,PTCH,A,-2.1,D,ROLL*7F
$HCHDG,83.9,0.0,E,,*1B
$IIVHW,,,,,05.6,N,,*1A
$YXXDR,A,4.8,D,PTCH,A,-2.1,D,ROLL*7F
$GPRMC,230011.8,A,4917.5758,N,12312.1168,W,5.77,96.67,210614,018.2,E*4A
$IIVLW,06850,N,036.8,N*55
$HCHDG,84.1,0.0,E,,*14
$IIVWR,145,R,06.7,N,,,,*60
$YXXDR,A,4.8,D,PTCH,A,-2.0,D,ROLL*7E
$GPGGA,230012.000,4917.5758,N,12312.1164,W,2,11,0.71,-5.4,M,-16.8,M,0000,0000*72
$GPGSA,A,3,20,17,02,06,24,01,12,15,04,14,28,,1.35,0.71,1.15*0D
$GPRMC,230012.0,A,4917.5758,N,12312.1164,W,5.79,96.84,210614,018.2,E*4E
$HCHDG,84.3,0.0,E,,*16
$YXXDR,A,4.8,D,PTCH,A,-1.8,D,ROLL*75
$TIROT,41.7,A*09
$HCHDG,84.4,0.0,E,,*11
$YXXDR,A,4.9,D,PTCH,A,-1.5,D,ROLL*79
$GPRMC,230012.2,A,4917.5758,N,12312.1159,W,5.77,97.49,210614,018.2,E*4C
$HCHDG,84.6,0.0,E,,*13
$YXXDR,A,4.8,D,PTCH,A,-1.4,D,ROLL*79
$HCHDG,84.7,0.0,E,,*12
$YXXDR,A,4.8,D,PTCH,A,-1.6,D,ROLL*7B
$HCHDG,84.9,0.0,E,,*1C
$YXXDR,A,4.7,D,PTCH,A,-1.4,D,ROLL*76
$HCHDG,84.7,0.0,E,,*12
$IIMTW,+14.5,C*38
$YXXDR,A,4.5,D,PTCH,A,-1.4,D,ROLL*74
$GPGSV,4,2,13,48,32,192,34,12,26,288,34,28,22,097,28,02,14,179,30*7A
$GPGSV,4,3,13,15,10,235,30,01,09,033,28,14,07,336,30,20,06,063,34*7D
$GPGSV,4,4,13,32,02,026,*4C
$GPRMC,230012.6,A,4917.5759,N,12312.1150,W,5.72,99.04,210614,018.2,E*42
$IIMWV,135,R,06.3,N,A*11
$HCHDG,84.7,0.0,E,,*12
$YXXDR,A,4.5,D,PTCH,A,-1.5,D,ROLL*75
$IIMWV,157,T,10.9,N,A*1E
$HCHDG,84.8,0.0,E,,*1D
$YXXDR,A,4.6,D,PTCH,A,-1.8,D,ROLL*7B
$GPRMC,230012.8,A,4917.5758,N,12312.1145,W,5.72,100.83,210614,018.2,E*77
$HCHDG,84.9,0.0,E,,*1C
$IIVHW,,,,,05.6,N,,*1A
$YXXDR,A,4.6,D,PTCH,A,-2.3,D,ROLL*73
$IIVLW,06850,N,036.8,N*55
$HCHDG,85.3,0.0,E,,*17
$YXXDR,A,4.6,D,PTCH,A,-2.5,D,ROLL*75
$IIVWR,135,R,06.3,N,,,,*63
$GPGGA,230013.000,4917.5757,N,12312.1141,W,2,11,0.71,-5.2,M,-16.8,M,0000,0000*7D
$GPGSA,A,3,20,17,02,06,24,01,12,15,04,14,28,,1.35,0.71,1.15*0D
$GPRMC,230013.0,A,4917.5757,N,12312.1141,W,5.72,99.76,210614,018.2,E*4E
$HCHDG,85.1,0.0,E,,*15
$YXXDR,A,4.8,D,PTCH,A,-3.4,D,ROLL*7B
$TIROT,-17.5,A*25
$HCHDG,85.1,0.0,E,,*15
$YXXDR,A,4.8,D,PTCH,A,-2.6,D,ROLL*78
$GPRMC,230013.2,A,4917.5756,N,12312.1136,W,5.70,101.63,210614,018.2,E*7B
$HCHDG,85.1,0.0,E,,*15
$YXXDR,A,4.8,D,PTCH,A,-2.4,D,ROLL*7A
$HCHDG,84.9,0.0,E,,*1C
$YXXDR,A,4.6,D,PTCH,A,-2.3,D,ROLL*73
$GPRMC,230013.4,A,4917.5755,N,12312.1131,W,5.70,102.60,210614,018.2,E*79
$HCHDG,84.8,0.0,E,,*1D
$YXXDR,A,4.6,D,PTCH,A,-2.3,D,ROLL*73
$HCHDG,84.4,0.0,E,,*11
$IIMTW,+14.5,C*38
$YXXDR,A,4.5,D,PTCH,A,-2.2,D,ROLL*71
$GPGSV,4,1,13,17,59,060,36,24,56,283,37,04,41,140,41,06,36,153,38*71
$GPGSV,4,2,13,48,32,192,34,12,26,288,33,28,22,097,29,02,14,179,35*79
$GPGSV,4,3,13,15,10,235,29,01,09,033,31,14,07,336,26,20,06,063,36*78
$GPGSV,4,4,13,32,02,026,*4C
$GPRMC,230013.6,A,4917.5754,N,12312.1127,W,5.68,102.11,210614,018.2,E*72
$IIMWV,132,R,06.6,N,A*13
$HCHDG,84.2,0.0,E,,*17
$YXXDR,A,4.7,D,PTCH,A,-2.2,D,ROLL*73
$IIMWV,156,T,10.9,N,A*1F
$HCHDG,84.0,0.0,E,,*15
$YXXDR,A,4.8,D,PTCH,A,-2.2,D,ROLL*7C
$GPRMC,230013.8,A,4917.5753,N,12312.1122,W,5.64,102.43,210614,018.2,E*75
$HCHDG,83.6,0.0,E,,*14
$IIVHW,,,,,05.6,N,,*1A
$YXXDR,A,4.9,D,PTCH,A,-2.0,D,ROLL*7F
$IIVLW,06850,N,036.8,N*55
$HCHDG,83.4,0.0,E,,*16
$YXXDR,A,5.0,D,PTCH,A,-1.9,D,ROLL*7D
$IIVWR,132,R,06.6,N,,,,*61
$GPGGA,230014.000,4917.5752,N,12312.1118,W,2,11,0.71,-5.3,M,-16.8,M,0000,0000*72
$GPGSA,A,3,20,17,02,06,24,01,12,15,04,14,28,,1.35,0.71,1.15*0D
$GPRMC,230014.0,A,4917.5752,N,12312.1118,W,5.90,99.02,210614,018.2,E*4F
$HCHDG,83.2,0.0,E,,*10
$YXXDR,A,5.1,D,PTCH,A,-1.0,D,ROLL*75
$TIROT,-94.6,A*2D
$HCHDG,83.0,0.0,E,,*12
$YXXDR,A,5.0,D,PTCH,A,-0.9,D,ROLL*7C
$HCHDG,82.7,0.0,E,,*14
$YXXDR,A,5.0,D,PTCH,A,-0.8,D,ROLL*7D
$HCHDG,82.6,0.0,E,,*15
$YXXDR,A,4.9,D,PTCH,A,-0.7,D,ROLL*7A
$HCHDG,82.3,0.0,E,,*10
$YXXDR,A,4.9,D,PTCH,A,-0.7,D,ROLL*7A
$HCHDG,82.0,0.0,E,,*13
$IIMTW,+14.5,C*38
$YXXDR,A,5.0,D,PTCH,A,-0.9,D,ROLL*7C
$GPGSV,4,1,13,17,59,060,37,24,56,283,31,04,41,140,38,06,36,153,40*77
$GPGSV,4,2,13,48,32,192,31,12,26,288,31,28,22,097,35,02,14,179,28*7F
$GPGSV,4,3,13,15,10,235,31,01,09,033,34,14,07,336,26,20,06,063,35*77
$GPGSV,4,4,13,32,02,026,*4C
$GPRMC,230014.6,A,4917.5751,N,12312.1105,W,6.17,100.14,210614,018.2,E*7C
$IIMWV,131,R,06.9,N,A*1F
$HCHDG,81.9,0.0,E,,*19
$IIMWV,155,T,11.1,N,A*15
$YXXDR,A,5.0,D,PTCH,A,-0.8,D,ROLL*7D
$HCHDG,81.8,0.0,E,,*18
$YXXDR,A,5.0,D,PTCH,A,-0.7,D,ROLL*72
$GPRMC,230014.8,A,4917.5750,N,12312.1100,W,6.16,98.78,210614,018.2,E*4D
$HCHDG,81.6,0.0,E,,*16
$IIVHW,,,,,05.5,N,,*19
$YXXDR,A,5.1,D,PTCH,A,-0.6,D,ROLL*72
$IIVLW,06850,N,036.8,N*55
$HCHDG,81.6,0.0,E,,*16
$IIVWR,131,R,06.9,N,,,,*6D
$YXXDR,A,5.2,D,PTCH,A,-0.6,D,ROLL*71
$GPGGA,230015.000,4917.5750,N,12312.1096,W,2,11,0.71,-5.1,M,-16.8,M,0000,0000*74
$GPGSA,A,3,20,17,02,06,24,01,12,15,04,14,28,,1.35,0.71,1.15*0D
$GPRMC,230015.0,A,4917.5750,N,12312.1096,W,6.15,99.12,210614,018.2,E*44
$HCHDG,81.5,0.0,E,,*15
$YXXDR,A,5.1,D,PTCH,A,-0.7,D,ROLL*73
$TIROT,-11.9,A*2F
$HCHDG,81.3,0.0,E,,*13
$YXXDR,A,5.1,D,PTCH,A,-0.9,D,ROLL*7D
$GPRMC,230015.2,A,4917.5750,N,12312.1091,W,6.16,98.25,210614,018.2,E*47
$HCHDG,81.3,0.0,E,,*13
$YXXDR,A,5.2,D,PTCH,A,-2.5,D,ROLL*70
$HCHDG,81.0,0.0,E,,*10
$YXXDR,A,5.2,D,PTCH,A,-2.5,D,ROLL*70
$GPRMC,230015.4,A,4917.5749,N,12312.1087,W,6.18,98.73,210614,018.2,E*43
$HCHDG,80.9,0.0,E,,*18
$YXXDR,A,5.6,D,PTCH,A,-2.5,D,ROLL*74
$HCHDG,80.7,0.0,E,,*16
$IIMTW,+14.5,C*38
$YXXDR,A,5.6,D,PTCH,A,-2.2,D,ROLL*73
$GPGSV,4,1,13,17,59,060,34,24,56,283,34,04,42,140,38,06,36,153,41*73
$GPGSV,4,2,13,48,32,192,28,12,26,288,28,28,22,097,33,02,14,179,34*74
$GPGSV,4,3,13,15,10,235,29,01,09,033,35,14,07,336,22,20,06,063,36*78
$GPGSV,4,4,13,32,02,026,*4C
$GPRMC,230015.6,A,4917.5749,N,12312.1082,W,6.18,98.54,210614,018.2,E*41
$IIMWV,127,R,07.1,N,A*11
$HCHDG,80.2,0.0,E,,*13
$YXXDR,A,5.6,D,PTCH,A,-2.3,D,ROLL*72
$IIMWV,153,T,11.2,N,A*10
$HCHDG,80.2,0.0,E,,*13
$YXXDR,A,5.5,D,PTCH,A,-2.2,D,ROLL*70
$GPRMC,230015.8,A,4917.5748,N,12312.1077,W,6.19,98.55,210614,018.2,E*44
$HCHDG,80.0,0.0,E,,*11
$IIVHW,,,,,05.7,N,,*1B
$YXXDR,A,5.4,D,PTCH,A,-2.4,D,ROLL*77
$IIVLW,06850,N,036.8,N*55
$HCHDG,79.8,0.0,E,,*1F
$YXXDR,A,5.4,D,PTCH,A,-2.4,D,ROLL*77
$IIVWR,127,R,07.1,N,,,,*63
$GPGGA,230016.000,4917.5747,N,12312.1073,W,2,11,0.71,-5.0,M,-16.8,M,0000,0000*7B
$GPGSA,A,3,20,17,02,06,24,01,12,15,04,14,28,,1.35,0.71,1.15*0D
$GPRMC,230016.0,A,4917.5747,N,12312.1073,W,6.20,97.79,210614,018.2,E*4F
$HCHDG,79.9,0.0,E,,*1E
$YXXDR,A,5.3,D,PTCH,A,-2.4,D,ROLL*70
$TIROT,-92.4,A*29
$HCHDG,79.5,0.0,E,,*12
$YXXDR,A,5.4,D,PTCH,A,-1.3,D,ROLL*73
$GPRMC,230016.2,A,4917.5747,N,12312.1068,W,6.39,97.78,210614,018.2,E*4E
$HCHDG,79.5,0.0,E,,*12
$YXXDR,A,5.4,D,PTCH,A,-0.8,D,ROLL*79
$HCHDG,79.5,0.0,E,,*12
$YXXDR,A,5.5,D,PTCH,A,-0.1,D,ROLL*71
$GPRMC,230016.4,A,4917.5746,N,12312.1063,W,6.36,97.28,210614,018.2,E*48
$HCHDG,79.5,0.0,E,,*12
$YXXDR,A,5.4,D,PTCH,A,-0.3,D,ROLL*72
$HCHDG,79.4,0.0,E,,*13
$IIMTW,+14.5,C*38
$YXXDR,A,5.4,D,PTCH,A,-0.5,D,ROLL*74
$IIMWV,126,R,07.2,N,A*13
$GPGSV,4,1,13,17,59,060,35,24,56,283,33,04,42,140,33,06,36,153,39*71
$GPGSV,4,2,13,48,32,192,28,12,26,288,29,28,22,097,29,02,14,179,34*7E
$GPGSV,4,3,13,15,10,235,28,01,09,033,31,14,07,336,25,20,06,063,38*74
$GPGSV,4,4,13,32,02,026,*4C
$GPRMC,230016.6,A,4917.5746,N,12312.1058,W,6.36,97.90,210614,018.2,E*41
$IIMWV,150,T,11.3,N,A*12
$HCHDG,79.4,0.0,E,,*13
$YXXDR,A,5.1,D,PTCH,A,-1.8,D,ROLL*7D
$HCHDG,79.2,0.0,E,,*15
$YXXDR,A,5.0,D,PTCH,A,-2.0,D,ROLL*77
$GPRMC,230016.8,A,4917.5745,N,12312.1053,W,6.36,97.62,210614,018.2,E*4A
$HCHDG,79.1,0.0,E,,*16
$IIVHW,,,,,05.8,N,,*14
$YXXDR,A,5.0,D,PTCH,A,-2.4,D,ROLL*73
$IIVLW,06850,N,036.8,N*55
$HCHDG,78.9,0.0,E,,*1F
$YXXDR,A,5.0,D,PTCH,A,-2.8,D,ROLL*7F
$IIVWR,126,R,07.2,N,,,,*61
$GPGGA,230017.000,4917.5744,N,12312.1048,W,2,11,0.71,-5.1,M,-16.8,M,0000,0000*70
$GPGSA,A,3,20,17,02,06,24,01,12,15,04,14,28,,1.35,0.71,1.15*0D
$GPRMC,230017.0,A,4917.5744,N,12312.1048,W,6.34,97.32,210614,018.2,E*4F
$HCHDG,78.8,0.0,E,,*1E
$YXXDR,A,4.9,D,PTCH,A,-3.0,D,ROLL*7E
$TIROT,-95.8,A*22
$HCHDG,78.7,0.0,E,,*11
$YXXDR,A,5.0,D,PTCH,A,-3.2,D,ROLL*74
$GPRMC,230017.2,A,4917.5744,N,12312.1043,W,6.33,97.56,210614,018.2,E*43
$HCHDG,78.4,0.0,E,,*12
$YXXDR,A,5.0,D,PTCH,A,-3.2,D,ROLL*74
$HCHDG,78.1,0.0,E,,*17
$YXXDR,A,4.9,D,PTCH,A,-3.0,D,ROLL*7E
$GPRMC,230017.4,A,4917.5743,N,12312.1039,W,6.33,97.95,210614,018.2,E*40
$HCHDG,78.0,0.0,E,,*16
$YXXDR,A,5.0,D,PTCH,A,-2.8,D,ROLL*7F
$HCHDG,77.8,0.0,E,,*11
$IIMTW,+14.5,C*38
$YXXDR,A,4.9,D,PTCH,A,-2.7,D,ROLL*78
$GPGSV,4,1,13,17,59,060,37,24,56,283,36,04,42,140,32,06,36,153,34*7A
$GPGSV,4,2,13,48,32,192,27,12,26,288,33,28,22,097,35,02,14,179,38*7B
$GPGSV,4,3,13,15,10,235,37,01,09,033,27,14,07,336,29,20,06,063,37*7E
$GPGSV,4,4,13,32,02,026,*4C
$GPRMC,230017.6,A,4917.5742,N,12312.1035,W,6.31,98.12,210614,018.2,E*4D
$IIMWV,128,R,07.4,N,A*1B
$HCHDG,77.5,0.0,E,,*1C
$YXXDR,A,5.0,D,PTCH,A,-2.6,D,ROLL*71
$IIMWV,150,T,11.5,N,A*14
$HCHDG,77.3,0.0,E,,*1A
$YXXDR,A,4.9,D,PTCH,A,-2.5,D,ROLL*7A
$GPRMC,230017.8,A,4917.5741,N,12312.1031,W,6.32,98.26,210614,018.2,E*40
$HCHDG,77.0,0.0,E,,*19
$IIVHW,,,,,06.0,N,,*1F
$YXXDR,A,5.0,D,PTCH,A,-2.3,D,ROLL*74
$IIVLW,06850,N,036.8,N*55
$HCHDG,76.5,0.0,E,,*1D
$YXXDR,A,5.1,D,PTCH,A,-2.1,D,ROLL*77
$IIVWR,128,R,07.4,N,,,,*69
$GPGGA,230018.000,4917.5741,N,12312.1027,W,2,11,0.71,-5.2,M,-16.8,M,0000,0000*70
$GPGSA,A,3,20,17,02,06,24,01,12,15,04,14,28,,1.35,0.71,1.15*0D
$GPRMC,230018.0,A,4917.5741,N,12312.1027,W,6.35,98.06,210614,018.2,E*45
$HCHDG,76.3,0.0,E,,*1B
$YXXDR,A,5.1,D,PTCH,A,-1.8,D,ROLL*7D
$TIROT,-188.8,A*1F
$HCHDG,75.9,0.0,E,,*12
$YXXDR,A,5.1,D,PTCH,A,-1.5,D,ROLL*70
$GPRMC,230018.2,A,4917.5740,N,12312.1023,W,6.39,97.92,210614,018.2,E*4C
$HCHDG,75.7,0.0,E,,*1C
$YXXDR,A,5.2,D,PTCH,A,-1.0,D,ROLL*76
$HCHDG,75.7,0.0,E,,*1C
$YXXDR,A,5.1,D,PTCH,A,-0.4,D,ROLL*70
$GPRMC,230018.4,A,4917.5740,N,12312.1018,W,6.56,97.08,210614,018.2,E*48
$HCHDG,75.5,0.0,E,,*1E
$YXXDR,A,5.0,D,PTCH,A,-0.1,D,ROLL*74
$HCHDG,75.2,0.0,E,,*19
$IIMTW,+14.5,C*38
$YXXDR,A,5.0,D,PTCH,A,-0.1,D,ROLL*74
$GPGSV,4,1,13,17,59,060,38,24,56,283,37,04,42,140,35,06,36,153,40*70
$GPGSV,4,2,13,48,32,192,36,12,26,288,34,28,22,097,35,02,14,179,40*73
$GPGSV,4,3,13,15,10,235,37,01,09,033,33,14,07,336,28,20,06,062,24*79
$GPGSV,4,4,13,32,02,026,*4C
$GPRMC,230018.6,A,4917.5740,N,12312.1013,W,6.60,96.50,210614,018.2,E*48
$IIMWV,128,R,07.4,N,A*1B
$HCHDG,75.1,0.0,E,,*1A
$YXXDR,A,5.0,D,PTCH,A,0.0,D,ROLL*58
$IIMWV,151,T,11.9,N,A*19
$HCHDG,74.8,0.0,E,,*12
$YXXDR,A,4.9,D,PTCH,A,0.1,D,ROLL*51
$GPRMC,230018.8,A,4917.5740,N,12312.1008,W,6.68,95.65,210614,018.2,E*41
$HCHDG,74.7,0.0,E,,*1D
$IIVHW,,,,,06.0,N,,*1F
$YXXDR,A,4.9,D,PTCH,A,0.1,D,ROLL*51
$IIVLW,06850,N,036.8,N*55
$HCHDG,74.4,0.0,E,,*1E
$YXXDR,A,4.9,D,PTCH,A,0.1,D,ROLL*51
$IIVWR,128,R,07.4,N,,,,*69
$GPGGA,230019.000,4917.5739,N,12312.100  ,W,2,10,0.75,-5.1,M,-16.8,M,0000,0000*7F
$GPGSA,A,3,17,02,06,2614,,,D*45
$HCHDG,73.8,0.0,E,,*15
$YXXDR,A,4.8,D,PTCH,A,0.1,D,ROLL*50
$TIROT,-194.4,A*1E
$HCHDG,73.4,0.0,E,,*19
$YXXDR,A,4.9,D,PTCH,A,0.1,D,ROLL*51
$GPRMC,230019.2,A,4917.5739,N,12312.0997,W,6.89,94.00,210614,018.2,E*47
$HCHDG,73.2,0.0,E,,*1F
$YXXDR,A,5.0,D,PTCH,A,0.3,D,ROLL*5B
$HCHDG,72.6,0.0,E,,*1A
$YXXDR,A,5.0,D,PTCH,A,0.7,D,ROLL*5F
$GPRMC,230019.4,A,4917.5738,N,12312.0991,W,6.93,93.32,210614,018.2,E*4B
$HCHDG,72.4,0.0,E,,*18
$YXXDR,A,5.1,D,PTCH,A,1.1,D,ROLL*59
$HCHDG,72.1,0.0,E,,*1D
$YXXDR,A,5.3,D,PTCH,A,1.5,D,ROLL*5F
$IIMTW,+14.5,C*38
$IIMWV,128,R,07.8,N,A*17
$GPGSV,4,1,13,17,59,060,39,24,56,283,38,04,42,140,39,06,36,153,40*72
$GPGSV,4,2,13,48,32,192,32,12,26,288,27,28,22,097,29,02,14,179,42*7A
$GPGSV,4,3,13,15,10,235,37,01,09,033,37,14,07,336,28,20,06,062,22*7B
$GPGSV,4,4,13,32,02,026,*4C
$GPRMC,230019.6,A,4917.5738,N,12312.0985,W,6.94,92.75,210614,018.2,E*49
$IIMWV,151,T,11.9,N,A*19
$HCHDG,71.9,0.0,E,,*16
$YXXDR,A,5.2,D,PTCH,A,2.1,D,ROLL*59
$HCHDG,71.7,0.0,E,,*18
$YXXDR,A,5.2,D,PTCH,A,2.6,D,ROLL*5E
$GPRMC,230019.8,A,4917.5738,N,12312.0978,W,6.94,91.62,210614,018.2,E*40
$HCHDG,71.5,0.0,E,,*1A
$IIVHW,,,,,06.0,N,,*1F
$YXXDR,A,5.2,D,PTCH,A,3.1,D,ROLL*58
$IIVLW,06850,N,036.8,N*55
$HCHDG,71.5,0.0,E,,*1A
$YXXDR,A,5.2,D,PTCH,A,3.6,D,ROLL*5F
$IIVWR,128,R,07.8,N,,,,*65
$GPRMC,230020.0,A,4917.5737,N,12312.0972,W,6.97,89.99,210614,018.2,E*49
$HCHDG,71.6,0.0,E,,*19
$YXXDR,A,5.1,D,PTCH,A,3.9,D,ROLL*53
$TIROT,-55.0,A*26
$HCHDG,71.5,0.0,E,,*1A
$YXXDR,A,4.9,D,PTCH,A,4.4,D,ROLL*50
$GPRMC,230020.2,A,4917.5737,N,12312.0965,W,7.02,88.53,210614,018.2,E*47
$HCHDG,71.5,0.0,E,,*1A
$YXXDR,A,4.8,D,PTCH,A,4.2,D,ROLL*57
$HCHDG,71.3,0.0,E,,*1C
$YXXDR,A,5.0,D,PTCH,A,3.9,D,ROLL*52
$GPRMC,230020.4,A,4917.5737,N,12312.0959,W,7.20,88.47,210614,018.2,E*4B
$HCHDG,71.2,0.0,E,,*1D
$YXXDR,A,5.0,D,PTCH,A,3.8,D,ROLL*53
$HCHDG,71.2,0.0,E,,*1D
$IIMTW,+14.5,C*38
$YXXDR,A,5.0,D,PTCH,A,3.8,D,ROLL*53
$GPGSV,4,1,13,17,59,060,33,24,56,283,38,04,42,140,42,06,36,153,41*75
$GPGSV,4,2,13,48,32,192,35,12,26,288,35,28,22,097,31,02,14,179,39*7B
$GPGSV,4,3,13,15,10,235,37,01,09,033,36,14,07,336,22,20,06,062,27*75
$GPGSV,4,4,13,32,02,026,*4C
$GPRMC,230020.6,A,4917.5737,N,12312.0951,W,7.17,88.66,210614,018.2,E*46
$IIMWV,129,R,07.7,N,A*19
$HCHDG,71.0,0.0,E,,*1F
$YXXDR,A,4.9,D,PTCH,A,3.6,D,ROLL*55
$IIMWV,150,T,12.4,N,A*16
$HCHDG,70.8,0.0,E,,*16
$YXXDR,A,4.8,D,PTCH,A,3.5,D,ROLL*57
$GPRMC,230020.8,A,4917.5736,N,12312.0945,W,7.13,87.85,210614,018.2,E*4A
$HCHDG,70.9,0.0,E,,*17
$IIVHW,,,,,06.1,N,,*1E
$YXXDR,A,5.0,D,PTCH,A,3.4,D,ROLL*5F
$IIVLW,06850,N,036.8,N*55
$HCHDG,70.5,0.0,E,,*1B
$IIVWR,129,R,07.7,N,,,,*6B
$YXXDR,A,5.0,D,PTCH,A,3.4,D,ROLL*5F
$GPGGA,230021.000,4917.5736,N,12312.0938,W,2,11,0.71,-5.0,M,-16.8,M,0000,0000*7E
$GPGSA,A,3,20,17,02,06,24,01,12,15,04,14,28,,1.35,0.71,1.15*0D
$GPRMC,230021.0,A,4917.5736,N,12312.0938,W,7.16,87.03,210614,018.2,E*42
$HCHDG,70.5,0.0,E,,*1B
$YXXDR,A,5.1,D,PTCH,A,3.4,D,ROLL*5E
$TIROT,-37.3,A*21
$HCHDG,70.4,0.0,E,,*1A
$YXXDR,A,5.1,D,PTCH,A,3.4,D,ROLL*5E
$GPRMC,230021.2,A,4917.5736,N,12312.0931,W,7.20,87.26,210614,018.2,E*4B
$HCHDG,70.5,0.0,E,,*1B
$YXXDR,A,5.0,D,PTCH,A,3.6,D,ROLL*5D
$HCHDG,70.5,0.0,E,,*1B
$YXXDR,A,5.1,D,PTCH,A,3.4,D,ROLL*5E
$GPRMC,230021.4,A,4917.5736,N,12312.0924,W,7.17,86.55,210614,018.2,E*48
$HCHDG,70.6,0.0,E,,*18
$YXXDR,A,4.9,D,PTCH,A,3.6,D,ROLL*55
$HCHDG,70.6,0.0,E,,*18
$IIMTW,+14.5,C*38
$YXXDR,A,4.8,D,PTCH,A,3.5,D,ROLL*57
$GPGSV,4,1,13,17,59,060,38,24,56,283,41,04,42,140,40,06,36,153,40*73
$GPGSV,4,2,13,48,32,192,37,12,26,288,35,28,22,097,29,02,14,179,40*7E
$GPGSV,4,3,13,15,10,235,37,01,09,033,36,14,07,336,22,20,06,062,27*75
$GPGSV,4,4,13,32,02,026,*4C
$GPRMC,230021.6,A,4917.5736,N,12312.0918,W,7.17,87.18,210614,018.2,E*4D
$IIMWV,133,R,07.7,N,A*12
$HCHDG,70.8,0.0,E,,*16
$IIMWV,151,T,12.5,N,A*16
$YXXDR,A,4.8,D,PTCH,A,3.4,D,ROLL*56
$HCHDG,70.7,0.0,E,,*19
$YXXDR,A,4.7,D,PTCH,A,3.3,D,ROLL*5E
$GPRMC,230021.8,A,4917.5736,N,12312.0911,W,7.19,87.30,210614,018.2,E*4E
$IIVHW,,,,,06.4,N,,*1B
$HCHDG,70.7,0.0,E,,*19
$YXXDR,A,4.7,D,PTCH,A,3.1,D,ROLL*5C
$IIVLW,06850,N,036.8,N*55
$HCHDG,70.7,0.0,E,,*19
$IIVWR,133,R,07.7,N,,,,*60
$YXXDR,A,4.8,D,PTCH,A,3.0,D,ROLL*52
$GPGGA,230022.000,4917.5736,N,12312.0904,W,2,11,0.71,-5.1,M,-16.8,M,0000,0000*73
$GPGSA,A,3,20,17,02,06,24,01,12,15,04,14,28,,1.35,0.71,1.15*0D
$GPRMC,230022.0,A,4917.5736,N,12312.0904,W,7.42,88.11,210614,018.2,E*43
$HCHDG,70.6,0.0,E,,*18
$YXXDR,A,4.8,D,PTCH,A,2.9,D,ROLL*5A
$TIROT,-15.5,A*27
$HCHDG,70.3,0.0,E,,*1D
$YXXDR,A,5.0,D,PTCH,A,2.6,D,ROLL*5C
$GPRMC,230022.2,A,4917.5736,N,12312.0897,W,7.25,86.91,210614,018.2,E*4D
$HCHDG,70.2,0.0,E,,*1C
$YXXDR,A,5.0,D,PTCH,A,2.3,D,ROLL*59
$HCHDG,70.2,0.0,E,,*1C
$YXXDR,A,5.0,D,PTCH,A,2.1,D,ROLL*5B
$GPRMC,230022.4,A,4917.5736,N,12312.0891,W,7.25,87.06,210614,018.2,E*42
$HCHDG,70.2,0.0,E,,*1C
$YXXDR,A,5.0,D,PTCH,A,2.0,D,ROLL*5A
$HCHDG,70.1,0.0,E,,*1F
$IIMTW,+14.5,C*38
$YXXDR,A,5.0,D,PTCH,A,1.9,D,ROLL*50
$GPGSV,4,1,13,17,59,060,42,24,56,283,39,04,42,140,37,06,36,153,38*7E
$GPGSV,4,2,13,48,32,192,36,12,26,288,33,28,22,097,28,02,14,179,41*79
$GPGSV,4,3,13,15,10,235,38,01,09,033,37,14,07,336,28,20,06,062,29*7F
$GPGSV,4,4,13,32,02,026,*4C
$GPRMC,230022.6,A,4917.5736,N,12312.0884,W,7.23,86.50,210614,018.2,E*40
$IIMWV,135,R,07.4,N,A*17
$HCHDG,70.2,0.0,E,,*1C
$YXXDR,A,5.0,D,PTCH,A,1.8,D,ROLL*51
$IIMWV,154,T,12.8,N,A*1E
$HCHDG,70.5,0.0,E,,*1B
$YXXDR,A,4.8,D,PTCH,A,1.7,D,ROLL*57
$GPRMC,230022.8,A,4917.5736,N,12312.0877,W,7.18,86.20,210614,018.2,E*4D
$HCHDG,70.4,0.0,E,,*1A
$IIVHW,,,,,06.4,N,,*1B
$YXXDR,A,4.6,D,PTCH,A,1.5,D,ROLL*5B
$IIVLW,06850,N,036.8,N*55
$HCHDG,70.5,0.0,E,,*1B
$YXXDR,A,4.7,D,PTCH,A,1.4,D,ROLL*5B
$IIVWR,135,R,07.4,N,,,,*65
$GPGGA,230023.000,4917.5736,N,12312.0871,W,2,11,0.71,-5.0,M,-16.8,M,0000,0000*70
$GPGSA,A,3,20,17,02,06,24,01,12,15,04,14,28,,1.35,0.71,1.15*0D
$GPRMC,230023.0,A,4917.5736,N,12312.0871,W,7.11,88.16,210614,018.2,E*40
$HCHDG,70.5,0.0,E,,*1B
$YXXDR,A,4.5,D,PTCH,A,1.1,D,ROLL*5C
$TIROT,-28.9,A*25
$HCHDG,70.5,0.0,E,,*1B
$YXXDR,A,4.5,D,PTCH,A,0.8,D,ROLL*54
$GPRMC,230023.2,A,4917.5736,N,12312.0865,W,7.09,88.52,210614,018.2,E*4E
$HCHDG,70.3,0.0,E,,*1D
$YXXDR,A,4.7,D,PTCH,A,-0.4,D,ROLL*77
$HCHDG,70.3,0.0,E,,*1D
$YXXDR,A,4.6,D,PTCH,A,-0.4,D,ROLL*76
$GPRMC,230023.4,A,4917.5736,N,12312.0859,W,7.07,88.28,210614,018.2,E*44
$HCHDG,70.0,0.0,E,,*1E
$YXXDR,A,4.5,D,PTCH,A,-0.2,D,ROLL*73
$HCHDG,69.9,0.0,E,,*1F
$IIMTW,+14.5,C*38
$YXXDR,A,4.5,D,PTCH,A,0.0,D,ROLL*5C
$IIMWV,138,R,07.1,N,A*1F
$GPGSV,4,1,13,17,59,060,42,24,56,283,40,04,42,140,37,06,36,153,40*7F
$GPGSV,4,2,13,48,32,192,33,12,26,288,33,28,22,097,32,02,14,179,43*75
$GPGSV,4,3,13,15,10,235,38,01,09,033,34,14,07,336,24,20,06,062,31*79
$GPGSV,4,4,13,32,02,026,*4C
$GPRMC,230023.6,A,4917.5736,N,12312.0852,W,7.06,86.55,210614,018.2,E*48
$IIMWV,156,T,12.7,N,A*13
$HCHDG,69.9,0.0,E,,*1F
$YXXDR,A,4.4,D,PTCH,A,0.3,D,ROLL*5E
$HCHDG,70.0,0.0,E,,*1E
$YXXDR,A,4.6,D,PTCH,A,1.0,D,ROLL*5E
$GPRMC,230023.8,A,4917.5736,N,12312.0844,W,7.05,85.49,210614,018.2,E*4C
$HCHDG,70.2,0.0,E,,*1C
$YXXDR,A,4.7,D,PTCH,A,1.6,D,ROLL*59
$IIVHW,,,,,06.5,N,,*1A
$IIVLW,06850,N,036.8,N*55
$HCHDG,70.4,0.0,E,,*1A
$YXXDR,A,4.7,D,PTCH,A,2.2,D,ROLL*5E
$IIVWR,138,R,07.1,N,,,,*6D
$GPGGA,230024.000,4917.5736,N,12312.0837,W,2,10,0.77,-5.1,M,-16.8,M,0000,0000*73
$GPGSA,A,3,20,17,02,06,24,01,12,15,04,28,,,1.43,0.77,1.20*09
$GPRMC,230024.0,A,4917.5736,N,12312.0837,W,7.02,86.11,210614,018.2,E*4E
$HCHDG,70.5,0.0,E,,*1B
$YXXDR,A,4.8,D,PTCH,A,2.6,D,ROLL*55
$TIROT,16.7,A*0B
$HCHDG,70.5,0.0,E,,*1B
$YXXDR,A,4.6,D,PTCH,A,2.5,D,ROLL*58
$GPRMC,230024.2,A,4917.5736,N,12312.0831,W,7.00,86.93,210614,018.2,E*42
$HCHDG,70.5,0.0,E,,*1B
$YXXDR,A,4.7,D,PTCH,A,2.4,D,ROLL*58
$HCHDG,70.4,0.0,E,,*1A
$YXXDR,A,4.4,D,PTCH,A,2.0,D,ROLL*5F
$GPRMC,230024.4,A,4917.5736,N,12312.0824,W,7.00,88.61,210614,018.2,E*43
$HCHDG,70.0,0.0,E,,*1E
$YXXDR,A,4.5,D,PTCH,A,1.5,D,ROLL*58
$HCHDG,69.8,0.0,E,,*1E
$IIMTW,+14.5,C*38
$YXXDR,A,4.4,D,PTCH,A,1.2,D,ROLL*5E
$GPGSV,4,1,13,17,59,060,41,24,56,283,41,04,42,140,34,06,36,153,41*7F
$GPGSV,4,2,13,48,32,192,32,12,26,288,33,28,22,097,35,02,14,179,42*72
$GPGSV,4,3,13,15,10,235,38,01,09,033,35,14,07,336,27,20,06,062,34*7E
$GPGSV,4,4,13,32,02,026,*4C
$GPRMC,230024.6,A,4917.5736,N,12312.0818,W,6.99,87.17,210614,018.2,E*41
$IIMWV,137,R,06.9,N,A*19
$HCHDG,69.6,0.0,E,,*10
$YXXDR,A,4.5,D,PTCH,A,0.9,D,ROLL*55
$IIMWV,158,T,12.6,N,A*1C
$HCHDG,69.6,0.0,E,,*10
$YXXDR,A,4.5,D,PTCH,A,0.8,D,ROLL*54
$GPRMC,230024.8,A,4917.5735,N,12312.0812,W,7.02,86.59,210614,018.2,E*4E
$HCHDG,69.4,0.0,E,,*12
$IIVHW,,,,,06.5,N,,*1A
$YXXDR,A,4.7,D,PTCH,A,1.1,D,ROLL*5E
$IIVLW,06850,N,036.8,N*55
$HCHDG,69.3,0.0,E,,*15
$YXXDR,A,4.9,D,PTCH,A,1.2,D,ROLL*53
$IIVWR,137,R,06.9,N,,,,*6B
$GPGGA,230025.000,4917.5736,N,12312.0806,W,2,11,0.71,-5.0,M,-16.8,M,0000,0000*76
$GPGSA,A,3,20,17,02,06,24,01,12,15,04,14,28,,1.35,0.71,1.15*0D
$GPRMC,230025.0,A,4917.5736,N,12312.0806,W,7.21,85.52,210614,018.2,E*48
$HCHDG,69.3,0.0,E,,*15
$YXXDR,A,5.0,D,PTCH,A,1.8,D,ROLL*51
$TIROT,-30.8,A*2D
$HCHDG,69.2,0.0,E,,*14
$YXXDR,A,5.1,D,PTCH,A,2.2,D,ROLL*59
$GPRMC,230025.2,A,4917.5736,N,12312.0800,W,7.14,85.04,210614,018.2,E*49
$HCHDG,69.5,0.0,E,,*13
$YXXDR,A,5.3,D,PTCH,A,2.7,D,ROLL*5E
$HCHDG,69.5,0.0,E,,*13
$YXXDR,A,5.4,D,PTCH,A,3.0,D,ROLL*5F
$GPRMC,230025.4,A,4917.5737,N,12312.0793,W,6.93,86.72,210614,018.2,E*47
$HCHDG,69.6,0.0,E,,*10
$YXXDR,A,5.1,D,PTCH,A,3.0,D,ROLL*5A
$HCHDG,69.7,0.0,E,,*11
$IIMTW,+14.5,C*38
$YXXDR,A,4.9,D,PTCH,A,2.6,D,ROLL*54
$GPGSV,4,1,13,17,59,060,38,24,56,283,40,04,42,14  ,42,06,36,153,39*7E
$GPGSV,4,2,13,48,32,192,37,12,26,288,37,28PGSV,4,4,13,32,02,026,*4C
$GPRMC,230025.6,A,4917.5737,N,12312.0787,W,7.00,87.51,210614,018.2,E*4B
$IIMWV,140,R,06.6,N,A*16
$HCHDG,69.6,0.0,E,,*10
$YXXDR,A,4.7,D,PTCH,A,2.1,D,ROLL*5D
$IIMWV,158,T,12.3,N,A*19
$HCHDG,69.7,0.0,E,,*11
$YXXDR,A,4.8,D,PTCH,A,1.8,D,ROLL*58
$GPRMC,230025.8,A,4917.5738,N,12312.0782,W,7.03,87.77,210614,018.2,E*48
$HCHDG,69.7,0.0,E,,*11
$IIVHW,,,,,06.4,N,,*1B
$YXXDR,A,4.6,D,PTCH,A,1.8,D,ROLL*56
$IIVLW,06850,N,036.8,N*55
$HCHDG,69.7,0.0,E,,*11
$IIVWR,140,R,06.6,N,,,,*64
$YXXDR,A,4.6,D,PTCH,A,1.7,D,ROLL*59
$GPGGA,230026.000,4917.5738,N,12312.0776,W,2,11,0.71,-5.1,M,-16.8,M,0000,0000*72
$GPGSA,A,3,20,17,02,06,24,01,12,15,04,14,28,,1.35,0.71,1.15*0D
$GPRMC,230026.0,A,4917.5738,N,12312.0776,W,6.97,84.60,210614,018.2,E*41
$HCHDG,69.9,0.0,E,,*1F
$YXXDR,A,4.4,D,PTCH,A,1.7,D,ROLL*5B
$TIROT,58.1,A*07
$HCHDG,69.9,0.0,E,,*1F
$YXXDR,A,5.0,D,PTCH,A,2.7,D,ROLL*5D
$GPRMC,230026.2,A,4917.5739,N,12312.0770,W,6.96,84.00,210614,018.2,E*43
$HCHDG,70.3,0.0,E,,*1D
$YXXDR,A,5.0,D,PTCH,A,2.8,D,ROLL*52
$HCHDG,70.9,0.0,E,,*17
$YXXDR,A,5.1,D,PTCH,A,2.9,D,ROLL*52
$GPRMC,230026.4,A,4917.5740,N,12312.0764,W,6.77,85.03,210614,018.2,E*43
$HCHDG,71.0,0.0,E,,*1F
$YXXDR,A,4.8,D,PTCH,A,2.7,D,ROLL*54
$HCHDG,71.2,0.0,E,,*1D
$IIMTW,+14.5,C*38
$YXXDR,A,4.6,D,PTCH,A,2.5,D,ROLL*58
$GPGSV,4,1,13,17,59,060,39,24,56,283,39,04,42,140,42,06,36,153,40*7F
$GPGSV,4,2,13,48,32,192,29,12,26,288,32,28,22,097,35,02,14,179,40*7B
$GPGSV,4,3,13,15,10,235,35,01,09,033,33,14,07,336,29,20,06,062,32*7D
$GPGSV,4,4,13,32,02,026,*4C
$GPRMC,230026.6,A,4917.5740,N,12312.0758,W,6.95,84.93,210614,018.2,E*4A
$IIMWV,140,R,06.6,N,A*16
$HCHDG,71.3,0.0,E,,*1C
$IIMWV,160,T,12.2,N,A*13
$YXXDR,A,4.4,D,PTCH,A,2.0,D,ROLL*5F
$HCHDG,71.4,0.0,E,,*1B
$YXXDR,A,4.3,D,PTCH,A,1.2,D,ROLL*59
$GPRMC,230026.8,A,4917.5740,N,12312.0752,W,6.95,88.10,210614,018.2,E*49
$HCHDG,71.4,0.0,E,,*1B
$IIVHW,,,,,06.4,N,,*1B
$YXXDR,A,4.6,D,PTCH,A,0.7,D,ROLL*58
$IIVLW,06850,N,036.8,N*55
$HCHDG,70.9,0.0,E,,*17
$YXXDR,A,4.4,D,PTCH,A,0.3,D,ROLL*5E
$IIVWR,140,R,06.6,N,,,,*64
$GPGGA,230027.000,4917.5740,N,12312.0746,W,2,11,0.71,-5.2,M,-16.8,M,0000,0000*7C
$GPGSA,A,3,20,17,02,06,24,01,12,15,04,14,28,,1.35,0.71,1.15*0D
$GPRMC,230027.0,A,4917.5740,N,12312.0746,W,6.96,88.15,210614,018.2,E*43
$HCHDG,70.7,0.0,E,,*19
$YXXDR,A,4.3,D,PTCH,A,0.0,D,ROLL*5A
$TIROT,-6.1,A*11
$HCHDG,70.5,0.0,E,,*1B
$YXXDR,A,4.5,D,PTCH,A,-0.2,D,ROLL*73
$GPRMC,230027.2,A,4917.5741,N,12312.0740,W,6.91,86.78,210614,018.2,E*44
$HCHDG,70.4,0.0,E,,*1A
$YXXDR,A,5.5,D,PTCH,A,0.0,D,ROLL*5D
$HCHDG,70.3,0.0,E,,*1D
$YXXDR,A,5.5,D,PTCH,A,0.3,D,ROLL*5E
$GPRMC,230027.4,A,4917.5741,N,12312.0734,W,6.88,84.73,210614,018.2,E*40
$HCHDG,70.5,0.0,E,,*1B
$YXXDR,A,5.3,D,PTCH,A,0.7,D,ROLL*5C
$HCHDG,70.8,0.0,E,,*16
$IIMTW,+14.5,C*38
$YXXDR,A,5.2,D,PTCH,A,0.9,D,ROLL*53
$GPGSV,4,1,13,17,59,060,39,24,56,283,34,04,42,140,33,06,36,153,40*74
$GPGSV,4,2,13,48,32,192,29,12,26,288,29,28,22,098,35,02,14,179,42*7C
$GPGSV,4,3,13,15,10,235,38,01,09,033,33,14,07,336,28,20,06,062,33*70
$GPGSV,4,4,13,32,02,026,*4C
$GPRMC,230027.6,A,4917.5742,N,12312.0728,W,6.88,86.63,210614,018.2,E*4F
$IIMWV,143,R,06.3,N,A*10
$HCHDG,70.7,0.0,E,,*19
$IIMWV,160,T,12.1,N,A*10
$YXXDR,A,5.1,D,PTCH,A,1.0,D,ROLL*58
$HCHDG,70.9,0.0,E,,*17
$YXXDR,A,5.0,D,PTCH,A,0.9,D,ROLL*51
$GPRMC,230027.8,A,4917.5742,N,12312.0722,W,6.87,88.31,210614,018.2,E*4D
$HCHDG,70.9,0.0,E,,*17
$IIVHW,,,,,06.3,N,,*1C
$YXXDR,A,4.8,D,PTCH,A,0.6,D,ROLL*57
$IIVLW,06850,N,036.8,N*55
$HCHDG,70.7,0.0,E,,*19
$IIVWR,143,R,06.3,N,,,,*62
$YXXDR,A,4.8,D,PTCH,A,0.3,D,ROLL*52
$GPGGA,230028.000,4917.5743,N,12312.0716,W,2,11,0.71,-5.3,M,-16.8,M,0000,0000*74
$GPGSA,A,3,20,17,02,06,24,01,12,15,04,14,28,,1.35,0.71,1.15*0D
$GPRMC,230028.0,A,4917.5743,N,12312.0716,W,6.89,89.00,210614,018.2,E*41
$HCHDG,70.6,0.0,E,,*18
$YXXDR,A,4.7,D,PTCH,A,0.0,D,ROLL*5E
$TIROT,-6.1,A*11
$HCHDG,70.4,0.0,E,,*1A
$YXXDR,A,4.8,D,PTCH,A,-0.1,D,ROLL*7D
$GPRMC,230028.2,A,4917.5743,N,12312.0710,W,6.91,88.40,210614,018.2,E*49
$HCHDG,70.1,0.0,E,,*1F
$YXXDR,A,4.8,D,PTCH,A,-0.1,D,ROLL*7D
$HCHDG,69.9,0.0,E,,*1F
$YXXDR,A,4.8,D,PTCH,A,-0.1,D,ROLL*7D
$GPRMC,230028.4,A,4917.5743,N,12312.0704,W,7.13,87.44,210614,018.2,E*4A
$HCHDG,69.9,0.0,E,,*1F
$YXXDR,A,4.8,D,PTCH,A,0.0,D,ROLL*51
$HCHDG,69.7,0.0,E,,*11
$IIMTW,+14.5,C*38
$YXXDR,A,5.1,D,PTCH,A,0.4,D,ROLL*5D
$GPGSV,4,1,13,17,59,060,40,24,56,283,37,04,42,140,32,06,36,153,40*78
$GPGSV,4,2,13,48,32,192,31,12,26,288,25,28,22,098,35,02,14,179,41*7A
$GPGSV,4,3,13,15,10,235,38,01,09,033,34,14,07,336,27,20,06,062,31*7A
$GPGSV,4,4,13,32,02,026,*4C
$GPRMC,230028.6,A,4917.5744,N,12312.0698,W,6.86,85.98,210614,018.2,E*45
$IIMWV,143,R,06.3,N,A*10
$HCHDG,69.7,0.0,E,,*11
$YXXDR,A,5.2,D,PTCH,A,0.6,D,ROLL*5C
$IIMWV,162,T,11.8,N,A*18
$HCHDG,69.9,0.0,E,,*1F
$YXXDR,A,5.2,D,PTCH,A,0.9,D,ROLL*53
$GPRMC,230028.8,A,4917.5744,N,12312.0691,W,7.02,87.24,210614,018.2,E*4A
$HCHDG,69.9,0.0,E,,*1F
$IIVHW,,,,,06.3,N,,*1C
$YXXDR,A,5.1,D,PTCH,A,0.9,D,ROLL*50
$IIVLW,06850,N,036.8,N*55
$HCHDG,69.9,0.0,E,,*1F
$YXXDR,A,4.9,D,PTCH,A,0.7,D,ROLL*57
$IIVWR,143,R,06.3,N,,,,*62
$GPGGA,230029.000,4917.5745,N,12312.0685,W,2,11,0.71,-5.5,M,-16.8,M,0000,0000*7E
$GPGSA,A,3,20,17,02,06,24,01,12,15,04,14,28,,1.35,0.71,1.15*0D
$GPRMC,230029.0,A,4917.5745,N,12312.0685,W,6.86,87.77,210614,018.2,E*4C
$HCHDG,69.7,0.0,E,,*11
$YXXDR,A,5.0,D,PTCH,A,0.5,D,ROLL*5D
$TIROT,-22.9,A*2F
$HCHDG,69.5,0.0,E,,*13
$YXXDR,A,4.8,D,PTCH,A,0.5,D,ROLL*54
$GPRMC,230029.2,A,4917.5745,N,12312.0679,W,7.24,88.56,210614,018.2,E*48
$HCHDG,69.2,0.0,E,,*14
$YXXDR,A,4.8,D,PTCH,A,0.4,D,ROLL*55
$HCHDG,69.2,0.0,E,,*14
$YXXDR,A,5.0,D,PTCH,A,0.5,D,ROLL*5D
$GPRMC,230029.4,A,4917.5745,N,12312.0673,W,7.20,88.21,210614,018.2,E*40
$HCHDG,69.0,0.0,E,,*16
$YXXDR,A,4.9,D,PTCH,A,0.7,D,ROLL*57
$HCHDG,69.0,0.0,E,,*16
$IIMTW,+14.5,C*38
$YXXDR,A,5.0,D,PTCH,A,1.2,D,ROLL*5B
$GPGSV,4,1,13,17,59,060,38,24,56,283,39,04,42,140,39,06,36,153,42*70
$GPGSV,4,2,13,48,32,192,35,12,26,288,34,28,22,098,22,02,14,179,41*78
$GPGSV,4,3,13,15,10,235,36,01,09,033,33,14,07,336,27,20,06,062,31*73
$GPGSV,4,4,13,32,02,026,*4C
$GPRMC,230029.6,A,4917.5746,N,12312.0666,W,7.38,88.15,210614,018.2,E*4B
$IIMWV,143,R,06.2,N,A*11
$HCHDG,68.9,0.0,E,,*1E
$YXXDR,A,4.9,D,PTCH,A,1.4,D,ROLL*55
$IIMWV,162,T,11.9,N,A*19
$HCHDG,68.8,0.0,E,,*1F
$YXXDR,A,5.1,D,PTCH,A,1.7,D,ROLL*5F
$GPRMC,230029.8,A,4917.5746,N,12312.0660,W,7.34,87.65,210614,018.2,E*47
$HCHDG,68.8,0.0,E,,*1F
$IIVHW,,,,,06.5,N,,*1A
$YXXDR,A,5.1,D,PTCH,A,2.3,D,ROLL*58
$IIVLW,06850,N,036.8,N*55
$HCHDG,69.4,0.0,E,,*12
$IIVWR,143,R,06.2,N,,,,*63
$YXXDR,A,4.8,D,PTCH,A,2.9,D,ROLL*5A
$GPGGA,230030.000,4917.5746,N,12312.0652,W,2,11,0.71,-5.8,M,-16.8,M,0000,0000*72
$GPGSA,A,3,20,17,02,06,24,01,12,15,04,14,28,,1.35,0.71,1.15*0D
$GPRMC,230030.0,A,4917.5746,N,12312.0652,W,7.33,87.07,210614,018.2,E*45
$HCHDG,69.5,0.0,E,,*13
$YXXDR,A,4.6,D,PTCH,A,3.1,D,ROLL*5D
$TIROT,61.6,A*0A
$HCHDG,69.4,0.0,E,,*12
$YXXDR,A,4.8,D,PTCH,A,2.6,D,ROLL*55
$GPRMC,230030.2,A,4917.5746,N,12312.0645,W,7.34,89.07,210614,018.2,E*48
$HCHDG,69.5,0.0,E,,*13
$YXXDR,A,4.8,D,PTCH,A,2.6,D,ROLL*55
$HCHDG,69.4,0.0,E,,*12
$YXXDR,A,5.1,D,PTCH,A,2.4,D,ROLL*5F
$GPRMC,230030.4,A,4917.5747,N,12312.0639,W,7.30,87.89,210614,018.2,E*48
$HCHDG,69.4,0.0,E,,*12
$YXXDR,A,5.1,D,PTCH,A,2.4,D,ROLL*5F
$HCHDG,69.0,0.0,E,,*16
$IIMTW,+14.5,C*38
$YXXDR,A,5.2,D,PTCH,A,2.3,D,ROLL*5B
$IIMWV,141,R,06.2,N,A*13
$GPGSV,4,1,13,17,59,060,30,24,56,283,42,04,42,140,40,06,36,153,43*7B
$GPGSV,4,2,13,48,32,192,36,12,26,288,32,28,22,098,25,02,14,179,40*7B
$GPGSV,4,3,13,15,10,235,34,01,09,033,30,14,07,336,27,20,06,062,32*71
$GPGSV,4,4,13,32,02,026,*4C
$GPRMC,230030.6,A,4917.5747,N,12312.0633,W,7.57,89.06,210614,018.2,E*48
$IIMWV,162,T,12.0,N,A*13
$HCHDG,69.2,0.0,E,,*14
$YXXDR,A,5.3,D,PTCH,A,2.2,D,ROLL*5B
$HCHDG,69.1,0.0,E,,*17
$YXXDR,A,5.3,D,PTCH,A,2.2,D,ROLL*5B
$GPRMC,230030.8,A,4917.5747,N,12312.0626,W,7.58,88.30,210614,018.2,E*49
$HCHDG,69.2,0.0,E,,*14
$YXXDR,A,5.4,D,PTCH,A,2.2,D,ROLL*5C
$IIVHW,,,,,06.6,N,,*19
$IIVLW,06850,N,036.8,N*55
$HCHDG,69.2,0.0,E,,*14
$YXXDR,A,5.4,D,PTCH,A,2.2,D,ROLL*5C
$IIVWR,141,R,06.2,N,,,,*61
$GPGGA,230031.000,4917.5747,N,12312.0620,W,2,11,0.71,-6.0,M,-16.8,M,0000,0000*7C
$GPGSA,A,3,20,17,02,06,24,01,12,15,04,14,28,,1.35,0.71,1.15*0D
$GPRMC,230031.0,A,4917.5747,N,12312.0620,W,7.73,87.78,210614,018.2,E*4C
$HCHDG,69.1,0.0,E,,*17
$YXXDR,A,5.3,D,PTCH,A,2.2,D,ROLL*5B
$TIROT,-2.9,A*1D
$HCHDG,69.2,0.0,E,,*14
$YXXDR,A,5.2,D,PTCH,A,2.1,D,ROLL*59
$HCHDG,69.1,0.0,E,,*17
$YXXDR,A,5.1,D,PTCH,A,2.2,D,ROLL*59
$HCHDG,69.2,0.0,E,,*14
$YXXDR,A,5.1,D,PTCH,A,2.0,D,ROLL*5B
$HCHDG,69.3,0.0,E,,*15
$YXXDR,A,5.1,D,PTCH,A,2.4,D,ROLL*5F
$HCHDG,69.4,0.0,E,,*12
$YXXDR,A,4.8,D,PTCH,A,2.2,D,ROLL*51
$GPGSV,4,1,13,17,59,060,37,24,56,283,42,04,42,140,37,06,36,153,43*7C
$GPGSV,4,2,13,48,32,192,38,12,26,288,29,28,22,098,25,02,14,179,43*7C
$GPGSV,4,3,13,15,10,235,35,01,09,033,32,14,07,336,24,20,06,062,31*72
$GPGSV,4,4,13,32,02,026,*4C
$GPRMC,230031.6,A,4917.5748,N,12312.0601,W,7.44,88.75,210614,018.2,E*40
$HCHDG,69.4,0.0,E,,*12
$YXXDR,A,4.7,D,PTCH,A,2.1,D,ROLL*5D
$HCHDG,69.6,0.0,E,,*10
$YXXDR,A,4.7,D,PTCH,A,2.1,D,ROLL*5D
$GPRMC,230031.8,A,4917.5748,N,12312.0595,W,7.50,87.81,210614,018.2,E*41
$HCHDG,69.7,0.0,E,,*11
$YXXDR,A,4.7,D,PTCH,A,2.1,D,ROLL*5D
$HCHDG,69.9,0.0,E,,*1F
$YXXDR,A,4.8,D,PTCH,A,2.3,D,ROLL*50
$GPGGA,230032.000,4917.5748,N,12312.0589,W,2,11,0.71,-6.2,M,-16.8,M,0000,0000*72
$GPGSA,A,3,20,17,02,06,24,01,12,15,04,14,28,,1.35,0.71,1.15*0D
$GPRMC,230032.0,A,4917.5748,N,12312.0589,W,7.30,87.08,210614,018.2,E*40
$HCHDG,70.1,0.0,E,,*1F
$YXXDR,A,4.8,D,PTCH,A,2.5,D,ROLL*56
$TIROT,-10.9,A*2E
$HCHDG,70.1,0.0,E,,*1F
$YXXDR,A,4.9,D,PTCH,A,2.7,D,ROLL*55
$GPRMC,230032.2,A,4917.5749,N,12312.0583,W,7.31,88.41,210614,018.2,E*4A
$HCHDG,70.3,0.0,E,,*1D
$YXXDR,A,4.8,D,PTCH,A,2.6,D,ROLL*55
$HCHDG,70.4,0.0,E,,*1A
$YXXDR,A,4.4,D,PTCH,A,1.2,D,ROLL*5E
$GPRMC,230032.4,A,4917.5749,N,12312.0577,W,7.26,88.71,210614,018.2,E*42
$HCHDG,70.3,0.0,E,,*1D
$YXXDR,A,4.4,D,PTCH,A,1.0,D,ROLL*5C
$IIMTW,+14.5,C*38
$HCHDG,70.5,0.0,E,,*1B
$YXXDR,A,4.5,D,PTCH,A,0.8,D,ROLL*54
$GPGSV,4,1,13,17,59,060,40,24,56,283,40,04,42,140,39,06,36,153,43*70
$GPGSV,4,2,13,48,32,192,31,12,26,288,28,28,22,098,29,02,14,179,43*78
$GPGSV,4,3,13,15,10,235,34,01,09,033,34,14,07,336,25,20,06,062,33*76
$GPGSV,4,4,13,32,02,026,*4C
$GPRMC,230032.6,A,4917.5750,N,12312.0571,W,7.25,88.76,210614,018.2,E*4A
$IIMWV,144,R,06.1,N,A*15
$HCHDG,70.1,0.0,E,,*1F
$IIMWV,161,T,12.1,N,A*11
$YXXDR,A,4.6,D,PTCH,A,0.8,D,ROLL*57
$HCHDG,69.9,0.0,E,,*1F
$YXXDR,A,4.7,D,PTCH,A,0.8,D,ROLL*56
$GPRMC,230032.8,A,4917.5750,N,12312.0564,W,7.50,87.76,210614,018.2,E*4D
$IIVHW,,,,,06.7,N,,*18
$HCHDG,70.0,0.0,E,,*1E
$YXXDR,A,4.8,D,PTCH,A,1.1,D,ROLL*51
$IIVLW,06850,N,036.8,N*55
$HCHDG,70.0,0.0,E,,*1E
$IIVWR,144,R,06.1,N,,,,*67
$YXXDR,A,4.9,D,PTCH,A,1.4,D,ROLL*55
$GPGGA,230033.000,4917.5750,N,12312.0557,W,2,11,0.71,-6.4,M,-16.8,M,0000,0000*7F
$GPGSA,A,3,20,17,02,06,24,01,12,15,04,14,28,,1.35,0.71,1.15*0D
$GPRMC,230033.0,A,4917.5750,N,12312.0557,W,7.28,88.10,210614,018.2,E*44
$HCHDG,70.2,0.0,E,,*1C
$YXXDR,A,4.9,D,PTCH,A,1.5,D,ROLL*54
$TIROT,-42.1,A*21
$HCHDG,70.1,0.0,E,,*1F
$YXXDR,A,4.8,D,PTCH,A,1.8,D,ROLL*58
$GPRMC,230033.2,A,4917.5750,N,12312.0551,W,7.26,87.08,210614,018.2,E*48
$HCHDG,70.0,0.0,E,,*1E
$YXXDR,A,4.8,D,PTCH,A,2.0,D,ROLL*53
$HCHDG,69.9,0.0,E,,*1F
$YXXDR,A,4.6,D,PTCH,A,2.0,D,ROLL*5D
$GPRMC,230033.4,A,4917.5750,N,12312.0544,W,7.29,87.65,210614,018.2,E*4E
$HCHDG,70.1,0.0,E,,*1F
$YXXDR,A,4.6,D,PTCH,A,2.0,D,ROLL*5D
$HCHDG,69.9,0.0,E,,*1F
$IIMTW,+14.5,C*38
$YXXDR,A,4.6,D,PTCH,A,2.0,D,ROLL*5D
$GPGSV,4,1,13,17,59,060,38,24,56,283,39,04,42,140,39,06,36,153,43*71
$GPGSV,4,2,13,48,32,192,35,12,26,288,35,28,22,098,27,02,14,179,43*7E
$GPGSV,4,3,13,15,10,235,35,01,09,033,33,14,07,336,30,20,06,062,36*71
$GPGSV,4,4,13,32,02,026,*4C
$GPRMC,230033.6,A,4917.5750,N,12312.0537,W,7.24,88.13,210614,018.2,E*4B
$IIMWV,143,R,06.1,N,A*12
$HCHDG,69.8,0.0,E,,*1E
$YXXDR,A,4.6,D,PTCH,A,2.0,D,ROLL*5D
$IIMWV,163,T,12.3,N,A*11
$HCHDG,69.6,0.0,E,,*10
$YXXDR,A,4.6,D,PTCH,A,2.3,D,ROLL*5E
$GPRMC,230033.8,A,4917.5750,N,12312.0531,W,7.23,87.01,210614,018.2,E*48
$HCHDG,69.6,0.0,E,,*10
$IIVHW,,,,,06.7,N,,*18
$YXXDR,A,4.7,D,PTCH,A,2.4,D,ROLL*58
$IIVLW,06850,N,036.8,N*55
$HCHDG,69.5,0.0,E,,*13
$YXXDR,A,4.6,D,PTCH,A,2.7,D,ROLL*5A
$IIVWR,143,R,06.1,N,,,,*60
$GPGGA,230034.000,4917.5751,N,12312.0525,W,2,11,0.71,-6.5,M,-16.8,M,0000,0000*7D
$GPGSA,A,3,20,17,02,06,24,01,12,15,04,14,28,,1.35,0.71,1.15*0D
$GPRMC,230034.0,A,4917.5751,N,12312.0525,W,7.29,86.86,210614,018.2,E*47
$HCHDG,69.5,0.0,E,,*13
$YXXDR,A,4.7,D,PTCH,A,2.9,D,ROLL*55
$TIROT,-45.5,A*22
$HCHDG,69.5,0.0,E,,*13
$YXXDR,A,4.7,D,PTCH,A,3.1,D,ROLL*5C
$GPRMC,230034.2,A,4917.5751,N,12312.0518,W,7.28,86.16,210614,018.2,E*43
$HCHDG,69.3,0.0,E,,*15
$YXXDR,A,4.6,D,PTCH,A,3.4,D,ROLL*58
$HCHDG,69.2,0.0,E,,*14
$YXXDR,A,4.9,D,PTCH,A,3.6,D,ROLL*55
$GPRMC,230034.4,A,4917.5751,N,12312.0512,W,7.44,85.65,210614,018.2,E*42
$HCHDG,69.1,0.0,E,,*17
$YXXDR,A,5.0,D,PTCH,A,3.8,D,ROLL*53
$HCHDG,69.0,0.0,E,,*16
$IIMTW,+14.5,C*38
$YXXDR,A,5.0,D,PTCH,A,3.9,D,ROLL*52
$GPGSV,4,1,13,17,59,060,35,24,56,283,41,04,42,140,43,06,36,153,43*7E
$GPGSV,4,2,13,48,32,192,35,12,26,288,36,28,22,098,28,02,14,179,41*70
$GPGSV,4,3,13,15,10,235,35,01,09,033,32,14,07,336,32,20,06,062,34*70
$GPGSV,4,4,13,32,02,026,*4C
$GPRMC,230034.6,A,4917.5752,N,12312.0505,W,7.42,85.82,210614,018.2,E*4A
$IIMWV,141,R,06.2,N,A*13
$HCHDG,69.4,0.0,E,,*12
$YXXDR,A,4.8,D,PTCH,A,4.0,D,ROLL*55
$IIMWV,163,T,12.1,N,A*13
$HCHDG,69.3,0.0,E,,*15
$YXXDR,A,5.0,D,PTCH,A,4.0,D,ROLL*5C
$GPRMC,230034.8,A,4917.5752,N,12312.0499,W,7.26,86.32,210614,018.2,E*4A
$HCHDG,69.4,0.0,E,,*12
$IIVHW,,,,,06.7,N,,*18
$YXXDR,A,4.8,D,PTCH,A,4.1,D,ROLL*54
$IIVLW,06850,N,036.8,N*55
$HCHDG,69.4,0.0,E,,*12
$IIVWR,141,R,06.2,N,,,,*61
$YXXDR,A,4.9,D,PTCH,A,3.8,D,ROLL*5B
$HCHDG,69.4,0.0,E,,*12
$YXXDR,A,4.7,D,PTCH,A,3.8,D,ROLL*55
$TIROT,7.0,A*3C
$HCHDG,69.4,0.0,E,,*12
$YXXDR,A,4.9,D,PTCH,A,2.6,D,ROLL*54
$GPRMC,230035.2,A,4917.5753,N,12312.0486,W,7.29,87.89,210614,018.2,E*40
$HCHDG,68.9,0.0,E,,*1E
$YXXDR,A,4.8,D,PTCH,A,2.2,D,ROLL*51
$HCHDG,68.9,0.0,E,,*1E
$YXXDR,A,4.8,D,PTCH,A,2.2,D,ROLL*51
$GPRMC,230035.4,A,4917.5754,N,12312.0480,W,7.34,86.28,210614,018.2,E*41
$HCHDG,68.7,0.0,E,,*10
$YXXDR,A,4.7,D,PTCH,A,2.2,D,ROLL*5E
$HCHDG,68.6,0.0,E,,*11
$IIMTW,+14.5,C*38
$YXXDR,A,4.8,D,PTCH,A,2.3,D,ROLL*50
$GPGSV,4,1,13,17,59,060,35,24,56,283,42,04,42,140,43,06,36,153,44*7A
$GPGSV,4,2,13,48,32,192,38,12,26,288,37,28,22,098,33,02,14,179,39*79
$GPGSV,4,3,13,15,10,235,35,01,09,032,32,14,07,336,33,20,06,062,33*77
$GPGSV,4,4,13,32,02,026,*4C
$GPRMC,230035.6,A,4917.5754,N,12312.0473,W,7.36,85.67,210614,018.2,E*45
$IIMWV,143,R,06.3,N,A*10
$HCHDG,68.7,0.0,E,,*10
$IIMWV,161,T,12.2,N,A*12
$YXXDR,A,4.8,D,PTCH,A,2.7,D,ROLL*54
$HCHDG,68.8,0.0,E,,*1F
$YXXDR,A,4.7,D,PTCH,A,3.1,D,ROLL*5C
$GPRMC,230035.8,A,4917.5755,N,12312.0467,W,7.41,84.87,210614,018.2,E*40
$HCHDG,68.9,0.0,E,,*1E
$IIVHW,,,,,06.9,N,,*16
$YXXDR,A,4.8,D,PTCH,A,3.6,D,ROLL*54
$IIVLW,06850,N,036.8,N*55
$HCHDG,69.0,0.0,E,,*16
$IIVWR,143,R,06.3,N,,,,*62
$YXXDR,A,4.9,D,PTCH,A,4.3,D,ROLL*57
$GPGGA,230036.000,4917.5756,N,12312.0461,W,2,11,0.71,-7.0,M,-16.8,M,0000,0000*7D
$GPGSA,A,3,20,17,02,06,24,01,12,15,04,14,28,,1.35,0.71,1.15*0D
$GPRMC,230036.0,A,4917.5756,N,12312.0461,W,7.41,86.52,210614,018.2,E*44
$HCHDG,69.1,0.0,E,,*17
$YXXDR,A,4.8,D,PTCH,A,4.2,D,ROLL*57
$TIROT,64.1,A*08
$HCHDG,69.5,0.0,E,,*13
$YXXDR,A,4.7,D,PTCH,A,3.8,D,ROLL*55
$GPRMC,230036.2,A,4917.5756,N,12312.0454,W,7.43,85.83,210614,018.2,E*4D
$HCHDG,69.3,0.0,E,,*15
$YXXDR,A,4.8,D,PTCH,A,3.4,D,ROLL*56
$HCHDG,69.1,0.0,E,,*17
$YXXDR,A,4.6,D,PTCH,A,2.8,D,ROLL*55
$GPRMC,230036.4,A,4917.5757,N,12312.0448,W,7.45,88.13,210614,018.2,E*45
$HCHDG,69.2,0.0,E,,*14
$YXXDR,A,4.7,D,PTCH,A,2.1,D,ROLL*5D
$HCHDG,69.0,0.0,E,,*16
$IIMTW,+14.5,C*38
$YXXDR,A,5.0,D,PTCH,A,2.2,D,ROLL*58
$GPGSV,4,1,13,17,59,060,35,24,56,283,39,04,42,140,41,06,36,153,41*71
$GPGSV,4,2,13,48,32,192,37,12,26,288,32,28,22,098,33,02,14,179,29*72
$GPGSV,4,3,13,15,10,235,37,01,09,032,33,14,07,336,29,20,06,062,34*78
$GPGSV,4,4,13,32,02,026,*4C
$GPRMC,230036.6,A,4917.5757,N,12312.0442,W,7.49,87.51,210614,018.2,E*48
$IIMWV,143,R,06.3,N,A*10
$HCHDG,69.1,0.0,E,,*17
$IIMWV,163,T,12.4,N,A*16
$YXXDR,A,5.3,D,PTCH,A,2.7,D,ROLL*5E
$HCHDG,69.2,0.0,E,,*14
$YXXDR,A,5.3,D,PTCH,A,2.7,D,ROLL*5E
$GPRMC,230036.8,A,4917.5758,N,12312.0436,W,7.52,87.65,210614,018.2,E*47
$HCHDG,69.3,0.0,E,,*15
$IIVHW,,,,,06.8,N,,*17
$YXXDR,A,5.3,D,PTCH,A,2.7,D,ROLL*5E
$IIVLW,06850,N,036.9,N*54
$HCHDG,69.0,0.0,E,,*16
$IIVWR,143,R,06.3,N,,,,*62
$YXXDR,A,5.3,D,PTCH,A,2.7,D,ROLL*5E
$GPGGA,230037.000,4917.5758,N,12312.0429,W,2,11,0.71,-7.2,M,-16.8,M,0000,0000*7C
$GPGSA,A,3,20,17,02,06,24,01,12,15,04,14,28,,1.35,0.71,1.15*0D
$GPRMC,230037.0,A,4917.5758,N,12312.0429,W,7.57,88.54,210614,018.2,E*48
$HCHDG,69.1,0.0,E,,*17
$YXXDR,A,5.3,D,PTCH,A,2.7,D,ROLL*5E
$TIROT,15.8,A*07
$HCHDG,69.0,0.0,E,,*16
$YXXDR,A,5.3,D,PTCH,A,2.7,D,ROLL*5E
$GPRMC,230037.2,A,4917.5758,N,12312.0423,W,7.59,87.12,210614,018.2,E*43
$HCHDG,69.0,0.0,E,,*16
$YXXDR,A,5.2,D,PTCH,A,2.6,D,ROLL*5E
$HCHDG,69.3,0.0,E,,*15
$YXXDR,A,5.3,D,PTCH,A,2.8,D,ROLL*51
$GPRMC,230037.4,A,4917.5757,N,12312.0417,W,7.61,86.50,210614,018.2,E*41
$HCHDG,69.4,0.0,E,,*12
$YXXDR,A,5.1,D,PTCH,A,3.4,D,ROLL*5E
$HCHDG,69.6,0.0,E,,*10
$IIMTW,+14.5,C*38
$YXXDR,A,5.2,D,PTCH,A,3.5,D,ROLL*5C
$GPGSV,4,1,13,17,59,060,32,24,56,283,38,04,42,140,38,06,36,153,37*78
$GPGSV,4,2,13,48,32,192,37,12,26,288,34,28,22,098,32,02,14,179,41*7B
$GPGSV,4,3,13,15,10,235,35,01,09,032,35,14,07,336,31,20,06,062,33*72
$GPGSV,4,4,13,32,02,026,*4C
$GPRMC,230037.6,A,4917.5757,N,12312.0410,W,7.60,86.17,210614,018.2,E*46
$IIMWV,143,R,06.2,N,A*11
$HCHDG,69.7,0.0,E,,*11
$IIMWV,163,T,12.4,N,A*16
$YXXDR,A,5.1,D,PTCH,A,3.6,D,ROLL*5C
$HCHDG,69.7,0.0,E,,*11
$YXXDR,A,5.1,D,PTCH,A,3.6,D,ROLL*5C
$GPRMC,230037.8,A,4917.5757,N,12312.0404,W,7.58,86.37,210614,018.2,E*44
$HCHDG,69.9,0.0,E,,*1F
$IIVHW,,,,,06.8,N,,*17
$YXXDR,A,5.1,D,PTCH,A,3.4,D,ROLL*5E
$IIVLW,06850,N,036.9,N*54
$HCHDG,69.7,0.0,E,,*11
$IIVWR,143,R,06.2,N,,,,*63
$YXXDR,A,4.8,D,PTCH,A,2.9,D,ROLL*5A
$GPGGA,230038.000,4917.5757,N,12312.0397,W,2,11,0.71,-7.4,M,-16.8,M,0000,0000*78
$GPGSA,A,3,20,17,02,06,24,01,12,15,04,14,28,,1.35,0.71,1.15*0D
$GPRMC,230038.0,A,4917.5757,N,12312.0397,W,7.55,87.40,210614,018.2,E*42
$HCHDG,69.9,0.0,E,,*1F
$YXXDR,A,4.8,D,PTCH,A,2.7,D,ROLL*54
$TIROT,52.8,A*04
$HCHDG,69.9,0.0,E,,*1F
$YXXDR,A,5.0,D,PTCH,A,2.8,D,ROLL*52
$GPRMC,230038.2,A,4917.5757,N,12312.0391,W,7.55,88.16,210614,018.2,E*4A
$HCHDG,69.9,0.0,E,,*1F
$YXXDR,A,5.0,D,PTCH,A,2.8,D,ROLL*52
$HCHDG,70.1,0.0,E,,*1F
$YXXDR,A,4.8,D,PTCH,A,2.9,D,ROLL*5A
$GPRMC,230038.4,A,4917.5757,N,12312.0385,W,7.52,88.64,210614,018.2,E*4B
$HCHDG,70.1,0.0,E,,*1F
$YXXDR,A,4.8,D,PTCH,A,2.9,D,ROLL*5A
$HCHDG,70.2,0.0,E,,*1C
$IIMTW,+14.5,C*38
$YXXDR,A,4.8,D,PTCH,A,3.0,D,ROLL*52
$GPGSV,4,1,13,17,59,060,30,24,56,283,40,04,42,140,38,06,36,153,37*75
$GPGSV,4,2,13,48,32,192,36,12,26,288,34,28,22,098,31,02,14,179,37*78
$GPGSV,4,3,13,15,10,235,35,01,09,032,34,14,07,336,29,20,06,062,32*7B
$GPGSV,4,4,13,32,02,026,*4C
$GPRMC,230038.6,A,4917.5757,N,12312.0378,W,7.54,88.38,210614,018.2,E*44
$IIMWV,143,R,06.2,N,A*11
$HCHDG,69.9,0.0,E,,*1F
$IIMWV,163,T,12.2,N,A*10
$YXXDR,A,4.8,D,PTCH,A,2.9,D,ROLL*5A
$HCHDG,69.9,0.0,E,,*1F
$YXXDR,A,4.8,D,PTCH,A,2.9,D,ROLL*5A
$GPRMC,230038.8,A,4917.5756,N,12312.0371,W,7.53,88.16,210614,018.2,E*49
$IIVHW,,,,,06.8,N,,*17
$HCHDG,69.9,0.0,E,,*1F
$YXXDR,A,4.8,D,PTCH,A,3.0,D,ROLL*52
$IIVLW,06850,N,036.9,N*54
$HCHDG,69.8,0.0,E,,*1E
$IIVWR,143,R,06.2,N,,,,*63
$YXXDR,A,4.9,D,PTCH,A,3.2,D,ROLL*51
$GPGGA,230039.000,4917.5756,N,12312.0365,W,2,11,0.71,-7.6,M,-16.8,M,0000,0000*77
$GPGSA,A,3,20,17,02,06,24,01,12,15,04,14,28,,1.35,0.71,1.15*0D
$GPRMC,230039.0,A,4917.5756,N,12312.0365,W,7.53,86.88,210614,018.2,E*4C
$HCHDG,70.1,0.0,E,,*1F
$YXXDR,A,4.8,D,PTCH,A,4.2,D,ROLL*57
$TIROT,6.8,A*35
$HCHDG,70.2,0.0,E,,*1C
$YXXDR,A,4.6,D,PTCH,A,4.3,D,ROLL*58
$GPRMC,230039.2,A,4917.5756,N,12312.0358,W,7.51,86.68,210614,018.2,E*4C
$HCHDG,70.2,0.0,E,,*1C
$YXXDR,A,4.6,D,PTCH,A,4.1,D,ROLL*5A
$HCHDG,70.4,0.0,E,,*1A
$YXXDR,A,4.7,D,PTCH,A,4.1,D,ROLL*5B
$GPRMC,230039.4,A,4917.5756,N,12312.0352,W,7.50,88.06,210614,018.2,E*47
$HCHDG,70.4,0.0,E,,*1A
$YXXDR,A,4.5,D,PTCH,A,3.7,D,ROLL*58
$HCHDG,70.3,0.0,E,,*1D
$IIMTW,+14.5,C*38
$YXXDR,A,4.9,D,PTCH,A,3.2,D,ROLL*51
$GPGSV,4,1,13,17,59,060,27,24,56,283,41,04,42,140,36,06,36,153,39*72
$GPGSV,4,2,13,48,32,192,36,12,26,288,35,28,22,098,34,02,14,179,40*7C
$GPGSV,4,3,13,15,10,235,34,01,09,032,34,14,07,336,31,20,06,062,33*72
$GPGSV,4,4,13,32,02,026,*4C
$GPRMC,230039.6,A,4917.5756,N,12312.0346,W,7.73,88.54,210614,018.2,E*46
$IIMWV,144,R,06.1,N,A*15
$HCHDG,70.2,0.0,E,,*1C
$IIMWV,163,T,12.2,N,A*10
$YXXDR,A,4.9,D,PTCH,A,3.1,D,ROLL*52
$HCHDG,70.0,0.0,E,,*1E
$YXXDR,A,4.9,D,PTCH,A,3.1,D,ROLL*52
$GPRMC,230039.8,A,4917.5756,N,12312.0339,W,7.57,88.08,210614,018.2,E*4F
$IIVHW,,,,,06.9,N,,*16
$HCHDG,70.1,0.0,E,,*1F
$YXXDR,A,5.1,D,PTCH,A,3.0,D,ROLL*5A
$IIVLW,06850,N,036.9,N*54
$HCHDG,70.1,0.0,E,,*1F
$IIVWR,144,R,06.1,N,,,,*67
$YXXDR,A,5.1,D,PTCH,A,2.9,D,ROLL*52
$GPGGA,230040.000,4917.5755,N,12312.0333,W,2,11,0.71,-7.9,M,-16.8,M,0000,0000*76
$GPGSA,A,3,20,17,02,06,24,01,12,15,04,14,28,,1.35,0.71,1.15*0D
$GPRMC,230040.0,A,4917.5755,N,12312.0333,W,7.61,88.85,210614,018.2,E*40
$HCHDG,69.6,0.0,E,,*10
$YXXDR,A,5.1,D,PTCH,A,2.9,D,ROLL*52
$TIROT,-25.3,A*22
$HCHDG,69.5,0.0,E,,*13
$YXXDR,A,5.0,D,PTCH,A,2.8,D,ROLL*52
$GPRMC,230040.2,A,4917.5756,N,12312.0327,W,7.60,88.65,210614,018.2,E*4B
$HCHDG,69.4,0.0,E,,*12
$YXXDR,A,5.0,D,PTCH,A,2.7,D,ROLL*5D
$HCHDG,69.3,0.0,E,,*15
$YXXDR,A,5.0,D,PTCH,A,2.9,D,ROLL*53
$GPRMC,230040.4,A,4917.5756,N,12312.0321,W,7.59,86.77,210614,018.2,E*4C
$HCHDG,69.6,0.0,E,,*10
$YXXDR,A,4.9,D,PTCH,A,3.1,D,ROLL*52
$HCHDG,69.8,0.0,E,,*1E
$IIMTW,+14.5,C*38
$YXXDR,A,5.0,D,PTCH,A,3.6,D,ROLL*5D
$IIMWV,143,R,06.2,N,A*11
$GPGSV,4,1,13,17,59,060,31,24,56,283,41,04,42,140,36,06,36,153,38*74
$GPGSV,4,2,13,48,32,192,38,12,26,288,37,28,22,098,35,02,14,179,38*7E
$GPGSV,4,3,13,15,10,235,38,01,09,032,36,14,07,336,31,20,06,062,34*7B
