$HCHDG,108.2,0.0,E,,*22
$YXXDR,A,4.6,D,PTCH,A,-3.0,D,ROLL*71
$HCHDG,108.2,0.0,E,,*22
$GPRMC,200000.4,A,4917.9204,N,12310.6794,W,8.02,123.58,220614,018.2,E*7A
$YXXDR,A,4.6,D,PTCH,A,-3.3,D,ROLL*72
$TIROT,13.4,A*0D
$HCHDG,108.1,0.0,E,,*21
$YXXDR,A,4.6,D,PTCH,A,-3.6,D,ROLL*77
$HCHDG,108.2,0.0,E,,*22
$GPRMC,200000.6,A,4917.9202,N,12310.6787,W,7.99,123.15,220614,018.2,E*78
$YXXDR,A,4.7,D,PTCH,A,-3.9,D,ROLL*79
$IIVWR,112,R,05.6,N,,,,*60
$HCHDG,108.6,0.0,E,,*26
$YXXDR,A,4.7,D,PTCH,A,-4.3,D,ROLL*74
$HCHDG,108.5,0.0,E,,*25
$GPGGA,200000.800,4917.9200,N,12310.6781,W,2,10,0.99,-1.0,M,-16.8,M,0000,0000*71
$GPGSA,A,3,11,28,17,19,01,26,15,30,07,08,,,1.69,0.99,1.37*00
$GPGSV,4,1,14,28,85,297,42,30,61,109,30,26,55,274,38,08,54,104,27*7C
$YXXDR,A,4.7,D,PTCH,A,-4.5,D,ROLL*72
$GPGSV,4,2,14,48,32,192,35,07,31,115,27,17,29,182,39,15,26,310,38*7B
$GPGSV,4,3,14,11,25,083,33,19,16,039,26,01,12,102,29,03,05,040,17*78
$GPGSV,4,4,14,05,01,244,25,18,01,343,*71
$GPRMC,200000.8,A,4917.9200,N,12310.6781,W,7.95,123.98,220614,018.2,E*7B
$IIMTW,+13.5,C*3F
$HCHDG,108.5,0.0,E,,*25
$IIMWV,112,R,05.6,N,A*12
$YXXDR,A,4.8,D,PTCH,A,-4.8,D,ROLL*70
$IIMWV,152,T,10.7,N,A*15
$HCHDG,108.5,0.0,E,,*25
$GPRMC,200001.0,A,4917.9198,N,12310.6775,W,7.97,124.60,220614,018.2,E*79
$YXXDR,A,4.7,D,PTCH,A,-4.9,D,ROLL*7E
$HCHDG,108.6,0.0,E,,*26
$YXXDR,A,4.6,D,PTCH,A,-4.9,D,ROLL*7F
$IIVHW,,,,,07.5,N,,*1B
$IIVLW,06869,N,016.4,N*51
$HCHDG,108.6,0.0,E,,*26
$GPRMC,200001.2,A,4917.9196,N,12310.6770,W,7.97,123.27,220614,018.2,E*74
$YXXDR,A,4.6,D,PTCH,A,-4.7,D,ROLL*71
$HCHDG,108.5,0.0,E,,*25
$YXXDR,A,4.7,D,PTCH,A,-4.5,D,ROLL*72
$HCHDG,108.4,0.0,E,,*24
$GPRMC,200001.4,A,4917.9194,N,12310.6765,W,7.97,122.63,220614,018.2,E*75
$YXXDR,A,4.7,D,PTCH,A,-4.5,D,ROLL*72
$TIROT,-71.7,A*27
$HCHDG,108.4,0.0,E,,*24
$YXXDR,A,4.7,D,PTCH,A,-4.5,D,ROLL*72
$HCHDG,108.4,0.0,E,,*24
$GPRMC,200001.6,A,4917.9192,N,12310.6759,W,7.96,123.77,220614,018.2,E*7B
$YXXDR,A,4.7,D,PTCH,A,-4.7,D,ROLL*70
$IIVWR,112,R,05.6,N,,,,*60
$HCHDG,108.5,0.0,E,,*25
$YXXDR,A,4.7,D,PTCH,A,-4.8,D,ROLL*7F
$HCHDG,108.5,0.0,E,,*25
$GPGGA,200001.800,4917.9190,N,12310.6753,W,2,10,0.99,-1.1,M,-16.8,M,0000,0000*74
$GPGSA,A,3,11,28,17,19,01,26,15,30,07,08,,,1.69,0.99,1.37*00
$GPGSV,4,1,14,28,85,297,40,30,61,109,34,26,55,274,41,08,54,104,37*75
$GPGSV,4,2,14,48,32,192,32,07,31,115,29,17,29,182,40,15,26,310,40*73
$YXXDR,A,4.7,D,PTCH,A,-4.7,D,ROLL*70
$GPGSV,4,3,14,11,25,083,35,19,16,039,34,01,12,102,34,03,05,040,17*71
$GPGSV,4,4,14,05,01,244,28,18,01,342,*7D
$GPRMC,200001.8,A,4917.9190,N,12310.6753,W,7.96,122.78,220614,018.2,E*73
$IIMTW,+13.5,C*3F
$IIMWV,112,R,05.6,N,A*12
$HCHDG,108.5,0.0,E,,*25
$YXXDR,A,4.7,D,PTCH,A,-4.6,D,ROLL*71
$IIMWV,151,T,10.9,N,A*18
$HCHDG,108.3,0.0,E,,*23
$GPRMC,200002.0,A,4917.9188,N,12310.6746,W,7.94,123.02,220614,018.2,E*7B
$YXXDR,A,4.7,D,PTCH,A,-4.3,D,ROLL*74
$HCHDG,108.2,0.0,E,,*22
$YXXDR,A,4.8,D,PTCH,A,-4.1,D,ROLL*79
$IIVHW,,,,,07.5,N,,*1B
$HCHDG,108.4,0.0,E,,*24
$IIVLW,06869,N,016.4,N*51
$GPRMC,200002.2,A,4917.9186,N,12310.6740,W,7.90,123.27,220614,018.2,E*72
$YXXDR,A,4.8,D,PTCH,A,-3.9,D,ROLL*76
$HCHDG,108.4,0.0,E,,*24
$YXXDR,A,4.7,D,PTCH,A,-3.9,D,ROLL*79
$HCHDG,108.7,0.0,E,,*27
$GPRMC,200002.4,A,4917.9184,N,12310.6734,W,7.70,125.74,220614,018.2,E*7B
$YXXDR,A,4.6,D,PTCH,A,-4.0,D,ROLL*76
$TIROT,26.0,A*0F
$HCHDG,108.9,0.0,E,,*29
$YXXDR,A,4.6,D,PTCH,A,-4.1,D,ROLL*77
$HCHDG,109.1,0.0,E,,*20
$GPRMC,200002.6,A,4917.9181,N,12310.6729,W,7.66,125.73,220614,018.2,E*70
$YXXDR,A,4.6,D,PTCH,A,-4.3,D,ROLL*75
$IIVWR,111,R,05.7,N,,,,*62
$HCHDG,109.3,0.0,E,,*22
$YXXDR,A,4.5,D,PTCH,A,-4.2,D,ROLL*77
$HCHDG,109.4,0.0,E,,*25
$GPGGA,200002.800,4917.9179,N,12310.6724,W,2,10,0.99,-1.3,M,-16.8,M,0000,0000*72
$YXXDR,A,4.5,D,PTCH,A,-4.3,D,ROLL*76
$GPGSA,A,3,11,28,17,19,01,26,15,30,07,08,,,1.69,0.99,1.37*00
$GPGSV,4,1,14,28,85,297,41,30,61,109,35,26,55,274,42,08,54,104,36*77
$GPGSV,4,2,14,48,32,192,33,07,31,115,25,17,29,182,39,15,26,310,40*70
$GPGSV,4,3,14,11,25,083,26,19,16,039,31,01,12,102,35,03,05,040,17*77
$GPGSV,4,4,14,05,01,244,29,18,01,342,*7C
$GPRMC,200002.8,A,4917.9179,N,12310.6724,W,7.65,126.63,220614,018.2,E*75
$IIMTW,+13.5,C*3F
$HCHDG,109.8,0.0,E,,*29
$IIMWV,111,R,05.7,N,A*10
$YXXDR,A,4.5,D,PTCH,A,-4.3,D,ROLL*76
$IIMWV,151,T,10.8,N,A*19
$HCHDG,109.9,0.0,E,,*28
$GPRMC,200003.0,A,4917.9176,N,12310.6719,W,7.58,127.18,220614,018.2,E*7E
$YXXDR,A,4.5,D,PTCH,A,-4.3,D,ROLL*76
$HCHDG,110.1,0.0,E,,*28
$YXXDR,A,4.4,D,PTCH,A,-4.4,D,ROLL*70
$IIVHW,,,,,07.5,N,,*1B
$HCHDG,110.2,0.0,E,,*2B
$IIVLW,06869,N,016.4,N*51
$GPRMC,200003.2,A,4917.9174,N,12310.6713,W,7.56,126.22,220614,018.2,E*72
$YXXDR,A,4.5,D,PTCH,A,-4.4,D,ROLL*71
$HCHDG,110.3,0.0,E,,*2A
$YXXDR,A,4.6,D,PTCH,A,-4.4,D,ROLL*72
$HCHDG,110.4,0.0,E,,*2D
$GPRMC,200003.4,A,4917.9172,N,12310.6707,W,7.60,124.71,220614,018.2,E*76
$YXXDR,A,4.6,D,PTCH,A,-4.1,D,ROLL*77
$TIROT,23.4,A*0E
$HCHDG,110.4,0.0,E,,*2D
$YXXDR,A,4.6,D,PTCH,A,-3.6,D,ROLL*77
$HCHDG,110.3,0.0,E,,*2A
$GPRMC,200003.6,A,4917.9169,N,12310.6702,W,7.60,122.38,220614,018.2,E*70
$YXXDR,A,4.7,D,PTCH,A,-3.1,D,ROLL*71
$IIVWR,109,R,05.9,N,,,,*65
$HCHDG,110.2,0.0,E,,*2B
$YXXDR,A,4.6,D,PTCH,A,-2.8,D,ROLL*78
$HCHDG,110.1,0.0,E,,*28
$GPGGA,200003.800,4917.9167,N,12310.6696,W,2,10,0.99,-1.0,M,-16.8,M,0000,0000*77
$GPGSA,A,3,11,28,17,19,01,26,15,30,07,08,,,1.69,0.99,1.38*0F
$GPGSV,4,1,14,28,85,298,42,30,61,109,32,26,55,274,34,08,54,104,26*7C
$YXXDR,A,4.7,D,PTCH,A,-2.4,D,ROLL*75
$GPGSV,4,2,14,48,32,192,37,07,31,115,23,17,29,182,38,15,26,310,38*7C
$GPGSV,4,3,14,11,25,083,37,19,16,039,32,01,12,102,34,03,05,040,16*74
$GPGSV,4,4,14,05,01,244,28,18,01,342,*7D
$GPRMC,200003.8,A,4917.9167,N,12310.6696,W,7.62,122.85,220614,018.2,E*78
$IIMTW,+13.5,C*3F
$HCHDG,110.2,0.0,E,,*2B
$IIMWV,109,R,05.9,N,A*17
$YXXDR,A,4.7,D,PTCH,A,-2.4,D,ROLL*75
$IIMWV,151,T,10.8,N,A*19
$HCHDG,110.2,0.0,E,,*2B
$GPRMC,200004.0,A,4917.9165,N,12310.6690,W,7.62,124.51,220614,018.2,E*7C
$YXXDR,A,4.7,D,PTCH,A,-2.5,D,ROLL*74
$HCHDG,110.3,0.0,E,,*2A
$YXXDR,A,4.6,D,PTCH,A,-2.6,D,ROLL*76
$IIVHW,,,,,07.3,N,,*1D
$HCHDG,110.6,0.0,E,,*2F
$IIVLW,06869,N,016.4,N*51
$GPRMC,200004.2,A,4917.9162,N,12310.6685,W,7.61,123.95,220614,018.2,E*71
$YXXDR,A,4.4,D,PTCH,A,-3.0,D,ROLL*73
$HCHDG,110.8,0.0,E,,*21
$YXXDR,A,4.4,D,PTCH,A,-3.0,D,ROLL*73
$HCHDG,111.0,0.0,E,,*28
$GPRMC,200004.4,A,4917.9160,N,12310.6680,W,7.56,125.59,220614,018.2,E*72
$YXXDR,A,4.3,D,PTCH,A,-3.3,D,ROLL*77
$TIROT,83.4,A*04
$HCHDG,111.2,0.0,E,,*2A
$YXXDR,A,4.3,D,PTCH,A,-3.4,D,ROLL*70
$HCHDG,111.4,0.0,E,,*2C
$GPRMC,200004.6,A,4917.9158,N,12310.6674,W,7.55,124.14,220614,018.2,E*7B
$YXXDR,A,4.2,D,PTCH,A,-3.6,D,ROLL*73
$IIVWR,110,R,05.9,N,,,,*6D
$HCHDG,111.6,0.0,E,,*2E
$YXXDR,A,4.7,D,PTCH,A,-3.8,D,ROLL*78
$GPGGA,200004.800,4917.9156,N,12310.6669,W,2,11,0.95,-0.7,M,-16.8,M,0000,0000*79
$HCHDG,111.6,0.0,E,,*2E
$GPGSA,A,3,11,28,17,19,01,26,03,15,30,07,08,,1.60,0.95,1.29*09
$GPGSV,4,1,14,28,85,298,42,30,61,109,32,26,55,274,41,08,54,104,30*79
$GPGSV,4,2,14,48,32,192,37,07,31,115,25,17,29,182,36,15,26,310,37*7B
$YXXDR,A,4.7,D,PTCH,A,-3.8,D,ROLL*78
$GPGSV,4,3,14,11,25,083,42,19,16,039,34,01,12,102,32,03,05,040,17*77
$GPGSV,4,4,14,05,01,244,25,18,01,342,*70
$GPRMC,200004.8,A,4917.9156,N,12310.6669,W,7.73,124.90,220614,018.2,E*7F
$IIMTW,+13.5,C*3F
$HCHDG,111.7,0.0,E,,*2F
$IIMWV,110,R,05.9,N,A*1F
$YXXDR,A,4.5,D,PTCH,A,-3.9,D,ROLL*7B
$HCHDG,111.8,0.0,E,,*20
$YXXDR,A,4.6,D,PTCH,A,-4.1,D,ROLL*77
$IIMWV,149,T,10.8,N,A*10
$GPRMC,200005.0,A,4917.9153,N,12310.6663,W,7.47,124.07,220614,018.2,E*70
$HCHDG,111.8,0.0,E,,*20
$YXXDR,A,4.6,D,PTCH,A,-4.4,D,ROLL*72
$IIVHW,,,,,07.2,N,,*1C
$HCHDG,112.3,0.0,E,,*28
$IIVLW,06869,N,016.4,N*51
$GPRMC,200005.2,A,4917.9151,N,12310.6657,W,7.54,124.75,220614,018.2,E*70
$YXXDR,A,4.7,D,PTCH,A,-4.7,D,ROLL*70
$HCHDG,112.1,0.0,E,,*2A
$YXXDR,A,4.8,D,PTCH,A,-4.8,D,ROLL*70
$HCHDG,112.3,0.0,E,,*28
$GPRMC,200005.4,A,4917.9149,N,12310.6652,W,7.53,125.05,220614,018.2,E*7B
$YXXDR,A,4.9,D,PTCH,A,-5.1,D,ROLL*79
$TIROT,54.6,A*0C
$HCHDG,112.3,0.0,E,,*28
$YXXDR,A,4.8,D,PTCH,A,-5.2,D,ROLL*7B
$HCHDG,112.4,0.0,E,,*2F
$GPRMC,200005.6,A,4917.9147,N,12310.6646,W,7.54,123.81,220614,018.2,E*7F
$YXXDR,A,5.0,D,PTCH,A,-5.4,D,ROLL*74
$IIVWR,110,R,05.9,N,,,,*6D
$HCHDG,112.5,0.0,E,,*2E
$YXXDR,A,5.0,D,PTCH,A,-5.4,D,ROLL*74
$HCHDG,112.3,0.0,E,,*28
$GPGGA,200005.800,4917.9145,N,12310.6640,W,2,11,0.95,-0.7,M,-16.8,M,0000,0000*71
$GPGSA,A,3,11,28,17,19,01,26,03,15,30,07,08,,1.60,0.95,1.29*09
$YXXDR,A,4.9,D,PTCH,A,-5.4,D,ROLL*7C
$IIMTW,+13.5,C*3F
$GPGSV,4,1,14,28,85,298,40,30,61,109,30,26,55,274,38,08,54,104,27*71
$GPGSV,4,2,14,48,32,192,37,07,31,115,27,17,29,182,36,15,26,310,36*78
$GPGSV,4,3,14,11,25,083,39,19,16,039,33,01,12,102,31,03,05,040,17*7F
$GPGSV,4,4,14,05,01,244,27,18,01,342,*72
$GPRMC,200005.8,A,4917.9145,N,12310.6640,W,7.61,123.87,220614,018.2,E*75
$IIMWV,110,R,05.9,N,A*1F
$HCHDG,112.7,0.0,E,,*2C
$YXXDR,A,4.9,D,PTCH,A,-5.4,D,ROLL*7C
$IIMWV,149,T,10.8,N,A*10
$GPRMC,200006.0,A,4917.9143,N,12310.6635,W,7.44,125.79,220614,018.2,E*7A
$HCHDG,112.7,0.0,E,,*2C
$YXXDR,A,4.6,D,PTCH,A,-5.7,D,ROLL*70
$HCHDG,112.9,0.0,E,,*22
$YXXDR,A,4.5,D,PTCH,A,-6.1,D,ROLL*76
$IIVHW,,,,,07.1,N,,*1F
$IIVLW,06869,N,016.4,N*51
$GPRMC,200006.2,A,4917.9140,N,12310.6629,W,7.41,127.97,220614,018.2,E*71
$HCHDG,113.1,0.0,E,,*2B
$YXXDR,A,4.4,D,PTCH,A,-6.2,D,ROLL*74
$HCHDG,113.5,0.0,E,,*2F
$YXXDR,A,4.5,D,PTCH,A,-6.3,D,ROLL*74
$HCHDG,113.4,0.0,E,,*2E
$GPRMC,200006.4,A,4917.9138,N,12310.6624,W,7.44,125.34,220614,018.2,E*7B
$YXXDR,A,4.4,D,PTCH,A,-6.4,D,ROLL*72
$TIROT,-14.6,A*25
$HCHDG,113.7,0.0,E,,*2D
$YXXDR,A,4.3,D,PTCH,A,-6.7,D,ROLL*76
$GPRMC,200006.6,A,4917.9135,N,12310.6619,W,7.42,125.59,220614,018.2,E*77
$HCHDG,113.7,0.0,E,,*2D
$YXXDR,A,4.3,D,PTCH,A,-6.9,D,ROLL*78
$IIVWR,111,R,05.8,N,,,,*6D
$HCHDG,113.7,0.0,E,,*2D
$YXXDR,A,4.3,D,PTCH,A,-7.0,D,ROLL*70
$HCHDG,113.7,0.0,E,,*2D
$GPGGA,200006.800,4917.9133,N,12310.6612,W,2,10,0.99,-0.8,M,-16.8,M,0000,0000*76
$GPGSA,A,3,11,28,17,19,01,26,15,30,07,08,,,1.69,0.99,1.37*00
$GPGSV,4,1,14,28,85,298,40,30,61,109,33,26,55,274,40,08,53,104,29*74
$GPGSV,4,2,14,48,32,192,35,07,31,115,26,17,29,182,36,15,26,310,37*7A
$GPGSV,4,3,14,11,25,083,39,19,16,039,26,01,12,102,28,03,05,040,15*71
$GPGSV,4,4,14,05,01,244,27,18,01,342,*72
$YXXDR,A,4.3,D,PTCH,A,-6.9,D,ROLL*78
$GPRMC,200006.8,A,4917.9133,N,12310.6612,W,7.41,126.99,220614,018.2,E*78
$IIMTW,+13.5,C*3F
$HCHDG,113.8,0.0,E,,*22
$IIMWV,111,R,05.8,N,A*1F
$YXXDR,A,4.4,D,PTCH,A,-6.6,D,ROLL*70
$IIMWV,149,T,10.6,N,A*1E
$HCHDG,113.7,0.0,E,,*2D
$GPRMC,200007.0,A,4917.9131,N,12310.6606,W,7.38,124.53,220614,018.2,E*7C
$YXXDR,A,4.3,D,PTCH,A,-6.3,D,ROLL*72
$HCHDG,113.6,0.0,E,,*2C
$YXXDR,A,4.3,D,PTCH,A,-6.0,D,ROLL*71
$IIVHW,,,,,07.0,N,,*1E
$HCHDG,113.8,0.0,E,,*22
$IIVLW,06869,N,016.4,N*51
$GPRMC,200007.2,A,4917.9129,N,12310.6599,W,7.37,124.48,220614,018.2,E*77
$YXXDR,A,4.3,D,PTCH,A,-5.6,D,ROLL*74
$HCHDG,113.7,0.0,E,,*2D
$YXXDR,A,4.2,D,PTCH,A,-5.5,D,ROLL*76
$HCHDG,113.7,0.0,E,,*2D
$GPRMC,200007.4,A,4917.9127,N,12310.6593,W,7.32,125.27,220614,018.2,E*78
$YXXDR,A,4.2,D,PTCH,A,-5.5,D,ROLL*76
$TIROT,4.9,A*36
$HCHDG,113.7,0.0,E,,*2D
$YXXDR,A,4.2,D,PTCH,A,-5.5,D,ROLL*76
$HCHDG,113.7,0.0,E,,*2D
$GPRMC,200007.6,A,4917.9125,N,12310.6587,W,7.15,125.97,220614,018.2,E*73
$YXXDR,A,4.2,D,PTCH,A,-5.5,D,ROLL*76
$IIVWR,110,R,05.9,N,,,,*6D
$HCHDG,113.3,0.0,E,,*29
$YXXDR,A,4.3,D,PTCH,A,-5.3,D,ROLL*71
$HCHDG,113.1,0.0,E,,*2B
$GPGGA,200007.800,4917.9123,N,12310.6582,W,2,10,0.99,-0.8,M,-16.8,M,0000,0000*7C
$GPGSA,A,3,11,28,17,19,01,26,15,30,07,08,,,1.69,0.99,1.38*0F
$GPGSV,4,1,14,28,85,298,42,30,61,109,29,26,55,274,42,08,53,104,25*73
$YXXDR,A,4.3,D,PTCH,A,-5.0,D,ROLL*72
$GPGSV,4,2,14,48,32,192,36,07,31,115,23,17,29,182,36,15,26,310,37*7C
$GPGSV,4,3,14,11,25,083,43,19,16,039,28,01,12,102,28,03,05,040,16*71
$GPGSV,4,4,14,05,01,244,25,18,01,342,*70
$GPRMC,200007.8,A,4917.9123,N,12310.6582,W,7.16,126.48,220614,018.2,E*7C
$IIMTW,+13.5,C*3F
$IIMWV,110,R,05.9,N,A*1F
$HCHDG,112.8,0.0,E,,*23
$YXXDR,A,4.3,D,PTCH,A,-4.7,D,ROLL*74
$IIMWV,149,T,10.4,N,A*1C
$HCHDG,112.7,0.0,E,,*2C
$GPRMC,200008.0,A,4917.9122,N,12310.6577,W,7.17,125.73,220614,018.2,E*7A
$YXXDR,A,4.6,D,PTCH,A,-3.6,D,ROLL*77
$HCHDG,112.5,0.0,E,,*2E
$YXXDR,A,4.6,D,PTCH,A,-3.5,D,ROLL*74
$IIVHW,,,,,06.9,N,,*16
$HCHDG,112.3,0.0,E,,*28
$IIVLW,06869,N,016.4,N*51
$GPRMC,200008.2,A,4917.9120,N,12310.6572,W,7.19,125.66,220614,018.2,E*75
$YXXDR,A,4.6,D,PTCH,A,-3.5,D,ROLL*74
$HCHDG,112.2,0.0,E,,*29
$YXXDR,A,4.6,D,PTCH,A,-3.6,D,ROLL*77
$GPRMC,200008.4,A,4917.9118,N,12310.6568,W,7.19,124.96,220614,018.2,E*7D
$HCHDG,112.1,0.0,E,,*2A
$YXXDR,A,4.6,D,PTCH,A,-3.6,D,ROLL*77
$TIROT,0.0,A*3B
$HCHDG,111.8,0.0,E,,*20
$YXXDR,A,4.6,D,PTCH,A,-3.6,D,ROLL*77
$HCHDG,111.7,0.0,E,,*2F
$GPRMC,200008.6,A,4917.9115,N,12310.6563,W,7.20,124.60,220614,018.2,E*7A
$YXXDR,A,4.7,D,PTCH,A,-3.8,D,ROLL*78
$IIVWR,110,R,06.0,N,,,,*67
$HCHDG,111.7,0.0,E,,*2F
$YXXDR,A,4.7,D,PTCH,A,-3.8,D,ROLL*78
$HCHDG,111.5,0.0,E,,*2D
$GPGGA,200008.800,4917.9113,N,12310.6559,W,2,10,0.99,-0.5,M,-16.8,M,0000,0000*7B
$GPGSA,A,3,11,28,17,19,01,26,15,30,07,08,,,1.69,0.99,1.38*0F
$GPGSV,4,1,14,28,85,298,43,30,61,109,29,26,55,274,42,08,53,104,30*76
$YXXDR,A,4.7,D,PTCH,A,-4.4,D,ROLL*73
$GPGSV,4,2,14,48,32,192,38,07,31,115,25,17,29,182,35,15,26,310,37*77
$GPGSV,4,3,14,11,25,083,39,19,16,039,28,01,12,102,24,03,05,040,14*72
$GPGSV,4,4,14,05,01,244,28,18,01,342,*7D
$GPRMC,200008.8,A,4917.9113,N,12310.6559,W,7.21,124.47,220614,018.2,E*7F
$IIMTW,+13.5,C*3F
$HCHDG,111.4,0.0,E,,*2C
$IIMWV,110,R,06.0,N,A*15
$YXXDR,A,4.7,D,PTCH,A,-4.4,D,ROLL*73
$IIMWV,148,T,10.5,N,A*1C
$HCHDG,111.6,0.0,E,,*2E
$GPRMC,200009.0,A,4917.9110,N,12310.6554,W,7.24,124.84,220614,018.2,E*72
$YXXDR,A,4.5,D,PTCH,A,-4.4,D,ROLL*71
$HCHDG,111.5,0.0,E,,*2D
$YXXDR,A,4.5,D,PTCH,A,-4.4,D,ROLL*71
$IIVHW,,,,,07.1,N,,*1F
$HCHDG,111.3,0.0,E,,*2B
$IIVLW,06869,N,016.4,N*51
$GPRMC,200009.2,A,4917.9108,N,12310.6549,W,7.40,124.99,220614,018.2,E*7B
$YXXDR,A,4.5,D,PTCH,A,-4.4,D,ROLL*71
$HCHDG,111.2,0.0,E,,*2A
$YXXDR,A,4.5,D,PTCH,A,-4.3,D,ROLL*76
$HCHDG,111.1,0.0,E,,*29
$GPRMC,200009.4,A,4917.9105,N,12310.6544,W,7.47,124.88,220614,018.2,E*7A
$YXXDR,A,4.5,D,PTCH,A,-4.4,D,ROLL*71
$TIROT,-20.3,A*27
$HCHDG,110.9,0.0,E,,*20
$YXXDR,A,4.5,D,PTCH,A,-4.6,D,ROLL*73
$GPRMC,200009.6,A,4917.9102,N,12310.6539,W,7.64,125.95,220614,018.2,E*79
$HCHDG,110.9,0.0,E,,*20
$YXXDR,A,4.4,D,PTCH,A,-5.0,D,ROLL*75
$IIVWR,111,R,06.0,N,,,,*66
$HCHDG,110.8,0.0,E,,*21
$YXXDR,A,4.6,D,PTCH,A,-5.1,D,ROLL*76
$HCHDG,110.7,0.0,E,,*2E
$YXXDR,A,4.6,D,PTCH,A,-5.1,D,ROLL*76
$GPGGA,200009.800,4917.9099,N,12310.6533,W,2,10,0.99,-0.3,M,-16.8,M,0000,0000*73
$GPGSA,A,3,11,28,17,19,01,26,15,30,07,08,,,1.69,0.99,1.38*0F
$GPGSV,4,1,14,28,85,298,42,30,61,109,32,26,55,274,43,08,53,104,30*7C
$GPGSV,4,2,14,48,32,192,38,07,31,115,25,17,29,182,37,15,26,310,37*75
$GPGSV,4,3,14,11,25,083,40,19,16,039,24,01,12,102,24,03,05,040,16*72
$GPGSV,4,4,14,05,01,244,27,18,01,342,*72
$GPRMC,200009.8,A,4917.9099,N,12310.6533,W,7.69,125.66,220614,018.2,E*7F
$IIMTW,+13.5,C*3F
$IIMWV,111,R,06.0,N,A*14
$HCHDG,110.6,0.0,E,,*2F
$YXXDR,A,4.6,D,PTCH,A,-5.1,D,ROLL*76
$IIMWV,148,T,10.6,N,A*1F
$HCHDG,110.5,0.0,E,,*2C
$GPRMC,200010.0,A,4917.9096,N,12310.6528,W,7.75,125.86,220614,018.2,E*79
$YXXDR,A,4.7,D,PTCH,A,-4.9,D,ROLL*7E
$HCHDG,110.3,0.0,E,,*2A
$YXXDR,A,4.7,D,PTCH,A,-4.7,D,ROLL*70
$IIVHW,,,,,07.3,N,,*1D
$HCHDG,110.1,0.0,E,,*28
$GPRMC,200010.2,A,4917.9094,N,12310.6523,W,7.77,125.55,220614,018.2,E*7E
$IIVLW,06869,N,016.4,N*51
$YXXDR,A,4.7,D,PTCH,A,-4.5,D,ROLL*72
$HCHDG,109.8,0.0,E,,*29
$YXXDR,A,4.6,D,PTCH,A,-4.1,D,ROLL*77
$GPRMC,200010.4,A,4917.9092,N,12310.6518,W,7.76,126.34,220614,018.2,E*73
$HCHDG,109.7,0.0,E,,*26
$YXXDR,A,4.7,D,PTCH,A,-3.8,D,ROLL*78
$TIROT,-109.3,A*1D
$HCHDG,109.5,0.0,E,,*24
$YXXDR,A,4.6,D,PTCH,A,-3.5,D,ROLL*74
$HCHDG,109.1,0.0,E,,*20
$GPRMC,200010.6,A,4917.9089,N,12310.6512,W,7.70,125.64,220614,018.2,E*71
$YXXDR,A,4.6,D,PTCH,A,-3.1,D,ROLL*70
$IIVWR,111,R,06.1,N,,,,*67
$HCHDG,109.0,0.0,E,,*21
$YXXDR,A,4.5,D,PTCH,A,-2.7,D,ROLL*74
$HCHDG,108.8,0.0,E,,*28
$GPGGA,200010.800,4917.9087,N,12310.6507,W,2,10,0.99,-0.3,M,-16.8,M,0000,0000*73
$GPGSA,A,3,11,28,17,19,01,26,15,30,07,08,,,1.69,0.99,1.38*0F
$GPGSV,4,1,14,28,85,298,43,30,61,109,30,26,55,274,28,08,53,104,29*7A
$YXXDR,A,4.7,D,PTCH,A,-2.4,D,ROLL*75
$GPGSV,4,2,14,48,32,192,37,07,31,115,28,17,29,182,40,15,26,310,38*78
$GPGSV,4,3,14,11,25,083,31,19,16,039,27,01,12,102,35,03,05,040,16*77
$GPGSV,4,4,14,05,01,244,29,18,01,342,*7C
$GPRMC,200010.8,A,4917.9087,N,12310.6507,W,7.72,124.09,220614,018.2,E*7D
$IIMTW,+13.5,C*3F
$HCHDG,108.4,0.0,E,,*24
$IIMWV,111,R,06.1,N,A*15
$YXXDR,A,4.6,D,PTCH,A,-2.3,D,ROLL*73
$IIMWV,150,T,10.9,N,A*19
$HCHDG,108.3,0.0,E,,*23
$GPRMC,200011.0,A,4917.9084,N,12310.6502,W,7.70,125.23,220614,018.2,E*79
$YXXDR,A,4.6,D,PTCH,A,-2.0,D,ROLL*70
$HCHDG,108.3,0.0,E,,*23
$YXXDR,A,4.5,D,PTCH,A,-1.8,D,ROLL*78
$IIVHW,,,,,07.4,N,,*1A
$IIVLW,06869,N,016.4,N*51
$HCHDG,107.8,0.0,E,,*27
$GPRMC,200011.2,A,4917.9082,N,12310.6496,W,7.70,124.54,220614,018.2,E*70
$YXXDR,A,4.7,D,PTCH,A,-1.4,D,ROLL*76
$HCHDG,107.7,0.0,E,,*28
$YXXDR,A,4.8,D,PTCH,A,-1.1,D,ROLL*7C
$HCHDG,107.5,0.0,E,,*2A
$GPRMC,200011.4,A,4917.9080,N,12310.6490,W,7.73,122.23,220614,018.2,E*77
$YXXDR,A,4.9,D,PTCH,A,-0.7,D,ROLL*7A
$TIROT,-47.3,A*26
$HCHDG,107.3,0.0,E,,*2C
$YXXDR,A,4.9,D,PTCH,A,-0.7,D,ROLL*7A
$HCHDG,107.6,0.0,E,,*29
$GPRMC,200011.6,A,4917.9078,N,12310.6484,W,7.93,121.64,220614,018.2,E*79
$YXXDR,A,4.8,D,PTCH,A,-0.7,D,ROLL*7B
$IIVWR,111,R,06.2,N,,,,*64
$HCHDG,107.4,0.0,E,,*2B
$YXXDR,A,4.6,D,PTCH,A,-0.7,D,ROLL*75
$HCHDG,107.2,0.0,E,,*2D
$GPGGA,200011.800,4917.9076,N,12310.6479,W,2,10,0.99,-0.2,M,-16.8,M,0000,0000*75
$GPGSA,A,3,11,28,17,19,01,26,15,30,07,08,,,1.69,0.99,1.38*0F
$GPGSV,4,1,14,28,85,298,44,30,61,109,32,26,55,274,41,08,53,104,28*71
$GPGSV,4,2,14,48,32,192,39,07,31,115,29,17,29,182,40,15,26,310,38*77
$YXXDR,A,4.8,D,PTCH,A,-0.7,D,ROLL*7B
$GPGSV,4,3,14,11,25,083,28,19,16,039,29,01,12,102,34,03,05,040,14*72
$GPGSV,4,4,14,05,01,244,30,18,01,342,*74
$GPRMC,200011.8,A,4917.9076,N,12310.6479,W,7.91,121.17,220614,018.2,E*7D
$IIMTW,+13.5,C*3F
$HCHDG,107.1,0.0,E,,*2E
$IIMWV,111,R,06.2,N,A*16
$YXXDR,A,4.8,D,PTCH,A,-0.6,D,ROLL*7A
$IIMWV,150,T,11.1,N,A*10
$HCHDG,107.0,0.0,E,,*2F
$GPRMC,200012.0,A,4917.9074,N,12310.6473,W,7.85,121.30,220614,018.2,E*7E
$YXXDR,A,4.6,D,PTCH,A,-0.5,D,ROLL*77
$HCHDG,107.1,0.0,E,,*2E
$YXXDR,A,4.6,D,PTCH,A,-0.5,D,ROLL*77
$IIVHW,,,,,07.7,N,,*19
$HCHDG,107.0,0.0,E,,*2F
$IIVLW,06869,N,016.4,N*51
$GPRMC,200012.2,A,4917.9072,N,12310.6468,W,7.88,122.04,220614,018.2,E*79
$YXXDR,A,4.6,D,PTCH,A,-0.5,D,ROLL*77
$HCHDG,107.1,0.0,E,,*2E
$YXXDR,A,4.7,D,PTCH,A,-0.6,D,ROLL*75
$GPRMC,200012.4,A,4917.9069,N,12310.6463,W,7.67,122.23,220614,018.2,E*7A
$HCHDG,107.2,0.0,E,,*2D
$YXXDR,A,4.7,D,PTCH,A,-0.6,D,ROLL*75
$TIROT,-23.0,A*27
$HCHDG,107.2,0.0,E,,*2D
$YXXDR,A,4.7,D,PTCH,A,-0.9,D,ROLL*7A
$HCHDG,107.3,0.0,E,,*2C
$GPRMC,200012.6,A,4917.9067,N,12310.6458,W,7.91,123.93,220614,018.2,E*7D
$YXXDR,A,4.5,D,PTCH,A,-1.2,D,ROLL*72
$IIVWR,114,R,06.3,N,,,,*60
$HCHDG,107.5,0.0,E,,*2A
$YXXDR,A,4.7,D,PTCH,A,-1.6,D,ROLL*74
$HCHDG,107.2,0.0,E,,*2D
$GPGGA,200012.800,4917.9064,N,12310.6453,W,2,11,0.95,0.0,M,-16.8,M,0000,0000*5F
$GPGSA,A,3,11,28,17,19,01,26,03,15,30,07,08,,1.60,0.95,1.29*09
$GPGSV,4,1,14,28,85,298,44,30,61,109,34,26,55,274,38,08,53,104,36*76
$YXXDR,A,4.8,D,PTCH,A,-2.0,D,ROLL*7E
$GPGSV,4,2,14,48,32,192,39,07,31,115,32,17,29,182,39,15,26,310,36*7D
$GPGSV,4,3,14,11,25,083,38,19,16,039,27,01,12,102,34,03,05,040,17*7E
$GPGSV,4,4,14,05,01,244,33,18,01,342,*77
$GPRMC,200012.8,A,4917.9064,N,12310.6453,W,7.88,123.54,220614,018.2,E*78
$IIMTW,+13.5,C*3F
$IIMWV,114,R,06.3,N,A*12
$HCHDG,107.3,0.0,E,,*2C
$YXXDR,A,4.8,D,PTCH,A,-2.3,D,ROLL*7D
$IIMWV,150,T,11.4,N,A*15
$HCHDG,107.3,0.0,E,,*2C
$GPRMC,200013.0,A,4917.9063,N,12310.6451,W,7.88,122.04,220614,018.2,E*70
$YXXDR,A,5.1,D,PTCH,A,-2.3,D,ROLL*75
$HCHDG,107.4,0.0,E,,*2B
$YXXDR,A,5.1,D,PTCH,A,-2.3,D,ROLL*75
$IIVHW,,,,,07.8,N,,*16
$HCHDG,107.2,0.0,E,,*2D
$IIVLW,06869,N,016.4,N*51
$GPRMC,200013.2,A,4917.9062,N,12310.6447,W,7.92,121.64,220614,018.2,E*7A
$YXXDR,A,5.0,D,PTCH,A,-2.0,D,ROLL*77
$HCHDG,107.1,0.0,E,,*2E
$YXXDR,A,4.9,D,PTCH,A,-1.5,D,ROLL*79
$HCHDG,106.9,0.0,E,,*27
$GPRMC,200013.4,A,4917.9061,N,12310.6443,W,7.89,121.11,220614,018.2,E*73
$YXXDR,A,4.8,D,PTCH,A,-1.1,D,ROLL*7C
$TIROT,-41.5,A*26
$HCHDG,106.6,0.0,E,,*28
$YXXDR,A,4.7,D,PTCH,A,0.0,D,ROLL*5E
$GPRMC,200013.6,A,4917.9059,N,12310.6438,W,7.70,121.22,220614,018.2,E*70
$HCHDG,106.6,0.0,E,,*28
$YXXDR,A,4.7,D,PTCH,A,-0.2,D,ROLL*71
$IIVWR,117,R,06.3,N,,,,*63
$HCHDG,106.5,0.0,E,,*2B
$YXXDR,A,4.7,D,PTCH,A,-0.2,D,ROLL*71
$HCHDG,106.6,0.0,E,,*28
$GPGGA,200013.800,4917.9057,N,12310.6432,W,2,11,0.95,0.3,M,-16.8,M,0000,0000*5A
$GPGSA,A,3,11,28,17,19,01,26,03,15,30,07,08,,1.60,0.95,1.29*09
$GPGSV,4,1,14,28,85,298,43,30,61,109,35,26,55,274,42,08,53,104,36*7D
$YXXDR,A,4.6,D,PTCH,A,-0.5,D,ROLL*77
$GPGSV,4,2,14,48,32,192,37,07,31,115,32,17,29,182,35,15,26,310,36*7F
$GPGSV,4,3,14,11,25,083,31,19,16,039,36,01,12,102,34,03,05,040,16*76
$GPGSV,4,4,14,05,01,244,33,18,01,342,*77
$GPRMC,200013.8,A,4917.9057,N,12310.6432,W,7.72,121.95,220614,018.2,E*74
$IIMTW,+13.5,C*3F
$HCHDG,106.6,0.0,E,,*28
$IIMWV,117,R,06.3,N,A*11
$YXXDR,A,4.6,D,PTCH,A,-0.8,D,ROLL*7A
$IIMWV,151,T,11.8,N,A*18
$HCHDG,106.6,0.0,E,,*28
$GPRMC,200014.0,A,4917.9055,N,12310.6427,W,7.56,121.63,220614,018.2,E*72
$YXXDR,A,4.5,D,PTCH,A,-1.2,D,ROLL*72
$HCHDG,106.7,0.0,E,,*29
$YXXDR,A,4.5,D,PTCH,A,-1.5,D,ROLL*75
$IIVHW,,,,,07.8,N,,*16
$HCHDG,106.9,0.0,E,,*27
$IIVLW,06869,N,016.4,N*51
$GPRMC,200014.2,A,4917.9053,N,12310.6421,W,7.75,122.01,220614,018.2,E*76
$YXXDR,A,4.5,D,PTCH,A,-1.8,D,ROLL*78
$HCHDG,107.0,0.0,E,,*2F
$YXXDR,A,4.6,D,PTCH,A,-2.0,D,ROLL*70
$GPRMC,200014.4,A,4917.9051,N,12310.6416,W,7.74,121.42,220614,018.2,E*73
$HCHDG,106.9,0.0,E,,*27
$YXXDR,A,4.6,D,PTCH,A,-2.0,D,ROLL*70
$TIROT,-27.3,A*20
$HCHDG,106.9,0.0,E,,*27
$YXXDR,A,5.0,D,PTCH,A,-2.2,D,ROLL*75
$GPRMC,200014.6,A,4917.9050,N,12310.6410,W,7.74,120.58,220614,018.2,E*7C
$HCHDG,107.0,0.0,E,,*2F
$YXXDR,A,5.0,D,PTCH,A,-2.2,D,ROLL*75
$IIVWR,117,R,06.2,N,,,,*62
$HCHDG,106.9,0.0,E,,*27
$YXXDR,A,5.0,D,PTCH,A,-2.0,D,ROLL*77
$HCHDG,107.0,0.0,E,,*2F
$GPGGA,200014.800,4917.9048,N,12310.6405,W,2,11,0.95,0.0,M,-16.8,M,0000,0000*54
$GPGSA,A,3,11,28,17,19,01,26,03,15,30,07,08,,1.60,0.95,1.29*09
$GPGSV,4,1,14,28,85,298,43,30,61,109,35,26,55,274,40,08,53,104,37*7E
$GPGSV,4,2,14,48,32,192,35,07,31,115,31,17,29,182,36,15,26,310,35*7E
$YXXDR,A,4.9,D,PTCH,A,-1.1,D,ROLL*7D
$GPGSV,4,3,14,11,25,083,31,19,16,039,32,01,12,102,34,03,05,040,17*73
$GPGSV,4,4,14,05,01,244,33,18,01,342,*77
$GPRMC,200014.8,A,4917.9048,N,12310.6405,W,7.73,120.54,220614,018.2,E*74
$IIMTW,+13.5,C*3F
$HCHDG,106.7,0.0,E,,*29
$IIMWV,117,R,06.2,N,A*10
$YXXDR,A,4.9,D,PTCH,A,-1.2,D,ROLL*7E
$IIMWV,153,T,12.0,N,A*11
$GPRMC,200015.0,A,4917.9046,N,12310.6399,W,7.69,120.10,220614,018.2,E*7A
$HCHDG,106.7,0.0,E,,*29
$YXXDR,A,4.9,D,PTCH,A,-1.2,D,ROLL*7E
$HCHDG,106.5,0.0,E,,*2B
$YXXDR,A,4.9,D,PTCH,A,-1.1,D,ROLL*7D
$IIVHW,,,,,07.7,N,,*19
$IIVLW,06869,N,016.4,N*51
$HCHDG,106.4,0.0,E,,*2A
$GPRMC,200015.2,A,4917.9045,N,12310.6393,W,7.71,121.78,220614,018.2,E*77
$YXXDR,A,4.9,D,PTCH,A,-1.2,D,ROLL*7E
$HCHDG,106.3,0.0,E,,*2D
$YXXDR,A,4.8,D,PTCH,A,-1.2,D,ROLL*7F
$HCHDG,106.4,0.0,E,,*2A
$GPRMC,200015.4,A,4917.9043,N,12310.6388,W,7.68,121.42,220614,018.2,E*7C
$YXXDR,A,4.8,D,PTCH,A,-1.4,D,ROLL*79
$TIROT,34.2,A*0E
$HCHDG,106.5,0.0,E,,*2B
$YXXDR,A,4.8,D,PTCH,A,-1.7,D,ROLL*7A
$HCHDG,106.5,0.0,E,,*2B
$GPRMC,200015.6,A,4917.9042,N,12310.6382,W,7.65,121.10,220614,018.2,E*7F
$YXXDR,A,4.8,D,PTCH,A,-2.1,D,ROLL*7F
$IIVWR,119,R,06.1,N,,,,*6F
$HCHDG,106.7,0.0,E,,*29
$YXXDR,A,4.8,D,PTCH,A,-2.3,D,ROLL*7D
$GPGGA,200015.800,4917.9040,N,12310.6377,W,2,11,0.95,-0.1,M,-16.8,M,0000,0000*73
$HCHDG,106.7,0.0,E,,*29
$GPGSA,A,3,11,28,17,19,01,26,03,15,30,07,08,,1.60,0.95,1.30*01
$GPGSV,4,1,14,28,85,298,43,30,61,109,33,26,55,274,40,08,53,104,40*78
$YXXDR,A,4.8,D,PTCH,A,-2.5,D,ROLL*7B
$GPGSV,4,2,14,48,32,192,34,07,31,115,33,17,29,182,34,15,26,310,32*78
$GPGSV,4,3,14,11,25,083,30,19,16,039,34,01,12,102,34,03,05,040,16*75
$GPGSV,4,4,14,18,02,342,,05,01,244,34*73
$GPRMC,200015.8,A,4917.9040,N,12310.6377,W,7.61,121.36,220614,018.2,E*79
$IIMTW,+13.5,C*3F
$HCHDG,106.9,0.0,E,,*27
$IIMWV,119,R,06.1,N,A*1D
$YXXDR,A,5.0,D,PTCH,A,-3.4,D,ROLL*72
$IIMWV,152,T,11.8,N,A*1B
$HCHDG,106.9,0.0,E,,*27
$GPRMC,200016.0,A,4917.9038,N,12310.6371,W,7.60,121.11,220614,018.2,E*7F
$YXXDR,A,5.0,D,PTCH,A,-3.4,D,ROLL*72
$HCHDG,106.8,0.0,E,,*26
$YXXDR,A,5.0,D,PTCH,A,-3.5,D,ROLL*73
$IIVHW,,,,,07.6,N,,*18
$IIVLW,06869,N,016.4,N*51
$HCHDG,106.9,0.0,E,,*27
$GPRMC,200016.2,A,4917.9036,N,12310.6366,W,7.57,121.15,220614,018.2,E*75
$YXXDR,A,5.2,D,PTCH,A,-3.1,D,ROLL*75
$HCHDG,107.0,0.0,E,,*2F
$YXXDR,A,5.1,D,PTCH,A,-3.2,D,ROLL*75
$HCHDG,107.0,0.0,E,,*2F
$GPRMC,200016.4,A,4917.9033,N,12310.6360,W,7.57,120.13,220614,018.2,E*77
$YXXDR,A,5.0,D,PTCH,A,-3.2,D,ROLL*74
$TIROT,32.3,A*09
$HCHDG,107.1,0.0,E,,*2E
$YXXDR,A,4.9,D,PTCH,A,-3.1,D,ROLL*7F
$HCHDG,107.2,0.0,E,,*2D
$GPRMC,200016.6,A,4917.9031,N,12310.6354,W,7.75,118.73,220614,018.2,E*7D
$YXXDR,A,5.0,D,PTCH,A,-2.8,D,ROLL*7F
$IIVWR,120,R,06.0,N,,,,*64
$HCHDG,107.2,0.0,E,,*2D
$YXXDR,A,4.9,D,PTCH,A,-3.0,D,ROLL*7E
$HCHDG,107.3,0.0,E,,*2C
$GPGGA,200016.800,4917.9029,N,12310.6348,W,2,11,0.95,-0.1,M,-16.8,M,0000,0000*73
$GPGSA,A,3,11,28,17,19,01,26,03,15,30,07,08,,1.60,0.95,1.30*01
$GPGSV,4,1,14,28,85,298,43,30,61,109,31,26,55,274,38,08,53,104,37*75
$YXXDR,A,5.0,D,PTCH,A,-3.2,D,ROLL*74
$GPGSV,4,2,14,48,32,192,36,07,31,115,33,17,29,182,36,15,26,310,33*79
$GPGSV,4,3,14,11,25,083,39,19,16,039,33,01,12,102,34,03,05,040,16*7B
$GPGSV,4,4,14,18,02,342,,05,01,244,33*74
$GPRMC,200016.8,A,4917.9029,N,12310.6348,W,7.71,118.64,220614,018.2,E*75
$IIMTW,+13.5,C*3F
$HCHDG,107.4,0.0,E,,*2B
$IIMWV,120,R,06.0,N,A*16
$YXXDR,A,5.0,D,PTCH,A,-3.2,D,ROLL*74
$IIMWV,153,T,11.8,N,A*1A
$HCHDG,107.5,0.0,E,,*2A
$GPRMC,200017.0,A,4917.9028,N,12310.6342,W,7.66,119.51,220614,018.2,E*76
$YXXDR,A,5.0,D,PTCH,A,-3.5,D,ROLL*73
$HCHDG,107.6,0.0,E,,*29
$YXXDR,A,5.0,D,PTCH,A,-3.5,D,ROLL*73
$IIVHW,,,,,07.5,N,,*1B
$IIVLW,06869,N,016.4,N*51
$HCHDG,107.7,0.0,E,,*28
$GPRMC,200017.2,A,4917.9025,N,12310.6337,W,7.60,121.25,220614,018.2,E*75
$YXXDR,A,4.9,D,PTCH,A,-3.7,D,ROLL*79
$HCHDG,107.6,0.0,E,,*29
$YXXDR,A,4.9,D,PTCH,A,-3.7,D,ROLL*79
$HCHDG,107.8,0.0,E,,*27
$GPRMC,200017.4,A,4917.9023,N,12310.6331,W,7.60,122.16,220614,018.2,E*70
$YXXDR,A,4.8,D,PTCH,A,-3.8,D,ROLL*77
$TIROT,57.4,A*0D
$HCHDG,107.8,0.0,E,,*27
$YXXDR,A,4.8,D,PTCH,A,-3.9,D,ROLL*76
$HCHDG,107.9,0.0,E,,*26
$GPRMC,200017.6,A,4917.9021,N,12310.6326,W,7.57,122.27,220614,018.2,E*70
$YXXDR,A,4.8,D,PTCH,A,-3.8,D,ROLL*77
$IIVWR,122,R,05.9,N,,,,*6C
$HCHDG,107.9,0.0,E,,*26
$YXXDR,A,4.8,D,PTCH,A,-3.9,D,ROLL*76
$HCHDG,108.1,0.0,E,,*21
$GPGGA,200017.800,4917.9019,N,12310.6320,W,2,11,0.95,-0.1,M,-16.8,M,0000,0000*7F
$GPGSA,A,3,11,28,17,19,01,26,03,15,30,07,08,,1.60,0.95,1.30*01
$YXXDR,A,4.9,D,PTCH,A,-4.0,D,ROLL*79
$GPGSV,4,1,14,28,85,299,40,30,61,109,35,26,55,274,41,08,53,104,37*7D
$GPGSV,4,2,14,48,32,192,32,07,31,115,34,17,29,182,38,15,26,310,35*72
$GPGSV,4,3,14,11,25,083,39,19,16,039,35,01,12,102,33,03,05,040,18*74
$GPGSV,4,4,14,18,02,342,,05,01,244,33*74
$GPRMC,200017.8,A,4917.9019,N,12310.6320,W,7.33,122.70,220614,018.2,E*73
$IIMTW,+13.5,C*3F
$HCHDG,108.2,0.0,E,,*22
$IIMWV,122,R,05.9,N,A*1E
$YXXDR,A,4.7,D,PTCH,A,-4.1,D,ROLL*76
$IIMWV,154,T,11.7,N,A*12
$GPRMC,200018.0,A,4917.9017,N,12310.6314,W,7.60,120.82,220614,018.2,E*74
$HCHDG,108.2,0.0,E,,*22
$YXXDR,A,4.7,D,PTCH,A,-4.3,D,ROLL*74
$HCHDG,108.5,0.0,E,,*25
$YXXDR,A,4.7,D,PTCH,A,-4.5,D,ROLL*72
$IIVHW,,,,,07.4,N,,*1A
$IIVLW,06869,N,016.4,N*51
$HCHDG,108.4,0.0,E,,*24
$GPRMC,200018.2,A,4917.9014,N,12310.6309,W,7.43,121.70,220614,018.2,E*74
$YXXDR,A,4.8,D,PTCH,A,-4.7,D,ROLL*7F
$HCHDG,108.6,0.0,E,,*26
$YXXDR,A,4.8,D,PTCH,A,-5.0,D,ROLL*79
$GPRMC,200018.4,A,4917.9012,N,12310.6303,W,7.42,122.74,220614,018.2,E*78
$HCHDG,108.6,0.0,E,,*26
$YXXDR,A,5.2,D,PTCH,A,-5.3,D,ROLL*71
$TIROT,40.9,A*06
$HCHDG,108.8,0.0,E,,*28
$YXXDR,A,5.1,D,PTCH,A,-5.2,D,ROLL*73
$HCHDG,108.8,0.0,E,,*28
$GPRMC,200018.6,A,4917.9010,N,12310.6298,W,7.44,121.87,220614,018.2,E*72
$YXXDR,A,5.0,D,PTCH,A,-5.1,D,ROLL*71
$IIVWR,121,R,05.8,N,,,,*6E
$HCHDG,108.9,0.0,E,,*29
$YXXDR,A,4.8,D,PTCH,A,-5.0,D,ROLL*79
$HCHDG,108.9,0.0,E,,*29
$GPGGA,200018.800,4917.9008,N,12310.6292,W,2,10,0.99,-0.3,M,-16.8,M,0000,0000*77
$GPGSA,A,3,11,28,17,19,01,26,15,30,07,08,,,1.69,0.99,1.38*0F
$GPGSV,4,1,14,28,85,299,40,30,61,109,35,26,55,274,40,08,53,104,38*73
$YXXDR,A,4.8,D,PTCH,A,-4.8,D,ROLL*70
$GPGSV,4,2,14,48,32,192,30,07,31,115,33,17,29,182,39,15,26,310,37*74
$GPGSV,4,3,14,11,25,083,41,19,16,039,38,01,12,102,34,03,05,040,18*71
$GPGSV,4,4,14,18,02,342,,05,01,244,31*76
$GPRMC,200018.8,A,4917.9008,N,12310.6292,W,7.39,121.97,220614,018.2,E*74
$IIMTW,+13.5,C*3F
$HCHDG,108.8,0.0,E,,*28
$IIMWV,121,R,05.8,N,A*1C
$YXXDR,A,4.7,D,PTCH,A,-4.6,D,ROLL*71
$IIMWV,155,T,11.7,N,A*13
$GPRMC,200019.0,A,4917.9006,N,12310.6287,W,7.36,122.26,220614,018.2,E*71
$HCHDG,109.0,0.0,E,,*21
$YXXDR,A,4.6,D,PTCH,A,-4.4,D,ROLL*72
$HCHDG,108.9,0.0,E,,*29
$YXXDR,A,4.5,D,PTCH,A,-4.4,D,ROLL*71
$IIVHW,,,,,07.2,N,,*1C
$IIVLW,06869,N,016.4,N*51
$HCHDG,108.9,0.0,E,,*29
$GPRMC,200019.2,A,4917.9004,N,12310.6281,W,7.31,122.66,220614,018.2,E*74
$YXXDR,A,4.6,D,PTCH,A,-4.1,D,ROLL*77
$HCHDG,109.0,0.0,E,,*21
$YXXDR,A,4.6,D,PTCH,A,-4.0,D,ROLL*76
$HCHDG,108.6,0.0,E,,*26
$GPRMC,200019.4,A,4917.9002,N,12310.6274,W,7.31,121.67,220614,018.2,E*7C
$YXXDR,A,4.5,D,PTCH,A,-3.9,D,ROLL*7B
$TIROT,3.4,A*3C
$HCHDG,108.7,0.0,E,,*27
$YXXDR,A,4.7,D,PTCH,A,-3.8,D,ROLL*78
$HCHDG,108.7,0.0,E,,*27
$GPRMC,200019.6,A,4917.9000,N,12310.6268,W,7.30,123.21,220614,018.2,E*70
$YXXDR,A,4.8,D,PTCH,A,-3.8,D,ROLL*77
$IIVWR,120,R,05.8,N,,,,*6F
$HCHDG,108.6,0.0,E,,*26
$YXXDR,A,4.8,D,PTCH,A,-3.8,D,ROLL*77
$HCHDG,108.4,0.0,E,,*24
$GPGGA,200019.800,4917.8998,N,12310.6263,W,2,11,0.95,-0.4,M,-16.8,M,0000,0000*73
$YXXDR,A,4.8,D,PTCH,A,-3.8,D,ROLL*77
$GPGSA,A,3,11,28,17,19,01,26,03,15,30,07,08,,1.60,0.95,1.30*01
$GPGSV,4,1,14,28,85,299,43,30,61,109,34,26,55,274,32,08,53,104,36*7A
$GPGSV,4,2,14,48,32,192,34,07,31,115,34,17,29,182,37,15,26,310,36*78
$GPGSV,4,3,14,11,25,083,40,19,16,039,37,01,12,102,35,03,05,040,17*71
$IIMTW,+13.5,C*3F
$GPGSV,4,4,14,18,02,342,,05,01,244,31*76
$GPRMC,200019.8,A,4917.8998,N,12310.6263,W,7.29,124.11,220614,018.2,E*70
$IIMWV,120,R,05.8,N,A*1D
$IIMWV,155,T,11.4,N,A*10
$HCHDG,108.7,0.0,E,,*27
$YXXDR,A,4.8,D,PTCH,A,-3.9,D,ROLL*76
$HCHDG,108.6,0.0,E,,*26
$GPRMC,200020.0,A,4917.8996,N,12310.6259,W,7.48,124.69,220614,018.2,E*7D
$YXXDR,A,4.7,D,PTCH,A,-3.9,D,ROLL*79
$HCHDG,108.6,0.0,E,,*26
$YXXDR,A,4.7,D,PTCH,A,-3.9,D,ROLL*79
$IIVHW,,,,,07.1,N,,*1F
$IIVLW,06869,N,016.4,N*51
$HCHDG,108.4,0.0,E,,*24
$GPRMC,200020.2,A,4917.8993,N,12310.6253,W,7.47,124.37,220614,018.2,E*74
$YXXDR,A,4.7,D,PTCH,A,-3.8,D,ROLL*78
$HCHDG,108.2,0.0,E,,*22
$YXXDR,A,4.7,D,PTCH,A,-3.2,D,ROLL*72
$HCHDG,108.2,0.0,E,,*22
$GPRMC,200020.4,A,4917.8991,N,12310.6248,W,7.42,122.24,220614,018.2,E*7B
$YXXDR,A,4.6,D,PTCH,A,-2.8,D,ROLL*78
$TIROT,-42.0,A*20
$HCHDG,108.0,0.0,E,,*20
$YXXDR,A,4.6,D,PTCH,A,-2.3,D,ROLL*73
$GPRMC,200020.6,A,4917.8988,N,12310.6243,W,7.41,122.21,220614,018.2,E*7C
$HCHDG,107.8,0.0,E,,*27
$YXXDR,A,4.8,D,PTCH,A,-1.8,D,ROLL*75
$IIVWR,119,R,05.8,N,,,,*65
$HCHDG,107.3,0.0,E,,*2C
$YXXDR,A,4.8,D,PTCH,A,-1.4,D,ROLL*79
$HCHDG,107.2,0.0,E,,*2D
$GPGGA,200020.800,4917.8986,N,12310.6237,W,2,10,0.99,-0.3,M,-16.8,M,0000,0000*7D
$GPGSA,A,3,11,28,17,19,01,26,15,30,07,08,,,1.70,0.99,1.38*07
$GPGSV,4,1,14,28,85,299,43,30,61,109,33,26,55,274,42,08,53,104,32*7E
$GPGSV,4,2,14,48,32,192,39,07,31,115,34,17,29,182,39,15,26,310,37*7A
$YXXDR,A,4.9,D,PTCH,A,-1.3,D,ROLL*7F
$GPGSV,4,3,14,11,25,083,41,19,16,039,28,01,12,102,33,03,05,040,17*78
$GPGSV,4,4,14,18,02,342,,05,01,244,27*71
$GPRMC,200020.8,A,4917.8986,N,12310.6237,W,7.42,122.50,220614,018.2,E*7A
$IIMTW,+13.5,C*3F
$HCHDG,107.0,0.0,E,,*2F
$IIMWV,119,R,05.8,N,A*17
$YXXDR,A,5.0,D,PTCH,A,-1.2,D,ROLL*76
$IIMWV,154,T,11.2,N,A*17
$HCHDG,106.7,0.0,E,,*29
$GPRMC,200021.0,A,4917.8984,N,12310.6233,W,7.49,121.21,220614,018.2,E*7B
$YXXDR,A,5.0,D,PTCH,A,-1.2,D,ROLL*76
$HCHDG,106.6,0.0,E,,*28
$YXXDR,A,5.0,D,PTCH,A,-1.3,D,ROLL*77
$IIVHW,,,,,07.2,N,,*1C
$GPRMC,200021.2,A,4917.8982,N,12310.6227,W,7.47,122.09,220614,018.2,E*7D
$IIVLW,06869,N,016.4,N*51
$HCHDG,106.6,0.0,E,,*28
$YXXDR,A,5.2,D,PTCH,A,-1.3,D,ROLL*75
$HCHDG,106.5,0.0,E,,*2B
$YXXDR,A,5.1,D,PTCH,A,-1.5,D,ROLL*70
$GPRMC,200021.4,A,4917.8980,N,12310.6222,W,7.52,121.52,220614,018.2,E*75
$HCHDG,106.5,0.0,E,,*2B
$YXXDR,A,4.9,D,PTCH,A,-1.3,D,ROLL*7F
$TIROT,-47.9,A*2C
$HCHDG,106.4,0.0,E,,*2A
$YXXDR,A,4.9,D,PTCH,A,-1.2,D,ROLL*7E
$HCHDG,106.1,0.0,E,,*2F
$GPRMC,200021.6,A,4917.8978,N,12310.6216,W,7.54,118.46,220614,018.2,E*7E
$YXXDR,A,4.8,D,PTCH,A,-1.0,D,ROLL*7D
$IIVWR,118,R,06.0,N,,,,*6F
$HCHDG,106.2,0.0,E,,*2C
$YXXDR,A,4.8,D,PTCH,A,-0.7,D,ROLL*7B
$GPGGA,200021.800,4917.8976,N,12310.6211,W,2,10,0.99,-0.2,M,-16.8,M,0000,0000*76
$GPGSA,A,3,11,28,17,19,01,26,15,30,07,08,,,1.70,0.99,1.38*07
$GPGSV,4,1,14,28,85,299,43,30,61,109,33,26,55,274,36,08,53,104,29*77
$HCHDG,106.2,0.0,E,,*2C
$GPGSV,4,2,14,48,32,192,38,07,31,115,34,17,29,182,38,15,26,310,37*7A
$GPGSV,4,3,14,11,25,083,38,19,16,039,34,01,12,102,34,03,05,040,15*7E
$GPGSV,4,4,14,18,02,342,,05,01,244,28*7E
$GPRMC,200021.8,A,4917.8976,N,12310.6211,W,7.56,120.63,220614,018.2,E*77
$YXXDR,A,4.8,D,PTCH,A,-0.6,D,ROLL*7A
$IIMTW,+13.5,C*3F
$IIMWV,118,R,06.0,N,A*1D
$HCHDG,106.1,0.0,E,,*2F
$YXXDR,A,4.7,D,PTCH,A,-0.3,D,ROLL*70
$IIMWV,153,T,11.1,N,A*13
$GPRMC,200022.0,A,4917.8974,N,12310.6206,W,7.53,119.59,220614,018.2,E*7E
$HCHDG,105.9,0.0,E,,*24
$YXXDR,A,4.6,D,PTCH,A,-0.1,D,ROLL*73
$HCHDG,105.9,0.0,E,,*24
$YXXDR,A,4.5,D,PTCH,A,0.0,D,ROLL*5C
$IIVHW,,,,,07.3,N,,*1D
$GPRMC,200022.2,A,4917.8972,N,12310.6201,W,7.53,120.32,220614,018.2,E*7A
$IIVLW,06869,N,016.4,N*51
$HCHDG,105.9,0.0,E,,*24
$YXXDR,A,4.6,D,PTCH,A,-0.1,D,ROLL*73
$HCHDG,105.5,0.0,E,,*28
$YXXDR,A,4.7,D,PTCH,A,-0.2,D,ROLL*71
$GPRMC,200022.4,A,4917.8969,N,12310.6195,W,7.55,120.99,220614,018.2,E*7F
$HCHDG,105.6,0.0,E,,*2B
$YXXDR,A,4.7,D,PTCH,A,0.0,D,ROLL*5E
$TIROT,35.2,A*0F
$HCHDG,105.5,0.0,E,,*28
$YXXDR,A,4.9,D,PTCH,A,-0.1,D,ROLL*7C
$GPRMC,200022.6,A,4917.8966,N,12310.6190,W,7.74,120.25,220614,018.2,E*73
$HCHDG,105.5,0.0,E,,*28
$YXXDR,A,5.0,D,PTCH,A,-0.3,D,ROLL*76
$IIVWR,116,R,05.9,N,,,,*6B
$HCHDG,105.6,0.0,E,,*2B
$YXXDR,A,5.0,D,PTCH,A,-0.5,D,ROLL*70
$GPGGA,200022.800,4917.8964,N,12310.6184,W,2,10,0.99,-0.2,M,-16.8,M,0000,0000*79
$GPGSA,A,3,11,28,17,19,01,26,15,30,07,08,,,1.70,0.99,1.38*07
$GPGSV,4,1,14,28,85,299,43,30,61,109,29,26,55,274,41,08,53,104,28*7D
$GPGSV,4,2,14,48,32,192,39,07,31,115,34,17,29,182,39,15,26,310,38*75
$GPGSV,4,3,14,11,25,083,39,19,16,039,28,01,12,102,33,03,05,040,14*74
$GPGSV,4,4,14,18,02,342,,05,01,244,27*71
$GPRMC,200022.8,A,4917.8964,N,12310.6184,W,7.72,120.28,220614,018.2,E*71
$HCHDG,105.5,0.0,E,,*28
$YXXDR,A,4.9,D,PTCH,A,-0.7,D,ROLL*7A
$IIMTW,+13.5,C*3F
$IIMWV,116,R,05.9,N,A*19
$HCHDG,105.9,0.0,E,,*24
$YXXDR,A,5.0,D,PTCH,A,-0.8,D,ROLL*7D
$IIMWV,153,T,11.3,N,A*11
$HCHDG,105.8,0.0,E,,*25
$GPRMC,200023.0,A,4917.8961,N,12310.6179,W,7.78,120.65,220614,018.2,E*7C
$YXXDR,A,5.1,D,PTCH,A,-0.9,D,ROLL*7D
$HCHDG,105.8,0.0,E,,*25
$YXXDR,A,5.2,D,PTCH,A,-0.8,D,ROLL*7F
$IIVHW,,,,,07.3,N,,*1D
$IIVLW,06869,N,016.4,N*51
$HCHDG,105.8,0.0,E,,*25
$GPRMC,200023.2,A,4917.8958,N,12310.6174,W,7.77,120.89,220614,018.2,E*74
$YXXDR,A,5.1,D,PTCH,A,-0.7,D,ROLL*73
$HCHDG,105.8,0.0,E,,*25
$YXXDR,A,5.1,D,PTCH,A,-0.7,D,ROLL*73
$GPRMC,200023.4,A,4917.8955,N,12310.6168,W,7.73,121.25,220614,018.2,E*71
$HCHDG,106.0,0.0,E,,*2E
$YXXDR,A,5.0,D,PTCH,A,-0.7,D,ROLL*72
$TIROT,58.5,A*03
$HCHDG,106.1,0.0,E,,*2F
$YXXDR,A,5.0,D,PTCH,A,-0.7,D,ROLL*72
$HCHDG,106.2,0.0,E,,*2C
$GPRMC,200023.6,A,4917.8953,N,12310.6163,W,7.71,121.32,220614,018.2,E*7A
$YXXDR,A,4.9,D,PTCH,A,-0.7,D,ROLL*7A
$IIVWR,119,R,05.8,N,,,,*65
$HCHDG,106.5,0.0,E,,*2B
$YXXDR,A,4.9,D,PTCH,A,-0.7,D,ROLL*7A
$HCHDG,106.7,0.0,E,,*29
$GPGGA,200023.800,4917.8950,N,12310.6157,W,2,10,0.99,-0.2,M,-16.8,M,0000,0000*71
$YXXDR,A,4.8,D,PTCH,A,-1.0,D,ROLL*7D
$GPGSA,A,3,11,28,17,19,01,26,15,30,07,08,,,1.70,0.99,1.38*07
$GPGSV,4,1,14,28,85,299,43,30,61,109,28,26,55,274,38,08,53,104,26*7C
$GPGSV,4,2,14,48,32,192,40,07,31,115,32,17,29,182,40,15,26,310,38*73
$GPGSV,4,3,14,11,25,083,40,19,16,039,26,01,12,102,32,03,05,040,15*74
$IIMTW,+13.5,C*3F
$GPGSV,4,4,14,18,02,342,,05,01,244,25*73
$GPRMC,200023.8,A,4917.8950,N,12310.6157,W,7.75,120.09,220614,018.2,E*7D
$IIMWV,119,R,05.8,N,A*17
$IIMWV,151,T,11.1,N,A*11
$HCHDG,107.0,0.0,E,,*2F
$YXXDR,A,4.9,D,PTCH,A,-1.2,D,ROLL*7E
$HCHDG,107.3,0.0,E,,*2C
$YXXDR,A,4.8,D,PTCH,A,-1.7,D,ROLL*7A
$GPRMC,200024.0,A,4917.8948,N,12310.6152,W,7.93,119.48,220614,018.2,E*79
$HCHDG,107.6,0.0,E,,*29
$YXXDR,A,5.0,D,PTCH,A,-2.0,D,ROLL*77
$IIVHW,,,,,07.2,N,,*1C
$IIVLW,06869,N,016.4,N*51
$GPRMC,200024.2,A,4917.8946,N,12310.6146,W,7.96,119.44,220614,018.2,E*79
$HCHDG,107.8,0.0,E,,*27
$YXXDR,A,5.0,D,PTCH,A,-2.3,D,ROLL*74
$HCHDG,108.0,0.0,E,,*20
$YXXDR,A,4.9,D,PTCH,A,-2.5,D,ROLL*7A
$HCHDG,108.2,0.0,E,,*22
$GPRMC,200024.4,A,4917.8943,N,12310.6140,W,7.53,122.68,220614,018.2,E*73
$YXXDR,A,4.8,D,PTCH,A,-2.7,D,ROLL*79
$TIROT,69.5,A*01
$HCHDG,108.5,0.0,E,,*25
$YXXDR,A,4.7,D,PTCH,A,-2.9,D,ROLL*78
$GPRMC,200024.6,A,4917.8941,N,12310.6135,W,7.59,120.74,220614,018.2,E*74
$HCHDG,108.9,0.0,E,,*29
$YXXDR,A,4.7,D,PTCH,A,-3.2,D,ROLL*72
$IIVWR,121,R,05.8,N,,,,*6E
$HCHDG,109.1,0.0,E,,*20
$YXXDR,A,4.6,D,PTCH,A,-3.5,D,ROLL*74
$HCHDG,109.3,0.0,E,,*22
$GPGGA,200024.800,4917.8939,N,12310.6129,W,2,10,0.99,-0.2,M,-16.8,M,0000,0000*70
$GPGSA,A,3,11,28,17,19,01,26,15,30,07,08,,,1.70,0.99,1.38*07
$GPGSV,4,1,14,28,85,299,43,30,61,109,32,26,55,274,42,08,53,104,28*74
$GPGSV,4,2,14,48,32,192,36,07,31,115,25,17,29,182,40,15,26,310,37*7B
$GPGSV,4,3,14,11,25,083,37,19,16,039,35,01,12,102,35,03,05,040,13*77
$YXXDR,A,4.7,D,PTCH,A,-3.6,D,ROLL*76
$GPGSV,4,4,14,18,02,342,,05,01,244,27*71
$GPRMC,200024.8,A,4917.8939,N,12310.6129,W,7.59,121.72,220614,018.2,E*7F
$IIMTW,+13.5,C*3F
$IIMWV,121,R,05.8,N,A*1C
$HCHDG,109.3,0.0,E,,*22
$YXXDR,A,4.7,D,PTCH,A,-3.8,D,ROLL*78
$IIMWV,153,T,11.1,N,A*13
$GPRMC,200025.0,A,4917.8937,N,12310.6124,W,7.59,123.11,220614,018.2,E*72
$HCHDG,109.4,0.0,E,,*25
$YXXDR,A,4.7,D,PTCH,A,-3.9,D,ROLL*79
$HCHDG,109.7,0.0,E,,*26
$YXXDR,A,4.8,D,PTCH,A,-4.1,D,ROLL*79
$IIVHW,,,,,07.2,N,,*1C
$IIVLW,06869,N,016.4,N*51
$HCHDG,109.8,0.0,E,,*29
$GPRMC,200025.2,A,4917.8935,N,12310.6119,W,7.60,124.76,220614,018.2,E*70
$YXXDR,A,4.7,D,PTCH,A,-4.1,D,ROLL*76
$HCHDG,109.9,0.0,E,,*28
$YXXDR,A,4.8,D,PTCH,A,-4.4,D,ROLL*7C
$HCHDG,109.7,0.0,E,,*26
$GPRMC,200025.4,A,4917.8933,N,12310.6116,W,7.39,123.93,220614,018.2,E*7F
$YXXDR,A,4.7,D,PTCH,A,-4.5,D,ROLL*72
$TIROT,8.6,A*35
$HCHDG,109.9,0.0,E,,*28
$YXXDR,A,4.8,D,PTCH,A,-4.7,D,ROLL*7F
$HCHDG,109.9,0.0,E,,*28
$GPRMC,200025.6,A,4917.8931,N,12310.6112,W,7.45,123.41,220614,018.2,E*7F
$YXXDR,A,4.9,D,PTCH,A,-4.7,D,ROLL*7E
$IIVWR,122,R,05.5,N,,,,*60
$HCHDG,110.3,0.0,E,,*2A
$YXXDR,A,4.8,D,PTCH,A,-5.0,D,ROLL*79
$GPGGA,200025.800,4917.8928,N,12310.6107,W,2,10,0.99,-0.4,M,-16.8,M,0000,0000*7B
$GPGSA,A,3,11,28,17,19,01,26,15,30,07,08,,,1.70,0.99,1.38*07
$HCHDG,110.3,0.0,E,,*2A
$GPGSV,4,1,14,28,85,299,41,30,61,109,33,26,55,274,41,08,53,104,34*79
$GPGSV,4,2,14,48,32,192,31,07,31,115,24,17,29,182,41,15,26,310,38*73
$GPGSV,4,3,14,11,25,083,39,19,16,039,36,01,12,102,35,03,05,040,15*7C
$GPGSV,4,4,14,18,02,342,,05,01,244,28*7E
$YXXDR,A,4.7,D,PTCH,A,-4.8,D,ROLL*7F
$IIMTW,+13.5,C*3F
$GPRMC,200025.8,A,4917.8928,N,12310.6107,W,7.40,124.56,220614,018.2,E*79
$HCHDG,110.4,0.0,E,,*2D
$IIMWV,122,R,05.5,N,A*12
$YXXDR,A,4.7,D,PTCH,A,-4.5,D,ROLL*72
$IIMWV,154,T,11.3,N,A*16
$HCHDG,110.5,0.0,E,,*2C
$GPRMC,200026.0,A,4917.8925,N,12310.6101,W,7.42,124.49,220614,018.2,E*75
$YXXDR,A,4.7,D,PTCH,A,-4.4,D,ROLL*73
$HCHDG,110.3,0.0,E,,*2A
$YXXDR,A,4.7,D,PTCH,A,-4.3,D,ROLL*74
$IIVHW,,,,,07.2,N,,*1C
$IIVLW,06869,N,016.4,N*51
$HCHDG,110.3,0.0,E,,*2A
$GPRMC,200026.2,A,4917.8922,N,12310.6094,W,7.43,124.17,220614,018.2,E*77
$YXXDR,A,4.7,D,PTCH,A,-4.2,D,ROLL*75
$HCHDG,110.3,0.0,E,,*2A
$YXXDR,A,4.7,D,PTCH,A,-4.1,D,ROLL*76
$GPRMC,200026.4,A,4917.8919,N,12310.6088,W,7.39,125.76,220614,018.2,E*7F
$HCHDG,110.3,0.0,E,,*2A
$YXXDR,A,4.7,D,PTCH,A,-4.1,D,ROLL*76
$TIROT,33.3,A*08
$HCHDG,110.5,0.0,E,,*2C
$YXXDR,A,4.7,D,PTCH,A,-4.2,D,ROLL*75
$GPRMC,200026.6,A,4917.8917,N,12310.6081,W,7.37,124.74,220614,018.2,E*77
$HCHDG,110.3,0.0,E,,*2A
$YXXDR,A,4.7,D,PTCH,A,-4.3,D,ROLL*74
$IIVWR,122,R,05.3,N,,,,*66
$HCHDG,110.3,0.0,E,,*2A
$YXXDR,A,4.7,D,PTCH,A,-4.4,D,ROLL*73
$HCHDG,110.4,0.0,E,,*2D
$GPGGA,200026.800,4917.8914,N,12310.6075,W,2,10,0.99,-0.5,M,-16.8,M,0000,0000*72
$GPGSA,A,3,11,28,17,19,01,26,15,30,07,08,,,1.70,0.99,1.38*07
$YXXDR,A,4.8,D,PTCH,A,-4.4,D,ROLL*7C
$GPGSV,4,1,14,28,85,299,40,30,61,109,32,26,55,274,38,08,53,104,30*73
$GPGSV,4,2,14,48,32,192,32,07,31,115,25,17,29,182,41,15,26,310,39*70
$GPGSV,4,3,14,11,25,083,42,19,16,039,36,01,12,102,34,03,05,040,16*72
$GPGSV,4,4,14,18,02,342,,05,01,244,26*70
$IIMTW,+13.5,C*3F
$GPRMC,200026.8,A,4917.8914,N,12310.6075,W,7.37,125.48,220614,018.2,E*7F
$IIMWV,122,R,05.3,N,A*14
$HCHDG,110.4,0.0,E,,*2D
$YXXDR,A,4.8,D,PTCH,A,-4.4,D,ROLL*7C
$IIMWV,155,T,11.0,N,A*14
$GPRMC,200027.0,A,4917.8912,N,12310.6069,W,7.36,124.66,220614,018.2,E*71
$HCHDG,110.4,0.0,E,,*2D
$YXXDR,A,4.7,D,PTCH,A,-4.3,D,ROLL*74
$HCHDG,110.3,0.0,E,,*2A
$YXXDR,A,4.7,D,PTCH,A,-4.1,D,ROLL*76
$IIVHW,,,,,07.2,N,,*1C
$IIVLW,06869,N,016.4,N*51
$GPRMC,200027.2,A,4917.8909,N,12310.6063,W,7.36,124.20,220614,018.2,E*71
$HCHDG,110.3,0.0,E,,*2A
$YXXDR,A,4.6,D,PTCH,A,-4.0,D,ROLL*76
$HCHDG,110.4,0.0,E,,*2D
$YXXDR,A,4.7,D,PTCH,A,-3.9,D,ROLL*79
$GPRMC,200027.4,A,4917.8907,N,12310.6058,W,7.36,124.97,220614,018.2,E*7D
$HCHDG,110.4,0.0,E,,*2D
$YXXDR,A,4.7,D,PTCH,A,-3.8,D,ROLL*78
$TIROT,50.6,A*08
$HCHDG,110.3,0.0,E,,*2A
$YXXDR,A,4.7,D,PTCH,A,-3.8,D,ROLL*78
$GPRMC,200027.6,A,4917.8904,N,12310.6053,W,7.34,125.67,220614,018.2,E*7B
$HCHDG,110.3,0.0,E,,*2A
$YXXDR,A,4.5,D,PTCH,A,-3.7,D,ROLL*75
$IIVWR,122,R,05.4,N,,,,*61
$HCHDG,110.3,0.0,E,,*2A
$YXXDR,A,4.5,D,PTCH,A,-3.5,D,ROLL*77
$GPGGA,200027.800,4917.8902,N,12310.6048,W,2,10,0.99,-0.6,M,-16.8,M,0000,0000*79
$GPGSA,A,3,11,28,17,19,01,26,15,30,07,08,,,1.70,0.99,1.38*07
$GPGSV,4,1,14,28,85,299,43,30,61,109,26,26,55,274,40,08,53,104,31*7B
$GPGSV,4,2,14,48,32,192,35,07,31,115,25,17,29,182,40,15,26,310,38*77
$GPGSV,4,3,14,11,25,082,40,19,16,039,26,01,12,102,32,03,05,040,15*75
$GPGSV,4,4,14,18,02,342,,05,01,244,23*75
$GPRMC,200027.8,A,4917.8902,N,12310.6048,W,7.33,127.87,220614,018.2,E*72
$HCHDG,110.3,0.0,E,,*2A
$YXXDR,A,4.4,D,PTCH,A,-3.5,D,ROLL*76
$IIMTW,+13.5,C*3F
$IIMWV,122,R,05.4,N,A*13
$HCHDG,110.3,0.0,E,,*2A
$YXXDR,A,4.5,D,PTCH,A,-3.4,D,ROLL*76
$IIMWV,156,T,10.9,N,A*1F
$GPRMC,200028.0,A,4917.8899,N,12310.6044,W,7.53,126.74,220614,018.2,E*71
$HCHDG,110.3,0.0,E,,*2A
$YXXDR,A,4.6,D,PTCH,A,-3.5,D,ROLL*74
$HCHDG,110.3,0.0,E,,*2A
$YXXDR,A,4.4,D,PTCH,A,-3.5,D,ROLL*76
$IIVHW,,,,,07.1,N,,*1F
$IIVLW,06869,N,016.4,N*51
$GPRMC,200028.2,A,4917.8896,N,12310.6038,W,7.49,125.92,220614,018.2,E*77
$HCHDG,110.4,0.0,E,,*2D
$YXXDR,A,4.6,D,PTCH,A,-3.5,D,ROLL*74
$HCHDG,110.5,0.0,E,,*2C
$YXXDR,A,4.6,D,PTCH,A,-3.5,D,ROLL*74
$GPRMC,200028.4,A,4917.8894,N,12310.6033,W,7.67,125.18,220614,018.2,E*76
$HCHDG,110.4,0.0,E,,*2D
$YXXDR,A,4.6,D,PTCH,A,-3.5,D,ROLL*74
$TIROT,64.5,A*0C
$HCHDG,110.3,0.0,E,,*2A
$YXXDR,A,4.6,D,PTCH,A,-3.5,D,ROLL*74
$GPRMC,200028.6,A,4917.8891,N,12310.6027,W,7.64,123.46,220614,018.2,E*7A
$HCHDG,110.3,0.0,E,,*2A
$YXXDR,A,4.8,D,PTCH,A,-3.4,D,ROLL*7B
$IIVWR,121,R,05.6,N,,,,*60
$HCHDG,110.2,0.0,E,,*2B
$YXXDR,A,4.8,D,PTCH,A,-3.4,D,ROLL*7B
$HCHDG,110.1,0.0,E,,*28
$GPGGA,200028.800,4917.8888,N,12310.6022,W,2,11,0.95,-0.4,M,-16.8,M,0000,0000*76
$GPGSA,A,3,11,28,17,19,01,26,03,15,30,07,08,,1.61,0.95,1.30*00
$GPGSV,4,1,14,28,85,299,43,30,61,109,24,26,55,274,43,08,53,104,31*7A
$YXXDR,A,4.8,D,PTCH,A,-3.4,D,ROLL*7B
$GPGSV,4,2,14,48,32,192,39,07,31,115,23,17,29,182,37,15,26,310,35*70
$GPGSV,4,3,14,11,25,082,41,19,16,039,26,01,12,102,28,03,05,040,15*7F
$GPGSV,4,4,14,18,02,342,,05,01,244,21*77
$GPRMC,200028.8,A,4917.8888,N,12310.6022,W,7.82,124.39,220614,018.2,E*7E
$IIMTW,+13.5,C*3F
$HCHDG,110.1,0.0,E,,*28
$IIMWV,121,R,05.6,N,A*12
$YXXDR,A,4.8,D,PTCH,A,-3.4,D,ROLL*7B
$IIMWV,156,T,10.9,N,A*1F
$GPRMC,200029.0,A,4917.8886,N,12310.6016,W,7.64,123.83,220614,018.2,E*70
$HCHDG,110.2,0.0,E,,*2B
$YXXDR,A,4.7,D,PTCH,A,-4.3,D,ROLL*74
$HCHDG,110.2,0.0,E,,*2B
$YXXDR,A,4.7,D,PTCH,A,-4.5,D,ROLL*72
$IIVHW,,,,,07.2,N,,*1C
$IIVLW,06869,N,016.4,N*51
$GPRMC,200029.2,A,4917.8883,N,12310.6011,W,7.71,125.62,220614,018.2,E*7D
$HCHDG,110.2,0.0,E,,*2B
$YXXDR,A,4.7,D,PTCH,A,-4.5,D,ROLL*72
$HCHDG,110.1,0.0,E,,*28
$YXXDR,A,4.7,D,PTCH,A,-4.4,D,ROLL*73
$GPRMC,200029.4,A,4917.8881,N,12310.6006,W,7.76,126.13,220614,018.2,E*7D
$HCHDG,110.2,0.0,E,,*2B
$YXXDR,A,4.6,D,PTCH,A,-4.4,D,ROLL*72
$TIROT,1.4,A*3E
$HCHDG,110.3,0.0,E,,*2A
$YXXDR,A,4.6,D,PTCH,A,-4.3,D,ROLL*75
$GPRMC,200029.6,A,4917.8878,N,12310.6001,W,7.79,125.90,220614,018.2,E*79
$HCHDG,110.2,0.0,E,,*2B
$YXXDR,A,4.7,D,PTCH,A,-4.1,D,ROLL*76
$IIVWR,120,R,05.6,N,,,,*61
$HCHDG,110.0,0.0,E,,*29
$YXXDR,A,4.7,D,PTCH,A,-3.9,D,ROLL*79
$GPGGA,200029.800,4917.8875,N,12310.5995,W,2,11,0.95,-0.2,M,-16.8,M,0000,0000*75
$GPGSA,A,3,11,28,17,19,01,26,03,15,30,07,08,,1.61,0.95,1.30*00
$GPGSV,4,1,14,28,85,299,43,30,61,109,27,26,55,274,41,08,53,104,30*7A
$GPGSV,4,2,14,48,32,192,38,07,31,115,25,17,29,182,35,15,26,310,36*76
$GPGSV,4,3,14,11,25,082,41,19,16,039,24,01,12,102,31,03,05,040,16*76
$HCHDG,110.0,0.0,E,,*29
$YXXDR,A,4.7,D,PTCH,A,-3.9,D,ROLL*79
$GPGSV,4,4,14,18,02,342,,05,01,244,23*75
$GPRMC,200029.8,A,4917.8875,N,12310.5995,W,7.83,126.25,220614,018.2,E*75
$IIMTW,+13.5,C*3F
$IIMWV,120,R,05.6,N,A*13
$HCHDG,110.0,0.0,E,,*29
$YXXDR,A,4.8,D,PTCH,A,-4.1,D,ROLL*79
$IIMWV,155,T,11.1,N,A*15
$GPRMC,200030.0,A,4917.8872,N,12310.5990,W,7.82,125.01,220614,018.2,E*73
$HCHDG,110.0,0.0,E,,*29
$YXXDR,A,4.8,D,PTCH,A,-4.1,D,ROLL*79
$HCHDG,110.0,0.0,E,,*29
$YXXDR,A,4.8,D,PTCH,A,-3.9,D,ROLL*76
$IIVHW,,,,,07.2,N,,*1C
$IIVLW,06869,N,016.4,N*51
$HCHDG,109.6,0.0,E,,*27
$GPRMC,200030.2,A,4917.8870,N,12310.5984,W,7.85,125.29,220614,018.2,E*7B
$YXXDR,A,4.8,D,PTCH,A,-3.8,D,ROLL*77
$HCHDG,109.7,0.0,E,,*26
$YXXDR,A,4.8,D,PTCH,A,-3.8,D,ROLL*77
$HCHDG,109.6,0.0,E,,*27
$GPRMC,200030.4,A,4917.8867,N,12310.5978,W,8.14,124.78,220614,018.2,E*7A
$YXXDR,A,4.9,D,PTCH,A,-3.7,D,ROLL*79
$TIROT,-58.6,A*2D
$HCHDG,109.6,0.0,E,,*27
$YXXDR,A,5.0,D,PTCH,A,-3.8,D,ROLL*7E
$GPRMC,200030.6,A,4917.8865,N,12310.5972,W,8.15,123.51,220614,018.2,E*7D
$HCHDG,109.5,0.0,E,,*24
$YXXDR,A,5.0,D,PTCH,A,-3.8,D,ROLL*7E
$IIVWR,119,R,05.8,N,,,,*65
$HCHDG,109.5,0.0,E,,*24
$YXXDR,A,5.0,D,PTCH,A,-3.9,D,ROLL*7F
$HCHDG,109.5,0.0,E,,*24
$GPGGA,200030.800,4917.8863,N,12310.5966,W,2,11,0.95,-0.4,M,-16.8,M,0000,0000*70
$GPGSA,A,3,11,28,17,19,01,26,03,15,30,07,08,,1.61,0.95,1.30*00
$GPGSV,4,1,14,28,85,299,43,30,61,109,33,26,55,274,40,08,53,104,28*77
$YXXDR,A,5.1,D,PTCH,A,-3.8,D,ROLL*7F
$GPGSV,4,2,14,48,32,192,36,07,31,115,23,17,29,182,37,15,26,310,34*7E
$GPGSV,4,3,14,11,25,082,38,19,16,039,29,01,12,102,31,03,05,040,17*74
$GPGSV,4,4,14,18,02,342,,05,01,244,28*7E
$GPRMC,200030.8,A,4917.8863,N,12310.5966,W,8.08,123.86,220614,018.2,E*76
$IIMTW,+13.5,C*3F
$HCHDG,109.0,0.0,E,,*21
$IIMWV,119,R,05.8,N,A*17
$YXXDR,A,5.1,D,PTCH,A,-3.4,D,ROLL*73
$IIMWV,155,T,11.1,N,A*15
$HCHDG,108.9,0.0,E,,*29
$GPRMC,200031.0,A,4917.8860,N,12310.5961,W,7.63,124.78,220614,018.2,E*7F
$YXXDR,A,5.1,D,PTCH,A,-3.0,D,ROLL*77
$HCHDG,109.0,0.0,E,,*21
$YXXDR,A,5.1,D,PTCH,A,-2.4,D,ROLL*72
$IIVHW,,,,,07.2,N,,*1C
$IIVLW,06869,N,016.4,N*51
$HCHDG,108.8,0.0,E,,*28
$GPRMC,200031.2,A,4917.8858,N,12310.5955,W,7.71,123.11,220614,018.2,E*7A
$YXXDR,A,5.1,D,PTCH,A,-1.7,D,ROLL*72
$HCHDG,108.6,0.0,E,,*26
$YXXDR,A,4.8,D,PTCH,A,-1.1,D,ROLL*7C
$HCHDG,108.4,0.0,E,,*24
$GPRMC,200031.4,A,4917.8856,N,12310.5950,W,7.66,123.27,220614,018.2,E*74
$YXXDR,A,4.8,D,PTCH,A,-0.5,D,ROLL*79
$TIROT,-53.1,A*21
$HCHDG,108.6,0.0,E,,*26
$YXXDR,A,5.0,D,PTCH,A,-0.3,D,ROLL*76
$HCHDG,108.3,0.0,E,,*23
$GPRMC,200031.6,A,4917.8854,N,12310.5946,W,7.68,124.70,220614,018.2,E*78
$YXXDR,A,5.0,D,PTCH,A,-0.1,D,ROLL*74
$IIVWR,120,R,06.0,N,,,,*64
$HCHDG,108.4,0.0,E,,*24
$YXXDR,A,5.0,D,PTCH,A,-0.3,D,ROLL*76
$HCHDG,108.8,0.0,E,,*28
$GPGGA,200031.800,4917.8852,N,12310.5941,W,2,11,0.95,-0.4,M,-16.8,M,0000,0000*76
$GPGSA,A,3,11,28,17,19,01,26,03,15,30,07,08,,1.61,0.95,1.30*00
$GPGSV,4,1,14,28,85,300,43,30,61,110,32,26,55,274,39,08,53,104,31*79
$YXXDR,A,5.1,D,PTCH,A,-0.6,D,ROLL*72
$GPGSV,4,2,14,48,32,192,37,07,31,115,22,17,29,182,38,15,26,310,35*70
$GPGSV,4,3,14,11,25,082,35,19,16,039,30,01,12,102,35,03,05,040,15*77
$GPGSV,4,4,14,18,02,342,,05,01,244,28*7E
$GPRMC,200031.8,A,4917.8852,N,12310.5941,W,7.75,123.98,220614,018.2,E*7A
$IIMTW,+13.5,C*3F
$IIMWV,120,R,06.0,N,A*16
$HCHDG,108.6,0.0,E,,*26
$YXXDR,A,5.1,D,PTCH,A,-0.9,D,ROLL*7D
$IIMWV,153,T,11.1,N,A*13
$HCHDG,108.9,0.0,E,,*29
$GPRMC,200032.0,A,4917.8850,N,12310.5937,W,7.71,124.22,220614,018.2,E*70
$YXXDR,A,5.1,D,PTCH,A,-1.1,D,ROLL*74
$HCHDG,109.0,0.0,E,,*21
$YXXDR,A,5.1,D,PTCH,A,-1.3,D,ROLL*76
$IIVHW,,,,,07.2,N,,*1C
$IIVLW,06869,N,016.4,N*51
$HCHDG,109.1,0.0,E,,*20
$GPRMC,200032.2,A,4917.8847,N,12310.5932,W,7.70,123.49,220614,018.2,E*7A
$YXXDR,A,5.0,D,PTCH,A,-1.3,D,ROLL*77
$HCHDG,108.9,0.0,E,,*29
$YXXDR,A,5.0,D,PTCH,A,-1.2,D,ROLL*76
$HCHDG,109.1,0.0,E,,*20
$GPRMC,200032.4,A,4917.8845,N,12310.5926,W,7.66,124.18,220614,018.2,E*7F
$YXXDR,A,4.9,D,PTCH,A,-0.7,D,ROLL*7A
$TIROT,-10.3,A*24
$HCHDG,109.1,0.0,E,,*20
$YXXDR,A,4.8,D,PTCH,A,-0.5,D,ROLL*79
$HCHDG,109.4,0.0,E,,*25
$GPRMC,200032.6,A,4917.8843,N,12310.5920,W,7.40,123.65,220614,018.2,E*74
$YXXDR,A,4.8,D,PTCH,A,0.0,D,ROLL*51
$IIVWR,118,R,06.3,N,,,,*6C
$HCHDG,109.3,0.0,E,,*22
$YXXDR,A,4.8,D,PTCH,A,0.2,D,ROLL*53
$HCHDG,109.4,0.0,E,,*25
$GPGGA,200032.800,4917.8840,N,12310.5915,W,2,11,0.95,-0.4,M,-16.8,M,0000,0000*77
$GPGSA,A,3,11,28,17,19,01,26,03,15,30,07,08,,1.61,0.95,1.30*00
$GPGSV,4,1,14,28,85,300,42,30,61,110,24,26,55,274,42,08,53,104,31*73
$YXXDR,A,4.8,D,PTCH,A,1.1,D,ROLL*51
$GPGSV,4,2,14,48,32,192,41,07,31,115,25,17,29,182,42,15,26,310,34*7A
$GPGSV,4,3,14,11,25,082,37,19,16,039,30,01,12,102,36,03,05,040,15*76
$GPGSV,4,4,14,18,02,342,,05,01,244,29*7F
$GPRMC,200032.8,A,4917.8840,N,12310.5915,W,7.44,123.47,220614,018.2,E*7B
$IIMTW,+13.5,C*3F
$IIMWV,118,R,06.3,N,A*1E
$HCHDG,109.5,0.0,E,,*24
$YXXDR,A,5.1,D,PTCH,A,2.1,D,ROLL*5A
$IIMWV,153,T,11.5,N,A*17
$HCHDG,109.4,0.0,E,,*25
$GPRMC,200033.0,A,4917.8837,N,12310.5909,W,7.47,123.35,220614,018.2,E*79
$YXXDR,A,5.1,D,PTCH,A,2.1,D,ROLL*5A
$HCHDG,109.4,0.0,E,,*25
$YXXDR,A,5.1,D,PTCH,A,1.9,D,ROLL*51
$IIVHW,,,,,07.4,N,,*1A
$IIVLW,06869,N,016.4,N*51
$HCHDG,109.7,0.0,E,,*26
$GPRMC,200033.2,A,4917.8835,N,12310.5904,W,7.47,122.30,220614,018.2,E*70
$YXXDR,A,4.9,D,PTCH,A,1.6,D,ROLL*57
$HCHDG,109.6,0.0,E,,*27
$YXXDR,A,4.9,D,PTCH,A,1.4,D,ROLL*55
$GPRMC,200033.4,A,4917.8832,N,12310.5899,W,7.49,123.01,220614,018.2,E*79
$HCHDG,109.6,0.0,E,,*27
$YXXDR,A,5.0,D,PTCH,A,1.0,D,ROLL*59
$TIROT,139.8,A*38
$HCHDG,109.7,0.0,E,,*26
$YXXDR,A,5.0,D,PTCH,A,0.7,D,ROLL*5F
$GPRMC,200033.6,A,4917.8830,N,12310.5894,W,7.52,122.68,220614,018.2,E*70
$HCHDG,109.9,0.0,E,,*28
$YXXDR,A,5.1,D,PTCH,A,0.4,D,ROLL*5D
$IIVWR,118,R,06.4,N,,,,*6B
$HCHDG,110.1,0.0,E,,*28
$YXXDR,A,5.0,D,PTCH,A,0.0,D,ROLL*58
$HCHDG,110.1,0.0,E,,*28
$YXXDR,A,5.1,D,PTCH,A,-0.4,D,ROLL*70
$GPGGA,200033.800,4917.8827,N,12310.5889,W,2,11,0.95,-0.4,M,-16.8,M,0000,0000*73
$GPGSA,A,3,11,28,17,19,01,26,03,15,30,07,08,,1.61,0.95,1.30*00
$GPGSV,4,1,14,28,85,300,42,30,61,110,34,26,55,274,39,08,53,104,35*7A
$GPGSV,4,2,14,48,32,192,42,07,31,115,27,17,29,182,41,15,26,310,34*78
$GPGSV,4,3,14,11,25,082,39,19,16,039,24,01,12,102,33,03,05,040,15*78
$GPGSV,4,4,14,18,02,342,,05,01,244,26*70
$GPRMC,200033.8,A,4917.8827,N,12310.5889,W,7.55,123.71,220614,018.2,E*7A
$IIMTW,+13.5,C*3F
$IIMWV,118,R,06.4,N,A*19
$HCHDG,110.4,0.0,E,,*2D
$YXXDR,A,5.1,D,PTCH,A,-1.0,D,ROLL*75
$IIMWV,152,T,11.6,N,A*15
$HCHDG,110.6,0.0,E,,*2F
$YXXDR,A,5.0,D,PTCH,A,-1.6,D,ROLL*72
$GPRMC,200034.0,A,4917.8825,N,12310.5884,W,7.53,124.26,220614,018.2,E*79
$HCHDG,110.6,0.0,E,,*2F
$YXXDR,A,5.0,D,PTCH,A,-1.9,D,ROLL*7D
$IIVHW,,,,,07.4,N,,*1A
$IIVLW,06869,N,016.4,N*51
$HCHDG,111.1,0.0,E,,*29
$GPRMC,200034.2,A,4917.8823,N,12310.5877,W,7.52,123.59,220614,018.2,E*7F
$YXXDR,A,5.0,D,PTCH,A,-2.5,D,ROLL*72
$HCHDG,111.1,0.0,E,,*29
$YXXDR,A,5.1,D,PTCH,A,-3.0,D,ROLL*77
$GPRMC,200034.4,A,4917.8820,N,12310.5871,W,7.50,123.11,220614,018.2,E*72
$HCHDG,111.1,0.0,E,,*29
$YXXDR,A,5.1,D,PTCH,A,-3.2,D,ROLL*75
$TIROT,43.0,A*0C
$HCHDG,111.2,0.0,E,,*2A
$YXXDR,A,5.1,D,PTCH,A,-3.5,D,ROLL*72
$GPRMC,200034.6,A,4917.8818,N,12310.5865,W,7.75,122.02,220614,018.2,E*7A
$HCHDG,111.2,0.0,E,,*2A
$YXXDR,A,5.1,D,PTCH,A,-3.4,D,ROLL*73
$IIVWR,122,R,06.2,N,,,,*64
$HCHDG,111.1,0.0,E,,*29
$YXXDR,A,5.1,D,PTCH,A,-3.6,D,ROLL*71
$GPGGA,200034.800,4917.8816,N,12310.5858,W,2,10,0.99,-0.5,M,-16.8,M,0000,0000*76
$GPGSA,A,3,11,28,17,19,01,26,15,30,07,08,,,1.70,0.99,1.38*07
$HCHDG,111.0,0.0,E,,*28
$GPGSV,4,1,14,28,85,300,41,30,61,110,32,26,55,274,38,08,53,104,30*7B
$GPGSV,4,2,14,48,32,192,41,07,31,115,26,17,29,182,37,15,26,310,37*78
$GPGSV,4,3,14,11,25,082,36,19,16,039,32,01,12,102,29,03,05,040,17*79
$GPGSV,4,4,14,18,02,342,,05,01,244,25*73
$YXXDR,A,5.1,D,PTCH,A,-3.6,D,ROLL*71
$GPRMC,200034.8,A,4917.8816,N,12310.5858,W,7.47,122.25,220614,018.2,E*70
$IIMTW,+13.5,C*3F
$IIMWV,122,R,06.2,N,A*16
$HCHDG,111.0,0.0,E,,*28
$YXXDR,A,5.0,D,PTCH,A,-3.7,D,ROLL*71
$IIMWV,152,T,11.8,N,A*1B
$GPRMC,200035.0,A,4917.8814,N,12310.5852,W,7.68,123.51,220614,018.2,E*7E
$HCHDG,111.2,0.0,E,,*2A
$YXXDR,A,4.9,D,PTCH,A,-4.4,D,ROLL*7D
$HCHDG,111.1,0.0,E,,*29
$YXXDR,A,4.8,D,PTCH,A,-4.5,D,ROLL*7D
$IIVHW,,,,,07.3,N,,*1D
$IIVLW,06869,N,016.4,N*51
$GPRMC,200035.2,A,4917.8811,N,12310.5847,W,7.67,123.25,220614,018.2,E*71
$HCHDG,111.1,0.0,E,,*29
$YXXDR,A,4.9,D,PTCH,A,-4.7,D,ROLL*7E
$HCHDG,111.1,0.0,E,,*29
$YXXDR,A,4.9,D,PTCH,A,-5.1,D,ROLL*79
$HCHDG,111.1,0.0,E,,*29
$GPRMC,200035.4,A,4917.8808,N,12310.5842,W,7.60,123.99,220614,018.2,E*7A
$YXXDR,A,4.9,D,PTCH,A,-5.1,D,ROLL*79
$TIROT,-48.5,A*2F
$HCHDG,111.2,0.0,E,,*2A
$YXXDR,A,5.1,D,PTCH,A,-5.0,D,ROLL*71
$HCHDG,111.1,0.0,E,,*29
$GPRMC,200035.6,A,4917.8806,N,12310.5837,W,7.55,123.04,220614,018.2,E*76
$YXXDR,A,5.0,D,PTCH,A,-4.7,D,ROLL*76
$IIVWR,123,R,06.0,N,,,,*67
$HCHDG,111.2,0.0,E,,*2A
$YXXDR,A,5.1,D,PTCH,A,-4.3,D,ROLL*73
$HCHDG,111.2,0.0,E,,*2A
$GPGGA,200035.800,4917.8804,N,12310.5832,W,2,11,0.95,-0.6,M,-16.8,M,0000,0000*76
$GPGSA,A,3,11,28,17,19,01,26,03,15,30,07,08,,1.61,0.95,1.30*00
$GPGSV,4,1,14,28,85,300,41,30,61,110,36,26,55,274,42,08,53,104,27*74
$YXXDR,A,5.0,D,PTCH,A,-3.9,D,ROLL*7F
$GPGSV,4,2,14,48,32,192,38,07,31,115,29,17,29,182,35,15,26,310,37*7B
$GPGSV,4,3,14,11,25,082,31,19,16,039,34,01,12,102,33,03,05,040,17*73
$GPGSV,4,4,14,18,02,342,,05,01,244,25*73
$GPRMC,200035.8,A,4917.8804,N,12310.5832,W,7.25,127.10,220614,018.2,E*79
$IIMTW,+13.5,C*3F
$IIMWV,123,R,06.0,N,A*15
$HCHDG,111.2,0.0,E,,*2A
$YXXDR,A,5.0,D,PTCH,A,-3.7,D,ROLL*71
$IIMWV,154,T,11.7,N,A*12
$HCHDG,111.3,0.0,E,,*2B
$GPRMC,200036.0,A,4917.8801,N,12310.5827,W,7.21,128.09,220614,018.2,E*70
$YXXDR,A,5.0,D,PTCH,A,-3.7,D,ROLL*71
$HCHDG,111.6,0.0,E,,*2E
$YXXDR,A,5.0,D,PTCH,A,-3.4,D,ROLL*72
$IIVHW,,,,,07.2,N,,*1C
$IIVLW,06869,N,016.4,N*51
$HCHDG,111.6,0.0,E,,*2E
$GPRMC,200036.2,A,4917.8799,N,12310.5822,W,7.39,125.61,220614,018.2,E*73
$YXXDR,A,4.8,D,PTCH,A,-3.2,D,ROLL*7D
$HCHDG,111.5,0.0,E,,*2D
$YXXDR,A,4.8,D,PTCH,A,-3.0,D,ROLL*7F
$HCHDG,111.7,0.0,E,,*2F
$GPRMC,200036.4,A,4917.8797,N,12310.5817,W,7.42,126.64,220614,018.2,E*77
$YXXDR,A,4.9,D,PTCH,A,-2.6,D,ROLL*79
$TIROT,53.2,A*0F
$HCHDG,111.8,0.0,E,,*20
$YXXDR,A,4.8,D,PTCH,A,-2.2,D,ROLL*7C
$HCHDG,111.9,0.0,E,,*21
$GPRMC,200036.6,A,4917.8794,N,12310.5813,W,7.36,126.42,220614,018.2,E*75
$YXXDR,A,4.8,D,PTCH,A,-2.0,D,ROLL*7E
$IIVWR,121,R,06.2,N,,,,*67
$HCHDG,111.8,0.0,E,,*20
$YXXDR,A,5.0,D,PTCH,A,-1.8,D,ROLL*7C
$HCHDG,111.9,0.0,E,,*21
$GPGGA,200036.800,4917.8792,N,12310.5808,W,2,11,0.95,-0.5,M,-16.8,M,0000,0000*7F
$YXXDR,A,5.0,D,PTCH,A,-1.6,D,ROLL*72
$GPGSA,A,3,11,28,17,19,01,26,03,15,30,07,08,,1.61,0.95,1.30*00
$GPGSV,4,1,14,28,85,300,41,30,61,110,31,26,55,274,37,08,53,104,35*72
$GPGSV,4,2,14,48,32,192,41,07,31,115,25,17,29,182,37,15,26,310,33*7F
$GPGSV,4,3,14,11,25,082,40,19,16,039,33,01,12,102,35,03,05,040,15*76
$GPGSV,4,4,14,18,02,342,,05,01,244,25*73
$IIMTW,+13.5,C*3F
$GPRMC,200036.8,A,4917.8792,N,12310.5808,W,7.41,126.21,220614,018.2,E*72
$IIMWV,121,R,06.2,N,A*15
$HCHDG,112.0,0.0,E,,*2B
$YXXDR,A,5.0,D,PTCH,A,-1.6,D,ROLL*72
$IIMWV,154,T,11.5,N,A*10
$HCHDG,112.3,0.0,E,,*28
$GPRMC,200037.0,A,4917.8789,N,12310.5804,W,7.19,127.44,220614,018.2,E*72
$YXXDR,A,5.0,D,PTCH,A,-1.6,D,ROLL*72
$HCHDG,112.5,0.0,E,,*2E
$YXXDR,A,5.0,D,PTCH,A,-1.6,D,ROLL*72
$IIVHW,,,,,07.2,N,,*1C
$IIVLW,06869,N,016.4,N*51
$GPRMC,200037.2,A,4917.8787,N,12310.5799,W,7.22,127.33,220614,018.2,E*7D
$HCHDG,112.5,0.0,E,,*2E
$YXXDR,A,5.0,D,PTCH,A,-1.6,D,ROLL*72
$HCHDG,112.5,0.0,E,,*2E
$YXXDR,A,5.1,D,PTCH,A,-1.5,D,ROLL*70
$GPRMC,200037.4,A,4917.8784,N,12310.5795,W,7.21,126.13,220614,018.2,E*74
$HCHDG,112.6,0.0,E,,*2D
$YXXDR,A,5.0,D,PTCH,A,-1.3,D,ROLL*77
$TIROT,66.2,A*09
$HCHDG,112.2,0.0,E,,*29
$YXXDR,A,5.0,D,PTCH,A,-1.2,D,ROLL*76
$HCHDG,112.3,0.0,E,,*28
$GPRMC,200037.6,A,4917.8782,N,12310.5790,W,7.27,126.45,220614,018.2,E*70
$YXXDR,A,5.0,D,PTCH,A,-0.9,D,ROLL*7C
$IIVWR,121,R,06.5,N,,,,*60
$HCHDG,112.4,0.0,E,,*2F
$YXXDR,A,5.0,D,PTCH,A,-0.7,D,ROLL*72
$HCHDG,112.2,0.0,E,,*29
$GPGGA,200037.800,4917.8778,N,12310.5786,W,2,11,0.95,-0.3,M,-16.8,M,0000,0000*75
$GPGSA,A,3,11,28,17,19,01,26,03,15,30,07,08,,1.61,0.95,1.30*00
$GPGSV,4,1,14,28,85,300,42,30,61,110,32,26,55,274,37,08,53,104,35*72
$YXXDR,A,4.9,D,PTCH,A,-0.7,D,ROLL*7A
$GPGSV,4,2,14,48,32,192,41,07,31,115,34,17,29,182,39,15,26,310,34*76
$GPGSV,4,3,14,11,25,082,40,19,16,039,28,01,12,102,37,03,05,040,14*7F
$GPGSV,4,4,14,18,02,342,,05,01,244,28*7E
$GPRMC,200037.8,A,4917.8778,N,12310.5786,W,7.76,126.09,220614,018.2,E*70
$IIMTW,+13.5,C*3F
$HCHDG,112.4,0.0,E,,*2F
$IIMWV,121,R,06.5,N,A*12
$YXXDR,A,4.7,D,PTCH,A,-0.8,D,ROLL*7B
$IIMWV,153,T,11.7,N,A*15
$GPRMC,200038.0,A,4917.8776,N,12310.5781,W,7.59,127.22,220614,018.2,E*7B
$HCHDG,112.3,0.0,E,,*28
$YXXDR,A,4.8,D,PTCH,A,-1.1,D,ROLL*7C
$HCHDG,112.4,0.0,E,,*2F
$YXXDR,A,5.0,D,PTCH,A,-1.6,D,ROLL*72
$IIVHW,,,,,07.2,N,,*1C
$IIVLW,06869,N,016.4,N*51
$GPRMC,200038.2,A,4917.8774,N,12310.5774,W,7.54,127.30,220614,018.2,E*7F
$HCHDG,112.5,0.0,E,,*2E
$YXXDR,A,4.8,D,PTCH,A,-2.4,D,ROLL*7A
$HCHDG,112.5,0.0,E,,*2E
$YXXDR,A,5.0,D,PTCH,A,-2.5,D,ROLL*72
$GPRMC,200038.4,A,4917.8772,N,12310.5768,W,7.55,126.68,220614,018.2,E*7F
$HCHDG,112.9,0.0,E,,*22
$YXXDR,A,4.9,D,PTCH,A,-3.0,D,ROLL*7E
$TIROT,54.2,A*08
$HCHDG,112.8,0.0,E,,*23
$YXXDR,A,4.9,D,PTCH,A,-3.1,D,ROLL*7F
$GPRMC,200038.6,A,4917.8769,N,12310.5763,W,7.56,126.62,220614,018.2,E*75
$HCHDG,112.7,0.0,E,,*2C
$YXXDR,A,5.1,D,PTCH,A,-3.0,D,ROLL*77
$IIVWR,121,R,06.5,N,,,,*60
$HCHDG,112.6,0.0,E,,*2D
$YXXDR,A,5.2,D,PTCH,A,-3.0,D,ROLL*74
