$HCHDG,341.4,0.0,E,,*2B
$YXXDR,A,5.6,D,PTCH,A,2.6,D,ROLL*5A
$HCHDG,341.6,0.0,E,,*29
$YXXDR,A,5.6,D,PTCH,A,2.6,D,ROLL*5A
$HCHDG,341.5,0.0,E,,*2A
$YXXDR,A,5.5,D,PTCH,A,2.7,D,ROLL*58
$GPRMC,163805.2,A,4916.4504,N,12311.1201,W,0.05,353.36,200614,018.2,E*73
$IIMTW,+13.0,C*3A
$HCHDG,341.4,0.0,E,,*2B
$IIMWV,128,R,07.3,N,A*1C
$YXXDR,A,5.5,D,PTCH,A,2.7,D,ROLL*58
$IIMWV,128,T,07.1,N,A*18
$HCHDG,341.3,0.0,E,,*2C
$IIVHW,,,,,00.0,N,,*19
$YXXDR,A,5.5,D,PTCH,A,2.5,D,ROLL*5A
$IIVLW,06785,N,000.0,N*5F
$GPRMC,163805.6,A,4916.4504,N,12311.1206,W,0.14,353.36,200614,018.2,E*70
$HCHDG,341.1,0.0,E,,*2E
$YXXDR,A,5.6,D,PTCH,A,2.6,D,ROLL*5A
$IIVWR,128,R,07.3,N,,,,*6E
$HCHDG,341.1,0.0,E,,*2E
$YXXDR,A,5.5,D,PTCH,A,2.5,D,ROLL*5A
$TIROT,-7.5,A*14
$GPRMC,163805.8,A,4916.4504,N,12311.1207,W,0.13,353.36,200614,018.2,E*78
$HCHDG,341.1,0.0,E,,*2E
$YXXDR,A,5.6,D,PTCH,A,2.4,D,ROLL*58
$HCHDG,341.1,0.0,E,,*2E
$YXXDR,A,5.6,D,PTCH,A,2.4,D,ROLL*58
$GPGGA,163806.000,4916.4504,N,12311.1208,W,1,4,1.74,25.9,M,-16.8,M,,*5A
$GPGSA,A,2,03,16,23,07,,,,,,,,,1.99,1.74,0.97*0C
$GPGSV,3,1,11,07,58,263,38,23,48,125,43,16,41,055,39,48,32,192,*7E
$GPGSV,3,2,11,03,20,122,40,10,,,33,13,,,43,27,,,39*47
$GPGSV,3,3,11,19,,,32,09,,,27,30,,,34*78
$GPRMC,163806.0,A,4916.4504,N,12311.1208,W,0.09,353.36,200614,018.2,E*77
$HCHDG,341.1,0.0,E,,*2E
$YXXDR,A,5.6,D,PTCH,A,2.4,D,ROLL*58
$HCHDG,341.0,0.0,E,,*2F
$YXXDR,A,5.6,D,PTCH,A,2.3,D,ROLL*5F
$GPRMC,163806.2,A,4916.4503,N,12311.1208,W,0.18,353.36,200614,018.2,E*72
$HCHDG,341.0,0.0,E,,*2F
$YXXDR,A,5.6,D,PTCH,A,2.3,D,ROLL*5F
$HCHDG,341.0,0.0,E,,*2F
$YXXDR,A,5.7,D,PTCH,A,2.2,D,ROLL*5F
$GPRMC,163806.4,A,4916.4503,N,12311.1206,W,0.13,353.36,200614,018.2,E*71
$HCHDG,341.0,0.0,E,,*2F
$YXXDR,A,5.8,D,PTCH,A,2.2,D,ROLL*50
$IIMTW,+13.0,C*3A
$IIMWV,128,R,07.0,N,A*1F
$HCHDG,341.0,0.0,E,,*2F
$YXXDR,A,5.8,D,PTCH,A,2.2,D,ROLL*50
$IIMWV,128,T,07.3,N,A*1A
$GPRMC,163806.6,A,4916.4503,N,12311.1206,W,0.15,353.36,200614,018.2,E*75
$HCHDG,341.1,0.0,E,,*2E
$YXXDR,A,5.8,D,PTCH,A,2.2,D,ROLL*50
$HCHDG,341.1,0.0,E,,*2E
$YXXDR,A,5.6,D,PTCH,A,2.2,D,ROLL*5E
$TIROT,3.7,A*3F
$IIVHW,,,,,00.0,N,,*19
$GPRMC,163806.8,A,4916.4502,N,12311.1206,W,0.05,353.36,200614,018.2,E*7B
$HCHDG,341.1,0.0,E,,*2E
$IIVLW,06785,N,000.0,N*5F
$YXXDR,A,5.7,D,PTCH,A,2.2,D,ROLL*5F
$IIVWR,128,R,07.0,N,,,,*6D
$HCHDG,341.2,0.0,E,,*2D
$YXXDR,A,5.6,D,PTCH,A,2.3,D,ROLL*5F
$GPGGA,163807.000,4916.4502,N,12311.1207,W,1,4,1.74,26.3,M,-16.8,M,,*5B
$GPGSA,A,3,03,16,23,07,,,,,,,,,1.99,1.74,0.97*0D
$GPGSV,3,1,11,07,58,263,38,23,48,125,45,16,41,055,41,48,32,192,*77
$GPGSV,3,2,11,03,20,122,38,10,,,37,13,,,43,27,,,38*4D
$GPGSV,3,3,11,19,,,32,09,,,26,30,,,35*78
$GPRMC,163807.0,A,4916.4502,N,12311.1207,W,0.01,353.36,200614,018.2,E*77
$HCHDG,341.0,0.0,E,,*2F
$YXXDR,A,5.6,D,PTCH,A,2.3,D,ROLL*5F
$HCHDG,341.0,0.0,E,,*2F
$YXXDR,A,5.5,D,PTCH,A,2.2,D,ROLL*5D
$GPRMC,163807.2,A,4916.4502,N,12311.1207,W,0.04,353.36,200614,018.2,E*70
$HCHDG,341.0,0.0,E,,*2F
$YXXDR,A,5.5,D,PTCH,A,2.1,D,ROLL*5E
$HCHDG,341.1,0.0,E,,*2E
$YXXDR,A,5.5,D,PTCH,A,2.1,D,ROLL*5E
$GPRMC,163807.4,A,4916.4502,N,12311.1208,W,0.02,353.36,200614,018.2,E*7F
$HCHDG,340.8,0.0,E,,*26
$YXXDR,A,5.5,D,PTCH,A,2.1,D,ROLL*5E
$HCHDG,340.8,0.0,E,,*26
$YXXDR,A,5.6,D,PTCH,A,2.2,D,ROLL*5E
$GPRMC,163807.6,A,4916.4503,N,12311.1208,W,0.05,353.36,200614,018.2,E*7B
$HCHDG,340.8,0.0,E,,*26
$YXXDR,A,5.5,D,PTCH,A,2.1,D,ROLL*5E
$HCHDG,340.8,0.0,E,,*26
$YXXDR,A,5.6,D,PTCH,A,2.2,D,ROLL*5E
$TIROT,11.7,A*0C
$GPRMC,163807.8,A,4916.4503,N,12311.1209,W,0.05,353.36,200614,018.2,E*74
$HCHDG,340.7,0.0,E,,*29
$YXXDR,A,5.6,D,PTCH,A,2.2,D,ROLL*5E
$HCHDG,340.7,0.0,E,,*29
$YXXDR,A,5.6,D,PTCH,A,2.0,D,ROLL*5C
$GPGGA,163808.000,4916.4503,N,12311.1209,W,1,4,1.74,25.0,M,-16.8,M,,*5B
$GPGSA,A,3,03,16,23,07,,,,,,,,,1.99,1.74,0.97*0D
$GPGSV,3,1,11,07,58,263,40,23,48,125,45,16,41,055,40,48,32,192,*79
$GPGSV,3,2,11,03,20,122,37,10,,,35,13,,,43,27,,,38*40
$GPGSV,3,3,11,19,,,32,09,,,31,30,,,34*7F
$GPRMC,163808.0,A,4916.4503,N,12311.1209,W,0.04,353.36,200614,018.2,E*72
$HCHDG,340.4,0.0,E,,*2A
$YXXDR,A,5.6,D,PTCH,A,2.0,D,ROLL*5C
$HCHDG,340.6,0.0,E,,*28
$YXXDR,A,5.6,D,PTCH,A,2.2,D,ROLL*5E
$GPRMC,163808.2,A,4916.4503,N,12311.1210,W,0.08,353.36,200614,018.2,E*74
$HCHDG,340.5,0.0,E,,*2B
$YXXDR,A,5.5,D,PTCH,A,2.1,D,ROLL*5E
$HCHDG,340.4,0.0,E,,*2A
$YXXDR,A,5.6,D,PTCH,A,2.3,D,ROLL*5F
$GPRMC,163808.4,A,4916.4503,N,12311.1211,W,0.10,353.36,200614,018.2,E*7A
$HCHDG,340.6,0.0,E,,*28
$YXXDR,A,5.6,D,PTCH,A,2.3,D,ROLL*5F
$HCHDG,340.5,0.0,E,,*2B
$YXXDR,A,5.5,D,PTCH,A,2.5,D,ROLL*5A
$HCHDG,340.5,0.0,E,,*2B
$YXXDR,A,5.5,D,PTCH,A,2.5,D,ROLL*5A
$HCHDG,340.4,0.0,E,,*2A
$YXXDR,A,5.5,D,PTCH,A,2.5,D,ROLL*5A
$TIROT,-2.4,A*10
$HCHDG,340.3,0.0,E,,*2D
$GPRMC,163808.6,A,4916.4503,N,12311.1211,W,0.04,353.36,200614,018.2,E*7D
$GPRMC,163808.8,A,4916.4503,N,12311.1212,W,0.02,353.36,200614,018.2,E*76
$GPGGA,163809.000,4916.4503,N,12311.1212,W,1,4,1.74,24.2,M,-16.8,M,,*53
$YXXDR,A,5.5,D,PTCH,A,2.5,D,ROLL*5A
$HCHDG,340.2,0.0,E,,*2C
$YXXDR,A,5.6,D,PTCH,A,2.4,D,ROLL*58
$HCHDG,340.3,0.0,E,,*2D
$GPGSA,A,3,03,16,23,07,,,,,,,,,1.99,1.74,0.97*0D
$GPGSV,3,1,11,07,58,263,40,23,48,125,45,16,41,055,42,48,32,192,*7B
$GPGSV,3,2,11,03,20,122,37,10,,,35,13,,,43,27,,,35*4D
$GPGSV,3,3,11,19,,,34,09,,,32,30,,,35*7B
$GPRMC,163809.0,A,4916.4503,N,12311.1212,W,0.02,353.36,200614,018.2,E*7F
$IIMTW,+13.0,C*3A
$IIMWV,127,R,06.9,N,A*18
$YXXDR,A,5.6,D,PTCH,A,2.6,D,ROLL*5A
$HCHDG,340.3,0.0,E,,*2D
$YXXDR,A,5.6,D,PTCH,A,2.6,D,ROLL*5A
$HCHDG,340.3,0.0,E,,*2D
$YXXDR,A,5.7,D,PTCH,A,2.6,D,ROLL*5B
$HCHDG,340.2,0.0,E,,*2C
$GPRMC,163809.2,A,4916.4503,N,12311.1212,W,0.02,353.36,200614,018.2,E*7D
$GPRMC,163809.4,A,4916.4503,N,12311.1212,W,0.04,353.36,200614,018.2,E*7D
$GPRMC,163809.6,A,4916.4503,N,12311.1212,W,0.03,353.36,200614,018.2,E*78
$IIMWV,128,T,07.0,N,A*19
$YXXDR,A,5.9,D,PTCH,A,2.7,D,ROLL*54
$HCHDG,340.5,0.0,E,,*2B
$YXXDR,A,5.9,D,PTCH,A,2.7,D,ROLL*54
$HCHDG,340.4,0.0,E,,*2A
$IIVHW,,,,,00.0,N,,*19
$YXXDR,A,5.9,D,PTCH,A,2.7,D,ROLL*54
$HCHDG,340.3,0.0,E,,*2D
$YXXDR,A,5.9,D,PTCH,A,2.6,D,ROLL*55
$HCHDG,340.3,0.0,E,,*2D
$YXXDR,A,5.7,D,PTCH,A,2.7,D,ROLL*5A
$TIROT,16.7,A*0B
$IIVLW,06785,N,000.0,N*5F
$HCHDG,340.2,0.0,E,,*2C
$YXXDR,A,5.7,D,PTCH,A,2.7,D,ROLL*5A
$GPRMC,163809.8,A,4916.4503,N,12311.1212,W,0.04,353.36,200614,018.2,E*71
$IIVWR,127,R,06.9,N,,,,*6A
$HCHDG,340.4,0.0,E,,*2A
$YXXDR,A,5.6,D,PTCH,A,2.6,D,ROLL*5A
$GPGGA,163810.000,4916.4503,N,12311.1211,W,1,4,1.74,24.5,M,-16.8,M,,*5F
$GPGSA,A,3,03,16,23,07,,,,,,,,,1.99,1.74,0.97*0D
$GPGSV,3,1,11,07,58,263,40,23,48,125,44,16,41,055,42,48,32,192,*7A
$GPGSV,3,2,11,03,20,122,37,10,,,37,13,,,43,27,,,37*4D
$GPGSV,3,3,11,19,,,29,09,,,31,30,,,36*77
$HCHDG,340.4,0.0,E,,*2A
$GPRMC,163810.0,A,4916.4503,N,12311.1211,W,0.05,353.36,200614,018.2,E*73
$YXXDR,A,5.6,D,PTCH,A,2.6,D,ROLL*5A
$HCHDG,340.1,0.0,E,,*2F
$YXXDR,A,5.5,D,PTCH,A,2.5,D,ROLL*5A
$GPRMC,163810.2,A,4916.4503,N,12311.1211,W,0.03,353.36,200614,018.2,E*77
$HCHDG,340.1,0.0,E,,*2F
$YXXDR,A,5.5,D,PTCH,A,2.5,D,ROLL*5A
$HCHDG,340.2,0.0,E,,*2C
$YXXDR,A,5.6,D,PTCH,A,2.3,D,ROLL*5F
$GPRMC,163810.4,A,4916.4503,N,12311.1211,W,0.04,353.36,200614,018.2,E*76
$HCHDG,339.9,0.0,E,,*29
$YXXDR,A,5.5,D,PTCH,A,2.1,D,ROLL*5E
$IIMTW,+13.0,C*3A
$HCHDG,339.9,0.0,E,,*29
$IIMWV,128,R,06.9,N,A*17
$YXXDR,A,5.6,D,PTCH,A,2.0,D,ROLL*5C
$IIMWV,127,T,07.0,N,A*16
$GPRMC,163810.6,A,4916.4503,N,12311.1211,W,0.03,353.36,200614,018.2,E*73
$HCHDG,340.0,0.0,E,,*2E
$YXXDR,A,5.6,D,PTCH,A,2.0,D,ROLL*5C
$HCHDG,339.7,0.0,E,,*27
$YXXDR,A,5.8,D,PTCH,A,2.2,D,ROLL*50
$TIROT,-0.7,A*11
$IIVHW,,,,,00.0,N,,*19
$GPRMC,163810.8,A,4916.4503,N,12311.1210,W,0.05,353.36,200614,018.2,E*7A
$HCHDG,339.7,0.0,E,,*27
$IIVLW,06785,N,000.0,N*5F
$YXXDR,A,5.8,D,PTCH,A,2.2,D,ROLL*50
$IIVWR,128,R,06.9,N,,,,*65
$HCHDG,339.7,0.0,E,,*27
$YXXDR,A,5.8,D,PTCH,A,2.1,D,ROLL*53
$GPGGA,163811.000,4916.4502,N,12311.1210,W,1,4,1.74,24.6,M,-16.8,M,,*5D
$GPGSA,A,3,03,16,23,07,,,,,,,,,1.99,1.74,0.97*0D
$GPGSV,3,1,11,07,58,263,39,23,48,125,41,16,41,055,42,48,32,192,*71
$GPGSV,3,2,11,03,20,122,36,10,,,37,13,,,42,27,,,36*4C
$GPGSV,3,3,11,19,,,31,09,,,32,30,,,36*7D
$GPRMC,163811.0,A,4916.4502,N,12311.1210,W,0.10,353.36,200614,018.2,E*76
$HCHDG,339.7,0.0,E,,*27
$YXXDR,A,5.8,D,PTCH,A,2.2,D,ROLL*50
$HCHDG,339.7,0.0,E,,*27
$YXXDR,A,5.8,D,PTCH,A,2.6,D,ROLL*54
$GPRMC,163811.2,A,4916.4502,N,12311.1210,W,0.07,353.36,200614,018.2,E*72
$HCHDG,339.7,0.0,E,,*27
$YXXDR,A,5.8,D,PTCH,A,2.6,D,ROLL*54
$HCHDG,340.0,0.0,E,,*2E
$YXXDR,A,5.8,D,PTCH,A,2.6,D,ROLL*54
$GPRMC,163811.4,A,4916.4501,N,12311.1210,W,0.06,353.36,200614,018.2,E*76
$HCHDG,339.8,0.0,E,,*28
$YXXDR,A,5.7,D,PTCH,A,2.6,D,ROLL*5B
$IIMTW,+13.0,C*3A
$HCHDG,340.0,0.0,E,,*2E
$IIMWV,128,R,06.8,N,A*16
$YXXDR,A,5.9,D,PTCH,A,2.7,D,ROLL*54
$IIMWV,128,T,06.9,N,A*11
$GPRMC,163811.6,A,4916.4501,N,12311.1211,W,0.05,353.36,200614,018.2,E*76
$HCHDG,339.9,0.0,E,,*29
$YXXDR,A,5.8,D,PTCH,A,2.9,D,ROLL*5B
$HCHDG,339.8,0.0,E,,*28
$YXXDR,A,5.8,D,PTCH,A,2.9,D,ROLL*5B
$TIROT,8.9,A*3A
$IIVHW,,,,,00.0,N,,*19
$GPRMC,163811.8,A,4916.4500,N,12311.1211,W,0.03,353.36,200614,018.2,E*7F
$IIVLW,06785,N,000.0,N*5F
$HCHDG,340.0,0.0,E,,*2E
$YXXDR,A,5.6,D,PTCH,A,2.9,D,ROLL*55
$IIVWR,128,R,06.8,N,,,,*64
$HCHDG,339.9,0.0,E,,*29
$YXXDR,A,5.6,D,PTCH,A,2.7,D,ROLL*5B
$GPGGA,163812.000,4916.4500,N,12311.1211,W,1,4,1.73,24.7,M,-16.8,M,,*5B
$GPGSA,A,3,03,16,23,07,,,,,,,,,1.99,1.73,0.97*0A
$GPGSV,3,1,11,07,58,263,39,23,48,125,43,16,41,055,43,48,32,192,29*79
$GPGSV,3,2,11,03,20,122,37,10,,,36,13,,,41,27,,,38*41
$GPGSV,3,3,11,19,,,28,09,,,34,30,,,36*73
$GPRMC,163812.0,A,4916.4500,N,12311.1211,W,0.03,353.36,200614,018.2,E*74
$HCHDG,339.5,0.0,E,,*25
$YXXDR,A,5.6,D,PTCH,A,2.6,D,ROLL*5A
$HCHDG,339.5,0.0,E,,*25
$YXXDR,A,5.5,D,PTCH,A,2.7,D,ROLL*58
$GPRMC,163812.2,A,4916.4499,N,12311.1211,W,0.10,353.36,200614,018.2,E*75
$HCHDG,339.4,0.0,E,,*24
$YXXDR,A,5.6,D,PTCH,A,2.3,D,ROLL*5F
$HCHDG,339.4,0.0,E,,*24
$YXXDR,A,5.6,D,PTCH,A,2.3,D,ROLL*5F
$GPRMC,163812.4,A,4916.4499,N,12311.1212,W,0.05,353.36,200614,018.2,E*74
$HCHDG,339.6,0.0,E,,*26
$YXXDR,A,5.5,D,PTCH,A,2.5,D,ROLL*5A
$IIMTW,+13.0,C*3A
$HCHDG,339.7,0.0,E,,*27
$IIMWV,127,R,07.0,N,A*10
$YXXDR,A,5.6,D,PTCH,A,2.7,D,ROLL*5B
$IIMWV,128,T,06.8,N,A*10
$GPRMC,163812.6,A,4916.4499,N,12311.1212,W,0.07,353.36,200614,018.2,E*74
$HCHDG,339.9,0.0,E,,*29
$YXXDR,A,5.6,D,PTCH,A,2.7,D,ROLL*5B
$HCHDG,339.9,0.0,E,,*29
$YXXDR,A,5.6,D,PTCH,A,2.9,D,ROLL*55
$TIROT,40.2,A*0D
$IIVHW,,,,,00.0,N,,*19
$GPRMC,163812.8,A,4916.4498,N,12311.1212,W,0.05,353.36,200614,018.2,E*79
$IIVLW,06785,N,000.0,N*5F
$HCHDG,340.0,0.0,E,,*2E
$YXXDR,A,5.7,D,PTCH,A,2.7,D,ROLL*5A
$IIVWR,127,R,07.0,N,,,,*62
$HCHDG,340.0,0.0,E,,*2E
$YXXDR,A,5.7,D,PTCH,A,2.7,D,ROLL*5A
$GPGGA,163813.000,4916.4498,N,12311.1213,W,1,4,1.74,24.8,M,-16.8,M,,*50
$GPGSA,A,3,03,16,23,07,,,,,,,,,1.99,1.74,0.97*0D
$GPGSV,3,1,11,07,58,263,39,23,48,125,42,16,41,055,43,48,32,192,30*70
$GPGSV,3,2,11,03,20,122,37,10,,,38,13,,,42,27,,,40*43
$GPGSV,3,3,11,19,,,31,09,,,32,30,,,34*7F
$GPRMC,163813.0,A,4916.4498,N,12311.1213,W,0.02,353.36,200614,018.2,E*76
$HCHDG,340.1,0.0,E,,*2F
$YXXDR,A,5.6,D,PTCH,A,2.6,D,ROLL*5A
$HCHDG,339.8,0.0,E,,*28
$YXXDR,A,5.6,D,PTCH,A,2.3,D,ROLL*5F
$GPRMC,163813.2,A,4916.4498,N,12311.1213,W,0.01,353.36,200614,018.2,E*77
$HCHDG,339.9,0.0,E,,*29
$YXXDR,A,5.7,D,PTCH,A,2.4,D,ROLL*59
$HCHDG,339.8,0.0,E,,*28
$YXXDR,A,5.6,D,PTCH,A,2.3,D,ROLL*5F
$GPRMC,163813.4,A,4916.4497,N,12311.1214,W,0.01,353.36,200614,018.2,E*79
$HCHDG,339.9,0.0,E,,*29
$YXXDR,A,5.5,D,PTCH,A,2.2,D,ROLL*5D
$IIMTW,+13.0,C*3A
$HCHDG,340.1,0.0,E,,*2F
$IIMWV,131,R,06.9,N,A*1F
$YXXDR,A,5.5,D,PTCH,A,2.2,D,ROLL*5D
$IIMWV,127,T,07.0,N,A*16
$GPRMC,163813.6,A,4916.4497,N,12311.1214,W,0.15,353.36,200614,018.2,E*7E
$HCHDG,340.1,0.0,E,,*2F
$YXXDR,A,5.6,D,PTCH,A,2.3,D,ROLL*5F
$HCHDG,340.3,0.0,E,,*2D
$YXXDR,A,5.6,D,PTCH,A,2.3,D,ROLL*5F
$TIROT,56.5,A*0D
$IIVHW,,,,,00.0,N,,*19
$GPRMC,163813.8,A,4916.4496,N,12311.1215,W,0.21,353.36,200614,018.2,E*77
$IIVLW,06785,N,000.0,N*5F
$HCHDG,340.3,0.0,E,,*2D
$YXXDR,A,5.4,D,PTCH,A,2.3,D,ROLL*5D
$IIVWR,131,R,06.9,N,,,,*6D
$HCHDG,340.5,0.0,E,,*2B
$YXXDR,A,5.4,D,PTCH,A,2.4,D,ROLL*5A
$GPGGA,163814.000,4916.4496,N,12311.1215,W,1,4,1.74,25.1,M,-16.8,M,,*57
$GPGSA,A,3,03,16,23,07,,,,,,,,,1.99,1.74,0.97*0D
$GPGSV,3,1,11,07,58,263,39,23,48,125,38,16,41,055,43,48,32,192,32*7F
$HCHDG,340.7,0.0,E,,*29
$GPGSV,3,2,11,03,20,122,34,10,,,30,13,,,42,27,,,38*47
$GPGSV,3,3,11,19,,,34,09,,,26,30,,,35*7E
$GPRMC,163814.0,A,4916.4496,N,12311.1215,W,0.15,353.36,200614,018.2,E*7F
$YXXDR,A,5.3,D,PTCH,A,2.6,D,ROLL*5F
$HCHDG,340.4,0.0,E,,*2A
$YXXDR,A,5.4,D,PTCH,A,2.4,D,ROLL*5A
$GPRMC,163814.2,A,4916.4495,N,12311.1215,W,0.16,353.36,200614,018.2,E*7D
$HCHDG,340.5,0.0,E,,*2B
$YXXDR,A,5.4,D,PTCH,A,2.4,D,ROLL*5A
$HCHDG,340.4,0.0,E,,*2A
$YXXDR,A,5.6,D,PTCH,A,2.3,D,ROLL*5F
$GPRMC,163814.4,A,4916.4495,N,12311.1215,W,0.13,353.36,200614,018.2,E*7E
$HCHDG,340.5,0.0,E,,*2B
$YXXDR,A,5.6,D,PTCH,A,2.3,D,ROLL*5F
$IIMTW,+13.0,C*3A
$HCHDG,340.5,0.0,E,,*2B
$IIMWV,132,R,06.8,N,A*1D
$YXXDR,A,5.7,D,PTCH,A,2.2,D,ROLL*5F
$IIMWV,131,T,06.9,N,A*19
$GPRMC,163814.6,A,4916.4495,N,12311.1215,W,0.13,353.36,200614,018.2,E*7C
$HCHDG,340.5,0.0,E,,*2B
$YXXDR,A,5.7,D,PTCH,A,2.4,D,ROLL*59
$HCHDG,340.5,0.0,E,,*2B
$YXXDR,A,5.8,D,PTCH,A,2.4,D,ROLL*56
$TIROT,15.2,A*0D
$IIVHW,,,,,00.0,N,,*19
$GPRMC,163814.8,A,4916.4495,N,12311.1215,W,0.08,353.36,200614,018.2,E*78
$IIVLW,06785,N,000.0,N*5F
$HCHDG,340.4,0.0,E,,*2A
$YXXDR,A,5.7,D,PTCH,A,2.5,D,ROLL*58
$IIVWR,132,R,06.8,N,,,,*6F
$HCHDG,340.4,0.0,E,,*2A
$YXXDR,A,5.8,D,PTCH,A,2.4,D,ROLL*56
$GPGGA,163815.000,4916.4494,N,12311.1215,W,1,4,1.73,26.0,M,-16.8,M,,*51
$GPGSA,A,3,03,16,23,07,,,,,,,,,1.99,1.73,0.97*0A
$GPGSV,3,1,11,07,58,263,37,23,48,125,43,16,41,055,41,48,32,192,24*78
$GPGSV,3,2,11,03,20,122,41,10,,,28,13,,,39,27,,,38*40
$GPGSV,3,3,11,19,,,33,09,,,26,30,,,36*7A
$GPRMC,163815.0,A,4916.4494,N,12311.1215,W,0.13,353.36,200614,018.2,E*7A
$HCHDG,340.2,0.0,E,,*2C
$YXXDR,A,5.8,D,PTCH,A,2.6,D,ROLL*54
$HCHDG,340.0,0.0,E,,*2E
$YXXDR,A,5.8,D,PTCH,A,2.6,D,ROLL*54
$GPRMC,163815.2,A,4916.4494,N,12311.1215,W,0.13,353.36,200614,018.2,E*78
$HCHDG,340.2,0.0,E,,*2C
$YXXDR,A,5.9,D,PTCH,A,2.6,D,ROLL*55
$HCHDG,340.0,0.0,E,,*2E
$YXXDR,A,5.9,D,PTCH,A,2.7,D,ROLL*54
$GPRMC,163815.4,A,4916.4493,N,12311.1215,W,0.14,353.36,200614,018.2,E*7E
$HCHDG,340.1,0.0,E,,*2F
$YXXDR,A,5.8,D,PTCH,A,2.9,D,ROLL*5B
$IIMTW,+13.0,C*3A
$HCHDG,340.0,0.0,E,,*2E
$IIMWV,133,R,06.8,N,A*1C
$YXXDR,A,5.8,D,PTCH,A,2.9,D,ROLL*5B
$IIMWV,132,T,06.8,N,A*1B
$HCHDG,340.0,0.0,E,,*2E
$YXXDR,A,5.7,D,PTCH,A,3.1,D,ROLL*5D
$GPRMC,163815.6,A,4916.4493,N,12311.1215,W,0.04,353.36,200614,018.2,E*7D
$HCHDG,340.2,0.0,E,,*2C
$YXXDR,A,5.7,D,PTCH,A,3.2,D,ROLL*5E
$TIROT,-27.5,A*26
$IIVHW,,,,,00.0,N,,*19
$IIVLW,06785,N,000.0,N*5F
$HCHDG,340.0,0.0,E,,*2E
$GPRMC,163815.8,A,4916.4493,N,12311.1215,W,0.09,353.36,200614,018.2,E*7E
$YXXDR,A,5.6,D,PTCH,A,3.5,D,ROLL*58
$IIVWR,133,R,06.8,N,,,,*6E
$HCHDG,340.0,0.0,E,,*2E
$YXXDR,A,5.5,D,PTCH,A,3.6,D,ROLL*58
$GPGGA,163816.000,4916.4493,N,12311.1215,W,1,4,1.74,26.7,M,-16.8,M,,*55
$GPGSA,A,3,03,16,23,07,,,,,,,,,1.99,1.74,0.97*0D
$GPGSV,3,1,11,07,58,263,39,23,48,125,44,16,41,055,41,48,32,192,27*72
$GPGSV,3,2,11,03,20,122,38,10,,,29,13,,,42,27,,,31*4A
$GPGSV,3,3,11,19,,,33,09,,,29,30,,,37*74
$GPRMC,163816.0,A,4916.4493,N,12311.1215,W,0.13,353.36,200614,018.2,E*7E
$HCHDG,339.9,0.0,E,,*29
$YXXDR,A,5.5,D,PTCH,A,3.4,D,ROLL*5A
$HCHDG,340.1,0.0,E,,*2F
$YXXDR,A,5.5,D,PTCH,A,3.4,D,ROLL*5A
$GPRMC,163816.2,A,4916.4492,N,12311.1215,W,0.16,353.36,200614,018.2,E*78
$HCHDG,340.0,0.0,E,,*2E
$YXXDR,A,5.5,D,PTCH,A,3.3,D,ROLL*5D
$HCHDG,339.6,0.0,E,,*26
$YXXDR,A,5.5,D,PTCH,A,3.1,D,ROLL*5F
$GPRMC,163816.4,A,4916.4492,N,12311.1215,W,0.13,353.36,200614,018.2,E*7B
$HCHDG,339.4,0.0,E,,*24
$YXXDR,A,5.5,D,PTCH,A,3.1,D,ROLL*5F
$IIMTW,+13.0,C*3A
$IIMWV,135,R,06.7,N,A*15
$HCHDG,339.3,0.0,E,,*23
$YXXDR,A,5.6,D,PTCH,A,3.0,D,ROLL*5D
$IIMWV,133,T,06.8,N,A*1A
$GPRMC,163816.6,A,4916.4492,N,12311.1214,W,0.11,353.36,200614,018.2,E*7A
$HCHDG,339.2,0.0,E,,*22
$YXXDR,A,5.6,D,PTCH,A,3.0,D,ROLL*5D
$HCHDG,339.1,0.0,E,,*21
$YXXDR,A,5.6,D,PTCH,A,3.0,D,ROLL*5D
$TIROT,-36.1,A*22
$IIVHW,,,,,00.0,N,,*19
$GPRMC,163816.8,A,4916.4491,N,12311.1214,W,0.12,353.36,200614,018.2,E*74
$IIVLW,06785,N,000.0,N*5F
$HCHDG,339.3,0.0,E,,*23
$YXXDR,A,5.5,D,PTCH,A,3.1,D,ROLL*5F
$IIVWR,135,R,06.7,N,,,,*67
$HCHDG,339.3,0.0,E,,*23
$YXXDR,A,5.5,D,PTCH,A,3.1,D,ROLL*5F
$GPGGA,163817.000,4916.4491,N,12311.1214,W,1,4,1.74,27.1,M,-16.8,M,,*50
$GPGSA,A,3,03,16,23,07,,,,,,,,,1.99,1.74,0.97*0D
$GPGSV,3,1,11,07,58,263,40,23,48,125,43,16,41,055,41,48,32,192,29*75
$GPGSV,3,2,11,03,20,122,35,10,,,32,13,,,41,27,,,34*4B
$HCHDG,339.3,0.0,E,,*23
$GPGSV,3,3,11,19,,,33,09,,,31,30,,,37*7D
$GPRMC,163817.0,A,4916.4491,N,12311.1214,W,0.06,353.36,200614,018.2,E*78
$YXXDR,A,5.5,D,PTCH,A,3.1,D,ROLL*5F
$HCHDG,339.1,0.0,E,,*21
$YXXDR,A,5.5,D,PTCH,A,3.1,D,ROLL*5F
$GPRMC,163817.2,A,4916.4491,N,12311.1214,W,0.06,353.36,200614,018.2,E*7A
$HCHDG,339.0,0.0,E,,*20
$YXXDR,A,5.4,D,PTCH,A,3.1,D,ROLL*5E
$HCHDG,339.0,0.0,E,,*20
$YXXDR,A,5.5,D,PTCH,A,3.1,D,ROLL*5F
$GPRMC,163817.4,A,4916.4490,N,12311.1214,W,0.05,353.36,200614,018.2,E*7E
$HCHDG,338.8,0.0,E,,*29
$YXXDR,A,5.7,D,PTCH,A,3.1,D,ROLL*5D
$IIMTW,+13.0,C*3A
$HCHDG,338.7,0.0,E,,*26
$IIMWV,136,R,06.5,N,A*14
$YXXDR,A,5.7,D,PTCH,A,3.4,D,ROLL*58
$IIMWV,135,T,06.7,N,A*13
$GPRMC,163817.6,A,4916.4490,N,12311.1215,W,0.05,353.36,200614,018.2,E*7D
$HCHDG,339.0,0.0,E,,*20
$YXXDR,A,5.8,D,PTCH,A,3.4,D,ROLL*57
$HCHDG,339.0,0.0,E,,*20
$YXXDR,A,5.8,D,PTCH,A,3.3,D,ROLL*50
$TIROT,-21.8,A*2D
$IIVHW,,,,,00.0,N,,*19
$GPRMC,163817.8,A,4916.4489,N,12311.1215,W,0.08,353.36,200614,018.2,E*76
$HCHDG,338.8,0.0,E,,*29
$IIVLW,06785,N,000.0,N*5F
$YXXDR,A,5.8,D,PTCH,A,3.2,D,ROLL*51
$IIVWR,136,R,06.5,N,,,,*66
$HCHDG,338.6,0.0,E,,*27
$YXXDR,A,5.7,D,PTCH,A,3.1,D,ROLL*5D
$GPGGA,163818.000,4916.4489,N,12311.1215,W,1,4,1.73,27.1,M,-16.8,M,,*50
$GPGSA,A,3,03,16,23,07,,,,,,,,,1.99,1.73,0.97*0A
$GPGSV,3,1,11,07,58,263,38,23,48,125,43,16,41,055,42,48,32,192,28*78
$GPGSV,3,2,11,03,20,122,35,10,,,33,13,,,41,27,,,35*4B
$GPGSV,3,3,11,19,,,33,09,,,30,30,,,36*7D
$GPRMC,163818.0,A,4916.4489,N,12311.1215,W,0.04,353.36,200614,018.2,E*7D
$HCHDG,338.6,0.0,E,,*27
$YXXDR,A,5.6,D,PTCH,A,2.9,D,ROLL*55
$HCHDG,338.6,0.0,E,,*27
$YXXDR,A,5.6,D,PTCH,A,3.0,D,ROLL*5D
$GPRMC,163818.2,A,4916.4489,N,12311.1216,W,0.04,353.36,200614,018.2,E*7C
$HCHDG,338.6,0.0,E,,*27
$YXXDR,A,5.5,D,PTCH,A,2.8,D,ROLL*57
$HCHDG,338.6,0.0,E,,*27
$YXXDR,A,5.5,D,PTCH,A,2.8,D,ROLL*57
$GPRMC,163818.4,A,4916.4488,N,12311.1216,W,0.06,353.36,200614,018.2,E*79
$HCHDG,338.6,0.0,E,,*27
$YXXDR,A,5.5,D,PTCH,A,2.8,D,ROLL*57
$IIMTW,+13.0,C*3A
$HCHDG,338.7,0.0,E,,*26
$IIMWV,139,R,06.4,N,A*1A
$YXXDR,A,5.5,D,PTCH,A,2.8,D,ROLL*57
$IIMWV,136,T,06.5,N,A*12
$GPRMC,163818.6,A,4916.4488,N,12311.1216,W,0.04,353.36,200614,018.2,E*79
$HCHDG,338.5,0.0,E,,*24
$YXXDR,A,5.6,D,PTCH,A,2.7,D,ROLL*5B
$HCHDG,338.6,0.0,E,,*27
$YXXDR,A,5.5,D,PTCH,A,2.5,D,ROLL*5A
$TIROT,11.7,A*0C
$IIVHW,,,,,00.0,N,,*19
$GPRMC,163818.8,A,4916.4487,N,12311.1216,W,0.10,353.36,200614,018.2,E*7D
$IIVLW,06785,N,000.0,N*5F
$HCHDG,338.3,0.0,E,,*22
$YXXDR,A,5.5,D,PTCH,A,2.5,D,ROLL*5A
$IIVWR,139,R,06.4,N,,,,*68
$HCHDG,338.2,0.0,E,,*23
$YXXDR,A,5.6,D,PTCH,A,2.3,D,ROLL*5F
$GPGGA,163819.000,4916.4487,N,12311.1216,W,1,4,1.74,27.0,M,-16.8,M,,*5A
$GPGSA,A,3,03,16,23,07,,,,,,,,,1.99,1.74,0.97*0D
$GPGSV,3,1,11,07,58,263,39,23,48,125,45,16,41,055,44,48,32,192,29*78
$GPGSV,3,2,11,03,20,122,29,10,,,34,13,,,42,27,,,36*41
$GPGSV,3,3,11,19,,,30,09,,,32,30,,,37*7D
$GPRMC,163819.0,A,4916.4487,N,12311.1216,W,0.09,353.36,200614,018.2,E*7C
$HCHDG,338.2,0.0,E,,*23
$YXXDR,A,5.6,D,PTCH,A,2.3,D,ROLL*5F
$HCHDG,338.0,0.0,E,,*21
$YXXDR,A,5.5,D,PTCH,A,2.2,D,ROLL*5D
$GPRMC,163819.2,A,4916.4487,N,12311.1217,W,0.13,353.36,200614,018.2,E*74
$HCHDG,338.1,0.0,E,,*20
$YXXDR,A,5.6,D,PTCH,A,2.3,D,ROLL*5F
$HCHDG,337.8,0.0,E,,*26
$YXXDR,A,5.6,D,PTCH,A,2.3,D,ROLL*5F
$GPRMC,163819.4,A,4916.4487,N,12311.1217,W,0.13,353.36,200614,018.2,E*72
$HCHDG,337.9,0.0,E,,*27
$YXXDR,A,5.6,D,PTCH,A,2.6,D,ROLL*5A
$IIMTW,+13.0,C*3A
$HCHDG,337.8,0.0,E,,*26
$IIMWV,139,R,06.2,N,A*1C
$YXXDR,A,5.6,D,PTCH,A,2.6,D,ROLL*5A
$IIMWV,139,T,06.4,N,A*1C
$GPRMC,163819.6,A,4916.4487,N,12311.1217,W,0.10,353.36,200614,018.2,E*73
$HCHDG,338.0,0.0,E,,*21
$YXXDR,A,5.7,D,PTCH,A,2.7,D,ROLL*5A
$HCHDG,338.0,0.0,E,,*21
$YXXDR,A,5.7,D,PTCH,A,2.8,D,ROLL*55
$TIROT,-0.8,A*1E
$IIVHW,,,,,00.0,N,,*19
$GPRMC,163819.8,A,4916.4487,N,12311.1217,W,0.08,353.36,200614,018.2,E*74
$IIVLW,06785,N,000.0,N*5F
$HCHDG,337.9,0.0,E,,*27
$YXXDR,A,5.7,D,PTCH,A,2.7,D,ROLL*5A
$IIVWR,139,R,06.2,N,,,,*6E
$HCHDG,337.7,0.0,E,,*29
$YXXDR,A,5.7,D,PTCH,A,2.7,D,ROLL*5A
$GPGGA,163820.000,4916.4486,N,12311.1217,W,1,4,1.74,27.0,M,-16.8,M,,*50
$GPGSA,A,3,03,16,23,07,,,,,,,,,1.99,1.74,0.97*0D
$GPGSV,3,1,11,07,58,263,41,23,48,125,40,16,41,055,44,48,32,192,32*78
$GPGSV,3,2,11,03,20,122,27,10,,,30,13,,,39,27,,,38*49
$GPGSV,3,3,11,19,,,34,09,,,36,30,,,35*7F
$GPRMC,163820.0,A,4916.4486,N,12311.1217,W,0.04,353.36,200614,018.2,E*7B
$HCHDG,337.5,0.0,E,,*2B
$YXXDR,A,5.6,D,PTCH,A,3.0,D,ROLL*5D
$HCHDG,337.7,0.0,E,,*29
$YXXDR,A,5.7,D,PTCH,A,3.1,D,ROLL*5D
$GPRMC,163820.2,A,4916.4486,N,12311.1218,W,0.08,353.36,200614,018.2,E*7A
$HCHDG,337.7,0.0,E,,*29
$YXXDR,A,5.5,D,PTCH,A,3.4,D,ROLL*5A
$HCHDG,337.8,0.0,E,,*26
$YXXDR,A,5.5,D,PTCH,A,3.4,D,ROLL*5A
$GPRMC,163820.4,A,4916.4486,N,12311.1218,W,0.02,353.36,200614,018.2,E*76
$HCHDG,337.9,0.0,E,,*27
$YXXDR,A,5.6,D,PTCH,A,3.8,D,ROLL*55
$IIMTW,+13.0,C*3A
$IIMWV,139,R,06.1,N,A*1F
$HCHDG,338.0,0.0,E,,*21
$YXXDR,A,5.8,D,PTCH,A,3.9,D,ROLL*5A
$IIMWV,139,T,06.2,N,A*1A
$GPRMC,163820.6,A,4916.4485,N,12311.1218,W,0.09,353.36,200614,018.2,E*7C
$HCHDG,337.9,0.0,E,,*27
$YXXDR,A,5.6,D,PTCH,A,3.8,D,ROLL*55
$HCHDG,337.9,0.0,E,,*27
$YXXDR,A,5.8,D,PTCH,A,3.6,D,ROLL*55
$TIROT,15.1,A*0E
$IIVHW,,,,,00.0,N,,*19
$GPRMC,163820.8,A,4916.4485,N,12311.1218,W,0.10,353.36,200614,018.2,E*7A
$IIVLW,06785,N,000.0,N*5F
$HCHDG,337.8,0.0,E,,*26
$YXXDR,A,5.8,D,PTCH,A,3.5,D,ROLL*56
$IIVWR,139,R,06.1,N,,,,*6D
$HCHDG,338.0,0.0,E,,*21
$YXXDR,A,5.7,D,PTCH,A,3.5,D,ROLL*59
$GPGGA,163821.000,4916.4485,N,12311.1219,W,1,5,1.60,26.8,M,-16.8,M,,*51
$GPGSA,A,3,03,16,23,07,10,,,,,,,,1.86,1.60,0.96*06
$GPGSV,3,1,11,07,58,263,40,23,48,125,39,10,44,278,29,16,41,055,44*76
$GPGSV,3,2,11,48,32,192,30,03,20,122,35,13,,,38,27,,,40*72
$GPGSV,3,3,11,19,,,33,09,,,33,30,,,37*7F
$GPRMC,163821.0,A,4916.4485,N,12311.1219,W,0.09,353.36,200614,018.2,E*7A
$HCHDG,338.0,0.0,E,,*21
$YXXDR,A,5.6,D,PTCH,A,3.5,D,ROLL*58
$HCHDG,337.9,0.0,E,,*27
$YXXDR,A,5.6,D,PTCH,A,3.3,D,ROLL*5E
$GPRMC,163821.2,A,4916.4484,N,12311.1219,W,0.05,353.36,200614,018.2,E*75
$HCHDG,337.8,0.0,E,,*26
$YXXDR,A,5.7,D,PTCH,A,3.1,D,ROLL*5D
$HCHDG,337.5,0.0,E,,*2B
$YXXDR,A,5.7,D,PTCH,A,3.1,D,ROLL*5D
$GPRMC,163821.4,A,4916.4484,N,12311.1219,W,0.02,353.36,200614,018.2,E*74
$HCHDG,337.6,0.0,E,,*28
$YXXDR,A,5.7,D,PTCH,A,2.5,D,ROLL*58
$IIMTW,+13.0,C*3A
$IIMWV,140,R,06.0,N,A*10
$HCHDG,337.5,0.0,E,,*2B
$YXXDR,A,5.7,D,PTCH,A,2.5,D,ROLL*58
$IIMWV,139,T,06.1,N,A*19
$GPRMC,163821.6,A,4916.4484,N,12311.1219,W,0.09,353.36,200614,018.2,E*7D
$HCHDG,337.5,0.0,E,,*2B
$YXXDR,A,5.8,D,PTCH,A,2.4,D,ROLL*56
$HCHDG,337.6,0.0,E,,*28
$YXXDR,A,5.7,D,PTCH,A,2.5,D,ROLL*58
$TIROT,11.7,A*0C
$IIVHW,,,,,00.0,N,,*19
$GPRMC,163821.8,A,4916.4483,N,12311.1220,W,0.03,353.36,200614,018.2,E*74
$IIVLW,06785,N,000.0,N*5F
$HCHDG,337.6,0.0,E,,*28
$YXXDR,A,5.7,D,PTCH,A,2.5,D,ROLL*58
$IIVWR,140,R,06.0,N,,,,*62
$HCHDG,337.4,0.0,E,,*2A
$YXXDR,A,5.7,D,PTCH,A,2.5,D,ROLL*58
$GPGGA,163822.000,4916.4483,N,12311.1220,W,1,5,1.60,26.7,M,-16.8,M,,*51
$GPGSA,A,3,03,16,23,07,10,,,,,,,,1.86,1.60,0.96*06
$GPGSV,3,1,11,07,58,263,40,23,48,125,40,10,44,278,32,16,41,055,44*72
$GPGSV,3,2,11,48,32,192,34,03,20,122,34,13,,,40,27,,,39*76
$GPGSV,3,3,11,19,,,33,09,,,32,30,,,34*7D
$GPRMC,163822.0,A,4916.4483,N,12311.1220,W,0.03,353.36,200614,018.2,E*7F
$HCHDG,337.5,0.0,E,,*2B
$YXXDR,A,5.7,D,PTCH,A,2.5,D,ROLL*58
$HCHDG,337.5,0.0,E,,*2B
$YXXDR,A,5.6,D,PTCH,A,2.6,D,ROLL*5A
$GPRMC,163822.2,A,4916.4483,N,12311.1221,W,0.06,353.36,200614,018.2,E*79
$HCHDG,337.6,0.0,E,,*28
$YXXDR,A,5.5,D,PTCH,A,2.7,D,ROLL*58
$HCHDG,337.8,0.0,E,,*26
$YXXDR,A,5.7,D,PTCH,A,2.7,D,ROLL*5A
$GPRMC,163822.4,A,4916.4483,N,12311.1221,W,0.07,353.36,200614,018.2,E*7E
$HCHDG,337.8,0.0,E,,*26
$YXXDR,A,5.7,D,PTCH,A,2.7,D,ROLL*5A
$IIMTW,+13.0,C*3A
$IIMWV,139,R,05.9,N,A*14
$HCHDG,337.9,0.0,E,,*27
$YXXDR,A,5.6,D,PTCH,A,2.7,D,ROLL*5B
$IIMWV,140,T,06.0,N,A*16
$GPRMC,163822.6,A,4916.4482,N,12311.1222,W,0.12,353.36,200614,018.2,E*7A
$HCHDG,338.1,0.0,E,,*20
$YXXDR,A,5.7,D,PTCH,A,2.7,D,ROLL*5A
$HCHDG,338.2,0.0,E,,*23
$YXXDR,A,5.5,D,PTCH,A,2.7,D,ROLL*58
$TIROT,39.3,A*02
$IIVHW,,,,,00.0,N,,*19
$GPRMC,163822.8,A,4916.4482,N,12311.1222,W,0.11,353.36,200614,018.2,E*77
$IIVLW,06785,N,000.0,N*5F
$HCHDG,338.1,0.0,E,,*20
$YXXDR,A,5.5,D,PTCH,A,2.5,D,ROLL*5A
$IIVWR,139,R,05.9,N,,,,*66
$HCHDG,338.0,0.0,E,,*21
$YXXDR,A,5.6,D,PTCH,A,2.3,D,ROLL*5F
$GPGGA,163823.000,4916.4482,N,12311.1223,W,1,5,1.60,25.9,M,-16.8,M,,*5F
$GPGSA,A,3,03,16,23,07,10,,,,,,,,1.86,1.60,0.96*06
$GPGSV,3,1,11,07,58,263,40,23,48,125,43,10,44,278,35,16,41,055,44*76
$GPGSV,3,2,11,48,32,192,34,03,20,122,32,13,,,41,27,,,40*7F
$GPGSV,3,3,11,19,,,35,09,,,28,30,,,34*70
$GPRMC,163823.0,A,4916.4482,N,12311.1223,W,0.09,353.36,200614,018.2,E*76
$HCHDG,338.2,0.0,E,,*23
$YXXDR,A,5.5,D,PTCH,A,2.2,D,ROLL*5D
$HCHDG,338.0,0.0,E,,*21
$YXXDR,A,5.5,D,PTCH,A,2.2,D,ROLL*5D
$GPRMC,163823.2,A,4916.4481,N,12311.1223,W,0.16,353.36,200614,018.2,E*79
$HCHDG,338.2,0.0,E,,*23
$YXXDR,A,5.5,D,PTCH,A,2.2,D,ROLL*5D
$HCHDG,338.0,0.0,E,,*21
$YXXDR,A,5.5,D,PTCH,A,2.2,D,ROLL*5D
$GPRMC,163823.4,A,4916.4481,N,12311.1223,W,0.08,353.36,200614,018.2,E*70
$HCHDG,338.0,0.0,E,,*21
$YXXDR,A,5.5,D,PTCH,A,2.5,D,ROLL*5A
$IIMTW,+13.0,C*3A
$IIMWV,136,R,06.1,N,A*10
$HCHDG,338.2,0.0,E,,*23
$YXXDR,A,5.5,D,PTCH,A,2.5,D,ROLL*5A
$IIMWV,139,T,05.9,N,A*12
$GPRMC,163823.6,A,4916.4481,N,12311.1224,W,0.09,353.36,200614,018.2,E*74
$HCHDG,338.2,0.0,E,,*23
$YXXDR,A,5.6,D,PTCH,A,2.6,D,ROLL*5A
$HCHDG,338.2,0.0,E,,*23
$YXXDR,A,5.6,D,PTCH,A,2.6,D,ROLL*5A
$TIROT,45.4,A*0E
$IIVHW,,,,,00.0,N,,*19
$GPRMC,163823.8,A,4916.4481,N,12311.1224,W,0.10,353.36,200614,018.2,E*72
$IIVLW,06785,N,000.0,N*5F
$HCHDG,338.3,0.0,E,,*22
$YXXDR,A,5.6,D,PTCH,A,2.4,D,ROLL*58
$IIVWR,136,R,06.1,N,,,,*62
$HCHDG,338.1,0.0,E,,*20
$YXXDR,A,5.6,D,PTCH,A,2.4,D,ROLL*58
$GPGGA,163824.000,4916.4480,N,12311.1224,W,1,5,1.60,24.9,M,-16.8,M,,*5C
$GPGSA,A,3,03,16,23,07,10,,,,,,,,1.86,1.60,0.96*06
$GPGSV,3,1,11,07,58,263,40,23,48,125,42,10,44,278,36,16,41,055,45*75
$GPGSV,3,2,11,48,32,192,34,03,20,122,34,13,,,40,27,,,40*78
$GPGSV,3,3,11,19,,,34,09,,,30,30,,,34*78
$GPRMC,163824.0,A,4916.4480,N,12311.1224,W,0.08,353.36,200614,018.2,E*75
$HCHDG,338.3,0.0,E,,*22
$YXXDR,A,5.8,D,PTCH,A,3.0,D,ROLL*53
$HCHDG,338.2,0.0,E,,*23
$YXXDR,A,5.8,D,PTCH,A,3.0,D,ROLL*53
$GPRMC,163824.2,A,4916.4480,N,12311.1224,W,0.09,353.36,200614,018.2,E*76
$HCHDG,338.1,0.0,E,,*20
$YXXDR,A,5.7,D,PTCH,A,3.4,D,ROLL*58
$HCHDG,338.3,0.0,E,,*22
$YXXDR,A,5.7,D,PTCH,A,3.4,D,ROLL*58
$GPRMC,163824.4,A,4916.4480,N,12311.1225,W,0.07,353.36,200614,018.2,E*7F
$HCHDG,338.2,0.0,E,,*23
$YXXDR,A,5.7,D,PTCH,A,3.3,D,ROLL*5F
$IIMTW,+13.0,C*3A
$IIMWV,135,R,06.4,N,A*16
$HCHDG,338.1,0.0,E,,*20
$YXXDR,A,5.9,D,PTCH,A,3.1,D,ROLL*53
$IIMWV,136,T,06.1,N,A*16
$GPRMC,163824.6,A,4916.4479,N,12311.1225,W,0.06,353.36,200614,018.2,E*7A
$HCHDG,338.3,0.0,E,,*22
$YXXDR,A,5.9,D,PTCH,A,3.1,D,ROLL*53
$HCHDG,338.2,0.0,E,,*23
$YXXDR,A,5.8,D,PTCH,A,3.4,D,ROLL*57
$TIROT,13.3,A*0A
$IIVHW,,,,,00.0,N,,*19
$GPRMC,163824.8,A,4916.4479,N,12311.1225,W,0.05,353.36,200614,018.2,E*77
$IIVLW,06785,N,000.0,N*5F
$HCHDG,338.3,0.0,E,,*22
$YXXDR,A,5.8,D,PTCH,A,3.4,D,ROLL*57
$IIVWR,135,R,06.4,N,,,,*64
$HCHDG,338.4,0.0,E,,*25
$YXXDR,A,5.7,D,PTCH,A,3.4,D,ROLL*58
$GPGGA,163825.000,4916.4479,N,12311.1225,W,1,5,1.60,24.3,M,-16.8,M,,*50
$GPGSA,A,3,03,16,23,07,10,,,,,,,,1.86,1.60,0.96*06
$GPGSV,3,1,11,07,58,263,40,23,48,125,41,10,44,278,36,16,41,055,45*76
$GPGSV,3,2,11,48,32,192,30,03,20,122,35,13,,,40,27,,,40*7D
$GPGSV,3,3,11,19,,,32,09,,,30,30,,,34*7E
$GPRMC,163825.0,A,4916.4479,N,12311.1225,W,0.07,353.36,200614,018.2,E*7C
$HCHDG,338.4,0.0,E,,*25
$YXXDR,A,5.8,D,PTCH,A,3.2,D,ROLL*51
$HCHDG,338.5,0.0,E,,*24
$YXXDR,A,5.7,D,PTCH,A,3.1,D,ROLL*5D
$GPRMC,163825.2,A,4916.4479,N,12311.1225,W,0.09,353.36,200614,018.2,E*70
$HCHDG,338.5,0.0,E,,*24
$YXXDR,A,5.6,D,PTCH,A,3.0,D,ROLL*5D
$HCHDG,338.6,0.0,E,,*27
$YXXDR,A,5.6,D,PTCH,A,2.9,D,ROLL*55
$GPRMC,163825.4,A,4916.4478,N,12311.1225,W,0.06,353.36,200614,018.2,E*78
$HCHDG,338.5,0.0,E,,*24
$YXXDR,A,5.6,D,PTCH,A,2.6,D,ROLL*5A
$IIMTW,+13.0,C*3A
$IIMWV,136,R,06.5,N,A*14
$HCHDG,338.3,0.0,E,,*22
$YXXDR,A,5.6,D,PTCH,A,2.3,D,ROLL*5F
$IIMWV,135,T,06.4,N,A*10
$GPRMC,163825.6,A,4916.4478,N,12311.1225,W,0.12,353.36,200614,018.2,E*7F
$HCHDG,338.2,0.0,E,,*23
$YXXDR,A,5.8,D,PTCH,A,1.7,D,ROLL*56
$HCHDG,338.2,0.0,E,,*23
$YXXDR,A,5.8,D,PTCH,A,1.5,D,ROLL*54
$TIROT,0.5,A*3E
$IIVHW,,,,,00.0,N,,*19
$GPRMC,163825.8,A,4916.4478,N,12311.1225,W,0.06,353.36,200614,018.2,E*74
$IIVLW,06785,N,000.0,N*5F
$HCHDG,338.1,0.0,E,,*20
$YXXDR,A,5.8,D,PTCH,A,1.4,D,ROLL*55
$IIVWR,136,R,06.5,N,,,,*66
$HCHDG,337.9,0.0,E,,*27
$YXXDR,A,5.8,D,PTCH,A,1.3,D,ROLL*52
$GPGGA,163826.000,4916.4478,N,12311.1225,W,1,5,1.60,24.3,M,-16.8,M,,*52
$GPGSA,A,3,03,16,23,07,10,,,,,,,,1.86,1.60,0.96*06
$GPGSV,3,1,11,07,58,263,40,23,48,125,42,10,44,278,38,16,41,055,44*7A
$GPGSV,3,2,11,48,32,192,34,03,20,122,33,13,,,41,27,,,41*7F
$GPGSV,3,3,11,19,,,34,09,,,24,30,,,35*7C
$GPRMC,163826.0,A,4916.4478,N,12311.1225,W,0.09,353.36,200614,018.2,E*70
$HCHDG,337.7,0.0,E,,*29
$YXXDR,A,5.8,D,PTCH,A,1.3,D,ROLL*52
$HCHDG,337.8,0.0,E,,*26
$YXXDR,A,5.8,D,PTCH,A,1.4,D,ROLL*55
$GPRMC,163826.2,A,4916.4477,N,12311.1225,W,0.08,353.36,200614,018.2,E*7C
$HCHDG,337.8,0.0,E,,*26
$YXXDR,A,5.6,D,PTCH,A,1.5,D,ROLL*5A
$HCHDG,337.9,0.0,E,,*27
$YXXDR,A,5.6,D,PTCH,A,1.8,D,ROLL*57
$GPRMC,163826.4,A,4916.4477,N,12311.1225,W,0.05,353.36,200614,018.2,E*77
$HCHDG,337.9,0.0,E,,*27
$YXXDR,A,5.6,D,PTCH,A,2.0,D,ROLL*5C
$IIMTW,+13.0,C*3A
$IIMWV,136,R,06.7,N,A*16
$HCHDG,337.9,0.0,E,,*27
$YXXDR,A,5.6,D,PTCH,A,2.3,D,ROLL*5F
$IIMWV,136,T,06.5,N,A*12
$GPRMC,163826.6,A,4916.4477,N,12311.1225,W,0.03,353.36,200614,018.2,E*73
$HCHDG,338.2,0.0,E,,*23
$YXXDR,A,5.6,D,PTCH,A,2.3,D,ROLL*5F
$HCHDG,338.2,0.0,E,,*23
$YXXDR,A,5.6,D,PTCH,A,2.3,D,ROLL*5F
$TIROT,-8.1,A*1F
$IIVHW,,,,,00.0,N,,*19
$GPRMC,163826.8,A,4916.4477,N,12311.1225,W,0.08,353.36,200614,018.2,E*76
$IIVLW,06785,N,000.0,N*5F
$HCHDG,338.1,0.0,E,,*20
$YXXDR,A,5.6,D,PTCH,A,2.4,D,ROLL*58
$IIVWR,136,R,06.7,N,,,,*64
$HCHDG,338.1,0.0,E,,*20
$YXXDR,A,5.8,D,PTCH,A,2.4,D,ROLL*56
$GPGGA,163827.000,4916.4476,N,12311.1226,W,1,6,1.55,24.0,M,-16.8,M,,*58
$GPGSA,A,3,03,16,23,07,10,27,,,,,,,1.82,1.55,0.95*02
$GPGSV,3,1,11,07,58,263,40,23,48,125,42,10,44,278,38,16,41,055,44*7A
$GPGSV,3,2,11,48,32,192,34,03,20,122,33,27,19,096,39,13,,,41*47
$GPGSV,3,3,11,19,,,35,09,,,28,30,,,34*70
$GPRMC,163827.0,A,4916.4476,N,12311.1226,W,0.04,353.36,200614,018.2,E*71
$HCHDG,338.1,0.0,E,,*20
$YXXDR,A,5.7,D,PTCH,A,2.5,D,ROLL*58
$HCHDG,337.9,0.0,E,,*27
$YXXDR,A,5.7,D,PTCH,A,2.5,D,ROLL*58
$GPRMC,163827.2,A,4916.4476,N,12311.1226,W,0.07,353.36,200614,018.2,E*70
$HCHDG,337.8,0.0,E,,*26
$YXXDR,A,5.6,D,PTCH,A,2.6,D,ROLL*5A
$HCHDG,337.8,0.0,E,,*26
$YXXDR,A,5.6,D,PTCH,A,2.6,D,ROLL*5A
$GPRMC,163827.4,A,4916.4476,N,12311.1226,W,0.05,353.36,200614,018.2,E*74
$HCHDG,337.7,0.0,E,,*29
$YXXDR,A,5.6,D,PTCH,A,2.4,D,ROLL*58
$IIMTW,+13.0,C*3A
$IIMWV,136,R,06.7,N,A*16
$HCHDG,337.5,0.0,E,,*2B
$YXXDR,A,5.6,D,PTCH,A,2.4,D,ROLL*58
$IIMWV,136,T,06.7,N,A*10
$GPRMC,163827.6,A,4916.4476,N,12311.1226,W,0.04,353.36,200614,018.2,E*77
$HCHDG,337.6,0.0,E,,*28
$YXXDR,A,5.5,D,PTCH,A,2.5,D,ROLL*5A
$HCHDG,337.5,0.0,E,,*2B
$YXXDR,A,5.5,D,PTCH,A,2.5,D,ROLL*5A
$TIROT,-15.1,A*23
$IIVHW,,,,,00.0,N,,*19
$GPRMC,163827.8,A,4916.4475,N,12311.1226,W,0.02,353.36,200614,018.2,E*7C
$IIVLW,06785,N,000.0,N*5F
$HCHDG,337.6,0.0,E,,*28
$YXXDR,A,5.5,D,PTCH,A,2.7,D,ROLL*58
$IIVWR,136,R,06.7,N,,,,*64
$HCHDG,337.5,0.0,E,,*2B
$YXXDR,A,5.4,D,PTCH,A,2.8,D,ROLL*56
$GPGGA,163828.000,4916.4475,N,12311.1226,W,1,6,1.55,23.8,M,-16.8,M,,*5B
$GPGSA,A,3,03,16,23,07,10,27,,,,,,,1.82,1.55,0.95*02
$GPGSV,3,1,11,07,58,263,40,23,48,125,41,10,44,278,35,16,41,055,44*74
$GPGSV,3,2,11,48,32,192,34,03,20,122,35,27,19,096,39,13,,,40*40
$GPGSV,3,3,11,19,,,35,09,,,33,30,,,30*7E
$GPRMC,163828.0,A,4916.4475,N,12311.1226,W,0.05,353.36,200614,018.2,E*7C
$HCHDG,337.6,0.0,E,,*28
$YXXDR,A,5.5,D,PTCH,A,2.8,D,ROLL*57
$HCHDG,337.5,0.0,E,,*2B
$YXXDR,A,5.5,D,PTCH,A,2.9,D,ROLL*56
$GPRMC,163828.2,A,4916.4475,N,12311.1226,W,0.07,353.36,200614,018.2,E*7C
$HCHDG,337.7,0.0,E,,*29
$YXXDR,A,5.6,D,PTCH,A,3.0,D,ROLL*5D
$HCHDG,337.6,0.0,E,,*28
$YXXDR,A,5.6,D,PTCH,A,3.0,D,ROLL*5D
$GPRMC,163828.4,A,4916.4475,N,12311.1226,W,0.02,353.36,200614,018.2,E*7F
$HCHDG,337.5,0.0,E,,*2B
$YXXDR,A,5.6,D,PTCH,A,2.9,D,ROLL*55
$IIMTW,+13.0,C*3A
$IIMWV,135,R,07.0,N,A*13
$HCHDG,337.5,0.0,E,,*2B
$YXXDR,A,5.6,D,PTCH,A,2.9,D,ROLL*55
$IIMWV,136,T,06.7,N,A*10
$GPRMC,163828.6,A,4916.4475,N,12311.1226,W,0.02,353.36,200614,018.2,E*7D
$HCHDG,337.4,0.0,E,,*2A
$YXXDR,A,5.6,D,PTCH,A,2.9,D,ROLL*55
$HCHDG,337.2,0.0,E,,*2C
$YXXDR,A,5.8,D,PTCH,A,2.9,D,ROLL*5B
$TIROT,1.8,A*32
$IIVHW,,,,,00.0,N,,*19
$GPRMC,163828.8,A,4916.4475,N,12311.1226,W,0.02,353.36,200614,018.2,E*73
$IIVLW,06785,N,000.0,N*5F
$HCHDG,337.2,0.0,E,,*2C
$YXXDR,A,5.8,D,PTCH,A,2.9,D,ROLL*5B
$IIVWR,135,R,07.0,N,,,,*61
$HCHDG,337.3,0.0,E,,*2D
$YXXDR,A,5.8,D,PTCH,A,3.0,D,ROLL*53
$GPGGA,163829.000,4916.4474,N,12311.1226,W,1,6,1.55,23.6,M,-16.8,M,,*55
$GPGSA,A,3,03,16,23,07,10,27,,,,,,,1.82,1.55,0.95*02
$GPGSV,3,1,11,07,58,263,40,23,48,125,40,10,44,278,35,16,41,055,44*75
$GPGSV,3,2,11,48,32,192,34,03,20,122,36,27,19,096,39,13,,,39*4D
$GPGSV,3,3,11,19,,,35,09,,,29,30,,,29*7D
$GPRMC,163829.0,A,4916.4474,N,12311.1226,W,0.01,353.36,200614,018.2,E*78
$HCHDG,337.2,0.0,E,,*2C
$YXXDR,A,6.0,D,PTCH,A,3.1,D,ROLL*59
$HCHDG,337.1,0.0,E,,*2F
$YXXDR,A,6.0,D,PTCH,A,3.1,D,ROLL*59
$GPRMC,163829.2,A,4916.4474,N,12311.1226,W,0.08,353.36,200614,018.2,E*73
$HCHDG,337.1,0.0,E,,*2F
$YXXDR,A,5.8,D,PTCH,A,3.0,D,ROLL*53
$HCHDG,337.0,0.0,E,,*2E
$YXXDR,A,5.7,D,PTCH,A,3.1,D,ROLL*5D
$GPRMC,163829.4,A,4916.4474,N,12311.1226,W,0.01,353.36,200614,018.2,E*7C
$HCHDG,337.2,0.0,E,,*2C
$YXXDR,A,5.5,D,PTCH,A,3.1,D,ROLL*5F
$IIMTW,+13.0,C*3A
$IIMWV,137,R,07.2,N,A*13
$HCHDG,337.2,0.0,E,,*2C
$YXXDR,A,5.5,D,PTCH,A,3.1,D,ROLL*5F
$IIMWV,135,T,07.0,N,A*15
$GPRMC,163829.6,A,4916.4474,N,12311.1226,W,0.12,353.36,200614,018.2,E*7C
$HCHDG,337.1,0.0,E,,*2F
$YXXDR,A,5.4,D,PTCH,A,3.1,D,ROLL*5E
$HCHDG,337.0,0.0,E,,*2E
$YXXDR,A,5.4,D,PTCH,A,3.1,D,ROLL*5E
$TIROT,13.4,A*0D
$IIVHW,,,,,00.0,N,,*19
$GPRMC,163829.8,A,4916.4474,N,12311.1226,W,0.06,353.36,200614,018.2,E*77
$IIVLW,06785,N,000.0,N*5F
$HCHDG,337.0,0.0,E,,*2E
$YXXDR,A,5.4,D,PTCH,A,3.1,D,ROLL*5E
$IIVWR,137,R,07.2,N,,,,*61
$HCHDG,336.9,0.0,E,,*26
$YXXDR,A,5.4,D,PTCH,A,3.1,D,ROLL*5E
$GPGGA,163830.000,4916.4474,N,12311.1226,W,1,6,1.55,23.5,M,-16.8,M,,*5E
$GPGSA,A,3,03,16,23,07,10,27,,,,,,,1.82,1.55,0.95*02
$GPGSV,3,1,11,07,58,263,41,23,48,125,38,10,44,278,35,16,41,055,44*7B
$GPGSV,3,2,11,48,32,192,35,03,20,122,36,27,19,096,39,13,,,39*4C
$GPGSV,3,3,11,19,,,36,09,,,31,30,,,29*77
$GPRMC,163830.0,A,4916.4474,N,12311.1226,W,0.08,353.36,200614,018.2,E*79
$HCHDG,336.9,0.0,E,,*26
$YXXDR,A,5.5,D,PTCH,A,2.9,D,ROLL*56
$HCHDG,336.9,0.0,E,,*26
$YXXDR,A,5.5,D,PTCH,A,2.8,D,ROLL*57
$GPRMC,163830.2,A,4916.4474,N,12311.1226,W,0.06,353.36,200614,018.2,E*75
$HCHDG,336.8,0.0,E,,*27
$YXXDR,A,5.5,D,PTCH,A,2.7,D,ROLL*58
$HCHDG,336.8,0.0,E,,*27
$YXXDR,A,5.5,D,PTCH,A,2.5,D,ROLL*5A
$GPRMC,163830.4,A,4916.4474,N,12311.1225,W,0.07,353.36,200614,018.2,E*71
$HCHDG,336.4,0.0,E,,*2B
$YXXDR,A,5.5,D,PTCH,A,2.7,D,ROLL*58
$IIMTW,+13.0,C*3A
$IIMWV,136,R,07.1,N,A*11
$HCHDG,336.4,0.0,E,,*2B
$YXXDR,A,5.6,D,PTCH,A,2.7,D,ROLL*5B
$IIMWV,137,T,07.2,N,A*15
$GPRMC,163830.6,A,4916.4473,N,12311.1225,W,0.07,353.36,200614,018.2,E*74
$HCHDG,336.4,0.0,E,,*2B
$YXXDR,A,5.6,D,PTCH,A,2.7,D,ROLL*5B
$HCHDG,336.6,0.0,E,,*29
$YXXDR,A,5.6,D,PTCH,A,3.0,D,ROLL*5D
$TIROT,-1.9,A*1E
$IIVHW,,,,,00.0,N,,*19
$GPRMC,163830.8,A,4916.4473,N,12311.1225,W,0.04,353.36,200614,018.2,E*79
$IIVLW,06785,N,000.0,N*5F
$HCHDG,336.6,0.0,E,,*29
$YXXDR,A,5.6,D,PTCH,A,3.0,D,ROLL*5D
$IIVWR,136,R,07.1,N,,,,*63
$HCHDG,336.5,0.0,E,,*2A
$YXXDR,A,5.6,D,PTCH,A,3.0,D,ROLL*5D
$GPGGA,163831.000,4916.4473,N,12311.1225,W,1,6,1.55,23.5,M,-16.8,M,,*5B
$GPGSA,A,3,03,16,23,07,10,27,,,,,,,1.82,1.55,0.95*02
$GPGSV,3,1,11,07,58,263,40,23,48,125,38,10,44,278,35,16,41,055,43*7D
$GPGSV,3,2,11,48,32,192,35,03,20,122,39,27,19,096,40,13,,,39*4D
$GPGSV,3,3,11,19,,,36,09,,,34,30,,,27*7C
$GPRMC,163831.0,A,4916.4473,N,12311.1225,W,0.02,353.36,200614,018.2,E*76
$HCHDG,336.5,0.0,E,,*2A
$YXXDR,A,5.5,D,PTCH,A,2.9,D,ROLL*56
$HCHDG,336.4,0.0,E,,*2B
$YXXDR,A,5.5,D,PTCH,A,2.9,D,ROLL*56
$GPRMC,163831.2,A,4916.4473,N,12311.1225,W,0.06,353.36,200614,018.2,E*70
$HCHDG,336.4,0.0,E,,*2B
$YXXDR,A,5.4,D,PTCH,A,3.1,D,ROLL*5E
$HCHDG,336.4,0.0,E,,*2B
$YXXDR,A,5.4,D,PTCH,A,3.1,D,ROLL*5E
$GPRMC,163831.4,A,4916.4473,N,12311.1224,W,0.09,353.36,200614,018.2,E*78
$HCHDG,336.3,0.0,E,,*2C
$YXXDR,A,5.4,D,PTCH,A,3.1,D,ROLL*5E
$IIMTW,+13.0,C*3A
$IIMWV,135,R,07.1,N,A*12
$HCHDG,336.3,0.0,E,,*2C
$YXXDR,A,5.4,D,PTCH,A,3.1,D,ROLL*5E
$IIMWV,136,T,07.1,N,A*17
$GPRMC,163831.6,A,4916.4473,N,12311.1224,W,0.11,353.36,200614,018.2,E*73
$HCHDG,336.3,0.0,E,,*2C
$YXXDR,A,5.4,D,PTCH,A,3.1,D,ROLL*5E
$HCHDG,336.3,0.0,E,,*2C
$YXXDR,A,5.6,D,PTCH,A,3.0,D,ROLL*5D
$TIROT,16.6,A*0A
$IIVHW,,,,,00.0,N,,*19
$GPRMC,163831.8,A,4916.4473,N,12311.1224,W,0.01,353.36,200614,018.2,E*7C
$IIVLW,06785,N,000.0,N*5F
$HCHDG,336.5,0.0,E,,*2A
$YXXDR,A,5.6,D,PTCH,A,3.0,D,ROLL*5D
$IIVWR,135,R,07.1,N,,,,*60
$HCHDG,336.5,0.0,E,,*2A
$YXXDR,A,5.9,D,PTCH,A,3.1,D,ROLL*53
$GPGGA,163832.000,4916.4473,N,12311.1224,W,1,6,1.55,23.5,M,-16.8,M,,*59
$GPGSA,A,3,03,16,23,07,10,27,,,,,,,1.82,1.55,0.95*02
$GPGSV,3,1,11,07,58,263,40,23,48,125,39,10,44,278,36,16,41,055,45*79
$GPGSV,3,2,11,48,32,192,33,03,20,122,38,27,19,096,41,13,,,39*4B
$GPGSV,3,3,11,19,,,34,09,,,33,30,,,28*76
$GPRMC,163832.0,A,4916.4473,N,12311.1224,W,0.04,353.36,200614,018.2,E*72
$HCHDG,336.5,0.0,E,,*2A
$YXXDR,A,5.8,D,PTCH,A,3.3,D,ROLL*50
$HCHDG,336.5,0.0,E,,*2A
$YXXDR,A,5.7,D,PTCH,A,3.3,D,ROLL*5F
$HCHDG,336.4,0.0,E,,*2B
$GPRMC,163832.2,A,4916.4472,N,12311.1224,W,0.10,353.36,200614,018.2,E*74
$YXXDR,A,5.7,D,PTCH,A,3.3,D,ROLL*5F
$HCHDG,336.4,0.0,E,,*2B
$YXXDR,A,5.7,D,PTCH,A,3.3,D,ROLL*5F
$GPRMC,163832.4,A,4916.4472,N,12311.1225,W,0.06,353.36,200614,018.2,E*74
$HCHDG,336.4,0.0,E,,*2B
$YXXDR,A,5.8,D,PTCH,A,3.2,D,ROLL*51
$IIMTW,+13.0,C*3A
$IIMWV,134,R,07.3,N,A*11
$HCHDG,336.4,0.0,E,,*2B
$YXXDR,A,5.8,D,PTCH,A,3.2,D,ROLL*51
$IIMWV,135,T,07.1,N,A*14
$GPRMC,163832.6,A,4916.4472,N,12311.1225,W,0.03,353.36,200614,018.2,E*73
$HCHDG,336.6,0.0,E,,*29
$YXXDR,A,5.8,D,PTCH,A,3.2,D,ROLL*51
$HCHDG,336.6,0.0,E,,*29
$YXXDR,A,5.9,D,PTCH,A,3.1,D,ROLL*53
$TIROT,16.5,A*09
$IIVHW,,,,,00.0,N,,*19
$GPRMC,163832.8,A,4916.4472,N,12311.1225,W,0.02,353.36,200614,018.2,E*7C
$HCHDG,336.6,0.0,E,,*29
$IIVLW,06785,N,000.0,N*5F
$YXXDR,A,5.8,D,PTCH,A,2.9,D,ROLL*5B
$IIVWR,134,R,07.3,N,,,,*63
$HCHDG,336.7,0.0,E,,*28
$YXXDR,A,5.8,D,PTCH,A,3.0,D,ROLL*53
$GPGGA,163833.000,4916.4472,N,12311.1226,W,1,9,1.33,21.9,M,-16.8,M,,*5A
$GPGSA,A,3,03,16,23,07,10,13,27,19,30,,,,1.58,1.33,0.85*0D
$GPGSV,3,1,10,13,81,109,40,07,58,263,39,23,48,125,38,10,44,278,36*73
$GPGSV,3,2,10,16,41,055,46,48,32,192,35,30,28,254,27,03,21,122,37*72
$GPGSV,3,3,10,27,19,096,42,19,06,126,36*72
$GPRMC,163833.0,A,4916.4472,N,12311.1226,W,0.05,353.36,200614,018.2,E*71
$HCHDG,336.4,0.0,E,,*2B
$YXXDR,A,5.8,D,PTCH,A,3.0,D,ROLL*53
$HCHDG,336.5,0.0,E,,*2A
$YXXDR,A,5.8,D,PTCH,A,2.9,D,ROLL*5B
$GPRMC,163833.2,A,4916.4472,N,12311.1226,W,0.00,353.36,200614,018.2,E*76
$HCHDG,336.6,0.0,E,,*29
$YXXDR,A,5.7,D,PTCH,A,2.8,D,ROLL*55
$HCHDG,336.4,0.0,E,,*2B
$YXXDR,A,5.7,D,PTCH,A,2.6,D,ROLL*5B
$GPRMC,163833.4,A,4916.4472,N,12311.1226,W,0.02,353.36,200614,018.2,E*72
$HCHDG,336.5,0.0,E,,*2A
$YXXDR,A,5.7,D,PTCH,A,2.5,D,ROLL*58
$IIMTW,+13.0,C*3A
$IIMWV,134,R,07.1,N,A*13
$HCHDG,336.6,0.0,E,,*29
$YXXDR,A,5.6,D,PTCH,A,2.6,D,ROLL*5A
$IIMWV,134,T,07.3,N,A*17
$GPRMC,163833.6,A,4916.4472,N,12311.1226,W,0.09,353.36,200614,018.2,E*7B
$HCHDG,336.6,0.0,E,,*29
$YXXDR,A,5.6,D,PTCH,A,2.6,D,ROLL*5A
$HCHDG,336.7,0.0,E,,*28
$YXXDR,A,5.5,D,PTCH,A,2.8,D,ROLL*57
$TIROT,30.5,A*0D
$IIVHW,,,,,00.0,N,,*19
$IIVLW,06785,N,000.0,N*5F
$IIVWR,134,R,07.1,N,,,,*61
$GPRMC,163833.8,A,4916.4472,N,12311.1226,W,0.04,353.36,200614,018.2,E*78
$HCHDG,336.7,0.0,E,,*28
$YXXDR,A,5.5,D,PTCH,A,3.1,D,ROLL*5F
$HCHDG,336.8,0.0,E,,*27
$YXXDR,A,5.5,D,PTCH,A,3.3,D,ROLL*5D
$GPGGA,163834.000,4916  4472,N,12311.1226,W,1,9,1.33,21.0,M,-16.8,M,,*54
$HCHDG,336.8,0.0,E,,*27
$GPGSA,A,3,0310,44,278,34*78
$GPGSV,3,2,10,16,41,055,44,48,32,192,32,30,28,254,26,03,21,122,37*76
$YXXDR,A,5.5,D,PTCH,A,3.3,D,ROLL*5D
$GPGSV,3,3,10,27,19,096,41,19,06,126,38*7F
$GPRMC,163834.0,A,4916.4472,N,12311.1226,W,0.09,353.36,200614,018.2,E*7A
$HCHDG,336.8,0.0,E,,*27
$YXXDR,A,5.5,D,PTCH,A,3.3,D,ROLL*5D
$GPRMC,163834.2,A,4916.4472,N,12311.1226,W,0.11,353.36,200614,018.2,E*71
$HCHDG,336.5,0.0,E,,*2A
$YXXDR,A,5.5,D,PTCH,A,3.3,D,ROLL*5D
$HCHDG,336.8,0.0,E,,*27
$YXXDR,A,5.7,D,PTCH,A,3.2,D,ROLL*5E
$GPRMC,163834.4,A,4916.4472,N,12311.1226,W,0.06,353.36,200614,018.2,E*71
$HCHDG,336.7,0.0,E,,*28
$YXXDR,A,5.6,D,PTCH,A,3.3,D,ROLL*5E
$IIMTW,+13.0,C*3A
$IIMWV,131,R,07.0,N,A*17
$HCHDG,336.7,0.0,E,,*28
$YXXDR,A,5.7,D,PTCH,A,3.5,D,ROLL*59
$IIMWV,134,T,07.1,N,A*15
$GPRMC,163834.6,A,4916.4472,N,12311.1226,W,0.13,353.36,200614,018.2,E*77
$HCHDG,336.9,0.0,E,,*26
$YXXDR,A,5.8,D,PTCH,A,3.5,D,ROLL*56
$HCHDG,336.6,0.0,E,,*29
$YXXDR,A,5.8,D,PTCH,A,3.5,D,ROLL*56
$TIROT,31.6,A*0F
$IIVHW,,,,,00.0,N,,*19
$GPRMC,163834.8,A,4916.4472,N,12311.1225,W,0.14,353.36,200614,018.2,E*7D
$IIVLW,06785,N,000.0,N*5F
$HCHDG,336.8,0.0,E,,*27
$YXXDR,A,5.8,D,PTCH,A,3.6,D,ROLL*55
$IIVWR,131,R,07.0,N,,,,*65
$HCHDG,336.6,0.0,E,,*29
$YXXDR,A,5.7,D,PTCH,A,3.8,D,ROLL*54
$HCHDG,336.7,0.0,E,,*28
$GPGGA,163835.000,4916.4472,N,12311.1225,W,1,9,1.33,20.5,M,-16.8,M,,*52
$GPGSA,A,3,03,16,23,07,10,13,27,19,30,,,,1.58,1.33,0.85*0D
$GPGSV,3,1,10,13,81,109,41,07,58,264,41,23,48,125,37,10,44,277,34*78
$YXXDR,A,5.8,D,PTCH,A,3.9,D,ROLL*5A
$GPGSV,3,2,10,16,41,055,41,48,32,192,33,30,28,254,22,03,21,122,34*75
$GPGSV,3,3,10,27,19,096,22,19,06,126,35*77
$GPRMC,163835.0,A,4916.4472,N,12311.1225,W,0.05,353.36,200614,018.2,E*74
$HCHDG,336.7,0.0,E,,*28
$YXXDR,A,5.8,D,PTCH,A,3.9,D,ROLL*5A
$GPRMC,163835.2,A,4916.4472,N,12311.1225,W,0.07,353.36,200614,018.2,E*74
$HCHDG,336.7,0.0,E,,*28
$YXXDR,A,5.7,D,PTCH,A,4.2,D,ROLL*59
$HCHDG,336.7,0.0,E,,*28
$YXXDR,A,6.0,D,PTCH,A,4.9,D,ROLL*56
$GPRMC,163835.4,A,4916.4472,N,12311.1225,W,0.06,353.36,200614,018.2,E*73
$HCHDG,336.7,0.0,E,,*28
$YXXDR,A,5.8,D,PTCH,A,5.0,D,ROLL*55
$IIMTW,+13.0,C*3A
$IIMWV,132,R,07.1,N,A*15
$HCHDG,336.8,0.0,E,,*27
$YXXDR,A,5.9,D,PTCH,A,4.9,D,ROLL*5C
$IIMWV,131,T,07.0,N,A*11
$GPRMC,163835.6,A,4916.4472,N,12311.1225,W,0.05,353.36,200614,018.2,E*72
$HCHDG,336.6,0.0,E,,*29
$YXXDR,A,5.7,D,PTCH,A,4.8,D,ROLL*53
$HCHDG,336.7,0.0,E,,*28
$YXXDR,A,5.6,D,PTCH,A,4.5,D,ROLL*5F
$TIROT,-26.3,A*21
$IIVHW,,,,,00.0,N,,*19
$GPRMC,163835.8,A,4916.4472,N,12311.1226,W,0.09,353.36,200614,018.2,E*73
$IIVLW,06785,N,000.0,N*5F
$HCHDG,336.5,0.0,E,,*2A
$YXXDR,A,5.9,D,PTCH,A,4.2,D,ROLL*57
$IIVWR,132,R,07.1,N,,,,*67
$HCHDG,336.4,0.0,E,,*2B
$YXXDR,A,5.8,D,PTCH,A,4.0,D,ROLL*54
$HCHDG,336.3,0.0,E,,*2C
$GPGGA,163836.000,4916.4472,N,12311.1226,W,1,9,1.33,19.8,M,-16.8,M,,*55
$GPGSA,A,3,03,16,23,07,10,13,27,19,30,,,,1.58,1.33,0.85*0D
$GPGSV,3,1,10,13,81,109,40,07,58,264,41,23,48,125,35,10,44,277,34*7B
$GPGSV,3,2,10,16,41,055,43,48,32,192,34,30,28,254,25,03,21,122,24*76
$GPGSV,3,3,10,27,19,096,26,19,06,126,35*73
$YXXDR,A,5.8,D,PTCH,A,3.9,D,ROLL*5A
$GPRMC,163836.0,A,4916.4472,N,12311.1226,W,0.10,353.36,200614,018.2,E*70
$HCHDG,336.2,0.0,E,,*2D
$YXXDR,A,5.6,D,PTCH,A,3.7,D,ROLL*5A
$GPRMC,163836.2,A,4916.4472,N,12311.1226,W,0.08,353.36,200614,018.2,E*7B
$HCHDG,336.2,0.0,E,,*2D
$YXXDR,A,5.5,D,PTCH,A,3.6,D,ROLL*58
$HCHDG,336.2,0.0,E,,*2D
$YXXDR,A,5.5,D,PTCH,A,3.6,D,ROLL*58
$GPRMC,163836.4,A,4916.4472,N,12311.1226,W,0.10,353.36,200614,018.2,E*74
$HCHDG,336.0,0.0,E,,*2F
$YXXDR,A,5.5,D,PTCH,A,3.4,D,ROLL*5A
$IIMTW,+13.0,C*3A
$IIMWV,132,R,07.0,N,A*14
$HCHDG,336.0,0.0,E,,*2F
$YXXDR,A,5.6,D,PTCH,A,3.5,D,ROLL*58
$IIMWV,132,T,07.1,N,A*13
$GPRMC,163836.6,A,4916.4472,N,12311.1226,W,0.09,353.36,200614,018.2,E*7E
$HCHDG,336.0,0.0,E,,*2F
$YXXDR,A,5.6,D,PTCH,A,3.5,D,ROLL*58
$HCHDG,336.1,0.0,E,,*2E
$YXXDR,A,5.5,D,PTCH,A,3.6,D,ROLL*58
$TIROT,1.2,A*38
$IIVHW,,,,,00.0,N,,*19
$IIVLW,06785,N,000.0,N*5F
$GPRMC,163836.8,A,4916.4472,N,12311.1226,W,0.06,353.36,200614,018.2,E*7F
$HCHDG,336.3,0.0,E,,*2C
$YXXDR,A,5.5,D,PTCH,A,3.7,D,ROLL*59
$IIVWR,132,R,07.0,N,,,,*66
$HCHDG,336.3,0.0,E,,*2C
$YXXDR,A,5.5,D,PTCH,A,3.7,D,ROLL*59
$HCHDG,336.4,0.0,E,,*2B
$GPGGA,163837.000,4916.4472,N,12311.1226,W,1,9,1.33,19.3,M,-16.8,M,,*5F
$GPGSA,A,3,03,16,23,07,10,13,27,19,30,,,,1.58,1.33,0.85*0D
$GPGSV,3,1,10,13,81,109,40,07,58,264,41,23,48,125,35,10,44,277,34*7B
$YXXDR,A,5.5,D,PTCH,A,3.7,D,ROLL*59
$GPGSV,3,2,10,16,41,055,43,48,32,192,36,30,28,254,21,03,21,122,32*77
$GPGSV,3,3,10,27,19,096,28,19,06,125,36*7D
$GPRMC,163837.0,A,4916.4472,N,12311.1226,W,0.04,353.36,200614,018.2,E*74
$HCHDG,336.4,0.0,E,,*2B
$YXXDR,A,5.4,D,PTCH,A,3.6,D,ROLL*59
$GPRMC,163837.2,A,4916.4472,N,12311.1226,W,0.04,353.36,200614,018.2,E*76
$HCHDG,336.4,0.0,E,,*2B
$YXXDR,A,5.4,D,PTCH,A,3.5,D,ROLL*5A
$HCHDG,336.4,0.0,E,,*2B
$YXXDR,A,5.5,D,PTCH,A,3.4,D,ROLL*5A
$GPRMC,163837.4,A,4916.4472,N,12311.1226,W,0.04,353.36,200614,018.2,E*70
$HCHDG,336.3,0.0,E,,*2C
$YXXDR,A,5.5,D,PTCH,A,3.3,D,ROLL*5D
$IIMTW,+13.0,C*3A
$IIMWV,133,R,06.9,N,A*1D
$HCHDG,336.1,0.0,E,,*2E
$YXXDR,A,5.5,D,PTCH,A,3.1,D,ROLL*5F
$IIMWV,132,T,07.0,N,A*12
$GPRMC,163837.6,A,4916.4472,N,12311.1226,W,0.05,353.36,200614,018.2,E*73
$HCHDG,335.9,0.0,E,,*25
$YXXDR,A,5.6,D,PTCH,A,3.0,D,ROLL*5D
$HCHDG,335.9,0.0,E,,*25
$YXXDR,A,5.7,D,PTCH,A,3.1,D,ROLL*5D
$TIROT,0.0,A*3B
$IIVHW,,,,,00.0,N,,*19
$IIVLW,06785,N,000.0,N*5F
$GPRMC,163837.8,A,4916.4472,N,12311.1226,W,0.05,353.36,200614,018.2,E*7D
$HCHDG,335.9,0.0,E,,*25
$YXXDR,A,5.5,D,PTCH,A,3.1,D,ROLL*5F
$IIVWR,133,R,06.9,N,,,,*6F
$HCHDG,335.6,0.0,E,,*2A
$YXXDR,A,5.5,D,PTCH,A,3.1,D,ROLL*5F
$HCHDG,335.9,0.0,E,,*25
$GPGGA,163838.000,4916.4472,N,12311.1226,W,1,9,1.33,18.8,M,-16.8,M,,*5A
$GPGSA,A,3,03,16,23,07,10,13,27,19,30,,,,1.58,1.33,0.85*0D
$GPGSV,3,1,10,13,81,109,42,07,58,264,39,23,48,125,35,10,44,277,32*70
$YXXDR,A,5.4,D,PTCH,A,3.3,D,ROLL*5C
$GPGSV,3,2,10,16,41,055,43,48,32,192,37,30,28,254,25,03,21,122,30*70
$GPGSV,3,3,10,27,19,096,27,19,06,125,37*73
$GPRMC,163838.0,A,4916.4472,N,12311.1226,W,0.05,353.36,200614,018.2,E*7A
$HCHDG,335.9,0.0,E,,*25
$YXXDR,A,5.4,D,PTCH,A,3.4,D,ROLL*5B
$GPRMC,163838.2,A,4916.4472,N,12311.1226,W,0.05,353.36,200614,018.2,E*78
$HCHDG,335.9,0.0,E,,*25
$YXXDR,A,5.4,D,PTCH,A,3.5,D,ROLL*5A
$HCHDG,335.8,0.0,E,,*24
$YXXDR,A,5.3,D,PTCH,A,3.6,D,ROLL*5E
$GPRMC,163838.4,A,4916.4473,N,12311.1226,W,0.07,353.36,200614,018.2,E*7D
$HCHDG,336.0,0.0,E,,*2F
$YXXDR,A,5.2,D,PTCH,A,3.6,D,ROLL*5F
$IIMTW,+13.0,C*3A
$IIMWV,132,R,07.0,N,A*14
$HCHDG,336.0,0.0,E,,*2F
$YXXDR,A,5.2,D,PTCH,A,3.7,D,ROLL*5E
$IIMWV,133,T,06.9,N,A*1B
$GPRMC,163838.6,A,4916.4473,N,12311.1226,W,0.06,353.36,200614,018.2,E*7E
$HCHDG,336.2,0.0,E,,*2D
$YXXDR,A,5.2,D,PTCH,A,3.9,D,ROLL*50
$HCHDG,336.1,0.0,E,,*2E
$YXXDR,A,5.4,D,PTCH,A,4.0,D,ROLL*58
$TIROT,23.4,A*0E
$IIVHW,,,,,00.0,N,,*19
$GPRMC,163838.8,A,4916.4473,N,12311.1226,W,0.03,353.36,200614,018.2,E*75
$HCHDG,336.0,0.0,E,,*2F
$IIVLW,06785,N,000.0,N*5F
$YXXDR,A,5.4,D,PTCH,A,4.0,D,ROLL*58
$IIVWR,132,R,07.0,N,,,,*66
$HCHDG,335.9,0.0,E,,*25
$YXXDR,A,5.4,D,PTCH,A,3.8,D,ROLL*57
$GPGGA,163839.000,4916.4473,N,12311.1226,W,1,9,1.45,18.5,M,-16.8,M,,*56
$GPGSA,A,3,03,16,23,07,10,13,27,19,30,,,,2.17,1.45,1.61*0F
$GPGSV,3,1,10,13,81,109,42,07,58,264,39,23,48,125,33,10,44,277,32*76
$HCHDG,335.8,0.0,E,,*24
$GPGSV,3,2,10,16,41,055,41,48,32,192,37,30,28,254,23,03,21,122,27*72
$GPGSV,3,3,10,27,19,096,24,19,06,125,37*70
$GPRMC,163839.0,A,4916.4473,N,12311.1226,W,0.02,353.36,200614,018.2,E*7D
$YXXDR,A,5.6,D,PTCH,A,3.8,D,ROLL*55
$HCHDG,335.7,0.0,E,,*2B
$YXXDR,A,5.4,D,PTCH,A,3.5,D,ROLL*5A
$GPRMC,163839.2,A,4916.4473,N,12311.1226,W,0.03,353.36,200614,018.2,E*7E
$HCHDG,335.6,0.0,E,,*2A
$YXXDR,A,5.4,D,PTCH,A,3.5,D,ROLL*5A
$HCHDG,335.5,0.0,E,,*29
$YXXDR,A,5.4,D,PTCH,A,3.5,D,ROLL*5A
$GPRMC,163839.4,A,4916.4473,N,12311.1226,W,0.01,353.36,200614,018.2,E*7A
$HCHDG,335.4,0.0,E,,*28
$YXXDR,A,5.5,D,PTCH,A,3.8,D,ROLL*56
$IIMTW,+13.0,C*3A
$IIMWV,131,R,06.9,N,A*1F
$HCHDG,335.6,0.0,E,,*2A
$YXXDR,A,5.5,D,PTCH,A,4.0,D,ROLL*59
$IIMWV,132,T,07.0,N,A*12
$GPRMC,163839.6,A,4916.4473,N,12311.1226,W,0.02,353.36,200614,018.2,E*7B
$HCHDG,335.4,0.0,E,,*28
$YXXDR,A,5.6,D,PTCH,A,4.0,D,ROLL*5A
$HCHDG,335.6,0.0,E,,*2A
$YXXDR,A,5.4,D,PTCH,A,4.0,D,ROLL*58
$TIROT,-6.4,A*14
$IIVHW,,,,,00.0,N,,*19
$IIVLW,06785,N,000.0,N*5F
$HCHDG,335.5,0.0,E,,*29
$GPRMC,163839.8,A,4916.4473,N,12311.1226,W,0.03,353.36,200614,018.2,E*74
$YXXDR,A,5.6,D,PTCH,A,4.0,D,ROLL*5A
$IIVWR,131,R,06.9,N,,,,*6D
$HCHDG,335.4,0.0,E,,*28
$YXXDR,A,5.6,D,PTCH,A,4.0,D,ROLL*5A
$HCHDG,335.5,0.0,E,,*29
$GPGGA,163840.000,4916.4473,N,12311.1226,W,1,9,1.33,18.5,M,-16.8,M,,*59
$GPGSA,A,3,03,16,23,07,10,13,27,19,30,,,,1.58,1.33,0.85*0D
$GPGSV,3,1,10,13,81,109,42,07,58,264,39,23,48,125,35,10,44,277,28*7B
$GPGSV,3,2,10,16,41,055,42,48,32,192,35,30,28,254,20,03,21,122,25*72
$GPGSV,3,3,10,27,19,096,24,19,06,125,37*70
$YXXDR,A,5.4,D,PTCH,A,4.1,D,ROLL*59
$GPRMC,163840.0,A,4916.4473,N,12311.1226,W,0.05,353.36,200614,018.2,E*74
$HCHDG,335.7,0.0,E,,*2B
$YXXDR,A,5.5,D,PTCH,A,4.0,D,ROLL*59
$GPRMC,163840.2,A,4916.4473,N,12311.1226,W,0.07,353.36,200614,018.2,E*74
$HCHDG,335.6,0.0,E,,*2A
$YXXDR,A,5.5,D,PTCH,A,4.0,D,ROLL*59
$HCHDG,335.6,0.0,E,,*2A
$YXXDR,A,5.6,D,PTCH,A,4.0,D,ROLL*5A
$GPRMC,163840.4,A,4916.4473,N,12311.1226,W,0.09,353.36,200614,018.2,E*7C
$HCHDG,335.6,0.0,E,,*2A
$YXXDR,A,5.5,D,PTCH,A,4.0,D,ROLL*59
$IIMTW,+13.0,C*3A
$IIMWV,132,R,06.8,N,A*1D
$HCHDG,335.6,0.0,E,,*2A
$YXXDR,A,5.6,D,PTCH,A,3.3,D,ROLL*5E
$IIMWV,131,T,06.9,N,A*19
$GPRMC,163840.6,A,4916.4473,N,12311.1226,W,0.11,353.36,200614,018.2,E*77
$HCHDG,335.5,0.0,E,,*29
$YXXDR,A,5.5,D,PTCH,A,3.3,D,ROLL*5D
$HCHDG,335.3,0.0,E,,*2F
$YXXDR,A,5.5,D,PTCH,A,3.1,D,ROLL*5F
$TIROT,6.8,A*35
$IIVHW,,,,,00.0,N,,*19
$GPRMC,163840.8,A,4916.4473,N,12311.1226,W,0.13,353.36,200614,018.2,E*7B
$IIVLW,06785,N,000.0,N*5F
$HCHDG,335.2,0.0,E,,*2E
$YXXDR,A,5.5,D,PTCH,A,2.8,D,ROLL*57
$IIVWR,132,R,06.8,N,,,,*6F
$HCHDG,335.0,0.0,E,,*2C
$YXXDR,A,5.5,D,PTCH,A,2.8,D,ROLL*57
$HCHDG,335.1,0.0,E,,*2D
$GPGGA,163841.000,4916.4473,N,12311.1226,W,1,9,1.33,18.5,M,-16.8,M,,*58
$GPGSA,A,3,03,16,23,07,10,13,27,19,30,,,,1.58,1.33,0.85*0D
$GPGSV,3,1,10,13,81,109,42,07,58,264,39,23,48,125,30,10,44,277,30*77
$GPGSV,3,2,10,16,41,055,43,48,32,192,36,30,28,254,23,03,21,122,29*7F
$GPGSV,3,3,10,27,19,096,29,19,06,125,37*7D
$YXXDR,A,5.6,D,PTCH,A,3.0,D,ROLL*5D
$GPRMC,163841.0,A,4916.4473,N,12311.1226,W,0.13,353.36,200614,018.2,E*72
$HCHDG,335.2,0.0,E,,*2E
$YXXDR,A,5.5,D,PTCH,A,3.1,D,ROLL*5F
$GPRMC,163841.2,A,4916.4473,N,12311.1226,W,0.13,353.36,200614,018.2,E*70
$HCHDG,335.2,0.0,E,,*2E
$YXXDR,A,5.7,D,PTCH,A,3.1,D,ROLL*5D
$HCHDG,335.2,0.0,E,,*2E
$YXXDR,A,5.5,D,PTCH,A,3.3,D,ROLL*5D
$GPRMC,163841.4,A,4916.4473,N,12311.1226,W,0.13,353.36,200614,018.2,E*76
$HCHDG,335.2,0.0,E,,*2E
$YXXDR,A,5.6,D,PTCH,A,3.5,D,ROLL*58
$IIMTW,+13.0,C*3A
$IIMWV,132,R,06.8,N,A*1D
$HCHDG,335.4,0.0,E,,*28
$YXXDR,A,5.5,D,PTCH,A,3.4,D,ROLL*5A
$IIMWV,132,T,06.8,N,A*1B
$GPRMC,163841.6,A,4916.4473,N,12311.1226,W,0.12,353.36,200614,018.2,E*75
$HCHDG,335.4,0.0,E,,*28
$YXXDR,A,5.5,D,PTCH,A,3.6,D,ROLL*58
$HCHDG,335.3,0.0,E,,*2F
$YXXDR,A,5.4,D,PTCH,A,3.6,D,ROLL*59
$TIROT,7.1,A*3D
$IIVHW,,,,,00.0,N,,*19
$GPRMC,163841.8,A,4916.4473,N,12311.1226,W,0.12,353.36,200614,018.2,E*7B
$IIVLW,06785,N,000.0,N*5F
$HCHDG,335.3,0.0,E,,*2F
$YXXDR,A,5.5,D,PTCH,A,3.7,D,ROLL*59
$IIVWR,132,R,06.8,N,,,,*6F
$HCHDG,335.3,0.0,E,,*2F
$YXXDR,A,5.5,D,PTCH,A,3.7,D,ROLL*59
$GPGGA,163842.000,4916.4473,N,12311.1226,W,1,9,1.45,18.5,M,-16.8,M,,*5A
$HCHDG,335.3,0.0,E,,*2F
$GPGSA,A,3,03,16,23,07,10,13,27,19,30,,,,2.17,1.45,1.62*0C
$GPGSV,3,1,10,13,81,109,42,07,58,264,41,23,48,125,27,10,44,277,31*7F
$YXXDR,A,5.6,D,PTCH,A,3.6,D,ROLL*5B
$GPGSV,3,2,10,16,41,055,42,48,32,192,34,30,28,254,25,03,21,122,25*76
$GPGSV,3,3,10,27,19,096,29,19,06,125,36*7C
$GPRMC,163842.0,A,4916.4473,N,12311.1226,W,0.12,353.36,200614,018.2,E*70
$HCHDG,335.4,0.0,E,,*28
$YXXDR,A,5.6,D,PTCH,A,3.6,D,ROLL*5B
$GPRMC,163842.2,A,4916.4474,N,12311.1226,W,0.11,353.36,200614,018.2,E*76
$HCHDG,335.4,0.0,E,,*28
$YXXDR,A,5.5,D,PTCH,A,3.8,D,ROLL*56
$HCHDG,335.3,0.0,E,,*2F
$YXXDR,A,5.5,D,PTCH,A,3.8,D,ROLL*56
$GPRMC,163842.4,A,4916.4474,N,12311.1226,W,0.10,353.36,200614,018.2,E*71
$HCHDG,335.1,0.0,E,,*2D
$YXXDR,A,5.4,D,PTCH,A,3.9,D,ROLL*56
$IIMTW,+13.0,C*3A
$IIMWV,131,R,06.7,N,A*11
$HCHDG,335.1,0.0,E,,*2D
$YXXDR,A,5.6,D,PTCH,A,3.9,D,ROLL*54
$IIMWV,132,T,06.8,N,A*1B
$GPRMC,163842.6,A,4916.4474,N,12311.1226,W,0.09,353.36,200614,018.2,E*7B
$HCHDG,335.4,0.0,E,,*28
$YXXDR,A,5.5,D,PTCH,A,3.8,D,ROLL*56
$HCHDG,335.3,0.0,E,,*2F
$YXXDR,A,5.6,D,PTCH,A,3.9,D,ROLL*54
$TIROT,16.3,A*0F
$IIVHW,,,,,00.0,N,,*19
$GPRMC,163842.8,A,4916.4474,N,12311.1226,W,0.09,353.36,200614,018.2,E*75
$IIVLW,06785,N,000.0,N*5F
$HCHDG,335.3,0.0,E,,*2F
$YXXDR,A,5.6,D,PTCH,A,3.9,D,ROLL*54
$IIVWR,131,R,06.7,N,,,,*63
$HCHDG,335.2,0.0,E,,*2E
$YXXDR,A,5.5,D,PTCH,A,4.0,D,ROLL*59
$GPGGA,163843.000,4916.4474,N,12311.1226,W,1,9,1.33,18.5,M,-16.8,M,,*5D
$GPGSA,A,3,03,16,23,07,10,13,27,19,30,,,,1.58,1.33,0.85*0D
$GPGSV,3,1,10,13,81,109,42,07,58,264,41,23,48,125,26,10,44,277,30*7F
$HCHDG,335.3,0.0,E,,*2F
$GPGSV,3,2,10,16,41,055,42,48,32,192,33,30,28,254,19,03,21,122,24*7F
$GPGSV,3,3,10,27,19,096,21,19,06,125,36*74
$GPRMC,163843.0,A,4916.4474,N,12311.1226,W,0.10,353.36,200614,018.2,E*74
$YXXDR,A,5.5,D,PTCH,A,4.2,D,ROLL*5B
$HCHDG,335.5,0.0,E,,*29
$YXXDR,A,5.5,D,PTCH,A,4.3,D,ROLL*5A
$GPRMC,163843.2,A,4916.4474,N,12311.1226,W,0.10,353.36,200614,018.2,E*76
$HCHDG,335.6,0.0,E,,*2A
$YXXDR,A,5.6,D,PTCH,A,4.3,D,ROLL*59
$HCHDG,335.8,0.0,E,,*24
$YXXDR,A,5.6,D,PTCH,A,4.4,D,ROLL*5E
$GPRMC,163843.4,A,4916.4474,N,12311.1226,W,0.10,353.36,200614,018.2,E*70
$HCHDG,335.7,0.0,E,,*2B
$YXXDR,A,5.6,D,PTCH,A,4.5,D,ROLL*5F
$IIMTW,+13.0,C*3A
$IIMWV,131,R,06.6,N,A*10
$HCHDG,335.7,0.0,E,,*2B
$YXXDR,A,5.6,D,PTCH,A,4.4,D,ROLL*5E
$IIMWV,131,T,06.7,N,A*17
$GPRMC,163843.6,A,4916.4474,N,12311.1226,W,0.09,353.36,200614,018.2,E*7A
$HCHDG,335.6,0.0,E,,*2A
$YXXDR,A,5.6,D,PTCH,A,3.7,D,ROLL*5A
$HCHDG,335.5,0.0,E,,*29
$YXXDR,A,5.5,D,PTCH,A,3.4,D,ROLL*5A
$TIROT,1.1,A*3B
$IIVHW,,,,,00.0,N,,*19
$IIVLW,06785,N,000.0,N*5F
$HCHDG,335.3,0.0,E,,*2F
$GPRMC,163843.8,A,4916.4474,N,12311.1226,W,0.08,353.36,200614,018.2,E*75
$YXXDR,A,5.5,D,PTCH,A,3.4,D,ROLL*5A
$IIVWR,131,R,06.6,N,,,,*62
$HCHDG,335.2,0.0,E,,*2E
$YXXDR,A,5.5,D,PTCH,A,3.1,D,ROLL*5F
$GPGGA,163844.000,4916.4474,N,12311.1226,W,1,9,1.33,18.5,M,-16.8,M,,*5A
$HCHDG,334.9,0.0,E,,*24
$GPGSA,A,3,03,16,23,07,10,13,27,19,30,,,,1.58,1.33,0.85*0D
$GPGSV,3,1,11,13,81,109,42,07,58,264,39,23,48,125,24,10,44,277,33*70
$YXXDR,A,5.5,D,PTCH,A,3.1,D,ROLL*5F
$GPGSV,3,2,11,16,41,055,43,48,32,192,32,30,28,254,21,03,21,122,31*71
$GPGSV,3,3,11,27,19,096,24,19,06,125,36,08,,,33*78
$GPRMC,163844.0,A,4916.4474,N,12311.1226,W,0.05,353.36,200614,018.2,E*77
$HCHDG,335.0,0.0,E,,*2C
$YXXDR,A,5.4,D,PTCH,A,3.1,D,ROLL*5E
$GPRMC,163844.2,A,4916.4474,N,12311.1226,W,0.03,353.36,200614,018.2,E*73
$HCHDG,335.0,0.0,E,,*2C
$YXXDR,A,5.5,D,PTCH,A,3.1,D,ROLL*5F
$HCHDG,335.0,0.0,E,,*2C
$YXXDR,A,5.3,D,PTCH,A,3.3,D,ROLL*5B
$GPRMC,163844.4,A,4916.4474,N,12311.1226,W,0.03,353.36,200614,018.2,E*75
$IIMTW,+13.0,C*3A
$HCHDG,335.0,0.0,E,,*2C
$YXXDR,A,5.4,D,PTCH,A,3.5,D,ROLL*5A
$IIMWV,132,R,06.6,N,A*13
$HCHDG,335.0,0.0,E,,*2C
$YXXDR,A,5.4,D,PTCH,A,3.7,D,ROLL*58
$IIMWV,131,T,06.6,N,A*16
$GPRMC,163844.6,A,4916.4474,N,12311.1226,W,0.03,353.36,200614,018.2,E*77
$HCHDG,335.0,0.0,E,,*2C
$YXXDR,A,5.3,D,PTCH,A,3.8,D,ROLL*50
$HCHDG,335.0,0.0,E,,*2C
$YXXDR,A,5.3,D,PTCH,A,3.8,D,ROLL*50
$TIROT,17.3,A*0E
$IIVHW,,,,,00.0,N,,*19
$IIVLW,06785,N,000.0,N*5F
$GPRMC,163844.8,A,4916.4474,N,12311.1226,W,0.02,353.36,200614,018.2,E*78
$HCHDG,335.3,0.0,E,,*2F
$YXXDR,A,5.3,D,PTCH,A,3.8,D,ROLL*50
$IIVWR,132,R,06.6,N,,,,*61
$HCHDG,335.3,0.0,E,,*2F
$YXXDR,A,5.4,D,PTCH,A,3.8,D,ROLL*57
$HCHDG,335.1,0.0,E,,*2D
$GPGGA,163845.000,4916.4474,N,12311.1226,W,2,9,1.33,18.1,M,-16.8,M,0000,0000*5C
$GPGSA,A,3,03,16,23,07,10,13,27,19,30,,,,1.58,1.33,0.85*0D
$GPGSV,3,1,11,13,81,109,42,07,58,264,38,23,48,125,31,10,44,277,33*75
$YXXDR,A,5.4,D,PTCH,A,3.8,D,ROLL*57
$GPGSV,3,2,11,16,41,055,43,48,32,192,32,30,28,254,21,03,21,122,30*70
$GPGSV,3,3,11,27,19,096,23,19,06,125,36,08,,,31*7D
$GPRMC,163845.0,A,4916.4474,N,12311.1226,W,0.02,353.36,200614,018.2,E*71
$HCHDG,335.2,0.0,E,,*2E
$YXXDR,A,5.6,D,PTCH,A,3.9,D,ROLL*54
$GPRMC,163845.2,A,4916.4475,N,12311.1225,W,0.02,353.36,200614,018.2,E*71
$HCHDG,335.2,0.0,E,,*2E
$YXXDR,A,5.5,D,PTCH,A,3.8,D,ROLL*56
$HCHDG,335.2,0.0,E,,*2E
$YXXDR,A,5.6,D,PTCH,A,3.6,D,ROLL*5B
$GPRMC,163845.4,A,4916.4475,N,12311.1225,W,0.02,353.36,200614,018.2,E*77
$HCHDG,335.0,0.0,E,,*2C
$YXXDR,A,5.5,D,PTCH,A,3.4,D,ROLL*5A
$IIMTW,+13.0,C*3A
$IIMWV,131,R,06.5,N,A*13
$HCHDG,335.0,0.0,E,,*2C
$YXXDR,A,5.5,D,PTCH,A,3.4,D,ROLL*5A
$IIMWV,132,T,06.6,N,A*15
$GPRMC,163845.6,A,4916.4475,N,12311.1225,W,0.02,353.36,200614,018.2,E*75
$HCHDG,335.0,0.0,E,,*2C
$YXXDR,A,5.4,D,PTCH,A,3.5,D,ROLL*5A
$HCHDG,334.9,0.0,E,,*24
$YXXDR,A,5.4,D,PTCH,A,3.6,D,ROLL*59
$TIROT,-10.3,A*24
$IIVHW,,,,,00.0,N,,*19
$IIVLW,06785,N,000.0,N*5F
$GPRMC,163845.8,A,4916.4475,N,12311.1225,W,0.03,353.36,200614,018.2,E*7A
$HCHDG,334.9,0.0,E,,*24
$YXXDR,A,5.5,D,PTCH,A,3.7,D,ROLL*59
$IIVWR,131,R,06.5,N,,,,*61
$HCHDG,335.1,0.0,E,,*2D
$YXXDR,A,5.3,D,PTCH,A,3.8,D,ROLL*50
$GPGGA,163846.000,4916.4475,N,12311.1225,W,2,9,1.33,17.8,M,-16.8,M,0000,0000*5B
$GPGSA,A,3,03,16,23,07,10,13,27,19,30,,,,1.58,1.33,0.85*0D
$GPGSV,3,1,11,13,81,109,42,07,58,264,38,23,48,125,26,10,44,277,35*75
$HCHDG,335.0,0.0,E,,*2C
$GPGSV,3,2,11,16,41,055,41,48,32,192,34,30,28,254,24,03,21,122,26*76
$GPGSV,3,3,11,27,19,096,26,19,06,125,36,08,,,36*7F
$GPRMC,163846.0,A,4916.4475,N,12311.1225,W,0.04,353.36,200614,018.2,E*76
$YXXDR,A,5.4,D,PTCH,A,3.9,D,ROLL*56
$HCHDG,335.0,0.0,E,,*2C
$YXXDR,A,5.4,D,PTCH,A,3.9,D,ROLL*56
$GPRMC,163846.2,A,4916.4476,N,12311.1225,W,0.06,353.36,200614,018.2,E*75
$HCHDG,335.0,0.0,E,,*2C
$YXXDR,A,5.4,D,PTCH,A,4.0,D,ROLL*58
$HCHDG,335.0,0.0,E,,*2C
$YXXDR,A,5.4,D,PTCH,A,4.0,D,ROLL*58
$GPRMC,163846.4,A,4916.4476,N,12311.1225,W,0.08,353.36,200614,018.2,E*7D
$HCHDG,335.2,0.0,E,,*2E
$YXXDR,A,5.4,D,PTCH,A,4.0,D,ROLL*58
$IIMTW,+13.0,C*3A
$IIMWV,131,R,06.4,N,A*12
$HCHDG,335.1,0.0,E,,*2D
$YXXDR,A,5.6,D,PTCH,A,4.1,D,ROLL*5B
$IIMWV,131,T,06.5,N,A*15
