$GPRMC,011513.5,V,,,,,0.00,0.00,250614,018.2,E*49
$GPRMC,011513.7,V,,,,,0.00,0.00,250614,018.2,E*4B
$GPGSV,1,1,04,10,,,34,02,,,32,31,,,33,25,,,32*7C
$GPRMC,011513.9,V,,,,,0.00,0.00,250614,018.2,E*45
$GPGGA,011514.091,,,,,0,0,,,M,,M,,*40
$GPGSA,A,1,,,,,,,,,,,,,,,*1E
$GPRMC,011514.0,V,,,,,0.00,0.00,250614,018.2,E*4B
$GPRMC,011514.1,V,,,,,0.00,0.00,250614,018.2,E*4A
$GPRMC,011514.3,V,,,,,0.00,0.00,250614,018.2,E*48
$GPRMC,011514.5,V,,,,,0.00,0.00,250614,018.2,E*4E
$GPGSV,1,1,04,10,,,33,02,,,32,31,,,33,25,,,31*78
$GPRMC,011514.7,V,,,,,0.00,0.00,250614,018.2,E*4C
$GPGGA,011514.930,,,,,0,0,,,M,,M,,*42
$GPGSA,A,1,,,,,,,,,,,,,,,*1E
$GPRMC,011514.9,V,,,,,0.00,0.00,250614,018.2,E*42
$GPRMC,011515.1,V,,,,,0.00,0.00,250614,018.2,E*4B
$GPRMC,011515.3,V,,,,,0.00,0.00,250614,018.2,E*49
$GPRMC,011515.5,V,,,,,0.00,0.00,250614,018.2,E*4F
$GPGSV,1,1,04,10,,,33,02,,,32,31,,,33,25,,,31*78
$GPRMC,011515.7,V,,,,,0.00,0.00,250614,018.2,E*4D
$GPGGA,011515.930,,,,,0,0,,,M,,M,,*43
$GPGSA,A,1,,,,,,,,,,,,,,,*1E
$GPRMC,011515.9,V,,,,,0.00,0.00,250614,018.2,E*43
$GPRMC,011516.1,V,,,,,0.00,0.00,250614,018.2,E*48
$GPRMC,011516.3,V,,,,,0.00,0.00,250614,018.2,E*4A
$GPRMC,011516.5,V,,,,,0.00,0.00,250614,018.2,E*4C
$GPGSV,1,1,04,10,,,33,02,,,32,31,,,33,25,,,31*78
$GPRMC,011516.7,V,,,,,0.00,0.00,250614,018.2,E*4E
$GPGGA,011516.930,,,,,0,0,,,M,,M,,*40
$GPGSA,A,1,,,,,,,,,,,,,,,*1E
$GPRMC,011516.9,V,,,,,0.00,0.00,250614,018.2,E*40
$GPRMC,011517.1,V,,,,,0.00,0.00,250614,018.2,E*49
$GPRMC,011517.3,V,,,,,0.00,0.00,250614,018.2,E*4B
$GPRMC,011517.5,V,,,,,0.00,0.00,250614,018.2,E*4D
$GPGSV,2,1,05,10,,,33,02,,,32,31,,,33,04,,,28*71
$GPGSV,2,2,05,25,,,31*79
$GPRMC,011517.7,V,,,,,0.00,0.00,250614,018.2,E*4F
$GPGGA,011517.930,,,,,0,0,,,M,,M,,*41
$GPGSA,A,1,,,,,,,,,,,,,,,*1E
$GPRMC,011517.9,V,,,,,0.00,0.00,250614,018.2,E*41
$GPRMC,011518.1,V,,,,,0.00,0.00,250614,018.2,E*46
$GPRMC,011518.3,V,,,,,0.00,0.00,250614,018.2,E*44
$GPRMC,011518.5,V,,,,,0.00,0.00,250614,018.2,E*42
$GPGSV,2,1,05,10,,,33,02,,,32,31,,,33,04,,,30*78
$GPGSV,2,2,05,25,,,31*79
$GPRMC,011518.7,V,,,,,0.00,0.00,250614,018.2,E*40
$GPGGA,011518.930,,,,,0,0,,,M,,M,,*4E
$GPGSA,A,1,,,,,,,,,,,,,,,*1E
$GPRMC,011518.9,V,,,,,0.00,0.00,250614,018.2,E*4E
$GPRMC,011519.1,V,,,,,0.00,0.00,250614,018.2,E*47
$GPRMC,011519.3,V,,,,,0.00,0.00,250614,018.2,E*45
$GPRMC,011519.5,V,,,,,0.00,0.00,250614,018.2,E*43
$GPGSV,2,1,05,10,,,33,02,,,32,31,,,33,04,,,29*70
$GPGSV,2,2,05,25,,,30*78
$GPRMC,011519.7,V,,,,,0.00,0.00,250614,018.2,E*41
$GPGGA,011519.930,,,,,0,0,,,M,,M,,*4F
$GPGSA,A,1,,,,,,,,,,,,,,,*1E
$GPRMC,011519.9,V,,,,,0.00,0.00,250614,018.2,E*4F
$GPRMC,011520.0,V,,,,,0.00,0.00,250614,018.2,E*4C
$GPRMC,011520.1,V,,,,,0.00,0.00,250614,018.2,E*4D
$GPRMC,011520.3,V,,,,,0.00,0.00,250614,018.2,E*4F
$GPGSV,2,1,05,10,,,33,02,,,33,31,,,33,04,,,30*79
$GPGSV,2,2,05,25,,,30*78
$GPRMC,011520.5,V,,,,,0.00,0.00,250614,018.2,E*49
$GPGGA,011520.750,,,,,0,0,,,M,,M,,*4D
$GPGSA,A,1,,,,,,,,,,,,,,,*1E
$GPRMC,011520.7,V,,,,,0.00,0.00,250614,018.2,E*4B
$GPRMC,011520.9,V,,,,,0.00,0.00,250614,018.2,E*45
$GPRMC,011521.1,V,,,,,0.00,0.00,250614,018.2,E*4C
$GPRMC,011521.3,V,,,,,0.00,0.00,250614,018.2,E*4E
$GPGSV,2,1,05,10,,,33,02,,,33,31,,,33,04,,,30*79
$GPGSV,2,2,05,25,,,30*78
$GPRMC,011521.5,V,,,,,0.00,0.00,250614,018.2,E*48
$GPGGA,011521.750,,,,,0,0,,,M,,M,,*4C
$GPGSA,A,1,,,,,,,,,,,,,,,*1E
$GPRMC,011521.7,V,,,,,0.00,0.00,250614,018.2,E*4A
$GPRMC,011521.9,V,,,,,0.00,0.00,250614,018.2,E*44
$GPRMC,011522.1,V,,,,,0.00,0.00,250614,018.2,E*4F
$GPRMC,011522.3,V,,,,,0.00,0.00,250614,018.2,E*4D
$GPGSV,2,1,05,10,,,33,02,,,33,31,,,33,04,,,30*79
$GPGSV,2,2,05,25,,,30*78
$GPRMC,011522.5,V,,,,,0.00,0.00,250614,018.2,E*4B
$GPGGA,011522.750,,,,,0,0,,,M,,M,,*4F
$GPGSA,A,1,,,,,,,,,,,,,,,*1E
$GPRMC,011522.7,V,,,,,0.00,0.00,250614,018.2,E*49
$GPRMC,011522.9,V,,,,,0.00,0.00,250614,018.2,E*47
$GPRMC,011523.1,V,,,,,0.00,0.00,250614,018.2,E*4E
$GPRMC,011523.3,V,,,,,0.00,0.00,250614,018.2,E*4C
$GPGSV,2,1,05,10,,,33,02,,,33,31,,,33,04,,,30*79
$GPGSV,2,2,05,25,,,30*78
$GPRMC,011523.5,V,,,,,0.00,0.00,250614,018.2,E*4A
$GPGGA,011523.750,,,,,0,0,,,M,,M,,*4E
$GPGSA,A,1,,,,,,,,,,,,,,,*1E
$GPRMC,011523.7,V,,,,,0.00,0.00,250614,018.2,E*48
$GPRMC,011523.9,V,,,,,0.00,0.00,250614,018.2,E*46
$GPRMC,011524.1,V,,,,,0.00,0.00,250614,018.2,E*49
$GPRMC,011524.3,V,,,,,0.00,0.00,250614,018.2,E*4B
$GPGSV,2,1,05,10,,,33,02,,,33,31,,,33,04,,,30*79
$GPGSV,2,2,05,25,,,30*78
$GPRMC,011524.5,V,,,,,0.00,0.00,250614,018.2,E*4D
$GPGGA,011524.750,,,,,0,0,,,M,,M,,*49
$GPGSA,A,1,,,,,,,,,,,,,,,*1E
$GPRMC,011524.7,V,,,,,0.00,0.00,250614,018.2,E*4F
$GPRMC,011524.9,V,,,,,0.00,0.00,250614,018.2,E*41
$GPRMC,011525.1,V,,,,,0.00,0.00,250614,018.2,E*48
$GPRMC,011525.3,V,,,,,0.00,0.00,250614,018.2,E*4A
$GPGSV,2,1,05,10,,,33,02,,,33,31,,,33,04,,,31*78
$GPGSV,2,2,05,25,,,30*78
$GPRMC,011525.5,V,,,,,0.00,0.00,250614,018.2,E*4C
$GPGGA,011525.750,,,,,0,0,,,M,,M,,*48
$GPGSA,A,1,,,,,,,,,,,,,,,*1E
$GPRMC,011525.7,V,,,,,0.00,0.00,250614,018.2,E*4E
$GPRMC,011525.9,V,,,,,0.00,0.00,250614,018.2,E*40
$GPRMC,011526.0,V,,,,,0.00,0.00,250614,018.2,E*4A
$GPRMC,011526.1,V,,,,,0.00,0.00,250614,018.2,E*4B
$GPGSV,1,1,04,10,,,33,02,,,33,04,,,31,25,,,30*7C
$GPRMC,011526.3,V,,,,,0.00,0.00,250614,018.2,E*49
$GPGGA,011526.533,,,,,0,0,,,M,,M,,*4C
$GPGSA,A,1,,,,,,,,,,,,,,,*1E
$GPRMC,011526.5,V,,,,,0.00,0.00,250614,018.2,E*4F
$GPRMC,011526.7,V,,,,,0.00,0.00,250614,018.2,E*4D
$GPRMC,011526.9,V,,,,,0.00,0.00,250614,018.2,E*43
$GPRMC,011527.1,V,,,,,0.00,0.00,250614,018.2,E*4A
$GPGSV,1,1,04,10,,,33,02,,,33,04,,,31,25,,,30*7C
$GPRMC,011527.3,V,,,,,0.00,0.00,250614,018.2,E*48
$GPGGA,011527.533,,,,,0,0,,,M,,M,,*4D
$GPGSA,A,1,,,,,,,,,,,,,,,*1E
$GPRMC,011527.5,V,,,,,0.00,0.00,250614,018.2,E*4E
$GPRMC,011527.7,V,,,,,0.00,0.00,250614,018.2,E*4C
$GPRMC,011527.9,V,,,,,0.00,0.00,250614,018.2,E*42
$GPRMC,011528.1,V,,,,,0.00,0.00,250614,018.2,E*45
$GPGSV,1,1,04,10,,,33,02,,,34,04,,,31,25,,,30*7B
$GPRMC,011528.3,V,,,,,0.00,0.00,250614,018.2,E*47
$GPGGA,011528.533,,,,,0,0,,,M,,M,,*42
$GPGSA,A,1,,,,,,,,,,,,,,,*1E
$GPRMC,011528.5,V,,,,,0.00,0.00,250614,018.2,E*41
$GPRMC,011528.7,V,,,,,0.00,0.00,250614,018.2,E*43
$GPRMC,011528.9,V,,,,,0.00,0.00,250614,018.2,E*4D
$GPRMC,011529.1,V,,,,,0.00,0.00,250614,018.2,E*44
$GPGSV,2,1,05,10,,,33,02,,,34,31,,,32,04,,,31*7E
$GPGSV,2,2,05,25,,,30*78
$GPRMC,011529.3,V,,,,,0.31,0.00,250614,018.2,E*44
$GPGGA,011529.527,,,,,0,3,,,M,,M,,*45
$GPGSA,A,1,,,,,,,,,,,,,,,*1E
$GPRMC,011529.5,V,,,,,0.33,0.00,250614,018.2,E*40
$GPRMC,011529.8,V,,,,,0.25,0.00,250614,018.2,E*4A
$GPRMC,011530.0,V,,,,,0.17,0.00,250614,018.2,E*4B
$GPRMC,011530.2,V,,,,,0.14,0.00,250614,018.2,E*4A
$GPGSV,2,1,05,02,75,117,34,10,29,100,33,31,08,331,32,04,,,31*48
$GPGSV,2,2,05,25,,,30*78
$GPRMC,011530.4,V,,,,,0.09,0.00,250614,018.2,E*40
$GPGGA,011530.600,,,,,0,3,,,M,,M,,*4B
$GPGSA,A,1,,,,,,,,,,,,,,,*1E
$GPRMC,011530.6,V,,,,,0.05,0.00,250614,018.2,E*4E
$GPRMC,011530.8,V,,,,,0.08,0.00,250614,018.2,E*4D
$GPRMC,011531.0,V,,,,,0.14,0.00,250614,018.2,E*49
$GPRMC,011531.2,V,,,,,0.17,0.00,250614,018.2,E*48
$GPGSV,2,1,05,02,75,117,32,10,29,100,32,31,08,331,32,04,,,31*4F
$GPGSV,2,2,05,25,,,30*78
$GPRMC,011531.4,V,,,,,0.21,0.00,250614,018.2,E*4B
$GPGGA,011531.600,,,,,0,3,,,M,,M,,*4A
$GPGSA,A,1,,,,,,,,,,,,,,,*1E
$GPRMC,011531.6,V,,,,,0.25,0.00,250614,018.2,E*4D
$GPRMC,011531.8,V,,,,,0.24,0.00,250614,018.2,E*42
$GPRMC,011532.0,V,,,,,0.25,0.00,250614,018.2,E*48
$GPRMC,011532.0,A,4738.3683,N,12221.6228,W,0.21,0.00,250614,018.2,E*78
$GPGSV,2,1,06,02,75,117,32,25,49,304,30,48,34,194,,10,29,100,32*79
$GPGSV,2,2,06,31,08,331,32,04,,,32*40
$GPRMC,011532.4,A,4738.3688,N,12221.6222,W,0.19,0.00,250614,018.2,E*76
$GPGGA,011532.600,4738.3693,N,12221.6216,W,1,4,3.00,167.4,M,-17.3,M,,*61
$GPGSA,A,3,10,02,31,25,,,,,,,,,3.16,3.00,1.00*02
$GPRMC,011532.6,A,4738.3693,N,12221.6216,W,0.18,0.00,250614,018.2,E*78
$GPRMC,011532.8,A,4738.3698,N,12221.6210,W,0.19,0.00,250614,018.2,E*7A
$GPRMC,011533.0,A,4738.3704,N,12221.6204,W,0.20,0.00,250614,018.2,E*78
$GPRMC,011533.2,A,4738.3709,N,12221.6198,W,0.21,0.00,250614,018.2,E*70
$GPGSV,2,1,06,02,75,117,32,25,49,304,30,48,34,194,,10,29,100,31*7A
$GPGSV,2,2,06,31,08,331,32,04,,,32*40
$GPRMC,011533.4,A,4738.3714,N,12221.6193,W,0.21,0.00,250614,018.2,E*71
$GPGGA,011533.600,4738.3719,N,12221.6188,W,1,4,3.00,167.5,M,-17.3,M,,*66
$GPGSA,A,3,10,02,31,25,,,,,,,,,3.16,3.00,1.00*02
$GPRMC,011533.6,A,4738.3719,N,12221.6188,W,0.20,0.00,250614,018.2,E*75
$GPRMC,011533.8,A,4738.3722,N,12221.6185,W,0.20,0.00,250614,018.2,E*7E
$GPRMC,011534.0,A,4738.3726,N,12221.6182,W,0.20,0.00,250614,018.2,E*72
$GPRMC,011534.2,A,4738.3730,N,12221.6178,W,0.22,0.00,250614,018.2,E*70
$GPGSV,2,1,06,02,75,117,32,25,49,304,30,48,34,194,,10,29,100,32*79
$GPGSV,2,2,06,31,08,331,32,04,,,32*40
$GPRMC,011534.4,A,4738.3733,N,12221.6175,W,0.25,0.00,250614,018.2,E*7F
$GPGGA,011534.600,4738.3737,N,12221.6172,W,1,4,16.97,167.4,M,-17.3,M,,*53
$GPGSA,A,3,10,02,31,25,,,,,,,,,20.50,16.97,11.51*3E
$GPRMC,011534.6,A,4738.3737,N,12221.6172,W,0.27,0.00,250614,018.2,E*7C
$GPRMC,011534.8,A,4738.3740,N,12221.6169,W,0.28,0.00,250614,018.2,E*77
$GPRMC,011535.0,A,4738.3742,N,12221.6167,W,0.30,0.00,250614,018.2,E*7B
$GPRMC,011535.2,A,4738.3745,N,12221.6165,W,0.32,0.00,250614,018.2,E*7E
$GPGSV,2,1,06,02,75,117,32,25,49,304,30,48,34,194,,10,29,100,32*79
$GPGSV,2,2,06,31,08,331,32,04,,,32*40
$GPRMC,011535.4,A,4738.3747,N,12221.6163,W,0.31,0.00,250614,018.2,E*7F
$GPGGA,011535.600,4738.3749,N,12221.6161,W,1,4,3.00,167.2,M,-17.3,M,,*65
$GPGSA,A,3,10,02,31,25,,,,,,,,,3.16,3.00,1.00*02
$GPRMC,011535.6,A,4738.3749,N,12221.6161,W,0.30,0.00,250614,018.2,E*70
$GPRMC,011535.8,A,4738.3751,N,12221.6159,W,0.30,0.00,250614,018.2,E*7C
$GPRMC,011536.0,A,4738.3752,N,12221.6157,W,0.30,0.00,250614,018.2,E*7A
$GPRMC,011536.2,A,4738.3753,N,12221.6155,W,0.31,0.00,250614,018.2,E*7A
$GPGSV,2,1,06,02,75,117,32,25,49,304,30,48,34,194,,10,29,100,32*79
$GPGSV,2,2,06,31,08,331,31,04,,,32*43
$GPRMC,011536.4,A,4738.3754,N,12221.6154,W,0.34,0.00,250614,018.2,E*7F
$GPGGA,011536.600,4738.3756,N,12221.6152,W,1,4,3.00,166.9,M,-17.3,M,,*62
$GPGSA,A,3,10,02,31,25,,,,,,,,,3.17,3.00,1.00*03
$GPRMC,011536.6,A,4738.3756,N,12221.6152,W,0.40,0.00,250614,018.2,E*7A
$GPRMC,011536.8,A,4738.3757,N,12221.6150,W,0.41,0.00,250614,018.2,E*76
$GPRMC,011537.0,A,4738.3758,N,12221.6149,W,0.41,0.00,250614,018.2,E*78
$GPRMC,011537.2,A,4738.3759,N,12221.6148,W,0.42,0.00,250614,018.2,E*79
$GPGSV,2,1,06,02,75,116,32,25,49,304,30,48,34,194,,10,29,100,32*78
$GPGSV,2,2,06,31,08,331,31,04,,,32*43
$GPRMC,011537.4,A,4738.3760,N,12221.6147,W,0.42,0.00,250614,018.2,E*7A
$GPGGA,011537.600,4738.3760,N,12221.6147,W,1,4,3.00,166.5,M,-17.3,M,,*6E
$GPGSA,A,3,10,02,31,25,,,,,,,,,3.16,3.00,1.00*02
$GPRMC,011537.6,A,4738.3760,N,12221.6147,W,0.38,0.00,250614,018.2,E*75
$GPRMC,011537.8,A,4738.3760,N,12221.6147,W,0.37,0.00,250614,018.2,E*74
$GPRMC,011538.0,A,4738.3761,N,12221.6146,W,0.38,0.00,250614,018.2,E*7C
$GPRMC,011538.2,A,4738.3762,N,12221.6145,W,0.38,0.00,250614,018.2,E*7E
$GPGSV,2,1,06,02,75,116,32,25,49,304,31,48,34,194,,10,29,100,32*79
$GPGSV,2,2,06,31,08,331,31,04,,,32*43
$GPRMC,011538.4,A,4738.3762,N,12221.6145,W,0.36,0.00,250614,018.2,E*76
$GPGGA,011538.600,4738.3762,N,12221.6144,W,1,4,3.01,165.9,M,-17.3,M,,*6E
$GPGSA,A,3,10,02,31,25,,,,,,,,,3.17,3.01,1.00*02
$GPRMC,011538.6,A,4738.3762,N,12221.6144,W,0.36,0.00,250614,018.2,E*75
$GPRMC,011538.8,A,4738.3763,N,12221.6144,W,0.35,0.00,250614,018.2,E*79
$GPRMC,011539.0,A,4738.3763,N,12221.6144,W,0.33,0.00,250614,018.2,E*76
$GPRMC,011539.2,A,4738.3762,N,12221.6145,W,0.30,0.00,250614,018.2,E*77
$GPGSV,2,1,06,02,75,116,32,25,49,304,31,48,34,194,,10,29,100,31*7A
$GPGSV,2,2,06,31,08,331,31,04,,,32*43
$GPRMC,011539.4,A,4738.3762,N,12221.6146,W,0.29,0.00,250614,018.2,E*7A
$GPGGA,011539.600,4738.3762,N,12221.6146,W,1,4,3.00,165.4,M,-17.3,M,,*61
$GPGSA,A,3,10,02,31,25,,,,,,,,,3.17,3.00,1.00*03
$GPRMC,011539.6,A,4738.3762,N,12221.6146,W,0.29,0.00,250614,018.2,E*78
$GPRMC,011539.8,A,4738.3763,N,12221.6146,W,0.28,0.00,250614,018.2,E*76
$GPRMC,011540.0,A,4738.3763,N,12221.6145,W,0.30,0.00,250614,018.2,E*7A
$GPRMC,011540.2,A,4738.3763,N,12221.6145,W,0.31,0.00,250614,018.2,E*79
$GPGSV,2,1,06,02,75,116,32,25,49,304,31,48,34,194,,10,29,100,32*79
$GPGSV,2,2,06,31,08,331,31,04,,,32*43
$GPRMC,011540.4,A,4738.3764,N,12221.6145,W,0.33,0.00,250614,018.2,E*7A
$GPGGA,011540.600,4738.3765,N,12221.6144,W,1,4,3.01,165.0,M,-17.3,M,,*6F
$GPGSA,A,3,10,02,31,25,,,,,,,,,3.17,3.01,1.00*02
$GPRMC,011540.6,A,4738.3765,N,12221.6144,W,0.36,0.00,250614,018.2,E*7D
$GPRMC,011540.8,A,4738.3765,N,12221.6143,W,0.37,0.00,250614,018.2,E*75
$GPRMC,011541.0,A,4738.3766,N,12221.6143,W,0.39,0.00,250614,018.2,E*71
$GPRMC,011541.2,A,4738.3766,N,12221.6142,W,0.40,0.00,250614,018.2,E*7C
$GPGSV,2,1,06,02,75,116,32,25,49,304,32,51,33,159,,10,29,100,32*74
$GPGSV,2,2,06,31,08,331,31,04,,,32*43
$GPRMC,011541.4,A,4738.3767,N,12221.6141,W,0.38,0.00,250614,018.2,E*77
$GPGGA,011541.600,4738.3767,N,12221.6141,W,1,4,3.01,164.8,M,-17.3,M,,*60
$GPGSA,A,3,10,02,31,25,,,,,,,,,3.17,3.01,1.00*02
$GPRMC,011541.6,A,4738.3767,N,12221.6141,W,0.37,0.00,250614,018.2,E*7A
$GPRMC,011541.8,A,4738.3767,N,12221.6141,W,0.36,0.00,250614,018.2,E*75
$GPRMC,011542.0,A,4738.3767,N,12221.6140,W,0.34,0.00,250614,018.2,E*7D
$GPRMC,011542.2,A,4738.3767,N,12221.6140,W,0.31,0.00,250614,018.2,E*7A
$GPGSV,2,1,06,02,75,116,32,25,49,304,32,51,33,159,,10,29,100,32*74
$GPGSV,2,2,06,31,08,331,31,04,,,32*43
$GPRMC,011542.4,A,4738.3767,N,12221.6140,W,0.28,0.00,250614,018.2,E*74
$GPGGA,011542.600,4738.3767,N,12221.6140,W,1,4,3.01,164.5,M,-17.3,M,,*6F
$GPGSA,A,3,10,02,31,25,,,,,,,,,3.17,3.01,1.00*02
$GPRMC,011542.6,A,4738.3767,N,12221.6140,W,0.26,0.00,250614,018.2,E*78
$GPRMC,011542.8,A,4738.3767,N,12221.6139,W,0.25,0.00,250614,018.2,E*7B
$GPRMC,011543.0,A,4738.3767,N,12221.6139,W,0.24,0.00,250614,018.2,E*73
$GPRMC,011543.2,A,4738.3767,N,12221.6139,W,0.23,0.00,250614,018.2,E*76
$GPGSV,2,1,06,02,75,116,32,25,49,304,32,51,33,159,,10,29,100,32*74
$GPGSV,2,2,06,31,08,331,31,04,,,32*43
$GPRMC,011543.4,A,4738.3767,N,12221.6139,W,0.23,0.00,250614,018.2,E*70
$GPGGA,011543.600,4738.3767,N,12221.6140,W,1,4,3.01,164.2,M,-17.3,M,,*69
$GPGSA,A,3,10,02,31,25,,,,,,,,,3.17,3.01,1.00*02
$GPRMC,011543.6,A,4738.3767,N,12221.6140,W,0.22,0.00,250614,018.2,E*7D
$GPRMC,011543.8,A,4738.3767,N,12221.6140,W,0.22,0.00,250614,018.2,E*73
$GPRMC,011544.0,A,4738.3767,N,12221.6140,W,0.21,0.00,250614,018.2,E*7F
$GPRMC,011544.2,A,4738.3767,N,12221.6140,W,0.19,0.00,250614,018.2,E*76
$GPGSV,2,1,07,02,75,116,32,25,49,304,32,51,33,159,,10,29,100,32*75
$GPGSV,2,2,07,31,08,331,31,17,01,082,,04,,,33*7E
$GPRMC,011544.4,A,4738.3767,N,12221.6140,W,0.17,0.00,250614,018.2,E*7E
$GPGGA,011544.600,4738.3766,N,12221.6141,W,1,4,3.01,163.9,M,-17.3,M,,*62
$GPGSA,A,3,10,02,31,25,,,,,,,,,3.17,3.01,1.00*02
$GPRMC,011544.6,A,4738.3766,N,12221.6141,W,0.14,0.00,250614,018.2,E*7F
$GPRMC,011544.8,A,4738.3766,N,12221.6141,W,0.14,0.00,250614,018.2,E*71
$GPRMC,011545.0,A,4738.3766,N,12221.6141,W,0.13,0.00,250614,018.2,E*7F
$GPRMC,011545.2,A,4738.3766,N,12221.6141,W,0.10,0.00,250614,018.2,E*7E
$GPGSV,2,1,07,02,75,116,32,25,49,304,32,51,33,159,,10,29,100,31*76
$GPGSV,2,2,07,31,08,331,31,17,01,082,,04,,,33*7E
$GPRMC,011545.4,A,4738.3765,N,12221.6141,W,0.08,0.00,250614,018.2,E*72
$GPGGA,011545.600,4738.3765,N,12221.6141,W,1,4,3.01,163.5,M,-17.3,M,,*6C
$GPGSA,A,3,10,02,31,25,,,,,,,,,3.17,3.01,1.00*02
$GPRMC,011545.6,A,4738.3765,N,12221.6141,W,0.09,0.00,250614,018.2,E*71
$GPRMC,011545.8,A,4738.3765,N,12221.6141,W,0.09,0.00,250614,018.2,E*7F
$GPRMC,011546.0,A,4738.3765,N,12221.6141,W,0.08,0.00,250614,018.2,E*75
$GPRMC,011546.2,A,4738.3765,N,12221.6141,W,0.08,0.00,250614,018.2,E*77
$GPGSV,2,1,07,02,75,116,32,25,49,304,32,51,33,159,,10,29,100,31*76
$GPGSV,2,2,07,31,08,331,31,17,01,082,,04,,,32*7F
$GPRMC,011546.4,A,4738.3764,N,12221.6141,W,0.08,0.00,250614,018.2,E*70
$GPGGA,011546.600,4738.3764,N,12221.6141,W,1,4,3.01,163.2,M,-17.3,M,,*69
$GPGSA,A,3,10,02,31,25,,,,,,,,,3.17,3.01,1.00*02
$GPRMC,011546.6,A,4738.3764,N,12221.6141,W,0.07,0.00,250614,018.2,E*7D
$GPRMC,011546.8,A,4738.3764,N,12221.6141,W,0.08,0.00,250614,018.2,E*7C
$GPRMC,011547.0,A,4738.3764,N,12221.6141,W,0.08,0.00,250614,018.2,E*75
$GPRMC,011547.2,A,4738.3764,N,12221.6141,W,0.07,0.00,250614,018.2,E*78
$GPGSV,2,1,07,02,75,116,32,25,49,304,32,51,33,159,,10,29,100,31*76
$GPGSV,2,2,07,31,08,331,31,17,01,082,,04,,,32*7F
$GPRMC,011547.4,A,4738.3764,N,12221.6140,W,0.07,0.00,250614,018.2,E*7F
$GPGGA,011547.600,4738.3764,N,12221.6140,W,1,4,3.01,162.9,M,-17.3,M,,*63
$GPGSA,A,3,10,02,31,25,,,,,,,,,3.17,3.01,1.00*02
$GPRMC,011547.6,A,4738.3764,N,12221.6140,W,0.04,0.00,250614,018.2,E*7E
$GPRMC,011547.8,A,4738.3764,N,12221.6140,W,0.03,0.00,250614,018.2,E*77
$GPRMC,011548.0,A,4738.3764,N,12221.6140,W,0.02,0.00,250614,018.2,E*71
$GPRMC,011548.2,A,4738.3764,N,12221.6139,W,0.01,0.00,250614,018.2,E*7E
$GPGSV,2,1,07,02,75,116,32,25,49,304,32,51,33,159,,10,29,100,31*76
$GPGSV,2,2,07,31,08,331,31,17,01,082,,04,,,32*7F
$GPRMC,011548.4,A,4738.3765,N,12221.6138,W,0.03,0.00,250614,018.2,E*7A
$GPGGA,011548.600,4738.3766,N,12221.6137,W,1,4,3.01,163.0,M,-17.3,M,,*66
$GPGSA,A,3,10,02,31,25,,,,,,,,,3.17,3.01,1.00*02
$GPRMC,011548.6,A,4738.3766,N,12221.6137,W,0.04,0.00,250614,018.2,E*73
$GPRMC,011548.8,A,4738.3766,N,12221.6136,W,0.06,0.00,250614,018.2,E*7E
$GPRMC,011549.0,A,4738.3767,N,12221.6134,W,0.07,0.00,250614,018.2,E*75
$GPRMC,011549.2,A,4738.3768,N,12221.6133,W,0.10,0.00,250614,018.2,E*79
$GPGSV,2,1,07,02,75,116,32,25,50,304,32,51,33,159,,10,29,100,31*7E
$GPGSV,2,2,07,31,08,331,31,17,01,082,,04,,,32*7F
$GPRMC,011549.4,A,4738.3769,N,12221.6131,W,0.14,0.00,250614,018.2,E*78
$GPGGA,011549.600,4738.3770,N,12221.6130,W,1,4,3.01,163.4,M,-17.3,M,,*63
$GPGSA,A,3,10,02,31,25,,,,,,,,,3.17,3.01,1.00*02
$GPRMC,011549.6,A,4738.3770,N,12221.6130,W,0.16,0.00,250614,018.2,E*71
$GPRMC,011549.8,A,4738.3771,N,12221.6129,W,0.18,0.00,250614,018.2,E*78
$GPRMC,011550.0,A,4738.3772,N,12221.6128,W,0.18,0.00,250614,018.2,E*7A
$GPRMC,011550.2,A,4738.3764,N,12221.6134,W,0.16,0.00,250614,018.2,E*7C
$GPGSV,2,1,07,02,75,116,33,25,50,304,32,48,34,194,,04,30,053,32*78
$GPGSV,2,2,07,10,29,100,31,31,08,331,31,17,01,082,*43
$GPRMC,011550.4,A,4738.3765,N,12221.6133,W,0.15,0.00,250614,018.2,E*7F
$GPGGA,011550.600,4738.3766,N,12221.6132,W,1,4,3.01,163.0,M,-17.3,M,,*6A
$GPGSA,A,3,10,02,31,25,,,,,,,,,3.17,3.01,1.00*02
$GPRMC,011550.6,A,4738.3766,N,12221.6132,W,0.14,0.00,250614,018.2,E*7E
$GPRMC,011550.8,A,4738.3767,N,12221.6131,W,0.14,0.00,250614,018.2,E*72
$GPRMC,011551.0,A,4738.3767,N,12221.6130,W,0.13,0.00,250614,018.2,E*7D
$GPRMC,011551.2,A,4738.3768,N,12221.6129,W,0.13,0.00,250614,018.2,E*78
$GPGSV,2,1,07,02,75,116,33,25,50,304,31,48,34,194,,04,30,053,32*7B
$GPGSV,2,2,07,10,29,100,31,31,08,331,31,17,01,082,*43
$GPRMC,011551.4,A,4738.3769,N,12221.6128,W,0.13,0.00,250614,018.2,E*7E
$GPGGA,011551.600,4738.3770,N,12221.6127,W,1,4,3.01,163.5,M,-17.3,M,,*6D
$GPGSA,A,3,10,02,31,25,,,,,,,,,3.17,3.01,1.00*02
$GPRMC,011551.6,A,4738.3770,N,12221.6127,W,0.13,0.00,250614,018.2,E*7B
$GPRMC,011551.8,A,4738.3771,N,12221.6125,W,0.15,0.00,250614,018.2,E*70
$GPRMC,011552.0,A,4738.3772,N,12221.6124,W,0.17,0.00,250614,018.2,E*7B
$GPRMC,011552.2,A,4738.3773,N,12221.6122,W,0.20,0.00,250614,018.2,E*7A
$GPGSV,2,1,07,02,75,116,33,25,50,304,31,48,34,194,,04,30,053,32*7B
$GPGSV,2,2,07,10,29,100,31,31,08,331,31,17,01,082,*43
$GPRMC,011552.4,A,4738.3774,N,12221.6121,W,0.21,0.00,250614,018.2,E*79
$GPGGA,011552.600,4738.3774,N,12221.6120,W,1,4,3.01,164.2,M,-17.3,M,,*6D
$GPGSA,A,3,10,02,31,25,,,,,,,,,3.17,3.01,1.00*02
$GPRMC,011552.6,A,4738.3774,N,12221.6120,W,0.21,0.00,250614,018.2,E*7A
$GPRMC,011552.8,A,4738.3775,N,12221.6119,W,0.21,0.00,250614,018.2,E*7F
$GPRMC,011553.0,A,4738.3775,N,12221.6118,W,0.22,0.00,250614,018.2,E*74
$GPRMC,011553.2,A,4738.3776,N,12221.6117,W,0.19,0.00,250614,018.2,E*72
$GPGSV,2,1,07,02,75,116,33,25,50,304,31,48,34,194,,04,30,053,32*7B
$GPGSV,2,2,07,10,29,099,30,31,08,331,31,17,01,082,*43
$GPRMC,011553.4,A,4738.3776,N,12221.6117,W,0.17,0.00,250614,018.2,E*7A
$GPGGA,011553.600,4738.3777,N,12221.6116,W,1,4,3.01,164.7,M,-17.3,M,,*6F
$GPGSA,A,3,10,02,31,25,,,,,,,,,3.17,3.01,1.00*02
$GPRMC,011553.6,A,4738.3777,N,12221.6116,W,0.16,0.00,250614,018.2,E*79
$GPRMC,011553.8,A,4738.3777,N,12221.6116,W,0.15,0.00,250614,018.2,E*74
$GPRMC,011554.0,A,4738.3777,N,12221.6115,W,0.14,0.00,250614,018.2,E*79
$GPRMC,011554.2,A,4738.3778,N,12221.6115,W,0.13,0.00,250614,018.2,E*73
$GPGSV,2,1,07,02,75,116,33,25,50,304,31,48,34,194,,04,30,053,32*7B
$GPGSV,2,2,07,10,29,099,30,31,08,331,31,17,01,082,*43
$GPRMC,011554.4,A,4738.3779,N,12221.6114,W,0.13,0.00,250614,018.2,E*75
$GPRMC,011554.6,A,4738.3779,N,12221.6113,W,0.14,0.00,250614,018.2,E*77
$GPRMC,011554.8,A,4738.3780,N,12221.6112,W,0.13,0.00,250614,018.2,E*79
$GPRMC,011555.0,A,4738.3781,N,12221.6111,W,0.14,0.00,250614,018.2,E*75
$GPRMC,011555.2,A,4738.3781,N,12221.6111,W,0.16,0.00,250614,018.2,E*75
$GPGSV,2,1,07,02,75,116,33,25,50,304,30,48,34,194,27,04,30,053,32*7F
$GPGSV,2,2,07,10,29,099,30,31,08,331,31,17,01,082,*43
$GPRMC,011555.4,A,4738.3782,N,12221.6109,W,0.19,0.00,250614,018.2,E*76
$GPGGA,011555.600,4738.3783,N,12221.6108,W,1,4,3.01,165.6,M,-17.3,M,,*6D
$GPGSA,A,3,10,02,31,25,,,,,,,,,3.17,3.01,1.00*02
$GPRMC,011555.6,A,4738.3783,N,12221.6108,W,0.21,0.00,250614,018.2,E*7F
$GPRMC,011555.8,A,4738.3784,N,12221.6107,W,0.20,0.00,250614,018.2,E*78
$GPRMC,011556.0,A,4738.3784,N,12221.6107,W,0.21,0.00,250614,018.2,E*72
$GPRMC,011556.2,A,4738.3785,N,12221.6106,W,0.20,0.00,250614,018.2,E*71
$GPGSV,2,1,07,02,75,116,33,25,50,304,30,48,34,194,27,04,30,053,32*7F
$GPGSV,2,2,07,10,29,099,30,31,08,331,31,17,01,082,*43
$GPRMC,011556.4,A,4738.3785,N,12221.6106,W,0.18,0.00,250614,018.2,E*7C
$GPGGA,011556.600,4738.3786,N,12221.6105,W,1,4,3.01,166.0,M,-17.3,M,,*63
$GPGSA,A,3,10,02,31,25,,,,,,,,,3.17,3.01,1.00*02
$GPRMC,011556.6,A,4738.3786,N,12221.6105,W,0.19,0.00,250614,018.2,E*7F
$GPRMC,011556.8,A,4738.3787,N,12221.6104,W,0.19,0.00,250614,018.2,E*71
$GPRMC,011557.0,A,4738.3787,N,12221.6103,W,0.21,0.00,250614,018.2,E*74
$GPRMC,011557.2,A,4738.3788,N,12221.6103,W,0.24,0.00,250614,018.2,E*7C
$GPGSV,2,1,07,02,75,116,33,25,50,304,30,48,34,194,28,04,30,053,31*73
$GPGSV,2,2,07,10,29,099,30,31,08,331,32,17,01,082,*40
$GPRMC,011557.4,A,4738.3789,N,12221.6102,W,0.25,0.00,250614,018.2,E*7B
$GPGGA,011557.600,4738.3790,N,12221.6101,W,1,4,16.82,166.5,M,-17.3,M,,*5B
$GPGSA,A,3,10,02,31,25,,,,,,,,,20.31,16.82,11.39*33
$GPRMC,011557.6,A,4738.3790,N,12221.6101,W,0.26,0.00,250614,018.2,E*71
$GPRMC,011557.8,A,4738.3791,N,12221.6100,W,0.28,0.00,250614,018.2,E*71
$GPRMC,011558.0,A,4738.3791,N,12221.6100,W,0.27,0.00,250614,018.2,E*79
$GPRMC,011558.2,A,4738.3791,N,12221.6100,W,0.25,0.00,250614,018.2,E*79
$GPGSV,2,1,07,02,75,116,33,25,50,304,30,48,34,194,27,04,30,053,31*7C
$GPGSV,2,2,07,10,29,099,30,31,08,331,32,17,01,082,*40
$GPRMC,011558.4,A,4738.3792,N,12221.6099,W,0.24,0.00,250614,018.2,E*7C
$GPGGA,011558.600,4738.3792,N,12221.6098,W,1,4,16.81,166.8,M,-17.3,M,,*59
$GPGSA,A,3,10,02,31,25,,,,,,,,,20.30,16.81,11.38*30
$GPRMC,011558.6,A,4738.3792,N,12221.6098,W,0.24,0.00,250614,018.2,E*7F
$GPRMC,011558.8,A,4738.3792,N,12221.6098,W,0.25,0.00,250614,018.2,E*70
$GPRMC,011559.0,A,4738.3792,N,12221.6097,W,0.25,0.00,250614,018.2,E*76
$GPRMC,011559.2,A,4738.3792,N,12221.6097,W,0.26,0.00,250614,018.2,E*77
$GPGSV,2,1,07,02,75,116,33,25,50,304,30,48,34,194,27,04,30,053,31*7C
$GPGSV,2,2,07,10,29,099,30,31,08,331,32,17,01,082,*40
$GPRMC,011559.4,A,4738.3792,N,12221.6097,W,0.25,0.00,250614,018.2,E*72
$GPGGA,011559.600,4738.3792,N,12221.6097,W,1,5,1.82,167.0,M,-17.3,M,,*6A
$GPGSA,A,3,10,02,31,04,25,,,,,,,,2.04,1.82,0.93*07
$GPRMC,011559.6,A,4738.3792,N,12221.6097,W,0.24,0.00,250614,018.2,E*71
$GPRMC,011559.8,A,4738.3792,N,12221.6097,W,0.23,0.00,250614,018.2,E*78
$GPRMC,011600.0,A,4738.3792,N,12221.6097,W,0.21,0.00,250614,018.2,E*7D
$GPRMC,011600.2,A,4738.3792,N,12221.6096,W,0.20,0.00,250614,018.2,E*7F
$GPGSV,2,1,07,02,75,116,32,25,50,304,29,48,34,194,26,04,30,053,31*74
$GPGSV,2,2,07,10,29,099,30,31,08,331,32,17,01,082,*40
$GPRMC,011600.4,A,4738.3792,N,12221.6096,W,0.19,0.00,250614,018.2,E*73
$GPRMC,011600.6,A,4738.3792,N,12221.6096,W,0.17,0.00,250614,018.2,E*7F
$GPRMC,011600.8,A,4738.3791,N,12221.6096,W,0.15,0.00,250614,018.2,E*70
$GPRMC,011601.0,A,4738.3791,N,12221.6096,W,0.13,0.00,250614,018.2,E*7F
$GPRMC,011601.2,A,4738.3791,N,12221.6096,W,0.11,0.00,250614,018.2,E*7F
$GPGSV,2,1,07,02,75,116,32,25,50,304,29,48,34,194,26,04,30,053,31*74
$GPGSV,2,2,07,10,29,099,30,31,08,331,32,17,01,082,*40
$GPRMC,011601.4,A,4738.3791,N,12221.6096,W,0.10,0.00,250614,018.2,E*78
$GPGGA,011601.600,4738.3790,N,12221.6096,W,1,5,1.82,167.0,M,-17.3,M,,*67
$GPGSA,A,3,10,02,31,04,25,,,,,,,,2.05,1.82,0.93*06
$GPRMC,011601.6,A,4738.3790,N,12221.6096,W,0.09,0.00,250614,018.2,E*73
$GPRMC,011601.8,A,4738.3790,N,12221.6096,W,0.09,0.00,250614,018.2,E*7D
$GPRMC,011602.0,A,4738.3790,N,12221.6096,W,0.09,0.00,250614,018.2,E*76
$GPRMC,011602.2,A,4738.3790,N,12221.6096,W,0.09,0.00,250614,018.2,E*74
$GPGSV,2,1,07,02,75,116,32,25,50,304,29,48,34,194,26,04,30,053,31*74
$GPGSV,2,2,07,10,29,099,30,31,08,331,32,17,01,082,*40
$GPRMC,011602.4,A,4738.3790,N,12221.6096,W,0.10,0.00,250614,018.2,E*7A
$GPGGA,011602.600,4738.3790,N,12221.6096,W,1,5,1.82,166.8,M,-17.3,M,,*6D
$GPGSA,A,3,10,02,31,04,25,,,,,,,,2.04,1.82,0.93*07
$GPRMC,011602.6,A,4738.3790,N,12221.6096,W,0.12,0.00,250614,018.2,E*7A
$GPRMC,011602.8,A,4738.3790,N,12221.6096,W,0.15,0.00,250614,018.2,E*73
$GPRMC,011603.0,A,4738.3790,N,12221.6096,W,0.12,0.00,250614,018.2,E*7D
$GPRMC,011603.2,A,4738.3790,N,12221.6096,W,0.10,0.00,250614,018.2,E*7D
$GPGSV,2,1,07,02,75,116,32,25,50,304,29,48,34,194,,04,30,053,31*70
$GPGSV,2,2,07,10,29,099,30,31,08,331,32,17,01,082,*40
$GPRMC,011603.4,A,4738.3790,N,12221.6096,W,0.09,0.00,250614,018.2,E*73
$GPGGA,011603.600,4738.3790,N,12221.6096,W,1,5,1.82,166.8,M,-17.3,M,,*6C
$GPGSA,A,3,10,02,31,04,25,,,,,,,,2.04,1.82,0.93*07
$GPRMC,011603.6,A,4738.3790,N,12221.6096,W,0.08,0.00,250614,018.2,E*70
$GPRMC,011603.8,A,4738.3790,N,12221.6096,W,0.08,0.00,250614,018.2,E*7E
$GPRMC,011604.0,A,4738.3790,N,12221.6096,W,0.08,0.00,250614,018.2,E*71
$GPRMC,011604.2,A,4738.3790,N,12221.6096,W,0.06,0.00,250614,018.2,E*7D
$GPGSV,2,1,07,02,75,116,32,25,50,304,29,48,34,194,,04,30,053,31*70
$GPGSV,2,2,07,10,29,099,30,31,08,331,32,17,01,082,*40
$GPRMC,011604.4,A,4738.3790,N,12221.6096,W,0.08,0.00,250614,018.2,E*75
$GPGGA,011604.600,4738.3790,N,12221.6096,W,1,5,2.52,166.8,M,-17.3,M,,*65
$GPGSA,A,3,10,02,31,04,25,,,,,,,,3.62,2.52,2.59*0C
$GPRMC,011604.6,A,4738.3790,N,12221.6096,W,0.10,0.00,250614,018.2,E*7E
$GPRMC,011604.8,A,4738.3790,N,12221.6096,W,0.12,0.00,250614,018.2,E*72
$GPRMC,011605.0,A,4738.3790,N,12221.6096,W,0.13,0.00,250614,018.2,E*7A
$GPRMC,011605.2,A,4738.3791,N,12221.6096,W,0.15,0.00,250614,018.2,E*7F
$GPGSV,2,1,07,02,75,116,32,25,50,304,29,48,34,194,,04,30,053,31*70
$GPGSV,2,2,07,10,29,099,30,31,08,331,32,17,01,082,*40
$GPRMC,011605.4,A,4738.3791,N,12221.6096,W,0.17,0.00,250614,018.2,E*7B
$GPGGA,011605.600,4738.3791,N,12221.6096,W,1,5,2.52,166.7,M,-17.3,M,,*6A
$GPGSA,A,3,10,02,31,04,25,,,,,,,,3.62,2.52,2.59*0C
$GPRMC,011605.6,A,4738.3791,N,12221.6096,W,0.18,0.00,250614,018.2,E*76
$GPRMC,011605.8,A,4738.3791,N,12221.6096,W,0.18,0.00,250614,018.2,E*78
$GPRMC,011606.0,A,4738.3791,N,12221.6096,W,0.17,0.00,250614,018.2,E*7C
$GPRMC,011606.2,A,4738.3791,N,12221.6096,W,0.16,0.00,250614,018.2,E*7F
$GPGSV,2,1,07,02,75,116,32,25,50,304,29,48,34,194,,04,30,053,31*70
$GPGSV,2,2,07,10,29,099,30,31,08,331,32,17,01,082,*40
$GPRMC,011606.4,A,4738.3791,N,12221.6096,W,0.15,0.00,250614,018.2,E*7A
$GPGGA,011606.600,4738.3791,N,12221.6096,W,1,5,1.82,166.7,M,-17.3,M,,*67
$GPGSA,A,3,10,02,31,04,25,,,,,,,,2.05,1.82,0.93*06
$GPRMC,011606.6,A,4738.3791,N,12221.6096,W,0.15,0.00,250614,018.2,E*78
$GPRMC,011606.8,A,4738.3791,N,12221.6096,W,0.14,0.00,250614,018.2,E*77
$GPRMC,011607.0,A,4738.3791,N,12221.6096,W,0.15,0.00,250614,018.2,E*7F
$GPRMC,011607.2,A,4738.3791,N,12221.6096,W,0.14,0.00,250614,018.2,E*7C
$GPGSV,2,1,07,02,75,116,32,25,50,304,28,51,33,159,,04,30,053,30*7E
$GPGSV,2,2,07,10,29,099,30,31,08,331,32,17,01,082,*40
$GPRMC,011607.4,A,4738.3791,N,12221.6096,W,0.14,0.00,250614,018.2,E*7A
$GPGGA,011607.600,4738.3791,N,12221.6095,W,1,5,1.82,166.7,M,-17.3,M,,*65
$GPGSA,A,3,10,02,31,04,25,,,,,,,,2.04,1.82,0.93*07
$GPRMC,011607.6,A,4738.3791,N,12221.6095,W,0.14,0.00,250614,018.2,E*7B
$GPRMC,011607.8,A,4738.3791,N,12221.6095,W,0.14,0.00,250614,018.2,E*75
$GPRMC,011608.0,A,4738.3791,N,12221.6095,W,0.14,0.00,250614,018.2,E*72
$GPRMC,011608.2,A,4738.3791,N,12221.6096,W,0.14,0.00,250614,018.2,E*73
$GPGSV,2,1,07,02,75,116,32,25,50,304,28,51,33,159,,04,30,053,30*7E
$GPGSV,2,2,07,10,29,099,30,31,08,331,32,17,01,082,*40
$GPRMC,011608.4,A,4738.3791,N,12221.6096,W,0.14,0.00,250614,018.2,E*75
$GPGGA,011608.600,4738.3790,N,12221.6097,W,1,5,1.82,166.4,M,-17.3,M,,*6A
$GPGSA,A,3,10,02,31,04,25,,,,,,,,2.05,1.82,0.93*06
$GPRMC,011608.6,A,4738.3790,N,12221.6097,W,0.14,0.00,250614,018.2,E*77
$GPRMC,011608.8,A,4738.3790,N,12221.6097,W,0.14,0.00,250614,018.2,E*79
$GPRMC,011609.0,A,4738.3789,N,12221.6097,W,0.13,0.00,250614,018.2,E*7F
$GPRMC,011609.2,A,4738.3787,N,12221.6099,W,0.12,0.00,250614,018.2,E*7C
$GPGSV,2,1,07,02,75,116,32,25,50,304,28,51,33,159,,04,30,053,30*7E
$GPGSV,2,2,07,10,29,099,30,31,08,331,32,17,01,082,*40
$GPRMC,011609.4,A,4738.3786,N,12221.6100,W,0.10,0.00,250614,018.2,E*78
$GPGGA,011609.600,4738.3785,N,12221.6101,W,1,5,2.52,165.6,M,-17.3,M,,*6E
$GPGSA,A,3,10,02,31,04,25,,,,,,,,3.62,2.52,2.60*06
$GPRMC,011609.6,A,4738.3785,N,12221.6101,W,0.08,0.00,250614,018.2,E*71
$GPRMC,011609.8,A,4738.3785,N,12221.6102,W,0.05,0.00,250614,018.2,E*71
$GPRMC,011610.0,A,4738.3784,N,12221.6102,W,0.04,0.00,250614,018.2,E*71
$GPRMC,011610.2,A,4738.3783,N,12221.6103,W,0.03,0.00,250614,018.2,E*72
$GPGSV,2,1,07,02,75,116,32,25,50,304,28,51,33,159,,04,30,053,30*7E
$GPGSV,2,2,07,10,29,099,30,31,08,331,32,17,01,082,*40
$GPRMC,011610.4,A,4738.3783,N,12221.6104,W,0.04,0.00,250614,018.2,E*74
$GPGGA,011610.600,4738.3782,N,12221.6104,W,1,5,1.82,165.0,M,-17.3,M,,*6C
$GPGSA,A,3,10,02,31,04,25,,,,,,,,2.05,1.82,0.93*06
$GPRMC,011610.6,A,4738.3782,N,12221.6104,W,0.05,0.00,250614,018.2,E*76
$GPRMC,011610.8,A,4738.3782,N,12221.6104,W,0.06,0.00,250614,018.2,E*7B
$GPRMC,011611.0,A,4738.3782,N,12221.6105,W,0.07,0.00,250614,018.2,E*72
$GPRMC,011611.2,A,4738.3782,N,12221.6105,W,0.07,0.00,250614,018.2,E*70
$GPGSV,2,1,07,02,75,116,32,25,50,304,28,51,33,159,,04,30,053,30*7E
$GPGSV,2,2,07,10,29,099,30,31,08,331,32,17,01,082,*40
$GPRMC,011611.4,A,4738.3782,N,12221.6105,W,0.06,0.00,250614,018.2,E*77
$GPGGA,011611.600,4738.3782,N,12221.6105,W,1,5,1.82,164.4,M,-17.3,M,,*69
$GPGSA,A,3,10,02,31,04,25,,,,,,,,2.05,1.82,0.93*06
$GPRMC,011611.6,A,4738.3782,N,12221.6105,W,0.06,0.00,250614,018.2,E*75
$GPRMC,011611.8,A,4738.3782,N,12221.6105,W,0.06,0.00,250614,018.2,E*7B
$GPRMC,011612.0,A,4738.3782,N,12221.6105,W,0.07,0.00,250614,018.2,E*71
$GPRMC,011612.2,A,4738.3782,N,12221.6105,W,0.10,0.00,250614,018.2,E*75
$GPGSV,2,1,07,02,75,116,32,25,50,304,28,51,33,159,,04,30,053,30*7E
$GPGSV,2,2,07,10,29,099,30,31,08,331,32,17,01,082,*40
$GPRMC,011612.4,A,4738.3782,N,12221.6104,W,0.13,0.00,250614,018.2,E*71
$GPGGA,011612.600,4738.3782,N,12221.6105,W,1,5,1.82,163.8,M,-17.3,  ,,*61
$GPGSA,A,3,10,02,31,04,25,,,,,,,,2.05,1.82,0.93*06
$GPRMC,011613.0,A,4738.3782,N,12221.6104,W,0.20,0.00,250614,018.2,E*74
$GPRMC,011613.2,A,4738.3782,N,12221.6104,W,0.22,0.00,250614,018.2,E*74
$GPGSV,2,1,07,02,75,115,32,25,50,304,28,51,33,159,,04,30,053,30*7D
$GPGSV,2,2,07,10,29,099,30,31,08,331,32,17,01,082,*40
$GPRMC,011613.4,A,4738.3782,N,12221.6104,W,0.24,0.00,250614,018.2,E*74
$GPGGA,011613.600,4738.3781,N,12221.6104,W,1,5,1.82,163.3,M,-17.3,M,,*69
$GPGSA,A,3,10,02,31,04,25,,,,,,,,2.05,1.82,0.93*06
$GPRMC,011613.6,A,4738.3781,N,12221.6104,W,0.26,0.00,250614,018.2,E*77
$GPRMC,011613.8,A,4738.3781,N,12221.6104,W,0.27,0.00,250614,018.2,E*78
$GPRMC,011614.0,A,4738.3780,N,12221.6104,W,0.26,0.00,250614,018.2,E*77
$GPRMC,011614.2,A,4738.3780,N,12221.6104,W,0.26,0.00,250614,018.2,E*75
$GPGSV,2,1,07,02,75,115,32,25,50,304,29,51,33,159,,04,30,053,30*7C
$GPGSV,2,2,07,10,29,099,30,31,08,331,32,17,01,082,*40
$GPRMC,011614.4,A,4738.3780,N,12221.6104,W,0.25,0.00,250614,018.2,E*70
$GPGGA,011614.600,4738.3781,N,12221.6104,W,1,5,1.82,162.8,M,-17.3,M,,*64
$GPGSA,A,3,10,02,31,04,25,,,,,,,,2.05,1.82,0.93*06
$GPRMC,011614.6,A,4738.3781,N,12221.6104,W,0.25,0.00,250614,018.2,E*73
$GPRMC,011614.8,A,4738.3781,N,12221.6104,W,0.26,0.00,250614,018.2,E*7E
$GPRMC,011615.0,A,4738.3781,N,12221.6104,W,0.28,0.00,250614,018.2,E*79
$GPRMC,011615.2,A,4738.3781,N,12221.6104,W,0.30,0.00,250614,018.2,E*72
$GPGSV,2,1,07,02,75,115,32,25,50,304,29,51,33,159,,04,30,053,30*7C
$GPGSV,2,2,07,10,29,099,30,31,08,331,32,17,01,082,*40
$GPRMC,011615.4,A,4738.3781,N,12221.6104,W,0.33,0.00,250614,018.2,E*77
$GPGGA,011615.600,4738.3780,N,12221.6105,W,1,5,1.82,162.3,M,-17.3,M,,*6E
$GPGSA,A,3,10,02,31,04,25,,,,,,,,2.05,1.82,0.93*06
$GPRMC,011615.6,A,4738.3780,N,12221.6105,W,0.35,0.00,250614,018.2,E*73
$GPRMC,011615.8,A,4738.3779,N,12221.6105,W,0.36,0.00,250614,018.2,E*78
$GPRMC,011616.0,A,4738.3779,N,12221.6105,W,0.36,0.00,250614,018.2,E*73
$GPRMC,011616.2,A,4738.3779,N,12221.6105,W,0.36,0.00,250614,018.2,E*71
$GPGSV,2,1,07,02,75,115,32,25,50,304,29,04,30,053,30,10,29,099,30*7C
$GPGSV,2,2,07,31,08,331,32,17,01,082,,34,,,*7E
$GPRMC,011616.4,A,4738.3779,N,12221.6105,W,0.36,0.00,250614,018.2,E*77
$GPGGA,011616.600,4738.3778,N,12221.6106,W,1,5,1.82,161.7,M,-17.3,M,,*6E
$GPGSA,A,3,10,02,31,04,25,,,,,,,,2.05,1.82,0.93*06
$GPRMC,011616.6,A,4738.3778,N,12221.6106,W,0.36,0.00,250614,018.2,E*77
$GPRMC,011616.8,A,4738.3778,N,12221.6106,W,0.36,0.00,250614,018.2,E*79
$GPRMC,011617.0,A,4738.3777,N,12221.6106,W,0.35,0.00,250614,018.2,E*7C
$GPRMC,011617.2,A,4738.3777,N,12221.6107,W,0.33,0.00,250614,018.2,E*79
$GPGSV,2,1,07,02,75,115,32,25,50,304,29,04,30,053,30,10,29,099,30*7C
$GPGSV,2,2,07,31,08,331,32,17,01,082,,34,,,*7E
$GPRMC,011617.4,A,4738.3776,N,12221.6108,W,0.30,0.00,250614,018.2,E*72
$GPGGA,011617.600,4738.3776,N,12221.6108,W,1,5,1.82,161.2,M,-17.3,M,,*6A
$GPGSA,A,3,10,02,31,04,25,,,,,,,,2.05,1.82,0.93*06
$GPRMC,011617.6,A,4738.3776,N,12221.6108,W,0.26,0.00,250614,018.2,E*77
$GPRMC,011617.8,A,4738.3775,N,12221.6108,W,0.24,0.00,250614,018.2,E*78
$GPRMC,011618.0,A,4738.3775,N,12221.6109,W,0.21,0.00,250614,018.2,E*7B
$GPRMC,011618.2,A,4738.3774,N,12221.6109,W,0.19,0.00,250614,018.2,E*73
$GPGSV,2,1,07,02,75,115,31,25,50,304,29,04,30,053,30,10,29,099,30*7F
$GPGSV,2,2,07,31,08,331,32,17,01,082,,34,,,*7E
$GPRMC,011618.4,A,4738.3774,N,12221.6109,W,0.17,0.00,250614,018.2,E*7B
$GPGGA,011618.600,4738.3773,N,12221.6109,W,1,5,1.82,160.8,M,-17.3,M,,*6A
$GPGSA,A,3,10,02,31,04,25,,,,,,,,2.05,1.82,0.93*06
$GPRMC,011618.6,A,4738.3773,N,12221.6109,W,0.14,0.00,250614,018.2,E*7D
$GPRMC,011618.8,A,4738.3773,N,12221.6110,W,0.11,0.00,250614,018.2,E*7E
$GPRMC,011619.0,A,4738.3772,N,12221.6109,W,0.09,0.00,250614,018.2,E*77
$GPRMC,011619.2,A,4738.3772,N,12221.6110,W,0.07,0.00,250614,018.2,E*73
$GPGSV,2,1,07,02,75,115,31,25,50,304,29,04,30,053,30,10,29,099,30*7F
$GPGSV,2,2,07,31,08,331,32,17,01,082,,34,,,*7E
$GPRMC,011619.4,A,4738.3771,N,12221.6111,W,0.05,0.00,250614,018.2,E*75
$GPGGA,011619.600,4738.3770,N,12221.6111,W,1,5,1.82,160.3,M,-17.3,M,,*6A
$GPGSA,A,3,10,02,31,04,25,,,,,,,,2.05,1.82,0.93*06
$GPRMC,011619.6,A,4738.3770,N,12221.6111,W,0.03,0.00,250614,018.2,E*70
$GPRMC,011619.8,A,4738.3770,N,12221.6112,W,0.03,0.00,250614,018.2,E*7D
$GPRMC,011620.0,A,4738.3769,N,12221.6113,W,0.03,0.00,250614,018.2,E*76
$GPRMC,011620.2,A,4738.3768,N,12221.6113,W,0.04,0.00,250614,018.2,E*72
$GPGSV,2,1,07,02,75,115,31,25,50,304,29,04,30,053,30,10,29,099,30*7F
$GPGSV,2,2,07,31,08,331,33,17,01,082,,34,,,*7F
$GPRMC,011620.4,A,4738.3768,N,12221.6113,W,0.05,0.00,250614,018.2,E*75
$GPGGA,011620.600,4738.3767,N,12221.6114,W,1,5,1.82,159.7,M,-17.3,M,,*6D
$GPGSA,A,3,10,02,31,04,25,,,,,,,,2.05,1.82,0.93*06
$GPRMC,011620.6,A,4738.3767,N,12221.6114,W,0.06,0.00,250614,018.2,E*7C
$GPRMC,011620.8,A,4738.3767,N,12221.6114,W,0.07,0.00,250614,018.2,E*73
$GPRMC,011621.0,A,4738.3767,N,12221.6114,W,0.07,0.00,250614,018.2,E*7A
$GPRMC,011621.2,A,4738.3766,N,12221.6115,W,0.06,0.00,250614,018.2,E*79
$GPGSV,2,1,07,02,75,115,31,25,50,304,29,10,30,099,30,04,30,053,30*77
$GPGSV,2,2,07,31,08,331,33,17,01,082,,34,,,*7F
$GPRMC,011621.4,A,4738.3766,N,12221.6115,W,0.03,0.00,250614,018.2,E*7A
$GPGGA,011621.600,4738.3766,N,12221.6115,W,1,5,1.82,159.5,M,-17.3,M,,*6E
$GPGSA,A,3,10,02,31,04,25,,,,,,,,2.05,1.82,0.93*06
$GPRMC,011621.6,A,4738.3766,N,12221.6115,W,0.02,0.00,250614,018.2,E*79
$GPRMC,011621.8,A,4738.3766,N,12221.6115,W,0.02,0.00,250614,018.2,E*77
$GPRMC,011622.0,A,4738.3766,N,12221.6115,W,0.03,0.00,250614,018.2,E*7D
$GPRMC,011622.2,A,4738.3766,N,12221.6115,W,0.06,0.00,250614,018.2,E*7A
$GPGSV,2,1,07,02,75,115,31,25,50,304,29,10,30,099,31,04,30,053,30*76
$GPGSV,2,2,07,31,08,331,33,17,01,082,,35,,,*7E
$GPRMC,011622.4,A,4738.3766,N,12221.6115,W,0.06,0.00,250614,018.2,E*7C
$GPGGA,011622.600,4738.3766,N,12221.6115,W,1,5,1.82,159.4,M,-17.3,M,,*6C
$GPGSA,A,3,10,02,31,04,25,,,,,,,,2.05,1.82,0.93*06
$GPRMC,011622.6,A,4738.3766,N,12221.6115,W,0.07,0.00,250614,018.2,E*7F
$GPRMC,011622.8,A,4738.3766,N,12221.6115,W,0.07,0.00,250614,018.2,E*71
$GPRMC,011623.0,A,4738.3766,N,12221.6115,W,0.06,0.00,250614,018.2,E*79
$GPRMC,011623.2,A,4738.3766,N,12221.6115,W,0.05,0.00,250614,018.2,E*78
$GPGSV,2,1,07,02,75,115,31,25,50,304,29,10,30,099,31,04,30,053,30*76
$GPGSV,2,2,07,31,08,331,33,17,01,083,,35,,,*7F
$GPRMC,011623.4,A,4738.3766,N,12221.6115,W,0.07,0.00,250614,018.2,E*7C
$GPGGA,011623.600,4738.3766,N,12221.6116,W,1,5,1.82,159.4,M,-17.3,M,,*6E
$GPGSA,A,3,10,02,31,04,25,,,,,,,,2.05,1.82,0.93*06
$GPRMC,011623.6,A,4738.3766,N,12221.6116,W,0.09,0.00,250614,018.2,E*73
$GPRMC,011623.8,A,4738.3766,N,12221.6116,W,0.11,0.00,250614,018.2,E*74
$GPRMC,011624.0,A,4738.3766,N,12221.6116,W,0.12,0.00,250614,018.2,E*78
$GPRMC,011624.2,A,4738.3766,N,12221.6116,W,0.13,0.00,250614,018.2,E*7B
$GPGSV,2,1,07,02,75,115,31,25,50,304,29,10,30,099,30,04,30,053,30*77
$GPGSV,2,2,07,31,08,331,33,17,01,083,,35,,,*7F
$GPRMC,011624.4,A,4738.3766,N,12221.6116,W,0.13,0.00,250614,018.2,E*7D
$GPRMC,011624.6,A,4738.3766,N,12221.6116,W,0.12,0.00,250614,018.2,E*7E
$GPRMC,011624.8,A,4738.3766,N,12221.6116,W,0.13,0.00,250614,018.2,E*71
$GPRMC,011625.0,A,4738.3766,N,12221.6116,W,0.15,0.00,250614,018.2,E*7E
$GPRMC,011625.2,A,4738.3766,N,12221.6116,W,0.15,0.00,250614,018.2,E*7C
$GPGSV,2,1,07,02,75,115,31,25,50,304,29,10,30,099,31,04,30,053,30*76
$GPGSV,2,2,07,31,08,331,32,17,01,083,,35,,,*7E
$GPRMC,011625.4,A,4738.3766,N,12221.6116,W,0.15,0.00,250614,018.2,E*7A
$GPGGA,011625.600,4738.3766,N,12221.6116,W,1,5,1.82,159.4,M,-17.3,M,,*68
$GPGSA,A,3,10,02,31,04,25,,,,,,,,2.05,1.82,0.93*06
$GPRMC,011625.6,A,4738.3766,N,12221.6116,W,0.17,0.00,250614,018.2,E*7A
$GPRMC,011625.8,A,4738.3766,N,12221.6116,W,0.17,0.00,250614,018.2,E*74
$GPRMC,011626.0,A,4738.3767,N,12221.6116,W,0.17,0.00,250614,018.2,E*7E
$GPRMC,011626.2,A,4738.3767,N,12221.6116,W,0.16,0.00,250614,018.2,E*7D
$GPGSV,2,1,07,02,75,115,31,25,50,304,29,10,30,099,31,04,30,053,30*76
$GPGSV,2,2,07,31,08,331,32,17,01,083,,35,,,*7E
$GPRMC,011626.4,A,4738.3767,N,12221.6116,W,0.17,0.00,250614,018.2,E*7A
$GPGGA,011626.600,4738.3767,N,12221.6116,W,1,5,1.82,159.4,M,-17.3,M,,*6A
$GPGSA,A,3,10,02,31,04,25,,,,,,,,2.05,1.82,0.93*06
$GPRMC,011626.6,A,4738.3767,N,12221.6116,W,0.17,0.00,250614,018.2,E*78
$GPRMC,011626.8,A,4738.3767,N,12221.6117,W,0.17,0.00,250614,018.2,E*77
$GPRMC,011627.0,A,4738.3767,N,12221.6117,W,0.16,0.00,250614,018.2,E*7F
$GPRMC,011627.2,A,4738.3767,N,12221.6117,W,0.17,0.00,250614,018.2,E*7C
$GPGSV,2,1,07,02,75,115,31,25,50,304,29,10,30,099,31,04,30,053,30*76
$GPGSV,2,2,07,31,08,331,32,17,01,083,,35,,,*7E
$GPRMC,011627.4,A,4738.3767,N,12221.6117,W,0.18,0.00,250614,018.2,E*75
$GPGGA,011627.600,4738.3767,N,12221.6117,W,1,5,1.82,159.4,M,-17.3,M,,*6A
$GPGSA,A,3,10,02,31,04,25,,,,,,,,2.05,1.82,0.93*06
$GPRMC,011627.6,A,4738.3767,N,12221.6117,W,0.18,0.00,250614,018.2,E*77
$GPRMC,011627.8,A,4738.3767,N,12221.6117,W,0.18,0.00,250614,018.2,E*79
$GPRMC,011628.0,A,4738.3767,N,12221.6117,W,0.18,0.00,250614,018.2,E*7E
$GPRMC,011628.2,A,4738.3767,N,12221.6117,W,0.17,0.00,250614,018.2,E*73
$GPGSV,2,1,07,02,75,115,31,25,50,304,29,10,30,099,31,04,30,053,30*76
$GPGSV,2,2,07,31,08,331,32,17,01,083,,36,,,*7D
$GPRMC,011628.4,A,4738.3768,N,12221.6117,W,0.15,0.00,250614,018.2,E*78
$GPGGA,011628.600,4738.3768,N,12221.6117,W,1,5,1.82,159.4,M,-17.3,M,,*6A
$GPGSA,A,3,10,02,31,04,25,,,,,,,,2.05,1.82,0.93*06
$GPRMC,011628.6,A,4738.3768,N,12221.6117,W,0.10,0.00,250614,018.2,E*7F
$GPRMC,011628.8,A,4738.3768,N,12221.6117,W,0.06,0.00,250614,018.2,E*76
$GPRMC,011629.0,A,4738.3768,N,12221.6117,W,0.04,0.00,250614,018.2,E*7D
$GPRMC,011629.2,A,4738.3768,N,12221.6117,W,0.03,0.00,250614,018.2,E*78
$GPGSV,2,1,07,02,75,115,32,25,50,304,29,10,30,099,31,04,30,053,30*75
$GPGSV,2,2,07,31,08,331,32,17,01,083,,36,,,*7D
$GPRMC,011629.4,A,4738.3768,N,12221.6117,W,0.03,0.00,250614,018.2,E*7E
$GPGGA,011629.600,4738.3768,N,12221.6117,W,1,5,1.82,159.4,M,-17.3,M,,*6B
$GPGSA,A,3,10,02,31,04,25,,,,,,,,2.05,1.82,0.93*06
$GPRMC,011629.6,A,4738.3768,N,12221.6117,W,0.04,0.00,250614,018.2,E*7B
$GPRMC,011629.8,A,4738.3768,N,12221.6117,W,0.05,0.00,250614,018.2,E*74
$GPRMC,011630.0,A,4738.3768,N,12221.6117,W,0.06,0.00,250614,018.2,E*77
$GPRMC,011630.2,A,4738.3768,N,12221.6117,W,0.07,0.00,250614,018.2,E*74
$GPGSV,2,1,07,02,75,115,31,25,50,304,29,10,30,099,31,04,30,053,30*76
$GPGSV,2,2,07,31,08,331,32,17,01,083,,36,,,*7D
$GPRMC,011630.4,A,4738.3768,N,12221.6117,W,0.10,0.00,250614,018.2,E*74
$GPGGA,011630.600,4738.3768,N,12221.6117,W,1,5,1.82,159.4,M,-17.3,M,,*63
$GPGSA,A,3,10,02,31,04,25,,,,,,,,2.05,1.82,0.93*06
$GPRMC,011630.6,A,4738.3768,N,12221.6117,W,0.11,0.00,250614,018.2,E*77
$GPRMC,011630.8,A,4738.3768,N,12221.6117,W,0.12,0.00,250614,018.2,E*7A
$GPRMC,011631.0,A,4738.3768,N,12221.6117,W,0.15,0.00,250614,018.2,E*74
$GPRMC,011631.2,A,4738.3768,N,12221.6118,W,0.17,0.00,250614,018.2,E*7B
$GPGSV,2,1,07,02,75,115,31,25,50,304,29,10,30,099,31,04,30,053,30*76
$GPGSV,2,2,07,31,08,331,31,17,01,083,,36,,,*7E
$GPRMC,011631.4,A,4738.3768,N,12221.6118,W,0.18,0.00,250614,018.2,E*72
$GPGGA,011631.600,4738.3768,N,12221.6118,W,1,5,1.82,159.4,M,-17.3,M,,*6D
$GPGSA,A,3,10,02,31,04,25,,,,,,,,2.05,1.82,0.93*06
$GPRMC,011631.6,A,4738.3768,N,12221.6118,W,0.18,0.00,250614,018.2,E*70
$GPRMC,011631.8,A,4738.3768,N,12221.6118,W,0.20,0.00,250614,018.2,E*75
$GPRMC,011632.0,A,4738.3768,N,12221.6118,W,0.23,0.00,250614,018.2,E*7D
$GPRMC,011632.2,A,4738.3768,N,12221.6118,W,0.26,0.00,250614,018.2,E*7A
$GPGSV,2,1,07,02,75,115,31,25,50,304,29,10,30,099,32,04,30,053,30*75
$GPGSV,2,2,07,31,08,331,31,17,01,083,,36,,,*7E
$GPRMC,011632.4,A,4738.3769,N,12221.6118,W,0.26,0.00,250614,018.2,E*7D
$GPGGA,011632.600,4738.3769,N,12221.6118,W,1,5,1.82,159.4,M,-17.3,M,,*6F
$GPGSA,A,3,10,02,31,04,25,,,,,,,,2.05,1.82,0.93*06
$GPRMC,011632.6,A,4738.3769,N,12221.6118,W,0.28,0.00,250614,018.2,E*71
$GPRMC,011632.8,A,4738.3769,N,12221.6118,W,0.27,0.00,250614,018.2,E*70
$GPRMC,011633.0,A,4738.3769,N,12221.6118,W,0.27,0.00,250614,018.2,E*79
$GPRMC,011633.2,A,4738.3769,N,12221.6119,W,0.28,0.00,250614,018.2,E*75
$GPGSV,2,1,07,02,75,115,31,25,50,304,29,10,30,099,32,04,30,053,30*75
$GPGSV,2,2,07,31,08,331,31,17,01,083,,36,,,*7E
$GPRMC,011633.4,A,4738.3769,N,12221.6119,W,0.29,0.00,250614,018.2,E*72
$GPGGA,011633.600,4738.3769,N,12221.6119,W,1,5,1.82,159.4,M,-17.3,M,,*6F
$GPGSA,A,3,10,02,31,04,25,,,,,,,,2.05,1.82,0.93*06
$GPRMC,011633.6,A,4738.3769,N,12221.6119,W,0.31,0.00,250614,018.2,E*79
$GPRMC,011633.8,A,4738.3769,N,12221.6119,W,0.31,0.00,250614,018.2,E*77
$GPRMC,011634.0,A,4738.3770,N,12221.6119,W,0.32,0.00,250614,018.2,E*73
$GPRMC,011634.2,A,4738.3770,N,12221.6119,W,0.32,0.00,250614,018.2,E*71
$GPGSV,2,1,07,02,75,115,31,25,50,304,29,10,30,099,32,04,30,053,30*75
$GPGSV,2,2,07,31,08,331,31,17,01,083,,38,,,*70
$GPRMC,011634.4,A,4738.3770,N,12221.6120,W,0.30,0.00,250614,018.2,E*7F
$GPGGA,011634.600,4738.3770,N,12221.6120,W,1,5,1.83,159.4,M,-17.3,M,,*6B
$GPGSA,A,3,10,02,31,04,25,,,,,,,,2.05,1.83,0.93*07
$GPRMC,011634.6,A,4738.3770,N,12221.6120,W,0.28,0.00,250614,018.2,E*74
$GPRMC,011634.8,A,4738.3770,N,12221.6120,W,0.25,0.00,250614,018.2,E*77
$GPRMC,011635.0,A,4738.3770,N,12221.6120,W,0.22,0.00,250614,018.2,E*79
$GPRMC,011635.2,A,4738.3770,N,12221.6120,W,0.21,0.00,250614,018.2,E*78
$GPGSV,2,1,07,02,75,115,31,25,50,304,29,10,30,099,31,04,30,053,30*76
$GPGSV,2,2,07,31,08,331,31,17,01,083,,38,,,*70
$GPRMC,011635.4,A,4738.3770,N,12221.6120,W,0.20,0.00,250614,018.2,E*7F
$GPGGA,011635.600,4738.3770,N,12221.6120,W,1,5,1.82,159.4,M,-17.3,M,,*6B
$GPGSA,A,3,10,02,31,04,25,,,,,,,,2.05,1.82,0.93*06
$GPRMC,011635.6,A,4738.3770,N,12221.6120,W,0.18,0.00,250614,018.2,E*76
$GPRMC,011635.8,A,4738.3771,N,12221.6120,W,0.16,0.00,250614,018.2,E*77
$GPRMC,011636.0,A,4738.3771,N,12221.6120,W,0.15,0.00,250614,018.2,E*7F
$GPRMC,011636.2,A,4738.3771,N,12221.6120,W,0.15,0.00,250614,018.2,E*7D
$GPGSV,2,1,07,02,75,115,31,25,50,304,29,10,30,099,31,04,30,053,30*76
$GPGSV,2,2,07,31,08,331,31,17,01,083,,38,,,*70
$GPRMC,011636.4,A,4738.3771,N,12221.6121,W,0.13,0.00,250614,018.2,E*7C
$GPGGA,011636.600,4738.3771,N,12221.6121,W,1,5,1.83,159.3,M,-17.3,M,,*6E
$GPGSA,A,3,10,02,31,04,25,,,,,,,,2.05,1.83,0.93*07
$GPRMC,011636.6,A,4738.3771,N,12221.6121,W,0.11,0.00,250614,018.2,E*7C
$GPRMC,011636.8,A,4738.3771,N,12221.6121,W,0.11,0.00,250614,018.2,E*72
$GPRMC,011637.0,A,4738.3771,N,12221.6121,W,0.13,0.00,250614,018.2,E*79
$GPRMC,011637.2,A,4738.3771,N,12221.6121,W,0.15,0.00,250614,018.2,E*7D
$GPGSV,2,1,07,02,75,115,31,25,50,304,29,10,30,099,31,04,30,053,30*76
$GPGSV,2,2,07,31,08,331,31,17,01,083,,38,,,*70
$GPRMC,011637.4,A,4738.3771,N,12221.6121,W,0.16,0.00,250614,018.2,E*78
$GPGGA,011637.600,4738.3771,N,12221.6121,W,1,5,2.54,159.3,M,-17.3,M,,*66
$GPGSA,A,3,10,02,31,04,25,,,,,,,,3.65,2.54,2.61*06
$GPRMC,011637.6,A,4738.3771,N,12221.6121,W,0.18,0.00,250614,018.2,E*74
$GPRMC,011637.8,A,4738.3771,N,12221.6121,W,0.20,0.00,250614,018.2,E*71
$GPRMC,011638.0,A,4738.3772,N,12221.6121,W,0.20,0.00,250614,018.2,E*75
$GPRMC,011638.2,A,4738.3772,N,12221.6121,W,0.22,0.00,250614,018.2,E*75
$GPGSV,2,1,07,02,75,115,31,25,50,304,29,10,30,099,31,04,30,053,30*76
$GPGSV,2,2,07,31,08,331,31,17,01,083,,38,,,*70
$GPRMC,011638.4,A,4738.3772,N,12221.6121,W,0.23,0.00,250614,018.2,E*72
$GPGGA,011638.600,4738.3772,N,12221.6121,W,1,5,2.54,159.3,M,-17.3,M,,*6A
$GPGSA,A,3,10,02,31,04,25,,,,,,,,3.65,2.54,2.61*06
$GPRMC,011638.6,A,4738.3772,N,12221.6121,W,0.23,0.00,250614,018.2,E*70
$GPRMC,011638.8,A,4738.3772,N,12221.6121,W,0.23,0.00,250614,018.2,E*7E
$GPRMC,011639.0,A,4738.3772,N,12221.6121,W,0.23,0.00,250614,018.2,E*77
$GPRMC,011639.2,A,4738.3772,N,12221.6121,W,0.24,0.00,250614,018.2,E*72
$GPGSV,2,1,07,02,75,115,31,25,50,304,29,10,30,099,32,04,30,053,30*75
$GPGSV,2,2,07,31,08,331,31,17,01,083,,38,,,*70
$GPRMC,011639.4,A,4738.3772,N,12221.6121,W,0.26,0.00,250614,018.2,E*76
$GPGGA,011639.600,4738.3773,N,12221.6121,W,1,5,2.54,159.3,M,-17.3,M,,*6A
$GPGSA,A,3,10,02,31,04,25,,,,,,,,3.65,2.54,2.62*05
$GPRMC,011639.6,A,4738.3773,N,12221.6121,W,0.27,0.00,250614,018.2,E*74
$GPRMC,011639.8,A,4738.3773,N,12221.6121,W,0.28,0.00,250614,018.2,E*75
$GPRMC,011640.0,A,4738.3773,N,12221.6121,W,0.29,0.00,250614,018.2,E*72
$GPRMC,011640.2,A,4738.3773,N,12221.6121,W,0.30,0.00,250614,018.2,E*78
$GPGSV,2,1,07,02,75,115,31,25,50,304,29,10,30,099,32,04,30,053,30*75
$GPGSV,2,2,07,31,08,331,31,17,01,083,,41,,,*7E
$GPRMC,011640.4,A,4738.3773,N,12221.6121,W,0.27,0.00,250614,018.2,E*78
$GPGGA,011640.600,4738.3773,N,12221.6121,W,1,5,1.83,159.3,M,-17.3,M,,*6D
$GPGSA,A,3,10,02,31,04,25,,,,,,,,2.05,1.83,0.93*07
$GPRMC,011640.6,A,4738.3773,N,12221.6121,W,0.23,0.00,250614,018.2,E*7E
$GPRMC,011640.8,A,4738.3773,N,12221.6121,W,0.22,0.00,250614,018.2,E*71
$GPRMC,011641.0,A,4738.3774,N,12221.6121,W,0.21,0.00,250614,018.2,E*7C
$GPRMC,011641.2,A,4738.3774,N,12221.6121,W,0.22,0.00,250614,018.2,E*7D
$GPGSV,2,1,07,02,75,114,31,25,50,304,29,10,30,099,31,04,30,053,30*77
$GPGSV,2,2,07,31,08,331,30,17,01,083,,41,,,*7F
$GPRMC,011641.4,A,4738.3774,N,12221.6121,W,0.24,0.00,250614,018.2,E*7D
$GPGGA,011641.600,4738.3774,N,12221.6121,W,1,5,2.55,159.3,M,-17.3,M,,*63
$GPGSA,A,3,10,02,31,04,25,,,,,,,,3.65,2.55,2.62*04
$GPRMC,011641.6,A,4738.3774,N,12221.6121,W,0.27,0.00,250614,018.2,E*7C
$GPRMC,011641.8,A,4738.3774,N,12221.6121,W,0.30,0.00,250614,018.2,E*74
$GPRMC,011642.0,A,4738.3774,N,12221.6121,W,0.32,0.00,250614,018.2,E*7D
$GPRMC,011642.2,A,4738.3775,N,12221.6121,W,0.36,0.00,250614,018.2,E*7A
$GPGSV,2,1,07,02,75,114,31,25,50,304,29,10,30,099,31,04,30,053,30*77
$GPGSV,2,2,07,31,08,331,31,17,01,083,,41,,,*7E
$GPRMC,011642.4,A,4738.3775,N,12221.6121,W,0.41,0.00,250614,018.2,E*7C
$GPGGA,011642.600,4738.3775,N,12221.6121,W,1,5,2.55,159.3,M,-17.3,M,,*61
$GPGSA,A,3,10,02,31,04,25,,,,,,,,3.65,2.55,2.62*04
$GPRMC,011642.6,A,4738.3775,N,12221.6121,W,0.42,0.00,250614,018.2,E*7D
$GPRMC,011642.8,A,4738.3775,N,12221.6121,W,0.43,0.00,250614,018.2,E*72
$GPRMC,011643.0,A,4738.3775,N,12221.6121,W,0.43,0.00,250614,018.2,E*7B
$GPRMC,011643.2,A,4738.3776,N,12221.6120,W,0.42,0.00,250614,018.2,E*7A
$GPGSV,2,1,07,02,75,114,31,25,50,304,29,10,30,099,31,04,30,053,30*77
$GPGSV,2,2,07,31,08,331,30,17,01,083,,41,,,*7F
$GPRMC,011643.4,A,4738.3776,N,12221.6121,W,0.40,0.00,250614,018.2,E*7F
$GPGGA,011643.600,4738.3776,N,12221.6121,W,1,5,2.55,159.3,M,-17.3,M,,*63
$GPGSA,A,3,10,02,31,04,25,,,,,,,,3.65,2.55,2.62*04
$GPRMC,011643.6,A,4738.3776,N,12221.6121,W,0.38,0.00,250614,018.2,E*72
$GPRMC,011643.8,A,4738.3776,N,12221.6121,W,0.37,0.00,250614,018.2,E*73
$GPRMC,011644.0,A,4738.3777,N,12221.6121,W,0.35,0.00,250614,018.2,E*7F
$GPRMC,011644.2,A,4738.3777,N,12221.6121,W,0.34,0.00,250614,018.2,E*7C
$GPGSV,2,1,07,02,75,114,31,25,50,304,29,10,30,099,31,04,30,053,29*7F
$GPGSV,2,2,07,31,08,331,31,17,01,083,,41,,,*7E
$GPRMC,011644.4,A,4738.3777,N,12221.6121,W,0.36,0.00,250614,018.2,E*78
$GPGGA,011644.600,4738.3777,N,12221.6121,W,1,5,2.55,159.3,M,-17.3,M,,*65
$GPGSA,A,3,10,02,31,04,25,,,,,,,,3.65,2.55,2.62*04
$GPRMC,011644.6,A,4738.3777,N,12221.6121,W,0.37,0.00,250614,018.2,E*7B
$GPRMC,011644.8,A,4738.3777,N,12221.6121,W,0.39,0.00,250614,018.2,E*7B
$GPRMC,011645.0,A,4738.3778,N,12221.6121,W,0.40,0.00,250614,018.2,E*73
$GPRMC,011645.2,A,4738.3778,N,12221.6121,W,0.40,0.00,250614,018.2,E*71
$GPGSV,2,1,07,02,75,114,31,25,50,304,29,10,30,099,32,04,30,053,29*7C
$GPGSV,2,2,07,31,08,331,30,17,01,083,,41,,,*7F
$GPRMC,011645.4,A,4738.3778,N,12221.6121,W,0.40,0.00,250614,018.2,E*77
$GPGGA,011645.600,4738.3778,N,12221.6121,W,1,5,2.55,159.3,M,-17.3,M,,*6B
$GPGSA,A,3,10,02,31,04,25,,,,,,,,3.66,2.55,2.62*07
$GPRMC,011645.6,A,4738.3778,N,12221.6121,W,0.40,0.00,250614,018.2,E*75
$GPRMC,011645.8,A,4738.3779,N,12221.6121,W,0.40,0.00,250614,018.2,E*7A
$GPRMC,011646.0,A,4738.3779,N,12221.6121,W,0.39,0.00,250614,018.2,E*7F
$GPRMC,011646.2,A,4738.3779,N,12221.6121,W,0.35,0.00,250614,018.2,E*71
$GPGSV,2,1,07,02,75,114,31,25,50,304,29,10,30,099,32,04,30,053,29*7C
$GPGSV,2,2,07,31,08,331,31,17,01,083,,43,,,*7C
$GPRMC,011646.4,A,4738.3779,N,12221.6121,W,0.31,0.00,250614,018.2,E*73
$GPGGA,011646.600,4738.3779,N,12221.6121,W,1,5,1.83,159.3,M,-17.3,M,,*61
$GPGSA,A,3,10,02,31,04,25,,,,,,,,2.05,1.83,0.93*07
$GPRMC,011646.6,A,4738.3779,N,12221.6121,W,0.28,0.00,250614,018.2,E*79
$GPRMC,011646.8,A,4738.3780,N,12221.6121,W,0.26,0.00,250614,018.2,E*7F
$GPRMC,011647.0,A,4738.3780,N,12221.6121,W,0.22,0.00,250614,018.2,E*72
$GPRMC,011647.2,A,4738.3780,N,12221.6121,W,0.17,0.00,250614,018.2,E*76
$GPGSV,2,1,07,02,75,114,31,25,50,304,29,10,30,099,32,04,30,053,29*7C
$GPGSV,2,2,07,31,08,331,31,17,01,083,,43,,,*7C
$GPRMC,011647.4,A,4738.3780,N,12221.6121,W,0.13,0.00,250614,018.2,E*74
$GPGGA,011647.600,4738.3780,N,12221.6121,W,1,5,2.55,159.3,M,-17.3,M,,*6E
$GPGSA,A,3,10,02,31,04,25,,,,,,,,3.66,2.55,2.62*07
$GPRMC,011647.6,A,4738.3780,N,12221.6121,W,0.13,0.00,250614,018.2,E*76
$GPRMC,011647.8,A,4738.3780,N,12221.6121,W,0.13,0.00,250614,018.2,E*78
$GPRMC,011648.0,A,4738.3780,N,12221.6121,W,0.15,0.00,250614,018.2,E*79
$GPRMC,011648.2,A,4738.3780,N,12221.6121,W,0.17,0.00,250614,018.2,E*79
$GPGSV,2,1,07,02,75,114,31,25,50,304,29,10,30,099,32,04,30,053,29*7C
$GPGSV,2,2,07,31,08,331,31,17,01,083,,43,,,*7C
$GPRMC,011648.4,A,4738.3780,N,12221.6121,W,0.17,0.00,250614,018.2,E*7F
$GPGGA,011648.600,4738.3780,N,12221.6121,W,1,5,1.83,159.3,M,-17.3,M,,*69
$GPGSA,A,3,10,02,31,04,25,,,,,,,,2.05,1.83,0.93*07
$GPRMC,011648.6,A,4738.3780,N,12221.6121,W,0.16,0.00,250614,018.2,E*7C
$GPRMC,011648.8,A,4738.3780,N,12221.6121,W,0.17,0.00,250614,018.2,E*73
$GPRMC,011649.0,A,4738.3780,N,12221.6121,W,0.16,0.00,250614,018.2,E*7B
$GPRMC,011649.2,A,4738.3780,N,12221.6120,W,0.15,0.00,250614,018.2,E*7B
$GPGSV,2,1,07,02,75,114,31,25,50,304,30,10,30,099,32,04,30,053,29*74
$GPGSV,2,2,07,31,08,331,31,17,01,083,,43,,,*7C
$GPRMC,011649.4,A,4738.3780,N,12221.6120,W,0.14,0.00,250614,018.2,E*7C
$GPGGA,011649.600,4738.3780,N,12221.6120,W,1,5,1.83,159.3,M,-17.3,M,,*69
$GPGSA,A,3,10,02,31,04,25,,,,,,,,2.05,1.83,0.93*07
$GPRMC,011649.6,A,4738.3780,N,12221.6120,W,0.14,0.00,250614,018.2,E*7E
$GPRMC,011649.8,A,4738.3780,N,12221.6120,W,0.14,0.00,250614,018.2,E*70
$GPRMC,011650.0,A,4738.3780,N,12221.6120,W,0.14,0.00,250614,018.2,E*70
$GPRMC,011650.2,A,4738.3780,N,12221.6120,W,0.14,0.00,250614,018.2,E*72
$GPGSV,2,1,07,02,75,114,31,25,50,304,29,10,30,099,32,04,30,053,29*7C
$GPGSV,2,2,07,31,08,331,30,17,01,083,,43,,,*7D
$GPRMC,011650.4,A,4738.3780,N,12221.6120,W,0.14,0.00,250614,018.2,E*74
$GPGGA,011650.600,4738.3780,N,12221.6120,W,1,5,1.83,159.3,M,-17.3,M,,*61
$GPGSA,A,3,10,02,31,04,25,,,,,,,,2.05,1.83,0.93*07
$GPRMC,011650.6,A,4738.3780,N,12221.6120,W,0.13,0.00,250614,018.2,E*71
$GPRMC,011650.8,A,4738.3780,N,12221.6120,W,0.13,0.00,250614,018.2,E*7F
$GPRMC,011651.0,A,4738.3780,N,12221.6119,W,0.15,0.00,250614,018.2,E*7A
$GPRMC,011651.2,A,4738.3780,N,12221.6119,W,0.14,0.00,250614,018.2,E*79
$GPGSV,2,1,07,02,75,114,31,25,50,304,29,10,30,099,32,04,30,053,29*7C
$GPGSV,2,2,07,31,08,331,30,17,01,083,,43,,,*7D
$GPRMC,011651.4,A,4738.3780,N,12221.6119,W,0.16,0.00,250614,018.2,E*7D
$GPGGA,011651.600,4738.3780,N,12221.6119,W,1,5,1.83,159.3,M,-17.3,M,,*6A
$GPGSA,A,3,10,02,31,04,25,,,,,,,,2.05,1.83,0.93*07
$GPRMC,011651.6,A,4738.3780,N,12221.6119,W,0.16,0.00,250614,018.2,E*7F
$GPRMC,011651.8,A,4738.3780,N,12221.6119,W,0.14,0.00,250614,018.2,E*73
$GPRMC,011652.0,A,4738.3780,N,12221.6119,W,0.13,0.00,250614,018.2,E*7F
$GPRMC,011652.2,A,4738.3780,N,12221.6119,W,0.14,0.00,250614,018.2,E*7A
$GPGSV,2,1,07,02,75,114,31,25,50,304,29,10,30,099,31,04,30,053,29*7F
$GPGSV,2,2,07,31,08,331,30,17,01,083,,45,,,*7B
$GPRMC,011652.4,A,4738.3780,N,12221.6119,W,0.16,0.00,250614,018.2,E*7E
$GPGGA,011652.600,4738.3780,N,12221.6118,W,1,5,1.83,159.3,M,-17.3,M,,*68
$GPGSA,A,3,10,02,31,04,25,,,,,,,,2.05,1.83,0.93*07
$GPRMC,011652.6,A,4738.3780,N,12221.6118,W,0.17,0.00,250614,018.2,E*7C
$GPRMC,011652.8,A,4738.3780,N,12221.6118,W,0.19,0.00,250614,018.2,E*7C
$GPRMC,011653.0,A,4738.3780,N,12221.6118,W,0.22,0.00,250614,018.2,E*7D
$GPRMC,011653.2,A,4738.3780,N,12221.6118,W,0.26,0.00,250614,018.2,E*7B
$GPGSV,2,1,07,02,75,114,31,25,50,304,29,10,30,099,31,04,30,053,29*7F
$GPGSV,2,2,07,31,08,331,30,17,01,083,,45,,,*7B
$GPRMC,011653.4,A,4738.3781,N,12221.6118,W,0.28,0.00,250614,018.2,E*72
$GPGGA,011653.600,4738.3781,N,12221.6118,W,1,5,1.83,159.3,M,-17.3,M,,*68
$GPGSA,A,3,10,02,31,04,25,,,,,,,,2.05,1.83,0.93*07
$GPRMC,011653.6,A,4738.3781,N,12221.6118,W,0.32,0.00,250614,018.2,E*7B
$GPRMC,011653.8,A,4738.3781,N,12221.6117,W,0.31,0.00,250614,018.2,E*79
$GPRMC,011654.0,A,4738.3781,N,12221.6117,W,0.28,0.00,250614,018.2,E*7E
$GPRMC,011654.2,A,4738.3781,N,12221.6117,W,0.27,0.00,250614,018.2,E*73
$GPGSV,2,1,07,02,75,114,31,25,50,304,29,10,30,099,32,04,30,053,29*7C
$GPGSV,2,2,07,31,08,331,30,17,01,083,,45,,,*7B
$GPRMC,011654.4,A,4738.3781,N,12221.6117,W,0.26,0.00,250614,018.2,E*74
$GPGGA,011654.600,4738.3781,N,12221.6116,W,1,5,1.83,159.3,M,-17.3,M,,*61
$GPGSA,A,3,10,02,31,04,25,,,,,,,,2.05,1.83,0.93*07
$GPRMC,011654.6,A,4738.3781,N,12221.6116,W,0.26,0.00,250614,018.2,E*77
$GPRMC,011654.8,A,4738.3781,N,12221.6116,W,0.25,0.00,250614,018.2,E*7A
$GPRMC,011655.0,A,4738.3781,N,12221.6116,W,0.24,0.00,250614,018.2,E*72
$GPRMC,011655.2,A,4738.3781,N,12221.6116,W,0.21,0.00,250614,018.2,E*75
$GPGSV,2,1,07,02,75,114,30,25,50,304,29,10,30,099,31,04,30,053,29*7E
$GPGSV,2,2,07,31,08,331,30,17,01,083,,45,,,*7B
$GPRMC,011655.4,A,4738.3781,N,12221.6116,W,0.20,0.00,250614,018.2,E*72
$GPGGA,011655.600,4738.3781,N,12221.6115,W,1,5,1.83,159.3,M,-17.3,M,,*63
$GPGSA,A,3,10,02,31,04,25,,,,,,,,2.05,1.83,0.93*07
$GPRMC,011655.6,A,4738.3781,N,12221.6115,W,0.21,0.00,250614,018.2,E*72
$GPRMC,011655.8,A,4738.3781,N,12221.6115,W,0.21,0.00,250614,018.2,E*7C
$GPRMC,011656.0,A,4738.3781,N,12221.6115,W,0.22,0.00,250614,018.2,E*74
$GPRMC,011656.2,A,4738.3781,N,12221.6115,W,0.22,0.00,250614,018.2,E*76
$GPGSV,2,1,07,02,75,114,31,25,50,304,29,10,30,099,31,04,30,053,29*7F
$GPGSV,2,2,07,31,08,331,30,17,01,083,,45,,,*7B
$GPRMC,011656.4,A,4738.3781,N,12221.6115,W,0.22,0.00,250614,018.2,E*70
$GPGGA,011656.600,4738.3781,N,12221.6115,W,1,5,1.83,159.3,M,-17.3,M,,*60
$GPGSA,A,3,10,02,31,04,25,,,,,,,,2.05,1.83,0.93*07
$GPRMC,011656.6,A,4738.3781,N,12221.6115,W,0.23,0.00,250614,018.2,E*73
$GPRMC,011656.8,A,4738.3782,N,12221.6114,W,0.23,0.00,250614,018.2,E*7F
$GPRMC,011657.0,A,4738.3782,N,12221.6114,W,0.22,0.00,250614,018.2,E*77
$GPRMC,011657.2,A,4738.3782,N,12221.6114,W,0.24,0.00,250614,018.2,E*73
$GPGSV,2,1,07,02,75,114,31,25,50,304,29,10,30,099,31,04,30,053,29*7F
$GPGSV,2,2,07,31,08,331,30,17,01,083,,45,,,*7B
$GPRMC,011657.4,A,4738.3782,N,12221.6114,W,0.23,0.00,250614,018.2,E*72
$GPGGA,011657.600,4738.3782,N,12221.6114,W,1,5,1.83,159.3,M,-17.3,M,,*63
$GPGSA,A,3,10,02,31,04,25,,,,,,,,2.05,1.83,0.93*07
$GPRMC,011657.6,A,4738.3782,N,12221.6114,W,0.23,0.00,250614,018.2,E*70
$GPRMC,011657.8,A,4738.3782,N,12221.6114,W,0.24,0.00,250614,018.2,E*79
$GPRMC,011658.0,A,4738.3782,N,12221.6113,W,0.24,0.00,250614,018.2,E*79
$GPRMC,011658.2,A,4738.3782,N,12221.6113,W,0.25,0.00,250614,018.2,E*7A
$GPGSV,2,1,07,02,75,114,31,25,50,304,29,10,30,099,31,04,30,053,29*7F
$GPGSV,2,2,07,31,08,331,30,17,01,083,,46,,,*78
$GPRMC,011658.4,A,4738.3782,N,12221.6113,W,0.25,0.00,250614,018.2,E*7C
$GPGGA,011658.600,4738.3782,N,12221.6113,W,1,5,1.83,159.3,M,-17.3,M,,*6B
$GPGSA,A,3,10,02,31,04,25,,,,,,,,2.05,1.83,0.93*07
$GPRMC,011658.6,A,4738.3782,N,12221.6113,W,0.24,0.00,250614,018.2,E*7F
$GPRMC,011658.8,A,4738.3782,N,12221.6113,W,0.23,0.00,250614,018.2,E*76
$GPRMC,011659.0,A,4738.3782,N,12221.6112,W,0.22,0.00,250614,018.2,E*7F
$GPRMC,011659.2,A,4738.3782,N,12221.6112,W,0.21,0.00,250614,018.2,E*7E
$GPGSV,2,1,08,02,75,114,31,25,50,304,29,10,30,099,31,04,30,053,29*70
$GPGSV,2,2,08,31,08,331,30,17,01,083,,46,,,,29,,,31*7E
$GPRMC,011659.4,A,4738.3782,N,12221.6112,W,0.20,0.00,250614,018.2,E*79
$GPGGA,011659.600,4738.3781,N,12221.6112,W,1,5,1.83,159.3,M,-17.3,M,,*68
$GPGSA,A,3,10,02,31,04,25,,,,,,,,2.05,1.83,0.93*07
$GPRMC,011659.6,A,4738.3781,N,12221.6112,W,0.20,0.00,250614,018.2,E*78
