$GPRMC,020000.2,A,4738.3389,N,12221.6491,W,0.01,341.11,250614,018.2,E*73
$GPGSV,3,1,11,25,67,283,32,02,64,066,25,12,64,168,36,29,36,282,33*7F
$GPGSV,3,2,11,10,35,076,21,48,34,194,,05,32,139,23,06,27,053,26*75
$GPGSV,3,3,11,31,18,317,31,04,12,053,17,24,02,198,*46
$GPRMC,020000.4,A,4738.3389,N,12221.6491,W,0.01,341.11,250614,018.2,E*75
$GPGGA,020000.600,4738.3389,N,12221.6491,W,1,9,1.13,105.0,M,-17.3,M,,*6D
$GPGSA,A,3,10,02,31,04,25,29,06,12,05,,,,2.04,1.13,1.69*00
$GPRMC,020000.6,A,4738.3389,N,12221.6491,W,0.01,341.11,250614,018.2,E*77
$GPRMC,020000.8,A,4738.3389,N,12221.6491,W,0.01,341.11,250614,018.2,E*79
$GPRMC,020001.0,A,4738.3389,N,12221.6491,W,0.00,341.11,250614,018.2,E*71
$GPRMC,020001.2,A,4738.3389,N,12221.6491,W,0.00,341.11,250614,018.2,E*73
$GPGSV,3,1,11,25,67,283,32,02,64,066,24,12,64,168,36,29,36,282,34*79
$GPGSV,3,2,11,10,35,076,24,48,34,194,,05,32,139,23,06,27,053,25*73
$GPGSV,3,3,11,31,18,317,31,04,12,053,16,24,02,198,*47
$GPRMC,020001.4,A,4738.3389,N,12221.6491,W,0.00,341.11,250614,018.2,E*75
$GPGGA,020001.600,4738.3389,N,12221.6491,W,1,9,1.13,105.0,M,-17.3,M,,*6C
$GPGSA,A,3,10,02,31,04,25,29,06,12,05,,,,2.04,1.13,1.69*00
$GPRMC,020001.6,A,4738.3389,N,12221.6491,W,0.00,341.11,250614,018.2,E*77
$GPRMC,020001.8,A,4738.3389,N,12221.6491,W,0.00,341.11,250614,018.2,E*79
$GPRMC,020002.0,A,4738.3389,N,12221.6491,W,0.00,341.11,250614,018.2,E*72
$GPRMC,020002.2,A,4738.3389,N,12221.6491,W,0.00,341.11,250614,018.2,E*70
$GPGSV,3,1,11,25,67,283,32,02,64,066,24,12,64,168,36,29,36,282,34*79
$GPGSV,3,2,11,10,35,076,24,48,34,194,,05,32,139,23,06,27,053,25*73
$GPGSV,3,3,11,31,18,317,31,04,12,053,16,24,02,198,*47
$GPRMC,020002.4,A,4738.3389,N,12221.6491,W,0.00,341.11,250614,018.2,E*76
$GPGGA,020002.600,4738.3389,N,12221.6491,W,1,9,1.13,105.0,M,-17.3,M,,*6F
$GPGSA,A,3,10,02,31,04,25,29,06,12,05,,,,2.04,1.13,1.69*00
$GPRMC,020002.6,A,4738.3389,N,12221.6491,W,0.00,341.11,250614,018.2,E*74
$GPRMC,020002.8,A,4738.3389,N,12221.6491,W,0.00,341.11,250614,018.2,E*7A
$GPRMC,020003.0,A,4738.3389,N,12221.6491,W,0.00,341.11,250614,018.2,E*73
$GPRMC,020003.2,A,4738.3389,N,12221.6491,W,0.00,341.11,250614,018.2,E*71
$GPGSV,3,1,11,25,67,283,32,02,64,066,24,12,64,168,36,29,36,282,34*79
$GPGSV,3,2,11,10,35,076,25,48,34,194,,05,32,139,22,06,27,053,25*73
$GPGSV,3,3,11,31,18,317,31,04,12,053,16,24,02,198,*47
$GPRMC,020003.4,A,4738.3389,N,12221.6491,W,0.00,341.11,250614,018.2,E*77
$GPGGA,020003.600,4738.3389,N,12221.6491,W,1,9,1.13,105.0,M,-17.3,M,,*6E
$GPGSA,A,3,10,02,31,04,25,29,06,12,05,,,,2.04,1.13,1.69*00
$GPRMC,020003.6,A,4738.3389,N,12221.6491,W,0.00,341.11,250614,018.2,E*75
$GPRMC,020003.8,A,4738.3389,N,12221.6491,W,0.00,341.11,250614,018.2,E*7B
$GPRMC,020004.0,A,4738.3389,N,12221.6491,W,0.00,341.11,250614,018.2,E*74
$GPRMC,020004.2,A,4738.3389,N,12221.6492,W,0.00,341.11,250614,018.2,E*75
$GPGSV,3,1,11,25,67,283,32,02,64,066,24,12,64,168,36,29,36,282,34*79
$GPGSV,3,2,11,10,35,076,25,48,34,194,,05,32,139,22,06,27,053,25*73
$GPGSV,3,3,11,31,18,317,31,04,12,053,16,24,02,198,*47
$GPRMC,020004.4,A,4738.3389,N,12221.6492,W,0.01,341.11,250614,018.2,E*72
$GPGGA,020004.600,4738.3388,N,12221.6492,W,1,9,1.13,105.1,M,-17.3,M,,*6A
$GPGSA,A,3,10,02,31,04,25,29,06,12,05,,,,2.04,1.13,1.69*00
$GPRMC,020004.6,A,4738.3388,N,12221.6492,W,0.01,341.11,250614,018.2,E*71
$GPRMC,020004.8,A,4738.3388,N,12221.6492,W,0.00,341.11,250614,018.2,E*7E
$GPRMC,020005.0,A,4738.3388,N,12221.6492,W,0.00,341.11,250614,018.2,E*77
$GPRMC,020005.2,A,4738.3388,N,12221.6492,W,0.00,341.11,250614,018.2,E*75
$GPGSV,3,1,11,25,67,283,32,02,64,066,24,12,64,168,36,29,36,282,34*79
$GPGSV,3,2,11,10,35,076,25,48,34,194,,05,32,139,22,06,27,053,26*70
$GPGSV,3,3,11,31,18,317,31,04,12,053,16,24,02,198,*47
$GPRMC,020005.4,A,4738.3388,N,12221.6492,W,0.00,341.11,250614,018.2,E*73
$GPGGA,020005.600,4738.3388,N,12221.6492,W,1,9,1.13,105.1,M,-17.3,M,,*6B
$GPGSA,A,3,10,02,31,04,25,29,06,12,05,,,,2.04,1.13,1.69*00
$GPRMC,020005.6,A,4738.3388,N,12221.6492,W,0.00,341.11,250614,018.2,E*71
$GPRMC,020005.8,A,4738.3388,N,12221.6492,W,0.00,341.11,250614,018.2,E*7F
$GPRMC,020006.0,A,4738.3388,N,12221.6492,W,0.00,341.11,250614,018.2,E*74
$GPRMC,020006.2,A,4738.3387,N,12221.6493,W,0.00,341.11,250614,018.2,E*78
$GPGSV,3,1,11,25,67,283,32,02,64,066,24,12,64,168,36,29,36,282,34*79
$GPGSV,3,2,11,10,35,076,25,51,33,159,,05,32,139,21,06,27,053,26*7D
$GPGSV,3,3,11,31,18,317,31,04,12,053,16,24,02,198,*47
$GPRMC,020006.4,A,4738.3387,N,12221.6493,W,0.00,341.11,250614,018.2,E*7E
$GPGGA,020006.600,4738.3386,N,12221.6493,W,1,9,1.13,105.0,M,-17.3,M,,*66
$GPGSA,A,3,10,02,31,04,25,29,06,12,05,,,,2.04,1.13,1.69*00
$GPRMC,020006.6,A,4738.3386,N,12221.6493,W,0.00,341.11,250614,018.2,E*7D
$GPRMC,020006.8,A,4738.3387,N,12221.6493,W,0.00,341.11,250614,018.2,E*72
$GPRMC,020007.0,A,4738.3387,N,12221.6493,W,0.00,341.11,250614,018.2,E*7B
$GPRMC,020007.2,A,4738.3387,N,12221.6493,W,0.00,341.11,250614,018.2,E*79
$GPGSV,3,1,11,25,67,283,32,02,64,066,25,12,64,168,36,29,36,282,34*78
$GPGSV,3,2,11,10,35,076,25,51,33,159,,05,32,139,21,06,27,053,26*7D
$GPGSV,3,3,11,31,18,317,31,04,12,053,17,24,02,198,*46
$GPRMC,020007.4,A,4738.3387,N,12221.6493,W,0.00,341.11,250614,018.2,E*7F
$GPGGA,020007.600,4738.3387,N,12221.6492,W,1,9,1.13,105.0,M,-17.3,M,,*67
$GPGSA,A,3,10,02,31,04,25,29,06,12,05,,,,2.04,1.13,1.69*00
$GPRMC,020007.6,A,4738.3387,N,12221.6492,W,0.00,341.11,250614,018.2,E*7C
$GPRMC,020007.8,A,4738.3387,N,12221.6492,W,0.00,341.11,250614,018.2,E*72
$GPRMC,020008.0,A,4738.3387,N,12221.6491,W,0.01,341.11,250614,018.2,E*77
$GPRMC,020008.2,A,4738.3387,N,12221.6491,W,0.01,341.11,250614,018.2,E*75
$GPGSV,3,1,11,25,67,283,33,02,64,066,25,12,64,168,36,29,36,282,34*79
$GPGSV,3,2,11,10,35,076,25,51,33,159,,05,32,139,21,06,27,053,26*7D
$GPGSV,3,3,11,31,18,317,31,04,12,053,17,24,02,198,*46
$GPRMC,020008.4,A,4738.3387,N,12221.6491,W,0.01,341.11,250614,018.2,E*73
$GPGGA,020008.600,4738.3387,N,12221.6491,W,1,9,1.13,104.9,M,-17.3,M,,*63
$GPGSA,A,3,10,02,31,04,25,29,06,12,05,,,,2.04,1.13,1.69*00
$GPRMC,020008.6,A,4738.3387,N,12221.6491,W,0.01,341.11,250614,018.2,E*71
$GPRMC,020008.8,A,4738.3387,N,12221.6491,W,0.01,341.11,250614,018.2,E*7F
$GPRMC,020009.0,A,4738.3387,N,12221.6491,W,0.01,341.11,250614,018.2,E*76
$GPRMC,020009.2,A,4738.3387,N,12221.6491,W,0.01,341.11,250614,018.2,E*74
$GPGSV,3,1,11,25,67,283,33,02,64,066,26,12,64,168,36,29,36,282,34*7A
$GPGSV,3,2,11,10,35,076,25,51,33,159,,05,32,139,20,06,27,053,25*7F
$GPGSV,3,3,11,31,18,317,31,04,12,053,17,24,02,198,*46
$GPRMC,020009.4,A,4738.3387,N,12221.6491,W,0.01,341.11,250614,018.2,E*72
$GPGGA,020009.600,4738.3387,N,12221.6491,W,1,9,1.13,104.9,M,-17.3,M,,*62
$GPGSA,A,3,10,02,31,04,25,29,06,12,05,,,,2.04,1.13,1.69*00
$GPRMC,020009.6,A,4738.3387,N,12221.6491,W,0.00,341.11,250614,018.2,E*71
$GPRMC,020009.8,A,4738.3387,N,12221.6491,W,0.00,341.11,250614,018.2,E*7F
$GPRMC,020010.0,A,4738.3387,N,12221.6491,W,0.00,341.11,250614,018.2,E*7F
$GPRMC,020010.2,A,4738.3387,N,12221.6491,W,0.00,341.11,250614,018.2,E*7D
$GPGSV,3,1,11,25,67,283,33,02,64,066,26,12,64,168,36,29,36,282,34*7A
$GPGSV,3,2,11,10,35,076,25,51,33,159,,05,32,139,20,06,27,053,26*7C
$GPGSV,3,3,11,31,18,317,31,04,12,053,17,24,02,198,*46
$GPRMC,020010.4,A,4738.3387,N,12221.6491,W,0.00,341.11,250614,018.2,E*7B
$GPGGA,020010.600,4738.3387,N,12221.6491,W,1,9,1.13,104.9,M,-17.3,M,,*6A
$GPGSA,A,3,10,02,31,04,25,29,06,12,05,,,,2.04,1.13,1.70*08
$GPRMC,020010.6,A,4738.3387,N,12221.6491,W,0.00,341.11,250614,018.2,E*79
$GPRMC,020010.8,A,4738.3387,N,12221.6491,W,0.00,341.11,250614,018.2,E*77
$GPRMC,020011.0,A,4738.3387,N,12221.6491,W,0.01,341.11,250614,018.2,E*7F
$GPRMC,020011.2,A,4738.3387,N,12221.6491,W,0.01,341.11,250614,018.2,E*7D
$GPGSV,3,1,11,25,67,283,33,02,64,066,26,12,64,168,36,29,36,282,34*7A
$GPGSV,3,2,11,10,35,076,24,51,33,159,,05,32,139,20,06,27,053,26*7D
$GPGSV,3,3,11,31,18,317,31,04,12,053,17,24,02,198,*46
$GPRMC,020011.4,A,4738.3387,N,12221.6491,W,0.01,341.11,250614,018.2,E*7B
$GPGGA,020011.600,4738.3387,N,12221.6491,W,1,9,1.13,104.9,M,-17.3,M,,*6B
$GPGSA,A,3,10,02,31,04,25,29,06,12,05,,,,2.04,1.13,1.70*08
$GPRMC,020011.6,A,4738.3387,N,12221.6491,W,0.01,341.11,250614,018.2,E*79
$GPRMC,020011.8,A,4738.3387,N,12221.6491,W,0.00,341.11,250614,018.2,E*76
$GPRMC,020012.0,A,4738.3387,N,12221.6491,W,0.00,341.11,250614,018.2,E*7D
$GPRMC,020012.2,A,4738.3387,N,12221.6491,W,0.00,341.11,250614,018.2,E*7F
$GPGSV,3,1,11,25,67,283,33,02,64,066,26,12,64,168,36,29,36,282,34*7A
$GPGSV,3,2,11,10,35,076,24,51,33,159,,05,32,139,21,06,27,053,26*7C
$GPGSV,3,3,11,31,18,317,31,04,12,053,17,24,02,198,*46
$GPRMC,020012.4,A,4738.3387,N,12221.6491,W,0.00,341.11,250614,018.2,E*79
$GPGGA,020012.600,4738.3387,N,12221.6491,W,1,9,1.13,104.9,M,-17.3,M,,*68
$GPGSA,A,3,10,02,31,04,25,29,06,12,05,,,,2.04,1.13,1.70*08
$GPRMC,020012.6,A,4738.3387,N,12221.6491,W,0.00,341.11,250614,018.2,E*7B
$GPRMC,020012.8,A,4738.3387,N,12221.6491,W,0.00,341.11,250614,018.2,E*75
$GPRMC,020013.0,A,4738.3387,N,12221.6491,W,0.00,341.11,250614,018.2,E*7C
$GPRMC,020013.2,A,4738.3387,N,12221.6491,W,0.00,341.11,250614,018.2,E*7E
$GPGSV,3,1,11,25,67,283,33,02,64,066,26,12,64,168,36,29,36,282,34*7A
$GPGSV,3,2,11,10,35,076,24,51,33,159,,05,32,139,22,06,27,053,26*7F
$GPGSV,3,3,11,31,18,317,31,04,12,053,17,24,02,198,*46
$GPRMC,020013.4,A,4738.3387,N,12221.6491,W,0.00,341.11,250614,018.2,E*78
$GPGGA,020013.600,4738.3387,N,12221.6491,W,1,9,1.14,104.9,M,-17.3,M,,*6E
$GPGSA,A,3,10,02,31,04,25,29,06,12,05,,,,2.04,1.14,1.70*0F
$GPRMC,020013.6,A,4738.3387,N,12221.6491,W,0.01,341.11,250614,018.2,E*7B
$GPRMC,020013.8,A,4738.3387,N,12221.6491,W,0.00,341.11,250614,018.2,E*74
$GPRMC,020014.0,A,4738.3387,N,12221.6491,W,0.00,341.11,250614,018.2,E*7B
$GPRMC,020014.2,A,4738.3387,N,12221.6491,W,0.00,341.11,250614,018.2,E*79
$GPGSV,3,1,11,25,67,283,33,02,64,066,26,12,64,168,36,29,36,282,34*7A
$GPGSV,3,2,11,10,35,076,24,51,33,159,,05,32,139,22,06,27,053,26*7F
$GPGSV,3,3,11,31,18,317,31,04,12,053,17,24,02,198,*46
$GPRMC,020014.4,A,4738.3387,N,12221.6491,W,0.00,341.11,250614,018.2,E*7F
$GPGGA,020014.600,4738.3387,N,12221.6491,W,1,9,1.13,104.9,M,-17.3,M,,*6E
$GPGSA,A,3,10,02,31,04,25,29,06,12,05,,,,2.04,1.13,1.70*08
$GPRMC,020014.6,A,4738.3387,N,12221.6491,W,0.00,341.11,250614,018.2,E*7D
$GPRMC,020014.8,A,4738.3387,N,12221.6491,W,0.00,341.11,250614,018.2,E*73
$GPRMC,020015.0,A,4738.3387,N,12221.6491,W,0.00,341.11,250614,018.2,E*7A
$GPRMC,020015.2,A,4738.3387,N,12221.6491,W,0.00,341.11,250614,018.2,E*78
$GPGSV,3,1,11,25,67,283,33,02,64,066,25,12,64,168,36,29,36,282,34*79
$GPGSV,3,2,11,10,35,076,24,05,32,139,22,06,27,053,26,31,18,317,31*7A
$GPGSV,3,3,11,04,12,053,17,24,02,198,,34,,,*7D
$GPRMC,020015.4,A,4738.3387,N,12221.6491,W,0.01,341.11,250614,018.2,E*7F
$GPGGA,020015.600,4738.3387,N,12221.6491,W,1,9,1.14,104.9,M,-17.3,M,,*68
$GPGSA,A,3,10,02,31,04,25,29,06,12,05,,,,2.04,1.14,1.70*0F
$GPRMC,020015.6,A,4738.3387,N,12221.6491,W,0.01,341.11,250614,018.2,E*7D
$GPRMC,020015.8,A,4738.3387,N,12221.6491,W,0.01,341.11,250614,018.2,E*73
$GPRMC,020016.0,A,4738.3387,N,12221.6491,W,0.01,341.11,250614,018.2,E*78
$GPRMC,020016.2,A,4738.3387,N,12221.6491,W,0.00,341.11,250614,018.2,E*7B
$GPGSV,3,1,11,25,67,283,33,02,64,066,25,12,64,168,36,29,36,282,34*79
$GPGSV,3,2,11,10,35,076,24,05,32,139,22,06,27,053,26,31,18,317,32*79
$GPGSV,3,3,11,04,12,053,17,24,02,198,,34,,,*7D
$GPRMC,020016.4,A,4738.3387,N,12221.6491,W,0.00,341.11,250614,018.2,E*7D
$GPGGA,020016.600,4738.3387,N,12221.6491,W,1,9,1.14,104.9,M,-17.3,M,,*6B
$GPGSA,A,3,10,02,31,04,25,29,06,12,05,,,,2.04,1.14,1.70*0F
$GPRMC,020016.6,A,4738.3387,N,12221.6491,W,0.00,341.11,250614,018.2,E*7F
$GPRMC,020016.8,A,4738.3387,N,12221.6491,W,0.00,341.11,250614,018.2,E*71
$GPRMC,020017.0,A,4738.3387,N,12221.6491,W,0.00,341.11,250614,018.2,E*78
$GPRMC,020017.2,A,4738.3387,N,12221.6491,W,0.01,341.11,250614,018.2,E*7B
$GPGSV,3,1,11,25,67,283,33,02,64,066,26,12,64,168,36,29,36,282,35*7B
$GPGSV,3,2,11,10,35,076,24,05,32,139,22,06,27,053,26,31,18,317,33*78
$GPGSV,3,3,11,04,12,053,17,24,02,198,,34,,,*7D
$GPRMC,020017.4,A,4738.3387,N,12221.6491,W,0.00,341.11,250614,018.2,E*7C
$GPGGA,020017.600,4738.3387,N,12221.6491,W,1,9,1.14,104.9,M,-17.3,M,,*6A
$GPGSA,A,3,10,02,31,04,25,29,06,12,05,,,,2.04,1.14,1.70*0F
$GPRMC,020017.6,A,4738.3387,N,12221.6491,W,0.00,341.11,250614,018.2,E*7E
$GPRMC,020017.8,A,4738.3387,N,12221.6491,W,0.00,341.11,250614,018.2,E*70
$GPRMC,020018.0,A,4738.3387,N,12221.6491,W,0.01,341.11,250614,018.2,E*76
$GPRMC,020018.2,A,4738.3387,N,12221.6491,W,0.01,341.11,250614,018.2,E*74
$GPGSV,3,1,11,25,67,283,33,02,64,066,26,12,64,168,36,29,36,282,35*7B
$GPGSV,3,2,11,10,35,076,27,05,32,139,22,06,27,053,26,31,18,317,33*7B
$GPGSV,3,3,11,04,12,053,17,24,02,198,,34,,,*7D
$GPRMC,020018.4,A,4738.3387,N,12221.6491,W,0.00,341.11,250614,018.2,E*73
$GPGGA,020018.600,4738.3387,N,12221.6491,W,1,9,1.14,104.9,M,-17.3,M,,*65
$GPGSA,A,3,10,02,31,04,25,29,06,12,05,,,,2.04,1.14,1.70*0F
$GPRMC,020018.6,A,4738.3387,N,12221.6491,W,0.00,341.11,250614,018.2,E*71
$GPRMC,020018.8,A,4738.3387,N,12221.6491,W,0.00,341.11,250614,018.2,E*7F
$GPRMC,020019.0,A,4738.3387,N,12221.6491,W,0.01,341.11,250614,018.2,E*77
$GPRMC,020019.2,A,4738.3387,N,12221.6491,W,0.00,341.11,250614,018.2,E*74
$GPGSV,3,1,11,25,67,283,33,02,64,066,25,12,64,168,36,29,36,282,35*78
$GPGSV,3,2,11,10,35,076,25,05,32,139,22,06,27,053,26,31,18,317,32*78
$GPGSV,3,3,11,04,12,053,17,24,02,198,,34,,,*7D
$GPRMC,020019.4,A,4738.3387,N,12221.6491,W,0.00,341.11,250614,018.2,E*72
$GPGGA,020019.600,4738.3387,N,12221.6491,W,1,9,1.14,104.9,M,-17.3,M,,*64
$GPGSA,A,3,10,02,31,04,25,29,06,12,05,,,,2.04,1.14,1.70*0F
$GPRMC,020019.6,A,4738.3387,N,12221.6491,W,0.00,341.11,250614,018.2,E*70
$GPRMC,020019.8,A,4738.3387,N,12221.6491,W,0.00,341.11,250614,018.2,E*7E
$GPRMC,020020.0,A,4738.3387,N,12221.6491,W,0.00,341.11,250614,018.2,E*7C
$GPRMC,020020.2,A,4738.3387,N,12221.6491,W,0.00,341.11,250614,018.2,E*7E
$GPGSV,3,1,11,25,67,283,33,02,64,066,25,12,64,168,36,29,36,282,35*78
$GPGSV,3,2,11,10,35,076,25,05,32,139,22,06,27,053,26,31,18,317,33*79
$GPGSV,3,3,11,04,12,053,17,24,02,198,,34,,,*7D
$GPRMC,020020.4,A,4738.3387,N,12221.6491,W,0.00,341.11,250614,018.2,E*78
$GPGGA,020020.600,4738.3387,N,12221.6491,W,1,9,1.14,104.9,M,-17.3,M,,*6E
$GPGSA,A,3,10,02,31,04,25,29,06,12,05,,,,2.04,1.14,1.70*0F
$GPRMC,020020.6,A,4738.3387,N,12221.6491,W,0.00,341.11,250614,018.2,E*7A
$GPRMC,020020.8,A,4738.3387,N,12221.6491,W,0.00,341.11,250614,018.2,E*74
$GPRMC,020021.0,A,4738.3387,N,12221.6491,W,0.01,341.11,250614,018.2,E*7C
$GPRMC,020021.2,A,4738.3387,N,12221.6491,W,0.00,341.11,250614,018.2,E*7F
$GPGSV,3,1,11,25,67,282,34,02,64,066,26,12,64,168,36,29,36,282,35*7D
$GPGSV,3,2,11,10,35,076,24,05,32,139,22,06,27,053,26,31,18,317,32*79
$GPGSV,3,3,11,04,12,053,17,24,02,198,,35,,,*7C
$GPRMC,020021.4,A,4738.3387,N,12221.6491,W,0.00,341.11,250614,018.2,E*79
$GPGGA,020021.600,4738.3387,N,12221.6491,W,1,9,1.14,104.9,M,-17.3,M,,*6F
$GPGSA,A,3,10,02,31,04,25,29,06,12,05,,,,2.04,1.14,1.70*0F
$GPRMC,020021.6,A,4738.3387,N,12221.6491,W,0.00,341.11,250614,018.2,E*7B
$GPRMC,020021.8,A,4738.3387,N,12221.6491,W,0.00,341.11,250614,018.2,E*75
$GPRMC,020022.0,A,4738.3387,N,12221.6491,W,0.00,341.11,250614,018.2,E*7E
$GPRMC,020022.2,A,4738.3387,N,12221.6491,W,0.00,341.11,250614,018.2,E*7C
$GPGSV,3,1,11,25,67,282,34,02,64,066,26,12,64,168,36,29,36,282,35*7D
$GPGSV,3,2,11,10,35,076,24,05,32,139,22,06,27,053,26,31,18,317,32*79
$GPGSV,3,3,11,04,12,053,16,24,02,198,,35,,,*7D
$GPRMC,020022.4,A,4738.3387,N,12221.6491,W,0.00,341.11,250614,018.2,E*7A
$GPGGA,020022.600,4738.3387,N,12221.6491,W,1,9,1.14,104.9,M,-17.3,M,,*6C
$GPGSA,A,3,10,02,31,04,25,29,06,12,05,,,,2.04,1.14,1.70*0F
$GPRMC,020022.6,A,4738.3387,N,12221.6491,W,0.00,341.11,250614,018.2,E*78
$GPRMC,020022.8,A,4738.3387,N,12221.6491,W,0.00,341.11,250614,018.2,E*76
$GPRMC,020023.0,A,4738.3387,N,12221.6491,W,0.00,341.11,250614,018.2,E*7F
$GPRMC,020023.2,A,4738.3387,N,12221.6491,W,0.00,341.11,250614,018.2,E*7D
$GPGSV,3,1,11,25,67,282,34,02,64,066,26,12,64,168,36,29,36,282,35*7D
$GPGSV,3,2,11,10,35,076,24,05,32,139,22,06,27,053,26,31,18,317,32*79
$GPGSV,3,3,11,04,12,053,16,24,02,198,,35,,,*7D
$GPRMC,020023.4,A,4738.3387,N,12221.6491,W,0.00,341.11,250614,018.2,E*7B
$GPGGA,020023.600,4738.3387,N,12221.6491,W,1,9,1.14,104.9,M,-17.3,M,,*6D
$GPGSA,A,3,10,02,31,04,25,29,06,12,05,,,,2.04,1.14,1.70*0F
$GPRMC,020023.6,A,4738.3387,N,12221.6491,W,0.00,341.11,250614,018.2,E*79
$GPRMC,020023.8,A,4738.3387,N,12221.6491,W,0.01,341.11,250614,018.2,E*76
$GPRMC,020024.0,A,4738.3387,N,12221.6491,W,0.01,341.11,250614,018.2,E*79
$GPRMC,020024.2,A,4738.3387,N,12221.6491,W,0.01,341.11,250614,018.2,E*7B
$GPGSV,3,1,11,25,67,282,34,02,64,066,26,12,64,168,36,29,36,282,35*7D
$GPGSV,3,2,11,10,35,076,26,05,32,139,22,06,27,053,26,31,18,317,32*7B
$GPGSV,3,3,11,04,12,053,18,24,02,198,,35,,,*73
$GPRMC,020024.4,A,4738.3387,N,12221.6491,W,0.01,341.11,250614,018.2,E*7D
$GPGGA,020024.600,4738.3387,N,12221.6491,W,1,9,1.14,104.9,M,-17.3,M,,*6A
$GPGSA,A,3,10,02,31,04,25,29,06,12,05,,,,2.04,1.14,1.70*0F
$GPRMC,020024.6,A,4738.3387,N,12221.6491,W,0.00,341.11,250614,018.2,E*7E
$GPRMC,020024.8,A,4738.3387,N,12221.6491,W,0.00,341.11,250614,018.2,E*70
$GPRMC,020025.0,A,4738.3387,N,12221.6491,W,0.00,341.11,250614,018.2,E*79
$GPRMC,020025.2,A,4738.3387,N,12221.6491,W,0.00,341.11,250614,018.2,E*7B
$GPGSV,3,1,11,25,67,282,34,02,64,066,26,12,64,168,36,29,36,282,35*7D
$GPGSV,3,2,11,10,35,076,25,05,32,139,21,06,27,053,25,31,18,317,32*78
$GPGSV,3,3,11,04,12,053,19,24,02,198,,35,,,*72
$GPRMC,020025.4,A,4738.3387,N,12221.6491,W,0.00,341.11,250614,018.2,E*7D
$GPGGA,020025.600,4738.3387,N,12221.6491,W,1,9,1.14,104.9,M,-17.3,M,,*6B
$GPGSA,A,3,10,02,31,04,25,29,06,12,05,,,,2.04,1.14,1.70*0F
$GPRMC,020025.6,A,4738.3387,N,12221.6491,W,0.00,341.11,250614,018.2,E*7F
$GPRMC,020025.8,A,4738.3387,N,12221.6491,W,0.00,341.11,250614,018.2,E*71
$GPRMC,020026.0,A,4738.3387,N,12221.6491,W,0.00,341.11,250614,018.2,E*7A
$GPRMC,020026.2,A,4738.3387,N,12221.6491,W,0.00,341.11,250614,018.2,E*78
$GPGSV,3,1,11,25,67,282,34,02,64,066,25,12,64,168,36,29,36,282,35*7E
$GPGSV,3,2,11,10,35,076,25,05,32,139,21,06,27,053,25,31,18,317,31*7B
$GPGSV,3,3,11,04,12,053,19,24,02,198,,35,,,*72
$GPRMC,020026.4,A,4738.3387,N,12221.6491,W,0.00,341.11,250614,018.2,E*7E
$GPGGA,020026.600,4738.3387,N,12221.6491,W,1,9,1.14,104.9,M,-17.3,M,,*68
$GPGSA,A,3,10,02,31,04,25,29,06,12,05,,,,2.04,1.14,1.70*0F
$GPRMC,020026.6,A,4738.3387,N,12221.6491,W,0.00,341.11,250614,018.2,E*7C
$GPRMC,020026.8,A,4738.3387,N,12221.6491,W,0.00,341.11,250614,018.2,E*72
$GPRMC,020027.0,A,4738.3387,N,12221.6491,W,0.00,341.11,250614,018.2,E*7B
$GPRMC,020027.2,A,4738.3387,N,12221.6491,W,0.00,341.11,250614,018.2,E*79
$GPGSV,3,1,11,25,67,282,34,02,64,066,25,12,64,168,36,29,36,282,35*7E
$GPGSV,3,2,11,10,35,076,25,05,32,139,21,06,27,053,25,31,18,317,31*7B
$GPGSV,3,3,11,04,12,053,19,24,02,198,,36,,,*71
$GPRMC,020027.4,A,4738.3387,N,12221.6491,W,0.00,341.11,250614,018.2,E*7F
$GPGGA,020027.600,4738.3387,N,12221.6491,W,1,9,1.14,104.9,M,-17.3,M,,*69
$GPGSA,A,3,10,02,31,04,25,29,06,12,05,,,,2.04,1.14,1.70*0F
$GPRMC,020027.6,A,4738.3387,N,12221.6491,W,0.00,341.11,250614,018.2,E*7D
$GPRMC,020027.8,A,4738.3387,N,12221.6491,W,0.00,341.11,250614,018.2,E*73
$GPRMC,020028.0,A,4738.3387,N,12221.6491,W,0.00,341.11,250614,018.2,E*74
$GPRMC,020028.2,A,4738.3387,N,12221.6491,W,0.00,341.11,250614,018.2,E*76
$GPGSV,3,1,11,25,67,282,34,02,64,066,26,12,64,168,36,29,36,282,35*7D
$GPGSV,3,2,11,10,35,076,25,05,32,139,21,06,27,053,25,31,18,317,32*78
$GPGSV,3,3,11,04,12,053,19,24,02,198,,36,,,*71
$GPRMC,020028.4,A,4738.3387,N,12221.6491,W,0.00,341.11,250614,018.2,E*70
$GPGGA,020028.600,4738.3386,N,12221.6491,W,1,9,1.14,104.9,M,-17.3,M,,*67
$GPGSA,A,3,10,02,31,04,25,29,06,12,05,,,,2.04,1.14,1.70*0F
$GPRMC,020028.6,A,4738.3386,N,12221.6491,W,0.00,341.11,250614,018.2,E*73
$GPRMC,020028.8,A,4738.3386,N,12221.6491,W,0.00,341.11,250614,018.2,E*7D
$GPRMC,020029.0,A,4738.3386,N,12221.6491,W,0.00,341.11,250614,018.2,E*74
$GPRMC,020029.2,A,4738.3386,N,12221.6491,W,0.00,341.11,250614,018.2,E*76
$GPGSV,3,1,11,25,67,282,34,02,64,066,26,12,64,168,36,29,36,282,35*7D
$GPGSV,3,2,11,10,35,076,25,05,32,139,21,06,27,053,25,31,18,317,32*78
$GPGSV,3,3,11,04,12,053,19,24,02,198,,36,,,*71
$GPRMC,020029.4,A,4738.3386,N,12221.6491,W,0.00,341.11,250614,018.2,E*70
$GPGGA,020029.600,4738.3386,N,12221.6491,W,1,9,1.14,104.9,M,-17.3,M,,*66
$GPGSA,A,3,10,02,31,04,25,29,06,12,05,,,,2.04,1.14,1.70*0F
$GPRMC,020029.6,A,4738.3386,N,12221.6491,W,0.00,341.11,250614,018.2,E*72
$GPRMC,020029.8,A,4738.3386,N,12221.6491,W,0.00,341.11,250614,018.2,E*7C
$GPRMC,020030.0,A,4738.3386,N,12221.6491,W,0.00,341.11,250614,018.2,E*7C
$GPRMC,020030.2,A,4738.3386,N,12221.6491,W,0.00,341.11,250614,018.2,E*7E
$GPGSV,3,1,11,25,67,282,34,02,64,066,25,12,64,168,36,29,36,282,35*7E
$GPGSV,3,2,11,10,35,076,25,05,32,139,21,06,27,053,26,31,18,317,32*7B
$GPGSV,3,3,11,04,12,053,19,24,02,198,,36,,,*71
$GPRMC,020030.4,A,4738.3386,N,12221.6491,W,0.00,341.11,250614,018.2,E*78
$GPGGA,020030.600,4738.3386,N,12221.6491,W,1,9,1.14,104.9,M,-17.3,M,,*6E
$GPGSA,A,3,10,02,31,04,25,29,06,12,05,,,,2.05,1.14,1.70*0E
$GPRMC,020030.6,A,4738.3386,N,12221.6491,W,0.01,341.11,250614,018.2,E*7B
$GPRMC,020030.8,A,4738.3386,N,12221.6491,W,0.00,341.11,250614,018.2,E*74
$GPRMC,020031.0,A,4738.3386,N,12221.6491,W,0.00,341.11,250614,018.2,E*7D
$GPRMC,020031.2,A,4738.3386,N,12221.6491,W,0.00,341.11,250614,018.2,E*7F
$GPGSV,3,1,11,25,67,282,34,02,64,066,25,12,64,168,36,29,36,282,35*7E
$GPGSV,3,2,11,10,35,076,25,05,32,139,21,06,27,053,26,31,18,317,31*78
$GPGSV,3,3,11,04,12,053,20,24,02,198,,36,,,*7B
$GPRMC,020031.4,A,4738.3386,N,12221.6491,W,0.00,341.11,250614,018.2,E*79
$GPGGA,020031.600,4738.3386,N,12221.6491,W,1,9,1.14,104.9,M,-17.3,M,,*6F
$GPGSA,A,3,10,02,31,04,25,29,06,12,05,,,,2.05,1.14,1.70*0E
$GPRMC,020031.6,A,4738.3386,N,12221.6491,W,0.00,341.11,250614,018.2,E*7B
$GPRMC,020031.8,A,4738.3386,N,12221.6491,W,0.00,341.11,250614,018.2,E*75
$GPRMC,020032.0,A,4738.3386,N,12221.6491,W,0.00,341.11,250614,018.2,E*7E
$GPRMC,020032.2,A,4738.3386,N,12221.6491,W,0.00,341.11,250614,018.2,E*7C
$GPGSV,3,1,11,25,67,282,34,02,64,066,25,12,64,168,36,29,36,282,34*7F
$GPGSV,3,2,11,10,35,076,25,05,32,139,21,06,27,053,26,31,18,317,31*78
$GPGSV,3,3,11,04,12,053,21,24,02,198,,36,,,*7A
$GPRMC,020032.4,A,4738.3386,N,12221.6491,W,0.01,341.11,250614,018.2,E*7B
$GPGGA,020032.600,4738.3386,N,12221.6491,W,1,9,1.14,104.8,M,-17.3,M,,*6D
$GPGSA,A,3,10,02,31,04,25,29,06,12,05,,,,2.05,1.14,1.70*0E
$GPRMC,020032.6,A,4738.3386,N,12221.6491,W,0.00,341.11,250614,018.2,E*78
$GPRMC,020032.8,A,4738.3386,N,12221.6491,W,0.01,341.11,250614,018.2,E*77
$GPRMC,020033.0,A,4738.3386,N,12221.6491,W,0.00,341.11,250614,018.2,E*7F
$GPRMC,020033.2,A,4738.3386,N,12221.6491,W,0.00,341.11,250614,018.2,E*7D
$GPGSV,3,1,11,25,67,282,34,02,64,066,25,12,64,168,36,29,36,282,34*7F
$GPGSV,3,2,11,10,35,076,25,05,32,139,22,06,27,053,26,31,18,317,31*7B
$GPGSV,3,3,11,04,12,053,21,24,02,198,,38,,,*74
$GPRMC,020033.4,A,4738.3386,N,12221.6491,W,0.00,341.11,250614,018.2,E*7B
$GPGGA,020033.600,4738.3386,N,12221.6491,W,1,9,1.14,104.8,M,-17.3,M,,*6C
$GPGSA,A,3,10,02,31,04,25,29,06,12,05,,,,2.05,1.14,1.70*0E
$GPRMC,020033.6,A,4738.3386,N,12221.6491,W,0.00,341.11,250614,018.2,E*79
$GPRMC,020033.8,A,4738.3386,N,12221.6491,W,0.00,341.11,250614,018.2,E*77
$GPRMC,020034.0,A,4738.3386,N,12221.6491,W,0.00,341.11,250614,018.2,E*78
$GPRMC,020034.2,A,4738.3386,N,12221.6491,W,0.00,341.11,250614,018.2,E*7A
$GPGSV,3,1,11,25,67,282,34,02,64,066,25,12,64,168,36,29,36,282,34*7F
$GPGSV,3,2,11,10,35,076,25,05,32,139,23,06,27,053,26,31,18,317,31*7A
$GPGSV,3,3,11,04,12,053,21,24,02,198,,38,,,*74
$GPRMC,020034.4,A,4738.3386,N,12221.6491,W,0.00,341.11,250614,018.2,E*7C
$GPGGA,020034.600,4738.3386,N,12221.6491,W,1,9,1.14,104.8,M,-17.3,M,,*6B
$GPGSA,A,3,10,02,31,04,25,29,06,12,05,,,,2.05,1.14,1.70*0E
$GPRMC,020034.6,A,4738.3386,N,12221.6491,W,0.00,341.11,250614,018.2,E*7E
$GPRMC,020034.8,A,4738.3386,N,12221.6491,W,0.00,341.11,250614,018.2,E*70
$GPRMC,020035.0,A,4738.3386,N,12221.6491,W,0.00,341.11,250614,018.2,E*79
$GPRMC,020035.2,A,4738.3386,N,12221.6491,W,0.00,341.11,250614,018.2,E*7B
$GPGSV,3,1,11,25,67,282,34,02,64,066,25,12,64,168,36,29,36,282,34*7F
$GPGSV,3,2,11,10,35,076,25,05,32,139,23,06,27,053,26,31,18,317,31*7A
$GPGSV,3,3,11,04,12,053,22,24,02,198,,38,,,*77
$GPRMC,020035.4,A,4738.3386,N,12221.6491,W,0.00,341.11,250614,018.2,E*7D
$GPGGA,020035.600,4738.3386,N,12221.6491,W,1,9,1.14,104.8,M,-17.3,M,,*6A
$GPGSA,A,3,10,02,31,04,25,29,06,12,05,,,,2.05,1.14,1.70*0E
$GPRMC,020035.6,A,4738.3386,N,12221.6491,W,0.01,341.11,250614,018.2,E*7E
$GPRMC,020035.8,A,4738.3386,N,12221.6491,W,0.01,341.11,250614,018.2,E*70
$GPRMC,020036.0,A,4738.3386,N,12221.6491,W,0.01,341.11,250614,018.2,E*7B
$GPRMC,020036.2,A,4738.3386,N,12221.6491,W,0.01,341.11,250614,018.2,E*79
$GPGSV,3,1,11,25,67,282,34,02,64,066,25,12,64,168,36,29,36,282,34*7F
$GPGSV,3,2,11,10,35,076,25,05,32,139,23,06,27,053,26,31,18,317,31*7A
$GPGSV,3,3,11,04,12,053,22,24,02,198,,38,,,*77
$GPRMC,020036.4,A,4738.3386,N,12221.6491,W,0.01,341.11,250614,018.2,E*7F
$GPGGA,020036.600,4738.3386,N,12221.6491,W,1,9,1.14,104.8,M,-17.3,M,,*69
$GPGSA,A,3,10,02,31,04,25,29,06,12,05,,,,2.05,1.14,1.70*0E
$GPRMC,020036.6,A,4738.3386,N,12221.6491,W,0.01,341.11,250614,018.2,E*7D
$GPRMC,020036.8,A,4738.3386,N,12221.6491,W,0.00,341.11,250614,018.2,E*72
$GPRMC,020037.0,A,4738.3386,N,12221.6491,W,0.00,341.11,250614,018.2,E*7B
$GPRMC,020037.2,A,4738.3386,N,12221.6491,W,0.00,341.11,250614,018.2,E*79
$GPGSV,3,1,11,25,67,282,34,02,64,066,25,12,64,168,36,29,36,282,34*7F
$GPGSV,3,2,11,10,35,076,27,05,32,139,23,06,27,053,26,31,18,317,32*7B
$GPGSV,3,3,11,04,12,053,22,24,02,198,,38,,,*77
$GPRMC,020037.4,A,4738.3386,N,12221.6491,W,0.00,341.11,250614,018.2,E*7F
$GPGGA,020037.600,4738.3386,N,12221.6491,W,1,9,1.14,104.8,M,-17.3,M,,*68
$GPGSA,A,3,10,02,31,04,25,29,06,12,05,,,,2.05,1.14,1.70*0E
$GPRMC,020037.6,A,4738.3386,N,12221.6491,W,0.00,341.11,250614,018.2,E*7D
$GPRMC,020037.8,A,4738.3386,N,12221.6491,W,0.00,341.11,250614,018.2,E*73
$GPRMC,020038.0,A,4738.3386,N,12221.6491,W,0.00,341.11,250614,018.2,E*74
$GPRMC,020038.2,A,4738.3386,N,12221.6491,W,0.00,341.11,250614,018.2,E*76
$GPGSV,3,1,11,25,67,282,34,02,64,066,26,12,64,168,36,29,36,282,34*7C
$GPGSV,3,2,11,10,35,076,26,05,32,139,23,06,27,053,26,31,18,317,32*7A
$GPGSV,3,3,11,04,12,053,22,24,02,198,,38,,,*77
$GPRMC,020038.4,A,4738.3386,N,12221.6491,W,0.00,341.11,250614,018.2,E*70
$GPGGA,020038.600,4738.3386,N,12221.6491,W,1,9,1.14,104.8,M,-17.3,M,,*67
$GPGSA,A,3,10,02,31,04,25,29,06,12,05,,,,2.05,1.14,1.70*0E
$GPRMC,020038.6,A,4738.3386,N,12221.6491,W,0.01,341.11,250614,018.2,E*73
$GPRMC,020038.8,A,4738.3386,N,12221.6491,W,0.01,341.11,250614,018.2,E*7D
$GPRMC,020039.0,A,4738.3386,N,12221.6491,W,0.00,341.11,250614,018.2,E*75
$GPRMC,020039.2,A,4738.3386,N,12221.6490,W,0.00,341.11,250614,018.2,E*76
$GPGSV,3,1,11,25,67,282,34,02,64,066,25,12,64,168,36,29,36,282,34*7F
$GPGSV,3,2,11,10,35,076,26,05,32,139,22,06,27,053,26,31,18,317,31*78
$GPGSV,3,3,11,04,12,053,22,24,02,198,,41,,,*79
$GPRMC,020039.4,A,4738.3386,N,12221.6490,W,0.00,341.11,250614,018.2,E*70
$GPGGA,020039.600,4738.3386,N,12221.6490,W,1,9,1.14,104.8,M,-17.3,M,,*67
$GPGSA,A,3,10,02,31,04,25,29,06,12,05,,,,2.05,1.14,1.70*0E
$GPRMC,020039.6,A,4738.3386,N,12221.6490,W,0.00,341.11,250614,018.2,E*72
$GPRMC,020039.8,A,4738.3386,N,12221.6490,W,0.00,341.11,250614,018.2,E*7C
$GPRMC,020040.0,A,4738.3386,N,12221.6490,W,0.00,341.11,250614,018.2,E*7A
$GPRMC,020040.2,A,4738.3386,N,12221.6490,W,0.00,341.11,250614,018.2,E*78
$GPGSV,3,1,11,25,67,282,34,02,64,066,25,12,64,168,36,29,36,282,34*7F
$GPGSV,3,2,11,10,35,076,26,05,32,139,22,06,27,053,25,31,18,317,31*7B
$GPGSV,3,3,11,04,12,053,23,24,02,198,,41,,,*78
$GPRMC,020040.4,A,4738.3386,N,12221.6490,W,0.00,341.11,250614,018.2,E*7E
$GPGGA,020040.600,4738.3386,N,12221.6490,W,1,9,1.14,104.8,M,-17.3,M,,*69
$GPGSA,A,3,10,02,31,04,25,29,06,12,05,,,,2.05,1.14,1.70*0E
$GPRMC,020040.6,A,4738.3386,N,12221.6490,W,0.00,341.11,250614,018.2,E*7C
$GPRMC,020040.8,A,4738.3386,N,12221.6490,W,0.00,341.11,250614,018.2,E*72
$GPRMC,020041.0,A,4738.3386,N,12221.6490,W,0.00,341.11,250614,018.2,E*7B
$GPRMC,020041.2,A,4738.3386,N,12221.6490,W,0.00,341.11,250614,018.2,E*79
$GPGSV,3,1,11,25,67,282,34,02,64,066,24,12,64,168,36,29,36,282,34*7E
$GPGSV,3,2,11,10,35,076,26,05,32,139,23,06,27,053,26,31,18,317,31*79
$GPGSV,3,3,11,04,12,053,23,24,02,198,,41,,,*78
$GPRMC,020041.4,A,4738.3386,N,12221.6490,W,0.00,341.11,250614,018.2,E*7F
$GPGGA,020041.600,4738.3386,N,12221.6490,W,1,9,1.14,104.8,M,-17.3,M,,*68
$GPGSA,A,3,10,02,31,04,25,29,06,12,05,,,,2.05,1.14,1.70*0E
$GPRMC,020041.6,A,4738.3386,N,12221.6490,W,0.00,341.11,250614,018.2,E*7D
$GPRMC,020041.8,A,4738.3386,N,12221.6490,W,0.00,341.11,250614,018.2,E*73
$GPRMC,020042.0,A,4738.3386,N,12221.6490,W,0.00,341.11,250614,018.2,E*78
$GPRMC,020042.2,A,4738.3386,N,12221.6490,W,0.00,341.11,250614,018.2,E*7A
$GPGSV,3,1,11,25,67,282,34,02,64,066,24,12,64,168,36,29,36,282,34*7E
$GPGSV,3,2,11,10,35,076,27,05,32,139,23,06,27,053,26,31,18,317,31*78
$GPGSV,3,3,11,04,12,053,23,24,02,198,,41,,,*78
$GPRMC,020042.4,A,4738.3386,N,12221.6490,W,0.00,341.11,250614,018.2,E*7C
$GPGGA,020042.600,4738.3386,N,12221.6490,W,1,9,1.14,104.8,M,-17.3,M,,*6B
$GPGSA,A,3,10,02,31,04,25,29,06,12,05,,,,2.05,1.14,1.70*0E
$GPRMC,020042.6,A,4738.3386,N,12221.6490,W,0.01,341.11,250614,018.2,E*7F
$GPRMC,020042.8,A,4738.3386,N,12221.6490,W,0.00,341.11,250614,018.2,E*70
$GPRMC,020043.0,A,4738.3386,N,12221.6490,W,0.00,341.11,250614,018.2,E*79
$GPRMC,020043.2,A,4738.3386,N,12221.6490,W,0.00,341.11,250614,018.2,E*7B
$GPGSV,3,1,11,25,67,282,34,02,64,066,24,12,64,168,36,29,36,282,34*7E
$GPGSV,3,2,11,10,35,076,26,05,32,139,23,06,27,053,26,31,18,317,30*78
$GPGSV,3,3,11,04,12,053,23,24,02,198,,41,,,*78
$GPRMC,020043.4,A,4738.3386,N,12221.6490,W,0.00,341.11,250614,018.2,E*7D
$GPGGA,020043.600,4738.3386,N,12221.6490,W,1,9,1.14,104.8,M,-17.3,M,,*6A
$GPGSA,A,3,10,02,31,04,25,29,06,12,05,,,,2.05,1.14,1.70*0E
$GPRMC,020043.6,A,4738.3386,N,12221.6490,W,0.00,341.11,250614,018.2,E*7F
$GPRMC,020043.8,A,4738.3386,N,12221.6490,W,0.00,341.11,250614,018.2,E*71
$GPRMC,020044.0,A,4738.3386,N,12221.6490,W,0.00,341.11,250614,018.2,E*7E
$GPRMC,020044.2,A,4738.3386,N,12221.6490,W,0.00,341.11,250614,018.2,E*7C
$GPGSV,3,1,11,25,67,282,34,02,64,066,24,12,64,168,36,29,36,282,33*79
$GPGSV,3,2,11,10,35,076,26,05,32,139,23,06,27,053,26,31,18,317,30*78
$GPGSV,3,3,11,04,12,053,23,24,02,198,,41,,,*78
$GPRMC,020044.4,A,4738.3386,N,12221.6490,W,0.00,341.11,250614,018.2,E*7A
$GPGGA,020044.600,4738.3386,N,12221.6490,W,1,9,1.14,104.8,M,-17.3,M,,*6D
$GPGSA,A,3,10,02,31,04,25,29,06,12,05,,,,2.05,1.14,1.70*0E
$GPRMC,020044.6,A,4738.3386,N,12221.6490,W,0.00,341.11,250614,018.2,E*78
$GPRMC,020044.8,A,4738.3386,N,12221.6490,W,0.00,341.11,250614,018.2,E*76
$GPRMC,020045.0,A,4738.3386,N,12221.6490,W,0.00,341.11,250614,018.2,E*7F
$GPRMC,020045.2,A,4738.3386,N,12221.6490,W,0.00,341.11,250614,018.2,E*7D
$GPGSV,3,1,11,25,67,282,34,02,64,066,24,12,64,168,36,29,36,282,33*79
$GPGSV,3,2,11,10,35,076,27,05,32,139,23,06,27,053,27,31,18,317,30*78
$GPGSV,3,3,11,04,12,053,23,24,02,198,,43,,,*7A
$GPRMC,020045.4,A,4738.3386,N,12221.6490,W,0.00,341.11,250614,018.2,E*7B
$GPGGA,020045.600,4738.3386,N,12221.6490,W,1,9,1.14,104.8,M,-17.3,M,,*6C
$GPGSA,A,3,10,02,31,04,25,29,06,12,05,,,,2.05,1.14,1.70*0E
$GPRMC,020045.6,A,4738.3386,N,12221.6490,W,0.00,341.11,250614,018.2,E*79
$GPRMC,020045.8,A,4738.3386,N,12221.6490,W,0.00,341.11,250614,018.2,E*77
$GPRMC,020046.0,A,4738.3386,N,12221.6490,W,0.00,341.11,250614,018.2,E*7C
$GPRMC,020046.2,A,4738.3386,N,12221.6490,W,0.00,341.11,250614,018.2,E*7E
$GPGSV,3,1,11,25,67,282,34,02,64,066,24,12,64,168,36,29,36,282,33*79
$GPGSV,3,2,11,10,34,075,27,05,32,139,23,06,27,053,26,31,18,317,30*7B
$GPGSV,3,3,11,04,12,053,23,24,02,198,,43,,,*7A
$GPRMC,020046.4,A,4738.3386,N,12221.6490,W,0.00,341.11,250614,018.2,E*78
$GPGGA,020046.600,4738.3386,N,12221.6490,W,1,9,1.14,104.8,M,-17.3,M,,*6F
$GPGSA,A,3,10,02,31,04,25,29,06,12,05,,,,2.05,1.14,1.70*0E
$GPRMC,020046.6,A,4738.3386,N,12221.6490,W,0.00,341.11,250614,018.2,E*7A
$GPRMC,020046.8,A,4738.3386,N,12221.6490,W,0.00,341.11,250614,018.2,E*74
$GPRMC,020047.0,A,4738.3386,N,12221.6490,W,0.00,341.11,250614,018.2,E*7D
$GPRMC,020047.2,A,4738.3386,N,12221.6490,W,0.00,341.11,250614,018.2,E*7F
$GPGSV,3,1,11,25,67,282,34,02,64,066,24,12,64,168,36,29,36,282,33*79
$GPGSV,3,2,11,10,34,075,27,05,32,139,23,06,27,053,26,31,18,317,30*7B
$GPGSV,3,3,11,04,12,053,24,24,02,198,,43,,,*7D
$GPRMC,020047.4,A,4738.3386,N,12221.6490,W,0.00,341.11,250614,018.2,E*79
$GPGGA,020047.600,4738.3386,N,12221.6490,W,1,9,1.14,104.8,M,-17.3,M,,*6E
$GPGSA,A,3,10,02,31,04,25,29,06,12,05,,,,2.05,1.14,1.70*0E
$GPRMC,020047.6,A,4738.3386,N,12221.6490,W,0.00,341.11,250614,018.2,E*7B
$GPRMC,020047.8,A,4738.3386,N,12221.6490,W,0.00,341.11,250614,018.2,E*75
$GPRMC,020048.0,A,4738.3386,N,12221.6490,W,0.00,341.11,250614,018.2,E*72
$GPRMC,020048.2,A,4738.3386,N,12221.6490,W,0.01,341.11,250614,018.2,E*71
$GPGSV,3,1,11,25,67,282,34,02,64,066,24,12,64,168,36,29,36,282,33*79
$GPGSV,3,2,11,10,34,075,26,05,32,139,23,06,27,053,26,31,18,317,30*7A
$GPGSV,3,3,11,04,12,053,24,24,02,198,,43,,,*7D
$GPRMC,020048.4,A,4738.3386,N,12221.6490,W,0.01,341.11,250614,018.2,E*77
$GPGGA,020048.600,4738.3386,N,12221.6490,W,1,9,1.14,104.8,M,-17.3,M,,*61
$GPGSA,A,3,10,02,31,04,25,29,06,12,05,,,,2.05,1.14,1.70*0E
$GPRMC,020048.6,A,4738.3386,N,12221.6490,W,0.01,341.11,250614,018.2,E*75
$GPRMC,020048.8,A,4738.3386,N,12221.6490,W,0.01,341.11,250614,018.2,E*7B
$GPRMC,020049.0,A,4738.3386,N,12221.6490,W,0.01,341.11,250614,018.2,E*72
$GPRMC,020049.2,A,4738.3386,N,12221.6490,W,0.01,341.11,250614,018.2,E*70
$GPGSV,3,1,11,25,67,282,34,02,64,066,24,12,64,168,36,29,36,282,33*79
$GPGSV,3,2,11,10,34,075,27,05,32,139,22,06,27,053,26,31,18,317,31*7B
$GPGSV,3,3,11,04,12,053,24,24,02,198,,43,,,*7D
$GPRMC,020049.4,A,4738.3386,N,12221.6490,W,0.01,341.11,250614,018.2,E*76
$GPGGA,020049.600,4738.3386,N,12221.6490,W,1,9,1.14,104.8,M,-17.3,M,,*60
$GPGSA,A,3,10,02,31,04,25,29,06,12,05,,,,2.05,1.14,1.70*0E
$GPRMC,020049.6,A,4738.3386,N,12221.6490,W,0.01,341.11,250614,018.2,E*74
$GPRMC,020049.8,A,4738.3386,N,12221.6490,W,0.00,341.11,250614,018.2,E*7B
$GPRMC,020050.0,A,4738.3386,N,12221.6490,W,0.00,341.11,250614,018.2,E*7B
$GPRMC,020050.2,A,4738.3386,N,12221.6490,W,0.00,341.11,250614,018.2,E*79
$GPGSV,3,1,11,25,67,282,34,02,64,066,24,12,64,168,36,29,36,282,33*79
$GPGSV,3,2,11,10,34,075,29,05,32,139,21,06,27,053,26,31,18,317,31*76
$GPGSV,3,3,11,04,12,053,24,24,02,198,,43,,,*7D
$GPRMC,020050.4,A,4738.3386,N,12221.6490,W,0.00,341.11,250614,018.2,E*7F
$GPGGA,020050.600,4738.3386,N,12221.6490,W,1,9,1.14,104.8,M,-17.3,M,,*68
$GPGSA,A,3,10,02,31,04,25,29,06,12,05,,,,2.05,1.14,1.70*0E
$GPRMC,020050.6,A,4738.3386,N,12221.6490,W,0.00,341.11,250614,018.2,E*7D
$GPRMC,020050.8,A,4738.3386,N,12221.6490,W,0.00,341.11,250614,018.2,E*73
$GPRMC,020051.0,A,4738.3386,N,12221.6490,W,0.00,341.11,250614,018.2,E*7A
$GPRMC,020051.2,A,4738.3386,N,12221.6490,W,0.00,341.11,250614,018.2,E*78
$GPGSV,3,1,11,25,67,282,33,12,64,168,36,02,63,066,24,29,36,282,33*79
$GPGSV,3,2,11,10,34,075,26,05,32,139,21,06,27,053,25,31,18,317,31*7A
$GPGSV,3,3,11,04,12,053,24,24,02,198,,45,,,*7B
$GPRMC,020051.4,A,4738.3386,N,12221.6490,W,0.00,341.11,250614,018.2,E*7E
$GPGGA,020051.600,4738.3386,N,12221.6490,W,1,9,1.14,104.8,M,-17.3,M,,*69
$GPGSA,A,3,10,02,31,04,25,29,06,12,05,,,,2.05,1.14,1.70*0E
$GPRMC,020051.6,A,4738.3386,N,12221.6490,W,0.00,341.11,250614,018.2,E*7C
$GPRMC,020051.8,A,4738.3386,N,12221.6490,W,0.00,341.11,250614,018.2,E*72
$GPRMC,020052.0,A,4738.3386,N,12221.6490,W,0.00,341.11,250614,018.2,E*79
$GPRMC,020052.2,A,4738.3386,N,12221.6490,W,0.00,341.11,250614,018.2,E*7B
$GPGSV,3,1,11,25,67,282,33,12,64,168,36,02,63,066,24,29,36,282,33*79
$GPGSV,3,2,11,10,34,075,25,05,32,139,21,06,27,053,25,31,18,317,31*79
$GPGSV,3,3,11,04,12,053,24,24,02,198,,45,,,*7B
$GPRMC,020052.4,A,4738.3386,N,12221.6490,W,0.00,341.11,250614,018.2,E*7D
$GPGGA,020052.600,4738.3386,N,12221.6490,W,1,9,1.14,104.8,M,-17.3,M,,*6A
$GPGSA,A,3,10,02,31,04,25,29,06,12,05,,,,2.05,1.14,1.71*0F
$GPRMC,020052.6,A,4738.3386,N,12221.6490,W,0.00,341.11,250614,018.2,E*7F
$GPRMC,020052.8,A,4738.3386,N,12221.6490,W,0.00,341.11,250614,018.2,E*71
$GPRMC,020053.0,A,4738.3386,N,12221.6490,W,0.01,341.11,250614,018.2,E*79
$GPRMC,020053.2,A,4738.3386,N,12221.6490,W,0.01,341.11,250614,018.2,E*7B
$GPGSV,3,1,11,25,67,282,33,12,64,168,36,02,63,066,24,29,36,282,32*78
$GPGSV,3,2,11,10,34,075,27,05,32,139,20,06,27,053,25,31,18,317,31*7A
$GPGSV,3,3,11,04,12,053,24,24,02,198,,45,,,*7B
$GPRMC,020053.4,A,4738.3386,N,12221.6490,W,0.00,341.11,250614,018.2,E*7C
$GPGGA,020053.600,4738.3386,N,12221.6490,W,1,9,1.14,104.8,M,-17.3,M,,*6B
$GPGSA,A,3,10,02,31,04,25,29,06,12,05,,,,2.05,1.14,1.71*0F
$GPRMC,020053.6,A,4738.3386,N,12221.6490,W,0.00,341.11,250614,018.2,E*7E
$GPRMC,020053.8,A,4738.3386,N,12221.6490,W,0.00,341.11,250614,018.2,E*70
$GPRMC,020054.0,A,4738.3386,N,12221.6490,W,0.00,341.11,250614,018.2,E*7F
$GPRMC,020054.2,A,4738.3386,N,12221.6490,W,0.01,341.11,250614,018.2,E*7C
$GPGSV,3,1,11,25,67,282,33,12,64,168,36,02,63,066,24,29,36,282,32*78
$GPGSV,3,2,11,10,34,075,28,05,32,139,20,06,27,053,25,31,18,317,31*75
$GPGSV,3,3,11,04,12,053,24,24,02,198,,45,,,*7B
$GPRMC,020054.4,A,4738.3386,N,12221.6490,W,0.01,341.11,250614,018.2,E*7A
$GPGGA,020054.600,4738.3386,N,12221.6490,W,1,9,1.14,104.8,M,-17.3,M,,*6C
$GPGSA,A,3,10,02,31,04,25,29,06,12,05,,,,2.05,1.14,1.71*0F
$GPRMC,020054.6,A,4738.3386,N,12221.6490,W,0.00,341.11,250614,018.2,E*79
$GPRMC,020054.8,A,4738.3386,N,12221.6490,W,0.01,341.11,250614,018.2,E*76
$GPRMC,020055.0,A,4738.3386,N,12221.6490,W,0.01,341.11,250614,018.2,E*7F
$GPRMC,020055.2,A,4738.3386,N,12221.6490,W,0.00,341.11,250614,018.2,E*7C
$GPGSV,3,1,11,25,67,282,33,12,64,168,36,02,63,066,24,29,36,282,31*7B
$GPGSV,3,2,11,10,34,075,27,05,32,139,20,06,27,053,25,31,18,317,31*7A
$GPGSV,3,3,11,04,12,053,24,24,02,198,,45,,,*7B
$GPRMC,020055.4,A,4738.3386,N,12221.6490,W,0.00,341.11,250614,018.2,E*7A
$GPGGA,020055.600,4738.3386,N,12221.6490,W,1,9,1.14,104.7,M,-17.3,M,,*62
$GPGSA,A,3,10,02,31,04,25,29,06,12,05,,,,2.05,1.14,1.71*0F
$GPRMC,020055.6,A,4738.3386,N,12221.6490,W,0.01,341.11,250614,018.2,E*79
$GPRMC,020055.8,A,4738.3386,N,12221.6490,W,0.00,341.11,250614,018.2,E*76
$GPRMC,020056.0,A,4738.3386,N,12221.6490,W,0.01,341.11,250614,018.2,E*7C
$GPRMC,020056.2,A,4738.3386,N,12221.6490,W,0.01,341.11,250614,018.2,E*7E
$GPGSV,3,1,11,25,67,282,33,12,64,168,36,02,63,066,24,29,36,282,31*7B
$GPGSV,3,2,11,10,34,075,26,05,32,139,20,06,27,053,25,31,18,317,31*7B
$GPGSV,3,3,11,04,12,053,24,24,02,198,,45,,,*7B
$GPRMC,020056.4,A,4738.3386,N,12221.6490,W,0.01,341.11,250614,018.2,E*78
$GPGGA,020056.600,4738.3386,N,12221.6490,W,1,9,1.14,104.7,M,-17.3,M,,*61
$GPGSA,A,3,10,02,31,04,25,29,06,12,05,,,,2.05,1.14,1.71*0F
$GPRMC,020056.6,A,4738.3386,N,12221.6490,W,0.01,341.11,250614,018.2,E*7A
$GPRMC,020056.8,A,4738.3386,N,12221.6490,W,0.01,341.11,250614,018.2,E*74
$GPRMC,020057.0,A,4738.3386,N,12221.6490,W,0.01,341.11,250614,018.2,E*7D
$GPRMC,020057.2,A,4738.3386,N,12221.6490,W,0.01,341.11,250614,018.2,E*7F
$GPGSV,3,1,11,25,67,282,33,12,64,168,36,02,63,066,25,29,37,282,31*7B
$GPGSV,3,2,11,10,34,075,27,05,32,139,20,06,27,053,25,31,18,317,31*7A
$GPGSV,3,3,11,04,12,053,24,24,02,198,,46,,,*78
$GPRMC,020057.4,A,4738.3386,N,12221.6490,W,0.01,341.11,250614,018.2,E*79
$GPGGA,020057.600,4738.3386,N,12221.6490,W,1,9,1.14,104.7,M,-17.3,M,,*60
$GPGSA,A,3,10,02,31,04,25,29,06,12,05,,,,2.05,1.14,1.71*0F
$GPRMC,020057.6,A,4738.3386,N,12221.6490,W,0.01,341.11,250614,018.2,E*7B
$GPRMC,020057.8,A,4738.3386,N,12221.6490,W,0.00,341.11,250614,018.2,E*74
$GPRMC,020058.0,A,4738.3386,N,12221.6490,W,0.00,341.11,250614,018.2,E*73
$GPRMC,020058.2,A,4738.3386,N,12221.6490,W,0.00,341.11,250614,018.2,E*71
$GPGSV,3,1,11,25,67,282,33,12,64,168,36,02,63,066,25,29,37,282,30*7A
$GPGSV,3,2,11,10,34,075,27,05,32,139,19,06,27,053,25,31,18,317,31*70
$GPGSV,3,3,11,04,12,053,24,24,02,198,,46,,,*78
$GPRMC,020058.4,A,4738.3386,N,12221.6490,W,0.00,341.11,250614,018.2,E*77
$GPGGA,020058.600,4738.3386,N,12221.6490,W,1,9,1.14,104.7,M,-17.3,M,,*6F
$GPGSA,A,3,10,02,31,04,25,29,06,12,05,,,,2.05,1.14,1.71*0F
$GPRMC,020058.6,A,4738.3386,N,12221.6490,W,0.00,341.11,250614,018.2,E*75
$GPRMC,020058.8,A,4738.3386,N,12221.6490,W,0.00,341.11,250614,018.2,E*7B
$GPRMC,020059.0,A,4738.3386,N,12221.6490,W,0.00,341.11,250614,018.2,E*72
$GPRMC,020059.2,A,4738.3386,N,12221.6490,W,0.00,341.11,250614,018.2,E*70
$GPGSV,3,1,11,25,67,282,33,12,64,168,37,02,63,066,25,29,37,282,30*7B
$GPGSV,3,2,11,10,34,075,27,05,32,139,19,06,27,053,25,31,18,317,31*70
$GPGSV,3,3,11,04,12,053,24,24,02,198,,46,,,*78
$GPRMC,020059.4,A,4738.3386,N,12221.6490,W,0.01,341.11,250614,018.2,E*77
$GPGGA,020059.600,4738.3386,N,12221.6490,W,1,9,1.14,104.7,M,-17.3,M,,*6E
$GPGSA,A,3,10,02,31,04,25,29,06,12,05,,,,2.05,1.14,1.71*0F
$GPRMC,020059.6,A,4738.3386,N,12221.6490,W,0.01,341.11,250614,018.2,E*75
$GPRMC,020059.8,A,4738.3386,N,12221.6490,W,0.01,341.11,250614,018.2,E*7B
$GPRMC,020100.0,A,4738.3386,N,12221.6490,W,0.00,341.11,250614,018.2,E*7F
$GPRMC,020100.2,A,4738.3386,N,12221.6490,W,0.00,341.11,250614,018.2,E*7D
$GPGSV,3,1,11,25,67,282,33,12,64,168,37,02,63,066,25,29,37,282,29*73
$GPGSV,3,2,11,10,34,075,28,05,32,139,19,06,27,053,25,31,18,317,31*7F
$GPGSV,3,3,11,04,12,053,25,24,02,198,,46,,,*79
$GPRMC,020100.4,A,4738.3386,N,12221.6490,W,0.01,341.11,250614,018.2,E*7A
$GPGGA,020100.600,4738.3386,N,12221.6490,W,1,9,1.14,104.7,M,-17.3,M,,*63
$GPGSA,A,3,10,02,31,04,25,29,06,12,05,,,,2.05,1.14,1.71*0F
$GPRMC,020100.6,A,4738.3386,N,12221.6490,W,0.01,341.11,250614,018.2,E*78
$GPRMC,020100.8,A,4738.3386,N,12221.6490,W,0.00,341.11,250614,018.2,E*77
$GPRMC,020101.0,A,4738.3386,N,12221.6490,W,0.00,341.11,250614,018.2,E*7E
$GPRMC,020101.2,A,4738.3386,N,12221.6490,W,0.00,341.11,250614,018.2,E*7C
$GPGSV,3,1,11,25,67,282,33,12,64,168,37,02,63,066,25,29,37,282,28*72
$GPGSV,3,2,11,10,34,075,28,05,32,139,18,06,27,053,25,31,18,317,31*7E
$GPGSV,3,3,11,04,12,053,25,24,02,198,,46,,,*79
$GPRMC,020101.4,A,4738.3386,N,12221.6490,W,0.00,341.11,250614,018.2,E*7A
$GPGGA,020101.600,4738.3386,N,12221.6490,W,1,9,1.14,104.7,M,-17.3,M,,*62
$GPGSA,A,3,10,02,31,04,25,29,06,12,05,,,,2.05,1.14,1.71*0F
$GPRMC,020101.6,A,4738.3386,N,12221.6490,W,0.00,341.11,250614,018.2,E*78
$GPRMC,020101.8,A,4738.3386,N,12221.6490,W,0.00,341.11,250614,018.2,E*76
$GPRMC,020102.0,A,4738.3386,N,12221.6490,W,0.00,341.11,250614,018.2,E*7D
$GPRMC,020102.2,A,4738.3386,N,12221.6490,W,0.00,341.11,250614,018.2,E*7F
$GPGSV,3,1,11,25,67,282,33,12,64,168,37,02,63,066,27,29,37,282,27*7F
$GPGSV,3,2,11,10,34,075,28,05,32,139,18,06,27,053,25,31,18,317,31*7E
$GPGSV,3,3,11,04,12,053,25,24,02,198,,46,,,*79
$GPRMC,020102.4,A,4738.3386,N,12221.6490,W,0.00,341.11,250614,018.2,E*79
$GPGGA,020102.600,4738.3386,N,12221.6490,W,1,9,1.14,104.7,M,-17.3,M,,*61
$GPGSA,A,3,10,02,31,04,25,29,06,12,05,,,,2.05,1.14,1.71*0F
$GPRMC,020102.6,A,4738.3386,N,12221.6490,W,0.00,341.11,250614,018.2,E*7B
$GPRMC,020102.8,A,4738.3386,N,12221.6490,W,0.00,341.11,250614,018.2,E*75
$GPRMC,020103.0,A,4738.3386,N,12221.6490,W,0.00,341.11,250614,018.2,E*7C
$GPRMC,020103.2,A,4738.3386,N,12221.6490,W,0.00,341.11,250614,018.2,E*7E
$GPGSV,3,1,11,25,67,282,33,12,64,168,37,02,63,066,25,29,37,282,27*7D
$GPGSV,3,2,11,10,34,075,28,05,32,139,19,06,27,053,25,31,18,317,31*7F
$GPGSV,3,3,11,04,12,053,25,24,02,198,,47,,,*78
$GPRMC,020103.4,A,4738.3386,N,12221.6490,W,0.00,341.11,250614,018.2,E*78
$GPGGA,020103.600,4738.3386,N,12221.6490,W,1,9,1.14,104.7,M,-17.3,M,,*60
$GPGSA,A,3,10,02,31,04,25,29,06,12,05,,,,2.05,1.14,1.71*0F
$GPRMC,020103.6,A,4738.3386,N,12221.6490,W,0.00,341.11,250614,018.2,E*7A
$GPRMC,020103.8,A,4738.3386,N,12221.6490,W,0.00,341.11,250614,018.2,E*74
$GPRMC,020104.0,A,4738.3386,N,12221.6490,W,0.00,341.11,250614,018.2,E*7B
$GPRMC,020104.2,A,4738.3386,N,12221.6490,W,0.00,341.11,250614,018.2,E*79
$GPGSV,3,1,11,25,67,282,33,12,64,168,37,02,63,066,25,29,37,282,26*7C
$GPGSV,3,2,11,10,34,075,29,05,32,139,19,06,27,053,25,31,18,317,31*7E
$GPGSV,3,3,11,04,12,053,26,24,02,198,,47,,,*7B
$GPRMC,020104.4,A,4738.3386,N,12221.6490,W,0.00,341.11,250614,018.2,E*7F
$GPGGA,020104.600,4738.3386,N,12221.6490,W,1,9,1.14,104.7,M,-17.3,M,,*67
$GPGSA,A,3,10,02,31,04,25,29,06,12,05,,,,2.05,1.14,1.71*0F
$GPRMC,020104.6,A,4738.3386,N,12221.6490,W,0.00,341.11,250614,018.2,E*7D
$GPRMC,020104.8,A,4738.3386,N,12221.6490,W,0.00,341.11,250614,018.2,E*73
$GPRMC,020105.0,A,4738.3386,N,12221.6490,W,0.00,341.11,250614,018.2,E*7A
$GPRMC,020105.2,A,4738.3386,N,12221.6490,W,0.01,341.11,250614,018.2,E*79
$GPGSV,3,1,11,25,67,282,33,12,64,168,37,02,63,066,25,29,37,282,25*7F
$GPGSV,3,2,11,10,34,075,28,05,32,139,19,06,27,053,25,31,18,317,31*7F
$GPGSV,3,3,11,04,12,053,26,24,02,198,,47,,,*7B
$GPRMC,020105.4,A,4738.3385,N,12221.6490,W,0.01,341.11,250614,018.2,E*7C
$GPGGA,020105.600,4738.3385,N,12221.6490,W,1,9,1.14,104.7,M,-17.3,M,,*65
$GPGSA,A,3,10,02,31,04,25,29,06,12,05,,,,2.05,1.14,1.71*0F
$GPRMC,020105.6,A,4738.3385,N,12221.6490,W,0.01,341.11,250614,018.2,E*7E
$GPRMC,020105.8,A,4738.3385,N,12221.6490,W,0.01,341.11,250614,018.2,E*70
$GPRMC,020106.0,A,4738.3385,N,12221.6490,W,0.01,341.11,250614,018.2,E*7B
$GPRMC,020106.2,A,4738.3385,N,12221.6490,W,0.01,341.11,250614,018.2,E*79
$GPGSV,3,1,11,25,67,282,33,12,64,168,37,02,63,066,25,29,37,282,25*7F
$GPGSV,3,2,11,10,34,075,27,05,32,139,19,06,27,053,25,31,18,317,31*70
$GPGSV,3,3,11,04,12,053,27,24,02,198,,47,,,*7A
$GPRMC,020106.4,A,4738.3385,N,12221.6491,W,0.01,341.11,250614,018.2,E*7E
$GPGGA,020106.600,4738.3385,N,12221.6491,W,1,9,1.14,104.7,M,-17.3,M,,*67
$GPGSA,A,3,10,02,31,04,25,29,06,12,05,,,,2.05,1.14,1.71*0F
$GPRMC,020106.6,A,4738.3385,N,12221.6491,W,0.01,341.11,250614,018.2,E*7C
$GPRMC,020106.8,A,4738.3385,N,12221.6491,W,0.01,341.11,250614,018.2,E*72
$GPRMC,020107.0,A,4738.3385,N,12221.6491,W,0.01,341.11,250614,018.2,E*7B
$GPRMC,020107.2,A,4738.3385,N,12221.6491,W,0.01,341.11,250614,018.2,E*79
$GPGSV,3,1,11,25,67,282,33,12,64,168,37,02,63,066,24,29,37,282,25*7E
$GPGSV,3,2,11,10,34,075,28,05,32,139,19,06,27,053,25,31,18,317,31*7F
$GPGSV,3,3,11,04,12,053,26,24,02,198,,47,,,*7B
$GPRMC,020107.4,A,4738.3385,N,12221.6491,W,0.01,341.11,250614,018.2,E*7F
$GPGGA,020107.600,4738.3385,N,12221.6491,W,1,9,1.14,104.7,M,-17.3,M,,*66
$GPGSA,A,3,10,02,31,04,25,29,06,12,05,,,,2.06,1.14,1.71*0C
$GPRMC,020107.6,A,4738.3385,N,12221.6491,W,0.01,341.11,250614,018.2,E*7D
$GPRMC,020107.8,A,4738.3385,N,12221.6491,W,0.01,341.11,250614,018.2,E*73
$GPRMC,020108.0,A,4738.3385,N,12221.6491,W,0.00,341.11,250614,018.2,E*75
$GPRMC,020108.2,A,4738.3385,N,12221.6491,W,0.00,341.11,250614,018.2,E*77
$GPGSV,3,1,11,25,67,282,33,12,64,168,37,02,63,066,25,29,37,282,24*7E
$GPGSV,3,2,11,10,34,075,28,05,32,139,18,06,27,053,24,31,18,317,30*7E
$GPGSV,3,3,11,04,12,053,26,24,02,198,,47,,,*7B
$GPRMC,020108.4,A,4738.3385,N,12221.6491,W,0.00,341.11,250614,018.2,E*71
$GPGGA,020108.600,4738.3385,N,12221.6491,W,1,9,1.14,104.7,M,-17.3,M,,*69
$GPGSA,A,3,10,02,31,04,25,29,06,12,05,,,,2.06,1.14,1.71*0C
$GPRMC,020108.6,A,4738.3385,N,12221.6491,W,0.00,341.11,250614,018.2,E*73
$GPRMC,020108.8,A,4738.3385,N,12221.6491,W,0.00,341.11,250614,018.2,E*7D
$GPRMC,020109.0,A,4738.3385,N,12221.6491,W,0.00,341.11,250614,018.2,E*74
$GPRMC,020109.2,A,4738.3385,N,12221.6491,W,0.01,341.11,250614,018.2,E*77
$GPGSV,3,1,11,25,67,282,33,12,64,168,37,02,63,066,25,29,37,282,24*7E
$GPGSV,3,2,11,10,34,075,28,05,32,139,19,06,27,053,24,31,18,317,30*7F
$GPGSV,3,3,11,04,12,053,26,24,02,198,,49,,,*75
$GPRMC,020109.4,A,4738.3385,N,12221.6491,W,0.01,341.11,250614,018.2,E*71
$GPGGA,020109.600,4738.3385,N,12221.6491,W,1,9,1.14,104.7,M,-17.3,M,,*68
$GPGSA,A,3,10,02,31,04,25,29,06,12,05,,,,2.05,1.14,1.71*0F
$GPRMC,020109.6,A,4738.3385,N,12221.6491,W,0.01,341.11,250614,018.2,E*73
$GPRMC,020109.8,A,4738.3385,N,12221.6491,W,0.00,341.11,250614,018.2,E*7C
$GPRMC,020110.0,A,4738.3385,N,12221.6491,W,0.00,341.11,250614,018.2,E*7C
$GPRMC,020110.2,A,4738.3385,N,12221.6491,W,0.00,341.11,250614,018.2,E*7E
$GPGSV,3,1,11,25,67,282,33,12,64,168,37,02,63,066,25,29,37,282,24*7E
$GPGSV,3,2,11,10,34,075,28,05,32,139,19,06,27,053,25,31,18,317,29*76
$GPGSV,3,3,11,04,12,053,26,24,02,198,,49,,,*75
$GPRMC,020110.4,A,4738.3385,N,12221.6491,W,0.01,341.11,250614,018.2,E*79
$GPGGA,020110.600,4738.3385,N,12221.6491,W,1,9,1.14,104.7,M,-17.3,M,,*60
$GPGSA,A,3,10,02,31,04,25,29,06,12,05,,,,2.06,1.14,1.71*0C
$GPRMC,020110.6,A,4738.3385,N,12221.6491,W,0.01,341.11,250614,018.2,E*7B
$GPRMC,020110.8,A,4738.3385,N,12221.6491,W,0.00,341.11,250614,018.2,E*74
$GPRMC,020111.0,A,4738.3385,N,12221.6491,W,0.00,341.11,250614,018.2,E*7D
$GPRMC,020111.2,A,4738.3385,N,12221.6491,W,0.00,341.11,250614,018.2,E*7F
$GPGSV,3,1,11,25,67,282,33,12,64,168,37,02,63,066,27,29,37,282,24*7C
$GPGSV,3,2,11,10,34,075,28,05,32,139,19,06,27,053,25,31,18,317,29*76
$GPGSV,3,3,11,04,12,053,26,24,02,198,,49,,,*75
$GPRMC,020111.4,A,4738.3385,N,12221.6491,W,0.00,341.11,250614,018.2,E*79
$GPGGA,020111.600,4738.3385,N,12221.6491,W,1,9,1.14,104.7,M,-17.3,M,,*61
$GPGSA,A,3,10,02,31,04,25,29,06,12,05,,,,2.06,1.14,1.71*0C
$GPRMC,020111.6,A,4738.3385,N,12221.6491,W,0.01,341.11,250614,018.2,E*7A
$GPRMC,020111.8,A,4738.3385,N,12221.6491,W,0.00,341.11,250614,018.2,E*75
$GPRMC,020112.0,A,4738.3385,N,12221.6491,W,0.00,341.11,250614,018.2,E*7E
$GPRMC,020112.2,A,4738.3385,N,12221.6491,W,0.00,341.11,250614,018.2,E*7C
$GPGSV,3,1,11,25,67,282,34,12,64,168,37,02,63,066,25,29,37,282,24*79
$GPGSV,3,2,11,10,34,075,28,05,32,139,19,06,27,053,25,31,18,317,28*77
$GPGSV,3,3,11,04,12,053,26,24,02,198,,49,,,*75
$GPRMC,020112.4,A,4738.3385,N,12221.6491,W,0.01,341.11,250614,018.2,E*7B
$GPGGA,020112.600,4738.3385,N,12221.6491,W,1,9,1.14,104.7,M,-17.3,M,,*62
$GPGSA,A,3,10,02,31,04,25,29,06,12,05,,,,2.06,1.14,1.71*0C
$GPRMC,020112.6,A,4738.3385,N,12221.6491,W,0.01,341.11,250614,018.2,E*79
$GPRMC,020112.8,A,4738.3385,N,12221.6491,W,0.00,341.11,250614,018.2,E*76
$GPRMC,020113.0,A,4738.3385,N,12221.6491,W,0.00,341.11,250614,018.2,E*7F
$GPRMC,020113.2,A,4738.3385,N,12221.6491,W,0.01,341.11,250614,018.2,E*7C
$GPGSV,3,1,11,25,67,282,34,12,64,168,37,02,63,066,25,29,37,282,24*79
$GPGSV,3,2,11,10,34,075,27,05,32,139,19,06,27,053,25,31,18,317,28*78
$GPGSV,3,3,11,04,12,053,26,24,02,198,,49,,,*75
$GPRMC,020113.4,A,4738.3385,N,12221.6491,W,0.01,341.11,250614,018.2,E*7A
$GPGGA,020113.600,4738.3385,N,12221.6491,W,1,9,1.14,104.7,M,-17.3,M,,*63
$GPGSA,A,3,10,02,31,04,25,29,06,12,05,,,,2.06,1.14,1.71*0C
$GPRMC,020113.6,A,4738.3385,N,12221.6491,W,0.01,341.11,250614,018.2,E*78
$GPRMC,020113.8,A,4738.3385,N,12221.6491,W,0.00,341.11,250614,018.2,E*77
$GPRMC,020114.0,A,4738.3385,N,12221.6491,W,0.00,341.11,250614,018.2,E*78
$GPRMC,020114.2,A,4738.3385,N,12221.6491,W,0.00,341.11,250614,018.2,E*7A
$GPGSV,3,1,11,25,67,282,34,12,64,168,37,02,63,066,24,29,37,282,23*7F
$GPGSV,3,2,11,10,34,075,27,05,32,139,19,06,27,053,25,31,18,317,28*78
$GPGSV,3,3,11,04,12,053,26,24,02,198,,49,,,*75
$GPRMC,020114.4,A,4738.3385,N,12221.6491,W,0.00,341.11,250614,018.2,E*7C
$GPGGA,020114.600,4738.3385,N,12221.6491,W,1,9,1.14,104.7,M,-17.3,M,,*64
$GPGSA,A,3,10,02,31,04,25,29,06,12,05,,,,2.06,1.14,1.71*0C
$GPRMC,020114.6,A,4738.3385,N,12221.6491,W,0.01,341.11,250614,018.2,E*7F
$GPRMC,020114.8,A,4738.3385,N,12221.6491,W,0.00,341.11,250614,018.2,E*70
$GPRMC,020115.0,A,4738.3385,N,12221.6491,W,0.00,341.11,250614,018.2,E*79
$GPRMC,020115.2,A,4738.3385,N,12221.6491,W,0.00,341.11,250614,018.2,E*7B
$GPGSV,3,1,11,25,67,282,34,12,64,168,37,02,63,066,24,29,37,282,23*7F
$GPGSV,3,2,11,10,34,075,27,48,34,194,,05,32,139,19,06,27,053,25*7B
$GPGSV,3,3,11,31,18,317,28,04,12,053,27,24,02,198,*4D
$GPRMC,020115.4,A,4738.3385,N,12221.6491,W,0.01,341.11,250614,018.2,E*7C
$GPGGA,020115.600,4738.3385,N,12221.6491,W,1,9,1.14,104.7,M,-17.3,M,,*65
$GPGSA,A,3,10,02,31,04,25,29,06,12,05,,,,2.06,1.14,1.71*0C
$GPRMC,020115.6,A,4738.3385,N,12221.6491,W,0.01,341.11,250614,018.2,E*7E
$GPRMC,020115.8,A,4738.3385,N,12221.6491,W,0.00,341.11,250614,018.2,E*71
$GPRMC,020116.0,A,4738.3385,N,12221.6491,W,0.00,341.11,250614,018.2,E*7A
$GPRMC,020116.2,A,4738.3385,N,12221.6491,W,0.00,341.11,250614,018.2,E*78
$GPGSV,3,1,11,25,67,282,35,12,64,168,37,02,63,066,25,29,37,282,21*7D
$GPGSV,3,2,11,10,34,075,26,48,34,194,,05,32,139,19,06,27,053,25*7A
$GPGSV,3,3,11,31,18,317,29,04,12,053,27,24,02,198,*4C
$GPRMC,020116.4,A,4738.3385,N,12221.6491,W,0.00,341.11,250614,018.2,E*7E
$GPGGA,020116.600,4738.3385,N,12221.6491,W,1,9,1.14,104.7,M,-17.3,M,,*66
$GPGSA,A,3,10,02,31,04,25,29,06,12,05,,,,2.06,1.14,1.71*0C
$GPRMC,020116.6,A,4738.3385,N,12221.6491,W,0.00,341.11,250614,018.2,E*7C
$GPRMC,020116.8,A,4738.3385,N,12221.6491,W,0.00,341.11,250614,018.2,E*72
$GPRMC,020117.0,A,4738.3385,N,12221.6491,W,0.01,341.11,250614,018.2,E*7A
$GPRMC,020117.2,A,4738.3385,N,12221.6491,W,0.01,341.11,250614,018.2,E*78
$GPGSV,3,1,11,25,67,281,35,12,64,168,37,02,63,066,25,29,37,282,21*7E
$GPGSV,3,2,11,10,34,075,27,48,34,194,,05,32,139,19,06,27,053,25*7B
$GPGSV,3,3,11,31,18,317,28,04,12,053,27,24,02,198,*4D
$GPRMC,020117.4,A,4738.3385,N,12221.6491,W,0.00,341.11,250614,018.2,E*7F
$GPGGA,020117.600,4738.3385,N,12221.6491,W,1,9,1.14,104.7,M,-17.3,M,,*67
$GPGSA,A,3,10,02,31,04,25,29,06,12,05,,,,2.06,1.14,1.71*0C
$GPRMC,020117.6,A,4738.3385,N,12221.6491,W,0.01,341.11,250614,018.2,E*7C
$GPRMC,020117.8,A,4738.3385,N,12221.6491,W,0.01,341.11,250614,018.2,E*72
$GPRMC,020118.0,A,4738.3385,N,12221.6491,W,0.01,341.11,250614,018.2,E*75
$GPRMC,020118.2,A,4738.3385,N,12221.6491,W,0.00,341.11,250614,018.2,E*76
$GPGSV,3,1,11,25,67,281,35,12,64,168,37,02,63,066,25,29,37,282,21*7E
$GPGSV,3,2,11,10,34,075,27,48,34,194,,05,32,139,19,06,27,053,25*7B
$GPGSV,3,3,11,31,18,317,28,04,12,053,26,24,02,198,*4C
$GPRMC,020118.4,A,4738.3385,N,12221.6491,W,0.00,341.11,250614,018.2,E*70
$GPGGA,020118.600,4738.3385,N,12221.6491,W,1,9,1.14,104.7,M,-17.3,M,,*68
$GPGSA,A,3,10,02,31,04,25,29,06,12,05,,,,2.06,1.14,1.71*0C
$GPRMC,020118.6,A,4738.3385,N,12221.6491,W,0.00,341.11,250614,018.2,E*72
$GPRMC,020118.8,A,4738.3385,N,12221.6491,W,0.00,341.11,250614,018.2,E*7C
$GPRMC,020119.0,A,4738.3385,N,12221.6491,W,0.01,341.11,250614,018.2,E*74
$GPRMC,020119.2,A,4738.3385,N,12221.6491,W,0.00,341.11,250614,018.2,E*77
$GPGSV,3,1,11,25,67,281,35,12,64,168,37,02,63,066,22,29,37,282,20*78
$GPGSV,3,2,11,10,34,075,24,48,34,194,,05,32,139,19,06,27,053,24*79
$GPGSV,3,3,11,31,18,317,28,04,12,053,26,24,02,198,*4C
$GPRMC,020119.4,A,4738.3385,N,12221.6491,W,0.00,341.11,250614,018.2,E*71
$GPGGA,020119.600,4738.3385,N,12221.6491,W,1,9,1.14,104.7,M,-17.3,M,,*69
$GPGSA,A,3,10,02,31,04,25,29,06,12,05,,,,2.06,1.14,1.71*0C
$GPRMC,020119.6,A,4738.3385,N,12221.6491,W,0.01,341.11,250614,018.2,E*72
$GPRMC,020119.8,A,4738.3385,N,12221.6491,W,0.00,341.11,250614,018.2,E*7D
$GPRMC,020120.0,A,4738.3385,N,12221.6491,W,0.01,341.11,250614,018.2,E*7E
$GPRMC,020120.2,A,4738.3385,N,12221.6491,W,0.00,341.11,250614,018.2,E*7D
$GPGSV,3,1,11,25,67,281,35,12,64,168,37,02,63,066,25,29,37,282,18*74
$GPGSV,3,2,11,10,34,075,26,48,34,194,,05,32,139,19,06,27,053,24*7B
$GPGSV,3,3,11,31,18,317,28,04,12,053,26,24,02,198,*4C
$GPRMC,020120.4,A,4738.3385,N,12221.6491,W,0.00,341.11,250614,018.2,E*7B
$GPGGA,020120.600,4738.3385,N,12221.6491,W,1,9,1.14,104.7,M,-17.3,M,,*63
$GPGSA,A,3,10,02,31,04,25,29,06,12,05,,,,2.06,1.14,1.71*0C
$GPRMC,020120.6,A,4738.3385,N,12221.6491,W,0.00,341.11,250614,018.2,E*79
$GPRMC,020120.8,A,4738.3385,N,12221.6491,W,0.00,341.11,250614,018.2,E*77
$GPRMC,020121.0,A,4738.3385,N,12221.6491,W,0.00,341.11,250614,018.2,E*7E
$GPRMC,020121.2,A,4738.3385,N,12221.6491,W,0.00,341.11,250614,018.2,E*7C
$GPGSV,3,1,11,25,67,281,35,12,64,168,37,02,63,066,,29,37,282,17*7C
$GPGSV,3,2,11,10,34,075,27,48,34,194,,05,32,139,20,06,27,053,25*71
$GPGSV,3,3,11,31,18,317,28,04,12,053,26,24,02,198,*4C
$GPRMC,020121.4,A,4738.3385,N,12221.6491,W,0.00,341.11,250614,018.2,E*7A
$GPGGA,020121.600,4738.3385,N,12221.6491,W,1,8,1.26,104.7,M,-17.3,M,,*62
$GPGSA,A,3,10,31,04,25,29,06,12,05,,,,,2.49,1.26,2.15*05
$GPRMC,020121.6,A,4738.3385,N,12221.6491,W,0.01,341.11,250614,018.2,E*79
$GPRMC,020121.8,A,4738.3385,N,12221.6491,W,0.00,341.11,250614,018.2,E*76
$GPRMC,020122.0,A,4738.3385,N,12221.6491,W,0.00,341.11,250614,018.2,E*7D
$GPRMC,020122.2,A,4738.3385,N,12221.6491,W,0.00,341.11,250614,018.2,E*7F
$GPGSV,3,1,11,25,67,281,35,12,64,168,37,02,63,066,,29,37,282,17*7C
$GPGSV,3,2,11,10,34,075,27,48,34,194,,05,32,139,20,06,27,053,25*71
$GPGSV,3,3,11,31,18,317,28,04,12,053,26,24,02,198,*4C
$GPRMC,020122.4,A,4738.3385,N,12221.6491,W,0.00,341.11,250614,018.2,E*79
$GPGGA,020122.600,4738.3385,N,12221.6491,W,1,8,1.26,104.6,M,-17.3,M,,*60
$GPGSA,A,3,10,31,04,25,29,06,12,05,,,,,2.49,1.26,2.15*05
$GPRMC,020122.6,A,4738.3385,N,12221.6491,W,0.00,341.11,250614,018.2,E*7B
$GPRMC,020122.8,A,4738.3385,N,12221.6491,W,0.00,341.11,250614,018.2,E*75
$GPRMC,020123.0,A,4738.3385,N,12221.6491,W,0.00,341.11,250614,018.2,E*7C
$GPRMC,020123.2,A,4738.3385,N,12221.6491,W,0.00,341.11,250614,018.2,E*7E
$GPGSV,3,1,11,25,67,281,35,12,64,168,37,02,63,066,,29,37,282,17*7C
$GPGSV,3,2,11,10,34,075,26,48,34,194,,05,32,139,20,06,27,053,25*70
$GPGSV,3,3,11,31,18,317,28,04,12,053,26,24,02,198,*4C
$GPRMC,020123.4,A,4738.3385,N,12221.6492,W,0.00,341.11,250614,018.2,E*7B
$GPGGA,020123.600,4738.3385,N,12221.6492,W,1,8,1.26,104.6,M,-17.3,M,,*62
$GPGSA,A,3,10,31,04,25,29,06,12,05,,,,,2.49,1.26,2.15*05
$GPRMC,020123.6,A,4738.3385,N,12221.6492,W,0.01,341.11,250614,018.2,E*78
$GPRMC,020123.8,A,4738.3385,N,12221.6492,W,0.00,341.11,250614,018.2,E*77
$GPRMC,020124.0,A,4738.3385,N,12221.6492,W,0.00,341.11,250614,018.2,E*78
$GPRMC,020124.2,A,4738.3385,N,12221.6492,W,0.00,341.11,250614,018.2,E*7A
$GPGSV,3,1,11,25,67,281,35,12,64,168,37,02,63,066,,29,37,282,17*7C
$GPGSV,3,2,11,10,34,075,27,51,33,159,,05,32,139,20,06,27,053,25*7F
$GPGSV,3,3,11,31,18,317,28,04,12,053,26,24,02,198,*4C
$GPRMC,020124.4,A,4738.3385,N,12221.6492,W,0.00,341.11,250614,018.2,E*7C
$GPGGA,020124.600,4738.3385,N,12221.6492,W,1,8,1.26,104.6,M,-17.3,M,,*65
$GPGSA,A,3,10,31,04,25,29,06,12,05,,,,,2.49,1.26,2.15*05
$GPRMC,020124.6,A,4738.3385,N,12221.6492,W,0.00,341.11,250614,018.2,E*7E
$GPRMC,020124.8,A,4738.3385,N,12221.6492,W,0.00,341.11,250614,018.2,E*70
$GPRMC,020125.0,A,4738.3385,N,12221.6492,W,0.00,341.11,250614,018.2,E*79
$GPRMC,020125.2,A,4738.3385,N,12221.6492,W,0.00,341.11,250614,018.2,E*7B
$GPGSV,3,1,11,25,67,281,35,12,64,168,37,02,63,066,,29,37,282,17*7C
$GPGSV,3,2,11,10,34,075,26,51,33,159,,05,32,139,20,06,27,053,25*7E
$GPGSV,3,3,11,31,18,317,28,04,12,053,26,24,02,198,*4C
$GPRMC,020125.4,A,4738.3385,N,12221.6492,W,0.00,341.11,250614,018.2,E*7D
$GPGGA,020125.600,4738.3385,N,12221.6492,W,1,8,1.26,104.6,M,-17.3,M,,*64
$GPGSA,A,3,10,31,04,25,29,06,12,05,,,,,2.50,1.26,2.15*0D
$GPRMC,020125.6,A,4738.3385,N,12221.6492,W,0.01,341.11,250614,018.2,E*7E
$GPRMC,020125.8,A,4738.3385,N,12221.6492,W,0.00,341.11,250614,018.2,E*71
$GPRMC,020126.0,A,4738.3385,N,12221.6492,W,0.00,341.11,250614,018.2,E*7A
$GPRMC,020126.2,A,4738.3385,N,12221.6492,W,0.00,341.11,250614,018.2,E*78
$GPGSV,3,1,11,25,67,281,35,12,64,168,37,02,63,066,,29,37,282,17*7C
$GPGSV,3,2,11,10,34,075,26,51,33,159,,05,32,139,20,06,27,053,25*7E
$GPGSV,3,3,11,31,18,317,28,04,12,053,27,24,02,198,*4D
$GPRMC,020126.4,A,4738.3385,N,12221.6492,W,0.00,341.11,250614,018.2,E*7E
