$IIMWV,025,R,06.2,N,A*10
$IIMWV,020,T,06.1,N,A*10
$HCHDG,251.2,0.0,E,,*2D
$YXXDR,A,6.1,D,PTCH,A,2.9,D,ROLL*51
$GPRMC,230025.4,A,4916.4367,N,12311.1466,W,0.00,227.77,200614,018.2,E*7C
$HCHDG,251.3,0.0,E,,*2C
$YXXDR,A,6.2,D,PTCH,A,2.9,D,ROLL*52
$HCHDG,251.4,0.0,E,,*2B
$YXXDR,A,6.2,D,PTCH,A,2.7,D,ROLL*5C
$TIROT,71.5,A*08
$GPRMC,230025.6,A,4916.4367,N,12311.1466,W,0.00,227.77,200614,018.2,E*7E
$HCHDG,251.7,0.0,E,,*28
$YXXDR,A,6.0,D,PTCH,A,2.6,D,ROLL*5F
$HCHDG,251.8,0.0,E,,*27
$YXXDR,A,6.0,D,PTCH,A,2.5,D,ROLL*5C
$GPRMC,230025.8,A,4916.4367,N,12311.1466,W,0.00,227.77,200614,018.2,E*70
$HCHDG,252.2,0.0,E,,*2E
$YXXDR,A,6.0,D,PTCH,A,2.2,D,ROLL*5B
$IIVHW,,,,,00.0,N,,*19
$HCHDG,252.4,0.0,E,,*28
$YXXDR,A,6.0,D,PTCH,A,2.2,D,ROLL*5B
$IIVLW,06814,N,029.0,N*53
$IIVWR,023,R,06.1,N,,,,*67
$GPGSV,4,1,13,17,61,061,33,24,55,286,30,04,40,143,31,06,34,154,27*71
$GPGSV,4,2,13,51,31,159,29,12,24,287,33,28,23,096,28,02,12,180,18*7A
$GPGSV,4,3,13,15,11,236,30,01,10,033,30,14,06,338,22,20,05,064,25*76
$HCHDG,252.5,0.0,E,,*29
$GPGSV,4,4,13,32,02,027,*4D
$GPRMC,230026.0,A,4916.4367,N,12311.1466,W,0.00,227.77,200614,018.2,E*7B
$YXXDR,A,5.9,D,PTCH,A,2.3,D,ROLL*50
$HCHDG,252.7,0.0,E,,*2B
$YXXDR,A,5.9,D,PTCH,A,2.3,D,ROLL*50
$IIMTW,+14.0,C*3D
$GPGGA,230026.200,4916.4367,N,12311.1466,W,2,11,0.70,-5.7,M,-16.8,M,0000,0000*79
$GPGSA,A,3,14,12,06,04,17,15,24,28,01,20,02,,1.35,0.70,1.15*0C
$GPRMC,230026.2,A,4916.4367,N,12311.1466,W,0.00,227.77,200614,018.2,E*79
$HCHDG,252.7,0.0,E,,*2B
$IIMWV,023,R,06.1,N,A*15
$YXXDR,A,5.9,D,PTCH,A,2.3,D,ROLL*50
$IIMWV,025,T,06.2,N,A*16
$HCHDG,252.9,0.0,E,,*25
$YXXDR,A,6.0,D,PTCH,A,2.1,D,ROLL*58
$HCHDG,252.9,0.0,E,,*25
$GPRMC,230026.4,A,4916.4367,N,12311.1466,W,0.00,227.77,200614,018.2,E*7F
$YXXDR,A,5.9,D,PTCH,A,2.3,D,ROLL*50
$HCHDG,253.0,0.0,E,,*2D
$YXXDR,A,6.0,D,PTCH,A,2.1,D,ROLL*58
$TIROT,57.1,A*08
$GPRMC,230026.6,A,4916.4367,N,12311.1466,W,0.00,227.77,200614,018.2,E*7D
$HCHDG,253.0,0.0,E,,*2D
$YXXDR,A,6.0,D,PTCH,A,2.2,D,ROLL*5B
$HCHDG,253.1,0.0,E,,*2C
$YXXDR,A,6.0,D,PTCH,A,2.1,D,ROLL*58
$GPRMC,230026.8,A,4916.4367,N,12311.1466,W,0.00,227.77,200614,018.2,E*73
$HCHDG,253.1,0.0,E,,*2C
$YXXDR,A,6.0,D,PTCH,A,2.0,D,ROLL*59
$IIVHW,,,,,00.0,N,,*19
$HCHDG,253.5,0.0,E,,*28
$YXXDR,A,6.0,D,PTCH,A,2.0,D,ROLL*59
$IIVLW,06814,N,029.0,N*53
$IIVWR,015,R,05.5,N,,,,*65
$GPGSV,4,1,13,17,61,061,31,24,55,286,30,04,40,143,28,06,34,154,24*78
$GPGSV,4,2,13,51,31,159,29,12,24,287,32,28,23,096,27,02,12,180,19*75
$HCHDG,253.5,0.0,E,,*28
$GPGSV,4,3,13,15,11,236,32,01,10,033,31,14,06,337,27,20,05,064,21*7B
$GPGSV,4,4,13,32,02,027,*4D
$GPRMC,230027.0,A,4916.4367,N,12311.1466,W,0.00,227.77,200614,018.2,E*7A
$YXXDR,A,6.1,D,PTCH,A,1.8,D,ROLL*53
$HCHDG,253.6,0.0,E,,*2B
$YXXDR,A,6.1,D,PTCH,A,1.8,D,ROLL*53
$IIMTW,+14.0,C*3D
$HCHDG,253.5,0.0,E,,*28
$GPGGA,230027.200,4916.4367,N,12311.1466,W,2,11,0.70,-5.7,M,-16.8,M,0000,0000*78
$GPGSA,A,3,14,12,06,04,17,15,24,28,01,20,02,,1.35,0.70,1.15*0C
$GPRMC,230027.2,A,4916.4367,N,12311.1466,W,0.00,227.77,200614,018.2,E*78
$YXXDR,A,6.0,D,PTCH,A,2.0,D,ROLL*59
$IIMWV,015,R,05.5,N,A*17
$IIMWV,023,T,06.1,N,A*13
$HCHDG,253.7,0.0,E,,*2A
$YXXDR,A,6.0,D,PTCH,A,2.2,D,ROLL*5B
$HCHDG,253.7,0.0,E,,*2A
$GPRMC,230027.4,A,4916.4367,N,12311.1466,W,0.00,227.77,200614,018.2,E*7E
$YXXDR,A,6.1,D,PTCH,A,2.3,D,ROLL*5B
$HCHDG,253.6,0.0,E,,*2B
$YXXDR,A,6.1,D,PTCH,A,2.6,D,ROLL*5E
$TIROT,-7.4,A*15
$GPRMC,230027.6,A,4916.4367,N,12311.1466,W,0.00,227.77,200614,018.2,E*7C
$HCHDG,253.7,0.0,E,,*2A
$YXXDR,A,6.1,D,PTCH,A,2.9,D,ROLL*51
$HCHDG,253.6,0.0,E,,*2B
$YXXDR,A,6.1,D,PTCH,A,3.2,D,ROLL*5B
$GPRMC,230027.8,A,4916.4367,N,12311.1466,W,0.00,227.77,200614,018.2,E*72
$HCHDG,253.5,0.0,E,,*28
$YXXDR,A,6.1,D,PTCH,A,3.3,D,ROLL*5A
$IIVHW,,,,,00.0,N,,*19
$HCHDG,253.5,0.0,E,,*28
$YXXDR,A,6.0,D,PTCH,A,3.5,D,ROLL*5D
$IIVLW,06814,N,029.0,N*53
$IIVWR,021,R,05.5,N,,,,*62
$GPGSV,4,1,13,17,60,061,32,24,55,286,35,04,40,143,31,06,34,154,31*73
$HCHDG,253.5,0.0,E,,*28
$GPGSV,4,2,13,51,31,159,31,12,24,287,30,28,23,096,27,02,12,180,18*7F
$GPGSV,4,3,13,15,11,236,35,01,10,033,32,14,06,337,25,20,05,064,24*78
$GPGSV,4,4,13,32,02,027,*4D
$GPRMC,230028.0,A,4916.4367,N,12311.1466,W,0.00,227.77,200614,018.2,E*75
$YXXDR,A,6.0,D,PTCH,A,3.8,D,ROLL*50
$HCHDG,253.5,0.0,E,,*28
$YXXDR,A,6.0,D,PTCH,A,3.8,D,ROLL*50
$IIMTW,+14.0,C*3D
$GPGGA,230028.200,4916.4367,N,12311.1466,W,2,11,0.70,-5.7,M,-16.8,M,0000,0000*77
$GPGSA,A,3,14,12,06,04,17,15,24,28,01,20,02,,1.35,0.70,1.15*0C
$GPRMC,230028.2,A,4916.4367,N,12311.1466,W,0.00,227.77,200614,018.2,E*77
$HCHDG,253.5,0.0,E,,*28
$YXXDR,A,6.0,D,PTCH,A,3.8,D,ROLL*50
$IIMWV,021,R,05.5,N,A*10
$IIMWV,015,T,05.5,N,A*11
$HCHDG,253.5,0.0,E,,*28
$YXXDR,A,5.8,D,PTCH,A,4.5,D,ROLL*51
$GPRMC,230028.4,A,4916.4367,N,12311.1466,W,0.00,227.77,200614,018.2,E*71
$HCHDG,253.4,0.0,E,,*29
$YXXDR,A,5.8,D,PTCH,A,4.8,D,ROLL*5C
$HCHDG,253.1,0.0,E,,*2C
$YXXDR,A,5.8,D,PTCH,A,5.3,D,ROLL*56
$TIROT,-60.3,A*23
$GPRMC,230028.6,A,4916.4367,N,12311.1466,W,0.00,227.77,200614,018.2,E*73
$HCHDG,253.1,0.0,E,,*2C
$YXXDR,A,5.9,D,PTCH,A,5.4,D,ROLL*50
$HCHDG,253.0,0.0,E,,*2D
$YXXDR,A,6.0,D,PTCH,A,5.4,D,ROLL*5A
$GPRMC,230028.8,A,4916.4367,N,12311.1466,W,0.00,227.77,200614,018.2,E*7D
$HCHDG,253.0,0.0,E,,*2D
$YXXDR,A,6.0,D,PTCH,A,5.4,D,ROLL*5A
$IIVHW,,,,,00.0,N,,*19
$HCHDG,252.9,0.0,E,,*25
$YXXDR,A,6.1,D,PTCH,A,5.4,D,ROLL*5B
$IIVLW,06814,N,029.0,N*53
$IIVWR,020,R,04.7,N,,,,*60
$GPGSV,4,1,13,17,60,061,34,24,55,286,38,04,40,143,35,06,34,154,33*7E
$GPGSV,4,2,13,51,31,159,29,12,24,287,28,28,23,096,28,02,12,180,18*70
$GPGSV,4,3,13,15,11,236,31,01,10,033,36,14,06,337,20,20,05,064,31*79
$GPGSV,4,4,13,32,02,027,*4D
$GPRMC,230029.0,A,4916.4367,N,12311.1466,W,0.00,227.77,200614,018.2,E*74
$HCHDG,253.1,0.0,E,,*2C
$YXXDR,A,6.0,D,PTCH,A,5.2,D,ROLL*5C
$HCHDG,253.0,0.0,E,,*2D
$YXXDR,A,6.0,D,PTCH,A,5.0,D,ROLL*5E
$IIMTW,+14.0,C*3D
$GPGGA,230029.200,4916.4367,N,12311.1466,W,2,11,0.70,-5.7,M,-16.8,M,0000,0000*76
$GPGSA,A,3,14,12,06,04,17,15,24,28,01,20,02,,1.35,0.70,1.15*0C
$GPRMC,230029.2,A,4916.4367,N,12311.1466,W,0.00,227.77,200614,018.2,E*76
$IIMWV,020,R,04.7,N,A*12
$HCHDG,252.9,0.0,E,,*25
$YXXDR,A,5.9,D,PTCH,A,4.9,D,ROLL*5C
$IIMWV,021,T,05.5,N,A*16
$HCHDG,252.8,0.0,E,,*24
$YXXDR,A,6.0,D,PTCH,A,4.6,D,ROLL*59
$GPRMC,230029.4,A,4916.4367,N,12311.1466,W,0.00,227.77,200614,018.2,E*70
$HCHDG,252.7,0.0,E,,*2B
$YXXDR,A,6.1,D,PTCH,A,4.5,D,ROLL*5B
$HCHDG,252.6,0.0,E,,*2A
$YXXDR,A,6.0,D,PTCH,A,4.3,D,ROLL*5C
$TIROT,-88.0,A*26
$GPRMC,230029.6,A,4916.4367,N,12311.1466,W,0.00,227.77,200614,018.2,E*72
$HCHDG,252.4,0.0,E,,*28
$YXXDR,A,6.1,D,PTCH,A,4.0,D,ROLL*5E
$HCHDG,252.4,0.0,E,,*28
$YXXDR,A,6.1,D,PTCH,A,4.0,D,ROLL*5E
$GPRMC,230029.8,A,4916.4367,N,12311.1466,W,0.00,227.77,200614,018.2,E*7C
$HCHDG,252.2,0.0,E,,*2E
$YXXDR,A,6.0,D,PTCH,A,3.8,D,ROLL*50
$IIVHW,,,,,00.0,N,,*19
$HCHDG,252.1,0.0,E,,*2D
$YXXDR,A,6.0,D,PTCH,A,3.4,D,ROLL*5C
$IIVLW,06814,N,029.0,N*53
$IIVWR,012,R,05.0,N,,,,*67
$GPGSV,4,1,13,17,60,061,24,24,55,286,34,04,40,143,26,06,34,154,36*74
$GPGSV,4,2,13,51,31,159,33,12,24,287,25,28,23,096,29,02,12,180,18*77
$GPGSV,4,3,13,15,11,236,29,01,10,033,35,14,06,337,20,20,05,064,29*7A
$HCHDG,251.7,0.0,E,,*28
$GPGSV,4,4,13,32,02,027,*4D
$GPRMC,230030.0,A,4916.4367,N,12311.1466,W,0.00,227.77,200614,018.2,E*7C
$YXXDR,A,5.9,D,PTCH,A,3.4,D,ROLL*56
$HCHDG,251.7,0.0,E,,*28
$YXXDR,A,6.0,D,PTCH,A,3.2,D,ROLL*5A
$IIMTW,+14.0,C*3D
$HCHDG,251.5,0.0,E,,*2A
$GPGGA,230030.200,4916.4367,N,12311.1466,W,2,11,0.70,-5.7,M,-16.8,M,0000,0000*7E
$GPGSA,A,3,14,12,06,04,17,15,24,28,01,20,02,,1.35,0.70,1.15*0C
$GPRMC,230030.2,A,4916.4367,N,12311.1466,W,0.00,227.77,200614,018.2,E*7E
$YXXDR,A,6.0,D,PTCH,A,3.1,D,ROLL*59
$IIMWV,012,R,05.0,N,A*15
$IIMWV,020,T,04.7,N,A*14
$HCHDG,251.3,0.0,E,,*2C
$YXXDR,A,6.0,D,PTCH,A,3.1,D,ROLL*59
$GPRMC,230030.4,A,4916.4367,N,12311.1466,W,0.00,227.77,200614,018.2,E*78
$HCHDG,251.2,0.0,E,,*2D
$YXXDR,A,6.0,D,PTCH,A,3.0,D,ROLL*58
$HCHDG,251.0,0.0,E,,*2F
$YXXDR,A,5.8,D,PTCH,A,3.0,D,ROLL*53
$TIROT,-77.3,A*25
$GPRMC,230030.6,A,4916.4367,N,12311.1466,W,0.00,227.77,200614,018.2,E*7A
$HCHDG,250.9,0.0,E,,*27
$YXXDR,A,6.0,D,PTCH,A,2.8,D,ROLL*51
$HCHDG,250.7,0.0,E,,*29
$YXXDR,A,6.0,D,PTCH,A,2.7,D,ROLL*5E
$IIVHW,,,,,00.0,N,,*19
$GPRMC,230030.8,A,4916.4367,N,12311.1466,W,0.00,227.77,200614,018.2,E*74
$HCHDG,250.5,0.0,E,,*2B
$IIVLW,06814,N,029.0,N*53
$YXXDR,A,6.0,D,PTCH,A,2.7,D,ROLL*5E
$IIVWR,008,R,05.2,N,,,,*6E
$HCHDG,250.7,0.0,E,,*29
$YXXDR,A,6.0,D,PTCH,A,2.7,D,ROLL*5E
$IIMTW,+14.0,C*3D
$GPGSV,4,1,13,17,60,061,29,24,55,286,31,04,40,143,27,06,34,154,31*7A
$IIMWV,008,R,05.2,N,A*1C
$HCHDG,250.4,0.0,E,,*2A
$GPGSV,4,2,13,51,31,159,37,12,24,287,29,28,23,096,27,02,12,180,17*7E
$GPGSV,4,3,13,15,11,236,28,01,10,033,35,14,06,337,,20,05,064,25*75
$GPGSV,4,4,13,32,02,027,*4D
$YXXDR,A,6.0,D,PTCH,A,2.8,D,ROLL*51
$GPRMC,230031.0,A,4916.4367,N,12311.1466,W,0.00,227.77,200614,018.2,E*7D
$IIMWV,012,T,05.0,N,A*13
$HCHDG,250.4,0.0,E,,*2A
$YXXDR,A,5.8,D,PTCH,A,2.9,D,ROLL*5B
$GPGGA,230031.200,4916.4367,N,12311.1466,W,2,10,0.77,-5.7,M,-16.8,M,0000,0000*79
$GPGSA,A,3,12,06,04,17,15,24,28,01,20,02,,,1.44,0.77,1.21*0F
$GPRMC,230031.2,A,4916.4367,N,12311.1466,W,0.00,227.77,200614,018.2,E*7F
$HCHDG,250.4,0.0,E,,*2A
$YXXDR,A,5.8,D,PTCH,A,3.0,D,ROLL*53
$HCHDG,250.3,0.0,E,,*2D
$YXXDR,A,5.8,D,PTCH,A,3.2,D,ROLL*51
$GPRMC,230031.4,A,4916.4367,N,12311.1466,W,0.00,227.77,200614,018.2,E*79
$HCHDG,250.2,0.0,E,,*2C
$YXXDR,A,5.8,D,PTCH,A,3.2,D,ROLL*51
$HCHDG,250.3,0.0,E,,*2D
$YXXDR,A,5.8,D,PTCH,A,3.4,D,ROLL*57
$TIROT,-28.3,A*2F
$GPRMC,230031.6,A,4916.4367,N,12311.1466,W,0.00,227.77,200614,018.2,E*7B
$HCHDG,250.2,0.0,E,,*2C
$YXXDR,A,5.8,D,PTCH,A,3.5,D,ROLL*56
$HCHDG,250.1,0.0,E,,*2F
$YXXDR,A,5.9,D,PTCH,A,3.6,D,ROLL*54
$IIVHW,,,,,00.0,N,,*19
$GPRMC,230031.8,A,4916.4367,N,12311.1466,W,0.00,227.77,200614,018.2,E*75
$HCHDG,250.1,0.0,E,,*2F
$YXXDR,A,6.0,D,PTCH,A,4.0,D,ROLL*5F
$IIVLW,06814,N,029.0,N*53
$IIVWR,014,R,05.3,N,,,,*62
$HCHDG,250.0,0.0,E,,*2E
$YXXDR,A,6.0,D,PTCH,A,4.0,D,ROLL*5F
$IIMTW,+14.0,C*3D
$HCHDG,250.0,0.0,E,,*2E
$IIMWV,014,R,05.3,N,A*10
$GPGSV,4,1,13,17,60,061,37,24,55,286,38,04,40,143,29,06,34,154,35*76
$GPGSV,4,2,13,51,31,159,37,12,24,287,31,28,23,096,21,02,12,180,17*71
$GPGSV,4,3,13,15,11,236,33,01,10,033,33,14,06,337,,20,05,064,24*78
$GPGSV,4,4,13,32,02,027,*4D
$GPRMC,230032.0,A,4916.4367,N,12311.1466,W,0.00,227.77,200614,018.2,E*7E
$YXXDR,A,5.9,D,PTCH,A,4.3,D,ROLL*56
$IIMWV,008,T,05.2,N,A*1A
$HCHDG,250.0,0.0,E,,*2E
$YXXDR,A,6.0,D,PTCH,A,4.3,D,ROLL*5C
$HCHDG,249.9,0.0,E,,*2F
$GPGGA,230032.200,4916.4367,N,12311.1466,W,2,10,0.77,-5.7,M,-16.8,M,0000,0000*7A
$GPGSA,A,3,12,06,04,17,15,24,28,01,20,02,,,1.44,0.77,1.21*0F
$GPRMC,230032.2,A,4916.4367,N,12311.1466,W,0.00,227.77,200614,018.2,E*7C
$YXXDR,A,6.0,D,PTCH,A,4.5,D,ROLL*5A
$HCHDG,249.9,0.0,E,,*2F
$YXXDR,A,5.9,D,PTCH,A,4.6,D,ROLL*53
$GPRMC,230032.4,A,4916.4367,N,12311.1466,W,0.00,227.77,200614,018.2,E*7A
$HCHDG,249.8,0.0,E,,*2E
$YXXDR,A,5.9,D,PTCH,A,5.2,D,ROLL*56
$HCHDG,249.8,0.0,E,,*2E
$YXXDR,A,5.8,D,PTCH,A,5.3,D,ROLL*56
$TIROT,-34.3,A*22
$GPRMC,230032.6,A,4916.4367,N,12311.1466,W,0.00,227.77,200614,018.2,E*78
$HCHDG,249.8,0.0,E,,*2E
$YXXDR,A,5.8,D,PTCH,A,5.3,D,ROLL*56
$HCHDG,249.5,0.0,E,,*23
$YXXDR,A,5.8,D,PTCH,A,5.3,D,ROLL*56
$GPRMC,230032.8,A,4916.4367,N,12311.1466,W,0.00,227.77,200614,018.2,E*76
$HCHDG,249.5,0.0,E,,*23
$YXXDR,A,5.8,D,PTCH,A,5.3,D,ROLL*56
$HCHDG,249.5,0.0,E,,*23
$YXXDR,A,5.6,D,PTCH,A,5.3,D,ROLL*58
$GPGSV,4,1,13,17,60,061,27,24,55,286,31,04,40,143,35,06,34,154,28*7F
$GPGSV,4,2,13,51,31,159,35,12,24,287,29,28,23,096,33,02,12,180,17*79
$HCHDG,249.4,0.0,E,,*22
$GPGSV,4,3,13,15,11,236,33,01,10,033,36,14,06,337,,20,05,064,26*7F
$GPGSV,4,4,13,32,02,027,*4D
$GPRMC,230033.0,A,4916.4367,N,12311.1466,W,0.00,227.77,200614,018.2,E*7F
$YXXDR,A,5.6,D,PTCH,A,5.1,D,ROLL*5A
$HCHDG,249.4,0.0,E,,*22
$YXXDR,A,5.6,D,PTCH,A,5.1,D,ROLL*5A
$HCHDG,249.2,0.0,E,,*24
$GPGGA,230033.200,4916.4367,N,12311.1466,W,2,10,0.77,-5.7,M,-16.8,M,0000,0000*7B
$GPGSA,A,3,12,06,04,17,15,24,28,01,20,02,,,1.44,0.77,1.21*0F
$YXXDR,A,5.6,D,PTCH,A,5.0,D,ROLL*5B
$GPRMC,230033.2,A,4916.4367,N,12311.1466,W,0.00,227.77,200614,018.2,E*7D
$HCHDG,249.3,0.0,E,,*25
$YXXDR,A,5.5,D,PTCH,A,4.7,D,ROLL*5E
$GPRMC,230033.4,A,4916.4367,N,12311.1466,W,0.00,227.77,200614,018.2,E*7B
$HCHDG,249.2,0.0,E,,*24
$YXXDR,A,5.5,D,PTCH,A,4.7,D,ROLL*5E
$HCHDG,249.3,0.0,E,,*25
$YXXDR,A,5.6,D,PTCH,A,4.3,D,ROLL*59
$TIROT,23.4,A*0E
$GPRMC,230033.6,A,4916.4367,N,12311.1466,W,0.00,227.77,200614,018.2,E*79
$HCHDG,249.4,0.0,E,,*22
$YXXDR,A,5.6,D,PTCH,A,4.2,D,ROLL*58
$HCHDG,249.4,0.0,E,,*22
$YXXDR,A,5.6,D,PTCH,A,4.1,D,ROLL*5B
$IIVHW,,,,,00.0,N,,*19
$GPRMC,230033.8,A,4916.4367,N,12311.1466,W,0.00,227.77,200614,018.2,E*77
$IIVLW,06814,N,029.0,N*53
$HCHDG,249.4,0.0,E,,*22
$YXXDR,A,5.6,D,PTCH,A,3.8,D,ROLL*55
$IIVWR,016,R,05.2,N,,,,*61
$HCHDG,249.5,0.0,E,,*23
$YXXDR,A,5.6,D,PTCH,A,3.3,D,ROLL*5E
$IIMTW,+14.0,C*3D
$IIMWV,016,R,05.2,N,A*13
$GPGSV,4,1,13,17,60,061,25,24,55,286,37,04,40,143,26,06,34,154,36*76
$HCHDG,249.7,0.0,E,,*21
$GPGSV,4,2,13,51,31,159,30,12,24,287,30,28,23,096,24,02,12,180,17*72
$GPGSV,4,3,13,15,11,236,28,01,10,033,27,14,06,337,,20,05,064,23*70
$GPGSV,4,4,13,32,02,027,*4D
$GPRMC,230034.0,A,4916.4367,N,12311.1466,W,0.00,227.77,200614,018.2,E*78
$YXXDR,A,5.6,D,PTCH,A,3.0,D,ROLL*5D
$HCHDG,249.9,0.0,E,,*2F
$IIMWV,014,T,05.3,N,A*16
$IIVHW,,,,,00.0,N,,*19
$YXXDR,A,5.7,D,PTCH,A,2.7,D,ROLL*5A
$IIVLW,06814,N,029.0,N*53
$GPGGA,230034.200,4916.4367,N,12311.1466,W,2,10,0.77,-5.7,M,-16.8,M,0000,0000*7C
$GPGSA,A,3,12,06,04,17,15,24,28,01,20,02,,,1.44,0.77,1.21*0F
$HCHDG,249.7,0.0,E,,*21
$GPRMC,230034.2,A,4916.4367,N,12311.1466,W,0.00,227.77,200614,018.2,E*7A
$IIVWR,007,R,05.3,N,,,,*60
$YXXDR,A,5.6,D,PTCH,A,2.4,D,ROLL*58
$HCHDG,249.9,0.0,E,,*2F
$IIMTW,+14.0,C*3D
$YXXDR,A,5.6,D,PTCH,A,2.2,D,ROLL*5E
$GPRMC,230034.4,A,4916.4367,N,12311.1466,W,0.00,227.77,200614,018.2,E*7C
$HCHDG,250.0,0.0,E,,*2E
$YXXDR,A,5.6,D,PTCH,A,1.5,D,ROLL*5A
$HCHDG,250.2,0.0,E,,*2C
$YXXDR,A,5.6,D,PTCH,A,1.4,D,ROLL*5B
$TIROT,52.0,A*0C
$GPRMC,230034.6,A,4916.4367,N,12311.1466,W,0.00,227.77,200614,018.2,E*7E
$HCHDG,250.2,0.0,E,,*2C
$YXXDR,A,5.6,D,PTCH,A,1.2,D,ROLL*5D
$HCHDG,250.3,0.0,E,,*2D
$YXXDR,A,5.7,D,PTCH,A,1.1,D,ROLL*5F
$IIMWV,007,R,05.1,N,A*10
$GPRMC,230034.8,A,4916.4367,N,12311.1466,W,0.00,227.77,200614,018.2,E*70
$HCHDG,250.5,0.0,E,,*2B
$IIMWV,007,T,05.3,N,A*14
$YXXDR,A,5.6,D,PTCH,A,1.2,D,ROLL*5D
$IIVHW,,,,,00.0,N,,*19
$HCHDG,250.5,0.0,E,,*2B
$IIVLW,06814,N,029.0,N*53
$YXXDR,A,5.7,D,PTCH,A,1.1,D,ROLL*5F
$IIVWR,007,R,05.1,N,,,,*62
$GPGSV,4,1,13,17,60,061,34,24,55,286,34,04,40,143,37,06,34,154,38*7B
$GPGSV,4,2,13,51,31,159,31,12,24,287,33,28,23,096,36,02,12,180,*75
$GPGSV,4,3,13,15,11,236,24,01,10,033,27,14,06,337,,20,05,064,24*7B
$GPGSV,4,4,13,32,02,027,*4D
$GPRMC,230035.0,A,4916.4367,N,12311.1466,W,0.00,227.77,200614,018.2,E*79
$HCHDG,250.7,0.0,E,,*29
$YXXDR,A,5.6,D,PTCH,A,1.2,D,ROLL*5D
$IIMTW,+14.0,C*3D
$HCHDG,250.8,0.0,E,,*26
$YXXDR,A,5.6,D,PTCH,A,1.2,D,ROLL*5D
$GPGGA,230035.200,4916.4367,N,12311.1466,W,2,9,0.86,-5.7,M,-16.8,M,0000,0000*4B
$GPGSA,A,3,12,06,04,17,15,24,28,01,20,,,,1.56,0.86,1.30*00
$GPRMC,230035.2,A,4916.4367,N,12311.1466,W,0.00,227.77,200614,018.2,E*7B
$HCHDG,250.9,0.0,E,,*27
$YXXDR,A,5.6,D,PTCH,A,1.4,D,ROLL*5B
$HCHDG,251.0,0.0,E,,*2F
$YXXDR,A,5.5,D,PTCH,A,1.3,D,ROLL*5F
$GPRMC,230035.4,A,4916.4367,N,12311.1466,W,0.00,227.77,200614,018.2,E*7D
$HCHDG,251.1,0.0,E,,*2E
$YXXDR,A,5.5,D,PTCH,A,1.5,D,ROLL*59
$HCHDG,251.4,0.0,E,,*2B
$YXXDR,A,5.5,D,PTCH,A,1.5,D,ROLL*59
$TIROT,64.2,A*0B
$GPRMC,230035.6,A,4916.4367,N,12311.1466,W,0.00,227.77,200614,018.2,E*7F
$HCHDG,251.5,0.0,E,,*2A
$YXXDR,A,5.5,D,PTCH,A,1.7,D,ROLL*5B
$HCHDG,251.6,0.0,E,,*29
$YXXDR,A,5.5,D,PTCH,A,1.7,D,ROLL*5B
$IIMWV,014,R,05.2,N,A*11
$GPRMC,230035.8,A,4916.4367,N,12311.1466,W,0.00,227.77,200614,018.2,E*71
$IIMWV,007,T,05.1,N,A*16
$HCHDG,251.7,0.0,E,,*28
$YXXDR,A,5.6,D,PTCH,A,1.8,D,ROLL*57
$IIVHW,,,,,00.0,N,,*19
$HCHDG,251.8,0.0,E,,*27
$IIVLW,06814,N,029.0,N*53
$YXXDR,A,5.6,D,PTCH,A,1.9,D,ROLL*56
$IIVWR,014,R,05.2,N,,,,*63
$GPGSV,4,1,13,17,60,061,33,24,55,286,31,04,40,143,35,06,34,154,35*76
$GPGSV,4,2,13,51,31,159,33,12,24,287,33,28,23,096,35,02,12,180,22*74
$GPGSV,4,3,13,15,11,236,30,01,10,033,27,14,06,337,27,20,05,064,23*7C
$GPGSV,4,4,13,32,02,027,*4D
$GPRMC,230036.0,A,4916.4367,N,12311.1466,W,0.00,227.77,200614,018.2,E*7A
$HCHDG,251.9,0.0,E,,*26
$YXXDR,A,5.6,D,PTCH,A,2.0,D,ROLL*5C
$IIMTW,+14.0,C*3D
$HCHDG,252.0,0.0,E,,*2C
$YXXDR,A,5.6,D,PTCH,A,2.3,D,ROLL*5F
$GPGGA,230036.200,4916.4367,N,12311.1466,W,2,11,0.70,-5.7,M,-16.8,M,0000,0000*78
$HCHDG,252.0,0.0,E,,*2C
$GPGSA,A,3,02,12,06,04,17,15,24,28,01,20,14,,1.35,0.70,1.15*0C
$GPRMC,230036.2,A,4916.4367,N,12311.1466,W,0.00,227.77,200614,018.2,E*78
$YXXDR,A,5.6,D,PTCH,A,2.3,D,ROLL*5F
$HCHDG,252.2,0.0,E,,*2E
$YXXDR,A,5.7,D,PTCH,A,2.4,D,ROLL*59
$GPRMC,230036.4,A,4916.4367,N,12311.1466,W,0.00,227.77,200614,018.2,E*7E
$HCHDG,252.3,0.0,E,,*2F
$YXXDR,A,5.7,D,PTCH,A,2.5,D,ROLL*58
$HCHDG,252.4,0.0,E,,*28
$YXXDR,A,5.7,D,PTCH,A,2.6,D,ROLL*5B
$TIROT,16.7,A*0B
$GPRMC,230036.6,A,4916.4367,N,12311.1466,W,0.00,227.77,200614,018.2,E*7C
$HCHDG,252.3,0.0,E,,*2F
$YXXDR,A,5.8,D,PTCH,A,3.0,D,ROLL*53
$HCHDG,252.6,0.0,E,,*2A
$YXXDR,A,5.7,D,PTCH,A,3.4,D,ROLL*58
$IIMWV,020,R,05.3,N,A*17
$GPRMC,230036.8,A,4916.4367,N,12311.1466,W,0.00,227.77,200614,018.2,E*72
$HCHDG,252.8,0.0,E,,*24
$YXXDR,A,5.7,D,PTCH,A,3.4,D,ROLL*58
$IIMWV,014,T,05.2,N,A*17
$IIVHW,,,,,00.0,N,,*19
$HCHDG,252.8,0.0,E,,*24
$YXXDR,A,5.7,D,PTCH,A,3.4,D,ROLL*58
$IIVLW,06814,N,029.0,N*53
$IIVWR,020,R,05.3,N,,,,*65
$GPGSV,4,1,13,17,60,061,31,24,55,286,34,04,40,143,40,06,34,154,29*7E
$GPGSV,4,2,13,51,31,159,30,12,24,287,29,28,23,096,36,02,12,180,17*79
$HCHDG,252.8,0.0,E,,*24
$GPGSV,4,3,13,15,11,236,33,01,10,033,25,14,06,337,,20,05,064,22*79
$GPGSV,4,4,13,32,02,027,*4D
$GPRMC,230037.0,A,4916.4367,N,12311.1466,W,0.00,227.77,200614,018.2,E*7B
$YXXDR,A,5.7,D,PTCH,A,3.4,D,ROLL*58
$IIMTW,+14.0,C*3D
$HCHDG,252.9,0.0,E,,*25
$YXXDR,A,5.7,D,PTCH,A,3.4,D,ROLL*58
$GPGGA,230037.200,4916.4367,N,12311.1466,W,2,10,0.77,-5.7,M,-16.8,M,0000,0000*7F
$GPGSA,A,3,02,12,06,04,17,15,24,28,01,20,,,1.44,0.77,1.21*0F
$HCHDG,252.9,0.0,E,,*25
$GPRMC,230037.2,A,4916.4367,N,12311.1466,W,0.00,227.77,200614,018.2,E*79
$YXXDR,A,5.7,D,PTCH,A,3.4,D,ROLL*58
$HCHDG,253.0,0.0,E,,*2D
$YXXDR,A,5.7,D,PTCH,A,3.4,D,ROLL*58
$GPRMC,230037.4,A,4916.4367,N,12311.1466,W,0.00,227.77,200614,018.2,E*7F
$HCHDG,253.0,0.0,E,,*2D
$YXXDR,A,5.8,D,PTCH,A,3.2,D,ROLL*51
$HCHDG,253.0,0.0,E,,*2D
$YXXDR,A,5.8,D,PTCH,A,3.2,D,ROLL*51
$TIROT,11.7,A*0C
$GPRMC,230037.6,A,4916.4367,N,12311.1466,W,0.00,227.77,200614,018.2,E*7D
$HCHDG,253.1,0.0,E,,*2C
$YXXDR,A,5.8,D,PTCH,A,3.0,D,ROLL*53
$HCHDG,253.2,0.0,E,,*2F
$YXXDR,A,5.7,D,PTCH,A,2.7,D,ROLL*5A
$IIMWV,012,R,05.3,N,A*16
$GPRMC,230037.8,A,4916.4367,N,12311.1466,W,0.00,227.77,200614,018.2,E*73
$HCHDG,252.9,0.0,E,,*25
$IIMWV,020,T,05.3,N,A*11
$YXXDR,A,5.6,D,PTCH,A,2.4,D,ROLL*58
$IIVHW,,,,,00.0,N,,*19
$HCHDG,253.0,0.0,E,,*2D
$IIVLW,06814,N,029.0,N*53
$YXXDR,A,5.6,D,PTCH,A,2.3,D,ROLL*5F
$IIVWR,012,R,05.3,N,,,,*64
$GPGSV,4,1,13,17,60,061,33,24,55,286,32,04,40,143,30,06,34,154,31*74
$HCHDG,253.0,0.0,E,,*2D
$GPGSV,4,2,13,51,31,159,26,12,24,287,27,28,23,096,36,02,12,180,19*7E
$GPGSV,4,3,13,15,11,236,35,01,10,033,25,14,06,337,,20,05,064,24*79
$GPGSV,4,4,13,32,02,027,*4D
$YXXDR,A,5.6,D,PTCH,A,2.2,D,ROLL*5E
$GPRMC,230038.0,A,4916.4367,N,12311.1466,W,0.00,227.77,200614,018.2,E*74
$IIMTW,+14.0,C*3D
$HCHDG,252.9,0.0,E,,*25
$YXXDR,A,5.6,D,PTCH,A,1.7,D,ROLL*58
$GPGGA,230038.200,4916.4367,N,12311.1466,W,2,10,0.77,-5.7,M,-16.8,M,0000,0000*70
$GPGSA,A,3,02,12,06,04,17,15,24,28,01,20,,,1.44,0.77,1.21*0F
$GPRMC,230038.2,A,4916.4367,N,12311.1466,W,0.00,227.77,200614,018.2,E*76
$HCHDG,253.0,0.0,E,,*2D
$YXXDR,A,5.5,D,PTCH,A,1.5,D,ROLL*59
$HCHDG,252.9,0.0,E,,*25
$YXXDR,A,5.5,D,PTCH,A,1.5,D,ROLL*59
$GPRMC,230038.4,A,4916.4367,N,12311.1466,W,0.00,227.77,200614,018.2,E*70
$HCHDG,253.1,0.0,E,,*2C
$YXXDR,A,5.6,D,PTCH,A,1.2,D,ROLL*5D
$HCHDG,253.1,0.0,E,,*2C
$YXXDR,A,5.7,D,PTCH,A,1.1,D,ROLL*5F
$TIROT,10.6,A*0C
$GPRMC,230038.6,A,4916.4367,N,12311.1466,W,0.00,227.77,200614,018.2,E*72
$HCHDG,253.1,0.0,E,,*2C
$YXXDR,A,5.7,D,PTCH,A,1.0,D,ROLL*5E
$HCHDG,253.0,0.0,E,,*2D
$YXXDR,A,5.8,D,PTCH,A,0.9,D,ROLL*59
$IIMWV,003,R,05.6,N,A*13
$GPRMC,230038.8,A,4916.4367,N,12311.1466,W,0.00,227.77,200614,018.2,E*7C
$HCHDG,253.1,0.0,E,,*2C
$IIMWV,012,T,05.3,N,A*10
$YXXDR,A,5.8,D,PTCH,A,0.6,D,ROLL*56
$IIVHW,,,,,00.0,N,,*19
$HCHDG,253.1,0.0,E,,*2C
$IIVLW,06814,N,029.0,N*53
$YXXDR,A,5.5,D,PTCH,A,0.0,D,ROLL*5D
$IIVWR,003,R,05.6,N,,,,*61
$GPGSV,4,1,13,17,60,061,35,24,55,286,29,04,40,143,28,06,34,154,34*74
$GPGSV,4,2,13,51,31,159,32,12,24,287,28,28,23,096,31,02,12,180,20*79
$HCHDG,253.1,0.0,E,,*2C
$GPGSV,4,3,13,15,11,236,32,01,10,033,24,14,06,337,30,20,05,064,29*71
$GPGSV,4,4,13,32,02,027,*4D
$GPRMC,230039.0,A,4916.4367,N,12311.1466,W,0.00,227.77,200614,018.2,E*75
$YXXDR,A,5.4,D,PTCH,A,0.0,D,ROLL*5C
$IIMTW,+14.0,C*3D
$HCHDG,253.0,0.0,E,,*2D
$YXXDR,A,5.4,D,PTCH,A,-0.1,D,ROLL*70
$GPGGA,230039.200,4916.4367,N,12311.1466,W,2,11,0.70,-5.7,M,-16.8,M,0000,0000*77
$HCHDG,253.1,0.0,E,,*2C
$GPGSA,A,3,02,12,06,04,17,15,24,28,01,20,14,,1.35,0.70,1.15*0C
$GPRMC,230039.2,A,4916.4367,N,12311.1466,W,0.00,227.77,200614,018.2,E*77
$YXXDR,A,5.4,D,PTCH,A,-0.1,D,ROLL*70
$HCHDG,253.2,0.0,E,,*2F
$YXXDR,A,5.4,D,PTCH,A,0.0,D,ROLL*5C
$GPRMC,230039.4,A,4916.4367,N,12311.1466,W,0.00,227.77,200614,018.2,E*71
$HCHDG,253.2,0.0,E,,*2F
$YXXDR,A,5.4,D,PTCH,A,0.0,D,ROLL*5C
$HCHDG,253.3,0.0,E,,*2E
$YXXDR,A,5.4,D,PTCH,A,0.1,D,ROLL*5D
$TIROT,17.6,A*0B
$GPRMC,230039.6,A,4916.4367,N,12311.1466,W,0.00,227.77,200614,018.2,E*73
$HCHDG,253.3,0.0,E,,*2E
$YXXDR,A,5.4,D,PTCH,A,0.2,D,ROLL*5E
$HCHDG,253.4,0.0,E,,*29
$YXXDR,A,5.4,D,PTCH,A,0.2,D,ROLL*5E
$IIMWV,005,R,05.7,N,A*14
$GPRMC,230039.8,A,4916.4367,N,12311.1466,W,0.00,227.77,200614,018.2,E*7D
$HCHDG,253.1,0.0,E,,*2C
$YXXDR,A,5.4,D,PTCH,A,0.2,D,ROLL*5E
$IIMWV,003,T,05.6,N,A*15
$IIVHW,,,,,00.0,N,,*19
$HCHDG,253.2,0.0,E,,*2F
$IIVLW,06814,N,029.0,N*53
$YXXDR,A,5.4,D,PTCH,A,0.4,D,ROLL*58
$IIVWR,005,R,05.7,N,,,,*66
$GPGSV,4,1,13,17,60,061,37,24,55,286,31,04,40,143,35,06,34,154,30*77
$GPGSV,4,2,13,51,31,159,28,12,24,287,28,28,23,096,29,02,12,180,17*7F
$GPGSV,4,3,13,15,11,236,32,01,10,033,32,14,06,337,27,20,05,064,25*7C
$GPGSV,4,4,13,32,02,027,*4D
$HCHDG,253.2,0.0,E,,*2F
$GPRMC,230040.0,A,4916.4367,N,12311.1466,W,0.00,227.77,200614,018.2,E*7B
$YXXDR,A,5.4,D,PTCH,A,0.5,D,ROLL*59
$IIMTW,+14.0,C*3D
$HCHDG,253.4,0.0,E,,*29
$YXXDR,A,5.4,D,PTCH,A,0.7,D,ROLL*5B
$HCHDG,253.5,0.0,E,,*28
$GPGGA,230040.200,4916.4367,N,12311.1466,W,2,11,0.70,-5.7,M,-16.8,M,0000,0000*79
$GPGSA,A,3,02,12,06,04,17,15,24,28,01,20,14,,1.35,0.70,1.15*0C
$GPRMC,230040.2,A,4916.4367,N,12311.1466,W,0.00,227.77,200614,018.2,E*79
$YXXDR,A,5.4,D,PTCH,A,0.7,D,ROLL*5B
$HCHDG,253.6,0.0,E,,*2B
$YXXDR,A,5.5,D,PTCH,A,0.8,D,ROLL*55
$GPRMC,230040.4,A,4916.4367,N,12311.1466,W,0.00,227.77,200614,018.2,E*7F
$HCHDG,253.7,0.0,E,,*2A
$YXXDR,A,5.6,D,PTCH,A,0.8,D,ROLL*56
$HCHDG,253.6,0.0,E,,*2B
$YXXDR,A,5.7,D,PTCH,A,0.8,D,ROLL*57
$TIROT,11.5,A*0E
$GPRMC,230040.6,A,4916.4367,N,12311.1466,W,0.00,227.77,200614,018.2,E*7D
$HCHDG,253.8,0.0,E,,*25
$YXXDR,A,5.7,D,PTCH,A,1.0,D,ROLL*5E
$HCHDG,253.7,0.0,E,,*2A
$YXXDR,A,5.7,D,PTCH,A,1.1,D,ROLL*5F
$IIMWV,010,R,05.7,N,A*10
$GPRMC,230040.8,A,4916.4367,N,12311.1466,W,0.00,227.77,200614,018.2,E*73
$HCHDG,253.7,0.0,E,,*2A
$YXXDR,A,5.5,D,PTCH,A,1.3,D,ROLL*5F
$IIMWV,005,T,05.7,N,A*12
$IIVHW,,,,,00.0,N,,*19
$HCHDG,253.7,0.0,E,,*2A
$YXXDR,A,5.5,D,PTCH,A,1.4,D,ROLL*58
$IIVLW,06814,N,029.0,N*53
$IIVWR,010,R,05.7,N,,,,*62
$HCHDG,253.5,0.0,E,,*28
$YXXDR,A,5.4,D,PTCH,A,1.6,D,ROLL*5B
$GPGSV,4,1,13,17,60,061,29,24,55,286,32,04,40,143,31,06,34,154,32*7D
$GPGSV,4,2,13,51,31,159,29,12,24,287,26,28,23,096,30,02,12,180,20*7C
$GPGSV,4,3,13,15,11,236,32,01,10,033,35,14,06,337,25,20,05,064,26*7A
$GPGSV,4,4,13,32,02,027,*4D
$GPRMC,230041.0,A,4916.4367,N,12311.1466,W,0.00,227.77,200614,018.2,E*7A
$IIMTW,+14.0,C*3D
$HCHDG,253.4,0.0,E,,*29
$YXXDR,A,5.4,D,PTCH,A,1.8,D,ROLL*55
$HCHDG,253.5,0.0,E,,*28
$GPGGA,230041.200,4916.4367,N,12311.1466,W,2,11,0.70,-5.7,M,-16.8,M,0000,0000*78
$YXXDR,A,5.5,D,PTCH,A,2.0,D,ROLL*5F
$GPGSA,A,3,02,12,06,04,17,15,24,28,01,20,14,,1.35,0.70,1.15*0C
$GPRMC,230041.2,A,4916.4367,N,12311.1466,W,0.00,227.77,200614,018.2,E*78
$HCHDG,253.4,0.0,E,,*29
$YXXDR,A,5.4,D,PTCH,A,2.3,D,ROLL*5D
$GPRMC,230041.4,A,4916.4367,N,12311.1466,W,0.00,227.77,200614,018.2,E*7E
$HCHDG,253.5,0.0,E,,*28
$YXXDR,A,5.6,D,PTCH,A,2.6,D,ROLL*5A
$HCHDG,253.6,0.0,E,,*2B
$YXXDR,A,5.7,D,PTCH,A,2.7,D,ROLL*5A
$TIROT,12.6,A*0E
$GPRMC,230041.6,A,4916.4367,N,12311.1466,W,0.00,227.77,200614,018.2,E*7C
$HCHDG,253.7,0.0,E,,*2A
$YXXDR,A,5.6,D,PTCH,A,2.6,D,ROLL*5A
$HCHDG,253.6,0.0,E,,*2B
$YXXDR,A,5.6,D,PTCH,A,2.4,D,ROLL*58
$IIMWV,014,R,05.8,N,A*1B
$GPRMC,230041.8,A,4916.4367,N,12311.1466,W,0.00,227.77,200614,018.2,E*72
$IIMWV,010,T,05.7,N,A*16
$HCHDG,253.7,0.0,E,,*2A
$YXXDR,A,5.5,D,PTCH,A,2.2,D,ROLL*5D
$IIVHW,,,,,00.0,N,,*19
$HCHDG,253.7,0.0,E,,*2A
$YXXDR,A,5.6,D,PTCH,A,2.0,D,ROLL*5C
$IIVLW,06814,N,029.0,N*53
$IIVWR,014,R,05.8,N,,,,*69
$GPGSV,4,1,13,17,60,061,31,24,55,286,30,04,40,143,38,06,34,154,24*78
$GPGSV,4,2,13,51,31,159,33,12,24,287,25,28,23,096,26,02,12,180,18*78
$HCHDG,253.7,0.0,E,,*2A
$GPGSV,4,3,13,15,11,236,32,01,10,033,32,14,06,337,26,20,05,064,29*71
$GPGSV,4,4,13,32,02,027,*4D
$GPRMC,230042.0,A,4916.4367,N,12311.1466,W,0.00,227.77,200614,018.2,E*79
$YXXDR,A,5.6,D,PTCH,A,1.8,D,ROLL*57
$IIMTW,+14.0,C*3D
$HCHDG,253.7,0.0,E,,*2A
$YXXDR,A,5.4,D,PTCH,A,1.8,D,ROLL*55
$GPGGA,230042.200,4916.4367,N,12311.1466,W,2,11,0.70,-5.7,M,-16.8,M,0000,0000*7B
$GPGSA,A,3,02,12,06,04,17,15,24,28,01,20,14,,1.35,0.70,1.15*0C
$GPRMC,230042.2,A,4916.4367,N,12311.1466,W,0.00,227.77,200614,018.2,E*7B
$HCHDG,253.7,0.0,E,,*2A
$YXXDR,A,5.4,D,PTCH,A,1.7,D,ROLL*5A
$HCHDG,253.6,0.0,E,,*2B
$YXXDR,A,5.4,D,PTCH,A,1.7,D,ROLL*5A
$GPRMC,230042.4,A,4916.4367,N,12311.1466,W,0.00,227.77,200614,018.2,E*7D
$HCHDG,253.6,0.0,E,,*2B
$YXXDR,A,5.5,D,PTCH,A,1.7,D,ROLL*5B
$HCHDG,253.5,0.0,E,,*28
$YXXDR,A,5.5,D,PTCH,A,1.7,D,ROLL*5B
$TIROT,-19.3,A*2D
$GPRMC,230042.6,A,4916.4367,N,12311.1466,W,0.00,227.77,200614,018.2,E*7F
$HCHDG,253.5,0.0,E,,*28
$YXXDR,A,5.5,D,PTCH,A,1.7,D,ROLL*5B
$HCHDG,253.6,0.0,E,,*2B
$YXXDR,A,5.6,D,PTCH,A,1.5,D,ROLL*5A
$IIMWV,015,R,05.8,N,A*1A
$GPRMC,230042.8,A,4916.4367,N,12311.1466,W,0.00,227.77,200614,018.2,E*71
$IIMWV,014,T,05.8,N,A*1D
$HCHDG,253.4,0.0,E,,*29
$YXXDR,A,5.7,D,PTCH,A,1.4,D,ROLL*5A
$IIVHW,,,,,00.0,N,,*19
$IIVLW,06814,N,029.0,N*53
$HCHDG,253.5,0.0,E,,*28
$YXXDR,A,5.8,D,PTCH,A,0.9,D,ROLL*59
$IIVWR,015,R,05.8,N,,,,*68
$GPGSV,4,1,13,17,60,061,34,24,55,286,34,04,40,143,38,06,34,154,35*79
$GPGSV,4,2,13,51,31,159,36,12,24,287,30,28,23,096,23,02,12,180,18*7C
$GPGSV,4,3,13,15,11,236,32,01,10,033,29,14,06,337,27,20,05,064,31*73
$GPGSV,4,4,13,32,02,027,*4D
$GPRMC,230043.0,A,4916.4367,N,12311.1466,W,0.00,227.77,200614,018.2,E*78
$HCHDG,253.7,0.0,E,,*2A
$YXXDR,A,5.8,D,PTCH,A,0.5,D,ROLL*55
$IIMTW,+14.0,C*3D
$HCHDG,253.9,0.0,E,,*24
$YXXDR,A,5.6,D,PTCH,A,0.5,D,ROLL*5B
$HCHDG,253.9,0.0,E,,*24
$GPGGA,230043.200,4916.4367,N,12311.1466,W,2,11,0.70,-5.7,M,-16.8,M,0000,0000*7A
$GPGSA,A,3,02,12,06,04,17,15,24,28,01,20,14,,1.35,0.70,1.15*0C
$GPRMC,230043.2,A,4916.4367,N,12311.1466,W,0.00,227.77,200614,018.2,E*7A
$YXXDR,A,5.6,D,PTCH,A,0.5,D,ROLL*5B
$HCHDG,253.9,0.0,E,,*24
$YXXDR,A,5.6,D,PTCH,A,0.8,D,ROLL*56
$GPRMC,230043.4,A,4916.4367,N,12311.1466,W,0.00,227.77,200614,018.2,E*7C
$HCHDG,253.9,0.0,E,,*24
$YXXDR,A,5.6,D,PTCH,A,0.8,D,ROLL*56
$HCHDG,253.9,0.0,E,,*24
$YXXDR,A,5.7,D,PTCH,A,0.8,D,ROLL*57
$TIROT,17.6,A*0B
$GPRMC,230043.6,A,4916.4367,N,12311.1466,W,0.00,227.77,200614,018.2,E*7E
$HCHDG,254.0,0.0,E,,*2A
$YXXDR,A,5.7,D,PTCH,A,1.0,D,ROLL*5E
$HCHDG,254.0,0.0,E,,*2A
$YXXDR,A,5.6,D,PTCH,A,1.0,D,ROLL*5F
$IIMWV,019,R,06.2,N,A*1F
$GPRMC,230043.8,A,4916.4367,N,12311.1466,W,0.00,227.77,200614,018.2,E*70
$HCHDG,254.1,0.0,E,,*2B
$YXXDR,A,5.7,D,PTCH,A,1.0,D,ROLL*5E
$IIMWV,015,T,05.8,N,A*1C
$IIVHW,,,,,00.0,N,,*19
$HCHDG,254.2,0.0,E,,*28
$IIVLW,06814,N,029.0,N*53
$YXXDR,A,5.6,D,PTCH,A,1.0,D,ROLL*5F
$IIVWR,019,R,06.2,N,,,,*6D
$GPGSV,4,1,13,17,60,061,38,24,55,286,33,04,40,143,28,06,34,154,31*77
$HCHDG,254.3,0.0,E,,*29
$GPGSV,4,2,13,51,31,159,34,12,24,287,22,28,23,096,30,02,12,180,17*70
$GPGSV,4,3,13,15,11,236,26,01,10,033,35,14,06,337,,20,05,064,32*7D
$GPGSV,4,4,13,32,02,027,*4D
$GPRMC,230044.0,A,4916.4367,N,12311.1466,W,0.00,227.77,200614,018.2,E*7F
$YXXDR,A,5.7,D,PTCH,A,1.0,D,ROLL*5E
$IIMTW,+14.0,C*3D
$HCHDG,254.2,0.0,E,,*28
$YXXDR,A,5.7,D,PTCH,A,1.0,D,ROLL*5E
$HCHDG,254.2,0.0,E,,*28
$GPGGA,230044.200,4916.4367,N,12311.1466,W,2,10,0.77,-5.7,M,-16.8,M,0000,0000*7B
$YXXDR,A,5.6,D,PTCH,A,1.0,D,ROLL*5F
$GPGSA,A,3,02,12,06,04,17,15,24,28,01,20,,,1.44,0.77,1.21*0F
$GPRMC,230044.2,A,4916.4367,N,12311.1466,W,0.00,227.77,200614,018.2,E*7D
$HCHDG,254.3,0.0,E,,*29
$YXXDR,A,5.6,D,PTCH,A,1.2,D,ROLL*5D
$GPRMC,230044.4,A,4916.4367,N,12311.1466,W,0.00,227.77,200614,018.2,E*7B
$HCHDG,254.3,0.0,E,,*29
$YXXDR,A,5.6,D,PTCH,A,1.4,D,ROLL*5B
$HCHDG,254.3,0.0,E,,*29
$YXXDR,A,5.5,D,PTCH,A,1.7,D,ROLL*5B
$TIROT,-23.0,A*27
$GPRMC,230044.6,A,4916.4367,N,12311.1466,W,0.00,227.77,200614,018.2,E*79
$HCHDG,254.1,0.0,E,,*2B
$YXXDR,A,5.6,D,PTCH,A,1.8,D,ROLL*57
$HCHDG,254.1,0.0,E,,*2B
$YXXDR,A,5.6,D,PTCH,A,1.9,D,ROLL*56
$IIMWV,023,R,06.6,N,A*12
$GPRMC,230044.8,A,4916.4367,N,12311.1466,W,0.00,227.77,200614,018.2,E*77
$IIMWV,019,T,06.2,N,A*19
$HCHDG,254.1,0.0,E,,*2B
$YXXDR,A,5.6,D,PTCH,A,2.2,D,ROLL*5E
$IIVHW,,,,,00.0,N,,*19
$HCHDG,254.1,0.0,E,,*2B
$IIVLW,06814,N,029.0,N*53
$YXXDR,A,5.8,D,PTCH,A,3.4,D,ROLL*57
$IIVWR,023,R,06.6,N,,,,*60
$GPGSV,4,1,13,17,60,061,37,24,55,286,27,04,40,143,33,06,34,154,37*71
$GPGSV,4,2,13,51,31,159,32,12,24,287,31,28,23,096,25,02,12,180,20*74
$GPGSV,4,3,13,15,11,236,27,01,10,033,27,14,06,337,,20,05,064,32*7F
$GPGSV,4,4,13,32,02,027,*4D
$GPRMC,230045.0,A,4916.4367,N,12311.1466,W,0.00,227.77,200614,018.2,E*7E
$HCHDG,254.1,0.0,E,,*2B
$YXXDR,A,5.8,D,PTCH,A,3.3,D,ROLL*50
$IIMTW,+14.0,C*3D
$HCHDG,254.1,0.0,E,,*2B
$YXXDR,A,5.9,D,PTCH,A,3.1,D,ROLL*53
$GPGGA,230045.200,4916.4367,N,12311.1466,W,2,10,0.77,-5.7,M,-16.8,M,0000,0000*7A
$GPGSA,A,3,02,12,06,04,17,15,24,28,01,20,,,1.44,0.77,1.21*0F
$GPRMC,230045.2,A,4916.4367,N,12311.1466,W,0.00,227.77,200614,018.2,E*7C
$HCHDG,254.0,0.0,E,,*2A
$YXXDR,A,5.9,D,PTCH,A,3.1,D,ROLL*53
$HCHDG,254.0,0.0,E,,*2A
$YXXDR,A,5.8,D,PTCH,A,2.9,D,ROLL*5B
$GPRMC,230045.4,A,4916.4367,N,12311.1466,W,0.00,227.77,200614,018.2,E*7A
$HCHDG,253.9,0.0,E,,*24
$YXXDR,A,5.7,D,PTCH,A,2.5,D,ROLL*58
$HCHDG,253.8,0.0,E,,*25
$YXXDR,A,5.8,D,PTCH,A,2.4,D,ROLL*56
$TIROT,-36.1,A*22
$GPRMC,230045.6,A,4916.4367,N,12311.1466,W,0.00,227.77,200614,018.2,E*78
$HCHDG,253.8,0.0,E,,*25
$YXXDR,A,5.6,D,PTCH,A,2.2,D,ROLL*5E
$HCHDG,253.8,0.0,E,,*25
$YXXDR,A,5.6,D,PTCH,A,2.0,D,ROLL*5C
$IIMWV,021,R,07.1,N,A*16
$GPRMC,230045.8,A,4916.4367,N,12311.1466,W,0.00,227.77,200614,018.2,E*76
$IIMWV,023,T,06.6,N,A*14
$HCHDG,253.8,0.0,E,,*25
$YXXDR,A,5.6,D,PTCH,A,1.8,D,ROLL*57
$IIVHW,,,,,00.0,N,,*19
$HCHDG,253.7,0.0,E,,*2A
$IIVLW,06814,N,029.0,N*53
$YXXDR,A,5.4,D,PTCH,A,1.8,D,ROLL*55
$IIVWR,021,R,07.1,N,,,,*64
$GPGSV,4,1,13,17,60,061,35,24,55,286,31,04,40,143,36,06,34,154,30*76
$HCHDG,253.6,0.0,E,,*2B
$GPGSV,4,2,13,51,31,159,33,12,24,287,28,28,23,096,30,02,12,180,20*79
$GPGSV,4,3,13,15,11,236,29,01,10,033,31,14,06,337,,20,05,064,34*70
$GPGSV,4,4,13,32,02,027,*4D
$GPRMC,230046.0,A,4916.4367,N,12311.1466,W,0.00,227.77,200614,018.2,E*7D
$YXXDR,A,5.4,D,PTCH,A,1.8,D,ROLL*55
$IIMTW,+14.0,C*3D
$HCHDG,253.6,0.0,E,,*2B
$YXXDR,A,5.5,D,PTCH,A,1.5,D,ROLL*59
$GPGGA,230046.200,4916.4367,N,12311.1466,W,2,10,0.77,-5.7,M,-16.8,M,0000,0000*79
$GPGSA,A,3,02,12,06,04,17,15,24,28,01,20,,,1.44,0.77,1.21*0F
$HCHDG,253.5,0.0,E,,*28
$GPRMC,230046.2,A,4916.4367,N,12311.1466,W,0.00,227.77,200614,018.2,E*7F
$YXXDR,A,5.5,D,PTCH,A,1.3,D,ROLL*5F
$HCHDG,253.5,0.0,E,,*28
$YXXDR,A,5.5,D,PTCH,A,1.2,D,ROLL*5E
$GPRMC,230046.4,A,4916.4367,N,12311.1466,W,0.00,227.77,200614,018.2,E*79
$HCHDG,253.5,0.0,E,,*28
$YXXDR,A,5.6,D,PTCH,A,1.0,D,ROLL*5F
$HCHDG,253.5,0.0,E,,*28
$YXXDR,A,5.7,D,PTCH,A,1.0,D,ROLL*5E
$TIROT,-17.6,A*26
$GPRMC,230046.6,A,4916.4367,N,12311.1466,W,0.00,227.77,200614,018.2,E*7B
$HCHDG,253.6,0.0,E,,*2B
$YXXDR,A,5.7,D,PTCH,A,0.8,D,ROLL*57
$HCHDG,253.5,0.0,E,,*28
$YXXDR,A,5.7,D,PTCH,A,0.8,D,ROLL*57
$IIMWV,017,R,07.1,N,A*13
$GPRMC,230046.8,A,4916.4367,N,12311.1466,W,0.00,227.77,200614,018.2,E*75
$HCHDG,253.5,0.0,E,,*28
$YXXDR,A,5.7,D,PTCH,A,0.6,D,ROLL*59
$IIMWV,021,T,07.1,N,A*10
$IIVHW,,,,,00.0,N,,*19
$HCHDG,253.5,0.0,E,,*28
$IIVLW,06814,N,029.0,N*53
$YXXDR,A,5.8,D,PTCH,A,0.4,D,ROLL*54
$IIVWR,017,R,07.1,N,,,,*61
$GPGSV,4,1,13,17,60,061,39,24,55,286,29,04,40,143,36,06,34,154,35*76
$HCHDG,253.5,0.0,E,,*28
$GPGSV,4,2,13,51,31,159,33,12,24,287,28,28,23,096,34,02,12,180,18*76
$GPGSV,4,3,13,15,11,236,31,01,10,033,30,14,06,337,,20,05,064,34*78
$GPGSV,4,4,13,32,02,027,*4D
$GPRMC,230047.0,A,4916.4367,N,12311.1466,W,0.00,227.77,200614,018.2,E*7C
$YXXDR,A,5.7,D,PTCH,A,0.2,D,ROLL*5D
$IIMTW,+14.0,C*3D
$HCHDG,253.5,0.0,E,,*28
$YXXDR,A,5.6,D,PTCH,A,0.3,D,ROLL*5D
$HCHDG,253.5,0.0,E,,*28
$GPGGA,230047.200,4916.4367,N,12311.1466,W,2,10,0.77,-5.7,M,-16.8,M,0000,0000*78
$GPGSA,A,3,02,12,06,04,17,15,24,28,01,20,,,1.44,0.77,1.21*0F
$GPRMC,230047.2,A,4916.4367,N,12311.1466,W,0.00,227.77,200614,018.2,E*7E
$YXXDR,A,5.6,D,PTCH,A,0.2,D,ROLL*5C
$HCHDG,253.5,0.0,E,,*28
$YXXDR,A,5.5,D,PTCH,A,0.0,D,ROLL*5D
$GPRMC,230047.4,A,4916.4367,N,12311.1466,W,0.00,227.77,200614,018.2,E*78
$HCHDG,253.5,0.0,E,,*28
$YXXDR,A,5.5,D,PTCH,A,0.0,D,ROLL*5D
$HCHDG,253.6,0.0,E,,*2B
$YXXDR,A,5.5,D,PTCH,A,0.0,D,ROLL*5D
$TIROT,23.5,A*0F
$GPRMC,230047.6,A,4916.4367,N,12311.1466,W,0.00,227.77,200614,018.2,E*7A
$HCHDG,253.8,0.0,E,,*25
$YXXDR,A,5.5,D,PTCH,A,0.1,D,ROLL*5C
$HCHDG,253.7,0.0,E,,*2A
$YXXDR,A,5.5,D,PTCH,A,0.3,D,ROLL*5E
$IIMWV,016,R,06.9,N,A*1B
$GPRMC,230047.8,A,4916.4367,N,12311.1466,W,0.00,227.77,200614,018.2,E*74
$HCHDG,253.7,0.0,E,,*2A
$YXXDR,A,5.6,D,PTCH,A,0.3,D,ROLL*5D
$IIMWV,017,T,07.1,N,A*15
$IIVHW,,,,,00.0,N,,*19
$HCHDG,253.8,0.0,E,,*25
$IIVLW,06814,N,029.0,N*53
$YXXDR,A,5.5,D,PTCH,A,0.4,D,ROLL*59
$IIVWR,016,R,06.9,N,,,,*69
$GPGSV,4,1,13,17,60,061,39,24,55,286,25,04,40,143,30,06,34,154,37*7E
$HCHDG,253.8,0.0,E,,*25
$GPGSV,4,2,13,51,31,159,31,12,24,287,29,28,23,096,36,02,12,180,17*78
$GPGSV,4,3,13,15,11,236,32,01,10,033,30,14,06,337,,20,05,064,34*7B
$GPGSV,4,4,13,32,02,027,*4D
$GPRMC,230048.0,A,4916.4367,N,12311.1466,W,0.00,227.77,200614,018.2,E*73
$YXXDR,A,5.5,D,PTCH,A,0.4,D,ROLL*59
$IIMTW,+14.0,C*3D
$HCHDG,253.9,0.0,E,,*24
$YXXDR,A,5.6,D,PTCH,A,0.4,D,ROLL*5A
$HCHDG,254.0,0.0,E,,*2A
$GPGGA,230048.200,4916.4367,N,12311.1466,W,2,10,0.77,-5.7,M,-16.8,M,0000,0000*77
$GPGSA,A,3,02,12,06,04,17,15,24,28,01,20,,,1.44,0.77,1.21*0F
$YXXDR,A,5.6,D,PTCH,A,0.5,D,ROLL*5B
$GPRMC,230048.2,A,4916.4367,N,12311.1466,W,0.00,227.77,200614,018.2,E*71
$HCHDG,254.0,0.0,E,,*2A
$YXXDR,A,5.8,D,PTCH,A,0.5,D,ROLL*55
$GPRMC,230048.4,A,4916.4367,N,12311.1466,W,0.00,227.77,200614,018.2,E*77
$HCHDG,254.1,0.0,E,,*2B
$YXXDR,A,5.7,D,PTCH,A,0.6,D,ROLL*59
$HCHDG,254.1,0.0,E,,*2B
$YXXDR,A,5.5,D,PTCH,A,0.8,D,ROLL*55
$TIROT,17.8,A*05
$GPRMC,230048.6,A,4916.4367,N,12311.1466,W,0.00,227.77,200614,018.2,E*75
$HCHDG,254.1,0.0,E,,*2B
$YXXDR,A,5.5,D,PTCH,A,0.8,D,ROLL*55
$HCHDG,254.2,0.0,E,,*28
$YXXDR,A,5.4,D,PTCH,A,1.2,D,ROLL*5F
$IIMWV,015,R,06.8,N,A*19
$GPRMC,230048.8,A,4916.4367,N,12311.1466,W,0.00,227.77,200614,018.2,E*7B
$HCHDG,254.3,0.0,E,,*29
$YXXDR,A,5.4,D,PTCH,A,1.2,D,ROLL*5F
$IIMWV,016,T,06.9,N,A*1D
$IIVHW,,,,,00.0,N,,*19
$HCHDG,254.1,0.0,E,,*2B
$IIVLW,06814,N,029.0,N*53
$YXXDR,A,5.5,D,PTCH,A,1.3,D,ROLL*5F
$IIVWR,015,R,06.8,N,,,,*6B
$GPGSV,4,1,13,17,60,061,37,24,55,286,29,04,40,143,31,06,34,154,38*72
$HCHDG,254.0,0.0,E,,*2A
$GPGSV,4,2,13,51,31,159,33,12,24,287,28,28,23,096,39,02,12,180,17*74
$GPGSV,4,3,13,15,11,236,33,01,10,033,22,14,06,337,,20,05,064,34*79
$GPGSV,4,4,13,32,02,027,*4D
$GPRMC,230049.0,A,4916.4367,N,12311.1466,W,0.00,227.77,200614,018.2,E*72
$YXXDR,A,5.4,D,PTCH,A,1.4,D,ROLL*59
$IIMTW,+14.0,C*3D
$HCHDG,254.3,0.0,E,,*29
$YXXDR,A,5.8,D,PTCH,A,1.7,D,ROLL*56
$GPGGA,230049.200,4916.4367,N,12311.1466,W,2,11,0.70,-5.7,M,-16.8,M,0000,0000*70
$GPGSA,A,3,02,12,06,04,17,15,24,28,01,20,14,,1.35,0.70,1.15*0C
$HCHDG,254.3,0.0,E,,*29
$GPRMC,230049.2,A,4916.4367,N,12311.1466,W,0.00,227.77,200614,018.2,E*70
$YXXDR,A,5.8,D,PTCH,A,1.6,D,ROLL*57
$HCHDG,254.2,0.0,E,,*28
$YXXDR,A,5.8,D,PTCH,A,1.6,D,ROLL*57
$GPRMC,230049.4,A,4916.4367,N,12311.1466,W,0.00,227.77,200614,018.2,E*76
$HCHDG,254.3,0.0,E,,*29
$YXXDR,A,5.8,D,PTCH,A,1.7,D,ROLL*56
$HCHDG,254.3,0.0,E,,*29
$YXXDR,A,5.8,D,PTCH,A,1.5,D,ROLL*54
$TIROT,-17.6,A*26
$GPRMC,230049.6,A,4916.4367,N,12311.1466,W,0.00,227.77,200614,018.2,E*74
$HCHDG,254.3,0.0,E,,*29
$YXXDR,A,5.8,D,PTCH,A,1.4,D,ROLL*55
$HCHDG,254.3,0.0,E,,*29
$YXXDR,A,5.7,D,PTCH,A,1.4,D,ROLL*5A
$IIMWV,012,R,06.8,N,A*1E
$GPRMC,230049.8,A,4916.4367,N,12311.1466,W,0.00,227.77,200614,018.2,E*7A
$HCHDG,254.3,0.0,E,,*29
$IIMWV,015,T,06.8,N,A*1F
$YXXDR,A,5.6,D,PTCH,A,1.2,D,ROLL*5D
$IIVHW,,,,,00.0,N,,*19
$HCHDG,254.4,0.0,E,,*2E
$IIVLW,06814,N,029.0,N*53
$YXXDR,A,5.6,D,PTCH,A,1.2,D,ROLL*5D
$IIVWR,012,R,06.8,N,,,,*6C
$GPGSV,4,1,13,17,60,061,38,24,55,285,26,04,40,143,32,06,34,154,38*72
$GPGSV,4,2,13,51,31,159,34,12,24,287,27,28,23,096,38,02,12,180,19*73
$GPGSV,4,3,13,15,11,236,33,01,10,033,23,14,06,337,26,20,05,064,34*7C
$GPGSV,4,4,13,32,02,027,*4D
$GPRMC,230050.0,A,4916.4367,N,12311.1466,W,0.00,227.77,200614,018.2,E*7A
$HCHDG,254.4,0.0,E,,*2E
$YXXDR,A,5.6,D,PTCH,A,1.2,D,ROLL*5D
$IIMTW,+14.0,C*3D
$HCHDG,254.4,0.0,E,,*2E
$YXXDR,A,5.5,D,PTCH,A,1.0,D,ROLL*5C
$HCHDG,254.4,0.0,E,,*2E
$GPGGA,230050.200,4916.4367,N,12311.1466,W,2,11,0.70,-5.7,M,-16.8,M,0000,0000*78
$GPGSA,A,3,02,12,06,04,17,15,24,28,01,20,14,,1.35,0.70,1.15*0C
$GPRMC,230050.2,A,4916.4367,N,12311.1466,W,0.00,227.77,200614,018.2,E*78
$YXXDR,A,5.7,D,PTCH,A,0.6,D,ROLL*59
$HCHDG,254.3,0.0,E,,*29
$YXXDR,A,5.6,D,PTCH,A,0.5,D,ROLL*5B
$GPRMC,230050.4,A,4916.4367,N,12311.1466,W,0.00,227.77,200614,018.2,E*7E
$HCHDG,254.2,0.0,E,,*28
$YXXDR,A,5.9,D,PTCH,A,0.0,D,ROLL*51
$HCHDG,254.2,0.0,E,,*28
$YXXDR,A,6.0,D,PTCH,A,0.0,D,ROLL*5B
$TIROT,-64.7,A*23
$GPRMC,230050.6,A,4916.4367,N,12311.1466,W,0.00,227.77,200614,018.2,E*7C
$HCHDG,254.2,0.0,E,,*28
$YXXDR,A,5.9,D,PTCH,A,0.0,D,ROLL*51
$HCHDG,254.1,0.0,E,,*2B
$YXXDR,A,5.8,D,PTCH,A,0.0,D,ROLL*50
$IIMWV,010,R,06.7,N,A*13
$GPRMC,230050.8,A,4916.4367,N,12311.1466,W,0.00,227.77,200614,018.2,E*72
$IIMWV,012,T,06.8,N,A*18
$HCHDG,254.1,0.0,E,,*2B
$YXXDR,A,5.8,D,PTCH,A,0.0,D,ROLL*50
$IIVHW,,,,,00.0,N,,*19
$IIVLW,06814,N,029.0,N*53
$HCHDG,253.9,0.0,E,,*24
$YXXDR,A,5.8,D,PTCH,A,0.0,D,ROLL*50
$IIVWR,010,R,06.7,N,,,,*61
$GPGSV,4,1,13,17,60,061,36,24,55,285,32,04,40,143,34,06,34,154,40*70
$GPGSV,4,2,13,51,31,159,37,12,24,287,34,28,23,096,34,02,12,180,18*7F
$GPGSV,4,3,13,15,11,236,34,01,10,033,32,14,06,337,22,20,05,064,33*78
$GPGSV,4,4,13,32,02,027,*4D
$GPRMC,230051.0,A,4916.4367,N,12311.1466,W,0.00,227.77,200614,018.2,E*7B
$HCHDG,253.9,0.0,E,,*24
$YXXDR,A,5.7,D,PTCH,A,0.4,D,ROLL*5B
$IIMTW,+14.0,C*3D
$HCHDG,253.9,0.0,E,,*24
$YXXDR,A,5.7,D,PTCH,A,0.4,D,ROLL*5B
$GPGGA,230051.200,4916.4367,N,12311.1466,W,2,11,0.70,-5.7,M,-16.8,M,0000,0000*79
$GPGSA,A,3,02,12,06,04,17,15,24,28,01,20,14,,1.35,0.70,1.15*0C
$GPRMC,230051.2,A,4916.4367,N,12311.1466,W,0.00,227.77,200614,018.2,E*79
$HCHDG,253.7,0.0,E,,*2A
$YXXDR,A,5.5,D,PTCH,A,0.4,D,ROLL*59
$HCHDG,253.7,0.0,E,,*2A
$YXXDR,A,5.5,D,PTCH,A,0.5,D,ROLL*58
$GPRMC,230051.4,A,4916.4367,N,12311.1466,W,0.00,227.77,200614,018.2,E*7F
$HCHDG,253.6,0.0,E,,*2B
$YXXDR,A,5.5,D,PTCH,A,0.5,D,ROLL*58
$HCHDG,253.6,0.0,E,,*2B
$YXXDR,A,5.5,D,PTCH,A,0.5,D,ROLL*58
$TIROT,-29.4,A*29
$GPRMC,230051.6,A,4916.4367,N,12311.1466,W,0.00,227.77,200614,018.2,E*7D
$HCHDG,253.5,0.0,E,,*28
$YXXDR,A,5.5,D,PTCH,A,0.7,D,ROLL*5A
$HCHDG,253.4,0.0,E,,*29
$YXXDR,A,5.6,D,PTCH,A,0.8,D,ROLL*56
$IIMWV,009,R,06.7,N,A*1B
$GPRMC,230051.8,A,4916.4367,N,12311.1466,W,0.00,227.77,200614,018.2,E*73
$IIMWV,010,T,06.7,N,A*15
$HCHDG,253.3,0.0,E,,*2E
$YXXDR,A,5.7,D,PTCH,A,1.0,D,ROLL*5E
$IIVHW,,,,,00.0,N,,*19
$HCHDG,253.3,0.0,E,,*2E
$IIVLW,06814,N,029.0,N*53
$YXXDR,A,5.6,D,PTCH,A,1.2,D,ROLL*5D
$IIVWR,009,R,06.7,N,,,,*69
$GPGSV,4,1,13,17,60,061,30,24,55,285,28,04,40,143,35,06,34,154,37*7C
$GPGSV,4,2,13,51,31,159,36,12,24,287,27,28,23,096,34,02,12,180,19*7D
$HCHDG,253.4,0.0,E,,*29
$GPGSV,4,3,13,15,11,236,34,01,10,033,32,14,06,337,24,20,05,064,34*79
$GPGSV,4,4,13,32,02,027,*4D
$YXXDR,A,5.6,D,PTCH,A,1.4,D,ROLL*5B
$GPRMC,230052.0,A,4916.4367,N,12311.1466,W,0.00,227.77,200614,018.2,E*78
$IIMTW,+14.0,C*3D
$HCHDG,253.4,0.0,E,,*29
$YXXDR,A,5.6,D,PTCH,A,1.7,D,ROLL*58
$GPGGA,230052.200,4916.4367,N,12311.1466,W,2,11,0.70,-5.7,M,-16.8,M,0000,0000*7A
$HCHDG,253.7,0.0,E,,*2A
$GPGSA,A,3,02,12,06,04,17,15,24,28,01,20,14,,1.35,0.70,1.15*0C
$GPRMC,230052.2,A,4916.4367,N,12311.1466,W,0.00,227.77,200614,018.2,E*7A
$YXXDR,A,5.6,D,PTCH,A,2.0,D,ROLL*5C
$HCHDG,253.6,0.0,E,,*2B
$YXXDR,A,5.7,D,PTCH,A,2.4,D,ROLL*59
$GPRMC,230052.4,A,4916.4367,N,12311.1466,W,0.00,227.77,200614,018.2,E*7C
$HCHDG,253.5,0.0,E,,*28
$YXXDR,A,5.7,D,PTCH,A,2.5,D,ROLL*58
$HCHDG,253.6,0.0,E,,*2B
$YXXDR,A,5.9,D,PTCH,A,2.7,D,ROLL*54
$TIROT,-10.8,A*2F
$GPRMC,230052.6,A,4916.4367,N,12311.1466,W,0.00,227.77,200614,018.2,E*7E
$HCHDG,253.5,0.0,E,,*28
$YXXDR,A,5.8,D,PTCH,A,2.9,D,ROLL*5B
$HCHDG,253.5,0.0,E,,*28
$YXXDR,A,5.8,D,PTCH,A,3.0,D,ROLL*53
$IIMWV,011,R,06.4,N,A*11
$GPRMC,230052.8,A,4916.4367,N,12311.1466,W,0.00,227.77,200614,018.2,E*70
$IIMWV,009,T,06.7,N,A*1D
$HCHDG,253.5,0.0,E,,*28
$YXXDR,A,5.7,D,PTCH,A,3.3,D,ROLL*5F
$IIVHW,,,,,00.0,N,,*19
$HCHDG,253.4,0.0,E,,*29
$IIVLW,06814,N,029.0,N*53
$YXXDR,A,5.7,D,PTCH,A,3.5,D,ROLL*59
$IIVWR,011,R,06.4,N,,,,*63
$HCHDG,253.5,0.0,E,,*28
$GPGSV,4,1,13,17,60,061,29,24,55,285,26,04,40,143,31,06,34,154,38*71
$GPGSV,4,2,13,51,31,159,30,12,24,287,29,28,23,096,31,02,12,180,19*70
$GPGSV,4,3,13,15,11,236,28,01,10,033,31,14,06,337,25,20,05,064,31*73
$GPGSV,4,4,13,32,02,027,*4D
$GPRMC,230053.0,A,4916.4367,N,12311.1466,W,0.00,227.77,200614,018.2,E*79
$YXXDR,A,5.7,D,PTCH,A,3.8,D,ROLL*54
$IIMTW,+14.0,C*3D
$HCHDG,253.5,0.0,E,,*28
$YXXDR,A,5.8,D,PTCH,A,3.9,D,ROLL*5A
$HCHDG,253.5,0.0,E,,*28
$GPGGA,230053.200,4916.4367,N,12311.1466,W,2,11,0.70,-5.7,M,-16.8,M,0000,0000*7B
$YXXDR,A,5.7,D,PTCH,A,4.1,D,ROLL*5A
$GPGSA,A,3,02,12,06,04,17,15,24,28,01,20,14,,1.35,0.70,1.15*0C
$GPRMC,230053.2,A,4916.4367,N,12311.1466,W,0.00,227.77,200614,018.2,E*7B
$HCHDG,253.4,0.0,E,,*29
$YXXDR,A,5.7,D,PTCH,A,4.1,D,ROLL*5A
$GPRMC,230053.4,A,4916.4367,N,12311.1466,W,0.00,227.77,200614,018.2,E*7D
$HCHDG,253.4,0.0,E,,*29
$YXXDR,A,5.8,D,PTCH,A,4.0,D,ROLL*54
$HCHDG,253.4,0.0,E,,*29
$YXXDR,A,5.7,D,PTCH,A,3.8,D,ROLL*54
$TIROT,-9.5,A*1A
$GPRMC,230053.6,A,4916.4367,N,12311.1466,W,0.00,227.77,200614,018.2,E*7F
$HCHDG,253.4,0.0,E,,*29
$YXXDR,A,5.8,D,PTCH,A,3.6,D,ROLL*55
$HCHDG,253.3,0.0,E,,*2E
$YXXDR,A,5.8,D,PTCH,A,3.5,D,ROLL*56
$IIMWV,007,R,06.4,N,A*16
$GPRMC,230053.8,A,4916.4367,N,12311.1466,W,0.00,227.77,200614,018.2,E*71
$HCHDG,253.3,0.0,E,,*2E
$YXXDR,A,5.7,D,PTCH,A,3.4,D,ROLL*58
$IIMWV,011,T,06.4,N,A*17
$IIVHW,,,,,00.0,N,,*19
$HCHDG,253.2,0.0,E,,*2F
$IIVLW,06814,N,029.0,N*53
$YXXDR,A,5.8,D,PTCH,A,3.0,D,ROLL*53
$IIVWR,007,R,06.4,N,,,,*64
$GPGSV,4,1,13,17,60,061,34,24,55,285,34,04,40,143,29,06,34,154,38*77
$GPGSV,4,2,13,51,31,159,34,12,24,287,34,28,23,096,27,02,12,180,18*7E
$HCHDG,253.3,0.0,E,,*2E
$GPGSV,4,3,13,15,11,236,24,01,10,033,34,14,06,337,27,20,05,064,31*78
$GPGSV,4,4,13,32,02,027,*4D
$GPRMC,230054.0,A,4916.4367,N,12311.1466,W,0.00,227.77,200614,018.2,E*7E
$YXXDR,A,5.8,D,PTCH,A,3.0,D,ROLL*53
$IIMTW,+14.0,C*3D
$HCHDG,253.2,0.0,E,,*2F
$YXXDR,A,5.6,D,PTCH,A,3.0,D,ROLL*5D
$GPGGA,230054.200,4916.4367,N,12311.1466,W,2,11,0.70,-5.7,M,-16.8,M,0000,0000*7C
$GPGSA,A,3,02,12,06,04,17,15,24,28,01,20,14,,1.35,0.70,1.15*0C
$GPRMC,230054.2,A,4916.4367,N,12311.1466,W,0.00,227.77,200614,018.2,E*7C
$HCHDG,253.3,0.0,E,,*2E
$YXXDR,A,5.5,D,PTCH,A,2.8,D,ROLL*57
$HCHDG,253.4,0.0,E,,*29
$YXXDR,A,5.6,D,PTCH,A,2.7,D,ROLL*5B
$GPRMC,230054.4,A,4916.4367,N,12311.1466,W,0.00,227.77,200614,018.2,E*7A
$HCHDG,253.4,0.0,E,,*29
$YXXDR,A,5.5,D,PTCH,A,2.5,D,ROLL*5A
$HCHDG,253.5,0.0,E,,*28
$YXXDR,A,5.6,D,PTCH,A,2.3,D,ROLL*5F
$TIROT,34.4,A*08
$GPRMC,230054.6,A,4916.4367,N,12311.1466,W,0.00,227.77,200614,018.2,E*78
$HCHDG,253.6,0.0,E,,*2B
$YXXDR,A,5.6,D,PTCH,A,2.2,D,ROLL*5E
$HCHDG,253.8,0.0,E,,*25
$YXXDR,A,5.6,D,PTCH,A,2.0,D,ROLL*5C
$IIMWV,002,R,06.9,N,A*1E
$GPRMC,230054.8,A,4916.4367,N,12311.1466,W,0.00,227.77,200614,018.2,E*76
$IIMWV,007,T,06.4,N,A*10
$HCHDG,253.8,0.0,E,,*25
$YXXDR,A,5.6,D,PTCH,A,2.0,D,ROLL*5C
$IIVHW,,,,,00.0,N,,*19
$IIVLW,06814,N,029.0,N*53
$HCHDG,254.0,0.0,E,,*2A
$YXXDR,A,5.8,D,PTCH,A,1.3,D,ROLL*52
$IIVWR,002,R,06.9,N,,,,*6C
$GPGSV,4,1,13,17,60,061,34,24,55,285,29,04,40,143,35,06,34,154,33*7D
$GPGSV,4,2,13,51,31,159,37,12,24,287,34,28,23,096,34,02,12,180,23*77
$HCHDG,254.1,0.0,E,,*2B
$YXXDR,A,5.8,D,PTCH,A,1.2,D,ROLL*53
$GPGSV,4,3,13,15,11,236,32,01,10,033,36,14,06,337,23,20,05,064,30*78
$GPGSV,4,4,13,32,02,027,*4D
$GPRMC,230055.0,A,4916.4367,N,12311.1466,W,0.00,227.77,200614,018.2,E*7F
$IIMTW,+14.0,C*3D
$HCHDG,254.3,0.0,E,,*29
$YXXDR,A,5.8,D,PTCH,A,1.1,D,ROLL*50
$GPGGA,230055.200,4916.4367,N,12311.1466,W,2,11,0.70,-5.7,M,-16.8,M,0000,0000*7D
$GPGSA,A,3,02,12,06,04,17,15,24,28,01,20,14,,1.35,0.70,1.15*0C
$GPRMC,230055.2,A,4916.4367,N,12311.1466,W,0.00,227.77,200614,018.2,E*7D
$HCHDG,254.4,0.0,E,,*2E
$YXXDR,A,5.8,D,PTCH,A,1.1,D,ROLL*50
$HCHDG,254.6,0.0,E,,*2C
$YXXDR,A,5.8,D,PTCH,A,1.1,D,ROLL*50
$GPRMC,230055.4,A,4916.4367,N,12311.1466,W,0.00,227.77,200614,018.2,E*7B
$HCHDG,254.7,0.0,E,,*2D
$YXXDR,A,5.8,D,PTCH,A,1.2,D,ROLL*53
$HCHDG,254.8,0.0,E,,*22
$YXXDR,A,5.8,D,PTCH,A,1.4,D,ROLL*55
$TIROT,70.1,A*0D
$GPRMC,230055.6,A,4916.4367,N,12311.1466,W,0.00,227.77,200614,018.2,E*79
$HCHDG,254.8,0.0,E,,*22
$YXXDR,A,5.8,D,PTCH,A,1.4,D,ROLL*55
$HCHDG,255.0,0.0,E,,*2B
$YXXDR,A,5.9,D,PTCH,A,1.4,D,ROLL*54
$IIMWV,002,R,07.1,N,A*17
$GPRMC,230055.8,A,4916.4367,N,12311.1466,W,0.00,227.77,200614,018.2,E*77
$IIMWV,002,T,06.9,N,A*18
$HCHDG,255.2,0.0,E,,*29
$YXXDR,A,5.8,D,PTCH,A,1.6,D,ROLL*57
$IIVHW,,,,,00.0,N,,*19
$HCHDG,255.3,0.0,E,,*28
$IIVLW,06814,N,029.0,N*53
$YXXDR,A,5.8,D,PTCH,A,1.6,D,ROLL*57
$IIVWR,002,R,07.1,N,,,,*65
$HCHDG,255.4,0.0,E,,*2F
$GPGSV,4,1,13,17,60,061,34,24,55,285,34,04,40,143,32,06,34,154,34*71
$GPGSV,4,2,13,51,31,159,26,12,24,287,26,28,23,096,23,02,12,180,21*70
$YXXDR,A,5.8,D,PTCH,A,1.7,D,ROLL*56
$GPGSV,4,3,13,15,11,236,31,01,10,033,36,14,06,337,23,20,05,064,28*72
$GPGSV,4,4,13,32,02,027,*4D
$GPRMC,230056.0,A,4916.4367,N,12311.1466,W,0.00,227.77,200614,018.2,E*7C
$IIMTW,+14.0,C*3D
$HCHDG,255.6,0.0,E,,*2D
$YXXDR,A,5.9,D,PTCH,A,1.7,D,ROLL*57
$HCHDG,255.6,0.0,E,,*2D
$YXXDR,A,5.9,D,PTCH,A,1.7,D,ROLL*57
$GPGGA,230056.200,4916.4367,N,12311.1466,W,2,11,0.70,-5.7,M,-16.8,M,0000,0000*7E
$GPGSA,A,3,02,12,06,04,17,15,24,28,01,20,14,,1.35,0.70,1.15*0C
$GPRMC,230056.2,A,4916.4367,N,12311.1466,W,0.00,227.77,200614,018.2,E*7E
$HCHDG,256.1,0.0,E,,*29
$YXXDR,A,5.8,D,PTCH,A,1.9,D,ROLL*58
$GPRMC,230056.4,A,4916.4367,N,12311.1466,W,0.00,227.77,200614,018.2,E*78
$HCHDG,256.0,0.0,E,,*28
$YXXDR,A,5.8,D,PTCH,A,2.1,D,ROLL*53
$HCHDG,256.1,0.0,E,,*29
$YXXDR,A,5.9,D,PTCH,A,2.4,D,ROLL*57
$TIROT,34.4,A*08
$GPRMC,230056.6,A,4916.4367,N,12311.1466,W,0.00,227.77,200614,018.2,E*7A
$HCHDG,256.2,0.0,E,,*2A
$YXXDR,A,6.0,D,PTCH,A,2.6,D,ROLL*5F
$HCHDG,256.2,0.0,E,,*2A
$YXXDR,A,6.0,D,PTCH,A,2.7,D,ROLL*5E
$IIMWV,003,R,07.2,N,A*15
$GPRMC,230056.8,A,4916.4367,N,12311.1466,W,0.00,227.77,200614,018.2,E*74
$HCHDG,256.3,0.0,E,,*2B
$YXXDR,A,6.1,D,PTCH,A,3.6,D,ROLL*5F
$IIMWV,002,T,07.1,N,A*11
$IIVHW,,,,,00.0,N,,*19
$HCHDG,256.3,0.0,E,,*2B
$IIVLW,06814,N,029.0,N*53
$YXXDR,A,6.0,D,PTCH,A,3.7,D,ROLL*5F
$IIVWR,003,R,07.2,N,,,,*67
$GPGSV,4,1,13,17,60,061,23,24,55,285,35,04,40,143,29,06,34,154,32*7A
$GPGSV,4,2,13,51,31,159,30,12,24,287,26,28,23,096,28,02,12,180,19*77
$HCHDG,256.4,0.0,E,,*2C
$GPGSV,4,3,13,15,11,236,31,01,10,033,36,14,06,337,20,20,05,064,32*7A
$GPGSV,4,4,13,32,02,027,*4D
$GPRMC,230057.0,A,4916.4367,N,12311.1466,W,0.00,227.77,200614,018.2,E*7D
$YXXDR,A,6.0,D,PTCH,A,3.7,D,ROLL*5F
$IIMTW,+14.0,C*3D
$HCHDG,256.7,0.0,E,,*2F
$YXXDR,A,6.0,D,PTCH,A,3.6,D,ROLL*5E
$GPGGA,230057.200,4916.4367,N,12311.1466,W,2,11,0.70,-5.7,M,-16.8,M,0000,0000*7F
$GPGSA,A,3,02,12,06,04,17,15,24,28,01,20,14,,1.35,0.70,1.15*0C
$HCHDG,256.5,0.0,E,,*2D
$GPRMC,230057.2,A,4916.4367,N,12311.1466,W,0.00,227.77,200614,018.2,E*7F
$YXXDR,A,6.0,D,PTCH,A,3.4,D,ROLL*5C
$HCHDG,256.6,0.0,E,,*2E
$YXXDR,A,5.9,D,PTCH,A,3.4,D,ROLL*56
$GPRMC,230057.4,A,4916.4367,N,12311.1466,W,0.00,227.77,200614,018.2,E*79
$HCHDG,256.5,0.0,E,,*2D
$YXXDR,A,6.0,D,PTCH,A,3.2,D,ROLL*5A
$HCHDG,256.5,0.0,E,,*2D
$YXXDR,A,5.9,D,PTCH,A,3.1,D,ROLL*53
$TIROT,-17.6,A*26
$GPRMC,230057.6,A,4916.4367,N,12311.1466,W,0.00,227.77,200614,018.2,E*7B
$HCHDG,256.6,0.0,E,,*2E
$YXXDR,A,5.8,D,PTCH,A,3.0,D,ROLL*53
$HCHDG,256.5,0.0,E,,*2D
$YXXDR,A,5.8,D,PTCH,A,3.0,D,ROLL*53
$IIMWV,002,R,07.1,N,A*17
$GPRMC,230057.8,A,4916.4367,N,12311.1466,W,0.00,227.77,200614,018.2,E*75
$IIMWV,003,T,07.2,N,A*13
$HCHDG,256.4,0.0,E,,*2C
$YXXDR,A,5.8,D,PTCH,A,2.9,D,ROLL*5B
$IIVHW,,,,,00.0,N,,*19
$HCHDG,256.3,0.0,E,,*2B
$IIVLW,06814,N,029.0,N*53
$YXXDR,A,5.9,D,PTCH,A,2.7,D,ROLL*54
$IIVWR,002,R,07.1,N,,,,*65
$GPGSV,4,1,13,17,60,061,33,24,55,285,36,04,40,143,39,06,34,154,35*7E
$HCHDG,256.2,0.0,E,,*2A
$GPGSV,4,2,13,51,31,159,28,12,24,287,25,28,23,096,33,02,12,180,19*77
$GPGSV,4,3,13,15,11,236,30,01,10,033,40,14,06,337,22,20,05,064,33*79
$GPGSV,4,4,13,32,02,027,*4D
$GPRMC,230058.0,A,4916.4367,N,12311.1466,W,0.00,227.77,200614,018.2,E*72
$YXXDR,A,5.8,D,PTCH,A,2.6,D,ROLL*54
$IIMTW,+14.0,C*3D
$HCHDG,256.2,0.0,E,,*2A
$YXXDR,A,5.8,D,PTCH,A,2.4,D,ROLL*56
$GPGGA,230058.200,4916.4367,N,12311.1466,W,2,11,0.70,-5.7,M,-16.8,M,0000,0000*70
$GPGSA,A,3,02,12,06,04,17,15,24,28,01,20,14,,1.35,0.70,1.15*0C
$HCHDG,256.2,0.0,E,,*2A
$GPRMC,230058.2,A,4916.4367,N,12311.1466,W,0.00,227.77,200614,018.2,E*70
$YXXDR,A,5.9,D,PTCH,A,2.3,D,ROLL*50
$HCHDG,256.0,0.0,E,,*28
$YXXDR,A,6.0,D,PTCH,A,2.0,D,ROLL*59
$GPRMC,230058.4,A,4916.4367,N,12311.1466,W,0.00,227.77,200614,018.2,E*76
$HCHDG,256.2,0.0,E,,*2A
$YXXDR,A,6.0,D,PTCH,A,2.0,D,ROLL*59
$HCHDG,256.1,0.0,E,,*29
$YXXDR,A,6.0,D,PTCH,A,1.8,D,ROLL*52
$TIROT,-70.6,A*27
$GPRMC,230058.6,A,4916.4367,N,12311.1466,W,0.00,227.77,200614,018.2,E*74
$HCHDG,256.0,0.0,E,,*28
$YXXDR,A,6.0,D,PTCH,A,1.7,D,ROLL*5D
$HCHDG,255.9,0.0,E,,*22
$YXXDR,A,5.9,D,PTCH,A,1.7,D,ROLL*57
$IIMWV,000,R,07.0,N,A*14
$GPRMC,230058.8,A,4916.4367,N,12311.1466,W,0.00,227.77,200614,018.2,E*7A
$HCHDG,255.8,0.0,E,,*23
$YXXDR,A,5.9,D,PTCH,A,1.6,D,ROLL*56
$IIMWV,002,T,07.1,N,A*11
$IIVHW,,,,,00.0,N,,*19
$HCHDG,255.6,0.0,E,,*2D
$IIVLW,06814,N,029.0,N*53
$YXXDR,A,5.9,D,PTCH,A,1.4,D,ROLL*54
$IIVWR,000,R,07.0,N,,,,*66
$GPGSV,4,1,13,17,60,061,36,24,55,285,27,04,40,143,39,06,34,154,40*79
$GPGSV,4,2,13,51,31,159,31,12,24,287,22,28,23,096,32,02,12,180,20*73
$GPGSV,4,3,13,15,11,236,28,01,10,033,39,14,06,337,24,20,05,064,23*79
$GPGSV,4,4,13,32,02,027,*4D
$HCHDG,255.6,0.0,E,,*2D
$YXXDR,A,5.8,D,PTCH,A,1.4,D,ROLL*55
$GPRMC,230059.0,A,4916.4367,N,12311.1466,W,0.00,227.77,200614,018.2,E*73
$IIMTW,+14.0,C*3D
$HCHDG,255.4,0.0,E,,*2F
$YXXDR,A,5.8,D,PTCH,A,1.4,D,ROLL*55
$GPGGA,230059.200,4916.4367,N,12311.1466,W,2,11,0.70,-5.7,M,-16.8,M,0000,0000*71
$GPGSA,A,3,02,12,06,04,17,15,24,28,01,20,14,,1.35,0.70,1.15*0C
$HCHDG,255.4,0.0,E,,*2F
$GPRMC,230059.2,A,4916.4367,N,12311.1466,W,0.00,227.77,200614,018.2,E*71
$YXXDR,A,5.8,D,PTCH,A,1.4,D,ROLL*55
$HCHDG,255.2,0.0,E,,*29
$YXXDR,A,5.8,D,PTCH,A,1.4,D,ROLL*55
$GPRMC,230059.4,A,4916.4367,N,12311.1466,W,0.00,227.77,200614,018.2,E*77
$HCHDG,255.1,0.0,E,,*2A
$YXXDR,A,5.8,D,PTCH,A,1.4,D,ROLL*55
$HCHDG,255.0,0.0,E,,*2B
$YXXDR,A,5.8,D,PTCH,A,1.4,D,ROLL*55
$TIROT,-76.9,A*2E
$GPRMC,230059.6,A,4916.4367,N,12311.1466,W,0.00,227.77,200614,018.2,E*75
$HCHDG,254.8,0.0,E,,*22
$YXXDR,A,5.9,D,PTCH,A,1.6,D,ROLL*56
$HCHDG,254.8,0.0,E,,*22
$YXXDR,A,5.9,D,PTCH,A,1.7,D,ROLL*57
$IIMWV,003,R,06.9,N,A*1F
$GPRMC,230059.8,A,4916.4367,N,12311.1466,W,0.00,227.77,200614,018.2,E*7B
$IIMWV,000,T,07.0,N,A*12
$HCHDG,254.6,0.0,E,,*2C
$YXXDR,A,5.9,D,PTCH,A,1.7,D,ROLL*57
$IIVHW,,,,,00.0,N,,*19
$HCHDG,254.5,0.0,E,,*2F
$IIVLW,06814,N,029.0,N*53
$YXXDR,A,5.9,D,PTCH,A,1.7,D,ROLL*57
$IIVWR,003,R,06.9,N,,,,*6D
$GPGSV,4,1,13,17,60,061,36,24,55,285,30,04,40,143,28,06,34,154,37*7F
$GPGSV,4,2,13,51,31,159,31,12,24,287,18,28,23,096,30,02,12,180,21*79
$GPGSV,4,3,13,15,11,236,37,01,10,033,38,14,06,337,22,20,05,064,24*77
$GPGSV,4,4,13,32,02,027,*4D
$GPRMC,230100.0,A,4916.4367,N,12311.1466,W,0.00,227.77,200614,018.2,E*7E
$HCHDG,254.6,0.0,E,,*2C
$YXXDR,A,5.9,D,PTCH,A,1.7,D,ROLL*57
$IIMTW,+14.0,C*3D
$HCHDG,254.5,0.0,E,,*2F
$YXXDR,A,6.0,D,PTCH,A,1.7,D,ROLL*5D
$GPGGA,230100.200,4916.4367,N,12311.1466,W,2,11,0.70,-5.7,M,-16.8,M,0000,0000*7C
$GPGSA,A,3,02,12,06,04,17,15,24,28,01,20,14,,1.35,0.70,1.15*0C
$GPRMC,230100.2,A,4916.4367,N,12311.1466,W,0.00,227.77,200614,018.2,E*7C
$HCHDG,254.4,0.0,E,,*2E
$YXXDR,A,6.0,D,PTCH,A,1.8,D,ROLL*52
$HCHDG,254.3,0.0,E,,*29
$YXXDR,A,5.9,D,PTCH,A,2.4,D,ROLL*57
$GPRMC,230100.4,A,4916.4367,N,12311.1466,W,0.00,227.77,200614,018.2,E*7A
$HCHDG,254.1,0.0,E,,*2B
$YXXDR,A,5.9,D,PTCH,A,2.4,D,ROLL*57
$HCHDG,254.0,0.0,E,,*2A
$YXXDR,A,5.9,D,PTCH,A,2.4,D,ROLL*57
$TIROT,-71.3,A*23
$GPRMC,230100.6,A,4916.4367,N,12311.1466,W,0.00,227.77,200614,018.2,E*78
$HCHDG,253.9,0.0,E,,*24
$YXXDR,A,6.1,D,PTCH,A,2.6,D,ROLL*5E
$HCHDG,253.8,0.0,E,,*25
$YXXDR,A,6.2,D,PTCH,A,2.7,D,ROLL*5C
$IIMWV,006,R,06.9,N,A*1A
$GPRMC,230100.8,A,4916.4367,N,12311.1466,W,0.00,227.77,200614,018.2,E*76
$IIMWV,003,T,06.9,N,A*19
$HCHDG,253.6,0.0,E,,*2B
$YXXDR,A,6.1,D,PTCH,A,2.9,D,ROLL*51
$IIVHW,,,,,00.0,N,,*19
$IIVLW,06814,N,029.0,N*53
$HCHDG,253.6,0.0,E,,*2B
$YXXDR,A,6.1,D,PTCH,A,2.9,D,ROLL*51
$IIVWR,006,R,06.9,N,,,,*68
$GPGSV,4,1,13,17,60,061,34,24,55,285,31,04,40,143,26,06,34,154,33*76
$HCHDG,253.5,0.0,E,,*28
$GPGSV,4,2,13,51,31,159,35,12,24,287,29,28,23,096,30,02,12,180,25*7B
$GPGSV,4,3,13,15,11,236,30,01,10,033,35,14,06,337,23,20,05,064,30*79
$GPGSV,4,4,13,32,02,027,*4D
$GPRMC,230101.0,A,4916.4367,N,12311.1466,W,0.00,227.77,200614,018.2,E*7F
$YXXDR,A,6.1,D,PTCH,A,2.9,D,ROLL*51
$IIMTW,+14.0,C*3D
$HCHDG,253.6,0.0,E,,*2B
$YXXDR,A,6.1,D,PTCH,A,2.9,D,ROLL*51
$GPGGA,230101.200,4916.4367,N,12311.1466,W,2,11,0.70,-5.7,M,-16.8,M,0000,0000*7D
$GPGSA,A,3,02,12,06,04,17,15,24,28,01,20,14,,1.35,0.70,1.15*0C
$HCHDG,253.6,0.0,E,,*2B
$GPRMC,230101.2,A,4916.4367,N,12311.1466,W,0.00,227.77,200614,018.2,E*7D
$YXXDR,A,6.2,D,PTCH,A,2.7,D,ROLL*5C
$HCHDG,253.5,0.0,E,,*28
$YXXDR,A,6.2,D,PTCH,A,2.7,D,ROLL*5C
$GPRMC,230101.4,A,4916.4367,N,12311.1466,W,0.00,227.77,200614,018.2,E*7B
$HCHDG,253.4,0.0,E,,*29
$YXXDR,A,6.1,D,PTCH,A,2.6,D,ROLL*5E
$HCHDG,253.3,0.0,E,,*2E
$YXXDR,A,6.1,D,PTCH,A,2.4,D,ROLL*5C
$TIROT,-42.0,A*20
$GPRMC,230101.6,A,4916.4367,N,12311.1466,W,0.00,227.77,200614,018.2,E*79
$HCHDG,253.4,0.0,E,,*29
$YXXDR,A,6.1,D,PTCH,A,2.4,D,ROLL*5C
$HCHDG,253.3,0.0,E,,*2E
$YXXDR,A,6.0,D,PTCH,A,2.2,D,ROLL*5B
$IIMWV,009,R,06.8,N,A*14
$GPRMC,230101.8,A,4916.4367,N,12311.1466,W,0.00,227.77,200614,018.2,E*77
$HCHDG,253.2,0.0,E,,*2F
$IIMWV,006,T,06.9,N,A*1C
$YXXDR,A,6.0,D,PTCH,A,2.1,D,ROLL*58
$IIVHW,,,,,00.0,N,,*19
$HCHDG,253.2,0.0,E,,*2F
$IIVLW,06814,N,029.0,N*53
$YXXDR,A,6.0,D,PTCH,A,1.9,D,ROLL*53
$IIVWR,009,R,06.8,N,,,,*66
$GPGSV,4,1,13,17,60,061,36,24,55,285,30,04,40,143,27,06,34,154,29*7F
$GPGSV,4,2,13,51,31,159,34,12,24,287,29,28,23,096,27,02,12,180,26*7F
$GPGSV,4,3,13,15,11,236,27,01,10,033,35,14,06,337,24,20,05,064,30*78
$HCHDG,253.2,0.0,E,,*2F
$GPGSV,4,4,13,32,02,027,*4D
$GPRMC,230102.0,A,4916.4367,N,12311.1466,W,0.00,227.77,200614,018.2,E*7C
$YXXDR,A,6.0,D,PTCH,A,1.8,D,ROLL*52
$IIMTW,+14.0,C*3D
$HCHDG,252.8,0.0,E,,*24
$YXXDR,A,6.0,D,PTCH,A,1.7,D,ROLL*5D
$GPGGA,230102.200,4916.4367,N,12311.1466,W,2,11,0.70,-5.7,M,-16.8,M,0000,0000*7E
$HCHDG,252.8,0.0,E,,*24
$GPGSA,A,3,02,12,06,04,17,15,24,28,01,20,14,,1.35,0.70,1.15*0C
$GPRMC,230102.2,A,4916.4367,N,12311.1466,W,0.00,227.77,200614,018.2,E*7E
$YXXDR,A,6.0,D,PTCH,A,1.7,D,ROLL*5D
$HCHDG,252.7,0.0,E,,*2B
$YXXDR,A,5.9,D,PTCH,A,1.7,D,ROLL*57
$GPRMC,230102.4,A,4916.4367,N,12311.1466,W,0.00,227.77,200614,018.2,E*78
$HCHDG,252.7,0.0,E,,*2B
$YXXDR,A,5.9,D,PTCH,A,1.7,D,ROLL*57
$HCHDG,252.7,0.0,E,,*2B
$YXXDR,A,5.8,D,PTCH,A,1.7,D,ROLL*56
$TIROT,-48.7,A*2D
$GPRMC,230102.6,A,4916.4367,N,12311.1466,W,0.00,227.77,200614,018.2,E*7A
$HCHDG,252.5,0.0,E,,*29
$YXXDR,A,5.8,D,PTCH,A,1.7,D,ROLL*56
$HCHDG,252.5,0.0,E,,*29
$YXXDR,A,6.0,D,PTCH,A,1.8,D,ROLL*52
$IIMWV,012,R,06.8,N,A*1E
$IIMWV,009,T,06.8,N,A*12
$GPRMC,230102.8,A,4916.4367,N,12311.1466,W,0.00,227.77,200614,018.2,E*74
$HCHDG,252.5,0.0,E,,*29
$YXXDR,A,6.0,D,PTCH,A,1.9,D,ROLL*53
$IIVHW,,,,,00.0,N,,*19
$HCHDG,252.6,0.0,E,,*2A
$IIVLW,06814,N,029.0,N*53
$YXXDR,A,5.9,D,PTCH,A,2.4,D,ROLL*57
$IIVWR,012,R,06.8,N,,,,*6C
$HCHDG,252.5,0.0,E,,*29
$GPGSV,4,1,13,17,60,061,32,24,55,285,27,04,40,143,35,06,34,154,41*70
$GPGSV,4,2,13,51,31,159,34,12,24,287,33,28,23,096,26,02,12,180,23*70
$YXXDR,A,6.0,D,PTCH,A,2.4,D,ROLL*5D
$GPGSV,4,3,13,15,11,236,25,01,10,033,36,14,06,337,21,20,05,064,23*7E
$GPGSV,4,4,13,32,02,027,*4D
$GPRMC,230103.0,A,4916.4367,N,12311.1466,W,0.00,227.77,200614,018.2,E*7D
$IIMTW,+14.0,C*3D
$HCHDG,252.5,0.0,E,,*29
$YXXDR,A,5.9,D,PTCH,A,2.6,D,ROLL*55
$GPGGA,230103.200,4916.4367,N,12311.1466,W,2,11,0.70,-5.7,M,-16.8,M,0000,0000*7F
$GPGSA,A,3,02,12,06,04,17,15,24,28,01,20,14,,1.35,0.70,1.15*0C
$HCHDG,252.5,0.0,E,,*29
$GPRMC,230103.2,A,4916.4367,N,12311.1466,W,0.00,227.77,200614,018.2,E*7F
$YXXDR,A,6.0,D,PTCH,A,2.7,D,ROLL*5E
$HCHDG,252.4,0.0,E,,*28
$YXXDR,A,6.0,D,PTCH,A,3.0,D,ROLL*58
$GPRMC,230103.4,A,4916.4367,N,12311.1466,W,0.00,227.77,200614,018.2,E*79
$HCHDG,252.5,0.0,E,,*29
$YXXDR,A,6.0,D,PTCH,A,3.1,D,ROLL*59
$HCHDG,252.5,0.0,E,,*29
$YXXDR,A,6.0,D,PTCH,A,3.4,D,ROLL*5C
$TIROT,-13.3,A*27
$GPRMC,230103.6,A,4916.4367,N,12311.1466,W,0.00,227.77,200614,018.2,E*7B
$HCHDG,252.4,0.0,E,,*28
$YXXDR,A,5.9,D,PTCH,A,3.6,D,ROLL*54
$HCHDG,252.3,0.0,E,,*2F
$YXXDR,A,6.1,D,PTCH,A,3.9,D,ROLL*50
$IIMWV,017,R,06.7,N,A*14
$GPRMC,230103.8,A,4916.4367,N,12311.1466,W,0.00,227.77,200614,018.2,E*75
$IIMWV,012,T,06.8,N,A*18
$HCHDG,252.5,0.0,E,,*29
$YXXDR,A,6.1,D,PTCH,A,4.1,D,ROLL*5F
$IIVHW,,,,,00.0,N,,*19
$HCHDG,252.5,0.0,E,,*29
$IIVLW,06814,N,029.0,N*53
$YXXDR,A,6.2,D,PTCH,A,4.1,D,ROLL*5C
$IIVWR,017,R,06.7,N,,,,*66
$GPGSV,4,1,13,17,60,061,34,24,55,285,24,04,40,143,34,06,34,154,35*77
$GPGSV,4,2,13,51,31,159,31,12,24,287,33,28,23,096,31,02,12,180,20*70
$GPGSV,4,3,13,15,11,236,29,01,10,033,37,14,06,337,24,20,05,064,21*74
$GPGSV,4,4,13,32,02,027,*4D
$GPRMC,230104.0,A,4916.4367,N,12311.1466,W,0.00,227.77,200614,018.2,E*7A
$HCHDG,252.6,0.0,E,,*2A
$YXXDR,A,6.2,D,PTCH,A,4.7,D,ROLL*5A
$IIMTW,+14.0,C*3D
$HCHDG,252.5,0.0,E,,*29
$YXXDR,A,6.2,D,PTCH,A,4.7,D,ROLL*5A
$HCHDG,252.5,0.0,E,,*29
$GPGGA,230104.200,4916.4367,N,12311.1466,W,2,11,0.70,-5.7,M,-16.8,M,0000,0000*78
