$GPGGA,164144.8,4741.20308,N,12224.26717,W,1,09,0.9,-3.9,M,-18.2,M,,*48
$GPVTG,003.2,T,346.8,M,000.10,N,0000.19,K,A*12
$GPRMC,164144.9,A,4741.20308,N,12224.26717,W,000.12,003.2,261014,016.4,E,A*20
$GPGGA,164144.9,4741.20308,N,12224.26717,W,1,09,0.9,-3.9,M,-18.2,M,,*49
$GPVTG,003.2,T,346.8,M,000.12,N,0000.22,K,A*18
$GPRMC,164145.0,A,4741.20308,N,12224.26717,W,000.15,003.2,261014,016.4,E,A*2F
$GPGGA,164145.0,4741.20308,N,12224.26717,W,1,09,0.9,-3.9,M,-18.2,M,,*41
$GPVTG,003.2,T,346.8,M,000.15,N,0000.29,K,A*14
$GPGSA,A,3,12,02,25,06,10,24,29,05,31,,,,1.5,0.9,1.1*34
$GPRMC,164145.1,A,4741.20308,N,12224.26717,W,000.17,003.2,261014,016.4,E,A*2C
$IIVHW,,,,,00.0,N,,*19
$GPGGA,164145.1,4741.20308,N,12224.26717,W,1,09,0.9,-3.9,M,-18.2,M,,*40
$GPVTG,003.2,T,346.8,M,000.17,N,0000.31,K,A*1F
$GPGSV,3,1,09,12,84,174,48,02,75,123,46,25,50,305,47,06,43,055,47*74
$GPGSV,3,2,09,10,28,099,48,24,23,210,37,29,19,268,38,05,12,150,40*74
$GPGSV,3,3,09,31,08,331,38*40
$IIVLW,07053,N,000.0,N*52
$GPRMC,164145.2,A,4741.20308,N,12224.26717,W,000.16,003.2,261014,016.4,E,A*2E
$GPGGA,164145.2,4741.20308,N,12224.26717,W,1,09,0.9,-3.9,M,-18.2,M,,*43
$GPVTG,003.2,T,346.8,M,000.16,N,0000.30,K,A*1F
$IIVWR,104,L,13.2,N,,,,*7A
$YXXDR,A,5.0,D,PTCH,A,5.0,D,ROLL*5D
$TIROT,24.4,A*09
$HCHDG,272.3,0.0,E,,*2D
$GPRMC,164145.3,A,4741.20308,N,12224.26717,W,000.22,003.2,261014,016.4,E,A*28
$IIMTW,-09.5,C*32
$GPGGA,164145.3,4741.20308,N,12224.26717,W,1,09,0.9,-3.9,M,-18.2,M,,*42
$GPVTG,003.2,T,346.8,M,000.22,N,0000.41,K,A*1E
$IIMWV,256,R,13.2,N,A*12
$HCHDG,272.4,0.0,E,,*2A
$YXXDR,A,5.0,D,PTCH,A,5.1,D,ROLL*5C
$GPRMC,164145.4,A,4741.20308,N,12224.26717,W,000.22,003.2,261014,016.4,E,A*2F
$IIMWV,250,T,14.0,N,A*17
$GPGGA,164145.4,4741.20308,N,12224.26717,W,1,09,0.9,-3.9,M,-18.2,M,,*45
$GPVTG,003.2,T,346.8,M,000.22,N,0000.40,K,A*1F
$HCHDG,272.4,0.0,E,,*2A
$YXXDR,A,5.0,D,PTCH,A,5.0,D,ROLL*5D
$GPRMC,164145.5,A,4741.20308,N,12224.26717,W,000.22,003.2,261014,016.4,E,A*2E
$GPGGA,164145.5,4741.20308,N,12224.26717,W,1,09,0.9,-3.9,M,-18.2,M,,*44
$GPVTG,003.2,T,346.8,M,000.22,N,0000.40,K,A*1F
$HCHDG,272.4,0.0,E,,*2A
$YXXDR,A,5.1,D,PTCH,A,4.7,D,ROLL*5A
$GPRMC,164145.6,A,4741.20319,N,12224.26716,W,000.19,003.2,261014,016.4,E,A*24
$GPGGA,164145.6,4741.20319,N,12224.26716,W,1,09,0.9,-3.9,M,-18.2,M,,*46
$GPVTG,003.2,T,346.8,M,000.19,N,0000.36,K,A*16
$HCHDG,272.4,0.0,E,,*2A
$YXXDR,A,5.1,D,PTCH,A,4.7,D,ROLL*5A
$GPRMC,164145.7,A,4741.20319,N,12224.26716,W,000.19,003.2,261014,016.4,E,A*25
$GPGGA,164145.7,4741.20319,N,12224.26716,W,1,09,0.9,-3.9,M,-18.2,M,,*47
$GPVTG,003.2,T,346.8,M,000.19,N,0000.36,K,A*16
$HCHDG,272.4,0.0,E,,*2A
$YXXDR,A,5.1,D,PTCH,A,4.7,D,ROLL*5A
$GPRMC,164145.8,A,4741.20319,N,12224.26716,W,000.17,003.2,261014,016.4,E,A*24
$GPGGA,164145.8,4741.20319,N,12224.26716,W,1,09,0.9,-3.9,M,-18.2,M,,*48
$GPVTG,003.2,T,346.8,M,000.17,N,0000.32,K,A*1C
$HCHDG,272.4,0.0,E,,*2A
$YXXDR,A,5.1,D,PTCH,A,4.7,D,ROLL*5A
$GPRMC,164145.9,A,4741.20319,N,12224.26716,W,000.16,003.2,261014,016.4,E,A*24
$GPGGA,164145.9,4741.20319,N,12224.26716,W,1,09,0.9,-3.8,M,-18.2,M,,*48
$GPVTG,003.2,T,346.8,M,000.16,N,0000.29,K,A*17
$HCHDG,272.3,0.0,E,,*2D
$YXXDR,A,5.1,D,PTCH,A,4.7,D,ROLL*5A
$GPRMC,164146.0,A,4741.20319,N,12224.26716,W,000.13,003.2,261014,016.4,E,A*2B
$GPGGA,164146.0,4741.20319,N,12224.26716,W,1,09,0.9,-3.8,M,-18.2,M,,*42
$GPVTG,003.2,T,346.8,M,000.13,N,0000.24,K,A*1F
$GPGSA,A,3,12,02,25,06,10,24,29,05,31,,,,1.5,0.9,1.1*34
$HCHDG,272.1,0.0,E,,*2F
$YXXDR,A,5.2,D,PTCH,A,4.7,D,ROLL*59
$GPRMC,164146.1,A,4741.20319,N,12224.26716,W,000.15,003.2,261014,016.4,E,A*2C
$GPGGA,164146.1,4741.20319,N,12224.26716,W,1,09,0.9,-3.8,M,-18.2,M,,*43
$GPVTG,003.2,T,346.8,M,000.15,N,0000.28,K,A*15
$GPGSV,3,1,09,12,84,174,48,02,75,123,46,25,50,305,47,06,43,055,47*74
$GPGSV,3,2,09,10,28,099,48,24,23,210,37,29,19,268,38,05,12,150,40*74
$GPGSV,3,3,09,31,08,331,38*40
$HCHDG,272.1,0.0,E,,*2F
$YXXDR,A,5.1,D,PTCH,A,4.6,D,ROLL*5B
$GPRMC,164146.2,A,4741.20319,N,12224.26716,W,000.17,003.2,261014,016.4,E,A*2D
$GPGGA,164146.2,4741.20319,N,12224.26716,W,1,09,0.9,-3.8,M,-18.2,M,,*40
$GPVTG,003.2,T,346.8,M,000.17,N,0000.31,K,A*1F
$IIVHW,,,,,00.0,N,,*19
$HCHDG,272.1,0.0,E,,*2F
$YXXDR,A,5.0,D,PTCH,A,4.7,D,ROLL*5B
$TIROT,-3.0,A*15
$GPRMC,164146.3,A,4741.20319,N,12224.26716,W,000.20,003.2,261014,016.4,E,A*28
$GPGGA,164146.3,4741.20319,N,12224.26716,W,1,09,0.9,-3.8,M,-18.2,M,,*41
$IIVLW,07053,N,000.0,N*52
$GPVTG,003.2,T,346.8,M,000.20,N,0000.36,K,A*1C
$IIVWR,103,L,13.8,N,,,,*77
$HCHDG,272.1,0.0,E,,*2F
$YXXDR,A,5.0,D,PTCH,A,4.7,D,ROLL*5B
$GPRMC,164146.4,A,4741.20319,N,12224.26716,W,000.19,003.2,261014,016.4,E,A*25
$GPGGA,164146.4,4741.20319,N,12224.26716,W,1,09,0.9,-3.6,M,-18.2,M,,*48
$GPVTG,003.2,T,346.8,M,000.19,N,0000.36,K,A*16
$HCHDG,272.0,0.0,E,,*2E
$YXXDR,A,5.1,D,PTCH,A,4.6,D,ROLL*5B
$GPRMC,164146.5,A,4741.20319,N,12224.26716,W,000.19,003.2,261014,016.4,E,A*24
$GPGGA,164146.5,4741.20319,N,12224.26716,W,1,09,0.9,-3.6,M,-18.2,M,,*49
$GPVTG,003.2,T,346.8,M,000.19,N,0000.35,K,A*15
$IIMTW,-09.5,C*32
$GPRMC,164146.6,A,4741.20319,N,12224.26716,W,000.19,003.2,261014,016.4,E,A*27
$GPGGA,164146.6,4741.20319,N,12224.26716,W,1,09,0.9,-3.6,M,-18.2,M,,*4A
$HCHDG,272.0,0.0,E,,*2E
$GPVTG,003.2,T,346.8,M,000.19,N,0000.35,K,A*15
$IIMWV,257,R,13.8,N,A*19
$YXXDR,A,5.1,D,PTCH,A,4.5,D,ROLL*58
$IIMWV,256,T,13.2,N,A*14
$GPRMC,164146.7,A,4741.20316,N,12224.26715,W,000.17,003.2,261014,016.4,E,A*24
$HCHDG,272.0,0.0,E,,*2E
$GPGGA,164146.7,4741.20316,N,12224.26715,W,1,09,0.9,-3.6,M,-18.2,M,,*47
$GPVTG,003.2,T,346.8,M,000.17,N,0000.31,K,A*1F
$YXXDR,A,5.0,D,PTCH,A,4.7,D,ROLL*5B
$GPRMC,164146.8,A,4741.20316,N,12224.26715,W,000.15,003.2,261014,016.4,E,A*29
$HCHDG,272.0,0.0,E,,*2E
$GPGGA,164146.8,4741.20316,N,12224.26715,W,1,09,0.9,-3.6,M,-18.2,M,,*48
$GPVTG,003.2,T,346.8,M,000.15,N,0000.28,K,A*15
$YXXDR,A,5.0,D,PTCH,A,4.7,D,ROLL*5B
$GPRMC,164146.9,A,4741.20316,N,12224.26715,W,000.16,003.2,261014,016.4,E,A*2B
$GPGGA,164146.9,4741.20316,N,12224.26715,W,1,09,0.9,-3.6,M,-18.2,M,,*49
$GPVTG,003.2,T,346.8,M,000.16,N,0000.30,K,A*1F
$HCHDG,272.0,0.0,E,,*2E
$YXXDR,A,5.0,D,PTCH,A,4.7,D,ROLL*5B
$GPRMC,164147.0,A,4741.20316,N,12224.26715,W,000.16,003.2,261014,016.4,E,A*23
$HCHDG,271.9,0.0,E,,*24
$GPGGA,164147.0,4741.20316,N,12224.26715,W,1,09,0.9,-3.6,M,-18.2,M,,*41
$GPVTG,003.2,T,346.8,M,000.16,N,0000.30,K,A*1F
$YXXDR,A,5.0,D,PTCH,A,4.7,D,ROLL*5B
$GPGSA,A,3,12,02,25,06,10,24,29,05,31,,,,1.5,0.9,1.1*34
$GPRMC,164147.1,A,4741.20316,N,12224.26715,W,000.15,003.2,261014,016.4,E,A*21
$HCHDG,271.9,0.0,E,,*24
$YXXDR,A,5.0,D,PTCH,A,4.7,D,ROLL*5B
$GPGGA,164147.1,4741.20316,N,12224.26715,W,1,09,0.9,-3.6,M,-18.2,M,,*40
$GPVTG,003.2,T,346.8,M,000.15,N,0000.28,K,A*15
$GPGSV,3,1,09,12,84,174,48,02,75,123,46,25,50,305,47,06,43,055,47*74
$GPGSV,3,2,09,10,28,099,49,24,23,210,37,29,19,268,38,05,12,150,41*74
$GPGSV,3,3,09,31,08,331,38*40
$GPRMC,164147.2,A,4741.20316,N,12224.26715,W,000.14,003.2,261014,016.4,E,A*23
$GPGGA,164147.2,4741.20316,N,12224.26715,W,1,09,0.9,-3.6,M,-18.2,M,,*43
$GPVTG,003.2,T,346.8,M,000.14,N,0000.26,K,A*1A
$HCHDG,271.9,0.0,E,,*24
$YXXDR,A,5.0,D,PTCH,A,4.7,D,ROLL*5B
$IIVHW,,,,,00.0,N,,*19
$GPRMC,164147.3,A,4741.20316,N,12224.26715,W,000.14,003.2,261014,016.4,E,A*22
$HCHDG,272.0,0.0,E,,*2E
$GPGGA,164147.3,4741.20316,N,12224.26715,W,1,09,0.9,-3.6,M,-18.2,M,,*42
$YXXDR,A,5.0,D,PTCH,A,4.7,D,ROLL*5B
$GPVTG,003.2,T,346.8,M,000.14,N,0000.26,K,A*1A
$TIROT,5.5,A*3B
$IIVLW,07053,N,000.0,N*52
$IIVWR,104,L,13.5,N,,,,*7D
$GPRMC,164147.4,A,4741.20316,N,12224.26715,W,000.13,003.2,261014,016.4,E,A*22
$HCHDG,272.0,0.0,E,,*2E
$GPGGA,164147.4,4741.20316,N,12224.26715,W,1,09,0.9,-3.5,M,-18.2,M,,*46
$GPVTG,003.2,T,346.8,M,000.13,N,0000.23,K,A*18
$YXXDR,A,4.9,D,PTCH,A,4.7,D,ROLL*53
$GPRMC,164147.5,A,4741.20316,N,12224.26715,W,000.12,003.2,261014,016.4,E,A*22
$HCHDG,272.0,0.0,E,,*2E
$GPGGA,164147.5,4741.20316,N,12224.26715,W,1,09,0.9,-3.5,M,-18.2,M,,*47
$GPVTG,003.2,T,346.8,M,000.12,N,0000.23,K,A*19
$YXXDR,A,4.9,D,PTCH,A,4.7,D,ROLL*53
$IIMTW,-09.5,C*32
$GPRMC,164147.6,A,4741.20316,N,12224.26715,W,000.12,003.2,261014,016.4,E,A*21
$HCHDG,272.1,0.0,E,,*2F
$GPGGA,164147.6,4741.20316,N,12224.26715,W,1,09,0.9,-3.5,M,-18.2,M,,*44
$GPVTG,003.2,T,346.8,M,000.12,N,0000.23,K,A*19
$YXXDR,A,4.9,D,PTCH,A,4.7,D,ROLL*53
$IIMWV,256,R,13.5,N,A*15
$IIMWV,257,T,13.8,N,A*1F
$GPRMC,164147.7,A,4741.20311,N,12224.26714,W,000.15,003.2,261014,016.4,E,A*21
$HCHDG,272.1,0.0,E,,*2F
$GPGGA,164147.7,4741.20311,N,12224.26714,W,1,09,0.9,-3.5,M,-18.2,M,,*43
$GPVTG,003.2,T,346.8,M,000.15,N,0000.28,K,A*15
$YXXDR,A,4.9,D,PTCH,A,4.7,D,ROLL*53
$GPRMC,164147.8,A,4741.20311,N,12224.26714,W,000.16,003.2,261014,016.4,E,A*2D
$HCHDG,272.0,0.0,E,,*2E
$GPGGA,164147.8,4741.20311,N,12224.26714,W,1,09,0.9,-3.5,M,-18.2,M,,*4C
$GPVTG,003.2,T,346.8,M,000.16,N,0000.29,K,A*17
$YXXDR,A,5.0,D,PTCH,A,4.7,D,ROLL*5B
$GPRMC,164147.9,A,4741.20311,N,12224.26714,W,000.15,003.2,261014,016.4,E,A*2F
$HCHDG,272.1,0.0,E,,*2F
$GPGGA,164147.9,4741.20311,N,12224.26714,W,1,09,0.9,-3.5,M,-18.2,M,,*4D
$GPVTG,003.2,T,346.8,M,000.15,N,0000.27,K,A*1A
$YXXDR,A,5.0,D,PTCH,A,4.7,D,ROLL*5B
$GPRMC,164148.0,A,4741.20311,N,12224.26714,W,000.13,003.2,261014,016.4,E,A*2F
$HCHDG,272.1,0.0,E,,*2F
$GPGGA,164148.0,4741.20311,N,12224.26714,W,1,09,0.9,-3.5,M,-18.2,M,,*4B
$GPVTG,003.2,T,346.8,M,000.13,N,0000.24,K,A*1F
$GPGSA,A,3,12,02,25,06,10,24,29,05,31,,,,1.5,0.9,1.1*34
$YXXDR,A,5.1,D,PTCH,A,4.6,D,ROLL*5B
$GPRMC,164148.1,A,4741.20311,N,12224.26714,W,000.13,003.2,261014,016.4,E,A*2E
$HCHDG,272.2,0.0,E,,*2C
$GPGGA,164148.1,4741.20311,N,12224.26714,W,1,09,0.9,-3.5,M,-18.2,M,,*4A
$GPVTG,003.2,T,346.8,M,000.13,N,0000.24,K,A*1F
$YXXDR,A,4.9,D,PTCH,A,4.6,D,ROLL*52
$GPGSV,3,1,09,12,84,174,49,02,75,123,46,25,50,305,47,06,43,055,46*74
$GPGSV,3,2,09,10,28,099,49,24,23,210,38,29,19,268,38,05,12,150,40*7A
$GPGSV,3,3,09,31,08,331,37*4F
$GPRMC,164148.2,A,4741.20311,N,12224.26714,W,000.12,003.2,261014,016.4,E,A*2C
$HCHDG,272.0,0.0,E,,*2E
$GPGGA,164148.2,4741.20311,N,12224.26714,W,1,09,0.9,-3.5,M,-18.2,M,,*49
$GPVTG,003.2,T,346.8,M,000.12,N,0000.22,K,A*18
$YXXDR,A,4.9,D,PTCH,A,4.6,D,ROLL*52
$IIVHW,,,,,00.0,N,,*19
$GPRMC,164148.3,A,4741.20311,N,12224.26714,W,000.12,003.2,261014,016.4,E,A*2D
$HCHDG,272.0,0.0,E,,*2E
$GPGGA,164148.3,4741.20311,N,12224.26714,W,1,09,0.9,-3.5,M,-18.2,M,,*48
$YXXDR,A,5.1,D,PTCH,A,4.5,D,ROLL*58
$GPVTG,003.2,T,346.8,M,000.12,N,0000.22,K,A*18
$TIROT,0.0,A*3B
$IIVLW,07053,N,000.0,N*52
$IIVWR,106,L,12.7,N,,,,*7C
$HCHDG,272.0,0.0,E,,*2E
$GPRMC,164148.4,A,4741.20311,N,12224.26714,W,000.10,003.2,261014,016.4,E,A*28
$GPGGA,164148.4,4741.20311,N,12224.26714,W,1,09,0.9,-3.7,M,-18.2,M,,*4D
$YXXDR,A,5.1,D,PTCH,A,4.5,D,ROLL*58
$GPVTG,003.2,T,346.8,M,000.10,N,0000.19,K,A*12
$GPRMC,164148.5,A,4741.20311,N,12224.26714,W,000.10,003.2,261014,016.4,E,A*29
$HCHDG,272.1,0.0,E,,*2F
$YXXDR,A,5.2,D,PTCH,A,4.7,D,ROLL*59
$GPGGA,164148.5,4741.20311,N,12224.26714,W,1,09,0.9,-3.7,M,-18.2,M,,*4C
$GPVTG,003.2,T,346.8,M,000.10,N,0000.19,K,A*12
$IIMTW,-09.5,C*32
$GPRMC,164148.6,A,4741.20311,N,12224.26714,W,000.13,003.2,261014,016.4,E,A*29
$HCHDG,272.0,0.0,E,,*2E
$YXXDR,A,5.2,D,PTCH,A,4.7,D,ROLL*59
$IIMWV,254,R,12.7,N,A*14
$GPGGA,164148.6,4741.20311,N,12224.26714,W,1,09,0.9,-3.7,M,-18.2,M,,*4F
$GPVTG,003.2,T,346.8,M,000.13,N,0000.24,K,A*1F
$IIMWV,256,T,13.5,N,A*13
$GPRMC,164148.7,A,4741.20300,N,12224.26729,W,000.14,003.2,261014,016.4,E,A*21
$HCHDG,272.0,0.0,E,,*2E
$YXXDR,A,5.2,D,PTCH,A,4.7,D,ROLL*59
$GPGGA,164148.7,4741.20300,N,12224.26729,W,1,09,0.9,-3.7,M,-18.2,M,,*40
$GPVTG,003.2,T,346.8,M,000.14,N,0000.26,K,A*1A
$GPRMC,164148.8,A,4741.20300,N,12224.26729,W,000.13,003.2,261014,016.4,E,A*29
$HCHDG,272.0,0.0,E,,*2E
$GPGGA,164148.8,4741.20300,N,12224.26729,W,1,09,0.9,-3.7,M,-18.2,M,,*4F
$YXXDR,A,5.1,D,PTCH,A,4.8,D,ROLL*55
$GPVTG,003.2,T,346.8,M,000.13,N,0000.24,K,A*1F
$GPRMC,164148.9,A,4741.20300,N,12224.26729,W,000.11,003.2,261014,016.4,E,A*2A
$HCHDG,272.0,0.0,E,,*2E
$GPGGA,164148.9,4741.20300,N,12224.26729,W,1,09,0.9,-3.7,M,-18.2,M,,*4E
$YXXDR,A,5.1,D,PTCH,A,4.8,D,ROLL*55
$GPVTG,003.2,T,346.8,M,000.11,N,0000.21,K,A*18
$GPRMC,164149.0,A,4741.20300,N,12224.26729,W,000.14,003.2,261014,016.4,E,A*27
$HCHDG,272.0,0.0,E,,*2E
$GPGGA,164149.0,4741.20300,N,12224.26729,W,1,09,0.9,-3.7,M,-18.2,M,,*46
$YXXDR,A,5.1,D,PTCH,A,4.8,D,ROLL*55
$GPVTG,003.2,T,346.8,M,000.14,N,0000.26,K,A*1A
$GPGSA,A,3,12,02,25,06,10,24,29,05,31,,,,1.5,0.9,1.1*34
$GPRMC,164149.1,A,4741.20300,N,12224.26729,W,000.14,003.2,261014,016.4,E,A*26
$HCHDG,272.0,0.0,E,,*2E
$YXXDR,A,5.1,D,PTCH,A,4.9,D,ROLL*54
$GPGGA,164149.1,4741.20300,N,12224.26729,W,1,09,0.9,-3.7,M,-18.2,M,,*47
$GPVTG,003.2,T,346.8,M,000.14,N,0000.26,K,A*1A
$GPGSV,3,1,09,12,84,174,49,02,75,123,46,25,50,305,47,06,43,055,46*74
$GPGSV,3,2,09,10,28,099,49,24,23,210,38,29,19,268,38,05,12,150,41*7B
$GPGSV,3,3,09,31,08,331,38*40
$GPRMC,164149.2,A,4741.20300,N,12224.26729,W,000.14,003.2,261014,016.4,E,A*25
$HCHDG,272.0,0.0,E,,*2E
$GPGGA,164149.2,4741.20300,N,12224.26729,W,1,09,0.9,-3.7,M,-18.2,M,,*44
$GPVTG,003.2,T,346.8,M,000.14,N,0000.25,K,A*19
$YXXDR,A,5.1,D,PTCH,A,5.0,D,ROLL*5C
$IIVHW,,,,,00.0,N,,*19
$GPRMC,164149.3,A,4741.20300,N,12224.26729,W,000.13,003.2,261014,016.4,E,A*23
$HCHDG,272.0,0.0,E,,*2E
$GPGGA,164149.3,4741.20300,N,12224.26729,W,1,09,0.9,-3.7,M,-18.2,M,,*45
$YXXDR,A,5.1,D,PTCH,A,5.0,D,ROLL*5C
$TIROT,6.9,A*34
$IIVLW,07053,N,000.0,N*52
$GPVTG,003.2,T,346.8,M,000.13,N,0000.24,K,A*1F
$IIVWR,107,L,12.8,N,,,,*72
$HCHDG,272.0,0.0,E,,*2E
$GPRMC,164149.4,A,4741.20300,N,12224.26729,W,000.12,003.2,261014,016.4,E,A*25
$GPGGA,164149.4,4741.20300,N,12224.26729,W,1,09,0.9,-3.6,M,-18.2,M,,*43
$YXXDR,A,5.1,D,PTCH,A,5.0,D,ROLL*5C
$GPVTG,003.2,T,346.8,M,000.12,N,0000.23,K,A*19
$HCHDG,272.2,0.0,E,,*2C
$GPRMC,164149.5,A,4741.20300,N,12224.26729,W,000.14,003.2,261014,016.4,E,A*22
$YXXDR,A,5.1,D,PTCH,A,5.0,D,ROLL*5C
$GPGGA,164149.5,4741.20300,N,12224.26729,W,1,09,0.9,-3.6,M,-18.2,M,,*42
$GPVTG,003.2,T,346.8,M,000.14,N,0000.27,K,A*1B
$IIMTW,-09.5,C*32
$HCHDG,272.1,0.0,E,,*2F
$GPRMC,164149.6,A,4741.20300,N,12224.26729,W,000.14,003.2,261014,016.4,E,A*21
$GPGGA,164149.6,4741.20300,N,12224.26729,W,1,09,0.9,-3.6,M,-18.2,M,,*41
$YXXDR,A,5.0,D,PTCH,A,5.0,D,ROLL*5D
$IIMWV,253,R,12.8,N,A*1C
$GPVTG,003.2,T,346.8,M,000.14,N,0000.26,K,A*1A
$IIMWV,254,T,12.7,N,A*12
$HCHDG,272.1,0.0,E,,*2F
$GPRMC,164149.7,A,4741.20294,N,12224.26737,W,000.16,003.2,261014,016.4,E,A*21
$GPGGA,164149.7,4741.20294,N,12224.26737,W,1,09,0.9,-3.6,M,-18.2,M,,*43
$YXXDR,A,5.0,D,PTCH,A,4.8,D,ROLL*54
$GPVTG,003.2,T,346.8,M,000.16,N,0000.29,K,A*17
$HCHDG,272.1,0.0,E,,*2F
$GPVTG,003.2,T,346.8,M,000.17,N,0000.31,K,A*1F
$GPRMC,164149.8,A,4741.20294,N,12224.26737,W,000.17,003.2,261014,016.4,E,A*2F
$GPGGA,164149.8,4741.20294,N,12224.26737,W,1,09,0.9,-3.6,M,-18.2,M,,*4C
$YXXDR,A,5.0,D,PTCH,A,4.8,D,ROLL*54
$GPRMC,164149.9,A,4741.20294,N,12224.26737,W,000.16,003.2,261014,016.4,E,A*2F
$GPGGA,164149.9,4741.20294,N,12224.26737,W,1,09,0.9,-3.6,M,-18.2,M,,*4D
$GPVTG,003.2,T,346.8,M,000.16,N,0000.29,K,A*17
$HCHDG,272.0,0.0,E,,*2E
$YXXDR,A,5.0,D,PTCH,A,4.7,D,ROLL*5B
$HCHDG,272.0,0.0,E,,*2E
$YXXDR,A,5.1,D,PTCH,A,4.7,D,ROLL*5A
$HCHDG,272.1,0.0,E,,*2F
$IIVHW,,,,,00.0,N,,*19
$IIVLW,07053,N,000.0,N*52
$IIVWR,107,L,12.4,N,,,,*7E
$IIMTW,-09.5,C*32
$GPRMC,164150.0,A,4741.20294,N,12224.26737,W,000.13,003.2,261014,016.4,E,A*2B
$GPGGA,164150.0,4741.20294,N,12224.26737,W,1,09,0.9,-3.6,M,-18.2,M,,*4C
$GPVTG,003.2,T,346.8,M,000.13,N,0000.25,K,A*1E
$GPGSA,A,3,12,02,25,06,10,24,29,05,31,,,,1.5,0.9,1.1*34
$YXXDR,A,5.1,D,PTCH,A,4.7,D,ROLL*5A
$HCHDG,272.1,0.0,E,,*2F
$YXXDR,A,5.1,D,PTCH,A,4.6,D,ROLL*5B
$HCHDG,272.1,0.0,E,,*2F
$YXXDR,A,5.1,D,PTCH,A,4.6,D,ROLL*5B
$IIMWV,253,R,12.4,N,A*10
$IIMWV,253,T,12.8,N,A*1A
$GPRMC,164150.1,A,4741.20294,N,12224.26737,W,000.13,003.2,261014,016.4,E,A*2A
$GPGGA,164150.1,4741.20294,N,12224.26737,W,1,09,0.9,-3.6,M,-18.2,M,,*4D
$GPVTG,003.2,T,346.8,M,000.13,N,0000.23,K,A*18
$GPGSV,3,1,09,12,84,174,49,02,75,123,46,25,50,305,47,06,43,055,47*75
$TIROT,13.0,A*09
$HCHDG,272.1,0.0,E,,*2F
$YXXDR,A,4.8,D,PTCH,A,4.7,D,ROLL*52
$HCHDG,271.9,0.0,E,,*24
$YXXDR,A,4.9,D,PTCH,A,4.6,D,ROLL*52
$HCHDG,272.0,0.0,E,,*2E
$GPGSV,3,2,09,10,28,099,49,24,23,210,38,29,19,268,37,05,12,150,41*74
$GPGSV,3,3,09,31,08,331,38*40
$GPRMC,164150.2,A,4741.20294,N,12224.26737,W,000.13,003.2,261014,016.4,E,A*29
$GPGGA,164150.2,4741.20294,N,12224.26737,W,1,09,0.9,-3.6,M,-18.2,M,,*4E
$YXXDR,A,4.9,D,PTCH,A,4.6,D,ROLL*52
$HCHDG,271.9,0.0,E,,*24
$YXXDR,A,4.9,D,PTCH,A,4.6,D,ROLL*52
$HCHDG,272.0,0.0,E,,*2E
$GPVTG,003.2,T,346.8,M,000.13,N,0000.25,K,A*1E
$GPRMC,164150.3,A,4741.20294,N,12224.26737,W,000.13,003.2,261014,016.4,E,A*28
$GPGGA,164150.3,4741.20294,N,12224.26737,W,1,09,0.9,-3.6,M,-18.2,M,,*4F
$GPVTG,003.2,T,346.8,M,000.13,N,0000.25,K,A*1E
$YXXDR,A,5.0,D,PTCH,A,4.5,D,ROLL*59
$HCHDG,272.1,0.0,E,,*2F
$YXXDR,A,5.1,D,PTCH,A,4.5,D,ROLL*58
$HCHDG,272.1,0.0,E,,*2F
$YXXDR,A,5.2,D,PTCH,A,4.6,D,ROLL*58
$HCHDG,272.1,0.0,E,,*2F
$GPRMC,164150.4,A,4741.20294,N,12224.26737,W,000.14,003.2,261014,016.4,E,A*28
$GPGGA,164150.4,4741.20294,N,12224.26737,W,1,09,0.9,-3.4,M,-18.2,M,,*4A
$GPVTG,003.2,T,346.8,M,000.14,N,0000.25,K,A*19
$GPRMC,164150.5,A,4741.20294,N,12224.26737,W,000.16,003.2,261014,016.4,E,A*2B
$YXXDR,A,5.1,D,PTCH,A,4.7,D,ROLL*5A
$HCHDG,272.0,0.0,E,,*2E
$YXXDR,A,5.1,D,PTCH,A,4.7,D,ROLL*5A
$HCHDG,272.0,0.0,E,,*2E
$IIVHW,,,,,00.0,N,,*19
$GPGGA,164150.5,4741.20294,N,12224.26737,W,1,09,0.9,-3.4,M,-18.2,M,,*4B
$GPVTG,003.2,T,346.8,M,000.16,N,0000.30,K,A*1F
$GPRMC,164150.6,A,4741.20294,N,12224.26737,W,000.16,003.2,261014,016.4,E,A*28
$GPGGA,164150.6,4741.20294,N,12224.26737,W,1,09,0.9,-3.4,M,-18.2,M,,*48
$YXXDR,A,5.2,D,PTCH,A,4.7,D,ROLL*59
$TIROT,-1.5,A*12
$IIVLW,07053,N,000.0,N*52
$GPVTG,003.2,T,346.8,M,000.16,N,0000.29,K,A*17
$GPRMC,164150.7,A,4741.20295,N,12224.26743,W,000.17,003.2,261014,016.4,E,A*2A
$GPGGA,164150.7,4741.20295,N,12224.26743,W,1,09,0.9,-3.4,M,-18.2,M,,*4B
$GPVTG,003.2,T,346.8,M,000.17,N,0000.32,K,A*1C
$HCHDG,272.1,0.0,E,,*2F
$IIVWR,112,L,12.3,N,,,,*7D
$GPRMC,164150.8,A,4741.20295,N,12224.26743,W,000.16,003.2,261014,016.4,E,A*24
$GPGGA,164150.8,4741.20295,N,12224.26743,W,1,09,0.9,-3.4,M,-18.2,M,,*44
$GPVTG,003.2,T,346.8,M,000.16,N,0000.29,K,A*17
$YXXDR,A,5.2,D,PTCH,A,4.7,D,ROLL*59
$GPRMC,164150.9,A,4741.20295,N,12224.26743,W,000.14,003.2,261014,016.4,E,A*27
$GPGGA,164150.9,4741.20295,N,12224.26743,W,1,09,0.9,-3.4,M,-18.2,M,,*45
$GPVTG,003.2,T,346.8,M,000.14,N,0000.25,K,A*19
$GPRMC,164151.0,A,4741.20295,N,12224.26743,W,000.15,003.2,261014,016.4,E,A*2E
$GPGGA,164151.0,4741.20295,N,12224.26743,W,1,09,0.9,-3.4,M,-18.2,M,,*4D
$GPVTG,003.2,T,346.8,M,000.15,N,0000.27,K,A*1A
$GPGSA,A,3,12,02,25,06,10,24,29,05,31,,,,1.5,0.9,1.1*34
$GPRMC,164151.1,A,4741.20295,N,12224.26743,W,000.14,003.2,261014,016.4,E,A*2E
$GPGGA,164151.1,4741.20295,N,12224.26743,W,1,09,0.9,-3.4,M,-18.2,M,,*4C
$GPVTG,003.2,T,346.8,M,000.14,N,0000.25,K,A*19
$GPGSV,3,1,09,12,84,174,48,02,75,123,46,25,50,305,47,06,43,055,46*75
$GPGSV,3,2,09,10,28,099,48,24,23,210,38,29,19,268,37,05,12,150,41*75
$GPGSV,3,3,09,31,08,331,38*40
$GPRMC,164151.2,A,4741.20295,N,12224.26743,W,000.13,003.2,261014,016.4,E,A*2A
$GPGGA,164151.2,4741.20295,N,12224.26743,W,1,09,0.9,-3.4,M,-18.2,M,,*4F
$GPVTG,003.2,T,346.8,M,000.13,N,0000.23,K,A*18
$HCHDG,272.1,0.0,E,,*2F
$YXXDR,A,5.2,D,PTCH,A,4.7,D,ROLL*59
$GPRMC,164151.3,A,4741.20295,N,12224.26743,W,000.14,003.2,261014,016.4,E,A*2C
$GPGGA,164151.3,4741.20295,N,12224.26743,W,1,09,0.9,-3.4,M,-18.2,M,,*4E
$GPVTG,003.2,T,346.8,M,000.14,N,0000.26,K,A*1A
$GPRMC,164151.4,A,4741.20295,N,12224.26743,W,000.13,003.2,261014,016.4,E,A*2C
$IIMTW,-10.0,C*3F
$GPGGA,164151.4,4741.20295,N,12224.26743,W,1,09,0.9,-3.4,M,-18.2,M,,*49
$GPVTG,003.2,T,346.8,M,000.13,N,0000.23,K,A*18
$GPRMC,164151.5,A,4741.20295,N,12224.26743,W,000.12,003.2,261014,016.4,E,A*2C
$GPGGA,164151.5,4741.20295,N,12224.26743,W,1,09,0.9,-3.4,M,-18.2,M,,*48
$GPVTG,003.2,T,346.8,M,000.12,N,0000.22,K,A*18
$GPRMC,164151.6,A,4741.20295,N,12224.26743,W,000.11,003.2,261014,016.4,E,A*2C
$GPGGA,164151.6,4741.20295,N,12224.26743,W,1,09,0.9,-3.4,M,-18.2,M,,*4B
$GPVTG,003.2,T,346.8,M,000.11,N,0000.20,K,A*19
$IIMWV,248,R,12.3,N,A*1D
$HCHDG,272.1,0.0,E,,*2F
$YXXDR,A,5.2,D,PTCH,A,4.7,D,ROLL*59
$IIMWV,253,T,12.4,N,A*16
$HCHDG,272.1,0.0,E,,*2F
$GPRMC,164151.7,A,4741.20295,N,12224.26739,W,000.11,003.2,261014,016.4,E,A*20
$YXXDR,A,5.2,D,PTCH,A,4.7,D,ROLL*59
$GPGGA,164151.7,4741.20295,N,12224.26739,W,1,09,0.9,-3.4,M,-18.2,M,,*47
$GPVTG,003.2,T,346.8,M,000.11,N,0000.21,K,A*18
$HCHDG,272.0,0.0,E,,*2E
$GPRMC,164151.8,A,4741.20295,N,12224.26739,W,000.12,003.2,261014,016.4,E,A*2C
$YXXDR,A,5.3,D,PTCH,A,4.8,D,ROLL*57
$GPGGA,164151.8,4741.20295,N,12224.26739,W,1,09,0.9,-3.4,M,-18.2,M,,*48
$GPVTG,003.2,T,346.8,M,000.12,N,0000.23,K,A*19
$HCHDG,272.1,0.0,E,,*2F
$YXXDR,A,5.2,D,PTCH,A,4.7,D,ROLL*59
$GPRMC,164151.9,A,4741.20295,N,12224.26739,W,000.12,003.2,261014,016.4,E,A*2D
$GPGGA,164151.9,4741.20295,N,12224.26739,W,1,09,0.9,-3.4,M,-18.2,M,,*49
$GPVTG,003.2,T,346.8,M,000.12,N,0000.21,K,A*1B
$HCHDG,272.0,0.0,E,,*2E
$GPRMC,164152.0,A,4741.20295,N,12224.26739,W,000.15,003.2,261014,016.4,E,A*20
$YXXDR,A,5.1,D,PTCH,A,4.8,D,ROLL*55
$GPGGA,164152.0,4741.20295,N,12224.26739,W,1,09,0.9,-3.4,M,-18.2,M,,*43
$GPVTG,003.2,T,346.8,M,000.15,N,0000.28,K,A*15
$GPGSA,A,3,12,02,25,06,10,24,29,05,31,,,,1.5,0.9,1.1*34
$HCHDG,272.3,0.0,E,,*2D
$YXXDR,A,5.1,D,PTCH,A,4.8,D,ROLL*55
$GPRMC,164152.1,A,4741.20295,N,12224.26739,W,000.14,003.2,261014,016.4,E,A*20
$GPGGA,164152.1,4741.20295,N,12224.26739,W,1,09,0.9,-3.4,M,-18.2,M,,*42
$GPVTG,003.2,T,346.8,M,000.14,N,0000.26,K,A*1A
$GPGSV,3,1,09,12,84,174,48,02,75,123,46,25,50,305,47,06,43,055,46*75
$GPGSV,3,2,09,10,28,099,49,24,23,210,39,29,19,268,37,05,12,150,41*75
$GPGSV,3,3,09,31,08,331,38*40
$GPRMC,164152.2,A,4741.20295,N,12224.26739,W,000.12,003.2,261014,016.4,E,A*25
$GPGGA,164152.2,4741.20295,N,12224.26739,W,1,09,0.9,-3.4,M,-18.2,M,,*41
$GPVTG,003.2,T,346.8,M,000.12,N,0000.22,K,A*18
$HCHDG,272.1,0.0,E,,*2F
$YXXDR,A,5.2,D,PTCH,A,4.7,D,ROLL*59
$IIVHW,,,,,00.0,N,,*19
$HCHDG,272.1,0.0,E,,*2F
$YXXDR,A,5.2,D,PTCH,A,4.7,D,ROLL*59
$IIVLW,07053,N,000.0,N*52
$TIROT,1.2,A*38
$HCHDG,272.1,0.0,E,,*2F
$GPRMC,164152.3,A,4741.20295,N,12224.26739,W,000.11,003.2,261014,016.4,E,A*27
$GPGGA,164152.3,4741.20295,N,12224.26739,W,1,09,0.9,-3.4,M,-18.2,M,,*40
$GPVTG,003.2,T,346.8,M,000.11,N,0000.20,K,A*19
$IIVWR,115,L,12.2,N,,,,*7B
$YXXDR,A,5.1,D,PTCH,A,4.7,D,ROLL*5A
$GPRMC,164152.4,A,4741.20295,N,12224.26739,W,000.12,003.2,261014,016.4,E,A*23
$GPGGA,164152.4,4741.20295,N,12224.26739,W,1,09,0.9,-3.3,M,-18.2,M,,*40
$GPVTG,003.2,T,346.8,M,000.12,N,0000.22,K,A*18
$GPRMC,164152.5,A,4741.20295,N,12224.26739,W,000.12,003.2,261014,016.4,E,A*22
$GPGGA,164152.5,4741.20295,N,12224.26739,W,1,09,0.9,-3.3,M,-18.2,M,,*41
$GPVTG,003.2,T,346.8,M,000.12,N,0000.22,K,A*18
$HCHDG,272.1,0.0,E,,*2F
$YXXDR,A,5.1,D,PTCH,A,4.7,D,ROLL*5A
$IIMTW,-10.0,C*3F
$HCHDG,272.0,0.0,E,,*2E
$YXXDR,A,5.1,D,PTCH,A,4.6,D,ROLL*5B
$IIMWV,245,R,12.2,N,A*11
$IIMWV,248,T,12.3,N,A*1B
$GPRMC,164152.6,A,4741.20295,N,12224.26739,W,000.10,003.2,261014,016.4,E,A*23
$GPGGA,164152.6,4741.20295,N,12224.26739,W,1,09,0.9,-3.3,M,-18.2,M,,*42
$GPVTG,003.2,T,346.8,M,000.10,N,0000.19,K,A*12
$GPRMC,164152.7,A,4741.20292,N,12224.26746,W,000.15,003.2,261014,016.4,E,A*28
$GPGGA,164152.7,4741.20292,N,12224.26746,W,1,09,0.9,-3.3,M,-18.2,M,,*4C
$GPVTG,003.2,T,346.8,M,000.15,N,0000.27,K,A*1A
$HCHDG,272.0,0.0,E,,*2E
$YXXDR,A,5.1,D,PTCH,A,4.6,D,ROLL*5B
$HCHDG,272.0,0.0,E,,*2E
$YXXDR,A,5.1,D,PTCH,A,4.5,D,ROLL*58
$GPRMC,164152.8,A,4741.20292,N,12224.26746,W,000.16,003.2,261014,016.4,E,A*24
$GPGGA,164152.8,4741.20292,N,12224.26746,W,1,09,0.9,-3.3,M,-18.2,M,,*43
$GPVTG,003.2,T,346.8,M,000.16,N,0000.30,K,A*1F
$HCHDG,272.0,0.0,E,,*2E
$YXXDR,A,5.1,D,PTCH,A,4.5,D,ROLL*58
$GPRMC,164152.9,A,4741.20292,N,12224.26746,W,000.16,003.2,261014,016.4,E,A*25
$GPGGA,164152.9,4741.20292,N,12224.26746,W,1,09,0.9,-3.3,M,-18.2,M,,*42
$GPVTG,003.2,T,346.8,M,000.16,N,0000.29,K,A*17
$GPRMC,164153.0,A,4741.20292,N,12224.26746,W,000.14,003.2,261014,016.4,E,A*2F
$HCHDG,272.0,0.0,E,,*2E
$YXXDR,A,5.0,D,PTCH,A,4.5,D,ROLL*59
$GPGGA,164153.0,4741.20292,N,12224.26746,W,1,09,0.9,-3.3,M,-18.2,M,,*4A
$GPVTG,003.2,T,346.8,M,000.14,N,0000.25,K,A*19
$GPGSA,A,3,12,02,25,06,10,24,29,05,31,,,,1.5,0.9,1.2*37
$HCHDG,272.1,0.0,E,,*2F
$GPRMC,164153.1,A,4741.20292,N,12224.26746,W,000.14,003.2,261014,016.4,E,A*2E
$GPGGA,164153.1,4741.20292,N,12224.26746,W,1,09,0.9,-3.3,M,-18.2,M,,*4B
$YXXDR,A,5.0,D,PTCH,A,4.5,D,ROLL*59
$GPVTG,003.2,T,346.8,M,000.14,N,0000.26,K,A*1A
$GPGSV,3,1,09,12,84,174,48,02,75,123,45,25,50,305,47,06,43,055,46*76
$GPGSV,3,2,09,10,28,099,49,24,23,210,39,29,19,268,38,05,12,150,41*7A
$GPGSV,3,3,09,31,08,331,38*40
$HCHDG,272.1,0.0,E,,*2F
$YXXDR,A,5.1,D,PTCH,A,4.5,D,ROLL*58
$GPRMC,164153.2,A,4741.20292,N,12224.26746,W,000.14,003.2,261014,016.4,E,A*2D
$GPGGA,164153.2,4741.20292,N,12224.26746,W,1,09,0.9,-3.3,M,-18.2,M,,*48
$GPVTG,003.2,T,346.8,M,000.14,N,0000.25,K,A*19
$HCHDG,272.1,0.0,E,,*2F
$IIVHW,,,,,00.0,N,,*19
$GPRMC,164153.3,A,4741.20292,N,12224.26746,W,000.13,003.2,261014,016.4,E,A*2B
$GPGGA,164153.3,4741.20292,N,12224.26746,W,1,09,0.9,-3.3,M,-18.2,M,,*49
$GPVTG,003.2,T,346.8,M,000.13,N,0000.24,K,A*1F
$YXXDR,A,4.9,D,PTCH,A,4.6,D,ROLL*52
$TIROT,10.2,A*08
$IIVLW,07053,N,000.0,N*52
$HCHDG,271.9,0.0,E,,*24
$YXXDR,A,5.0,D,PTCH,A,4.7,D,ROLL*5B
$IIVWR,115,L,13.6,N,,,,*7E
$GPRMC,164153.4,A,4741.20292,N,12224.26746,W,000.12,003.2,261014,016.4,E,A*2D
$GPGGA,164153.4,4741.20292,N,12224.26746,W,1,09,0.9,-3.5,M,-18.2,M,,*48
$GPVTG,003.2,T,346.8,M,000.12,N,0000.23,K,A*19
$HCHDG,271.9,0.0,E,,*24
$GPRMC,164153.5,A,4741.20292,N,12224.26746,W,000.11,003.2,261014,016.4,E,A*2F
$GPGGA,164153.5,4741.20292,N,12224.26746,W,1,09,0.9,-3.5,M,-18.2,M,,*49
$GPVTG,003.2,T,346.8,M,000.11,N,0000.20,K,A*19
$YXXDR,A,5.1,D,PTCH,A,4.6,D,ROLL*5B
$IIMTW,-09.5,C*32
$GPRMC,164153.6,A,4741.20292,N,12224.26746,W,000.13,003.2,261014,016.4,E,A*2E
$HCHDG,272.0,0.0,E,,*2E
$YXXDR,A,5.1,D,PTCH,A,4.6,D,ROLL*5B
$IIMWV,245,R,13.6,N,A*14
$GPGGA,164153.6,4741.20292,N,12224.26746,W,1,09,0.9,-3.5,M,-18.2,M,,*4A
$GPVTG,003.2,T,346.8,M,000.13,N,0000.24,K,A*1F
$HCHDG,271.9,0.0,E,,*24
$YXXDR,A,5.1,D,PTCH,A,4.7,D,ROLL*5A
$IIMWV,245,T,12.2,N,A*17
$GPRMC,164153.7,A,4741.20297,N,12224.26740,W,000.12,003.2,261014,016.4,E,A*2D
$GPGGA,164153.7,4741.20297,N,12224.26740,W,1,09,0.9,-3.5,M,-18.2,M,,*48
$GPVTG,003.2,T,346.8,M,000.12,N,0000.23,K,A*19
$GPRMC,164153.8,A,4741.20297,N,12224.26740,W,000.13,003.2,261014,016.4,E,A*23
$GPGGA,164153.8,4741.20297,N,12224.26740,W,1,09,0.9,-3.4,M,-18.2,M,,*46
$GPVTG,003.2,T,346.8,M,000.13,N,0000.25,K,A*1E
$GPRMC,164153.9,A,4741.20297,N,12224.26740,W,000.15,003.2,261014,016.4,E,A*24
$HCHDG,272.0,0.0,E,,*2E
$YXXDR,A,5.1,D,PTCH,A,4.6,D,ROLL*5B
$HCHDG,272.0,0.0,E,,*2E
$YXXDR,A,5.1,D,PTCH,A,4.6,D,ROLL*5B
$GPGGA,164153.9,4741.20297,N,12224.26740,W,1,09,0.9,-3.4,M,-18.2,M,,*47
$GPVTG,003.2,T,346.8,M,000.15,N,0000.27,K,A*1A
$HCHDG,272.0,0.0,E,,*2E
$GPRMC,164154.0,A,4741.20297,N,12224.26740,W,000.13,003.2,261014,016.4,E,A*2C
$YXXDR,A,5.0,D,PTCH,A,4.4,D,ROLL*58
$GPGGA,164154.0,4741.20297,N,12224.26740,W,1,09,0.9,-3.4,M,-18.2,M,,*49
$GPVTG,003.2,T,346.8,M,000.13,N,0000.23,K,A*18
$GPGSA,A,3,12,02,25,06,10,24,29,05,31,,,,1.5,0.9,1.2*37
$GPRMC,164154.1,A,4741.20297,N,12224.26740,W,000.12,003.2,261014,016.4,E,A*2C
$GPGGA,164154.1,4741.20297,N,12224.26740,W,1,09,0.9,-3.4,M,-18.2,M,,*48
$HCHDG,272.0,0.0,E,,*2E
$YXXDR,A,5.0,D,PTCH,A,4.4,D,ROLL*58
$GPVTG,003.2,T,346.8,M,000.12,N,0000.22,K,A*18
$GPGSV,3,1,09,12,84,174,48,02,75,123,46,25,50,305,47,06,43,055,46*75
$GPGSV,3,2,09,10,28,099,48,24,23,210,39,29,19,268,38,05,12,150,41*7B
$GPGSV,3,3,09,31,08,331,38*40
$HCHDG,272.0,0.0,E,,*2E
$YXXDR,A,5.0,D,PTCH,A,4.4,D,ROLL*58
$IIVHW,,,,,00.0,N,,*19
$GPRMC,164154.2,A,4741.20297,N,12224.26740,W,000.18,003.2,261014,016.4,E,A*25
$GPGGA,164154.2,4741.20297,N,12224.26740,W,1,09,0.9,-3.4,M,-18.2,M,,*4B
$GPVTG,003.2,T,346.8,M,000.18,N,0000.33,K,A*12
$HCHDG,272.0,0.0,E,,*2E
$YXXDR,A,4.9,D,PTCH,A,4.4,D,ROLL*50
$TIROT,-8.7,A*19
$IIVLW,07053,N,000.0,N*52
$GPRMC,164154.3,A,4741.20297,N,12224.26740,W,000.19,003.2,261014,016.4,E,A*25
$GPGGA,164154.3,4741.20297,N,12224.26740,W,1,09,0.9,-3.4,M,-18.2,M,,*4A
$GPVTG,003.2,T,346.8,M,000.19,N,0000.35,K,A*15
$IIVWR,120,L,13.9,N,,,,*77
$HCHDG,272.0,0.0,E,,*2E
$YXXDR,A,4.9,D,PTCH,A,4.4,D,ROLL*50
$GPRMC,164154.4,A,4741.20297,N,12224.26740,W,000.21,003.2,261014,016.4,E,A*29
$GPGGA,164154.4,4741.20297,N,12224.26740,W,1,09,0.9,-3.6,M,-18.2,M,,*4F
$GPVTG,003.2,T,346.8,M,000.21,N,0000.39,K,A*12
$HCHDG,271.9,0.0,E,,*24
$YXXDR,A,4.8,D,PTCH,A,4.7,D,ROLL*52
$GPRMC,164154.5,A,4741.20297,N,12224.26740,W,000.21,003.2,261014,016.4,E,A*28
$GPGGA,164154.5,4741.20297,N,12224.26740,W,1,09,0.9,-3.6,M,-18.2,M,,*4E
$GPVTG,003.2,T,346.8,M,000.21,N,0000.38,K,A*13
$IIMTW,-09.5,C*32
$GPRMC,164154.6,A,4741.20297,N,12224.26740,W,000.21,003.2,261014,016.4,E,A*2B
$HCHDG,271.9,0.0,E,,*24
$GPGGA,164154.6,4741.20297,N,12224.26740,W,1,09,0.9,-3.6,M,-18.2,M,,*4D
$GPVTG,003.2,T,346.8,M,000.21,N,0000.40,K,A*1C
$IIMWV,240,R,13.9,N,A*1E
$YXXDR,A,5.0,D,PTCH,A,4.7,D,ROLL*5B
$IIMWV,245,T,13.6,N,A*12
$GPRMC,164154.7,A,4741.20297,N,12224.26740,W,000.19,003.5,261014,016.4,E,A*26
$HCHDG,271.9,0.0,E,,*24
$GPGGA,164154.7,4741.20297,N,12224.26740,W,1,09,0.9,-3.6,M,-18.2,M,,*4C
$YXXDR,A,5.1,D,PTCH,A,4.6,D,ROLL*5B
$GPVTG,003.5,T,347.1,M,000.19,N,0000.35,K,A*1A
$HCHDG,271.9,0.0,E,,*24
$GPRMC,164154.8,A,4741.20304,N,12224.26726,W,000.53,003.5,261014,016.4,E,A*2C
$GPGGA,164154.8,4741.20304,N,12224.26726,W,1,09,0.9,-3.6,M,-18.2,M,,*48
$GPVTG,003.5,T,347.1,M,000.53,N,0000.97,K,A*1C
$YXXDR,A,5.0,D,PTCH,A,4.7,D,ROLL*5B
$GPRMC,164154.9,A,4741.20304,N,12224.26726,W,000.47,003.5,261014,016.4,E,A*28
$HCHDG,271.9,0.0,E,,*24
$GPGGA,164154.9,4741.20304,N,12224.26726,W,1,09,0.9,-3.6,M,-18.2,M,,*49
$YXXDR,A,5.1,D,PTCH,A,4.7,D,ROLL*5A
$GPVTG,003.5,T,347.1,M,000.47,N,0000.87,K,A*18
$GPRMC,164155.0,A,4741.20304,N,12224.26726,W,000.41,003.5,261014,016.4,E,A*26
$HCHDG,271.9,0.0,E,,*24
$GPGGA,164155.0,4741.20304,N,12224.26726,W,1,09,0.9,-3.6,M,-18.2,M,,*41
$GPVTG,003.5,T,347.1,M,000.41,N,0000.76,K,A*10
$YXXDR,A,5.1,D,PTCH,A,4.7,D,ROLL*5A
$GPGSA,A,3,12,02,25,06,10,24,29,05,31,,,,1.5,0.9,1.2*37
$GPRMC,164155.1,A,4741.20304,N,12224.26726,W,000.36,003.5,261014,016.4,E,A*27
$HCHDG,271.9,0.0,E,,*24
$GPGGA,164155.1,4741.20304,N,12224.26726,W,1,09,0.9,-3.6,M,-18.2,M,,*40
$GPVTG,003.5,T,347.1,M,000.36,N,0000.67,K,A*10
$YXXDR,A,5.1,D,PTCH,A,4.6,D,ROLL*5B
$GPGSV,3,1,09,12,84,174,48,02,75,123,46,25,50,305,47,06,43,055,46*75
$GPGSV,3,2,09,10,28,099,49,24,23,210,39,29,19,268,37,05,12,150,41*75
$GPGSV,3,3,09,31,08,331,38*40
$GPRMC,164155.2,A,4741.20304,N,12224.26726,W,000.31,003.5,261014,016.4,E,A*23
$HCHDG,271.9,0.0,E,,*24
$GPGGA,164155.2,4741.20304,N,12224.26726,W,1,09,0.9,-3.6,M,-18.2,M,,*43
$YXXDR,A,5.0,D,PTCH,A,4.5,D,ROLL*59
$GPVTG,003.5,T,347.1,M,000.31,N,0000.57,K,A*14
$IIVHW,,,,,00.0,N,,*19
$GPRMC,164155.3,A,4741.20304,N,12224.26726,W,000.31,003.5,261014,016.4,E,A*22
$HCHDG,271.8,0.0,E,,*25
$GPGGA,164155.3,4741.20304,N,12224.26726,W,1,09,0.9,-3.6,M,-18.2,M,,*42
$YXXDR,A,5.1,D,PTCH,A,4.3,D,ROLL*5E
$GPVTG,003.5,T,347.1,M,000.31,N,0000.58,K,A*1B
$TIROT,-4.2,A*10
$IIVLW,07053,N,000.0,N*52
$IIVWR,119,L,13.9,N,,,,*7D
$GPRMC,164155.4,A,4741.20304,N,12224.26726,W,000.34,003.5,261014,016.4,E,A*20
$HCHDG,271.8,0.0,E,,*25
$YXXDR,A,5.1,D,PTCH,A,3.9,D,ROLL*53
$GPGGA,164155.4,4741.20304,N,12224.26726,W,1,09,0.9,-3.4,M,-18.2,M,,*47
$GPVTG,003.5,T,347.1,M,000.34,N,0000.64,K,A*11
$GPRMC,164155.5,A,4741.20304,N,12224.26726,W,000.33,003.5,261014,016.4,E,A*26
$HCHDG,271.9,0.0,E,,*24
$GPGGA,164155.5,4741.20304,N,12224.26726,W,1,09,0.9,-3.4,M,-18.2,M,,*46
$YXXDR,A,5.2,D,PTCH,A,3.8,D,ROLL*51
$GPVTG,003.5,T,347.1,M,000.33,N,0000.61,K,A*13
$IIMTW,-09.0,C*37
$GPRMC,164155.6,A,4741.20304,N,12224.26726,W,000.28,003.5,261014,016.4,E,A*2F
$HCHDG,271.9,0.0,E,,*24
$YXXDR,A,5.1,D,PTCH,A,3.6,D,ROLL*5C
$GPGGA,164155.6,4741.20304,N,12224.26726,W,1,09,0.9,-3.4,M,-18.2,M,,*45
$GPVTG,003.5,T,347.1,M,000.28,N,0000.52,K,A*19
$IIMWV,241,R,13.9,N,A*1F
$IIMWV,240,T,13.9,N,A*18
$GPRMC,164155.7,A,4741.20304,N,12224.26726,W,000.25,003.5,261014,016.4,E,A*23
$HCHDG,271.9,0.0,E,,*24
$GPGGA,164155.7,4741.20304,N,12224.26726,W,1,09,0.9,-3.4,M,-18.2,M,,*44
$YXXDR,A,5.0,D,PTCH,A,3.6,D,ROLL*5D
$GPVTG,003.5,T,347.1,M,000.25,N,0000.47,K,A*10
$GPRMC,164155.8,A,4741.20304,N,12224.26726,W,000.24,003.5,261014,016.4,E,A*2D
$HCHDG,271.9,0.0,E,,*24
$GPGGA,164155.8,4741.20304,N,12224.26726,W,1,09,0.9,-3.4,M,-18.2,M,,*4B
$YXXDR,A,5.1,D,PTCH,A,3.4,D,ROLL*5E
$GPVTG,003.5,T,347.0,M,000.24,N,0000.45,K,A*12
$GPRMC,164155.9,A,4741.20304,N,12224.26726,W,000.20,003.4,261014,016.4,E,A*29
$HCHDG,271.9,0.0,E,,*24
$GPGGA,164155.9,4741.20304,N,12224.26726,W,1,09,0.9,-3.4,M,-18.2,M,,*4A
$YXXDR,A,5.0,D,PTCH,A,3.3,D,ROLL*58
$GPVTG,003.4,T,346.9,M,000.20,N,0000.38,K,A*15
$GPRMC,164156.0,A,4741.20301,N,12224.26719,W,000.19,002.7,261014,016.4,E,A*22
$HCHDG,271.9,0.0,E,,*24
$GPGGA,164156.0,4741.20301,N,12224.26719,W,1,09,0.9,-3.4,M,-18.2,M,,*49
$YXXDR,A,5.1,D,PTCH,A,3.0,D,ROLL*5A
$GPVTG,002.7,T,346.2,M,000.19,N,0000.35,K,A*1B
$GPGSA,A,3,12,02,25,06,10,24,29,05,31,,,,1.5,0.9,1.2*37
$GPRMC,164156.1,A,4741.20301,N,12224.26719,W,000.18,002.7,261014,016.4,E,A*22
$HCHDG,271.9,0.0,E,,*24
$GPGGA,164156.1,4741.20301,N,12224.26719,W,1,09,0.9,-3.4,M,-18.2,M,,*48
$YXXDR,A,5.1,D,PTCH,A,2.8,D,ROLL*53
$GPVTG,002.7,T,346.2,M,000.18,N,0000.33,K,A*1C
$GPGSV,3,1,09,12,84,174,48,02,75,123,46,25,50,305,48,06,43,055,46*7A
$GPGSV,3,2,09,10,28,099,48,24,23,210,38,29,19,268,37,05,12,150,40*74
$GPGSV,3,3,09,31,08,331,38*40
$GPRMC,164156.2,A,4741.20301,N,12224.26719,W,000.19,002.7,261014,016.4,E,A*20
$HCHDG,271.9,0.0,E,,*24
$GPGGA,164156.2,4741.20301,N,12224.26719,W,1,09,0.9,-3.4,M,-18.2,M,,*4B
$YXXDR,A,5.0,D,PTCH,A,2.9,D,ROLL*53
$GPVTG,002.7,T,346.2,M,000.19,N,0000.35,K,A*1B
$IIVHW,,,,,00.0,N,,*19
$GPRMC,164156.3,A,4741.20301,N,12224.26719,W,000.18,002.7,261014,016.4,E,A*20
$HCHDG,271.6,0.0,E,,*2B
$YXXDR,A,5.0,D,PTCH,A,2.8,D,ROLL*52
$TIROT,-20.2,A*26
$IIVLW,07053,N,000.0,N*52
$GPGGA,164156.3,4741.20301,N,12224.26719,W,1,09,0.9,-3.4,M,-18.2,M,,*4A
$GPVTG,002.7,T,346.2,M,000.18,N,0000.33,K,A*1C
$HCHDG,271.6,0.0,E,,*2B
$IIVWR,116,L,13.8,N,,,,*73
$GPRMC,164156.4,A,4741.20301,N,12224.26719,W,000.20,002.7,261014,016.4,E,A*2C
$GPGGA,164156.4,4741.20301,N,12224.26719,W,1,09,0.9,-3.4,M,-18.2,M,,*4D
$GPVTG,002.7,T,346.2,M,000.20,N,0000.37,K,A*13
$YXXDR,A,5.0,D,PTCH,A,2.8,D,ROLL*52
$GPRMC,164156.5,A,4741.20301,N,12224.26719,W,000.20,002.7,261014,016.4,E,A*2D
$GPGGA,164156.5,4741.20301,N,12224.26719,W,1,09,0.9,-3.4,M,-18.2,M,,*4C
$GPVTG,002.7,T,346.2,M,000.20,N,0000.36,K,A*12
$HCHDG,271.8,0.0,E,,*25
$YXXDR,A,5.0,D,PTCH,A,2.9,D,ROLL*53
$IIMTW,-08.0,C*36
$GPRMC,164156.6,A,4741.20301,N,12224.26719,W,000.17,002.7,261014,016.4,E,A*2A
$GPGGA,164156.6,4741.20301,N,12224.26719,W,1,09,0.9,-3.4,M,-18.2,M,,*4F
$HCHDG,271.8,0.0,E,,*25
$YXXDR,A,5.1,D,PTCH,A,2.9,D,ROLL*52
$IIMWV,244,R,13.8,N,A*1B
$GPVTG,002.7,T,346.2,M,000.17,N,0000.31,K,A*11
$GPRMC,164156.7,A,4741.20301,N,12224.26719,W,000.15,002.7,261014,016.4,E,A*29
$GPGGA,164156.7,4741.20301,N,12224.26719,W,1,09,0.9,-3.4,M,-18.2,M,,*4E
$GPVTG,002.7,T,346.2,M,000.15,N,0000.28,K,A*1B
$HCHDG,271.8,0.0,E,,*25
$YXXDR,A,5.1,D,PTCH,A,3.0,D,ROLL*5A
$IIMWV,241,T,13.9,N,A*19
$GPRMC,164156.8,A,4741.20301,N,12224.26719,W,000.17,002.7,261014,016.4,E,A*24
$GPGGA,164156.8,4741.20301,N,12224.26719,W,1,09,0.9,-3.4,M,-18.2,M,,*41
$GPVTG,002.7,T,346.2,M,000.17,N,0000.32,K,A*12
$HCHDG,271.9,0.0,E,,*24
$YXXDR,A,5.0,D,PTCH,A,3.2,D,ROLL*59
$GPRMC,164156.9,A,4741.20301,N,12224.26719,W,000.19,002.7,261014,016.4,E,A*2B
$GPGGA,164156.9,4741.20301,N,12224.26719,W,1,09,0.9,-3.4,M,-18.2,M,,*40
$GPVTG,002.7,T,346.2,M,000.19,N,0000.36,K,A*18
$HCHDG,271.9,0.0,E,,*24
$YXXDR,A,5.0,D,PTCH,A,3.2,D,ROLL*59
$GPRMC,164157.0,A,4741.20305,N,12224.26719,W,000.18,002.7,261014,016.4,E,A*26
$HCHDG,272.0,0.0,E,,*2E
$YXXDR,A,4.9,D,PTCH,A,3.1,D,ROLL*52
$GPGGA,164157.0,4741.20305,N,12224.26719,W,1,09,0.9,-3.4,M,-18.2,M,,*4C
$GPVTG,002.7,T,346.2,M,000.18,N,0000.33,K,A*1C
$GPGSA,A,3,12,02,25,06,10,24,29,05,31,,,,1.5,0.9,1.2*37
$HCHDG,271.8,0.0,E,,*25
$YXXDR,A,4.9,D,PTCH,A,3.0,D,ROLL*53
$GPRMC,164157.1,A,4741.20305,N,12224.26719,W,000.16,002.7,261014,016.4,E,A*29
$GPGGA,164157.1,4741.20305,N,12224.26719,W,1,09,0.9,-3.4,M,-18.2,M,,*4D
$GPVTG,002.7,T,346.2,M,000.16,N,0000.29,K,A*19
$HCHDG,271.8,0.0,E,,*25
$YXXDR,A,5.0,D,PTCH,A,2.8,D,ROLL*52
$GPGSV,3,1,09,12,84,174,48,02,75,123,46,25,50,305,47,06,43,055,46*75
$GPGSV,3,2,09,10,28,099,48,24,23,210,38,29,19,268,37,05,12,150,39*7A
$GPGSV,3,3,09,31,08,331,38*40
$GPRMC,164157.2,A,4741.20305,N,12224.26719,W,000.14,002.7,261014,016.4,E,A*28
$IIVHW,,,,,00.0,N,,*19
$GPGGA,164157.2,4741.20305,N,12224.26719,W,1,09,0.9,-3.4,M,-18.2,M,,*4E
$GPVTG,002.7,T,346.2,M,000.14,N,0000.26,K,A*14
$GPRMC,164157.3,A,4741.20305,N,12224.26719,W,000.13,002.7,261014,016.4,E,A*2E
$GPGGA,164157.3,4741.20305,N,12224.26719,W,1,09,0.9,-3.4,M,-18.2,M,,*4F
$IIVLW,07053,N,000.0,N*52
$GPVTG,002.7,T,346.2,M,000.13,N,0000.25,K,A*10
$GPRMC,164157.4,A,4741.20305,N,12224.26719,W,000.13,002.7,261014,016.4,E,A*29
$GPGGA,164157.4,4741.20305,N,12224.26719,W,1,09,0.9,-3.4,M,-18.2,M,,*48
$IIVWR,115,L,13.9,N,,,,*71
$HCHDG,271.8,0.0,E,,*25
$YXXDR,A,5.0,D,PTCH,A,2.6,D,ROLL*5C
$TIROT,-1.7,A*10
$HCHDG,271.7,0.0,E,,*2A
$YXXDR,A,4.8,D,PTCH,A,2.3,D,ROLL*50
$GPVTG,002.7,T,346.2,M,000.13,N,0000.24,K,A*11
$HCHDG,272.0,0.0,E,,*2E
$YXXDR,A,4.8,D,PTCH,A,2.2,D,ROLL*51
$GPRMC,164157.5,A,4741.20305,N,12224.26719,W,000.14,002.7,261014,016.4,E,A*2F
$GPGGA,164157.5,4741.20305,N,12224.26719,W,1,09,0.9,-3.4,M,-18.2,M,,*49
$GPVTG,002.7,T,346.2,M,000.14,N,0000.27,K,A*15
$IIMTW,-10.0,C*3F
$HCHDG,272.0,0.0,E,,*2E
$YXXDR,A,5.0,D,PTCH,A,2.1,D,ROLL*5B
$GPRMC,164157.6,A,4741.20305,N,12224.26719,W,000.14,002.7,261014,016.4,E,A*2C
$GPGGA,164157.6,4741.20305,N,12224.26719,W,1,09,0.9,-3.4,M,-18.2,M,,*4A
$GPVTG,002.7,T,346.2,M,000.14,N,0000.27,K,A*15
$IIMWV,245,R,13.9,N,A*1B
$IIMWV,244,T,13.8,N,A*1D
$HCHDG,272.0,0.0,E,,*2E
$YXXDR,A,5.0,D,PTCH,A,2.1,D,ROLL*5B
$GPRMC,164157.7,A,4741.20305,N,12224.26719,W,000.13,002.7,261014,016.4,E,A*2A
$GPGGA,164157.7,4741.20305,N,12224.26719,W,1,09,0.9,-3.4,M,-18.2,M,,*4B
$GPVTG,002.7,T,346.2,M,000.13,N,0000.24,K,A*11
$GPRMC,164157.8,A,4741.20305,N,12224.26719,W,000.14,002.7,261014,016.4,E,A*22
$HCHDG,272.0,0.0,E,,*2E
$GPGGA,164157.8,4741.20305,N,12224.26719,W,1,09,0.9,-3.4,M,-18.2,M,,*44
$YXXDR,A,5.0,D,PTCH,A,2.2,D,ROLL*58
$GPVTG,002.7,T,346.2,M,000.14,N,0000.26,K,A*14
$HCHDG,272.0,0.0,E,,*2E
$GPRMC,164157.9,A,4741.20305,N,12224.26719,W,000.13,002.7,261014,016.4,E,A*24
$GPGGA,164157.9,4741.20305,N,12224.26719,W,1,09,0.9,-3.4,M,-18.2,M,,*45
$YXXDR,A,5.1,D,PTCH,A,2.3,D,ROLL*58
$GPVTG,002.7,T,346.2,M,000.13,N,0000.24,K,A*11
$HCHDG,272.0,0.0,E,,*2E
$GPRMC,164158.0,A,4741.20314,N,12224.26725,W,000.14,002.7,261014,016.4,E,A*2A
$YXXDR,A,5.1,D,PTCH,A,2.4,D,ROLL*5F
$GPGGA,164158.0,4741.20314,N,12224.26725,W,1,09,0.9,-3.4,M,-18.2,M,,*4C
$GPVTG,002.7,T,346.2,M,000.14,N,0000.25,K,A*17
$GPGSA,A,3,12,02,25,06,10,24,29,05,31,,,,1.5,0.9,1.2*37
$HCHDG,272.1,0.0,E,,*2F
$GPRMC,164158.1,A,4741.20314,N,12224.26725,W,000.14,002.7,261014,016.4,E,A*2B
$YXXDR,A,5.0,D,PTCH,A,2.5,D,ROLL*5F
$GPGGA,164158.1,4741.20314,N,12224.26725,W,1,09,0.9,-3.4,M,-18.2,M,,*4D
$GPVTG,002.7,T,346.2,M,000.14,N,0000.26,K,A*14
$GPGSV,3,1,09,12,84,174,48,02,75,123,47,25,50,305,47,06,43,055,46*74
$GPGSV,3,2,09,10,28,099,48,24,23,210,38,29,19,268,37,05,12,150,39*7A
$GPGSV,3,3,09,31,08,331,37*4F
$HCHDG,272.1,0.0,E,,*2F
$GPRMC,164158.2,A,4741.20314,N,12224.26725,W,000.13,002.7,261014,016.4,E,A*2F
$YXXDR,A,5.1,D,PTCH,A,2.4,D,ROLL*5F
$GPGGA,164158.2,4741.20314,N,12224.26725,W,1,09,0.9,-3.4,M,-18.2,M,,*4E
$GPVTG,002.7,T,346.2,M,000.13,N,0000.24,K,A*11
$IIVHW,,,,,00.0,N,,*19
$HCHDG,272.1,0.0,E,,*2F
$GPRMC,164158.3,A,4741.20314,N,12224.26725,W,000.13,002.7,261014,016.4,E,A*2E
$YXXDR,A,4.8,D,PTCH,A,2.4,D,ROLL*57
$TIROT,-2.3,A*17
$GPGGA,164158.3,4741.20314,N,12224.26725,W,1,09,0.9,-3.4,M,-18.2,M,,*4F
$IIVLW,07053,N,000.0,N*52
$GPVTG,002.7,T,346.2,M,000.13,N,0000.24,K,A*11
$IIVWR,111,L,14.1,N,,,,*7A
$HCHDG,271.9,0.0,E,,*24
$GPRMC,164158.4,A,4741.20314,N,12224.26725,W,000.13,002.7,261014,016.4,E,A*29
$YXXDR,A,4.8,D,PTCH,A,2.4,D,ROLL*57
$GPGGA,164158.4,4741.20314,N,12224.26725,W,1,09,0.9,-3.4,M,-18.2,M,,*48
$GPVTG,002.7,T,346.2,M,000.13,N,0000.23,K,A*16
$HCHDG,271.9,0.0,E,,*24
$GPRMC,164158.5,A,4741.20314,N,12224.26725,W,000.13,002.7,261014,016.4,E,A*28
$YXXDR,A,4.8,D,PTCH,A,2.3,D,ROLL*50
$GPGGA,164158.5,4741.20314,N,12224.26725,W,1,09,0.9,-3.4,M,-18.2,M,,*49
$GPVTG,002.7,T,346.2,M,000.13,N,0000.23,K,A*16
$IIMTW,-10.0,C*3F
$HCHDG,271.9,0.0,E,,*24
$GPRMC,164158.6,A,4741.20314,N,12224.26725,W,000.13,002.7,261014,016.4,E,A*2B
$YXXDR,A,4.7,D,PTCH,A,2.4,D,ROLL*58
$IIMWV,249,R,14.1,N,A*18
$GPGGA,164158.6,4741.20314,N,12224.26725,W,1,09,0.9,-3.4,M,-18.2,M,,*4A
$GPVTG,002.7,T,346.2,M,000.13,N,0000.24,K,A*11
$IIMWV,245,T,13.9,N,A*1D
$HCHDG,271.7,0.0,E,,*2A
$GPRMC,164158.7,A,4741.20314,N,12224.26725,W,000.12,002.7,261014,016.4,E,A*2B
$YXXDR,A,4.6,D,PTCH,A,2.4,D,ROLL*59
$GPGGA,164158.7,4741.20314,N,12224.26725,W,1,09,0.9,-3.4,M,-18.2,M,,*4B
$GPVTG,002.7,T,346.2,M,000.12,N,0000.22,K,A*16
$HCHDG,271.8,0.0,E,,*25
$GPRMC,164158.8,A,4741.20314,N,12224.26725,W,000.12,002.7,261014,016.4,E,A*24
$YXXDR,A,4.6,D,PTCH,A,2.5,D,ROLL*58
$GPGGA,164158.8,4741.20314,N,12224.26725,W,1,09,0.9,-3.4,M,-18.2,M,,*44
$GPVTG,002.7,T,346.2,M,000.12,N,0000.22,K,A*16
$HCHDG,271.8,0.0,E,,*25
$GPRMC,164158.9,A,4741.20314,N,12224.26725,W,000.10,002.7,261014,016.4,E,A*27
$YXXDR,A,4.5,D,PTCH,A,2.7,D,ROLL*59
$GPGGA,164158.9,4741.20314,N,12224.26725,W,1,09,0.9,-3.4,M,-18.2,M,,*45
$GPVTG,002.7,T,346.2,M,000.10,N,0000.19,K,A*1C
$HCHDG,271.8,0.0,E,,*25
$GPRMC,164159.0,A,4741.20313,N,12224.26721,W,000.12,002.7,261014,016.4,E,A*2E
$YXXDR,A,4.5,D,PTCH,A,2.9,D,ROLL*57
$GPGGA,164159.0,4741.20313,N,12224.26721,W,1,09,0.9,-3.4,M,-18.2,M,,*4E
$GPVTG,002.7,T,346.2,M,000.12,N,0000.22,K,A*16
$GPGSA,A,3,12,02,25,06,10,24,29,05,31,,,,1.5,0.9,1.2*37
$HCHDG,271.8,0.0,E,,*25
$GPRMC,164159.1,A,4741.20313,N,12224.26721,W,000.11,002.7,261014,016.4,E,A*2C
$YXXDR,A,4.5,D,PTCH,A,3.0,D,ROLL*5F
$GPGGA,164159.1,4741.20313,N,12224.26721,W,1,09,0.9,-3.3,M,-18.2,M,,*48
$GPVTG,002.7,T,346.2,M,000.11,N,0000.20,K,A*17
$GPGSV,3,1,09,12,84,174,48,02,75,123,47,25,50,305,47,06,43,055,46*74
$GPGSV,3,2,09,10,28,099,48,24,23,210,37,29,19,268,36,05,12,150,39*74
$GPGSV,3,3,09,31,08,331,37*4F
$HCHDG,271.8,0.0,E,,*25
$GPRMC,164159.2,A,4741.20313,N,12224.26721,W,000.12,002.7,261014,016.4,E,A*2C
$YXXDR,A,4.5,D,PTCH,A,3.0,D,ROLL*5F
$GPGGA,164159.2,4741.20313,N,12224.26721,W,1,09,0.9,-3.3,M,-18.2,M,,*4B
$GPVTG,002.7,T,346.2,M,000.12,N,0000.23,K,A*17
$IIVHW,,,,,00.0,N,,*19
$HCHDG,271.8,0.0,E,,*25
$GPRMC,164159.3,A,4741.20313,N,12224.26721,W,000.11,002.7,261014,016.4,E,A*2E
$YXXDR,A,4.5,D,PTCH,A,3.1,D,ROLL*5E
$TIROT,3.8,A*30
$GPGGA,164159.3,4741.20313,N,12224.26721,W,1,09,0.9,-3.3,M,-18.2,M,,*4A
$IIVLW,07053,N,000.0,N*52
$GPVTG,002.7,T,346.2,M,000.11,N,0000.21,K,A*16
$IIVWR,099,L,14.7,N,,,,*7D
$HCHDG,271.8,0.0,E,,*25
$YXXDR,A,4.7,D,PTCH,A,3.3,D,ROLL*5E
$GPRMC,164159.4,A,4741.20313,N,12224.26721,W,000.13,002.7,261014,016.4,E,A*2B
$GPGGA,164159.4,4741.20313,N,12224.26721,W,1,09,0.9,-3.5,M,-18.2,M,,*4B
$GPVTG,002.7,T,346.2,M,000.13,N,0000.24,K,A*11
$HCHDG,271.8,0.0,E,,*25
$GPRMC,164159.5,A,4741.20313,N,12224.26721,W,000.12,002.7,261014,016.4,E,A*2B
$YXXDR,A,4.8,D,PTCH,A,3.4,D,ROLL*56
$GPGGA,164159.5,4741.20313,N,12224.26721,W,1,09,0.9,-3.5,M,-18.2,M,,*4A
$GPVTG,002.7,T,346.2,M,000.12,N,0000.22,K,A*16
$IIMTW,-10.0,C*3F
$HCHDG,271.7,0.0,E,,*2A
$YXXDR,A,4.8,D,PTCH,A,3.4,D,ROLL*56
$GPRMC,164159.6,A,4741.20313,N,12224.26721,W,000.14,002.7,261014,016.4,E,A*2E
$IIMWV,261,R,14.7,N,A*14
$GPGGA,164159.6,4741.20313,N,12224.26721,W,1,09,0.9,-3.5,M,-18.2,M,,*49
$GPVTG,002.7,T,346.2,M,000.14,N,0000.25,K,A*17
$IIMWV,249,T,14.1,N,A*1E
$HCHDG,271.7,0.0,E,,*2A
$YXXDR,A,4.8,D,PTCH,A,3.4,D,ROLL*56
$GPRMC,164159.7,A,4741.20313,N,12224.26721,W,000.17,002.7,261014,016.4,E,A*2C
$GPGGA,164159.7,4741.20313,N,12224.26721,W,1,09,0.9,-3.5,M,-18.2,M,,*48
$GPVTG,002.7,T,346.2,M,000.17,N,0000.31,K,A*11
$HCHDG,271.7,0.0,E,,*2A
$YXXDR,A,4.8,D,PTCH,A,3.4,D,ROLL*56
$GPRMC,164159.8,A,4741.20313,N,12224.26721,W,000.15,002.7,261014,016.4,E,A*21
$GPGGA,164159.8,4741.20313,N,12224.26721,W,1,09,0.9,-3.5,M,-18.2,M,,*47
$GPVTG,002.7,T,346.2,M,000.15,N,0000.28,K,A*1B
$HCHDG,271.7,0.0,E,,*2A
$YXXDR,A,4.8,D,PTCH,A,3.7,D,ROLL*55
$GPRMC,164159.9,A,4741.20313,N,12224.26721,W,000.17,002.7,261014,016.4,E,A*22
$GPGGA,164159.9,4741.20313,N,12224.26721,W,1,09,0.9,-3.5,M,-18.2,M,,*46
$GPVTG,002.7,T,346.2,M,000.17,N,0000.32,K,A*12
$HCHDG,271.7,0.0,E,,*2A
$YXXDR,A,4.8,D,PTCH,A,3.7,D,ROLL*55
$GPRMC,164200.0,A,4741.20315,N,12224.26720,W,000.18,002.7,261014,016.4,E,A*2C
$GPGGA,164200.0,4741.20315,N,12224.26720,W,1,09,0.9,-3.5,M,-18.2,M,,*47
$GPVTG,002.7,T,346.2,M,000.18,N,0000.34,K,A*1B
$GPGSA,A,3,12,02,25,06,10,24,29,05,31,,,,1.5,0.9,1.2*37
$HCHDG,271.7,0.0,E,,*2A
$YXXDR,A,4.9,D,PTCH,A,3.8,D,ROLL*5B
$GPRMC,164200.1,A,4741.20315,N,12224.26720,W,000.17,002.7,261014,016.4,E,A*22
$GPGGA,164200.1,4741.20315,N,12224.26720,W,1,09,0.9,-3.5,M,-18.2,M,,*46
$GPVTG,002.7,T,346.2,M,000.17,N,0000.32,K,A*12
$GPGSV,3,1,09,12,84,174,48,02,75,123,47,25,50,305,47,06,43,055,46*74
$GPGSV,3,2,09,10,28,099,48,24,23,210,38,29,19,268,32,05,12,150,39*7F
$GPGSV,3,3,09,31,08,331,37*4F
$HCHDG,271.7,0.0,E,,*2A
$YXXDR,A,4.8,D,PTCH,A,4.0,D,ROLL*55
$GPRMC,164200.2,A,4741.20314,N,12224.26720,W,000.71,002.7,261014,016.4,E,A*20
$GPGGA,164200.2,4741.20314,N,12224.26720,W,1,09,0.9,-3.5,M,-18.2,M,,*44
$GPVTG,002.7,T,346.2,M,000.71,N,0001.32,K,A*13
$PGRMT,GPS19x-HVS Software Version 2.20,,,,,,,,*6F
$IIVHW,,,,,00.0,N,,*19
$HCHDG,271.7,0.0,E,,*2A
$YXXDR,A,4.8,D,PTCH,A,4.1,D,ROLL*54
$TIROT,3.2,A*3A
$GPRMC,164200.3,A,4741.20313,N,12224.26721,W,000.72,000.7,261014,016.4,E,A*26
$GPGGA,164200.3,4741.20313,N,12224.26721,W,1,09,0.9,-3.5,M,-18.2,M,,*43
$IIVLW,07053,N,000.0,N*52
$GPVTG,000.7,T,344.3,M,000.72,N,0001.33,K,A*10
$IIVWR,097,L,15.8,N,,,,*7D
$HCHDG,271.7,0.0,E,,*2A
$YXXDR,A,5.0,D,PTCH,A,4.2,D,ROLL*5E
$GPRMC,164200.4,A,4741.20313,N,12224.26721,W,000.27,000.7,261014,016.4,E,A*21
$GPGGA,164200.4,4741.20313,N,12224.26721,W,1,09,0.9,-3.6,M,-18.2,M,,*47
$GPVTG,000.7,T,344.3,M,000.27,N,0000.49,K,A*1C
$HCHDG,271.7,0.0,E,,*2A
$YXXDR,A,5.1,D,PTCH,A,4.3,D,ROLL*5E
$GPRMC,164200.5,A,4741.20313,N,12224.26721,W,000.24,000.7,261014,016.4,E,A*23
$GPGGA,164200.5,4741.20313,N,12224.26721,W,1,09,0.9,-3.6,M,-18.2,M,,*46
$GPVTG,000.7,T,344.3,M,000.24,N,0000.45,K,A*13
$IIMTW,-10.0,C*3F
$HCHDG,271.9,0.0,E,,*24
$YXXDR,A,5.1,D,PTCH,A,4.3,D,ROLL*5E
$GPRMC,164200.6,A,4741.20313,N,12224.26721,W,000.21,000.7,261014,016.4,E,A*25
$IIMWV,263,R,15.8,N,A*18
$GPGGA,164200.6,4741.20313,N,12224.26721,W,1,09,0.9,-3.6,M,-18.2,M,,*45
$GPVTG,000.7,T,344.3,M,000.21,N,0000.38,K,A*1C
$IIMWV,261,T,14.7,N,A*12
$HCHDG,271.9,0.0,E,,*24
$YXXDR,A,5.1,D,PTCH,A,4.3,D,ROLL*5E
$GPRMC,164200.7,A,4741.20313,N,12224.26721,W,000.19,000.7,261014,016.4,E,A*2F
$GPGGA,164200.7,4741.20313,N,12224.26721,W,1,09,0.9,-3.6,M,-18.2,M,,*44
$GPVTG,000.7,T,344.3,M,000.19,N,0000.35,K,A*1A
$HCHDG,272.0,0.0,E,,*2E
$YXXDR,A,5.2,D,PTCH,A,4.3,D,ROLL*5D
$GPRMC,164200.8,A,4741.20313,N,12224.26721,W,000.18,000.7,261014,016.4,E,A*21
$GPGGA,164200.8,4741.20313,N,12224.26721,W,1,09,0.9,-3.6,M,-18.2,M,,*4B
$GPVTG,000.7,T,344.3,M,000.18,N,0000.33,K,A*1D
$HCHDG,272.0,0.0,E,,*2E
$YXXDR,A,5.2,D,PTCH,A,4.2,D,ROLL*5C
$GPRMC,164200.9,A,4741.20313,N,12224.26721,W,000.23,000.7,261014,016.4,E,A*28
$GPGGA,164200.9,4741.20313,N,12224.26721,W,1,09,0.9,-3.6,M,-18.2,M,,*4A
$GPVTG,000.7,T,344.3,M,000.23,N,0000.42,K,A*13
$HCHDG,272.0,0.0,E,,*2E
$YXXDR,A,5.2,D,PTCH,A,4.3,D,ROLL*5D
$GPRMC,164201.0,A,4741.20313,N,12224.26721,W,000.21,000.7,261014,016.4,E,A*22
$GPGGA,164201.0,4741.20313,N,12224.26721,W,1,09,0.9,-3.6,M,-18.2,M,,*42
$GPVTG,000.7,T,344.3,M,000.21,N,0000.40,K,A*13
$GPGSA,A,3,12,02,25,06,10,24,29,05,31,,,,1.5,0.9,1.2*37
$HCHDG,272.0,0.0,E,,*2E
$YXXDR,A,5.1,D,PTCH,A,4.7,D,ROLL*5A
$GPRMC,164201.1,A,4741.20313,N,12224.26721,W,000.21,000.7,261014,016.4,E,A*23
$GPGGA,164201.1,4741.20313,N,12224.26721,W,1,09,0.9,-3.6,M,-18.2,M,,*43
$GPVTG,000.7,T,344.3,M,000.21,N,0000.39,K,A*1D
$GPGSV,3,1,09,12,84,174,48,02,75,123,47,25,50,305,48,06,43,055,46*7B
$GPGSV,3,2,09,10,28,099,48,24,23,210,38,29,19,268,32,05,12,150,39*7F
$HCHDG,272.0,0.0,E,,*2E
$GPGSV,3,3,09,31,08,331,37*4F
$YXXDR,A,5.1,D,PTCH,A,4.7,D,ROLL*5A
$GPRMC,164201.2,A,4741.20313,N,12224.26721,W,000.20,000.7,261014,016.4,E,A*21
$GPGGA,164201.2,4741.20313,N,12224.26721,W,1,09,0.9,-3.6,M,-18.2,M,,*40
$GPVTG,000.7,T,344.3,M,000.20,N,0000.37,K,A*12
$IIVHW,,,,,00.0,N,,*19
$HCHDG,272.0,0.0,E,,*2E
$YXXDR,A,5.1,D,PTCH,A,4.7,D,ROLL*5A
$TIROT,2.8,A*31
$GPRMC,164201.3,A,4741.20308,N,12224.26723,W,000.19,000.7,261014,016.4,E,A*22
$IIVLW,07053,N,000.0,N*52
$GPGGA,164201.3,4741.20308,N,12224.26723,W,1,09,0.9,-3.6,M,-18.2,M,,*49
$GPVTG,000.7,T,344.3,M,000.19,N,0000.35,K,A*1A
$IIVWR,097,L,17.0,N,,,,*77
$HCHDG,272.1,0.0,E,,*2F
$YXXDR,A,5.1,D,PTCH,A,4.8,D,ROLL*55
$GPRMC,164201.4,A,4741.20308,N,12224.26723,W,000.18,000.7,261014,016.4,E,A*24
$GPGGA,164201.4,4741.20308,N,12224.26723,W,1,09,0.9,-3.7,M,-18.2,M,,*4F
$GPVTG,000.7,T,344.3,M,000.18,N,0000.33,K,A*1D
$HCHDG,272.0,0.0,E,,*2E
$YXXDR,A,5.2,D,PTCH,A,4.7,D,ROLL*59
$GPRMC,164201.5,A,4741.20308,N,12224.26723,W,000.20,000.7,261014,016.4,E,A*2E
$GPGGA,164201.5,4741.20308,N,12224.26723,W,1,09,0.9,-3.7,M,-18.2,M,,*4E
$GPVTG,000.7,T,344.3,M,000.20,N,0000.36,K,A*13
$IIMTW,-10.0,C*3F
$HCHDG,272.0,0.0,E,,*2E
$YXXDR,A,5.2,D,PTCH,A,4.6,D,ROLL*58
$GPRMC,164201.6,A,4741.20308,N,12224.26723,W,000.23,000.7,261014,016.4,E,A*2E
$IIMWV,263,R,17.0,N,A*12
$GPGGA,164201.6,4741.20308,N,12224.26723,W,1,09,0.9,-3.7,M,-18.2,M,,*4D
$GPVTG,000.7,T,344.3,M,000.23,N,0000.43,K,A*12
$IIMWV,263,T,15.8,N,A*1E
$HCHDG,272.0,0.0,E,,*2E
$YXXDR,A,5.2,D,PTCH,A,4.6,D,ROLL*58
$GPRMC,164201.7,A,4741.20308,N,12224.26723,W,000.23,000.7,261014,016.4,E,A*2F
$GPGGA,164201.7,4741.20308,N,12224.26723,W,1,09,0.9,-3.7,M,-18.2,M,,*4C
$GPVTG,000.7,T,344.3,M,000.23,N,0000.42,K,A*13
$GPRMC,164201.8,A,4741.20308,N,12224.26723,W,000.20,000.7,261014,016.4,E,A*23
$HCHDG,271.9,0.0,E,,*24
$GPGGA,164201.8,4741.20308,N,12224.26723,W,1,09,0.9,-3.7,M,-18.2,M,,*43
$GPVTG,000.7,T,344.3,M,000.20,N,0000.37,K,A*12
$YXXDR,A,5.0,D,PTCH,A,4.5,D,ROLL*59
$GPRMC,164201.9,A,4741.20308,N,12224.26723,W,000.20,000.7,261014,016.4,E,A*22
$GPGGA,164201.9,4741.20308,N,12224.26723,W,1,09,0.9,-3.7,M,-18.2,M,,*42
$HCHDG,271.9,0.0,E,,*24
$GPVTG,000.7,T,344.3,M,000.20,N,0000.36,K,A*13
$YXXDR,A,5.1,D,PTCH,A,4.3,D,ROLL*5E
$GPRMC,164202.0,A,4741.20308,N,12224.26723,W,000.17,000.7,261014,016.4,E,A*2C
$HCHDG,271.9,0.0,E,,*24
$GPGGA,164202.0,4741.20308,N,12224.26723,W,1,09,0.9,-3.7,M,-18.2,M,,*48
$GPVTG,000.7,T,344.3,M,000.17,N,0000.31,K,A*10
$YXXDR,A,5.1,D,PTCH,A,4.3,D,ROLL*5E
$GPGSA,A,3,12,02,25,06,10,24,29,05,31,,,,1.5,0.9,1.2*37
$GPRMC,164202.1,A,4741.20319,N,12224.26719,W,000.49,000.7,261014,016.4,E,A*2F
$HCHDG,271.9,0.0,E,,*24
$GPGGA,164202.1,4741.20319,N,12224.26719,W,1,09,0.9,-3.7,M,-18.2,M,,*40
$GPVTG,000.7,T,344.3,M,000.49,N,0000.91,K,A*11
$YXXDR,A,5.1,D,PTCH,A,4.3,D,ROLL*5E
$GPGSV,3,1,09,12,84,174,48,02,75,123,47,25,50,305,48,06,43,055,46*7B
$GPGSV,3,2,09,10,28,099,48,24,23,210,38,29,19,268,30,05,12,150,38*7C
$GPGSV,3,3,09,31,08,331,37*4F
$GPRMC,164202.2,A,4741.20319,N,12224.26719,W,000.44,000.7,261014,016.4,E,A*21
$HCHDG,271.8,0.0,E,,*25
$GPGGA,164202.2,4741.20319,N,12224.26719,W,1,09,0.9,-3.7,M,-18.2,M,,*43
$GPVTG,000.7,T,344.3,M,000.44,N,0000.82,K,A*1E
$YXXDR,A,5.1,D,PTCH,A,4.2,D,ROLL*5F
$IIVHW,,,,,00.0,N,,*19
$GPRMC,164202.3,A,4741.20319,N,12224.26719,W,000.38,000.7,261014,016.4,E,A*2B
$HCHDG,271.8,0.0,E,,*25
$GPGGA,164202.3,4741.20319,N,12224.26719,W,1,09,0.9,-3.7,M,-18.2,M,,*42
$GPVTG,000.7,T,344.3,M,000.38,N,0000.70,K,A*18
$IIVLW,07053,N,000.0,N*52
$YXXDR,A,5.1,D,PTCH,A,4.0,D,ROLL*5D
$TIROT,-1.3,A*14
$GPRMC,164202.4,A,4741.20319,N,12224.26719,W,000.34,000.7,261014,016.4,E,A*20
$IIVWR,098,L,18.6,N,,,,*71
$HCHDG,271.8,0.0,E,,*25
$GPGGA,164202.4,4741.20319,N,12224.26719,W,1,09,0.9,-3.5,M,-18.2,M,,*47
$YXXDR,A,5.2,D,PTCH,A,3.8,D,ROLL*51
$GPVTG,000.7,T,344.3,M,000.34,N,0000.63,K,A*16
$GPRMC,164202.5,A,4741.20319,N,12224.26719,W,000.28,000.7,261014,016.4,E,A*2C
$HCHDG,271.9,0.0,E,,*24
$GPGGA,164202.5,4741.20319,N,12224.26719,W,1,09,0.9,-3.5,M,-18.2,M,,*46
$GPVTG,000.7,T,344.3,M,000.28,N,0000.53,K,A*18
$YXXDR,A,5.0,D,PTCH,A,3.7,D,ROLL*5C
$IIMTW,-09.0,C*37
$GPRMC,164202.6,A,4741.20319,N,12224.26719,W,000.26,000.7,261014,016.4,E,A*21
$HCHDG,271.9,0.0,E,,*24
$YXXDR,A,5.1,D,PTCH,A,3.4,D,ROLL*5E
$GPGGA,164202.6,4741.20319,N,12224.26719,W,1,09,0.9,-3.5,M,-18.2,M,,*45
$GPVTG,000.7,T,344.3,M,000.26,N,0000.48,K,A*1C
$IIMWV,262,R,18.6,N,A*1A
$IIMWV,263,T,17.0,N,A*14
$GPRMC,164202.7,A,4741.20319,N,12224.26719,W,000.23,000.7,261014,016.4,E,A*25
$HCHDG,271.9,0.0,E,,*24
$GPGGA,164202.7,4741.20319,N,12224.26719,W,1,09,0.9,-3.5,M,-18.2,M,,*44
$GPVTG,000.7,T,344.3,M,000.23,N,0000.42,K,A*13
$YXXDR,A,5.0,D,PTCH,A,3.3,D,ROLL*58
$GPRMC,164202.8,A,4741.20319,N,12224.26719,W,000.24,000.7,261014,016.4,E,A*2D
$HCHDG,271.9,0.0,E,,*24
$GPGGA,164202.8,4741.20319,N,12224.26719,W,1,09,0.9,-3.4,M,-18.2,M,,*4A
$GPVTG,000.7,T,344.3,M,000.24,N,0000.44,K,A*12
$YXXDR,A,5.0,D,PTCH,A,3.3,D,ROLL*58
$GPRMC,164202.9,A,4741.20319,N,12224.26719,W,000.22,000.7,261014,016.4,E,A*2A
$HCHDG,271.9,0.0,E,,*24
$GPGGA,164202.9,4741.20319,N,12224.26719,W,1,09,0.9,-3.4,M,-18.2,M,,*4B
$YXXDR,A,5.0,D,PTCH,A,3.3,D,ROLL*58
$GPVTG,000.7,T,344.3,M,000.22,N,0000.42,K,A*12
$GPRMC,164203.0,A,4741.20319,N,12224.26719,W,000.20,000.7,261014,016.4,E,A*20
$HCHDG,271.9,0.0,E,,*24
$GPGGA,164203.0,4741.20319,N,12224.26719,W,1,09,0.9,-3.4,M,-18.2,M,,*43
$GPVTG,000.7,T,344.3,M,000.20,N,0000.36,K,A*13
$YXXDR,A,5.1,D,PTCH,A,3.3,D,ROLL*59
$GPGSA,A,3,12,02,25,06,10,24,29,05,31,,,,1.5,0.9,1.2*37
$GPRMC,164203.1,A,4741.20319,N,12224.26719,W,000.19,000.7,261014,016.4,E,A*2B
$HCHDG,271.8,0.0,E,,*25
$GPGGA,164203.1,4741.20319,N,12224.26719,W,1,09,0.9,-3.4,M,-18.2,M,,*42
$GPVTG,000.7,T,344.3,M,000.19,N,0000.35,K,A*1A
$YXXDR,A,5.1,D,PTCH,A,3.3,D,ROLL*59
$GPGSV,3,1,09,12,84,174,48,02,75,123,47,25,50,305,48,06,43,055,46*7B
$GPGSV,3,2,09,10,28,099,48,24,23,210,37,29,19,268,29,05,12,150,38*7B
$GPGSV,3,3,09,31,08,331,37*4F
$GPRMC,164203.2,A,4741.20330,N,12224.26717,W,000.59,000.7,261014,016.4,E,A*29
$HCHDG,271.8,0.0,E,,*25
$GPGGA,164203.2,4741.20330,N,12224.26717,W,1,09,0.9,-3.4,M,-18.2,M,,*44
$GPVTG,000.7,T,344.3,M,000.59,N,0001.09,K,A*10
$YXXDR,A,5.1,D,PTCH,A,3.1,D,ROLL*5B
$IIVHW,,,,,00.0,N,,*19
$GPRMC,164203.3,A,4741.20330,N,12224.26717,W,000.54,000.7,261014,016.4,E,A*25
$HCHDG,271.8,0.0,E,,*25
$GPGGA,164203.3,4741.20330,N,12224.26717,W,1,09,0.9,-3.4,M,-18.2,M,,*45
$YXXDR,A,5.0,D,PTCH,A,3.2,D,ROLL*59
$TIROT,9.7,A*35
$GPVTG,000.7,T,344.3,M,000.54,N,0001.01,K,A*15
$IIVLW,07053,N,000.0,N*52
$IIVWR,093,L,19.9,N,,,,*74
$GPRMC,164203.4,A,4741.20338,N,12224.26719,W,000.49,000.7,261014,016.4,E,A*28
$HCHDG,271.8,0.0,E,,*25
$YXXDR,A,5.0,D,PTCH,A,3.2,D,ROLL*59
$GPGGA,164203.4,4741.20338,N,12224.26719,W,1,09,0.9,-3.5,M,-18.2,M,,*45
$GPVTG,000.7,T,344.3,M,000.49,N,0000.90,K,A*10
$GPRMC,164203.5,A,4741.20338,N,12224.26719,W,000.41,000.7,261014,016.4,E,A*21
$HCHDG,271.8,0.0,E,,*25
$GPGGA,164203.5,4741.20338,N,12224.26719,W,1,09,0.9,-3.5,M,-18.2,M,,*44
$YXXDR,A,4.9,D,PTCH,A,3.1,D,ROLL*52
$GPVTG,000.7,T,344.3,M,000.41,N,0000.77,K,A*11
$IIMTW,-09.0,C*37
$GPRMC,164203.6,A,4741.20338,N,12224.26719,W,000.37,000.7,261014,016.4,E,A*23
$HCHDG,271.8,0.0,E,,*25
$GPGGA,164203.6,4741.20338,N,12224.26719,W,1,09,0.9,-3.5,M,-18.2,M,,*47
$YXXDR,A,4.9,D,PTCH,A,3.1,D,ROLL*52
$IIMWV,267,R,19.9,N,A*11
$GPVTG,000.7,T,344.3,M,000.37,N,0000.68,K,A*1E
$IIMWV,262,T,18.6,N,A*1C
$GPRMC,164203.7,A,4741.20338,N,12224.26719,W,000.32,000.7,261014,016.4,E,A*27
$HCHDG,271.9,0.0,E,,*24
$GPGGA,164203.7,4741.20338,N,12224.26719,W,1,09,0.9,-3.5,M,-18.2,M,,*46
$YXXDR,A,4.9,D,PTCH,A,3.2,D,ROLL*51
$GPVTG,000.7,T,344.3,M,000.32,N,0000.59,K,A*19
$GPRMC,164203.8,A,4741.20338,N,12224.26719,W,000.29,000.7,261014,016.4,E,A*22
$HCHDG,272.2,0.0,E,,*2C
$GPGGA,164203.8,4741.20338,N,12224.26719,W,1,09,0.9,-3.5,M,-18.2,M,,*49
$YXXDR,A,5.0,D,PTCH,A,3.2,D,ROLL*59
$GPVTG,000.7,T,344.3,M,000.29,N,0000.54,K,A*1E
$GPRMC,164203.9,A,4741.20338,N,12224.26719,W,000.28,000.7,261014,016.4,E,A*22
$HCHDG,272.2,0.0,E,,*2C
$GPGGA,164203.9,4741.20338,N,12224.26719,W,1,09,0.9,-3.5,M,-18.2,M,,*48
$YXXDR,A,5.0,D,PTCH,A,3.2,D,ROLL*59
$GPVTG,000.7,T,344.3,M,000.28,N,0000.51,K,A*1A
$GPRMC,164204.0,A,4741.20338,N,12224.26719,W,000.25,000.7,261014,016.4,E,A*21
$HCHDG,272.2,0.0,E,,*2C
$GPGGA,164204.0,4741.20338,N,12224.26719,W,1,09,0.9,-3.5,M,-18.2,M,,*46
$YXXDR,A,5.0,D,PTCH,A,3.4,D,ROLL*5F
$GPVTG,000.7,T,344.3,M,000.25,N,0000.47,K,A*10
$GPGSA,A,3,12,02,25,06,10,24,29,05,31,,,,1.5,0.9,1.2*37
$GPRMC,164204.1,A,4741.20337,N,12224.26721,W,000.82,000.7,261014,016.4,E,A*29
$HCHDG,272.3,0.0,E,,*2D
$GPGGA,164204.1,4741.20337,N,12224.26721,W,1,09,0.9,-3.5,M,-18.2,M,,*43
$YXXDR,A,5.0,D,PTCH,A,3.4,D,ROLL*5F
$GPVTG,000.7,T,344.3,M,000.82,N,0001.51,K,A*1B
$GPGSV,3,1,09,12,84,174,48,02,75,123,47,25,50,305,48,06,43,055,47*7A
$GPGSV,3,2,09,10,28,099,48,24,23,210,36,29,19,268,28,05,12,150,38*7B
$GPGSV,3,3,09,31,08,331,37*4F
$GPRMC,164204.2,A,4741.20336,N,12224.26722,W,000.76,000.7,261014,016.4,E,A*23
$HCHDG,272.3,0.0,E,,*2D
$GPGGA,164204.2,4741.20336,N,12224.26722,W,1,09,0.9,-3.5,M,-18.2,M,,*42
$YXXDR,A,5.0,D,PTCH,A,3.4,D,ROLL*5F
$GPVTG,000.7,T,344.3,M,000.76,N,0001.40,K,A*10
$IIVHW,,,,,00.0,N,,*19
$GPRMC,164204.3,A,4741.20336,N,12224.26722,W,000.69,000.7,261014,016.4,E,A*2C
$HCHDG,272.3,0.0,E,,*2D
$GPGGA,164204.3,4741.20336,N,12224.26722,W,1,09,0.9,-3.5,M,-18.2,M,,*43
$YXXDR,A,5.0,D,PTCH,A,3.4,D,ROLL*5F
$GPVTG,000.7,T,344.3,M,000.69,N,0001.28,K,A*10
$TIROT,15.4,A*0B
$IIVLW,07053,N,000.0,N*52
$IIVWR,096,L,19.3,N,,,,*7B
$HCHDG,272.1,0.0,E,,*2F
$GPRMC,164204.4,A,4741.20326,N,12224.26736,W,000.61,000.7,261014,016.4,E,A*27
$GPGGA,164204.4,4741.20326,N,12224.26736,W,1,09,0.9,-3.4,M,-18.2,M,,*41
$GPVTG,000.7,T,344.3,M,000.61,N,0001.14,K,A*17
$YXXDR,A,4.8,D,PTCH,A,3.4,D,ROLL*56
$GPRMC,164204.5,A,4741.20326,N,12224.26736,W,000.56,000.7,261014,016.4,E,A*22
$HCHDG,272.0,0.0,E,,*2E
$GPGGA,164204.5,4741.20326,N,12224.26736,W,1,09,0.9,-3.4,M,-18.2,M,,*40
$YXXDR,A,5.0,D,PTCH,A,3.4,D,ROLL*5F
$GPVTG,000.7,T,344.3,M,000.56,N,0001.03,K,A*15
$IIMTW,-10.0,C*3F
$HCHDG,272.0,0.0,E,,*2E
$GPRMC,164204.6,A,4741.20326,N,12224.26736,W,000.48,000.7,261014,016.4,E,A*2E
$YXXDR,A,4.8,D,PTCH,A,3.4,D,ROLL*56
$IIMWV,264,R,19.3,N,A*18
$GPGGA,164204.6,4741.20326,N,12224.26736,W,1,09,0.9,-3.4,M,-18.2,M,,*43
$GPVTG,000.7,T,344.3,M,000.48,N,0000.88,K,A*18
$IIMWV,267,T,19.9,N,A*17
$HCHDG,272.1,0.0,E,,*2F
$GPRMC,164204.7,A,4741.20326,N,12224.26736,W,000.41,000.7,261014,016.4,E,A*26
$YXXDR,A,4.8,D,PTCH,A,3.5,D,ROLL*57
$GPGGA,164204.7,4741.20326,N,12224.26736,W,1,09,0.9,-3.4,M,-18.2,M,,*42
$GPVTG,000.7,T,344.3,M,000.41,N,0000.76,K,A*10
