$GPGGA,193626.3,4741.21321,N,12224.25750,W,1,03,8.2,15.4,M,-18.2,M,,*5C
$GPVTG,000.0,T,343.6,M,000.62,N,0001.14,K,A*11
$GPRMC,193626.4,A,4741.21321,N,12224.25750,W,000.53,000.0,241014,016.4,E,A*2A
$GPGGA,193626.4,4741.21321,N,12224.25750,W,1,03,8.2,15.3,M,-18.2,M,,*5C
$GPVTG,000.0,T,343.6,M,000.53,N,0000.99,K,A*17
$GPRMC,193626.5,A,4741.21320,N,12224.25750,W,000.49,000.0,241014,016.4,E,A*21
$GPGGA,193626.5,4741.21320,N,12224.25750,W,1,03,8.2,15.3,M,-18.2,M,,*5C
$GPVTG,000.0,T,343.6,M,000.49,N,0000.90,K,A*15
$GPRMC,193626.6,A,4741.21320,N,12224.25750,W,000.45,000.0,241014,016.4,E,A*2E
$GPGGA,193626.6,4741.21320,N,12224.25750,W,1,03,8.2,15.3,M,-18.2,M,,*5F
$GPVTG,000.0,T,343.6,M,000.45,N,0000.84,K,A*1C
$GPRMC,193626.7,A,4741.21320,N,12224.25750,W,000.41,000.0,241014,016.4,E,A*2B
$GPGGA,193626.7,4741.21320,N,12224.25750,W,1,03,8.2,15.3,M,-18.2,M,,*5E
$GPVTG,000.0,T,343.6,M,000.41,N,0000.76,K,A*15
$GPRMC,193626.8,A,4741.21320,N,12224.25750,W,000.38,000.0,241014,016.4,E,A*2A
$GPGGA,193626.8,4741.21320,N,12224.25750,W,1,03,8.2,15.3,M,-18.2,M,,*51
$GPVTG,000.0,T,343.6,M,000.38,N,0000.70,K,A*1D
$YXXDR,A,5.8,D,PTCH,A,4.4,D,ROLL*50
$TIROT,17.5,A*08
$HCHDG,268.0,0.0,E,,*25
$GPRMC,193626.9,A,4741.21319,N,12224.25752,W,000.63,000.0,241014,016.4,E,A*2D
$GPGGA,193626.9,4741.21319,N,12224.25752,W,1,03,8.2,15.3,M,-18.2,M,,*58
$GPVTG,000.0,T,343.6,M,000.63,N,0001.17,K,A*13
$HCHDG,268.0,0.0,E,,*25
$YXXDR,A,5.7,D,PTCH,A,4.4,D,ROLL*5F
$GPRMC,193627.0,A,4741.21283,N,12224.25782,W,000.58,000.0,241014,016.4,E,A*22
$GPGGA,193627.0,4741.21283,N,12224.25782,W,1,03,8.2,14.7,M,-18.2,M,,*5A
$GPVTG,000.0,T,343.6,M,000.58,N,0001.08,K,A*15
$GPGSA,A,3,29,05,02,,,,,,,,,,9.7,8.2,5.2*3D
$GPGSV,1,1,04,29,85,355,42,05,48,067,46,21,35,255,34,02,16,069,38*75
$HCHDG,268.0,0.0,E,,*25
$YXXDR,A,5.7,D,PTCH,A,4.4,D,ROLL*5F
$GPRMC,193627.1,A,4741.21283,N,12224.25781,W,000.50,000.0,241014,016.4,E,A*28
$GPGGA,193627.1,4741.21283,N,12224.25781,W,1,03,8.2,14.7,M,-18.2,M,,*58
$GPVTG,000.0,T,343.6,M,000.50,N,0000.93,K,A*1E
$HCHDG,268.1,0.0,E,,*24
$YXXDR,A,5.6,D,PTCH,A,4.4,D,ROLL*5E
$GPRMC,193627.2,A,4741.21283,N,12224.25781,W,000.46,000.0,241014,016.4,E,A*2C
$GPGGA,193627.2,4741.21283,N,12224.25781,W,1,03,8.2,14.7,M,-18.2,M,,*5B
$GPVTG,000.0,T,343.6,M,000.46,N,0000.84,K,A*1F
$HCHDG,268.1,0.0,E,,*24
$YXXDR,A,5.6,D,PTCH,A,4.4,D,ROLL*5E
$GPRMC,193627.3,A,4741.21283,N,12224.25782,W,000.40,000.0,241014,016.4,E,A*28
$GPGGA,193627.3,4741.21283,N,12224.25782,W,1,03,8.2,14.7,M,-18.2,M,,*59
$GPVTG,000.0,T,343.6,M,000.40,N,0000.73,K,A*11
$HCHDG,268.1,0.0,E,,*24
$YXXDR,A,5.6,D,PTCH,A,4.5,D,ROLL*5F
$GPRMC,193627.4,A,4741.21283,N,12224.25782,W,000.36,000.0,241014,016.4,E,A*2E
$GPGGA,193627.4,4741.21283,N,12224.25782,W,1,03,8.2,14.7,M,-18.2,M,,*5E
$GPVTG,000.0,T,343.6,M,000.36,N,0000.66,K,A*14
$HCHDG,268.1,0.0,E,,*24
$YXXDR,A,5.7,D,PTCH,A,4.6,D,ROLL*5D
$GPRMC,193627.5,A,4741.21283,N,12224.25782,W,000.36,000.0,241014,016.4,E,A*2F
$GPGGA,193627.5,4741.21283,N,12224.25782,W,1,03,8.2,14.7,M,-18.2,M,,*5F
$GPVTG,000.0,T,343.6,M,000.36,N,0000.67,K,A*15
$HCHDG,267.8,0.0,E,,*22
$YXXDR,A,5.5,D,PTCH,A,4.7,D,ROLL*5E
$GPRMC,193627.6,A,4741.21283,N,12224.25782,W,000.36,000.0,241014,016.4,E,A*2C
$GPGGA,193627.6,4741.21283,N,12224.25782,W,1,03,8.2,14.7,M,-18.2,M,,*5C
$GPVTG,000.0,T,343.6,M,000.36,N,0000.67,K,A*15
$HCHDG,267.8,0.0,E,,*22
$YXXDR,A,5.5,D,PTCH,A,4.7,D,ROLL*5E
$GPRMC,193627.7,A,4741.21283,N,12224.25782,W,000.33,000.0,241014,016.4,E,A*28
$GPGGA,193627.7,4741.21283,N,12224.25782,W,1,03,8.2,14.7,M,-18.2,M,,*5D
$GPVTG,000.0,T,343.6,M,000.33,N,0000.60,K,A*17
$HCHDG,267.8,0.0,E,,*22
$YXXDR,A,5.7,D,PTCH,A,4.6,D,ROLL*5D
$GPRMC,193627.8,A,4741.21280,N,12224.25785,W,000.55,000.0,241014,016.4,E,A*23
$GPGGA,193627.8,4741.21280,N,12224.25785,W,1,03,8.2,14.6,M,-18.2,M,,*57
$GPVTG,000.0,T,343.6,M,000.55,N,0001.02,K,A*12
$HCHDG,267.7,0.0,E,,*2D
$YXXDR,A,5.7,D,PTCH,A,4.7,D,ROLL*5C
$TIROT,10.1,A*0B
$GPRMC,193627.9,A,4741.21280,N,12224.25785,W,000.51,000.0,241014,016.4,E,A*26
$GPGGA,193627.9,4741.21280,N,12224.25785,W,1,03,8.2,14.6,M,-18.2,M,,*56
$GPVTG,000.0,T,343.6,M,000.51,N,0000.95,K,A*19
$HCHDG,267.7,0.0,E,,*2D
$YXXDR,A,5.7,D,PTCH,A,4.7,D,ROLL*5C
$GPRMC,193628.0,A,4741.21268,N,12224.25780,W,000.47,000.0,241014,016.4,E,A*24
$GPGGA,193628.0,4741.21268,N,12224.25780,W,1,03,8.2,15.4,M,-18.2,M,,*50
$GPVTG,000.0,T,343.6,M,000.47,N,0000.87,K,A*1D
$GPGSA,A,3,29,05,02,,,,,,,,,,9.7,8.2,5.2*3D
$HCHDG,267.5,0.0,E,,*2F
$GPGSV,1,1,04,29,85,355,43,05,48,067,46,21,35,255,34,02,16,069,39*75
$YXXDR,A,5.7,D,PTCH,A,4.7,D,ROLL*5C
$GPRMC,193628.1,A,4741.21265,N,12224.25778,W,000.42,000.0,241014,016.4,E,A*2A
$GPGGA,193628.1,4741.21265,N,12224.25778,W,1,03,8.2,15.4,M,-18.2,M,,*5B
$GPVTG,000.0,T,343.6,M,000.42,N,0000.77,K,A*17
$HCHDG,267.5,0.0,E,,*2F
$YXXDR,A,5.7,D,PTCH,A,4.6,D,ROLL*5D
$GPRMC,193628.2,A,4741.21256,N,12224.25775,W,000.75,000.0,241014,016.4,E,A*20
$GPGGA,193628.2,4741.21256,N,12224.25775,W,1,03,8.2,15.4,M,-18.2,M,,*55
$GPVTG,000.0,T,343.6,M,000.75,N,0001.39,K,A*18
$HCHDG,267.5,0.0,E,,*2F
$YXXDR,A,5.7,D,PTCH,A,4.6,D,ROLL*5D
$GPRMC,193628.3,A,4741.21254,N,12224.25775,W,000.70,000.0,241014,016.4,E,A*26
$GPGGA,193628.3,4741.21254,N,12224.25775,W,1,03,8.2,15.3,M,-18.2,M,,*51
$GPVTG,000.0,T,343.6,M,000.70,N,0001.29,K,A*1C
$HCHDG,267.4,0.0,E,,*2E
$YXXDR,A,5.7,D,PTCH,A,4.6,D,ROLL*5D
$GPRMC,193628.4,A,4741.21254,N,12224.25775,W,000.64,000.0,241014,016.4,E,A*24
$GPGGA,193628.4,4741.21254,N,12224.25775,W,1,03,8.2,15.3,M,-18.2,M,,*56
$GPVTG,000.0,T,343.6,M,000.64,N,0001.19,K,A*1A
$HCHDG,267.4,0.0,E,,*2E
$YXXDR,A,5.7,D,PTCH,A,4.6,D,ROLL*5D
$GPRMC,193628.5,A,4741.21253,N,12224.25775,W,000.60,000.0,241014,016.4,E,A*26
$GPGGA,193628.5,4741.21253,N,12224.25775,W,1,03,8.2,15.3,M,-18.2,M,,*50
$GPVTG,000.0,T,343.6,M,000.60,N,0001.11,K,A*16
$HCHDG,267.4,0.0,E,,*2E
$YXXDR,A,5.7,D,PTCH,A,4.6,D,ROLL*5D
$GPRMC,193628.6,A,4741.21252,N,12224.25776,W,000.55,000.0,241014,016.4,E,A*21
$GPGGA,193628.6,4741.21252,N,12224.25776,W,1,03,8.2,15.3,M,-18.2,M,,*51
$GPVTG,000.0,T,343.6,M,000.55,N,0001.01,K,A*11
$HCHDG,267.5,0.0,E,,*2F
$YXXDR,A,5.7,D,PTCH,A,4.6,D,ROLL*5D
$GPRMC,193628.7,A,4741.21251,N,12224.25776,W,000.50,000.0,241014,016.4,E,A*26
$GPGGA,193628.7,4741.21251,N,12224.25776,W,1,03,8.2,15.3,M,-18.2,M,,*53
$GPVTG,000.0,T,343.6,M,000.50,N,0000.94,K,A*19
$HCHDG,267.4,0.0,E,,*2E
$YXXDR,A,5.4,D,PTCH,A,4.5,D,ROLL*5D
$GPRMC,193628.8,A,4741.21250,N,12224.25776,W,000.45,000.0,241014,016.4,E,A*2C
$GPGGA,193628.8,4741.21250,N,12224.25776,W,1,03,8.2,15.3,M,-18.2,M,,*5D
$GPVTG,000.0,T,343.6,M,000.45,N,0000.83,K,A*1B
$HCHDG,267.4,0.0,E,,*2E
$YXXDR,A,5.4,D,PTCH,A,4.5,D,ROLL*5D
$TIROT,14.6,A*08
$GPRMC,193628.9,A,4741.21250,N,12224.25776,W,000.43,000.0,241014,016.4,E,A*2B
$GPGGA,193628.9,4741.21250,N,12224.25776,W,1,03,8.2,15.3,M,-18.2,M,,*5C
$GPVTG,000.0,T,343.6,M,000.43,N,0000.79,K,A*18
$HCHDG,267.4,0.0,E,,*2E
$YXXDR,A,5.4,D,PTCH,A,4.5,D,ROLL*5D
$GPRMC,193629.0,A,4741.21209,N,12224.25737,W,000.39,000.0,241014,016.4,E,A*27
$GPGGA,193629.0,4741.21209,N,12224.25737,W,1,03,8.2,15.2,M,-18.2,M,,*5C
$GPVTG,000.0,T,343.6,M,000.39,N,0000.73,K,A*1F
$GPGSA,A,3,29,05,02,,,,,,,,,,9.7,8.2,5.2*3D
$HCHDG,267.3,0.0,E,,*29
$GPGSV,1,1,04,29,85,355,43,05,48,067,46,21,35,255,36,02,16,069,39*77
$YXXDR,A,5.4,D,PTCH,A,4.5,D,ROLL*5D
$GPRMC,193629.1,A,4741.21209,N,12224.25737,W,000.33,000.0,241014,016.4,E,A*2C
$GPGGA,193629.1,4741.21209,N,12224.25737,W,1,03,8.2,15.2,M,-18.2,M,,*5D
$GPVTG,000.0,T,343.6,M,000.33,N,0000.61,K,A*16
$HCHDG,267.3,0.0,E,,*29
$YXXDR,A,5.6,D,PTCH,A,4.3,D,ROLL*59
$GPRMC,193629.2,A,4741.21209,N,12224.25737,W,000.32,000.0,241014,016.4,E,A*2E
$GPGGA,193629.2,4741.21209,N,12224.25737,W,1,03,8.2,15.2,M,-18.2,M,,*5E
$GPVTG,000.0,T,343.6,M,000.32,N,0000.60,K,A*16
$HCHDG,267.3,0.0,E,,*29
$YXXDR,A,5.5,D,PTCH,A,4.3,D,ROLL*5A
$GPRMC,193629.3,A,4741.21209,N,12224.25737,W,000.32,000.0,241014,016.4,E,A*2F
$GPGGA,193629.3,4741.21209,N,12224.25737,W,1,03,8.2,15.2,M,-18.2,M,,*5F
$GPVTG,000.0,T,343.6,M,000.32,N,0000.59,K,A*1C
$HCHDG,267.3,0.0,E,,*29
$YXXDR,A,5.4,D,PTCH,A,4.2,D,ROLL*5A
$GPRMC,193629.4,A,4741.21209,N,12224.25737,W,000.29,000.0,241014,016.4,E,A*22
$GPGGA,193629.4,4741.21209,N,12224.25737,W,1,03,8.2,15.2,M,-18.2,M,,*58
$GPVTG,000.0,T,343.6,M,000.29,N,0000.53,K,A*1C
$HCHDG,267.3,0.0,E,,*29
$YXXDR,A,5.5,D,PTCH,A,4.2,D,ROLL*5B
$GPRMC,193629.5,A,4741.21209,N,12224.25737,W,000.28,000.0,241014,016.4,E,A*22
$GPGGA,193629.5,4741.21209,N,12224.25737,W,1,03,8.2,15.1,M,-18.2,M,,*5A
$GPVTG,000.0,T,343.6,M,000.28,N,0000.51,K,A*1F
$HCHDG,267.3,0.0,E,,*29
$YXXDR,A,5.5,D,PTCH,A,4.3,D,ROLL*5A
$GPRMC,193629.6,A,4741.21209,N,12224.25737,W,000.25,000.0,241014,016.4,E,A*2C
$GPGGA,193629.6,4741.21209,N,12224.25737,W,1,03,8.2,15.1,M,-18.2,M,,*59
$GPVTG,000.0,T,343.6,M,000.25,N,0000.47,K,A*15
$HCHDG,267.3,0.0,E,,*29
$YXXDR,A,5.6,D,PTCH,A,4.2,D,ROLL*58
$GPRMC,193629.7,A,4741.21209,N,12224.25737,W,000.22,000.0,241014,016.4,E,A*2A
$GPGGA,193629.7,4741.21209,N,12224.25737,W,1,03,8.2,15.1,M,-18.2,M,,*58
$GPVTG,000.0,T,343.6,M,000.22,N,0000.41,K,A*14
$HCHDG,267.3,0.0,E,,*29
$YXXDR,A,5.5,D,PTCH,A,4.3,D,ROLL*5A
$GPRMC,193629.8,A,4741.21209,N,12224.25737,W,000.21,000.0,241014,016.4,E,A*26
$GPGGA,193629.8,4741.21209,N,12224.25737,W,1,03,8.2,15.1,M,-18.2,M,,*57
$GPVTG,000.0,T,343.6,M,000.21,N,0000.40,K,A*16
$HCHDG,267.2,0.0,E,,*28
$YXXDR,A,5.5,D,PTCH,A,4.2,D,ROLL*5B
$TIROT,5.8,A*36
$GPRMC,193629.9,A,4741.21209,N,12224.25737,W,000.24,000.0,241014,016.4,E,A*22
$GPGGA,193629.9,4741.21209,N,12224.25737,W,1,03,8.2,15.1,M,-18.2,M,,*56
$GPVTG,000.0,T,343.6,M,000.24,N,0000.44,K,A*17
$HCHDG,267.1,0.0,E,,*2B
$YXXDR,A,5.5,D,PTCH,A,4.3,D,ROLL*5A
$GPRMC,193630.0,A,4741.21101,N,12224.25749,W,000.77,000.0,241014,016.4,E,A*27
$GPGGA,193630.0,4741.21101,N,12224.25749,W,1,03,8.2,14.5,M,-18.2,M,,*50
$GPVTG,000.0,T,343.6,M,000.77,N,0001.43,K,A*17
$HCHDG,267.1,0.0,E,,*2B
$GPGSA,A,3,29,05,02,,,,,,,,,,9.7,8.2,5.2*3D
$YXXDR,A,5.5,D,PTCH,A,4.3,D,ROLL*5A
$GPGSV,1,1,04,29,85,355,44,05,48,067,46,21,35,255,37,02,16,069,39*71
$GPRMC,193630.1,A,4741.21101,N,12224.25749,W,000.29,000.0,241014,016.4,E,A*2D
$GPGGA,193630.1,4741.21101,N,12224.25749,W,1,03,8.2,14.4,M,-18.2,M,,*50
$GPVTG,000.0,T,343.6,M,000.29,N,0000.54,K,A*1B
$HCHDG,266.9,0.0,E,,*22
$YXXDR,A,5.4,D,PTCH,A,4.3,D,ROLL*5B
$GPRMC,193630.2,A,4741.21101,N,12224.25749,W,000.27,000.0,241014,016.4,E,A*20
$GPGGA,193630.2,4741.21101,N,12224.25749,W,1,03,8.2,14.4,M,-18.2,M,,*53
$GPVTG,000.0,T,343.6,M,000.27,N,0000.51,K,A*10
$HCHDG,266.8,0.0,E,,*23
$YXXDR,A,5.4,D,PTCH,A,4.3,D,ROLL*5B
$GPRMC,193630.3,A,4741.21101,N,12224.25749,W,000.27,000.0,241014,016.4,E,A*21
$GPGGA,193630.3,4741.21101,N,12224.25749,W,1,03,8.2,14.4,M,-18.2,M,,*52
$GPVTG,000.0,T,343.6,M,000.27,N,0000.50,K,A*11
$HCHDG,266.8,0.0,E,,*23
$YXXDR,A,5.4,D,PTCH,A,4.2,D,ROLL*5A
$GPRMC,193630.4,A,4741.21101,N,12224.25749,W,000.29,000.0,241014,016.4,E,A*28
$GPGGA,193630.4,4741.21101,N,12224.25749,W,1,03,8.2,14.4,M,-18.2,M,,*55
$GPVTG,000.0,T,343.6,M,000.29,N,0000.54,K,A*1B
$HCHDG,266.8,0.0,E,,*23
$YXXDR,A,5.4,D,PTCH,A,4.2,D,ROLL*5A
$GPRMC,193630.5,A,4741.21101,N,12224.25749,W,000.38,000.0,241014,016.4,E,A*29
$GPGGA,193630.5,4741.21101,N,12224.25749,W,1,03,8.2,14.4,M,-18.2,M,,*54
$GPVTG,000.0,T,343.6,M,000.38,N,0000.70,K,A*1D
$HCHDG,266.7,0.0,E,,*2C
$YXXDR,A,5.4,D,PTCH,A,4.4,D,ROLL*5C
$GPRMC,193630.6,A,4741.21101,N,12224.25749,W,000.39,000.0,241014,016.4,E,A*2B
$GPGGA,193630.6,4741.21101,N,12224.25749,W,1,03,8.2,14.4,M,-18.2,M,,*57
$GPVTG,000.0,T,343.6,M,000.39,N,0000.72,K,A*1E
$HCHDG,266.7,0.0,E,,*2C
$YXXDR,A,5.4,D,PTCH,A,4.5,D,ROLL*5D
$GPRMC,193630.7,A,4741.21101,N,12224.25749,W,000.37,000.0,241014,016.4,E,A*24
$GPGGA,193630.7,4741.21101,N,12224.25749,W,1,03,8.2,14.4,M,-18.2,M,,*56
$GPVTG,000.0,T,343.6,M,000.37,N,0000.68,K,A*1B
$HCHDG,266.6,0.0,E,,*2D
$YXXDR,A,5.6,D,PTCH,A,4.5,D,ROLL*5F
$GPRMC,193630.8,A,4741.21101,N,12224.25749,W,000.37,000.0,241014,016.4,E,A*2B
$GPGGA,193630.8,4741.21101,N,12224.25749,W,1,03,8.2,14.4,M,-18.2,M,,*59
$GPVTG,000.0,T,343.6,M,000.37,N,0000.69,K,A*1A
$HCHDG,266.8,0.0,E,,*23
$YXXDR,A,5.5,D,PTCH,A,4.7,D,ROLL*5E
$TIROT,5.6,A*38
$GPRMC,193630.9,A,4741.21101,N,12224.25749,W,000.33,000.0,241014,016.4,E,A*2E
$GPGGA,193630.9,4741.21101,N,12224.25749,W,1,03,8.2,14.4,M,-18.2,M,,*58
$GPVTG,000.0,T,343.6,M,000.33,N,0000.62,K,A*15
$HCHDG,266.8,0.0,E,,*23
$YXXDR,A,5.7,D,PTCH,A,4.7,D,ROLL*5C
$GPRMC,193631.0,A,4741.20996,N,12224.25799,W,000.33,000.0,241014,016.4,E,A*2C
$GPGGA,193631.0,4741.20996,N,12224.25799,W,1,03,8.2,13.4,M,-18.2,M,,*5D
$HCHDG,266.8,0.0,E,,*23
$GPVTG,000.0,T,343.6,M,000.33,N,0000.61,K,A*16
$GPGSA,A,3,29,05,02,,,,,,,,,,9.7,8.2,5.2*3D
$YXXDR,A,5.7,D,PTCH,A,4.6,D,ROLL*5D
$GPGSV,1,1,04,29,85,355,44,05,48,067,46,21,35,255,38,02,16,069,39*7E
$GPRMC,193631.1,A,4741.20996,N,12224.25799,W,000.29,000.0,241014,016.4,E,A*26
$GPGGA,193631.1,4741.20996,N,12224.25799,W,1,03,8.2,13.3,M,-18.2,M,,*5B
$GPVTG,000.0,T,343.6,M,000.29,N,0000.54,K,A*1B
$HCHDG,266.8,0.0,E,,*23
$YXXDR,A,5.6,D,PTCH,A,4.5,D,ROLL*5F
$GPRMC,193631.2,A,4741.20994,N,12224.25799,W,000.49,000.0,241014,016.4,E,A*21
$GPGGA,193631.2,4741.20994,N,12224.25799,W,1,03,8.2,13.3,M,-18.2,M,,*5A
$HCHDG,266.8,0.0,E,,*23
$YXXDR,A,5.6,D,PTCH,A,4.5,D,ROLL*5F
$GPVTG,000.0,T,343.6,M,000.49,N,0000.91,K,A*14
$GPRMC,193631.3,A,4741.20993,N,12224.25799,W,000.45,000.0,241014,016.4,E,A*2B
$GPGGA,193631.3,4741.20993,N,12224.25799,W,1,03,8.2,13.3,M,-18.2,M,,*5C
$HCHDG,266.7,0.0,E,,*2C
$GPVTG,000.0,T,343.6,M,000.45,N,0000.82,K,A*1A
$YXXDR,A,5.7,D,PTCH,A,4.7,D,ROLL*5C
$HCHDG,266.8,0.0,E,,*23
$YXXDR,A,5.7,D,PTCH,A,4.7,D,ROLL*5C
$HCHDG,266.6,0.0,E,,*2D
$YXXDR,A,5.5,D,PTCH,A,4.9,D,ROLL*50
$HCHDG,266.7,0.0,E,,*2C
$GPRMC,193631.4,A,4741.20993,N,12224.25799,W,000.40,000.0,241014,016.4,E,A*29
$GPGGA,193631.4,4741.20993,N,12224.25799,W,1,03,8.2,13.3,M,-18.2,M,,*5B
$GPVTG,000.0,T,343.6,M,000.40,N,0000.74,K,A*16
$YXXDR,A,5.5,D,PTCH,A,4.9,D,ROLL*50
$HCHDG,266.7,0.0,E,,*2C
$YXXDR,A,5.6,D,PTCH,A,4.4,D,ROLL*5E
$HCHDG,266.6,0.0,E,,*2D
$GPRMC,193631.5,A,4741.20993,N,12224.25799,W,000.39,000.0,241014,016.4,E,A*26
$GPGGA,193631.5,4741.20993,N,12224.25799,W,1,03,8.2,13.3,M,-18.2,M,,*5A
$GPVTG,000.0,T,343.6,M,000.39,N,0000.73,K,A*1F
$GPRMC,193631.6,A,4741.20993,N,12224.25799,W,000.42,000.0,241014,016.4,E,A*29
$YXXDR,A,5.6,D,PTCH,A,4.4,D,ROLL*5E
$TIROT,45.5,A*0F
$HCHDG,266.6,0.0,E,,*2D
$YXXDR,A,5.6,D,PTCH,A,4.3,D,ROLL*59
$HCHDG,266.6,0.0,E,,*2D
$YXXDR,A,5.6,D,PTCH,A,4.3,D,ROLL*59
$HCHDG,266.6,0.0,E,,*2D
$GPGGA,193631.6,4741.20993,N,12224.25799,W,1,03,8.2,13.3,M,-18.2,M,,*59
$GPVTG,000.0,T,343.6,M,000.42,N,0000.78,K,A*18
$GPRMC,193631.7,A,4741.20993,N,12224.25799,W,000.14,000.0,241014,016.4,E,A*2B
$GPGGA,193631.7,4741.20993,N,12224.25799,W,1,03,8.2,13.3,M,-18.2,M,,*58
$YXXDR,A,5.4,D,PTCH,A,4.3,D,ROLL*5B
$HCHDG,266.7,0.0,E,,*2C
$YXXDR,A,5.5,D,PTCH,A,4.3,D,ROLL*5A
$HCHDG,266.8,0.0,E,,*23
$GPVTG,000.0,T,343.6,M,000.14,N,0000.26,K,A*10
$GPRMC,193631.8,A,4741.20993,N,12224.25799,W,000.16,000.0,241014,016.4,E,A*26
$GPGGA,193631.8,4741.20993,N,12224.25799,W,1,03,8.2,13.3,M,-18.2,M,,*57
$GPVTG,000.0,T,343.6,M,000.16,N,0000.29,K,A*1D
$YXXDR,A,5.5,D,PTCH,A,4.2,D,ROLL*5B
$HCHDG,266.8,0.0,E,,*23
$YXXDR,A,5.6,D,PTCH,A,4.0,D,ROLL*5A
$HCHDG,266.5,0.0,E,,*2E
$YXXDR,A,5.4,D,PTCH,A,4.1,D,ROLL*59
$HCHDG,266.5,0.0,E,,*2E
$GPRMC,193631.9,A,4741.20993,N,12224.25799,W,000.20,000.0,241014,016.4,E,A*22
$GPGGA,193631.9,4741.20993,N,12224.25799,W,1,03,8.2,13.3,M,-18.2,M,,*56
$GPVTG,000.0,T,343.6,M,000.20,N,0000.36,K,A*16
$GPRMC,193632.0,A,4741.20993,N,12224.25799,W,000.26,000.0,241014,016.4,E,A*2E
$YXXDR,A,5.4,D,PTCH,A,4.2,D,ROLL*5A
$HCHDG,266.5,0.0,E,,*2E
$YXXDR,A,5.4,D,PTCH,A,4.3,D,ROLL*5B
$HCHDG,266.5,0.0,E,,*2E
$GPGGA,193632.0,4741.20993,N,12224.25799,W,1,03,8.2,11.6,M,-18.2,M,,*5B
$GPVTG,000.0,T,343.6,M,000.26,N,0000.48,K,A*19
$GPGSA,A,3,29,05,02,,,,,,,,,,9.7,8.2,5.2*3D
$GPGSV,1,1,04,29,85,355,44,05,48,067,46,21,35,255,36,02,16,069,39*70
$YXXDR,A,5.4,D,PTCH,A,4.2,D,ROLL*5A
$TIROT,14.8,A*06
$GPRMC,193632.1,A,4741.20993,N,12224.25799,W,000.31,000.0,241014,016.4,E,A*29
$GPGGA,193632.1,4741.20993,N,12224.25799,W,1,03,8.2,11.6,M,-18.2,M,,*5A
$GPVTG,000.0,T,343.6,M,000.31,N,0000.57,K,A*11
$GPRMC,193632.2,A,4741.20871,N,12224.25831,W,000.39,000.0,241014,016.4,E,A*22
$GPGGA,193632.2,4741.20871,N,12224.25831,W,1,03,8.2,11.6,M,-18.2,M,,*59
$GPVTG,000.0,T,343.6,M,000.39,N,0000.73,K,A*1F
$GPRMC,193632.3,A,4741.20870,N,12224.25832,W,000.40,000.0,241014,016.4,E,A*2F
$HCHDG,266.5,0.0,E,,*2E
$GPGGA,193632.3,4741.20870,N,12224.25832,W,1,03,8.2,11.6,M,-18.2,M,,*5A
$GPVTG,000.0,T,343.6,M,000.40,N,0000.74,K,A*16
$GPRMC,193632.4,A,4741.20870,N,12224.25832,W,000.39,000.0,241014,016.4,E,A*26
$GPGGA,193632.4,4741.20870,N,12224.25832,W,1,03,8.2,11.5,M,-18.2,M,,*5E
$YXXDR,A,5.4,D,PTCH,A,4.3,D,ROLL*5B
$GPVTG,000.0,T,343.6,M,000.39,N,0000.72,K,A*1E
$GPRMC,193632.5,A,4741.20870,N,12224.25832,W,000.38,000.0,241014,016.4,E,A*26
$GPGGA,193632.5,4741.20870,N,12224.25832,W,1,03,8.1,11.5,M,-18.2,M,,*5C
$GPVTG,000.0,T,343.6,M,000.38,N,0000.70,K,A*1D
$GPRMC,193632.6,A,4741.20870,N,12224.25832,W,000.35,000.0,241014,016.4,E,A*28
$GPGGA,193632.6,4741.20870,N,12224.25832,W,1,03,8.1,11.5,M,-18.2,M,,*5F
$GPVTG,000.0,T,343.6,M,000.35,N,0000.66,K,A*17
$GPRMC,193632.7,A,4741.20870,N,12224.25832,W,000.36,000.0,241014,016.4,E,A*2A
$GPGGA,193632.7,4741.20870,N,12224.25832,W,1,03,8.1,11.5,M,-18.2,M,,*5E
$GPVTG,000.0,T,343.6,M,000.36,N,0000.66,K,A*14
$GPRMC,193632.8,A,4741.20870,N,12224.25832,W,000.38,000.0,241014,016.4,E,A*2B
$GPGGA,193632.8,4741.20870,N,12224.25832,W,1,03,8.1,11.5,M,-18.2,M,,*51
$GPVTG,000.0,T,343.6,M,000.38,N,0000.70,K,A*1D
$GPRMC,193632.9,A,4741.20870,N,12224.25832,W,000.36,000.0,241014,016.4,E,A*24
$GPGGA,193632.9,4741.20870,N,12224.25832,W,1,03,8.1,11.5,M,-18.2,M,,*50
$GPVTG,000.0,T,343.6,M,000.36,N,0000.67,K,A*15
$HCHDG,266.4,0.0,E,,*2F
$YXXDR,A,5.4,D,PTCH,A,4.4,D,ROLL*5C
$GPRMC,193633.0,A,4741.20870,N,12224.25832,W,000.33,000.0,241014,016.4,E,A*29
$GPGGA,193633.0,4741.20870,N,12224.25832,W,1,03,8.1,10.1,M,-18.2,M,,*5D
$GPVTG,000.0,T,343.6,M,000.33,N,0000.62,K,A*15
$GPGSA,A,3,29,05,02,,,,,,,,,,9.7,8.1,5.2*3E
$GPGSV,1,1,04,29,85,355,45,05,48,067,46,21,35,255,36,02,16,069,38*70
$GPRMC,193633.1,A,4741.20870,N,12224.25832,W,000.34,000.0,241014,016.4,E,A*2F
$GPGGA,193633.1,4741.20870,N,12224.25832,W,1,03,8.1,10.1,M,-18.2,M,,*5C
$GPVTG,000.0,T,343.6,M,000.34,N,0000.63,K,A*13
$GPRMC,193633.2,A,4741.20870,N,12224.25832,W,000.33,000.0,241014,016.4,E,A*2B
$HCHDG,266.4,0.0,E,,*2F
$YXXDR,A,5.4,D,PTCH,A,4.3,D,ROLL*5B
$GPGGA,193633.2,4741.20870,N,12224.25832,W,1,03,8.1,10.1,M,-18.2,M,,*5F
$GPVTG,000.0,T,343.6,M,000.33,N,0000.61,K,A*16
$HCHDG,266.3,0.0,E,,*28
$YXXDR,A,5.4,D,PTCH,A,4.2,D,ROLL*5A
$GPRMC,193633.3,A,4741.20870,N,12224.25832,W,000.32,000.0,241014,016.4,E,A*2B
$GPGGA,193633.3,4741.20870,N,12224.25832,W,1,03,8.1,10.1,M,-18.2,M,,*5E
$GPVTG,000.0,T,343.6,M,000.32,N,0000.59,K,A*1C
$HCHDG,266.3,0.0,E,,*28
$YXXDR,A,5.4,D,PTCH,A,4.2,D,ROLL*5A
$GPRMC,193633.4,A,4741.20777,N,12224.25848,W,000.30,000.0,241014,016.4,E,A*2B
$GPGGA,193633.4,4741.20777,N,12224.25848,W,1,03,8.1,10.1,M,-18.2,M,,*5C
$GPVTG,000.0,T,343.6,M,000.30,N,0000.55,K,A*12
$HCHDG,266.3,0.0,E,,*28
$YXXDR,A,5.4,D,PTCH,A,4.3,D,ROLL*5B
$GPRMC,193633.5,A,4741.20777,N,12224.25848,W,000.33,000.0,241014,016.4,E,A*29
$GPGGA,193633.5,4741.20777,N,12224.25848,W,1,03,8.1,10.1,M,-18.2,M,,*5D
$GPVTG,000.0,T,343.6,M,000.33,N,0000.61,K,A*16
$HCHDG,266.5,0.0,E,,*2E
$YXXDR,A,5.4,D,PTCH,A,4.3,D,ROLL*5B
$GPRMC,193633.6,A,4741.20777,N,12224.25848,W,000.33,000.0,241014,016.4,E,A*2A
$GPGGA,193633.6,4741.20777,N,12224.25848,W,1,03,8.1,10.1,M,-18.2,M,,*5E
$GPVTG,000.0,T,343.6,M,000.33,N,0000.60,K,A*17
$HCHDG,266.5,0.0,E,,*2E
$YXXDR,A,5.4,D,PTCH,A,4.5,D,ROLL*5D
$GPRMC,193633.7,A,4741.20777,N,12224.25848,W,000.31,000.0,241014,016.4,E,A*29
$GPGGA,193633.7,4741.20777,N,12224.25848,W,1,03,8.1,10.1,M,-18.2,M,,*5F
$GPVTG,000.0,T,343.6,M,000.31,N,0000.58,K,A*1E
$HCHDG,266.5,0.0,E,,*2E
$YXXDR,A,5.6,D,PTCH,A,4.5,D,ROLL*5F
$GPRMC,193633.8,A,4741.20777,N,12224.25848,W,000.31,000.0,241014,016.4,E,A*26
$GPGGA,193633.8,4741.20777,N,12224.25848,W,1,03,8.1,10.1,M,-18.2,M,,*50
$GPVTG,000.0,T,343.6,M,000.31,N,0000.57,K,A*11
$HCHDG,266.5,0.0,E,,*2E
$YXXDR,A,5.4,D,PTCH,A,5.1,D,ROLL*58
$TIROT,23.4,A*0E
$GPRMC,193633.9,A,4741.20777,N,12224.25848,W,000.29,000.0,241014,016.4,E,A*2E
$GPGGA,193633.9,4741.20777,N,12224.25848,W,1,03,8.1,10.1,M,-18.2,M,,*51
$GPVTG,000.0,T,343.6,M,000.29,N,0000.54,K,A*1B
$GPRMC,193634.0,A,4741.20777,N,12224.25848,W,000.27,000.0,241014,016.4,E,A*2E
$GPGGA,193634.0,4741.20777,N,12224.25848,W,1,03,8.1,8.7,M,-18.2,M,,*60
$GPVTG,000.0,T,343.6,M,000.27,N,0000.51,K,A*10
$HCHDG,266.3,0.0,E,,*28
$YXXDR,A,5.2,D,PTCH,A,5.1,D,ROLL*5E
$GPGSA,A,3,29,05,02,,,,,,,,,,9.6,8.1,5.2*3F
$GPGSV,1,1,04,29,85,355,45,05,48,067,46,21,35,255,38,02,16,069,38*7E
$HCHDG,266.3,0.0,E,,*28
$YXXDR,A,5.2,D,PTCH,A,5.1,D,ROLL*5E
$GPRMC,193634.1,A,4741.20777,N,12224.25848,W,000.26,000.0,241014,016.4,E,A*2E
$GPGGA,193634.1,4741.20777,N,12224.25848,W,1,03,8.1,8.7,M,-18.2,M,,*61
$GPVTG,000.0,T,343.6,M,000.26,N,0000.49,K,A*18
$HCHDG,266.4,0.0,E,,*2F
$YXXDR,A,5.2,D,PTCH,A,5.1,D,ROLL*5E
$GPRMC,193634.2,A,4741.20777,N,12224.25848,W,000.26,000.0,241014,016.4,E,A*2D
$GPGGA,193634.2,4741.20777,N,12224.25848,W,1,03,8.1,8.7,M,-18.2,M,,*62
$GPVTG,000.0,T,343.6,M,000.26,N,0000.47,K,A*16
$GPRMC,193634.3,A,4741.20777,N,12224.25848,W,000.22,000.0,241014,016.4,E,A*28
$HCHDG,266.4,0.0,E,,*2F
$YXXDR,A,5.3,D,PTCH,A,5.2,D,ROLL*5C
$GPGGA,193634.3,4741.20777,N,12224.25848,W,1,03,8.1,8.7,M,-18.2,M,,*63
$GPVTG,000.0,T,343.6,M,000.22,N,0000.40,K,A*15
$HCHDG,266.3,0.0,E,,*28
$YXXDR,A,5.3,D,PTCH,A,5.2,D,ROLL*5C
$GPRMC,193634.4,A,4741.20705,N,12224.25874,W,000.21,000.0,241014,016.4,E,A*26
$GPGGA,193634.4,4741.20705,N,12224.25874,W,1,03,8.1,8.7,M,-18.2,M,,*6E
$GPVTG,000.0,T,343.6,M,000.21,N,0000.39,K,A*18
$HCHDG,266.4,0.0,E,,*2F
$YXXDR,A,5.4,D,PTCH,A,5.1,D,ROLL*58
$GPRMC,193634.5,A,4741.20704,N,12224.25875,W,000.56,000.0,241014,016.4,E,A*27
$GPGGA,193634.5,4741.20704,N,12224.25875,W,1,03,8.1,8.7,M,-18.2,M,,*6F
$GPVTG,000.0,T,343.6,M,000.56,N,0001.03,K,A*10
$HCHDG,266.7,0.0,E,,*2C
$YXXDR,A,5.5,D,PTCH,A,4.9,D,ROLL*50
$GPRMC,193634.6,A,4741.20703,N,12224.25876,W,000.50,000.0,241014,016.4,E,A*26
$GPGGA,193634.6,4741.20703,N,12224.25876,W,1,03,8.1,8.7,M,-18.2,M,,*68
$GPVTG,000.0,T,343.6,M,000.50,N,0000.93,K,A*1E
$HCHDG,266.7,0.0,E,,*2C
$YXXDR,A,5.5,D,PTCH,A,4.7,D,ROLL*5E
$GPRMC,193634.7,A,4741.20703,N,12224.25876,W,000.46,000.0,241014,016.4,E,A*20
$GPGGA,193634.7,4741.20703,N,12224.25876,W,1,03,8.1,8.7,M,-18.2,M,,*69
$GPVTG,000.0,T,343.6,M,000.46,N,0000.85,K,A*1E
$HCHDG,266.7,0.0,E,,*2C
$YXXDR,A,5.6,D,PTCH,A,4.4,D,ROLL*5E
$GPRMC,193634.8,A,4741.20702,N,12224.25876,W,000.44,000.0,241014,016.4,E,A*2C
$GPGGA,193634.8,4741.20702,N,12224.25876,W,1,03,8.1,8.7,M,-18.2,M,,*67
$GPVTG,000.0,T,343.6,M,000.44,N,0000.82,K,A*1B
$HCHDG,266.7,0.0,E,,*2C
$YXXDR,A,5.6,D,PTCH,A,4.4,D,ROLL*5E
$TIROT,25.0,A*0C
$GPRMC,193634.9,A,4741.20703,N,12224.25876,W,000.41,000.0,241014,016.4,E,A*29
$GPGGA,193634.9,4741.20703,N,12224.25876,W,1,03,8.1,8.7,M,-18.2,M,,*67
$GPVTG,000.0,T,343.6,M,000.41,N,0000.75,K,A*16
$HCHDG,266.8,0.0,E,,*23
$YXXDR,A,5.8,D,PTCH,A,4.5,D,ROLL*51
$GPRMC,193635.0,A,4741.20703,N,12224.25876,W,000.38,359.9,241014,016.4,E,A*29
$GPGGA,193635.0,4741.20703,N,12224.25876,W,1,03,8.1,7.2,M,-18.2,M,,*65
$GPVTG,359.9,T,343.5,M,000.38,N,0000.70,K,A*18
$GPGSA,A,3,29,05,02,,,,,,,,,,9.6,8.1,5.2*3F
$GPGSV,1,1,04,29,85,355,46,05,48,067,46,21,35,255,39,02,16,069,38*7C
$HCHDG,266.9,0.0,E,,*22
$YXXDR,A,5.8,D,PTCH,A,4.5,D,ROLL*51
$GPRMC,193635.1,A,4741.20703,N,12224.25876,W,000.38,359.9,241014,016.4,E,A*28
$GPGGA,193635.1,4741.20703,N,12224.25876,W,1,03,8.1,7.2,M,-18.2,M,,*64
$GPVTG,359.9,T,343.4,M,000.38,N,0000.71,K,A*18
$HCHDG,266.8,0.0,E,,*23
$YXXDR,A,5.8,D,PTCH,A,4.8,D,ROLL*5C
$GPRMC,193635.2,A,4741.20703,N,12224.25876,W,000.33,359.8,241014,016.4,E,A*21
$GPGGA,193635.2,4741.20703,N,12224.25876,W,1,03,8.1,7.2,M,-18.2,M,,*67
$GPVTG,359.8,T,343.4,M,000.33,N,0000.61,K,A*13
$HCHDG,266.9,0.0,E,,*22
$YXXDR,A,5.8,D,PTCH,A,4.9,D,ROLL*5D
$GPRMC,193635.3,A,4741.20594,N,12224.25922,W,000.61,359.4,241014,016.4,E,A*27
$GPGGA,193635.3,4741.20594,N,12224.25922,W,1,03,8.1,7.1,M,-18.2,M,,*69
$GPVTG,359.4,T,343.0,M,000.61,N,0001.14,K,A*1F
$HCHDG,266.9,0.0,E,,*22
$YXXDR,A,5.8,D,PTCH,A,5.0,D,ROLL*55
$GPRMC,193635.4,A,4741.20594,N,12224.25922,W,000.12,359.4,241014,016.4,E,A*24
$GPGGA,193635.4,4741.20594,N,12224.25922,W,1,03,8.1,7.1,M,-18.2,M,,*6E
$GPVTG,359.4,T,343.0,M,000.12,N,0000.21,K,A*1C
$HCHDG,267.1,0.0,E,,*2B
$YXXDR,A,5.8,D,PTCH,A,5.0,D,ROLL*55
$GPRMC,193635.5,A,4741.20594,N,12224.25922,W,000.16,359.4,241014,016.4,E,A*21
$GPGGA,193635.5,4741.20594,N,12224.25922,W,1,03,8.1,7.1,M,-18.2,M,,*6F
$GPVTG,359.4,T,343.0,M,000.16,N,0000.29,K,A*10
$HCHDG,267.2,0.0,E,,*28
$YXXDR,A,5.8,D,PTCH,A,5.0,D,ROLL*55
$GPRMC,193635.6,A,4741.20594,N,12224.25922,W,000.17,359.4,241014,016.4,E,A*23
$GPGGA,193635.6,4741.20594,N,12224.25922,W,1,03,8.1,7.1,M,-18.2,M,,*6C
$GPVTG,359.4,T,343.0,M,000.17,N,0000.32,K,A*1B
$HCHDG,267.3,0.0,E,,*29
$YXXDR,A,5.7,D,PTCH,A,4.7,D,ROLL*5C
$GPRMC,193635.7,A,4741.20590,N,12224.25925,W,000.92,359.4,241014,016.4,E,A*2C
$GPGGA,193635.7,4741.20590,N,12224.25925,W,1,03,8.1,7.1,M,-18.2,M,,*6E
$GPVTG,359.4,T,343.0,M,000.92,N,0001.71,K,A*10
$HCHDG,267.2,0.0,E,,*28
$YXXDR,A,5.5,D,PTCH,A,4.7,D,ROLL*5E
$GPRMC,193635.8,A,4741.20590,N,12224.25925,W,000.25,359.4,241014,016.4,E,A*2F
$GPGGA,193635.8,4741.20590,N,12224.25925,W,1,03,8.1,7.1,M,-18.2,M,,*61
$GPVTG,359.4,T,343.0,M,000.25,N,0000.46,K,A*19
$HCHDG,267.1,0.0,E,,*2B
$YXXDR,A,5.4,D,PTCH,A,4.6,D,ROLL*5E
$TIROT,46.7,A*0E
$GPRMC,193635.9,A,4741.20590,N,12224.25925,W,000.28,359.4,241014,016.4,E,A*23
$GPGGA,193635.9,4741.20590,N,12224.25925,W,1,03,8.1,7.1,M,-18.2,M,,*60
$GPVTG,359.4,T,343.0,M,000.28,N,0000.52,K,A*11
$HCHDG,267.2,0.0,E,,*28
$YXXDR,A,5.3,D,PTCH,A,4.5,D,ROLL*5A
$GPRMC,193636.0,A,4741.20590,N,12224.25925,W,000.26,359.4,241014,016.4,E,A*27
$GPGGA,193636.0,4741.20590,N,12224.25925,W,1,03,8.1,6.6,M,-18.2,M,,*6C
$GPVTG,359.4,T,343.0,M,000.26,N,0000.48,K,A*14
$GPGSA,A,3,29,05,02,,,,,,,,,,9.6,8.1,5.2*3F
$GPGSV,1,1,04,29,85,355,46,05,48,067,46,21,35,255,40,02,16,069,38*72
$HCHDG,267.2,0.0,E,,*28
$YXXDR,A,5.3,D,PTCH,A,4.5,D,ROLL*5A
$GPRMC,193636.1,A,4741.20590,N,12224.25925,W,000.25,359.4,241014,016.4,E,A*25
$GPGGA,193636.1,4741.20590,N,12224.25925,W,1,03,8.1,6.6,M,-18.2,M,,*6D
$GPVTG,359.4,T,343.0,M,000.25,N,0000.47,K,A*18
$HCHDG,267.2,0.0,E,,*28
$YXXDR,A,5.4,D,PTCH,A,4.3,D,ROLL*5B
$GPRMC,193636.2,A,4741.20590,N,12224.25925,W,000.32,359.4,241014,016.4,E,A*20
$GPGGA,193636.2,4741.20590,N,12224.25925,W,1,03,8.1,6.6,M,-18.2,M,,*6E
$GPVTG,359.4,T,343.0,M,000.32,N,0000.58,K,A*10
$HCHDG,267.2,0.0,E,,*28
$YXXDR,A,5.2,D,PTCH,A,4.2,D,ROLL*5C
$GPRMC,193636.3,A,4741.20590,N,12224.25925,W,000.31,359.4,241014,016.4,E,A*22
$GPGGA,193636.3,4741.20590,N,12224.25925,W,1,03,8.1,6.6,M,-18.2,M,,*6F
$GPVTG,359.4,T,343.0,M,000.31,N,0000.57,K,A*1C
$HCHDG,267.2,0.0,E,,*28
$YXXDR,A,5.1,D,PTCH,A,3.9,D,ROLL*53
$GPRMC,193636.4,A,4741.20590,N,12224.25925,W,000.27,359.4,241014,016.4,E,A*22
$GPGGA,193636.4,4741.20590,N,12224.25925,W,1,03,8.1,6.6,M,-18.2,M,,*68
$GPVTG,359.4,T,343.0,M,000.27,N,0000.50,K,A*1C
$HCHDG,267.2,0.0,E,,*28
$YXXDR,A,5.2,D,PTCH,A,3.8,D,ROLL*51
$GPRMC,193636.5,A,4741.20590,N,12224.25925,W,000.25,359.4,241014,016.4,E,A*21
$GPGGA,193636.5,4741.20590,N,12224.25925,W,1,03,8.1,6.6,M,-18.2,M,,*69
$GPVTG,359.4,T,343.0,M,000.25,N,0000.46,K,A*19
$HCHDG,267.2,0.0,E,,*28
$YXXDR,A,5.2,D,PTCH,A,3.6,D,ROLL*5F
$GPRMC,193636.6,A,4741.20590,N,12224.25925,W,000.25,359.4,241014,016.4,E,A*22
$GPGGA,193636.6,4741.20590,N,12224.25925,W,1,03,8.1,6.6,M,-18.2,M,,*6A
$GPVTG,359.4,T,343.0,M,000.25,N,0000.46,K,A*19
$HCHDG,267.2,0.0,E,,*28
$YXXDR,A,5.2,D,PTCH,A,3.6,D,ROLL*5F
$GPRMC,193636.7,A,4741.20566,N,12224.25946,W,000.22,359.4,241014,016.4,E,A*28
$GPGGA,193636.7,4741.20566,N,12224.25946,W,1,03,8.1,6.6,M,-18.2,M,,*67
$GPVTG,359.4,T,343.0,M,000.22,N,0000.41,K,A*19
$HCHDG,267.3,0.0,E,,*29
$YXXDR,A,5.3,D,PTCH,A,3.6,D,ROLL*5E
$GPRMC,193636.8,A,4741.20566,N,12224.25946,W,000.19,359.4,241014,016.4,E,A*2F
$GPGGA,193636.8,4741.20566,N,12224.25946,W,1,03,8.1,6.6,M,-18.2,M,,*68
$GPVTG,359.4,T,343.0,M,000.19,N,0000.36,K,A*11
$HCHDG,267.3,0.0,E,,*29
$YXXDR,A,5.3,D,PTCH,A,3.6,D,ROLL*5E
$TIROT,44.6,A*0D
$GPRMC,193636.9,A,4741.20566,N,12224.25946,W,000.20,359.4,241014,016.4,E,A*24
$GPGGA,193636.9,4741.20566,N,12224.25946,W,1,03,8.1,6.6,M,-18.2,M,,*69
$GPVTG,359.4,T,343.0,M,000.20,N,0000.38,K,A*15
$HCHDG,267.5,0.0,E,,*2F
$YXXDR,A,5.2,D,PTCH,A,3.6,D,ROLL*5F
$GPRMC,193637.0,A,4741.20566,N,12224.25946,W,000.22,359.4,241014,016.4,E,A*2E
$GPGGA,193637.0,4741.20566,N,12224.25946,W,1,03,8.1,6.2,M,-18.2,M,,*65
$GPVTG,359.4,T,343.0,M,000.22,N,0000.41,K,A*19
$GPGSA,A,3,29,05,02,,,,,,,,,,9.6,8.1,5.2*3F
$HCHDG,267.3,0.0,E,,*29
$GPGSV,1,1,04,29,85,355,47,05,48,067,47,21,35,255,41,02,16,069,39*72
$YXXDR,A,5.3,D,PTCH,A,3.6,D,ROLL*5E
$GPRMC,193637.1,A,4741.20566,N,12224.25946,W,000.22,359.4,241014,016.4,E,A*2F
$GPGGA,193637.1,4741.20566,N,12224.25946,W,1,03,8.1,6.2,M,-18.2,M,,*64
$GPVTG,359.4,T,343.0,M,000.22,N,0000.40,K,A*18
$HCHDG,267.4,0.0,E,,*2E
$YXXDR,A,5.2,D,PTCH,A,3.6,D,ROLL*5F
$GPRMC,193637.2,A,4741.20566,N,12224.25946,W,000.20,359.4,241014,016.4,E,A*2E
$GPGGA,193637.2,4741.20566,N,12224.25946,W,1,03,8.1,6.2,M,-18.2,M,,*67
$GPVTG,359.4,T,343.0,M,000.20,N,0000.37,K,A*1A
$HCHDG,267.5,0.0,E,,*2F
$YXXDR,A,5.3,D,PTCH,A,3.6,D,ROLL*5E
$GPRMC,193637.3,A,4741.20566,N,12224.25946,W,000.18,359.4,241014,016.4,E,A*24
$GPGGA,193637.3,4741.20566,N,12224.25946,W,1,03,8.1,6.2,M,-18.2,M,,*66
$GPVTG,359.4,T,343.0,M,000.18,N,0000.33,K,A*15
$HCHDG,267.5,0.0,E,,*2F
$YXXDR,A,5.3,D,PTCH,A,3.6,D,ROLL*5E
$GPRMC,193637.4,A,4741.20566,N,12224.25946,W,000.16,359.4,241014,016.4,E,A*2D
$GPGGA,193637.4,4741.20566,N,12224.25946,W,1,03,8.1,6.2,M,-18.2,M,,*61
$GPVTG,359.4,T,343.0,M,000.16,N,0000.30,K,A*18
$HCHDG,267.4,0.0,E,,*2E
$YXXDR,A,5.3,D,PTCH,A,3.6,D,ROLL*5E
$GPRMC,193637.5,A,4741.20566,N,12224.25946,W,000.15,359.4,241014,016.4,E,A*2F
$GPGGA,193637.5,4741.20566,N,12224.25946,W,1,03,8.1,6.2,M,-18.2,M,,*60
$GPVTG,359.4,T,343.0,M,000.15,N,0000.28,K,A*12
$HCHDG,267.5,0.0,E,,*2F
$YXXDR,A,5.2,D,PTCH,A,3.6,D,ROLL*5F
$GPRMC,193637.6,A,4741.20566,N,12224.25946,W,000.15,359.4,241014,016.4,E,A*2C
$GPGGA,193637.6,4741.20566,N,12224.25946,W,1,03,8.1,6.2,M,-18.2,M,,*63
$GPVTG,359.4,T,343.0,M,000.15,N,0000.27,K,A*1D
$HCHDG,267.6,0.0,E,,*2C
$YXXDR,A,5.0,D,PTCH,A,3.7,D,ROLL*5C
$GPRMC,193637.7,A,4741.20561,N,12224.25952,W,000.15,359.4,241014,016.4,E,A*2F
$GPGGA,193637.7,4741.20561,N,12224.25952,W,1,03,8.1,6.2,M,-18.2,M,,*60
$GPVTG,359.4,T,343.0,M,000.15,N,0000.27,K,A*1D
$HCHDG,267.6,0.0,E,,*2C
$YXXDR,A,5.0,D,PTCH,A,3.7,D,ROLL*5C
$GPRMC,193637.8,A,4741.20561,N,12224.25952,W,000.13,359.4,241014,016.4,E,A*26
$GPGGA,193637.8,4741.20561,N,12224.25952,W,1,03,8.1,6.2,M,-18.2,M,,*6F
$GPVTG,359.4,T,343.0,M,000.13,N,0000.24,K,A*18
$HCHDG,267.3,0.0,E,,*29
$YXXDR,A,5.1,D,PTCH,A,3.9,D,ROLL*53
$TIROT,19.7,A*04
$GPRMC,193637.9,A,4741.20561,N,12224.25952,W,000.12,359.4,241014,016.4,E,A*26
$GPGGA,193637.9,4741.20561,N,12224.25952,W,1,03,8.1,6.2,M,-18.2,M,,*6E
$GPVTG,359.4,T,343.0,M,000.12,N,0000.22,K,A*1F
$HCHDG,267.3,0.0,E,,*29
$YXXDR,A,5.1,D,PTCH,A,3.9,D,ROLL*53
$GPRMC,193638.0,A,4741.20561,N,12224.25952,W,000.11,359.4,241014,016.4,E,A*23
$GPGGA,193638.0,4741.20561,N,12224.25952,W,1,03,8.1,6.4,M,-18.2,M,,*6E
$GPVTG,359.4,T,343.0,M,000.11,N,0000.20,K,A*1E
$HCHDG,267.4,0.0,E,,*2E
$GPGSA,A,3,29,05,02,,,,,,,,,,9.6,8.1,5.2*3F
$YXXDR,A,5.1,D,PTCH,A,4.2,D,ROLL*5F
$GPGSV,1,1,04,29,85,355,47,05,48,067,47,21,35,255,41,02,16,069,40*7C
$GPRMC,193638.1,A,4741.20561,N,12224.25952,W,000.10,359.4,241014,016.4,E,A*23
$GPGGA,193638.1,4741.20561,N,12224.25952,W,1,03,8.1,6.4,M,-18.2,M,,*6F
$GPVTG,359.4,T,343.0,M,000.10,N,0000.19,K,A*15
$HCHDG,267.3,0.0,E,,*29
$YXXDR,A,5.1,D,PTCH,A,4.3,D,ROLL*5E
$GPRMC,193638.2,A,4741.20561,N,12224.25952,W,000.09,359.4,241014,016.4,E,A*28
$GPGGA,193638.2,4741.20561,N,12224.25952,W,1,03,8.1,6.4,M,-18.2,M,,*6C
$GPVTG,359.4,T,343.0,M,000.09,N,0000.17,K,A*13
$HCHDG,267.3,0.0,E,,*29
$YXXDR,A,5.1,D,PTCH,A,4.3,D,ROLL*5E
$GPRMC,193638.3,A,4741.20561,N,12224.25952,W,000.10,359.4,241014,016.4,E,A*21
$GPGGA,193638.3,4741.20561,N,12224.25952,W,1,03,8.1,6.4,M,-18.2,M,,*6D
$GPVTG,359.4,T,343.0,M,000.10,N,0000.19,K,A*15
$HCHDG,267.3,0.0,E,,*29
$YXXDR,A,5.1,D,PTCH,A,4.3,D,ROLL*5E
$GPRMC,193638.4,A,4741.20561,N,12224.25952,W,000.10,359.4,241014,016.4,E,A*26
$GPGGA,193638.4,4741.20561,N,12224.25952,W,1,03,8.1,6.4,M,-18.2,M,,*6A
$GPVTG,359.4,T,343.0,M,000.10,N,0000.19,K,A*15
$HCHDG,267.4,0.0,E,,*2E
$YXXDR,A,5.1,D,PTCH,A,4.3,D,ROLL*5E
$GPRMC,193638.5,A,4741.20561,N,12224.25952,W,000.11,359.4,241014,016.4,E,A*26
$GPGGA,193638.5,4741.20561,N,12224.25952,W,1,03,8.1,6.4,M,-18.2,M,,*6B
$GPVTG,359.4,T,343.0,M,000.11,N,0000.19,K,A*14
$HCHDG,267.4,0.0,E,,*2E
$YXXDR,A,5.1,D,PTCH,A,4.3,D,ROLL*5E
$GPRMC,193638.6,A,4741.20561,N,12224.25952,W,000.11,359.4,241014,016.4,E,A*25
$GPGGA,193638.6,4741.20561,N,12224.25952,W,1,03,8.1,6.4,M,-18.2,M,,*68
$GPVTG,359.4,T,343.0,M,000.11,N,0000.21,K,A*1F
$HCHDG,267.4,0.0,E,,*2E
$YXXDR,A,5.1,D,PTCH,A,4.3,D,ROLL*5E
$GPRMC,193638.7,A,4741.20563,N,12224.25968,W,000.15,359.4,241014,016.4,E,A*2B
$GPGGA,193638.7,4741.20563,N,12224.25968,W,1,03,8.1,6.4,M,-18.2,M,,*62
$GPVTG,359.4,T,343.0,M,000.15,N,0000.27,K,A*1D
$HCHDG,267.4,0.0,E,,*2E
$YXXDR,A,5.2,D,PTCH,A,4.3,D,ROLL*5D
$GPRMC,193638.8,A,4741.20563,N,12224.25968,W,000.18,359.4,241014,016.4,E,A*29
$GPGGA,193638.8,4741.20563,N,12224.25968,W,1,03,8.1,6.4,M,-18.2,M,,*6D
$GPVTG,359.4,T,343.0,M,000.18,N,0000.34,K,A*12
$HCHDG,267.4,0.0,E,,*2E
$YXXDR,A,5.3,D,PTCH,A,4.3,D,ROLL*5C
$TIROT,11.7,A*0C
$HCHDG,267.4,0.0,E,,*2E
$YXXDR,A,5.3,D,PTCH,A,4.3,D,ROLL*5C
$GPRMC,193638.9,A,4741.20563,N,12224.25968,W,000.21,359.4,241014,016.4,E,A*22
$GPGGA,193638.9,4741.20563,N,12224.25968,W,1,03,8.1,6.4,M,-18.2,M,,*6C
$GPVTG,359.4,T,343.0,M,000.21,N,0000.40,K,A*1B
$GPRMC,193639.0,A,4741.20563,N,12224.25968,W,000.20,359.4,241014,016.4,E,A*2B
$GPGGA,193639.0,4741.20563,N,12224.25968,W,1,03,8.1,6.8,M,-18.2,M,,*68
$GPVTG,359.4,T,343.0,M,000.20,N,0000.37,K,A*1A
$GPGSA,A,3,29,05,02,,,,,,,,,,9.6,8.1,5.2*3F
$GPGSV,1,1,04,29,85,355,48,05,48,067,47,21,35,255,41,02,16,069,41*72
$HCHDG,267.4,0.0,E,,*2E
$YXXDR,A,5.6,D,PTCH,A,4.3,D,ROLL*59
$GPRMC,193639.1,A,4741.20563,N,12224.25968,W,000.20,359.4,241014,016.4,E,A*2A
$HCHDG,267.5,0.0,E,,*2F
$GPGGA,193639.1,4741.20563,N,12224.25968,W,1,03,8.1,6.8,M,-18.2,M,,*69
$GPVTG,359.4,T,343.0,M,000.20,N,0000.36,K,A*1B
$YXXDR,A,5.4,D,PTCH,A,4.4,D,ROLL*5C
$GPRMC,193639.2,A,4741.20563,N,12224.25968,W,000.19,359.4,241014,016.4,E,A*23
$GPGGA,193639.2,4741.20563,N,12224.25968,W,1,03,8.1,6.8,M,-18.2,M,,*6A
$GPVTG,359.4,T,343.0,M,000.19,N,0000.35,K,A*12
$HCHDG,267.4,0.0,E,,*2E
$YXXDR,A,5.4,D,PTCH,A,4.4,D,ROLL*5C
$GPRMC,193639.3,A,4741.20575,N,12224.25970,W,000.95,359.4,241014,016.4,E,A*28
$HCHDG,267.5,0.0,E,,*2F
$GPGGA,193639.3,4741.20575,N,12224.25970,W,1,03,8.1,6.8,M,-18.2,M,,*65
$GPVTG,359.4,T,343.0,M,000.95,N,0001.76,K,A*10
$YXXDR,A,5.4,D,PTCH,A,4.3,D,ROLL*5B
$GPRMC,193639.4,A,4741.20575,N,12224.25970,W,000.22,359.4,241014,016.4,E,A*23
$GPGGA,193639.4,4741.20575,N,12224.25970,W,1,03,8.1,6.8,M,-18.2,M,,*62
$GPVTG,359.4,T,343.0,M,000.22,N,0000.40,K,A*18
$HCHDG,267.5,0.0,E,,*2F
$YXXDR,A,5.4,D,PTCH,A,4.3,D,ROLL*5B
$HCHDG,267.5,0.0,E,,*2F
$GPRMC,193639.5,A,4741.20575,N,12224.25970,W,000.22,359.4,241014,016.4,E,A*22
$GPGGA,193639.5,4741.20575,N,12224.25970,W,1,03,8.1,6.8,M,-18.2,M,,*63
$GPVTG,359.4,T,343.0,M,000.22,N,0000.41,K,A*19
$YXXDR,A,5.3,D,PTCH,A,4.3,D,ROLL*5C
$GPRMC,193639.6,A,4741.20575,N,12224.25970,W,000.22,359.4,241014,016.4,E,A*21
$GPGGA,193639.6,4741.20575,N,12224.25970,W,1,03,8.1,6.8,M,-18.2,M,,*60
$HCHDG,267.4,0.0,E,,*2E
$GPVTG,359.4,T,343.0,M,000.22,N,0000.42,K,A*1A
$YXXDR,A,5.2,D,PTCH,A,4.3,D,ROLL*5D
$GPRMC,193639.7,A,4741.20575,N,12224.25970,W,000.24,359.4,241014,016.4,E,A*26
$GPGGA,193639.7,4741.20575,N,12224.25970,W,1,03,8.1,6.8,M,-18.2,M,,*61
$HCHDG,267.3,0.0,E,,*29
$GPVTG,359.4,T,343.0,M,000.24,N,0000.44,K,A*1A
$YXXDR,A,5.4,D,PTCH,A,4.3,D,ROLL*5B
$GPRMC,193639.8,A,4741.20575,N,12224.25970,W,000.23,359.4,241014,016.4,E,A*2E
$GPGGA,193639.8,4741.20575,N,12224.25970,W,1,03,8.1,6.8,M,-18.2,M,,*6E
$HCHDG,267.3,0.0,E,,*29
$GPVTG,359.4,T,343.0,M,000.23,N,0000.43,K,A*1A
$YXXDR,A,5.4,D,PTCH,A,4.3,D,ROLL*5B
$TIROT,-2.7,A*13
$GPRMC,193639.9,A,4741.20575,N,12224.25970,W,000.22,359.4,241014,016.4,E,A*2E
$GPGGA,193639.9,4741.20575,N,12224.25970,W,1,03,8.1,6.8,M,-18.2,M,,*6F
$HCHDG,267.3,0.0,E,,*29
$GPVTG,359.4,T,343.0,M,000.22,N,0000.42,K,A*1A
$YXXDR,A,5.4,D,PTCH,A,4.3,D,ROLL*5B
$GPRMC,193640.0,A,4741.20575,N,12224.25970,W,000.21,359.4,241014,016.4,E,A*2A
$GPGGA,193640.0,4741.20575,N,12224.25970,W,1,03,8.1,7.2,M,-18.2,M,,*63
$HCHDG,267.3,0.0,E,,*29
$GPVTG,359.4,T,343.0,M,000.21,N,0000.40,K,A*1B
$GPGSA,A,3,29,05,02,,,,,,,,,,9.6,8.1,5.2*3F
$YXXDR,A,5.3,D,PTCH,A,4.3,D,ROLL*5C
$GPGSV,1,1,04,29,85,355,48,05,48,067,47,21,35,255,41,02,16,069,40*73
$GPRMC,193640.1,A,4741.20575,N,12224.25970,W,000.21,359.4,241014,016.4,E,A*2B
$GPGGA,193640.1,4741.20575,N,12224.25970,W,1,03,8.1,7.2,M,-18.2,M,,*62
$HCHDG,267.2,0.0,E,,*28
$GPVTG,359.4,T,343.0,M,000.21,N,0000.38,K,A*14
$YXXDR,A,5.3,D,PTCH,A,4.4,D,ROLL*5B
$GPRMC,193640.2,A,4741.20575,N,12224.25970,W,000.19,359.4,241014,016.4,E,A*23
$GPGGA,193640.2,4741.20575,N,12224.25970,W,1,03,8.1,7.2,M,-18.2,M,,*61
$HCHDG,267.2,0.0,E,,*28
$GPVTG,359.4,T,343.0,M,000.19,N,0000.36,K,A*11
$YXXDR,A,5.3,D,PTCH,A,4.4,D,ROLL*5B
$GPRMC,193640.3,A,4741.20591,N,12224.25965,W,000.18,359.4,241014,016.4,E,A*2D
$GPGGA,193640.3,4741.20591,N,12224.25965,W,1,03,8.1,7.2,M,-18.2,M,,*6E
$HCHDG,267.2,0.0,E,,*28
$GPVTG,359.4,T,343.0,M,000.18,N,0000.33,K,A*15
$YXXDR,A,5.3,D,PTCH,A,4.3,D,ROLL*5C
$GPRMC,193640.4,A,4741.20591,N,12224.25965,W,000.19,359.4,241014,016.4,E,A*2B
$GPGGA,193640.4,4741.20591,N,12224.25965,W,1,03,8.1,7.2,M,-18.2,M,,*69
$HCHDG,267.1,0.0,E,,*2B
$GPVTG,359.4,T,343.0,M,000.19,N,0000.34,K,A*13
$YXXDR,A,5.2,D,PTCH,A,4.3,D,ROLL*5D
$GPRMC,193640.5,A,4741.20591,N,12224.25965,W,000.16,359.4,241014,016.4,E,A*25
$GPGGA,193640.5,4741.20591,N,12224.25965,W,1,03,8.1,7.2,M,-18.2,M,,*68
$HCHDG,267.1,0.0,E,,*2B
$GPVTG,359.4,T,343.0,M,000.16,N,0000.29,K,A*10
$YXXDR,A,5.2,D,PTCH,A,4.2,D,ROLL*5C
$GPRMC,193640.6,A,4741.20591,N,12224.25965,W,000.19,359.4,241014,016.4,E,A*29
$GPGGA,193640.6,4741.20591,N,12224.25965,W,1,03,8.1,7.2,M,-18.2,M,,*6B
$HCHDG,267.1,0.0,E,,*2B
$GPVTG,359.4,T,343.0,M,000.19,N,0000.36,K,A*11
$YXXDR,A,5.4,D,PTCH,A,3.8,D,ROLL*57
$GPRMC,193640.7,A,4741.20591,N,12224.25965,W,000.19,359.4,241014,016.4,E,A*28
$GPGGA,193640.7,4741.20591,N,12224.25965,W,1,03,8.1,7.2,M,-18.2,M,,*6A
$HCHDG,267.1,0.0,E,,*2B
$GPVTG,359.4,T,343.0,M,000.19,N,0000.36,K,A*11
$YXXDR,A,5.4,D,PTCH,A,3.8,D,ROLL*57
$GPRMC,193640.8,A,4741.20591,N,12224.25965,W,000.23,359.4,241014,016.4,E,A*2E
$GPGGA,193640.8,4741.20591,N,12224.25965,W,1,03,8.1,7.2,M,-18.2,M,,*65
$HCHDG,267.1,0.0,E,,*2B
$GPVTG,359.4,T,343.0,M,000.23,N,0000.43,K,A*1A
$YXXDR,A,5.4,D,PTCH,A,3.9,D,ROLL*56
$TIROT,13.9,A*00
$GPRMC,193640.9,A,4741.20591,N,12224.25965,W,000.23,359.4,241014,016.4,E,A*2F
$GPGGA,193640.9,4741.20591,N,12224.25965,W,1,03,8.1,7.3,M,-18.2,M,,*65
$HCHDG,267.1,0.0,E,,*2B
$YXXDR,A,5.4,D,PTCH,A,3.9,D,ROLL*56
$GPVTG,359.4,T,343.0,M,000.23,N,0000.43,K,A*1A
$GPRMC,193641.0,A,4741.20591,N,12224.25965,W,000.23,359.4,241014,016.4,E,A*27
$HCHDG,267.1,0.0,E,,*2B
$GPGGA,193641.0,4741.20591,N,12224.25965,W,1,03,8.1,7.4,M,-18.2,M,,*6A
$GPVTG,359.4,T,343.0,M,000.23,N,0000.42,K,A*1B
$YXXDR,A,5.4,D,PTCH,A,3.9,D,ROLL*56
$GPGSA,A,3,29,05,02,,,,,,,,,,9.6,8.1,5.1*3C
$GPGSV,1,1,04,29,85,355,49,05,48,067,46,21,35,255,41,02,16,069,40*73
$GPRMC,193641.1,A,4741.20591,N,12224.25965,W,000.24,359.4,241014,016.4,E,A*21
$GPGGA,193641.1,4741.20591,N,12224.25965,W,1,03,8.1,7.4,M,-18.2,M,,*6B
$GPVTG,359.4,T,343.0,M,000.24,N,0000.45,K,A*1B
$HCHDG,267.1,0.0,E,,*2B
$YXXDR,A,5.3,D,PTCH,A,3.9,D,ROLL*51
$GPRMC,193641.2,A,4741.20591,N,12224.25965,W,000.24,359.4,241014,016.4,E,A*22
$GPGGA,193641.2,4741.20591,N,12224.25965,W,1,03,8.1,7.4,M,-18.2,M,,*68
$GPVTG,359.4,T,343.0,M,000.24,N,0000.44,K,A*1A
$HCHDG,267.1,0.0,E,,*2B
$YXXDR,A,5.3,D,PTCH,A,4.0,D,ROLL*5F
$GPRMC,193641.3,A,4741.20591,N,12224.25965,W,000.23,359.4,241014,016.4,E,A*24
$GPGGA,193641.3,4741.20591,N,12224.25965,W,1,03,8.1,7.4,M,-18.2,M,,*69
$GPVTG,359.4,T,343.0,M,000.23,N,0000.43,K,A*1A
$HCHDG,267.1,0.0,E,,*2B
$YXXDR,A,5.4,D,PTCH,A,4.2,D,ROLL*5A
$GPRMC,193641.4,A,4741.20624,N,12224.25949,W,000.27,359.4,241014,016.4,E,A*24
$GPGGA,193641.4,4741.20624,N,12224.25949,W,1,03,8.1,7.4,M,-18.2,M,,*6D
$GPVTG,359.4,T,343.0,M,000.27,N,0000.50,K,A*1C
$HCHDG,267.1,0.0,E,,*2B
$YXXDR,A,5.4,D,PTCH,A,4.2,D,ROLL*5A
$GPRMC,193641.5,A,4741.20624,N,12224.25949,W,000.30,359.4,241014,016.4,E,A*23
$GPGGA,193641.5,4741.20624,N,12224.25949,W,1,03,8.1,7.4,M,-18.2,M,,*6C
$GPVTG,359.4,T,343.0,M,000.30,N,0000.55,K,A*1F
$HCHDG,267.1,0.0,E,,*2B
$YXXDR,A,5.4,D,PTCH,A,4.2,D,ROLL*5A
$GPRMC,193641.6,A,4741.20624,N,12224.25949,W,000.32,359.4,241014,016.4,E,A*22
$GPGGA,193641.6,4741.20624,N,12224.25949,W,1,03,8.1,7.4,M,-18.2,M,,*6F
$GPVTG,359.4,T,343.0,M,000.32,N,0000.60,K,A*1B
$HCHDG,267.1,0.0,E,,*2B
$YXXDR,A,5.4,D,PTCH,A,4.2,D,ROLL*5A
$GPRMC,193641.7,A,4741.20624,N,12224.25949,W,000.38,359.4,241014,016.4,E,A*29
$GPGGA,193641.7,4741.20624,N,12224.25949,W,1,03,8.1,7.4,M,-18.2,M,,*6E
$GPVTG,359.4,T,343.0,M,000.38,N,0000.71,K,A*11
$HCHDG,267.1,0.0,E,,*2B
$YXXDR,A,5.4,D,PTCH,A,4.2,D,ROLL*5A
$GPRMC,193641.8,A,4741.20624,N,12224.25949,W,000.09,359.4,241014,016.4,E,A*24
$GPGGA,193641.8,4741.20624,N,12224.25949,W,1,03,8.1,7.4,M,-18.2,M,,*61
$GPVTG,359.4,T,343.0,M,000.09,N,0000.17,K,A*13
$HCHDG,267.1,0.0,E,,*2B
$YXXDR,A,5.3,D,PTCH,A,4.4,D,ROLL*5B
$TIROT,14.7,A*09
$GPRMC,193641.9,A,4741.20624,N,12224.25949,W,000.11,359.4,241014,016.4,E,A*2C
$GPGGA,193641.9,4741.20624,N,12224.25949,W,1,03,8.1,7.3,M,-18.2,M,,*67
$GPVTG,359.4,T,343.0,M,000.11,N,0000.20,K,A*1E
$HCHDG,267.1,0.0,E,,*2B
$YXXDR,A,5.3,D,PTCH,A,4.8,D,ROLL*57
$GPRMC,193642.0,A,4741.20624,N,12224.25949,W,000.11,359.4,241014,016.4,E,A*26
$GPGGA,193642.0,4741.20624,N,12224.25949,W,1,03,8.1,8.0,M,-18.2,M,,*61
$GPVTG,359.4,T,343.0,M,000.11,N,0000.19,K,A*14
$GPGSA,A,3,29,05,02,,,,,,,,,,9.6,8.1,5.1*3C
$HCHDG,267.1,0.0,E,,*2B
$GPGSV,1,1,04,29,85,355,48,05,48,067,46,21,35,255,41,02,16,069,38*7D
$YXXDR,A,5.2,D,PTCH,A,5.1,D,ROLL*5E
$GPRMC,193642.1,A,4741.20624,N,12224.25949,W,000.10,359.4,241014,016.4,E,A*26
$GPGGA,193642.1,4741.20624,N,12224.25949,W,1,03,8.1,8.0,M,-18.2,M,,*60
$GPVTG,359.4,T,343.0,M,000.10,N,0000.19,K,A*15
$HCHDG,267.0,0.0,E,,*2A
$YXXDR,A,5.3,D,PTCH,A,5.3,D,ROLL*5D
$GPRMC,193642.2,A,4741.20624,N,12224.25949,W,000.15,359.4,241014,016.4,E,A*20
$GPGGA,193642.2,4741.20624,N,12224.25949,W,1,03,8.1,8.0,M,-18.2,M,,*63
$GPVTG,359.4,T,343.0,M,000.15,N,0000.28,K,A*12
$HCHDG,267.0,0.0,E,,*2A
$YXXDR,A,5.3,D,PTCH,A,5.6,D,ROLL*58
$GPRMC,193642.3,A,4741.20624,N,12224.25949,W,000.16,359.4,241014,016.4,E,A*22
$GPGGA,193642.3,4741.20624,N,12224.25949,W,1,03,8.1,8.0,M,-18.2,M,,*62
$GPVTG,359.4,T,343.0,M,000.16,N,0000.29,K,A*10
$HCHDG,267.1,0.0,E,,*2B
$YXXDR,A,5.5,D,PTCH,A,5.7,D,ROLL*5F
$GPRMC,193642.4,A,4741.20675,N,12224.25910,W,000.20,359.4,241014,016.4,E,A*28
$GPGGA,193642.4,4741.20675,N,12224.25910,W,1,03,8.1,8.0,M,-18.2,M,,*6D
$GPVTG,359.4,T,343.0,M,000.20,N,0000.37,K,A*1A
$HCHDG,267.1,0.0,E,,*2B
$YXXDR,A,5.5,D,PTCH,A,5.8,D,ROLL*50
$GPRMC,193642.5,A,4741.20675,N,12224.25910,W,000.19,359.4,241014,016.4,E,A*23
$GPGGA,193642.5,4741.20675,N,12224.25910,W,1,03,8.1,8.0,M,-18.2,M,,*6C
$GPVTG,359.4,T,343.0,M,000.19,N,0000.36,K,A*11
$HCHDG,267.1,0.0,E,,*2B
$YXXDR,A,5.5,D,PTCH,A,6.0,D,ROLL*5B
$GPRMC,193642.6,A,4741.20675,N,12224.25910,W,000.21,359.4,241014,016.4,E,A*2B
$GPGGA,193642.6,4741.20675,N,12224.25910,W,1,03,8.1,8.0,M,-18.2,M,,*6F
$GPVTG,359.4,T,343.0,M,000.21,N,0000.39,K,A*15
$HCHDG,267.2,0.0,E,,*28
$YXXDR,A,5.3,D,PTCH,A,5.9,D,ROLL*57
$GPRMC,193642.7,A,4741.20675,N,12224.25910,W,000.19,359.4,241014,016.4,E,A*21
$GPGGA,193642.7,4741.20675,N,12224.25910,W,1,03,8.1,8.0,M,-18.2,M,,*6E
$GPVTG,359.4,T,343.0,M,000.19,N,0000.35,K,A*12
$HCHDG,267.2,0.0,E,,*28
$YXXDR,A,5.0,D,PTCH,A,5.6,D,ROLL*5B
$GPRMC,193642.8,A,4741.20675,N,12224.25910,W,000.17,359.4,241014,016.4,E,A*20
$GPGGA,193642.8,4741.20675,N,12224.25910,W,1,03,8.1,8.0,M,-18.2,M,,*61
$GPVTG,359.4,T,343.0,M,000.17,N,0000.31,K,A*18
$HCHDG,267.1,0.0,E,,*2B
$YXXDR,A,5.0,D,PTCH,A,5.6,D,ROLL*5B
$TIROT,33.2,A*09
$GPRMC,193642.9,A,4741.20674,N,12224.25911,W,000.77,359.4,241014,016.4,E,A*27
$GPGGA,193642.9,4741.20674,N,12224.25911,W,1,03,8.1,8.0,M,-18.2,M,,*60
$GPVTG,359.4,T,343.0,M,000.77,N,0001.43,K,A*1A
$HCHDG,267.2,0.0,E,,*28
$YXXDR,A,5.0,D,PTCH,A,5.6,D,ROLL*5B
$GPRMC,193643.0,A,4741.20674,N,12224.25911,W,000.36,359.4,241014,016.4,E,A*2A
$GPGGA,193643.0,4741.20674,N,12224.25911,W,1,03,8.1,8.6,M,-18.2,M,,*6E
$GPVTG,359.4,T,343.0,M,000.36,N,0000.67,K,A*18
$GPGSA,A,3,29,05,02,,,,,,,,,,9.6,8.1,5.1*3C
$HCHDG,266.9,0.0,E,,*22
$GPGSV,1,1,04,29,86,356,48,05,48,067,45,21,35,255,40,02,16,069,31*76
$YXXDR,A,5.0,D,PTCH,A,5.6,D,ROLL*5B
$GPRMC,193643.1,A,4741.20674,N,12224.25911,W,000.32,359.4,241014,016.4,E,A*2F
$GPGGA,193643.1,4741.20674,N,12224.25911,W,1,03,8.1,8.6,M,-18.2,M,,*6F
$GPVTG,359.4,T,343.0,M,000.32,N,0000.60,K,A*1B
$HCHDG,266.9,0.0,E,,*22
$YXXDR,A,5.0,D,PTCH,A,5.6,D,ROLL*5B
$GPRMC,193643.2,A,4741.20674,N,12224.25911,W,000.33,359.4,241014,016.4,E,A*2D
$GPGGA,193643.2,4741.20674,N,12224.25911,W,1,03,8.1,8.6,M,-18.2,M,,*6C
$GPVTG,359.4,T,343.0,M,000.33,N,0000.60,K,A*1A
$HCHDG,266.9,0.0,E,,*22
$YXXDR,A,5.0,D,PTCH,A,5.7,D,ROLL*5A
$GPRMC,193643.3,A,4741.20674,N,12224.25911,W,000.33,359.4,241014,016.4,E,A*2C
$GPGGA,193643.3,4741.20674,N,12224.25911,W,1,03,8.1,8.6,M,-18.2,M,,*6D
$GPVTG,359.4,T,343.0,M,000.33,N,0000.61,K,A*1B
$HCHDG,266.9,0.0,E,,*22
$YXXDR,A,5.1,D,PTCH,A,5.8,D,ROLL*54
$GPRMC,193643.4,A,4741.20708,N,12224.25880,W,000.79,359.4,241014,016.4,E,A*26
$GPGGA,193643.4,4741.20708,N,12224.25880,W,1,03,8.1,8.6,M,-18.2,M,,*69
$GPVTG,359.4,T,343.0,M,000.79,N,0001.46,K,A*11
$HCHDG,267.1,0.0,E,,*2B
$YXXDR,A,5.1,D,PTCH,A,5.9,D,ROLL*55
$GPRMC,193643.5,A,4741.20708,N,12224.25880,W,000.27,359.4,241014,016.4,E,A*2C
$GPGGA,193643.5,4741.20708,N,12224.25880,W,1,03,8.1,8.5,M,-18.2,M,,*6B
$GPVTG,359.4,T,343.0,M,000.27,N,0000.51,K,A*1D
$HCHDG,267.1,0.0,E,,*2B
$YXXDR,A,5.2,D,PTCH,A,5.9,D,ROLL*56
$GPRMC,193643.6,A,4741.20708,N,12224.25880,W,000.28,359.4,241014,016.4,E,A*20
$GPGGA,193643.6,4741.20708,N,12224.25880,W,1,03,8.1,8.5,M,-18.2,M,,*68
$GPVTG,359.4,T,343.0,M,000.28,N,0000.52,K,A*11
$HCHDG,267.1,0.0,E,,*2B
$YXXDR,A,5.0,D,PTCH,A,5.9,D,ROLL*54
$GPRMC,193643.7,A,4741.20708,N,12224.25880,W,000.34,359.4,241014,016.4,E,A*2C
$GPGGA,193643.7,4741.20708,N,12224.25880,W,1,03,8.1,8.5,M,-18.2,M,,*69
$GPVTG,359.4,T,343.0,M,000.34,N,0000.63,K,A*1E
$HCHDG,267.1,0.0,E,,*2B
$YXXDR,A,5.3,D,PTCH,A,5.9,D,ROLL*57
$GPRMC,193643.8,A,4741.20708,N,12224.25880,W,000.34,359.4,241014,016.4,E,A*23
$GPGGA,193643.8,4741.20708,N,12224.25880,W,1,03,8.0,8.5,M,-18.2,M,,*67
$GPVTG,359.4,T,343.0,M,000.34,N,0000.63,K,A*1E
$HCHDG,267.1,0.0,E,,*2B
$YXXDR,A,5.3,D,PTCH,A,5.9,D,ROLL*57
$TIROT,21.5,A*0D
$GPRMC,193643.9,A,4741.20708,N,12224.25880,W,000.36,359.4,241014,016.4,E,A*20
$GPGGA,193643.9,4741.20708,N,12224.25880,W,1,03,8.0,8.5,M,-18.2,M,,*66
$GPVTG,359.4,T,343.0,M,000.36,N,0000.67,K,A*18
$HCHDG,267.1,0.0,E,,*2B
$YXXDR,A,5.4,D,PTCH,A,5.7,D,ROLL*5E
$GPRMC,193644.0,A,4741.20708,N,12224.25880,W,000.35,359.4,241014,016.4,E,A*2D
$GPGGA,193644.0,4741.20708,N,12224.25880,W,1,03,8.0,9.0,M,-18.2,M,,*6C
$GPVTG,359.4,T,343.0,M,000.35,N,0000.64,K,A*18
$HCHDG,267.1,0.0,E,,*2B
$GPGSA,A,3,29,05,02,,,,,,,,,,9.5,8.0,5.1*3E
$YXXDR,A,5.4,D,PTCH,A,5.7,D,ROLL*5E
$GPGSV,1,1,04,29,86,356,48,05,48,067,45,21,35,255,39,02,16,069,30*79
$GPRMC,193644.1,A,4741.20716,N,12224.25869,W,000.75,359.5,241014,016.4,E,A*21
$GPGGA,193644.1,4741.20716,N,12224.25869,W,1,03,8.0,9.0,M,-18.2,M,,*65
$GPVTG,359.5,T,343.1,M,000.75,N,0001.39,K,A*15
$HCHDG,267.1,0.0,E,,*2B
$YXXDR,A,5.5,D,PTCH,A,5.7,D,ROLL*5F
$GPRMC,193644.2,A,4741.20716,N,12224.25869,W,000.36,359.5,241014,016.4,E,A*25
$GPGGA,193644.2,4741.20716,N,12224.25869,W,1,03,8.0,9.0,M,-18.2,M,,*66
$GPVTG,359.5,T,343.1,M,000.36,N,0000.67,K,A*18
$HCHDG,267.1,0.0,E,,*2B
$YXXDR,A,5.5,D,PTCH,A,5.6,D,ROLL*5E
$GPRMC,193644.3,A,4741.20716,N,12224.25869,W,000.33,359.5,241014,016.4,E,A*21
$GPGGA,193644.3,4741.20716,N,12224.25869,W,1,03,8.0,9.0,M,-18.2,M,,*67
$GPVTG,359.5,T,343.1,M,000.33,N,0000.61,K,A*1B
$HCHDG,267.1,0.0,E,,*2B
$YXXDR,A,5.5,D,PTCH,A,5.6,D,ROLL*5E
$GPRMC,193644.4,A,4741.20716,N,12224.25869,W,000.32,359.5,241014,016.4,E,A*27
$GPGGA,193644.4,4741.20716,N,12224.25869,W,1,03,8.0,8.9,M,-18.2,M,,*68
$GPVTG,359.5,T,343.1,M,000.32,N,0000.60,K,A*1B
$HCHDG,267.0,0.0,E,,*2A
$YXXDR,A,5.4,D,PTCH,A,5.4,D,ROLL*5D
$GPRMC,193644.5,A,4741.20713,N,12224.25869,W,000.93,359.5,241014,016.4,E,A*28
$GPGGA,193644.5,4741.20713,N,12224.25869,W,1,03,8.0,8.9,M,-18.2,M,,*6C
$GPVTG,359.5,T,343.1,M,000.93,N,0001.73,K,A*13
$HCHDG,267.0,0.0,E,,*2A
$YXXDR,A,5.5,D,PTCH,A,5.3,D,ROLL*5B
$GPRMC,193644.6,A,4741.20712,N,12224.25870,W,000.51,359.5,241014,016.4,E,A*2C
$GPGGA,193644.6,4741.20712,N,12224.25870,W,1,03,8.0,8.9,M,-18.2,M,,*66
$GPVTG,359.5,T,343.1,M,000.51,N,0000.94,K,A*15
$HCHDG,267.0,0.0,E,,*2A
$YXXDR,A,5.6,D,PTCH,A,5.1,D,ROLL*5A
$GPRMC,193644.7,A,4741.20711,N,12224.25870,W,000.46,359.5,241014,016.4,E,A*28
$GPGGA,193644.7,4741.20711,N,12224.25870,W,1,03,8.0,8.9,M,-18.2,M,,*64
$GPVTG,359.5,T,343.1,M,000.46,N,0000.85,K,A*13
$HCHDG,267.3,0.0,E,,*29
$YXXDR,A,5.5,D,PTCH,A,5.1,D,ROLL*59
$GPRMC,193644.8,A,4741.20710,N,12224.25869,W,000.44,359.5,241014,016.4,E,A*2C
$GPGGA,193644.8,4741.20710,N,12224.25869,W,1,03,8.0,8.9,M,-18.2,M,,*62
$GPVTG,359.5,T,343.1,M,000.44,N,0000.82,K,A*16
$HCHDG,267.3,0.0,E,,*29
$YXXDR,A,5.6,D,PTCH,A,5.2,D,ROLL*59
$TIROT,33.4,A*0F
$GPRMC,193644.9,A,4741.20710,N,12224.25869,W,000.42,359.5,241014,016.4,E,A*2B
$GPGGA,193644.9,4741.20710,N,12224.25869,W,1,03,8.0,8.9,M,-18.2,M,,*63
$GPVTG,359.5,T,343.1,M,000.42,N,0000.78,K,A*15
$HCHDG,267.4,0.0,E,,*2E
$YXXDR,A,5.6,D,PTCH,A,5.3,D,ROLL*58
$GPRMC,193645.0,A,4741.20689,N,12224.25888,W,000.92,359.6,241014,016.4,E,A*23
$GPGGA,193645.0,4741.20689,N,12224.25888,W,1,03,8.0,8.8,M,-18.2,M,,*64
$GPVTG,359.6,T,343.2,M,000.92,N,0001.70,K,A*11
$HCHDG,267.4,0.0,E,,*2E
$GPGSA,A,3,29,05,02,,,,,,,,,,9.5,8.0,5.1*3E
$YXXDR,A,5.4,D,PTCH,A,5.4,D,ROLL*5D
$GPGSV,1,1,04,29,86,356,48,05,48,067,45,21,35,255,40,02,16,069,38*7F
$GPRMC,193645.1,A,4741.20687,N,12224.25889,W,000.42,359.6,241014,016.4,E,A*20
$GPGGA,193645.1,4741.20687,N,12224.25889,W,1,03,8.0,8.8,M,-18.2,M,,*6A
$GPVTG,359.6,T,343.2,M,000.42,N,0000.77,K,A*1A
$HCHDG,267.3,0.0,E,,*29
$YXXDR,A,5.5,D,PTCH,A,5.3,D,ROLL*5B
$GPRMC,193645.2,A,4741.20687,N,12224.25888,W,000.39,359.6,241014,016.4,E,A*2E
$GPGGA,193645.2,4741.20687,N,12224.25888,W,1,03,8.0,8.8,M,-18.2,M,,*68
$GPVTG,359.6,T,343.2,M,000.39,N,0000.73,K,A*12
$HCHDG,267.3,0.0,E,,*29
$YXXDR,A,5.4,D,PTCH,A,5.2,D,ROLL*5B
$GPRMC,193645.3,A,4741.20686,N,12224.25889,W,000.40,359.6,241014,016.4,E,A*21
$GPGGA,193645.3,4741.20686,N,12224.25889,W,1,03,8.0,8.8,M,-18.2,M,,*69
$GPVTG,359.6,T,343.2,M,000.40,N,0000.74,K,A*1B
$HCHDG,267.3,0.0,E,,*29
$YXXDR,A,5.2,D,PTCH,A,5.1,D,ROLL*5E
$GPRMC,193645.4,A,4741.20686,N,12224.25890,W,000.43,359.6,241014,016.4,E,A*2D
$GPGGA,193645.4,4741.20686,N,12224.25890,W,1,03,8.0,8.8,M,-18.2,M,,*66
$GPVTG,359.6,T,343.2,M,000.43,N,0000.79,K,A*15
$HCHDG,267.2,0.0,E,,*28
$YXXDR,A,5.2,D,PTCH,A,4.9,D,ROLL*57
$GPRMC,193645.5,A,4741.20684,N,12224.25890,W,000.40,359.6,241014,016.4,E,A*2D
$GPGGA,193645.5,4741.20684,N,12224.25890,W,1,03,8.0,8.8,M,-18.2,M,,*65
$GPVTG,359.6,T,343.2,M,000.40,N,0000.74,K,A*1B
$HCHDG,267.2,0.0,E,,*28
$YXXDR,A,5.3,D,PTCH,A,5.0,D,ROLL*5E
$GPRMC,193645.6,A,4741.20684,N,12224.25890,W,000.38,359.6,241014,016.4,E,A*21
$GPGGA,193645.6,4741.20684,N,12224.25890,W,1,03,8.0,8.7,M,-18.2,M,,*69
$GPVTG,359.6,T,343.2,M,000.38,N,0000.71,K,A*11
$HCHDG,267.2,0.0,E,,*28
$YXXDR,A,5.3,D,PTCH,A,5.0,D,ROLL*5E
$GPRMC,193645.7,A,4741.20684,N,12224.25890,W,000.34,359.6,241014,016.4,E,A*2C
$GPGGA,193645.7,4741.20684,N,12224.25890,W,1,03,8.0,8.7,M,-18.2,M,,*68
$GPVTG,359.6,T,343.2,M,000.34,N,0000.63,K,A*1E
$HCHDG,267.3,0.0,E,,*29
$YXXDR,A,5.3,D,PTCH,A,5.0,D,ROLL*5E
$GPRMC,193645.8,A,4741.20683,N,12224.25889,W,000.62,359.7,241014,016.4,E,A*2E
$GPGGA,193645.8,4741.20683,N,12224.25889,W,1,03,8.0,8.7,M,-18.2,M,,*68
$HCHDG,267.3,0.0,E,,*29
$GPVTG,359.7,T,343.2,M,000.62,N,0001.15,K,A*1C
$YXXDR,A,5.4,D,PTCH,A,5.2,D,ROLL*5B
$TIROT,25.9,A*05
$GPRMC,193645.9,A,4741.20684,N,12224.25888,W,000.56,359.7,241014,016.4,E,A*2E
$GPGGA,193645.9,4741.20684,N,12224.25888,W,1,03,8.0,8.7,M,-18.2,M,,*6F
$GPVTG,359.7,T,343.2,M,000.56,N,0001.04,K,A*1B
$HCHDG,267.3,0.0,E,,*29
$YXXDR,A,5.2,D,PTCH,A,5.4,D,ROLL*5B
$GPRMC,193646.0,A,4741.20684,N,12224.25884,W,000.54,359.7,241014,016.4,E,A*2A
$GPGGA,193646.0,4741.20684,N,12224.25884,W,1,03,8.0,8.9,M,-18.2,M,,*67
$HCHDG,267.3,0.0,E,,*29
$GPVTG,359.7,T,343.2,M,000.54,N,0000.99,K,A*1C
$GPGSA,A,3,29,05,02,,,,,,,,,,9.5,8.0,5.1*3E
$YXXDR,A,5.4,D,PTCH,A,5.8,D,ROLL*51
$GPGSV,1,1,04,29,86,356,47,05,48,067,45,21,35,255,40,02,16,069,38*70
$GPRMC,193646.1,A,4741.20685,N,12224.25883,W,000.47,359.7,241014,016.4,E,A*2F
$GPGGA,193646.1,4741.20685,N,12224.25883,W,1,03,8.0,8.9,M,-18.2,M,,*60
$GPVTG,359.7,T,343.2,M,000.47,N,0000.87,K,A*11
$HCHDG,267.3,0.0,E,,*29
$YXXDR,A,5.2,D,PTCH,A,6.0,D,ROLL*5C
$GPRMC,193646.2,A,4741.20685,N,12224.25883,W,000.41,359.7,241014,016.4,E,A*2A
$GPGGA,193646.2,4741.20685,N,12224.25883,W,1,03,8.0,8.9,M,-18.2,M,,*63
$HCHDG,267.4,0.0,E,,*2E
$GPVTG,359.7,T,343.2,M,000.41,N,0000.75,K,A*1A
$YXXDR,A,5.2,D,PTCH,A,6.0,D,ROLL*5C
$GPRMC,193646.3,A,4741.20685,N,12224.25883,W,000.36,359.7,241014,016.4,E,A*2B
$GPGGA,193646.3,4741.20685,N,12224.25883,W,1,03,8.0,8.8,M,-18.2,M,,*63
$HCHDG,267.5,0.0,E,,*2F
$GPVTG,359.7,T,343.2,M,000.36,N,0000.67,K,A*19
$YXXDR,A,5.3,D,PTCH,A,6.0,D,ROLL*5D
$GPRMC,193646.4,A,4741.20685,N,12224.25883,W,000.34,359.7,241014,016.4,E,A*2E
$GPGGA,193646.4,4741.20685,N,12224.25883,W,1,03,8.0,8.8,M,-18.2,M,,*64
$HCHDG,267.5,0.0,E,,*2F
$GPVTG,359.7,T,343.2,M,000.34,N,0000.62,K,A*1E
$YXXDR,A,5.3,D,PTCH,A,6.1,D,ROLL*5C
$GPRMC,193646.5,A,4741.20685,N,12224.25883,W,000.36,359.7,241014,016.4,E,A*2D
$GPGGA,193646.5,4741.20685,N,12224.25883,W,1,03,8.0,8.8,M,-18.2,M,,*65
$HCHDG,267.5,0.0,E,,*2F
$GPVTG,359.7,T,343.2,M,000.36,N,0000.67,K,A*19
$YXXDR,A,5.3,D,PTCH,A,6.2,D,ROLL*5F
$GPRMC,193646.6,A,4741.20685,N,12224.25883,W,000.34,359.7,241014,016.4,E,A*2C
$GPGGA,193646.6,4741.20685,N,12224.25883,W,1,03,8.0,8.8,M,-18.2,M,,*66
$HCHDG,267.6,0.0,E,,*2C
$GPVTG,359.7,T,343.2,M,000.34,N,0000.63,K,A*1F
$YXXDR,A,5.3,D,PTCH,A,6.1,D,ROLL*5C
$GPRMC,193646.7,A,4741.20685,N,12224.25883,W,000.31,359.7,241014,016.4,E,A*28
$GPGGA,193646.7,4741.20685,N,12224.25883,W,1,03,8.0,8.8,M,-18.2,M,,*67
$HCHDG,267.6,0.0,E,,*2C
$GPVTG,359.7,T,343.2,M,000.31,N,0000.57,K,A*1D
$YXXDR,A,5.4,D,PTCH,A,6.3,D,ROLL*59
$GPRMC,193646.8,A,4741.20685,N,12224.25883,W,000.29,359.7,241014,016.4,E,A*2E
$GPGGA,193646.8,4741.20685,N,12224.25883,W,1,03,8.0,8.8,M,-18.2,M,,*68
$HCHDG,267.6,0.0,E,,*2C
$GPVTG,359.7,T,343.2,M,000.29,N,0000.53,K,A*10
$YXXDR,A,5.5,D,PTCH,A,6.3,D,ROLL*58
$TIROT,36.8,A*06
$GPRMC,193646.9,A,4741.20685,N,12224.25883,W,000.28,359.7,241014,016.4,E,A*2E
$GPGGA,193646.9,4741.20685,N,12224.25883,W,1,03,8.0,8.8,M,-18.2,M,,*69
$HCHDG,267.8,0.0,E,,*22
$GPVTG,359.7,T,343.2,M,000.28,N,0000.52,K,A*10
$YXXDR,A,5.5,D,PTCH,A,6.3,D,ROLL*58
$GPRMC,193647.0,A,4741.20685,N,12224.25883,W,000.27,359.7,241014,016.4,E,A*29
$GPGGA,193647.0,4741.20685,N,12224.25883,W,1,03,8.0,9.2,M,-18.2,M,,*6A
$HCHDG,267.7,0.0,E,,*2D
$GPVTG,359.7,T,343.2,M,000.27,N,0000.51,K,A*1C
$YXXDR,A,5.5,D,PTCH,A,6.5,D,ROLL*5E
$GPGSA,A,3,29,05,02,,,,,,,,,,9.5,8.0,5.1*3E
$GPGSV,1,1,04,29,86,356,48,05,48,067,45,21,35,255,40,02,16,069,39*7E
$GPRMC,193647.1,A,4741.20685,N,12224.25883,W,000.27,359.7,241014,016.4,E,A*28
$GPGGA,193647.1,4741.20685,N,12224.25883,W,1,03,8.0,9.2,M,-18.2,M,,*6B
$HCHDG,267.8,0.0,E,,*22
$GPVTG,359.7,T,343.2,M,000.27,N,0000.50,K,A*1D
$YXXDR,A,5.5,D,PTCH,A,6.5,D,ROLL*5E
$GPRMC,193647.2,A,4741.20685,N,12224.25883,W,000.29,359.7,241014,016.4,E,A*25
$GPGGA,193647.2,4741.20685,N,12224.25883,W,1,03,8.0,9.2,M,-18.2,M,,*68
$HCHDG,267.9,0.0,E,,*23
$GPVTG,359.7,T,343.2,M,000.29,N,0000.53,K,A*10
$YXXDR,A,5.7,D,PTCH,A,6.6,D,ROLL*5F
$GPRMC,193647.3,A,4741.20715,N,12224.25864,W,000.30,359.7,241014,016.4,E,A*2D
$GPGGA,193647.3,4741.20715,N,12224.25864,W,1,03,8.0,9.2,M,-18.2,M,,*68
$HCHDG,267.9,0.0,E,,*23
$GPVTG,359.7,T,343.2,M,000.30,N,0000.55,K,A*1E
$YXXDR,A,5.5,D,PTCH,A,6.7,D,ROLL*5C
$GPRMC,193647.4,A,4741.20715,N,12224.25864,W,000.27,359.7,241014,016.4,E,A*2C
$GPGGA,193647.4,4741.20715,N,12224.25864,W,1,03,8.0,9.2,M,-18.2,M,,*6F
$HCHDG,267.9,0.0,E,,*23
$GPVTG,359.7,T,343.2,M,000.27,N,0000.51,K,A*1C
$YXXDR,A,5.5,D,PTCH,A,6.7,D,ROLL*5C
$GPRMC,193647.5,A,4741.20715,N,12224.25864,W,000.29,359.7,241014,016.4,E,A*23
$GPGGA,193647.5,4741.20715,N,12224.25864,W,1,03,8.0,9.2,M,-18.2,M,,*6E
$HCHDG,268.1,0.0,E,,*24
$GPVTG,359.7,T,343.2,M,000.29,N,0000.53,K,A*10
$YXXDR,A,5.5,D,PTCH,A,6.6,D,ROLL*5D
$GPRMC,193647.6,A,4741.20715,N,12224.25864,W,000.25,359.7,241014,016.4,E,A*2C
$GPGGA,193647.6,4741.20715,N,12224.25864,W,1,03,8.0,9.2,M,-18.2,M,,*6D
$HCHDG,268.1,0.0,E,,*24
$GPVTG,359.7,T,343.2,M,000.25,N,0000.47,K,A*19
$YXXDR,A,5.5,D,PTCH,A,6.4,D,ROLL*5F
$GPRMC,193647.7,A,4741.20715,N,12224.25864,W,000.28,359.7,241014,016.4,E,A*20
$GPGGA,193647.7,4741.20715,N,12224.25864,W,1,03,8.0,9.2,M,-18.2,M,,*6C
$HCHDG,268.1,0.0,E,,*24
$GPVTG,359.7,T,343.2,M,000.28,N,0000.52,K,A*10
$YXXDR,A,5.5,D,PTCH,A,6.3,D,ROLL*58
$GPRMC,193647.8,A,4741.20715,N,12224.25864,W,000.24,359.7,241014,016.4,E,A*23
$GPGGA,193647.8,4741.20715,N,12224.25864,W,1,03,8.0,9.2,M,-18.2,M,,*63
$GPVTG,359.7,T,343.2,M,000.24,N,0000.45,K,A*1A
$HCHDG,268.1,0.0,E,,*24
$YXXDR,A,5.5,D,PTCH,A,6.1,D,ROLL*5A
$TIROT,25.2,A*0E
$GPRMC,193647.9,A,4741.20715,N,12224.25864,W,000.25,359.7,241014,016.4,E,A*23
$GPGGA,193647.9,4741.20715,N,12224.25864,W,1,03,8.0,9.2,M,-18.2,M,,*62
$GPVTG,359.7,T,343.2,M,000.25,N,0000.46,K,A*18
$HCHDG,268.1,0.0,E,,*24
$YXXDR,A,5.5,D,PTCH,A,6.1,D,ROLL*5A
$GPRMC,193648.0,A,4741.20715,N,12224.25864,W,000.26,359.8,241014,016.4,E,A*29
$GPGGA,193648.0,4741.20715,N,12224.25864,W,1,03,8.0,9.5,M,-18.2,M,,*63
$GPVTG,359.8,T,343.4,M,000.26,N,0000.48,K,A*1C
$GPGSA,A,3,29,05,02,,,,,,,,,,9.5,8.0,5.1*3E
$GPGSV,1,1,04,29,86,356,48,05,48,067,45,21,35,255,40,02,16,069,39*7E
$HCHDG,268.1,0.0,E,,*24
$YXXDR,A,5.5,D,PTCH,A,6.1,D,ROLL*5A
$GPRMC,193648.1,A,4741.20730,N,12224.25861,W,000.87,001.2,241014,016.4,E,A*25
$GPGGA,193648.1,4741.20730,N,12224.25861,W,1,03,8.0,9.5,M,-18.2,M,,*60
$GPVTG,001.2,T,344.8,M,000.87,N,0001.61,K,A*12
$HCHDG,268.2,0.0,E,,*27
$YXXDR,A,5.4,D,PTCH,A,6.1,D,ROLL*5B
$GPRMC,193648.2,A,4741.20730,N,12224.25861,W,000.37,001.2,241014,016.4,E,A*2D
$GPGGA,193648.2,4741.20730,N,12224.25861,W,1,03,8.0,9.5,M,-18.2,M,,*63
$GPVTG,001.2,T,344.8,M,000.37,N,0000.69,K,A*10
$HCHDG,268.2,0.0,E,,*27
