$YXXDR,A,6.0,D,PTCH,A,4.5,D,ROLL*5A
$TIROT,20.5,A*0C
$HCHDG,200.0,0.0,E,,*2B
$YXXDR,A,6.0,D,PTCH,A,4.4,D,ROLL*5B
$GPGGA,174920.5,4741.24919,N,12224.40249,W,1,09,1.1,-4.1,M,-18.2,M,,*48
$GPVTG,216.5,T,200.0,M,003.10,N,0005.75,K,A*14
$GPRMC,174920.6,A,4741.24916,N,12224.40253,W,003.09,216.8,131214,016.4,E,A*21
$GPGGA,174920.6,4741.24916,N,12224.40253,W,1,09,1.1,-4.1,M,-18.2,M,,*4F
$GPVTG,216.8,T,200.3,M,003.09,N,0005.72,K,A*15
$HCHDG,200.0,0.0,E,,*2B
$YXXDR,A,6.0,D,PTCH,A,4.3,D,ROLL*5C
$HCHDG,200.3,0.0,E,,*28
$YXXDR,A,6.2,D,PTCH,A,4.3,D,ROLL*5E
$HCHDG,200.3,0.0,E,,*28
$GPRMC,174920.7,A,4741.24912,N,12224.40257,W,003.08,216.6,131214,016.4,E,A*2F
$GPGGA,174920.7,4741.24912,N,12224.40257,W,1,09,1.1,-4.1,M,-18.2,M,,*4E
$GPVTG,216.6,T,200.1,M,003.08,N,0005.71,K,A*1B
$YXXDR,A,6.3,D,PTCH,A,4.3,D,ROLL*5F
$HCHDG,200.3,0.0,E,,*28
$YXXDR,A,6.2,D,PTCH,A,4.3,D,ROLL*5E
$HCHDG,200.3,0.0,E,,*28
$YXXDR,A,6.3,D,PTCH,A,4.1,D,ROLL*5D
$IIVHW,,,,,03.5,N,,*1F
$IIVLW,07080,N,000.2,N*5E
$IIVWR,006,L,05.8,N,,,,*74
$IIMTW,+09.0,C*31
$IIMWV,354,R,05.8,N,A*1C
$IIMWV,347,T,02.2,N,A*15
$GPRMC,174920.8,A,4741.24909,N,12224.40261,W,003.08,217.0,131214,016.4,E,A*28
$GPGGA,174920.8,4741.24909,N,12224.40261,W,1,09,1.1,-4.1,M,-18.2,M,,*4E
$GPVTG,217.0,T,200.6,M,003.08,N,0005.70,K,A*1A
$GPRMC,174920.9,A,4741.24906,N,12224.40265,W,003.08,217.7,131214,016.4,E,A*25
$HCHDG,200.3,0.0,E,,*28
$YXXDR,A,6.1,D,PTCH,A,4.1,D,ROLL*5F
$HCHDG,200.5,0.0,E,,*2E
$YXXDR,A,6.2,D,PTCH,A,3.9,D,ROLL*53
$HCHDG,200.5,0.0,E,,*2E
$GPGGA,174920.9,4741.24906,N,12224.40265,W,1,09,1.1,-4.2,M,-18.2,M,,*47
$GPVTG,217.7,T,201.2,M,003.08,N,0005.70,K,A*18
$GPRMC,174921.0,A,4741.24899,N,12224.40273,W,003.07,217.6,131214,016.4,E,A*23
$GPGGA,174921.0,4741.24899,N,12224.40273,W,1,09,1.1,-4.2,M,-18.2,M,,*4F
$YXXDR,A,6.1,D,PTCH,A,3.9,D,ROLL*50
$HCHDG,200.8,0.0,E,,*23
$YXXDR,A,6.1,D,PTCH,A,4.0,D,ROLL*5E
$TIROT,10.6,A*0C
$GPVTG,217.6,T,201.1,M,003.07,N,0005.68,K,A*1C
$GPGSA,A,3,29,18,15,26,05,13,16,21,27,,,,2.3,1.1,2.1*34
$GPRMC,174921.1,A,4741.24880,N,12224.40296,W,003.08,218.1,131214,016.4,E,A*26
$GPGGA,174921.1,4741.24880,N,12224.40296,W,1,09,1.1,-4.2,M,-18.2,M,,*4D
$GPVTG,218.1,T,201.7,M,003.08,N,0005.71,K,A*15
$GPGSV,3,1,09,29,45,143,38,18,48,212,37,15,33,120,34,26,28,072,39*74
$GPGSV,3,2,09,05,13,049,47,13,18,043,45,16,31,300,38,21,72,296,35*75
$GPGSV,3,3,09,27,11,313,38*4F
$GPRMC,174921.2,A,4741.24876,N,12224.40301,W,003.10,218.7,131214,016.4,E,A*2C
$GPGGA,174921.2,4741.24876,N,12224.40301,W,1,09,1.1,-4.2,M,-18.2,M,,*48
$GPVTG,218.7,T,202.3,M,003.10,N,0005.73,K,A*1F
$GPRMC,174921.3,A,4741.24869,N,12224.40315,W,003.06,219.2,131214,016.4,E,A*25
$HCHDG,200.8,0.0,E,,*23
$YXXDR,A,6.0,D,PTCH,A,4.2,D,ROLL*5D
$GPGGA,174921.3,4741.24869,N,12224.40315,W,1,09,1.1,-4.2,M,-18.2,M,,*42
$GPVTG,219.2,T,202.8,M,003.06,N,0005.67,K,A*12
$GPRMC,174921.4,A,4741.24862,N,12224.40323,W,003.08,219.1,131214,016.4,E,A*21
$GPGGA,174921.4,4741.24862,N,12224.40323,W,1,09,1.1,-4.2,M,-18.2,M,,*4B
$GPVTG,219.1,T,202.7,M,003.08,N,0005.70,K,A*16
$GPRMC,174921.5,A,4741.24855,N,12224.40330,W,003.05,219.4,131214,016.4,E,A*2E
$GPGGA,174921.5,4741.24855,N,12224.40330,W,1,09,1.1,-4.3,M,-18.2,M,,*4D
$GPVTG,219.4,T,203.0,M,003.05,N,0005.66,K,A*1F
$GPRMC,174921.6,A,4741.24852,N,12224.40335,W,003.06,219.9,131214,016.4,E,A*21
$GPGGA,174921.6,4741.24852,N,12224.40335,W,1,09,1.1,-4.3,M,-18.2,M,,*4C
$GPVTG,219.9,T,203.4,M,003.06,N,0005.66,K,A*15
$HCHDG,200.9,0.0,E,,*22
$YXXDR,A,6.0,D,PTCH,A,4.1,D,ROLL*5E
$HCHDG,200.7,0.0,E,,*2C
$GPRMC,174921.7,A,4741.24849,N,12224.40339,W,003.04,219.7,131214,016.4,E,A*2A
$YXXDR,A,5.8,D,PTCH,A,4.3,D,ROLL*57
$GPGGA,174921.7,4741.24849,N,12224.40339,W,1,09,1.1,-4.3,M,-18.2,M,,*4B
$GPVTG,219.7,T,203.2,M,003.04,N,0005.62,K,A*1B
$HCHDG,200.7,0.0,E,,*2C
$GPRMC,174921.8,A,4741.24836,N,12224.40355,W,003.07,219.8,131214,016.4,E,A*2B
$YXXDR,A,5.8,D,PTCH,A,4.4,D,ROLL*50
$IIVHW,,,,,03.5,N,,*1F
$GPGGA,174921.8,4741.24836,N,12224.40355,W,1,09,1.1,-4.3,M,-18.2,M,,*46
$GPVTG,219.8,T,203.4,M,003.07,N,0005.69,K,A*1A
$IIVLW,07080,N,000.2,N*5E
$HCHDG,200.8,0.0,E,,*23
$GPRMC,174921.9,A,4741.24829,N,12224.40363,W,003.05,219.9,131214,016.4,E,A*22
$YXXDR,A,5.8,D,PTCH,A,4.5,D,ROLL*51
$GPGGA,174921.9,4741.24829,N,12224.40363,W,1,09,1.1,-4.3,M,-18.2,M,,*4C
$IIVWR,005,L,05.8,N,,,,*77
$GPVTG,219.9,T,203.4,M,003.05,N,0005.66,K,A*16
$HCHDG,200.6,0.0,E,,*2D
$GPRMC,174922.0,A,4741.24823,N,12224.40371,W,003.09,219.5,131214,016.4,E,A*21
$YXXDR,A,6.0,D,PTCH,A,5.4,D,ROLL*5A
$GPGGA,174922.0,4741.24823,N,12224.40371,W,1,09,1.1,-4.3,M,-18.2,M,,*4F
$GPVTG,219.5,T,203.1,M,003.09,N,0005.72,K,A*16
$GPGSA,A,3,29,18,15,26,05,13,16,21,27,,,,2.3,1.1,2.1*34
$HCHDG,200.8,0.0,E,,*23
$GPRMC,174922.1,A,4741.24816,N,12224.40379,W,003.07,219.3,131214,016.4,E,A*26
$IIMTW,+09.0,C*31
$YXXDR,A,6.0,D,PTCH,A,5.4,D,ROLL*5A
$GPGGA,174922.1,4741.24816,N,12224.40379,W,1,09,1.1,-4.3,M,-18.2,M,,*40
$GPVTG,219.3,T,202.8,M,003.07,N,0005.69,K,A*1C
$GPGSV,3,1,09,29,45,143,35,18,48,212,38,15,33,120,36,26,28,072,39*74
$IIMWV,355,R,05.8,N,A*1D
$GPGSV,3,2,09,05,13,049,47,13,18,043,45,16,31,300,38,21,72,296,34*74
$GPGSV,3,3,09,27,11,313,38*4F
$HCHDG,200.6,0.0,E,,*2D
$GPRMC,174922.2,A,4741.24809,N,12224.40387,W,003.09,219.2,131214,016.4,E,A*25
$YXXDR,A,6.0,D,PTCH,A,5.4,D,ROLL*5A
$GPGGA,174922.2,4741.24809,N,12224.40387,W,1,09,1.1,-4.3,M,-18.2,M,,*4C
$IIMWV,347,T,02.1,N,A*16
$GPVTG,219.2,T,202.7,M,003.09,N,0005.72,K,A*16
$HCHDG,200.6,0.0,E,,*2D
$YXXDR,A,5.9,D,PTCH,A,5.4,D,ROLL*50
$GPRMC,174922.3,A,4741.24807,N,12224.40389,W,003.08,219.1,131214,016.4,E,A*26
$GPGGA,174922.3,4741.24807,N,12224.40389,W,1,09,1.1,-4.3,M,-18.2,M,,*4D
$GPVTG,219.1,T,202.7,M,003.08,N,0005.70,K,A*16
$HCHDG,200.9,0.0,E,,*22
$YXXDR,A,5.8,D,PTCH,A,5.3,D,ROLL*56
$GPRMC,174922.4,A,4741.24804,N,12224.40393,W,003.08,219.2,131214,016.4,E,A*2A
$TIROT,29.3,A*03
$GPGGA,174922.4,4741.24804,N,12224.40393,W,1,09,1.1,-4.3,M,-18.2,M,,*42
$GPVTG,219.2,T,202.7,M,003.08,N,0005.71,K,A*14
$HCHDG,201.1,0.0,E,,*2B
$GPRMC,174922.5,A,4741.24801,N,12224.40397,W,003.10,219.5,131214,016.4,E,A*24
$YXXDR,A,5.8,D,PTCH,A,5.3,D,ROLL*56
$GPGGA,174922.5,4741.24801,N,12224.40397,W,1,09,1.1,-4.3,M,-18.2,M,,*42
$GPVTG,219.5,T,203.0,M,003.10,N,0005.74,K,A*19
$HCHDG,201.1,0.0,E,,*2B
$GPRMC,174922.6,A,4741.24798,N,12224.40401,W,003.09,219.5,131214,016.4,E,A*28
$YXXDR,A,6.0,D,PTCH,A,5.2,D,ROLL*5C
$GPGGA,174922.6,4741.24798,N,12224.40401,W,1,09,1.1,-4.3,M,-18.2,M,,*46
$GPVTG,219.5,T,203.0,M,003.09,N,0005.72,K,A*17
$HCHDG,201.3,0.0,E,,*29
$YXXDR,A,6.0,D,PTCH,A,5.4,D,ROLL*5A
$GPRMC,174922.7,A,4741.24792,N,12224.40408,W,003.09,220.1,131214,016.4,E,A*24
$GPGGA,174922.7,4741.24792,N,12224.40408,W,1,09,1.1,-4.3,M,-18.2,M,,*44
$GPVTG,220.1,T,203.7,M,003.09,N,0005.71,K,A*1D
$HCHDG,201.2,0.0,E,,*28
$GPRMC,174922.8,A,4741.24785,N,12224.40417,W,003.09,219.9,131214,016.4,E,A*21
$YXXDR,A,6.1,D,PTCH,A,5.4,D,ROLL*5B
$IIVHW,,,,,03.5,N,,*1F
$GPGGA,174922.8,4741.24785,N,12224.40417,W,1,09,1.1,-4.3,M,-18.2,M,,*43
$GPVTG,219.9,T,203.5,M,003.09,N,0005.71,K,A*1D
$IIVLW,07080,N,000.2,N*5E
$HCHDG,201.2,0.0,E,,*28
$YXXDR,A,6.0,D,PTCH,A,5.8,D,ROLL*56
$GPRMC,174922.9,A,4741.24766,N,12224.40441,W,003.06,220.2,131214,016.4,E,A*20
$GPGGA,174922.9,4741.24766,N,12224.40441,W,1,09,1.1,-4.3,M,-18.2,M,,*4C
$IIVWR,003,L,05.7,N,,,,*7E
$GPVTG,220.2,T,203.8,M,003.06,N,0005.66,K,A*18
$HCHDG,201.3,0.0,E,,*29
$YXXDR,A,6.0,D,PTCH,A,5.7,D,ROLL*59
$GPRMC,174923.0,A,4741.24763,N,12224.40445,W,003.04,220.5,131214,016.4,E,A*2C
$GPGGA,174923.0,4741.24763,N,12224.40445,W,1,09,1.1,-4.3,M,-18.2,M,,*45
$GPVTG,220.5,T,204.0,M,003.04,N,0005.64,K,A*10
$GPGSA,A,3,29,18,15,26,05,13,16,21,27,,,,2.3,1.1,2.1*34
$HCHDG,201.3,0.0,E,,*29
$YXXDR,A,5.8,D,PTCH,A,5.8,D,ROLL*5D
$GPRMC,174923.1,A,4741.24760,N,12224.40449,W,003.02,220.6,131214,016.4,E,A*27
$GPGGA,174923.1,4741.24760,N,12224.40449,W,1,09,1.1,-4.3,M,-18.2,M,,*4B
$IIMTW,+09.0,C*31
$GPVTG,220.6,T,204.1,M,003.02,N,0005.60,K,A*10
$GPGSV,3,1,09,29,45,143,34,18,48,212,38,15,33,120,35,26,28,072,38*77
$IIMWV,357,R,05.7,N,A*10
$GPGSV,3,2,09,05,13,049,47,13,18,043,45,16,31,300,38,21,72,296,34*74
$GPGSV,3,3,09,27,11,313,38*4F
$HCHDG,201.4,0.0,E,,*2E
$YXXDR,A,5.7,D,PTCH,A,5.7,D,ROLL*5D
$GPRMC,174923.2,A,4741.24757,N,12224.40454,W,003.03,221.6,131214,016.4,E,A*2C
$GPGGA,174923.2,4741.24757,N,12224.40454,W,1,09,1.1,-4.3,M,-18.2,M,,*40
$IIMWV,347,T,02.2,N,A*15
$GPVTG,221.6,T,205.2,M,003.03,N,0005.61,K,A*13
$HCHDG,201.3,0.0,E,,*29
$YXXDR,A,5.8,D,PTCH,A,6.0,D,ROLL*56
$GPRMC,174923.3,A,4741.24753,N,12224.40457,W,003.04,221.0,131214,016.4,E,A*2B
$GPGGA,174923.3,4741.24753,N,12224.40457,W,1,10,0.8,-4.3,M,-18.2,M,,*46
$GPVTG,221.0,T,204.5,M,003.04,N,0005.63,K,A*16
$HCHDG,201.3,0.0,E,,*29
$YXXDR,A,5.9,D,PTCH,A,6.1,D,ROLL*56
$TIROT,48.7,A*00
$GPRMC,174923.4,A,4741.24731,N,12224.40477,W,003.11,219.8,131214,016.4,E,A*2D
$GPGGA,174923.4,4741.24731,N,12224.40477,W,1,10,0.8,-4.3,M,-18.2,M,,*47
$GPVTG,219.8,T,203.3,M,003.11,N,0005.77,K,A*15
$HCHDG,201.2,0.0,E,,*28
$YXXDR,A,6.0,D,PTCH,A,6.6,D,ROLL*5B
$GPRMC,174923.5,A,4741.24727,N,12224.40481,W,003.17,218.9,131214,016.4,E,A*24
$GPGGA,174923.5,4741.24727,N,12224.40481,W,1,10,0.8,-4.3,M,-18.2,M,,*48
$GPVTG,218.9,T,202.4,M,003.17,N,0005.87,K,A*1A
$HCHDG,201.2,0.0,E,,*28
$YXXDR,A,5.9,D,PTCH,A,6.4,D,ROLL*53
$GPRMC,174923.6,A,4741.24716,N,12224.40492,W,003.17,218.2,131214,016.4,E,A*2C
$GPGGA,174923.6,4741.24716,N,12224.40492,W,1,10,0.8,-4.3,M,-18.2,M,,*4B
$GPVTG,218.2,T,201.8,M,003.17,N,0005.87,K,A*1E
$HCHDG,201.1,0.0,E,,*2B
$YXXDR,A,5.9,D,PTCH,A,6.4,D,ROLL*53
$GPRMC,174923.7,A,4741.24709,N,12224.40500,W,003.19,218.3,131214,016.4,E,A*26
$GPGGA,174923.7,4741.24709,N,12224.40500,W,1,10,0.8,-4.3,M,-18.2,M,,*4E
$GPVTG,218.3,T,201.8,M,003.19,N,0005.91,K,A*16
$HCHDG,201.2,0.0,E,,*28
$YXXDR,A,5.7,D,PTCH,A,6.4,D,ROLL*5D
$IIVHW,,,,,03.5,N,,*1F
$GPRMC,174923.8,A,4741.24705,N,12224.40504,W,003.21,217.7,131214,016.4,E,A*21
$GPGGA,174923.8,4741.24705,N,12224.40504,W,1,10,0.8,-4.3,M,-18.2,M,,*49
$GPVTG,217.7,T,201.3,M,003.21,N,0005.94,K,A*18
$IIVLW,07080,N,000.2,N*5E
$HCHDG,201.1,0.0,E,,*2B
$YXXDR,A,5.8,D,PTCH,A,6.3,D,ROLL*55
$GPRMC,174923.9,A,4741.24702,N,12224.40508,W,003.22,217.2,131214,016.4,E,A*2D
$IIVWR,004,L,05.7,N,,,,*79
$GPGGA,174923.9,4741.24702,N,12224.40508,W,1,10,0.8,-4.3,M,-18.2,M,,*43
$GPVTG,217.2,T,200.8,M,003.22,N,0005.97,K,A*17
$HCHDG,201.2,0.0,E,,*28
$YXXDR,A,5.8,D,PTCH,A,6.1,D,ROLL*57
$GPRMC,174924.0,A,4741.24687,N,12224.40524,W,003.20,216.4,131214,016.4,E,A*24
$GPGGA,174924.0,4741.24687,N,12224.40524,W,1,10,0.8,-4.3,M,-18.2,M,,*4F
$GPVTG,216.4,T,200.0,M,003.20,N,0005.92,K,A*1F
$GPGSA,A,3,29,18,15,26,05,13,22,16,21,27,,,1.6,0.8,1.4*3C
$HCHDG,201.3,0.0,E,,*29
$YXXDR,A,6.3,D,PTCH,A,6.0,D,ROLL*5E
$GPRMC,174924.1,A,4741.24684,N,12224.40527,W,003.16,215.7,131214,016.4,E,A*20
$IIMTW,+08.0,C*30
$GPGGA,174924.1,4741.24684,N,12224.40527,W,1,10,0.8,-4.4,M,-18.2,M,,*49
$GPVTG,215.7,T,199.2,M,003.16,N,0005.86,K,A*1E
$IIMWV,356,R,05.7,N,A*11
$GPGSV,3,1,10,29,45,143,33,18,48,212,38,15,33,120,36,26,28,072,38*7B
$GPGSV,3,2,10,05,13,049,47,13,18,043,45,22,11,222,30,16,31,300,38*71
$GPGSV,3,3,10,21,72,296,34,27,11,313,39*7A
$GPRMC,174924.2,A,4741.24680,N,12224.40531,W,003.16,216.2,131214,016.4,E,A*26
$HCHDG,201.4,0.0,E,,*2E
$YXXDR,A,6.2,D,PTCH,A,5.6,D,ROLL*5A
$IIMWV,355,T,02.1,N,A*15
$GPGGA,174924.2,4741.24680,N,12224.40531,W,1,10,0.8,-4.4,M,-18.2,M,,*49
$GPVTG,216.2,T,199.8,M,003.16,N,0005.85,K,A*11
$HCHDG,201.4,0.0,E,,*2E
$YXXDR,A,6.1,D,PTCH,A,5.5,D,ROLL*5A
$GPRMC,174924.3,A,4741.24677,N,12224.40534,W,003.14,216.7,131214,016.4,E,A*2D
$GPGGA,174924.3,4741.24677,N,12224.40534,W,1,10,0.8,-4.3,M,-18.2,M,,*42
$GPVTG,216.7,T,200.3,M,003.14,N,0005.82,K,A*19
$HCHDG,201.5,0.0,E,,*2F
$YXXDR,A,6.1,D,PTCH,A,5.5,D,ROLL*5A
$TIROT,25.2,A*0E
$GPRMC,174924.4,A,4741.24658,N,12224.40552,W,003.17,217.0,131214,016.4,E,A*22
$GPGGA,174924.4,4741.24658,N,12224.40552,W,1,10,0.8,-4.3,M,-18.2,M,,*48
$GPVTG,217.0,T,200.5,M,003.17,N,0005.86,K,A*1E
$HCHDG,201.6,0.0,E,,*2C
$YXXDR,A,6.1,D,PTCH,A,5.5,D,ROLL*5A
$GPRMC,174924.5,A,4741.24654,N,12224.40556,W,003.18,216.7,131214,016.4,E,A*22
$GPGGA,174924.5,4741.24654,N,12224.40556,W,1,10,0.8,-4.3,M,-18.2,M,,*41
$GPVTG,216.7,T,200.3,M,003.18,N,0005.89,K,A*1E
$HCHDG,201.5,0.0,E,,*2F
$YXXDR,A,6.1,D,PTCH,A,5.5,D,ROLL*5A
$GPRMC,174924.6,A,4741.24644,N,12224.40568,W,003.14,217.1,131214,016.4,E,A*26
$GPGGA,174924.6,4741.24644,N,12224.40568,W,1,10,0.8,-4.3,M,-18.2,M,,*4E
$GPVTG,217.1,T,200.7,M,003.14,N,0005.81,K,A*19
$HCHDG,201.6,0.0,E,,*2C
$YXXDR,A,6.0,D,PTCH,A,5.4,D,ROLL*5A
$GPRMC,174924.7,A,4741.24637,N,12224.40575,W,003.38,216.6,131214,016.4,E,A*27
$GPGGA,174924.7,4741.24637,N,12224.40575,W,1,10,0.8,-4.3,M,-18.2,M,,*47
$GPVTG,216.6,T,200.2,M,003.38,N,0006.26,K,A*1A
$HCHDG,201.6,0.0,E,,*2C
$YXXDR,A,6.0,D,PTCH,A,5.4,D,ROLL*5A
$IIVHW,,,,,03.5,N,,*1F
$GPRMC,174924.8,A,4741.24629,N,12224.40583,W,003.34,217.4,131214,016.4,E,A*21
$GPGGA,174924.8,4741.24629,N,12224.40583,W,1,10,0.8,-4.3,M,-18.2,M,,*4E
$GPVTG,217.4,T,201.0,M,003.34,N,0006.18,K,A*1B
$IIVLW,07080,N,000.2,N*5E
$HCHDG,201.6,0.0,E,,*2C
$YXXDR,A,5.8,D,PTCH,A,5.5,D,ROLL*50
$GPRMC,174924.9,A,4741.24626,N,12224.40587,W,003.30,217.6,131214,016.4,E,A*2D
$IIVWR,007,L,05.6,N,,,,*7B
$GPGGA,174924.9,4741.24626,N,12224.40587,W,1,10,0.8,-4.3,M,-18.2,M,,*44
$GPVTG,217.6,T,201.2,M,003.30,N,0006.12,K,A*15
$HCHDG,201.6,0.0,E,,*2C
$YXXDR,A,5.8,D,PTCH,A,5.5,D,ROLL*50
$GPRMC,174925.0,A,4741.24616,N,12224.40599,W,003.25,217.2,131214,016.4,E,A*29
$GPGGA,174925.0,4741.24616,N,12224.40599,W,1,10,0.8,-4.3,M,-18.2,M,,*40
$GPVTG,217.2,T,200.7,M,003.25,N,0006.03,K,A*11
$GPGSA,A,3,29,18,15,26,05,13,22,16,21,27,,,1.6,0.8,1.4*3C
$HCHDG,201.6,0.0,E,,*2C
$YXXDR,A,5.8,D,PTCH,A,5.3,D,ROLL*56
$IIMTW,+09.0,C*31
$GPRMC,174925.1,A,4741.24612,N,12224.40603,W,003.21,217.5,131214,016.4,E,A*2F
$GPGGA,174925.1,4741.24612,N,12224.40603,W,1,10,0.8,-4.3,M,-18.2,M,,*45
$GPVTG,217.5,T,201.1,M,003.21,N,0005.95,K,A*19
$IIMWV,353,R,05.6,N,A*15
$GPGSV,3,1,10,29,45,143,33,18,48,212,38,15,33,120,36,26,28,072,37*74
$HCHDG,201.5,0.0,E,,*2F
$GPGSV,3,2,10,05,13,049,47,13,18,043,45,22,11,222,30,16,31,300,38*71
$GPGSV,3,3,10,21,72,296,34,27,11,313,39*7A
$YXXDR,A,5.8,D,PTCH,A,5.3,D,ROLL*56
$IIMWV,352,T,02.1,N,A*12
$GPRMC,174925.2,A,4741.24602,N,12224.40615,W,003.22,217.0,131214,016.4,E,A*2C
$GPGGA,174925.2,4741.24602,N,12224.40615,W,1,10,0.8,-4.3,M,-18.2,M,,*40
$GPVTG,217.0,T,200.6,M,003.22,N,0005.97,K,A*1B
$HCHDG,201.8,0.0,E,,*22
$YXXDR,A,5.8,D,PTCH,A,5.3,D,ROLL*56
$GPRMC,174925.3,A,4741.24605,N,12224.40619,W,003.19,217.5,131214,016.4,E,A*2B
$GPGGA,174925.3,4741.24605,N,12224.40619,W,1,10,0.8,-4.2,M,-18.2,M,,*4B
$GPVTG,217.5,T,201.0,M,003.19,N,0005.91,K,A*17
$HCHDG,201.7,0.0,E,,*2D
$YXXDR,A,5.8,D,PTCH,A,5.2,D,ROLL*57
$TIROT,29.3,A*03
$GPRMC,174925.4,A,4741.24598,N,12224.40627,W,003.20,217.2,131214,016.4,E,A*2B
$GPGGA,174925.4,4741.24598,N,12224.40627,W,1,10,0.8,-4.2,M,-18.2,M,,*46
$GPVTG,217.2,T,200.8,M,003.20,N,0005.93,K,A*11
$HCHDG,201.7,0.0,E,,*2D
$YXXDR,A,5.8,D,PTCH,A,5.2,D,ROLL*57
$GPRMC,174925.5,A,4741.24591,N,12224.40635,W,003.15,217.3,131214,016.4,E,A*27
$GPGGA,174925.5,4741.24591,N,12224.40635,W,1,10,0.8,-4.2,M,-18.2,M,,*4D
$GPVTG,217.3,T,200.9,M,003.15,N,0005.84,K,A*11
$HCHDG,201.7,0.0,E,,*2D
$YXXDR,A,5.8,D,PTCH,A,5.1,D,ROLL*54
$GPRMC,174925.6,A,4741.24584,N,12224.40643,W,003.17,218.0,131214,016.4,E,A*2F
$GPGGA,174925.6,4741.24584,N,12224.40643,W,1,10,0.8,-4.2,M,-18.2,M,,*4B
$GPVTG,218.0,T,201.6,M,003.17,N,0005.88,K,A*1D
$HCHDG,201.7,0.0,E,,*2D
$YXXDR,A,5.8,D,PTCH,A,5.2,D,ROLL*57
$GPRMC,174925.7,A,4741.24578,N,12224.40651,W,003.13,218.3,131214,016.4,E,A*29
$GPGGA,174925.7,4741.24578,N,12224.40651,W,1,10,0.8,-4.2,M,-18.2,M,,*4A
$GPVTG,218.3,T,201.8,M,003.13,N,0005.79,K,A*1A
$HCHDG,201.8,0.0,E,,*22
$YXXDR,A,5.8,D,PTCH,A,5.0,D,ROLL*55
$IIVHW,,,,,03.5,N,,*1F
$GPRMC,174925.8,A,4741.24571,N,12224.40659,W,003.15,217.9,131214,016.4,E,A*24
$GPGGA,174925.8,4741.24571,N,12224.40659,W,1,10,0.8,-4.3,M,-18.2,M,,*45
$GPVTG,217.9,T,201.5,M,003.15,N,0005.84,K,A*16
$IIVLW,07080,N,000.2,N*5E
$HCHDG,201.7,0.0,E,,*2D
$YXXDR,A,5.8,D,PTCH,A,5.0,D,ROLL*55
$GPRMC,174925.9,A,4741.24564,N,12224.40667,W,003.14,218.1,131214,016.4,E,A*2A
$GPGGA,174925.9,4741.24564,N,12224.40667,W,1,10,0.8,-4.3,M,-18.2,M,,*4D
$IIVWR,009,L,05.6,N,,,,*75
$GPVTG,218.1,T,201.7,M,003.14,N,0005.81,K,A*17
$HCHDG,201.9,0.0,E,,*23
$YXXDR,A,5.9,D,PTCH,A,4.9,D,ROLL*5C
$GPRMC,174926.0,A,4741.24557,N,12224.40675,W,003.16,218.0,131214,016.4,E,A*20
$GPGGA,174926.0,4741.24557,N,12224.40675,W,1,10,0.8,-4.3,M,-18.2,M,,*44
$GPVTG,218.0,T,201.6,M,003.16,N,0005.86,K,A*12
$GPGSA,A,3,29,18,15,26,05,13,22,16,21,27,,,1.6,0.8,1.4*3C
$HCHDG,201.9,0.0,E,,*23
$YXXDR,A,6.3,D,PTCH,A,4.7,D,ROLL*5B
$IIMTW,+09.0,C*31
$GPRMC,174926.1,A,4741.24554,N,12224.40679,W,003.17,218.1,131214,016.4,E,A*2E
$GPGGA,174926.1,4741.24554,N,12224.40679,W,1,10,0.8,-4.3,M,-18.2,M,,*4A
$GPVTG,218.1,T,201.7,M,003.17,N,0005.87,K,A*12
$IIMWV,351,R,05.6,N,A*17
$GPGSV,3,1,10,29,45,143,31,18,48,212,39,15,33,120,36,26,28,072,37*77
$HCHDG,202.3,0.0,E,,*2A
$GPGSV,3,2,10,05,13,049,47,13,18,043,45,22,11,222,30,16,31,300,38*71
$YXXDR,A,6.4,D,PTCH,A,4.5,D,ROLL*5E
$GPGSV,3,3,10,21,72,296,35,27,11,313,38*7A
$IIMWV,343,T,01.9,N,A*19
$GPRMC,174926.2,A,4741.24543,N,12224.40691,W,003.15,218.5,131214,016.4,E,A*2B
$GPGGA,174926.2,4741.24543,N,12224.40691,W,1,10,0.8,-4.3,M,-18.2,M,,*49
$GPVTG,218.5,T,202.0,M,003.15,N,0005.83,K,A*14
$HCHDG,202.1,0.0,E,,*28
$YXXDR,A,5.9,D,PTCH,A,4.6,D,ROLL*53
$GPRMC,174926.3,A,4741.24541,N,12224.40697,W,003.15,218.8,131214,016.4,E,A*23
$GPGGA,174926.3,4741.24541,N,12224.40697,W,1,10,0.8,-4.3,M,-18.2,M,,*4C
$GPVTG,218.8,T,202.4,M,003.15,N,0005.83,K,A*1D
$HCHDG,202.3,0.0,E,,*2A
$YXXDR,A,6.0,D,PTCH,A,4.6,D,ROLL*59
$TIROT,36.6,A*08
$GPRMC,174926.4,A,4741.24531,N,12224.40712,W,003.22,218.1,131214,016.4,E,A*22
$GPGGA,174926.4,4741.24531,N,12224.40712,W,1,10,0.8,-4.3,M,-18.2,M,,*40
$GPVTG,218.1,T,201.6,M,003.22,N,0005.96,K,A*15
$HCHDG,202.2,0.0,E,,*2B
$YXXDR,A,5.8,D,PTCH,A,4.6,D,ROLL*52
$GPRMC,174926.5,A,4741.24523,N,12224.40720,W,003.19,218.1,131214,016.4,E,A*29
$GPGGA,174926.5,4741.24523,N,12224.40720,W,1,10,0.8,-4.3,M,-18.2,M,,*43
$GPVTG,218.1,T,201.7,M,003.19,N,0005.92,K,A*18
$HCHDG,202.3,0.0,E,,*2A
$YXXDR,A,5.8,D,PTCH,A,4.8,D,ROLL*5C
$GPRMC,174926.6,A,4741.24520,N,12224.40724,W,003.19,217.9,131214,016.4,E,A*2A
$GPGGA,174926.6,4741.24520,N,12224.40724,W,1,10,0.8,-4.3,M,-18.2,M,,*47
$GPVTG,217.9,T,201.4,M,003.19,N,0005.91,K,A*1F
$HCHDG,202.3,0.0,E,,*2A
$YXXDR,A,5.8,D,PTCH,A,4.8,D,ROLL*5C
$GPRMC,174926.7,A,4741.24510,N,12224.40736,W,003.17,218.4,131214,016.4,E,A*27
$GPGGA,174926.7,4741.24510,N,12224.40736,W,1,10,0.8,-4.3,M,-18.2,M,,*46
$GPVTG,218.4,T,202.0,M,003.17,N,0005.87,K,A*13
$HCHDG,202.3,0.0,E,,*2A
$YXXDR,A,5.8,D,PTCH,A,5.0,D,ROLL*55
$IIVHW,,,,,03.5,N,,*1F
$GPRMC,174926.8,A,4741.24503,N,12224.40744,W,003.19,218.4,131214,016.4,E,A*21
$GPGGA,174926.8,4741.24503,N,12224.40744,W,1,10,0.8,-4.3,M,-18.2,M,,*4E
$GPVTG,218.4,T,201.9,M,003.19,N,0005.91,K,A*10
$IIVLW,07080,N,000.2,N*5E
$HCHDG,202.3,0.0,E,,*2A
$YXXDR,A,5.8,D,PTCH,A,5.0,D,ROLL*55
$IIVWR,009,L,05.6,N,,,,*75
$GPRMC,174926.9,A,4741.24496,N,12224.40752,W,003.17,218.2,131214,016.4,E,A*22
$GPGGA,174926.9,4741.24496,N,12224.40752,W,1,10,0.8,-4.3,M,-18.2,M,,*45
$GPVTG,218.2,T,201.8,M,003.17,N,0005.87,K,A*1E
$HCHDG,202.3,0.0,E,,*2A
$YXXDR,A,5.8,D,PTCH,A,5.0,D,ROLL*55
$GPRMC,174927.0,A,4741.24493,N,12224.40756,W,003.16,218.4,131214,016.4,E,A*2C
$GPGGA,174927.0,4741.24493,N,12224.40756,W,1,10,0.8,-4.3,M,-18.2,M,,*4C
$GPVTG,218.4,T,202.0,M,003.16,N,0005.84,K,A*11
$GPGSA,A,3,29,18,15,26,05,13,22,16,21,27,,,1.6,0.8,1.4*3C
$HCHDG,202.3,0.0,E,,*2A
$YXXDR,A,5.8,D,PTCH,A,5.0,D,ROLL*55
$IIMTW,+08.5,C*35
$GPRMC,174927.1,A,4741.24489,N,12224.40760,W,003.15,218.4,131214,016.4,E,A*20
$GPGGA,174927.1,4741.24489,N,12224.40760,W,1,10,0.8,-4.3,M,-18.2,M,,*43
$IIMWV,351,R,05.6,N,A*17
$GPVTG,218.4,T,202.0,M,003.15,N,0005.83,K,A*15
$GPGSV,3,1,10,29,45,143,33,18,48,212,39,15,33,120,36,26,28,072,38*7A
$HCHDG,202.3,0.0,E,,*2A
$GPGSV,3,2,10,05,13,049,47,13,18,043,44,22,11,222,30,16,31,300,38*70
$YXXDR,A,5.8,D,PTCH,A,5.0,D,ROLL*55
$IIMWV,337,T,02.0,N,A*10
$GPGSV,3,3,10,21,72,296,35,27,11,313,39*7B
$GPRMC,174927.2,A,4741.24486,N,12224.40764,W,003.14,218.7,131214,016.4,E,A*2A
$GPGGA,174927.2,4741.24486,N,12224.40764,W,1,10,0.8,-4.3,M,-18.2,M,,*4B
$GPVTG,218.7,T,202.3,M,003.14,N,0005.81,K,A*16
$HCHDG,202.4,0.0,E,,*2D
$YXXDR,A,6.1,D,PTCH,A,5.1,D,ROLL*5E
$GPRMC,174927.3,A,4741.24484,N,12224.40769,W,003.11,219.7,131214,016.4,E,A*20
$GPGGA,174927.3,4741.24484,N,12224.40769,W,1,10,0.8,-4.3,M,-18.2,M,,*45
$GPVTG,219.7,T,203.2,M,003.11,N,0005.76,K,A*1A
$HCHDG,202.5,0.0,E,,*2C
$YXXDR,A,6.2,D,PTCH,A,5.0,D,ROLL*5C
$TIROT,46.3,A*0A
$GPRMC,174927.4,A,4741.24471,N,12224.40794,W,003.14,219.5,131214,016.4,E,A*28
$GPGGA,174927.4,4741.24471,N,12224.40794,W,1,10,0.8,-4.3,M,-18.2,M,,*4A
$GPVTG,219.5,T,203.1,M,003.14,N,0005.81,K,A*16
$HCHDG,202.6,0.0,E,,*2F
$YXXDR,A,6.2,D,PTCH,A,4.7,D,ROLL*5A
$GPRMC,174927.5,A,4741.24464,N,12224.40803,W,003.11,220.2,131214,016.4,E,A*24
$GPGGA,174927.5,4741.24464,N,12224.40803,W,1,10,0.8,-4.3,M,-18.2,M,,*4E
$GPVTG,220.2,T,203.7,M,003.11,N,0005.75,K,A*13
$HCHDG,202.6,0.0,E,,*2F
$YXXDR,A,6.1,D,PTCH,A,4.6,D,ROLL*58
$GPRMC,174927.6,A,4741.24461,N,12224.40807,W,003.09,219.9,131214,016.4,E,A*2E
$GPGGA,174927.6,4741.24461,N,12224.40807,W,1,10,0.8,-4.3,M,-18.2,M,,*4C
$GPVTG,219.9,T,203.4,M,003.09,N,0005.73,K,A*1E
$HCHDG,202.9,0.0,E,,*20
$YXXDR,A,6.1,D,PTCH,A,4.5,D,ROLL*5B
$GPRMC,174927.7,A,4741.24458,N,12224.40811,W,003.10,220.1,131214,016.4,E,A*28
$GPGGA,174927.7,4741.24458,N,12224.40811,W,1,10,0.8,-4.3,M,-18.2,M,,*40
$GPVTG,220.1,T,203.6,M,003.10,N,0005.74,K,A*11
$HCHDG,203.0,0.0,E,,*28
$YXXDR,A,6.2,D,PTCH,A,4.6,D,ROLL*5B
$IIVHW,,,,,03.5,N,,*1F
$GPRMC,174927.8,A,4741.24455,N,12224.40815,W,003.11,220.8,131214,016.4,E,A*26
$GPGGA,174927.8,4741.24455,N,12224.40815,W,1,10,0.8,-4.3,M,-18.2,M,,*46
$GPVTG,220.8,T,204.4,M,003.11,N,0005.75,K,A*1D
$IIVLW,07080,N,000.2,N*5E
$HCHDG,203.0,0.0,E,,*28
$YXXDR,A,6.2,D,PTCH,A,4.7,D,ROLL*5A
$IIVWR,009,L,05.6,N,,,,*75
$GPRMC,174927.9,A,4741.24451,N,12224.40819,W,003.10,221.1,131214,016.4,E,A*26
$GPGGA,174927.9,4741.24451,N,12224.40819,W,1,10,0.8,-4.4,M,-18.2,M,,*48
$GPVTG,221.1,T,204.7,M,003.10,N,0005.74,K,A*16
$HCHDG,203.1,0.0,E,,*29
$YXXDR,A,6.2,D,PTCH,A,4.8,D,ROLL*55
$GPRMC,174928.0,A,4741.24445,N,12224.40827,W,003.10,221.5,131214,016.4,E,A*2C
$GPGGA,174928.0,4741.24445,N,12224.40827,W,1,10,0.8,-4.4,M,-18.2,M,,*46
$GPVTG,221.5,T,205.0,M,003.10,N,0005.75,K,A*15
$GPGSA,A,3,29,18,15,26,05,13,22,16,21,27,,,1.6,0.8,1.4*3C
$HCHDG,203.2,0.0,E,,*2A
$IIMTW,+09.0,C*31
$YXXDR,A,6.3,D,PTCH,A,5.8,D,ROLL*55
$GPRMC,174928.1,A,4741.24425,N,12224.40853,W,003.13,220.7,131214,016.4,E,A*28
$GPGGA,174928.1,4741.24425,N,12224.40853,W,1,10,0.8,-4.4,M,-18.2,M,,*42
$IIMWV,351,R,05.6,N,A*17
$GPVTG,220.7,T,204.2,M,003.13,N,0005.79,K,A*1A
$HCHDG,203.1,0.0,E,,*29
$GPGSV,3,1,10,29,45,143,32,18,48,212,39,15,33,120,36,26,28,072,38*7B
$YXXDR,A,6.3,D,PTCH,A,5.8,D,ROLL*55
$GPGSV,3,2,10,05,13,049,47,13,18,043,44,22,11,222,30,16,31,300,38*70
$GPGSV,3,3,10,21,72,296,35,27,11,313,39*7B
$IIMWV,337,T,02.0,N,A*10
$GPRMC,174928.2,A,4741.24422,N,12224.40857,W,003.15,220.7,131214,016.4,E,A*2E
$GPGGA,174928.2,4741.24422,N,12224.40857,W,1,10,0.8,-4.4,M,-18.2,M,,*42
$GPVTG,220.7,T,204.3,M,003.15,N,0005.84,K,A*1F
$HCHDG,203.0,0.0,E,,*28
$YXXDR,A,6.2,D,PTCH,A,5.6,D,ROLL*5A
$GPRMC,174928.3,A,4741.24419,N,12224.40859,W,003.16,220.6,131214,016.4,E,A*2B
$GPGGA,174928.3,4741.24419,N,12224.40859,W,1,10,0.8,-4.4,M,-18.2,M,,*45
$GPVTG,220.6,T,204.2,M,003.16,N,0005.85,K,A*1D
$HCHDG,203.0,0.0,E,,*28
$YXXDR,A,6.2,D,PTCH,A,5.6,D,ROLL*5A
$TIROT,45.1,A*0B
$GPRMC,174928.4,A,4741.24416,N,12224.40862,W,003.15,220.5,131214,016.4,E,A*2B
$GPGGA,174928.4,4741.24416,N,12224.40862,W,1,10,0.8,-4.4,M,-18.2,M,,*45
$GPVTG,220.5,T,204.1,M,003.15,N,0005.83,K,A*18
$HCHDG,203.1,0.0,E,,*29
$GPRMC,174928.5,A,4741.24412,N,12224.40866,W,003.14,220.4,131214,016.4,E,A*2A
$YXXDR,A,6.1,D,PTCH,A,5.5,D,ROLL*5A
$GPGGA,174928.5,4741.24412,N,12224.40866,W,1,10,0.8,-4.4,M,-18.2,M,,*44
$GPVTG,220.4,T,203.9,M,003.14,N,0005.82,K,A*16
$HCHDG,203.1,0.0,E,,*29
$GPRMC,174928.6,A,4741.24406,N,12224.40873,W,003.15,220.4,131214,016.4,E,A*29
$YXXDR,A,6.2,D,PTCH,A,5.6,D,ROLL*5A
$GPGGA,174928.6,4741.24406,N,12224.40873,W,1,10,0.8,-4.4,M,-18.2,M,,*46
$GPVTG,220.4,T,203.9,M,003.15,N,0005.84,K,A*11
$HCHDG,203.2,0.0,E,,*2A
$GPRMC,174928.7,A,4741.24399,N,12224.40880,W,003.18,219.6,131214,016.4,E,A*20
$YXXDR,A,6.1,D,PTCH,A,5.3,D,ROLL*5C
$GPGGA,174928.7,4741.24399,N,12224.40880,W,1,10,0.8,-4.4,M,-18.2,M,,*4A
$GPVTG,219.6,T,203.1,M,003.18,N,0005.89,K,A*11
$HCHDG,203.2,0.0,E,,*2A
$GPRMC,174928.8,A,4741.24379,N,12224.40904,W,003.16,219.5,131214,016.4,E,A*21
$YXXDR,A,6.1,D,PTCH,A,5.3,D,ROLL*5C
$GPGGA,174928.8,4741.24379,N,12224.40904,W,1,10,0.8,-4.5,M,-18.2,M,,*47
$GPVTG,219.5,T,203.1,M,003.16,N,0005.86,K,A*13
$HCHDG,203.3,0.0,E,,*2B
$GPRMC,174928.9,A,4741.24376,N,12224.40908,W,003.15,219.2,131214,016.4,E,A*27
$YXXDR,A,6.1,D,PTCH,A,5.3,D,ROLL*5C
$GPGGA,174928.9,4741.24376,N,12224.40908,W,1,10,0.8,-4.5,M,-18.2,M,,*45
$GPVTG,219.2,T,202.8,M,003.15,N,0005.82,K,A*1B
$HCHDG,203.4,0.0,E,,*2C
$GPRMC,174929.0,A,4741.24366,N,12224.40921,W,003.17,220.0,131214,016.4,E,A*2F
$YXXDR,A,6.1,D,PTCH,A,5.3,D,ROLL*5C
$GPGGA,174929.0,4741.24366,N,12224.40921,W,1,10,0.8,-4.5,M,-18.2,M,,*47
$GPVTG,220.0,T,203.6,M,003.17,N,0005.87,K,A*1B
$GPGSA,A,3,29,18,15,26,05,13,22,16,21,27,,,1.6,0.8,1.4*3C
$HCHDG,203.4,0.0,E,,*2C
$GPRMC,174929.1,A,4741.24359,N,12224.40930,W,003.13,219.9,131214,016.4,E,A*25
$YXXDR,A,6.1,D,PTCH,A,5.3,D,ROLL*5C
$GPGGA,174929.1,4741.24359,N,12224.40930,W,1,10,0.8,-4.5,M,-18.2,M,,*4A
$GPVTG,219.9,T,203.4,M,003.13,N,0005.80,K,A*19
$GPGSV,3,1,10,29,45,143,33,18,48,212,40,15,33,120,36,26,28,072,39*75
$GPGSV,3,2,10,05,13,049,47,13,18,043,44,22,11,222,31,16,31,300,38*71
$GPGSV,3,3,10,21,72,296,35,27,11,313,39*7B
$HCHDG,203.5,0.0,E,,*2D
$GPRMC,174929.2,A,4741.24353,N,12224.40938,W,003.14,220.2,131214,016.4,E,A*22
$YXXDR,A,6.1,D,PTCH,A,5.3,D,ROLL*5C
$GPGGA,174929.2,4741.24353,N,12224.40938,W,1,10,0.8,-4.5,M,-18.2,M,,*4B
$GPVTG,220.2,T,203.8,M,003.14,N,0005.81,K,A*12
$HCHDG,203.4,0.0,E,,*2C
$GPRMC,174929.3,A,4741.24350,N,12224.40937,W,003.14,219.8,131214,016.4,E,A*2F
$YXXDR,A,5.9,D,PTCH,A,5.2,D,ROLL*56
$GPGGA,174929.3,4741.24350,N,12224.40937,W,1,10,0.8,-4.5,M,-18.2,M,,*46
$GPVTG,219.8,T,203.4,M,003.14,N,0005.81,K,A*1E
$HCHDG,203.4,0.0,E,,*2C
$GPRMC,174929.4,A,4741.24346,N,12224.40939,W,003.13,219.6,131214,016.4,E,A*28
$GPGGA,174929.4,4741.24346,N,12224.40939,W,1,10,0.8,-4.5,M,-18.2,M,,*48
$YXXDR,A,6.1,D,PTCH,A,5.0,D,ROLL*5F
$TIROT,36.8,A*06
$GPVTG,219.6,T,203.2,M,003.13,N,0005.80,K,A*10
$HCHDG,203.5,0.0,E,,*2D
$GPRMC,174929.5,A,4741.24343,N,12224.40942,W,003.13,220.2,131214,016.4,E,A*2E
$YXXDR,A,6.1,D,PTCH,A,5.0,D,ROLL*5F
$GPGGA,174929.5,4741.24343,N,12224.40942,W,1,10,0.8,-4.5,M,-18.2,M,,*40
$GPVTG,220.2,T,203.8,M,003.13,N,0005.79,K,A*12
$HCHDG,203.6,0.0,E,,*2E
$GPRMC,174929.6,A,4741.24340,N,12224.40946,W,003.14,220.5,131214,016.4,E,A*2A
$YXXDR,A,6.1,D,PTCH,A,5.1,D,ROLL*5E
$GPGGA,174929.6,4741.24340,N,12224.40946,W,1,10,0.8,-4.5,M,-18.2,M,,*44
$GPVTG,220.5,T,204.1,M,003.14,N,0005.81,K,A*1B
$HCHDG,203.6,0.0,E,,*2E
$GPRMC,174929.7,A,4741.24333,N,12224.40952,W,003.13,220.6,131214,016.4,E,A*2E
$YXXDR,A,6.1,D,PTCH,A,5.0,D,ROLL*5F
$GPGGA,174929.7,4741.24333,N,12224.40952,W,1,10,0.8,-4.5,M,-18.2,M,,*44
$GPVTG,220.6,T,204.1,M,003.13,N,0005.79,K,A*18
$HCHDG,203.6,0.0,E,,*2E
$GPRMC,174929.8,A,4741.24327,N,12224.40960,W,003.11,221.1,131214,016.4,E,A*21
$GPGGA,174929.8,4741.24327,N,12224.40960,W,1,10,0.8,-4.6,M,-18.2,M,,*4C
$GPVTG,221.1,T,204.6,M,003.11,N,0005.77,K,A*15
$IIVHW,,,,,03.6,N,,*1C
$IIVLW,07080,N,000.2,N*5E
$YXXDR,A,6.1,D,PTCH,A,5.3,D,ROLL*5C
$HCHDG,203.8,0.0,E,,*20
$YXXDR,A,6.0,D,PTCH,A,5.2,D,ROLL*5C
$GPRMC,174929.9,A,4741.24320,N,12224.40969,W,003.12,221.3,131214,016.4,E,A*2F
$IIVWR,009,L,05.5,N,,,,*76
$GPGGA,174929.9,4741.24320,N,12224.40969,W,1,10,0.8,-4.6,M,-18.2,M,,*43
$GPVTG,221.3,T,204.8,M,003.12,N,0005.78,K,A*15
$HCHDG,203.8,0.0,E,,*20
$GPRMC,174930.0,A,4741.24314,N,12224.40977,W,003.11,221.2,131214,016.4,E,A*24
$YXXDR,A,5.9,D,PTCH,A,5.4,D,ROLL*50
$GPGGA,174930.0,4741.24314,N,12224.40977,W,1,10,0.8,-4.6,M,-18.2,M,,*4A
$GPVTG,221.2,T,204.7,M,003.11,N,0005.76,K,A*16
$GPGSA,A,3,29,18,15,26,05,13,22,16,21,27,,,1.6,0.8,1.4*3C
$HCHDG,203.9,0.0,E,,*21
$IIMTW,+09.0,C*31
$YXXDR,A,5.9,D,PTCH,A,5.4,D,ROLL*50
$GPRMC,174930.1,A,4741.24308,N,12224.40986,W,003.11,221.4,131214,016.4,E,A*20
$GPGGA,174930.1,4741.24308,N,12224.40986,W,1,10,0.8,-4.6,M,-18.2,M,,*48
$GPVTG,221.4,T,204.9,M,003.11,N,0005.76,K,A*1E
$IIMWV,351,R,05.5,N,A*14
$GPGSV,3,1,10,29,45,143,34,18,48,212,40,15,33,120,37,26,28,072,39*73
$GPGSV,3,2,10,05,13,049,47,13,18,043,44,22,11,222,30,16,31,300,38*70
$HCHDG,203.8,0.0,E,,*20
$GPGSV,3,3,10,21,72,296,35,27,11,313,39*7B
$GPRMC,174930.2,A,4741.24301,N,12224.40994,W,003.10,221.1,131214,016.4,E,A*2D
$YXXDR,A,6.0,D,PTCH,A,5.4,D,ROLL*5A
$IIMWV,337,T,02.0,N,A*10
$GPGGA,174930.2,4741.24301,N,12224.40994,W,1,10,0.8,-4.6,M,-18.2,M,,*41
$GPVTG,221.1,T,204.6,M,003.10,N,0005.74,K,A*17
$HCHDG,203.8,0.0,E,,*20
$YXXDR,A,6.0,D,PTCH,A,5.4,D,ROLL*5A
$GPRMC,174930.3,A,4741.24295,N,12224.41003,W,003.09,222.6,131214,016.4,E,A*2A
$GPGGA,174930.3,4741.24295,N,12224.41003,W,1,10,0.8,-4.7,M,-18.2,M,,*4B
$GPVTG,222.6,T,206.1,M,003.09,N,0005.72,K,A*18
$HCHDG,203.8,0.0,E,,*20
$YXXDR,A,6.0,D,PTCH,A,5.4,D,ROLL*5A
$TIROT,37.6,A*09
$GPRMC,174930.4,A,4741.24275,N,12224.41031,W,003.12,221.6,131214,016.4,E,A*2B
$GPGGA,174930.4,4741.24275,N,12224.41031,W,1,10,0.8,-4.7,M,-18.2,M,,*43
$GPVTG,221.6,T,205.1,M,003.12,N,0005.78,K,A*18
$HCHDG,204.0,0.0,E,,*2F
$YXXDR,A,6.1,D,PTCH,A,5.3,D,ROLL*5C
$GPRMC,174930.5,A,4741.24269,N,12224.41039,W,003.11,222.0,131214,016.4,E,A*29
$GPGGA,174930.5,4741.24269,N,12224.41039,W,1,10,0.8,-4.7,M,-18.2,M,,*47
$GPVTG,222.0,T,205.6,M,003.11,N,0005.76,K,A*17
$HCHDG,204.1,0.0,E,,*2E
$YXXDR,A,6.4,D,PTCH,A,5.2,D,ROLL*58
$GPRMC,174930.6,A,4741.24265,N,12224.41043,W,003.12,222.2,131214,016.4,E,A*2A
$GPGGA,174930.6,4741.24265,N,12224.41043,W,1,10,0.8,-4.7,M,-18.2,M,,*45
$GPVTG,222.2,T,205.8,M,003.12,N,0005.77,K,A*19
$HCHDG,204.0,0.0,E,,*2F
$GPRMC,174930.7,A,4741.24262,N,12224.41048,W,003.13,221.6,131214,016.4,E,A*21
$YXXDR,A,6.3,D,PTCH,A,5.2,D,ROLL*5F
$GPGGA,174930.7,4741.24262,N,12224.41048,W,1,10,0.8,-4.7,M,-18.2,M,,*48
$GPVTG,221.6,T,205.2,M,003.13,N,0005.79,K,A*1B
$HCHDG,204.1,0.0,E,,*2E
$GPRMC,174930.8,A,4741.24259,N,12224.41052,W,003.12,221.7,131214,016.4,E,A*2D
$IIVHW,,,,,03.6,N,,*1C
$YXXDR,A,6.3,D,PTCH,A,5.2,D,ROLL*5F
$GPGGA,174930.8,4741.24259,N,12224.41052,W,1,10,0.8,-4.7,M,-18.2,M,,*44
$GPVTG,221.7,T,205.2,M,003.12,N,0005.77,K,A*15
$IIVLW,07080,N,000.2,N*5E
$HCHDG,204.1,0.0,E,,*2E
$GPRMC,174930.9,A,4741.24242,N,12224.41073,W,003.13,221.0,131214,016.4,E,A*23
$YXXDR,A,6.2,D,PTCH,A,5.3,D,ROLL*5F
$IIVWR,010,L,05.4,N,,,,*7F
$GPGGA,174930.9,4741.24242,N,12224.41073,W,1,10,0.8,-4.7,M,-18.2,M,,*4C
$GPVTG,221.0,T,204.6,M,003.13,N,0005.80,K,A*1E
$HCHDG,204.1,0.0,E,,*2E
$GPRMC,174931.0,A,4741.24236,N,12224.41082,W,003.11,222.1,131214,016.4,E,A*26
$YXXDR,A,6.2,D,PTCH,A,5.3,D,ROLL*5F
$GPGGA,174931.0,4741.24236,N,12224.41082,W,1,10,0.8,-4.7,M,-18.2,M,,*49
$GPVTG,222.1,T,205.7,M,003.11,N,0005.76,K,A*17
$GPGSA,A,3,29,18,15,26,05,13,22,16,21,27,,,1.6,0.8,1.4*3C
$HCHDG,204.1,0.0,E,,*2E
$IIMTW,+09.0,C*31
$YXXDR,A,6.2,D,PTCH,A,5.3,D,ROLL*5F
$GPRMC,174931.1,A,4741.24230,N,12224.41090,W,003.16,221.7,131214,016.4,E,A*20
$GPGGA,174931.1,4741.24230,N,12224.41090,W,1,10,0.8,-4.7,M,-18.2,M,,*4D
$GPVTG,221.7,T,205.2,M,003.16,N,0005.84,K,A*1D
$GPGSV,3,1,10,29,45,143,34,18,48,212,39,15,33,120,37,26,28,072,40*73
$IIMWV,350,R,05.4,N,A*14
$GPGSV,3,2,10,05,13,049,47,13,18,043,44,22,11,222,29,16,31,300,39*79
$GPGSV,3,3,10,21,72,296,35,27,11,313,39*7B
$HCHDG,204.2,0.0,E,,*2D
$GPRMC,174931.2,A,4741.24223,N,12224.41099,W,003.15,221.4,131214,016.4,E,A*28
$YXXDR,A,6.3,D,PTCH,A,5.1,D,ROLL*5C
$IIMWV,331,T,01.8,N,A*1D
$GPGGA,174931.2,4741.24223,N,12224.41099,W,1,10,0.8,-4.7,M,-18.2,M,,*45
$GPVTG,221.4,T,204.9,M,003.15,N,0005.83,K,A*10
$HCHDG,204.4,0.0,E,,*2B
$YXXDR,A,6.1,D,PTCH,A,5.2,D,ROLL*5D
$GPRMC,174931.3,A,4741.24220,N,12224.41109,W,003.15,221.1,131214,016.4,E,A*27
$GPGGA,174931.3,4741.24220,N,12224.41109,W,1,10,0.8,-4.8,M,-18.2,M,,*40
$GPVTG,221.1,T,204.7,M,003.15,N,0005.83,K,A*1B
$HCHDG,204.5,0.0,E,,*2A
$GPRMC,174931.4,A,4741.24217,N,12224.41115,W,003.14,221.4,131214,016.4,E,A*2D
$YXXDR,A,6.1,D,PTCH,A,5.2,D,ROLL*5D
$TIROT,29.3,A*03
$GPGGA,174931.4,4741.24217,N,12224.41115,W,1,10,0.8,-4.8,M,-18.2,M,,*4E
$GPVTG,221.4,T,205.0,M,003.14,N,0005.81,K,A*1B
$HCHDG,204.5,0.0,E,,*2A
$YXXDR,A,6.1,D,PTCH,A,5.1,D,ROLL*5E
$GPRMC,174931.5,A,4741.24204,N,12224.41136,W,003.15,220.9,131214,016.4,E,A*22
$GPGGA,174931.5,4741.24204,N,12224.41136,W,1,10,0.8,-4.8,M,-18.2,M,,*4C
$GPVTG,220.9,T,204.5,M,003.15,N,0005.83,K,A*10
$HCHDG,204.4,0.0,E,,*2B
$YXXDR,A,6.3,D,PTCH,A,5.1,D,ROLL*5C
$GPRMC,174931.6,A,4741.24198,N,12224.41144,W,003.13,221.4,131214,016.4,E,A*28
$GPGGA,174931.6,4741.24198,N,12224.41144,W,1,10,0.8,-4.8,M,-18.2,M,,*4C
$GPVTG,221.4,T,205.0,M,003.13,N,0005.80,K,A*1D
$HCHDG,204.4,0.0,E,,*2B
$YXXDR,A,5.9,D,PTCH,A,5.0,D,ROLL*54
$GPRMC,174931.7,A,4741.24191,N,12224.41153,W,003.16,220.6,131214,016.4,E,A*20
$GPGGA,174931.7,4741.24191,N,12224.41153,W,1,10,0.8,-4.8,M,-18.2,M,,*42
$GPVTG,220.6,T,204.2,M,003.16,N,0005.86,K,A*1E
$HCHDG,204.4,0.0,E,,*2B
$IIVHW,,,,,03.5,N,,*1F
$GPRMC,174931.8,A,4741.24184,N,12224.41161,W,003.13,221.6,131214,016.4,E,A*2E
$YXXDR,A,6.1,D,PTCH,A,5.1,D,ROLL*5E
$GPGGA,174931.8,4741.24184,N,12224.41161,W,1,10,0.8,-4.8,M,-18.2,M,,*48
$GPVTG,221.6,T,205.1,M,003.13,N,0005.80,K,A*1E
$IIVLW,07080,N,000.2,N*5E
$HCHDG,204.5,0.0,E,,*2A
$YXXDR,A,6.3,D,PTCH,A,5.0,D,ROLL*5D
$GPRMC,174931.9,A,4741.24178,N,12224.41170,W,003.17,220.2,131214,016.4,E,A*2D
$IIVWR,009,L,05.2,N,,,,*71
$GPGGA,174931.9,4741.24178,N,12224.41170,W,1,10,0.8,-4.8,M,-18.2,M,,*4A
$GPVTG,220.2,T,203.8,M,003.17,N,0005.86,K,A*16
$HCHDG,204.5,0.0,E,,*2A
$YXXDR,A,6.3,D,PTCH,A,5.0,D,ROLL*5D
$GPRMC,174932.0,A,4741.24171,N,12224.41178,W,003.14,221.4,131214,016.4,E,A*22
$GPGGA,174932.0,4741.24171,N,12224.41178,W,1,10,0.8,-4.8,M,-18.2,M,,*41
$GPVTG,221.4,T,205.0,M,003.14,N,0005.82,K,A*18
$GPGSA,A,3,29,18,15,26,05,13,22,16,21,27,,,1.6,0.8,1.4*3C
$HCHDG,204.7,0.0,E,,*28
$IIMTW,+09.0,C*31
$YXXDR,A,6.3,D,PTCH,A,5.0,D,ROLL*5D
$GPRMC,174932.1,A,4741.24165,N,12224.41187,W,003.16,220.7,131214,016.4,E,A*26
$GPGGA,174932.1,4741.24165,N,12224.41187,W,1,10,0.8,-4.8,M,-18.2,M,,*45
$GPVTG,220.7,T,204.3,M,003.16,N,0005.86,K,A*1E
$IIMWV,351,R,05.2,N,A*13
$GPGSV,3,1,10,29,45,143,34,18,48,212,40,15,33,120,38,26,28,072,40*72
$HCHDG,205.0,0.0,E,,*2E
$GPGSV,3,2,10,05,13,049,47,13,18,043,44,22,11,222,29,16,31,300,38*78
$GPGSV,3,3,10,21,72,296,35,27,11,313,39*7B
$YXXDR,A,6.3,D,PTCH,A,5.0,D,ROLL*5D
$IIMWV,331,T,01.8,N,A*1D
$GPRMC,174932.2,A,4741.24158,N,12224.41196,W,003.15,221.8,131214,016.4,E,A*26
$GPGGA,174932.2,4741.24158,N,12224.41196,W,1,10,0.8,-4.8,M,-18.2,M,,*48
$GPVTG,221.8,T,205.4,M,003.15,N,0005.84,K,A*17
$HCHDG,204.9,0.0,E,,*26
$YXXDR,A,6.0,D,PTCH,A,5.0,D,ROLL*5E
$GPRMC,174932.3,A,4741.24157,N,12224.41201,W,003.15,221.5,131214,016.4,E,A*28
$GPGGA,174932.3,4741.24157,N,12224.41201,W,1,10,0.8,-4.8,M,-18.2,M,,*4B
$GPVTG,221.5,T,205.0,M,003.15,N,0005.83,K,A*19
$HCHDG,205.0,0.0,E,,*2E
$YXXDR,A,6.0,D,PTCH,A,5.0,D,ROLL*5E
$TIROT,44.2,A*09
$GPRMC,174932.4,A,4741.24154,N,12224.41206,W,003.13,221.9,131214,016.4,E,A*21
$GPGGA,174932.4,4741.24154,N,12224.41206,W,1,10,0.8,-4.8,M,-18.2,M,,*48
$GPVTG,221.9,T,205.5,M,003.13,N,0005.80,K,A*15
$HCHDG,205.0,0.0,E,,*2E
$YXXDR,A,5.9,D,PTCH,A,5.0,D,ROLL*54
$GPRMC,174932.5,A,4741.24143,N,12224.41224,W,003.08,221.6,131214,016.4,E,A*23
$GPGGA,174932.5,4741.24143,N,12224.41224,W,1,10,0.8,-4.8,M,-18.2,M,,*4F
$GPVTG,221.6,T,205.1,M,003.08,N,0005.71,K,A*1A
$HCHDG,205.0,0.0,E,,*2E
$YXXDR,A,5.9,D,PTCH,A,5.2,D,ROLL*56
$GPRMC,174932.6,A,4741.24137,N,12224.41232,W,003.08,222.2,131214,016.4,E,A*23
$GPGGA,174932.6,4741.24137,N,12224.41232,W,1,10,0.8,-4.8,M,-18.2,M,,*48
$GPVTG,222.2,T,205.8,M,003.08,N,0005.70,K,A*15
$HCHDG,204.9,0.0,E,,*26
$YXXDR,A,6.0,D,PTCH,A,5.2,D,ROLL*5C
$GPRMC,174932.7,A,4741.24134,N,12224.41237,W,003.06,222.6,131214,016.4,E,A*2E
$GPGGA,174932.7,4741.24134,N,12224.41237,W,1,10,0.8,-4.8,M,-18.2,M,,*4F
$GPVTG,222.6,T,206.2,M,003.06,N,0005.67,K,A*10
$HCHDG,205.0,0.0,E,,*2E
$YXXDR,A,5.8,D,PTCH,A,5.3,D,ROLL*56
$IIVHW,,,,,03.6,N,,*1C
$GPRMC,174932.8,A,4741.24124,N,12224.41249,W,003.09,221.9,131214,016.4,E,A*2A
$GPGGA,174932.8,4741.24124,N,12224.41249,W,1,10,0.8,-4.8,M,-18.2,M,,*48
$GPVTG,221.9,T,205.5,M,003.09,N,0005.72,K,A*13
$IIVLW,07080,N,000.2,N*5E
$HCHDG,205.0,0.0,E,,*2E
$YXXDR,A,5.8,D,PTCH,A,5.3,D,ROLL*56
$GPRMC,174932.9,A,4741.24121,N,12224.41254,W,003.13,221.7,131214,016.4,E,A*27
$IIVWR,008,L,05.3,N,,,,*71
$GPGGA,174932.9,4741.24121,N,12224.41254,W,1,10,0.8,-4.8,M,-18.2,M,,*40
$GPVTG,221.7,T,205.2,M,003.13,N,0005.80,K,A*1C
$HCHDG,205.1,0.0,E,,*2F
$YXXDR,A,5.8,D,PTCH,A,5.3,D,ROLL*56
$GPRMC,174933.0,A,4741.24112,N,12224.41267,W,003.11,221.7,131214,016.4,E,A*2D
$GPGGA,174933.0,4741.24112,N,12224.41267,W,1,10,0.8,-4.9,M,-18.2,M,,*49
$GPVTG,221.7,T,205.3,M,003.11,N,0005.75,K,A*15
$GPGSA,A,3,29,18,15,26,05,13,22,16,21,27,,,1.6,0.8,1.4*3C
$HCHDG,205.1,0.0,E,,*2F
$YXXDR,A,5.8,D,PTCH,A,5.3,D,ROLL*56
$IIMTW,+09.0,C*31
$GPRMC,174933.1,A,4741.24105,N,12224.41276,W,003.12,221.5,131214,016.4,E,A*2B
$GPGGA,174933.1,4741.24105,N,12224.41276,W,1,10,0.8,-4.9,M,-18.2,M,,*4E
$GPVTG,221.5,T,205.0,M,003.12,N,0005.79,K,A*1B
$IIMWV,352,R,05.3,N,A*11
$GPGSV,3,1,10,29,45,143,34,18,48,212,40,15,33,120,39,26,28,072,40*73
$HCHDG,205.2,0.0,E,,*2C
$GPGSV,3,2,10,05,13,049,46,13,18,042,44,22,11,222,28,16,31,300,38*79
$GPGSV,3,3,10,21,72,296,35,27,11,313,38*7A
$YXXDR,A,6.0,D,PTCH,A,5.2,D,ROLL*5C
$IIMWV,332,T,01.7,N,A*11
$GPRMC,174933.2,A,4741.24102,N,12224.41280,W,003.12,221.2,131214,016.4,E,A*21
$GPGGA,174933.2,4741.24102,N,12224.41280,W,1,10,0.8,-4.9,M,-18.2,M,,*43
$GPVTG,221.2,T,204.8,M,003.12,N,0005.78,K,A*14
$HCHDG,205.1,0.0,E,,*2F
$YXXDR,A,6.0,D,PTCH,A,5.4,D,ROLL*5A
$GPRMC,174933.3,A,4741.24095,N,12224.41290,W,003.14,221.7,131214,016.4,E,A*2D
$GPGGA,174933.3,4741.24095,N,12224.41290,W,1,10,0.8,-4.8,M,-18.2,M,,*4D
$GPVTG,221.7,T,205.3,M,003.14,N,0005.82,K,A*18
$HCHDG,205.2,0.0,E,,*2C
$YXXDR,A,5.9,D,PTCH,A,5.4,D,ROLL*50
$TIROT,49.9,A*0F
$GPRMC,174933.4,A,4741.24092,N,12224.41295,W,003.14,221.1,131214,016.4,E,A*2E
$GPGGA,174933.4,4741.24092,N,12224.41295,W,1,10,0.8,-4.8,M,-18.2,M,,*48
$GPVTG,221.1,T,204.7,M,003.14,N,0005.82,K,A*1B
$HCHDG,205.3,0.0,E,,*2D
$YXXDR,A,5.9,D,PTCH,A,5.3,D,ROLL*57
$GPRMC,174933.5,A,4741.24089,N,12224.41299,W,003.15,221.6,131214,016.4,E,A*2F
$GPGGA,174933.5,4741.24089,N,12224.41299,W,1,10,0.8,-4.9,M,-18.2,M,,*4E
$GPVTG,221.6,T,205.2,M,003.15,N,0005.83,K,A*18
$HCHDG,205.4,0.0,E,,*2A
$YXXDR,A,5.6,D,PTCH,A,5.5,D,ROLL*5E
$GPRMC,174933.6,A,4741.24086,N,12224.41303,W,003.16,220.7,131214,016.4,E,A*22
$GPGGA,174933.6,4741.24086,N,12224.41303,W,1,10,0.8,-4.9,M,-18.2,M,,*40
$GPVTG,220.7,T,204.3,M,003.16,N,0005.85,K,A*1D
$HCHDG,205.2,0.0,E,,*2C
$YXXDR,A,5.6,D,PTCH,A,5.6,D,ROLL*5D
$GPRMC,174933.7,A,4741.24069,N,12224.41325,W,003.13,221.7,131214,016.4,E,A*22
$GPGGA,174933.7,4741.24069,N,12224.41325,W,1,10,0.8,-4.9,M,-18.2,M,,*44
$GPVTG,221.7,T,205.3,M,003.13,N,0005.80,K,A*1D
$HCHDG,205.3,0.0,E,,*2D
$IIVHW,,,,,03.6,N,,*1C
$YXXDR,A,5.6,D,PTCH,A,5.6,D,ROLL*5D
$GPRMC,174933.8,A,4741.24066,N,12224.41329,W,003.13,221.9,131214,016.4,E,A*20
$GPGGA,174933.8,4741.24066,N,12224.41329,W,1,10,0.8,-4.9,M,-18.2,M,,*48
$GPVTG,221.9,T,205.5,M,003.13,N,0005.80,K,A*15
$IIVLW,07080,N,000.2,N*5E
$HCHDG,205.1,0.0,E,,*2F
$YXXDR,A,5.6,D,PTCH,A,5.9,D,ROLL*52
$IIVWR,006,L,05.1,N,,,,*7D
$GPRMC,174933.9,A,4741.24057,N,12224.41342,W,003.10,222.4,131214,016.4,E,A*23
$GPGGA,174933.9,4741.24057,N,12224.41342,W,1,10,0.8,-4.9,M,-18.2,M,,*46
$GPVTG,222.4,T,206.0,M,003.10,N,0005.74,K,A*15
$HCHDG,205.2,0.0,E,,*2C
$YXXDR,A,5.5,D,PTCH,A,5.8,D,ROLL*50
$GPRMC,174934.0,A,4741.24054,N,12224.41347,W,003.10,223.1,131214,016.4,E,A*2F
$GPGGA,174934.0,4741.24054,N,12224.41347,W,1,10,0.8,-4.9,M,-18.2,M,,*4E
$GPVTG,223.1,T,206.6,M,003.10,N,0005.74,K,A*17
$GPGSA,A,3,29,18,15,26,05,13,22,16,21,27,,,1.6,0.8,1.4*3C
$HCHDG,205.2,0.0,E,,*2C
$IIMTW,+09.0,C*31
$YXXDR,A,5.5,D,PTCH,A,5.8,D,ROLL*50
$GPRMC,174934.1,A,4741.24051,N,12224.41351,W,003.08,223.4,131214,016.4,E,A*20
$GPGGA,174934.1,4741.24051,N,12224.41351,W,1,10,0.8,-4.9,M,-18.2,M,,*4D
$IIMWV,354,R,05.1,N,A*15
$GPVTG,223.4,T,206.9,M,003.08,N,0005.71,K,A*11
$GPGSV,3,1,10,29,45,143,35,18,48,212,40,15,33,120,38,26,28,072,40*73
$HCHDG,205.2,0.0,E,,*2C
$GPGSV,3,2,10,05,13,049,46,13,18,042,45,22,11,222,29,16,31,300,38*79
$YXXDR,A,5.5,D,PTCH,A,5.7,D,ROLL*5F
$GPGSV,3,3,10,21,72,296,34,27,11,313,38*7B
$IIMWV,336,T,01.7,N,A*15
$GPRMC,174934.2,A,4741.24048,N,12224.41356,W,003.06,222.9,131214,016.4,E,A*2E
$GPGGA,174934.2,4741.24048,N,12224.41356,W,1,10,0.8,-4.9,M,-18.2,M,,*41
$GPVTG,222.9,T,206.5,M,003.06,N,0005.67,K,A*18
$HCHDG,205.3,0.0,E,,*2D
$YXXDR,A,5.5,D,PTCH,A,5.7,D,ROLL*5F
$GPRMC,174934.3,A,4741.24034,N,12224.41368,W,003.00,223.6,131214,016.4,E,A*21
$GPGGA,174934.3,4741.24034,N,12224.41368,W,1,10,0.8,-4.8,M,-18.2,M,,*47
$GPVTG,223.6,T,207.2,M,003.00,N,0005.55,K,A*17
$HCHDG,205.3,0.0,E,,*2D
$YXXDR,A,5.5,D,PTCH,A,5.7,D,ROLL*5F
$TIROT,56.2,A*0A
$GPRMC,174934.4,A,4741.24029,N,12224.41376,W,002.98,223.0,131214,016.4,E,A*23
$GPGGA,174934.4,4741.24029,N,12224.41376,W,1,10,0.8,-4.8,M,-18.2,M,,*43
$GPVTG,223.0,T,206.6,M,002.98,N,0005.52,K,A*13
$HCHDG,205.3,0.0,E,,*2D
$YXXDR,A,5.6,D,PTCH,A,5.6,D,ROLL*5D
$GPRMC,174934.5,A,4741.24023,N,12224.41385,W,003.00,223.7,131214,016.4,E,A*23
$GPGGA,174934.5,4741.24023,N,12224.41385,W,1,10,0.8,-4.8,M,-18.2,M,,*44
$GPVTG,223.7,T,207.3,M,003.00,N,0005.56,K,A*14
$HCHDG,205.4,0.0,E,,*2A
$YXXDR,A,5.7,D,PTCH,A,5.5,D,ROLL*5F
$GPRMC,174934.6,A,4741.24020,N,12224.41389,W,003.02,224.0,131214,016.4,E,A*2D
$GPGGA,174934.6,4741.24020,N,12224.41389,W,1,10,0.8,-4.8,M,-18.2,M,,*48
$GPVTG,224.0,T,207.6,M,003.02,N,0005.59,K,A*1C
$HCHDG,205.7,0.0,E,,*29
$YXXDR,A,5.8,D,PTCH,A,5.3,D,ROLL*56
$GPRMC,174934.7,A,4741.24017,N,12224.41394,W,003.03,224.1,131214,016.4,E,A*24
$GPGGA,174934.7,4741.24017,N,12224.41394,W,1,10,0.8,-4.8,M,-18.2,M,,*41
$GPVTG,224.1,T,207.6,M,003.03,N,0005.61,K,A*17
$HCHDG,205.8,0.0,E,,*26
$YXXDR,A,6.0,D,PTCH,A,4.9,D,ROLL*56
$IIVHW,,,,,03.5,N,,*1F
$GPRMC,174934.8,A,4741.24013,N,12224.41398,W,003.04,223.7,131214,016.4,E,A*25
$GPGGA,174934.8,4741.24013,N,12224.41398,W,1,10,0.8,-4.8,M,-18.2,M,,*46
$IIVLW,07080,N,000.2,N*5E
$GPVTG,223.7,T,207.3,M,003.04,N,0005.64,K,A*11
$HCHDG,205.8,0.0,E,,*26
$YXXDR,A,6.0,D,PTCH,A,4.9,D,ROLL*56
$IIVWR,009,L,05.2,N,,,,*71
$GPRMC,174934.9,A,4741.24010,N,12224.41402,W,003.05,223.6,131214,016.4,E,A*23
$GPGGA,174934.9,4741.24010,N,12224.41402,W,1,10,0.8,-4.8,M,-18.2,M,,*40
$GPVTG,223.6,T,207.2,M,003.05,N,0005.65,K,A*11
$HCHDG,206.0,0.0,E,,*2D
$YXXDR,A,5.9,D,PTCH,A,4.9,D,ROLL*5C
$GPRMC,174935.0,A,4741.24004,N,12224.41411,W,003.06,223.6,131214,016.4,E,A*2F
$GPGGA,174935.0,4741.24004,N,12224.41411,W,1,10,0.8,-4.8,M,-18.2,M,,*4F
$GPVTG,223.6,T,207.1,M,003.06,N,0005.66,K,A*12
$GPGSA,A,3,29,18,15,26,05,13,22,16,21,27,,,1.6,0.8,1.4*3C
$HCHDG,206.0,0.0,E,,*2D
$IIMTW,+08.5,C*35
$YXXDR,A,6.0,D,PTCH,A,4.8,D,ROLL*57
$GPRMC,174935.1,A,4741.23998,N,12224.41420,W,003.06,223.6,131214,016.4,E,A*27
$GPGGA,174935.1,4741.23998,N,12224.41420,W,1,10,0.8,-4.8,M,-18.2,M,,*47
$IIMWV,351,R,05.2,N,A*13
$GPVTG,223.6,T,207.2,M,003.06,N,0005.67,K,A*10
$HCHDG,205.9,0.0,E,,*27
$GPGSV,3,1,10,29,45,143,37,18,48,212,40,15,33,120,38,26,28,072,40*71
$GPGSV,3,2,10,05,13,049,47,13,18,042,45,22,11,222,29,16,31,300,38*78
$YXXDR,A,5.8,D,PTCH,A,4.5,D,ROLL*51
$IIMWV,340,T,01.4,N,A*17
$GPGSV,3,3,10,21,72,296,34,27,11,313,39*7A
$GPRMC,174935.2,A,4741.23992,N,12224.41429,W,003.08,223.1,131214,016.4,E,A*2E
$GPGGA,174935.2,4741.23992,N,12224.41429,W,1,10,0.8,-4.8,M,-18.2,M,,*47
$GPVTG,223.1,T,206.7,M,003.08,N,0005.71,K,A*1A
$HCHDG,206.1,0.0,E,,*2C
$YXXDR,A,5.8,D,PTCH,A,4.5,D,ROLL*51
$GPRMC,174935.3,A,4741.23985,N,12224.41437,W,003.12,223.7,131214,016.4,E,A*2B
$GPGGA,174935.3,4741.23985,N,12224.41437,W,1,10,0.8,-4.8,M,-18.2,M,,*4F
$GPVTG,223.7,T,207.3,M,003.12,N,0005.77,K,A*14
$HCHDG,206.3,0.0,E,,*2E
$YXXDR,A,5.8,D,PTCH,A,4.3,D,ROLL*57
$TIROT,34.0,A*0C
$GPRMC,174935.4,A,4741.23961,N,12224.41462,W,003.12,222.3,131214,016.4,E,A*23
$GPGGA,174935.4,4741.23961,N,12224.41462,W,1,10,0.8,-4.8,M,-18.2,M,,*42
$GPVTG,222.3,T,205.9,M,003.12,N,0005.78,K,A*16
$HCHDG,206.2,0.0,E,,*2F
$YXXDR,A,5.8,D,PTCH,A,4.3,D,ROLL*57
$GPRMC,174935.5,A,4741.23958,N,12224.41467,W,003.11,222.6,131214,016.4,E,A*2B
$GPGGA,174935.5,4741.23958,N,12224.41467,W,1,10,0.8,-4.8,M,-18.2,M,,*4C
$GPVTG,222.6,T,206.1,M,003.11,N,0005.76,K,A*15
$HCHDG,206.2,0.0,E,,*2F
$YXXDR,A,5.8,D,PTCH,A,4.3,D,ROLL*57
$GPRMC,174935.6,A,4741.23955,N,12224.41471,W,003.09,222.1,131214,016.4,E,A*2C
$GPGGA,174935.6,4741.23955,N,12224.41471,W,1,10,0.8,-4.8,M,-18.2,M,,*45
$GPVTG,222.1,T,205.6,M,003.09,N,0005.72,K,A*1B
$HCHDG,206.1,0.0,E,,*2C
$GPRMC,174935.7,A,4741.23943,N,12224.41488,W,003.10,222.7,131214,016.4,E,A*22
$YXXDR,A,5.7,D,PTCH,A,4.2,D,ROLL*59
$GPGGA,174935.7,4741.23943,N,12224.41488,W,1,10,0.8,-4.8,M,-18.2,M,,*45
$GPVTG,222.7,T,206.2,M,003.10,N,0005.74,K,A*14
$HCHDG,206.3,0.0,E,,*2E
$GPRMC,174935.8,A,4741.23939,N,12224.41492,W,003.10,222.0,131214,016.4,E,A*2C
$YXXDR,A,5.8,D,PTCH,A,4.1,D,ROLL*55
$IIVHW,,,,,03.6,N,,*1C
$GPGGA,174935.8,4741.23939,N,12224.41492,W,1,10,0.8,-4.8,M,-18.2,M,,*4C
$GPVTG,222.0,T,205.5,M,003.10,N,0005.74,K,A*17
$IIVLW,07080,N,000.2,N*5E
$HCHDG,206.4,0.0,E,,*29
$GPRMC,174935.9,A,4741.23930,N,12224.41505,W,003.06,222.5,131214,016.4,E,A*29
$YXXDR,A,5.8,D,PTCH,A,3.9,D,ROLL*5A
$GPGGA,174935.9,4741.23930,N,12224.41505,W,1,10,0.8,-4.8,M,-18.2,M,,*4B
$GPVTG,222.5,T,206.1,M,003.06,N,0005.67,K,A*10
$IIVWR,011,L,05.1,N,,,,*7B
$HCHDG,206.5,0.0,E,,*28
$GPRMC,174936.0,A,4741.23924,N,12224.41514,W,003.10,222.1,131214,016.4,E,A*25
$YXXDR,A,6.0,D,PTCH,A,3.3,D,ROLL*5B
$GPGGA,174936.0,4741.23924,N,12224.41514,W,1,10,0.8,-4.8,M,-18.2,M,,*44
$GPVTG,222.1,T,205.7,M,003.10,N,0005.75,K,A*15
$GPGSA,A,3,29,18,15,26,05,13,22,16,21,27,,,1.6,0.8,1.4*3C
$HCHDG,206.6,0.0,E,,*2B
$GPRMC,174936.1,A,4741.23918,N,12224.41523,W,003.08,224.2,131214,016.4,E,A*23
$YXXDR,A,5.8,D,PTCH,A,3.3,D,ROLL*50
$IIMTW,+09.0,C*31
$GPGGA,174936.1,4741.23918,N,12224.41523,W,1,10,0.8,-4.8,M,-18.2,M,,*4E
$GPVTG,224.2,T,207.7,M,003.08,N,0005.70,K,A*1E
$GPGSV,3,1,10,29,45,143,36,18,48,212,40,15,33,120,38,26,28,072,40*70
$IIMWV,349,R,05.1,N,A*19
$GPGSV,3,2,10,05,13,049,47,13,18,042,45,22,11,222,29,16,31,300,37*77
$GPGSV,3,3,10,21,72,296,34,27,11,313,39*7A
$HCHDG,206.6,0.0,E,,*2B
$GPRMC,174936.2,A,4741.23913,N,12224.41533,W,003.10,223.3,131214,016.4,E,A*25
$YXXDR,A,6.0,D,PTCH,A,3.2,D,ROLL*5A
$GPGGA,174936.2,4741.23913,N,12224.41533,W,1,10,0.8,-4.8,M,-18.2,M,,*47
$IIMWV,332,T,01.7,N,A*11
$GPVTG,223.3,T,206.9,M,003.10,N,0005.73,K,A*1D
$HCHDG,206.8,0.0,E,,*25
$GPRMC,174936.3,A,4741.23905,N,12224.41539,W,003.08,225.2,131214,016.4,E,A*27
$GPGGA,174936.3,4741.23905,N,12224.41539,W,1,10,0.8,-4.8,M,-18.2,M,,*4B
$YXXDR,A,6.0,D,PTCH,A,3.3,D,ROLL*5B
$GPVTG,225.2,T,208.7,M,003.08,N,0005.70,K,A*10
$HCHDG,206.8,0.0,E,,*25
$GPRMC,174936.4,A,4741.23899,N,12224.41548,W,003.10,224.6,131214,016.4,E,A*2E
$YXXDR,A,6.0,D,PTCH,A,3.3,D,ROLL*5B
$TIROT,55.5,A*0E
$GPGGA,174936.4,4741.23899,N,12224.41548,W,1,10,0.8,-4.8,M,-18.2,M,,*4E
$GPVTG,224.6,T,208.2,M,003.10,N,0005.75,K,A*1C
$HCHDG,206.9,0.0,E,,*24
$GPRMC,174936.5,A,4741.23892,N,12224.41557,W,003.10,224.7,131214,016.4,E,A*2B
$YXXDR,A,6.3,D,PTCH,A,3.5,D,ROLL*5E
$GPGGA,174936.5,4741.23892,N,12224.41557,W,1,10,0.8,-4.8,M,-18.2,M,,*4A
$GPVTG,224.7,T,208.3,M,003.10,N,0005.74,K,A*1D
$GPRMC,174936.6,A,4741.23889,N,12224.41561,W,003.08,224.9,131214,016.4,E,A*20
$HCHDG,207.0,0.0,E,,*2C
$YXXDR,A,6.4,D,PTCH,A,3.5,D,ROLL*59
$GPGGA,174936.6,4741.23889,N,12224.41561,W,1,10,0.8,-4.8,M,-18.2,M,,*46
$GPVTG,224.9,T,208.5,M,003.08,N,0005.71,K,A*19
$HCHDG,207.0,0.0,E,,*2C
$GPRMC,174936.7,A,4741.23886,N,12224.41566,W,003.08,224.8,131214,016.4,E,A*28
$YXXDR,A,6.3,D,PTCH,A,3.3,D,ROLL*58
$GPGGA,174936.7,4741.23886,N,12224.41566,W,1,10,0.8,-4.8,M,-18.2,M,,*4F
$GPVTG,224.8,T,208.4,M,003.08,N,0005.70,K,A*18
$HCHDG,207.1,0.0,E,,*2D
$GPRMC,174936.8,A,4741.23883,N,12224.41570,W,003.09,224.9,131214,016.4,E,A*25
$YXXDR,A,6.1,D,PTCH,A,3.3,D,ROLL*5A
$IIVHW,,,,,03.5,N,,*1F
$GPGGA,174936.8,4741.23883,N,12224.41570,W,1,10,0.8,-4.8,M,-18.2,M,,*42
$GPVTG,224.9,T,208.5,M,003.09,N,0005.72,K,A*1B
$IIVLW,07080,N,000.2,N*5E
$HCHDG,207.2,0.0,E,,*2E
$GPRMC,174936.9,A,4741.23880,N,12224.41575,W,003.10,225.8,131214,016.4,E,A*2A
$YXXDR,A,5.8,D,PTCH,A,3.0,D,ROLL*53
$GPGGA,174936.9,4741.23880,N,12224.41575,W,1,10,0.8,-4.8,M,-18.2,M,,*45
$IIVWR,012,L,05.2,N,,,,*7B
$GPVTG,225.8,T,209.3,M,003.10,N,0005.74,K,A*12
$HCHDG,207.2,0.0,E,,*2E
$GPRMC,174937.0,A,4741.23874,N,12224.41584,W,003.10,224.6,131214,016.4,E,A*28
$YXXDR,A,5.6,D,PTCH,A,3.0,D,ROLL*5D
$GPGGA,174937.0,4741.23874,N,12224.41584,W,1,10,0.8,-4.8,M,-18.2,M,,*48
$GPVTG,224.6,T,208.1,M,003.10,N,0005.74,K,A*1E
$GPGSA,A,3,29,18,15,26,05,13,22,16,21,27,,,1.6,0.8,1.4*3C
$HCHDG,207.4,0.0,E,,*28
$GPRMC,174937.1,A,4741.23856,N,12224.41612,W,003.13,225.7,131214,016.4,E,A*26
$IIMTW,+08.5,C*35
$YXXDR,A,5.5,D,PTCH,A,2.9,D,ROLL*56
$GPGGA,174937.1,4741.23856,N,12224.41612,W,1,10,0.8,-4.8,M,-18.2,M,,*45
$GPVTG,225.7,T,209.3,M,003.13,N,0005.79,K,A*13
$GPGSV,3,1,10,29,45,143,32,18,48,212,39,15,33,120,37,26,28,072,41*74
$IIMWV,348,R,05.2,N,A*1B
$GPGSV,3,2,10,05,13,049,46,13,18,042,45,22,11,222,28,16,31,300,36*76
$GPGSV,3,3,10,21,72,296,34,27,11,313,40*74
$HCHDG,207.6,0.0,E,,*2A
$GPRMC,174937.2,A,4741.23851,N,12224.41621,W,003.07,225.0,131214,016.4,E,A*20
$YXXDR,A,5.7,D,PTCH,A,3.1,D,ROLL*5D
$GPGGA,174937.2,4741.23851,N,12224.41621,W,1,10,0.8,-4.8,M,-18.2,M,,*41
$IIMWV,325,T,01.5,N,A*15
$GPVTG,225.0,T,208.6,M,003.07,N,0005.68,K,A*15
$HCHDG,207.4,0.0,E,,*28
$GPRMC,174937.3,A,4741.23844,N,12224.41626,W,003.11,225.0,131214,016.4,E,A*25
$YXXDR,A,5.5,D,PTCH,A,3.1,D,ROLL*5F
$GPGGA,174937.3,4741.23844,N,12224.41626,W,1,10,0.8,-4.7,M,-18.2,M,,*4C
$GPVTG,225.0,T,208.6,M,003.11,N,0005.76,K,A*1D
$HCHDG,207.4,0.0,E,,*28
$GPRMC,174937.4,A,4741.23837,N,12224.41635,W,003.09,225.5,131214,016.4,E,A*28
$YXXDR,A,5.4,D,PTCH,A,3.1,D,ROLL*5E
$TIROT,45.7,A*0D
$GPGGA,174937.4,4741.23837,N,12224.41635,W,1,10,0.8,-4.7,M,-18.2,M,,*4D
$GPVTG,225.5,T,209.1,M,003.09,N,0005.72,K,A*13
$HCHDG,207.3,0.0,E,,*2F
$GPRMC,174937.5,A,4741.23834,N,12224.41639,W,003.06,225.2,131214,016.4,E,A*2E
$YXXDR,A,5.1,D,PTCH,A,3.1,D,ROLL*5B
$GPGGA,174937.5,4741.23834,N,12224.41639,W,1,10,0.8,-4.7,M,-18.2,M,,*43
$GPVTG,225.2,T,208.8,M,003.06,N,0005.67,K,A*17
$HCHDG,207.4,0.0,E,,*28
$GPRMC,174937.6,A,4741.23832,N,12224.41643,W,003.05,225.9,131214,016.4,E,A*2E
$YXXDR,A,5.1,D,PTCH,A,3.1,D,ROLL*5B
$GPGGA,174937.6,4741.23832,N,12224.41643,W,1,10,0.8,-4.7,M,-18.2,M,,*4B
$GPVTG,225.9,T,209.4,M,003.05,N,0005.65,K,A*10
$HCHDG,207.4,0.0,E,,*28
$GPRMC,174937.7,A,4741.23829,N,12224.41648,W,003.03,225.6,131214,016.4,E,A*27
$YXXDR,A,4.9,D,PTCH,A,3.2,D,ROLL*51
$GPGGA,174937.7,4741.23829,N,12224.41648,W,1,10,0.8,-4.7,M,-18.2,M,,*4B
$GPVTG,225.6,T,209.2,M,003.03,N,0005.61,K,A*1B
$HCHDG,207.3,0.0,E,,*2F
$GPRMC,174937.8,A,4741.23826,N,12224.41652,W,003.03,225.0,131214,016.4,E,A*2A
$IIVHW,,,,,03.5,N,,*1F
$YXXDR,A,5.0,D,PTCH,A,3.3,D,ROLL*58
$GPGGA,174937.8,4741.23826,N,12224.41652,W,1,10,0.8,-4.7,M,-18.2,M,,*40
$GPVTG,225.0,T,208.6,M,003.03,N,0005.61,K,A*18
$IIVLW,07080,N,000.2,N*5E
$HCHDG,207.3,0.0,E,,*2F
$GPRMC,174937.9,A,4741.23820,N,12224.41661,W,003.04,225.2,131214,016.4,E,A*28
$YXXDR,A,5.0,D,PTCH,A,3.2,D,ROLL*59
$GPGGA,174937.9,4741.23820,N,12224.41661,W,1,10,0.8,-4.7,M,-18.2,M,,*47
$IIVWR,014,L,05.3,N,,,,*7C
$GPVTG,225.2,T,208.7,M,003.04,N,0005.63,K,A*1E
$HCHDG,207.3,0.0,E,,*2F
$GPRMC,174938.0,A,4741.23814,N,12224.41670,W,003.05,225.1,131214,016.4,E,A*2B
$YXXDR,A,5.2,D,PTCH,A,3.4,D,ROLL*5D
$GPGGA,174938.0,4741.23814,N,12224.41670,W,1,10,0.8,-4.7,M,-18.2,M,,*46
$GPVTG,225.1,T,208.6,M,003.05,N,0005.65,K,A*1B
$GPGSA,A,3,29,18,15,26,05,13,22,16,21,27,,,1.6,0.8,1.4*3C
$HCHDG,207.4,0.0,E,,*28
$GPRMC,174938.1,A,4741.23808,N,12224.41679,W,003.07,224.8,131214,016.4,E,A*24
$IIMTW,+08.5,C*35
$YXXDR,A,5.2,D,PTCH,A,3.4,D,ROLL*5D
$GPGGA,174938.1,4741.23808,N,12224.41679,W,1,10,0.8,-4.7,M,-18.2,M,,*43
$GPVTG,224.8,T,208.3,M,003.07,N,0005.68,K,A*19
$GPGSV,3,1,10,29,45,143,31,18,48,212,38,15,33,120,37,26,28,072,41*76
$IIMWV,346,R,05.3,N,A*14
$GPGSV,3,2,10,05,13,049,46,13,18,042,44,22,11,222,28,16,31,300,31*70
$GPGSV,3,3,10,21,72,296,34,27,11,313,40*74
$HCHDG,207.4,0.0,E,,*28
$YXXDR,A,5.3,D,PTCH,A,3.3,D,ROLL*5B
$GPRMC,174938.2,A,4741.23802,N,12224.41688,W,003.06,225.4,131214,016.4,E,A*2F
$IIMWV,324,T,01.7,N,A*16
$GPGGA,174938.2,4741.23802,N,12224.41688,W,1,10,0.8,-4.7,M,-18.2,M,,*44
$GPVTG,225.4,T,209.0,M,003.06,N,0005.67,K,A*18
$HCHDG,207.3,0.0,E,,*2F
$GPRMC,174938.3,A,4741.23795,N,12224.41695,W,003.07,225.7,131214,016.4,E,A*21
$YXXDR,A,5.5,D,PTCH,A,3.1,D,ROLL*5F
$GPGGA,174938.3,4741.23795,N,12224.41695,W,1,10,0.8,-4.6,M,-18.2,M,,*49
$GPVTG,225.7,T,209.3,M,003.07,N,0005.69,K,A*17
$HCHDG,207.5,0.0,E,,*29
$YXXDR,A,5.5,D,PTCH,A,3.1,D,ROLL*5F
$TIROT,57.7,A*0E
$GPRMC,174938.4,A,4741.23788,N,12224.41703,W,003.06,225.4,131214,016.4,E,A*26
$GPGGA,174938.4,4741.23788,N,12224.41703,W,1,10,0.8,-4.6,M,-18.2,M,,*4C
$GPVTG,225.4,T,209.0,M,003.06,N,0005.67,K,A*18
$HCHDG,207.5,0.0,E,,*29
$YXXDR,A,5.5,D,PTCH,A,3.1,D,ROLL*5F
$GPRMC,174938.5,A,4741.23781,N,12224.41711,W,003.06,226.0,131214,016.4,E,A*2A
$GPGGA,174938.5,4741.23781,N,12224.41711,W,1,10,0.8,-4.6,M,-18.2,M,,*47
$GPVTG,226.0,T,209.6,M,003.06,N,0005.68,K,A*16
$HCHDG,207.5,0.0,E,,*29
$GPRMC,174938.6,A,4741.23775,N,12224.41718,W,003.07,225.3,131214,016.4,E,A*2A
$YXXDR,A,5.7,D,PTCH,A,3.1,D,ROLL*5D
$GPGGA,174938.6,4741.23775,N,12224.41718,W,1,10,0.8,-4.6,M,-18.2,M,,*46
$GPVTG,225.3,T,208.8,M,003.07,N,0005.69,K,A*19
$HCHDG,207.5,0.0,E,,*29
$YXXDR,A,5.5,D,PTCH,A,3.1,D,ROLL*5F
$GPRMC,174938.7,A,4741.23768,N,12224.41726,W,003.09,226.2,131214,016.4,E,A*26
$GPGGA,174938.7,4741.23768,N,12224.41726,W,1,10,0.8,-4.6,M,-18.2,M,,*46
$GPVTG,226.2,T,209.7,M,003.09,N,0005.72,K,A*11
$HCHDG,207.7,0.0,E,,*2B
$YXXDR,A,5.5,D,PTCH,A,3.1,D,ROLL*5F
$IIVHW,,,,,03.5,N,,*1F
$GPRMC,174938.8,A,4741.23762,N,12224.41735,W,003.12,226.7,131214,016.4,E,A*2E
$GPGGA,174938.8,4741.23762,N,12224.41735,W,1,10,0.8,-4.6,M,-18.2,M,,*41
$GPVTG,226.7,T,210.2,M,003.12,N,0005.77,K,A*16
$IIVLW,07080,N,000.2,N*5E
$HCHDG,207.6,0.0,E,,*2A
$YXXDR,A,5.4,D,PTCH,A,3.1,D,ROLL*5E
$GPRMC,174938.9,A,4741.23756,N,12224.41745,W,003.14,226.5,131214,016.4,E,A*2B
$GPGGA,174938.9,4741.23756,N,12224.41745,W,1,10,0.8,-4.6,M,-18.2,M,,*40
$IIVWR,017,L,05.1,N,,,,*7D
$GPVTG,226.5,T,210.1,M,003.14,N,0005.82,K,A*1B
$HCHDG,207.7,0.0,E,,*2B
$YXXDR,A,5.5,D,PTCH,A,2.9,D,ROLL*56
$GPRMC,174939.0,A,4741.23739,N,12224.41773,W,003.09,227.3,131214,016.4,E,A*24
$GPGGA,174939.0,4741.23739,N,12224.41773,W,1,10,0.8,-4.6,M,-18.2,M,,*44
$GPVTG,227.3,T,210.8,M,003.09,N,0005.72,K,A*16
$GPGSA,A,3,29,18,15,26,05,13,22,16,21,27,,,1.6,0.8,1.4*3C
$HCHDG,207.8,0.0,E,,*24
$YXXDR,A,5.3,D,PTCH,A,2.6,D,ROLL*5F
$IIMTW,+09.0,C*31
$GPRMC,174939.1,A,4741.23733,N,12224.41783,W,003.09,227.2,131214,016.4,E,A*21
$GPGGA,174939.1,4741.23733,N,12224.41783,W,1,10,0.8,-4.6,M,-18.2,M,,*40
$GPVTG,227.2,T,210.8,M,003.09,N,0005.72,K,A*17
$IIMWV,343,R,05.1,N,A*13
$GPGSV,3,1,10,29,45,143,28,18,48,212,34,15,33,120,37,26,28,072,42*71
$GPGSV,3,2,10,05,13,049,46,13,18,042,44,22,11,222,27,16,31,299,31*7E
$GPGSV,3,3,10,21,72,296,34,27,11,313,41*75
$HCHDG,207.9,0.0,E,,*25
$YXXDR,A,5.3,D,PTCH,A,2.6,D,ROLL*5F
$IIMWV,321,T,01.9,N,A*1D
$GPRMC,174939.2,A,4741.23727,N,12224.41792,W,003.12,226.8,131214,016.4,E,A*26
$GPGGA,174939.2,4741.23727,N,12224.41792,W,1,10,0.8,-4.6,M,-18.2,M,,*46
$GPVTG,226.8,T,210.4,M,003.12,N,0005.77,K,A*1F
$HCHDG,208.1,0.0,E,,*22
$YXXDR,A,5.5,D,PTCH,A,2.5,D,ROLL*5A
$GPRMC,174939.3,A,4741.23717,N,12224.41794,W,003.11,227.5,131214,016.4,E,A*2D
$GPGGA,174939.3,4741.23717,N,12224.41794,W,1,10,0.8,-4.6,M,-18.2,M,,*42
$GPVTG,227.5,T,211.0,M,003.11,N,0005.75,K,A*17
$HCHDG,208.0,0.0,E,,*23
$YXXDR,A,5.5,D,PTCH,A,2.5,D,ROLL*5A
$TIROT,55.4,A*0F
$GPRMC,174939.4,A,4741.23714,N,12224.41799,W,003.08,226.7,131214,016.4,E,A*2F
$GPGGA,174939.4,4741.23714,N,12224.41799,W,1,10,0.8,-4.6,M,-18.2,M,,*4B
$GPVTG,226.7,T,210.2,M,003.08,N,0005.71,K,A*1B
$HCHDG,208.2,0.0,E,,*21
$YXXDR,A,5.4,D,PTCH,A,2.4,D,ROLL*5A
$GPRMC,174939.5,A,4741.23705,N,12224.41812,W,003.11,227.3,131214,016.4,E,A*2F
$GPGGA,174939.5,4741.23705,N,12224.41812,W,1,10,0.8,-4.6,M,-18.2,M,,*46
$GPVTG,227.3,T,210.9,M,003.11,N,0005.76,K,A*1A
$HCHDG,208.3,0.0,E,,*20
$YXXDR,A,5.5,D,PTCH,A,2.5,D,ROLL*5A
$GPRMC,174939.6,A,4741.23700,N,12224.41822,W,003.11,227.3,131214,016.4,E,A*2A
$GPGGA,174939.6,4741.23700,N,12224.41822,W,1,10,0.8,-4.6,M,-18.2,M,,*43
$GPVTG,227.3,T,210.9,M,003.11,N,0005.76,K,A*1A
$HCHDG,208.5,0.0,E,,*26
$YXXDR,A,5.6,D,PTCH,A,2.3,D,ROLL*5F
$GPRMC,174939.7,A,4741.23697,N,12224.41826,W,003.09,226.5,131214,016.4,E,A*2E
$GPGGA,174939.7,4741.23697,N,12224.41826,W,1,10,0.8,-4.6,M,-18.2,M,,*49
$GPVTG,226.5,T,210.0,M,003.09,N,0005.73,K,A*18
$HCHDG,208.7,0.0,E,,*24
$YXXDR,A,5.6,D,PTCH,A,2.3,D,ROLL*5F
$IIVHW,,,,,03.5,N,,*1F
$GPRMC,174939.8,A,4741.23688,N,12224.41840,W,003.11,226.8,131214,016.4,E,A*2B
$GPGGA,174939.8,4741.23688,N,12224.41840,W,1,10,0.8,-4.6,M,-18.2,M,,*48
$GPVTG,226.8,T,210.4,M,003.11,N,0005.76,K,A*1D
$IIVLW,07080,N,000.2,N*5E
$HCHDG,208.6,0.0,E,,*25
$YXXDR,A,5.5,D,PTCH,A,2.3,D,ROLL*5C
$GPRMC,174939.9,A,4741.23685,N,12224.41845,W,003.13,226.3,131214,016.4,E,A*2B
$GPGGA,174939.9,4741.23685,N,12224.41845,W,1,10,0.8,-4.6,M,-18.2,M,,*41
$IIVWR,016,L,05.2,N,,,,*7F
$GPVTG,226.3,T,209.9,M,003.13,N,0005.80,K,A*18
$HCHDG,208.7,0.0,E,,*24
$YXXDR,A,5.6,D,PTCH,A,2.3,D,ROLL*5F
$GPRMC,174940.0,A,4741.23676,N,12224.41859,W,003.09,226.3,131214,016.4,E,A*26
$GPGGA,174940.0,4741.23676,N,12224.41859,W,1,10,0.8,-4.6,M,-18.2,M,,*47
$GPVTG,226.3,T,209.9,M,003.09,N,0005.72,K,A*1E
$GPGSA,A,3,29,18,15,26,05,13,22,16,21,27,,,1.6,0.8,1.4*3C
$HCHDG,208.8,0.0,E,,*2B
$YXXDR,A,5.5,D,PTCH,A,2.5,D,ROLL*5A
$IIMTW,+08.5,C*35
$GPRMC,174940.1,A,4741.23670,N,12224.41868,W,003.12,226.7,131214,016.4,E,A*2D
$GPGGA,174940.1,4741.23670,N,12224.41868,W,1,10,0.8,-4.6,M,-18.2,M,,*42
$GPVTG,226.7,T,210.3,M,003.12,N,0005.78,K,A*18
$IIMWV,344,R,05.2,N,A*17
$GPGSV,3,1,10,29,45,143,33,18,48,212,35,15,33,120,36,26,28,072,42*7B
$GPGSV,3,2,10,05,13,049,46,13,18,042,43,22,11,222,25,16,31,299,32*78
$HCHDG,208.8,0.0,E,,*2B
$YXXDR,A,5.5,D,PTCH,A,2.5,D,ROLL*5A
$GPGSV,3,3,10,21,72,296,35,27,11,313,40*75
$IIMWV,313,T,01.9,N,A*1C
$GPRMC,174940.2,A,4741.23664,N,12224.41878,W,003.12,226.4,131214,016.4,E,A*29
$GPGGA,174940.2,4741.23664,N,12224.41878,W,1,10,0.8,-4.6,M,-18.2,M,,*45
$GPVTG,226.4,T,210.0,M,003.12,N,0005.77,K,A*17
$HCHDG,208.9,0.0,E,,*2A
$YXXDR,A,5.5,D,PTCH,A,3.1,D,ROLL*5F
$GPRMC,174940.3,A,4741.23657,N,12224.41883,W,003.11,227.0,131214,016.4,E,A*2A
