$GPRMC,220000.7,A,4741.18946,N,12224.24817,W,000.18,042.1,070215,016.4,E,A*27
$HCHDG,124.7,0.0,E,,*29
$GPGGA,220000.7,4741.18946,N,12224.24817,W,1,10,0.9,-1.2,M,-18.2,M,,*42
$YXXDR,A,5.6,D,PTCH,A,4.9,D,ROLL*53
$GPVTG,042.1,T,025.7,M,000.18,N,0000.34,K,A*1A
$TIROT,-1.6,A*11
$GPRMC,220000.8,A,4741.18946,N,12224.24817,W,000.17,042.1,070215,016.4,E,A*27
$GPGGA,220000.8,4741.18946,N,12224.24817,W,1,10,0.9,-1.2,M,-18.2,M,,*4D
$HCHDG,124.7,0.0,E,,*29
$YXXDR,A,5.8,D,PTCH,A,5.0,D,ROLL*55
$GPVTG,042.1,T,025.7,M,000.17,N,0000.32,K,A*13
$GPRMC,220000.9,A,4741.18946,N,12224.24817,W,000.18,042.1,070215,016.4,E,A*29
$HCHDG,124.8,0.0,E,,*26
$GPGGA,220000.9,4741.18946,N,12224.24817,W,1,10,0.9,-1.2,M,-18.2,M,,*4C
$YXXDR,A,5.8,D,PTCH,A,5.0,D,ROLL*55
$GPVTG,042.1,T,025.7,M,000.18,N,0000.33,K,A*1D
$GPRMC,220001.0,A,4741.18946,N,12224.24817,W,000.16,042.1,070215,016.4,E,A*2F
$HCHDG,124.8,0.0,E,,*26
$GPGGA,220001.0,4741.18946,N,12224.24817,W,1,10,0.9,-1.2,M,-18.2,M,,*44
$YXXDR,A,5.8,D,PTCH,A,5.0,D,ROLL*55
$GPVTG,042.1,T,025.7,M,000.16,N,0000.31,K,A*11
$GPGSA,A,3,09,32,20,23,01,06,31,04,16,03,,,1.6,0.9,1.3*30
$GPRMC,220001.1,A,4741.18946,N,12224.24817,W,000.16,042.1,070215,016.4,E,A*2E
$HCHDG,124.8,0.0,E,,*26
$GPGGA,220001.1,4741.18946,N,12224.24817,W,1,10,0.9,-1.2,M,-18.2,M,,*45
$YXXDR,A,5.8,D,PTCH,A,4.8,D,ROLL*5C
$GPVTG,042.1,T,025.7,M,000.16,N,0000.30,K,A*10
$GPGSV,3,1,10,09,20,276,42,32,45,142,41,20,25,309,44,23,51,283,45*74
$GPGSV,3,2,10,01,19,212,33,06,17,319,40,31,39,052,30,04,02,190,22*7C
$GPGSV,3,3,10,16,19,143,37,03,79,231,32*79
$GPRMC,220001.2,A,4741.18947,N,12224.24816,W,000.17,042.1,070215,016.4,E,A*2C
$HCHDG,124.8,0.0,E,,*26
$GPGGA,220001.2,4741.18947,N,12224.24816,W,1,10,0.9,-1.2,M,-18.2,M,,*46
$YXXDR,A,5.8,D,PTCH,A,4.8,D,ROLL*5C
$GPVTG,042.1,T,025.7,M,000.17,N,0000.31,K,A*10
$GPRMC,220001.3,A,4741.18947,N,12224.24816,W,000.17,042.1,070215,016.4,E,A*2D
$GPGGA,220001.3,4741.18947,N,12224.24816,W,1,10,0.9,-1.2,M,-18.2,M,,*47
$HCHDG,124.8,0.0,E,,*26
$YXXDR,A,5.8,D,PTCH,A,4.8,D,ROLL*5C
$GPVTG,042.1,T,025.7,M,000.17,N,0000.31,K,A*10
$GPRMC,220001.4,A,4741.18947,N,12224.24816,W,000.19,042.1,070215,016.4,E,A*24
$HCHDG,124.8,0.0,E,,*26
$GPGGA,220001.4,4741.18947,N,12224.24816,W,1,10,0.9,-1.2,M,-18.2,M,,*40
$YXXDR,A,5.7,D,PTCH,A,4.8,D,ROLL*53
$GPVTG,042.1,T,025.7,M,000.19,N,0000.35,K,A*1A
$GPRMC,220001.5,A,4741.18947,N,12224.24816,W,000.25,042.1,070215,016.4,E,A*2A
$HCHDG,124.9,0.0,E,,*27
$GPGGA,220001.5,4741.18947,N,12224.24816,W,1,10,0.9,-1.2,M,-18.2,M,,*41
$YXXDR,A,5.7,D,PTCH,A,4.8,D,ROLL*53
$GPVTG,042.1,T,025.7,M,000.25,N,0000.45,K,A*12
$GPRMC,220001.6,A,4741.18947,N,12224.24816,W,000.30,042.1,070215,016.4,E,A*2D
$HCHDG,124.8,0.0,E,,*26
$GPGGA,220001.6,4741.18947,N,12224.24816,W,1,10,0.9,-1.2,M,-18.2,M,,*42
$YXXDR,A,5.7,D,PTCH,A,4.8,D,ROLL*53
$GPVTG,042.1,T,025.7,M,000.30,N,0000.55,K,A*17
$GPRMC,220001.7,A,4741.18947,N,12224.24816,W,000.07,042.1,070215,016.4,E,A*28
$GPGGA,220001.7,4741.18947,N,12224.24816,W,1,10,0.9,-1.2,M,-18.2,M,,*43
$HCHDG,124.9,0.0,E,,*27
$YXXDR,A,5.8,D,PTCH,A,4.6,D,ROLL*52
$GPVTG,042.1,T,025.7,M,000.07,N,0000.13,K,A*11
$TIROT,-11.7,A*21
$GPRMC,220001.8,A,4741.18947,N,12224.24816,W,000.09,042.1,070215,016.4,E,A*29
$HCHDG,124.9,0.0,E,,*27
$YXXDR,A,5.8,D,PTCH,A,4.5,D,ROLL*51
$GPGGA,220001.8,4741.18947,N,12224.24816,W,1,10,0.9,-1.2,M,-18.2,M,,*4C
$GPVTG,042.1,T,025.7,M,000.09,N,0000.17,K,A*1B
$GPRMC,220001.9,A,4741.18947,N,12224.24816,W,000.16,042.1,070215,016.4,E,A*26
$HCHDG,124.9,0.0,E,,*27
$YXXDR,A,5.8,D,PTCH,A,4.5,D,ROLL*51
$GPGGA,220001.9,4741.18947,N,12224.24816,W,1,10,0.9,-1.2,M,-18.2,M,,*4D
$GPVTG,042.1,T,025.7,M,000.16,N,0000.30,K,A*10
$GPRMC,220002.0,A,4741.18947,N,12224.24816,W,000.19,042.1,070215,016.4,E,A*23
$HCHDG,124.9,0.0,E,,*27
$YXXDR,A,5.8,D,PTCH,A,4.5,D,ROLL*51
$GPGGA,220002.0,4741.18947,N,12224.24816,W,1,10,0.9,-1.2,M,-18.2,M,,*47
$GPVTG,042.1,T,025.7,M,000.19,N,0000.35,K,A*1A
$GPGSA,A,3,09,32,20,23,01,06,31,04,16,03,,,1.6,0.9,1.3*30
$HCHDG,125.0,0.0,E,,*2F
$GPRMC,220002.1,A,4741.18947,N,12224.24816,W,000.22,042.1,070215,016.4,E,A*2A
$YXXDR,A,5.8,D,PTCH,A,4.5,D,ROLL*51
$GPGGA,220002.1,4741.18947,N,12224.24816,W,1,10,0.9,-1.2,M,-18.2,M,,*46
$GPVTG,042.1,T,025.7,M,000.22,N,0000.40,K,A*10
$GPGSV,3,1,10,09,20,276,42,32,45,142,41,20,25,309,44,23,51,283,46*77
$GPGSV,3,2,10,01,19,212,33,06,17,319,41,31,39,052,30,04,02,190,22*7D
$GPGSV,3,3,10,16,19,143,35,03,79,231,33*7A
$HCHDG,125.0,0.0,E,,*2F
$GPRMC,220002.2,A,4741.18947,N,12224.24816,W,000.23,042.1,070215,016.4,E,A*28
$YXXDR,A,5.4,D,PTCH,A,4.6,D,ROLL*5E
$GPGGA,220002.2,4741.18947,N,12224.24816,W,1,10,0.9,-1.2,M,-18.2,M,,*45
$GPVTG,042.1,T,025.7,M,000.23,N,0000.43,K,A*12
$HCHDG,125.0,0.0,E,,*2F
$GPRMC,220002.3,A,4741.18947,N,12224.24815,W,000.24,042.1,070215,016.4,E,A*2D
$GPGGA,220002.3,4741.18947,N,12224.24815,W,1,10,0.9,-1.2,M,-18.2,M,,*47
$YXXDR,A,5.4,D,PTCH,A,4.3,D,ROLL*5B
$GPVTG,042.1,T,025.7,M,000.24,N,0000.45,K,A*13
$HCHDG,125.0,0.0,E,,*2F
$GPRMC,220002.4,A,4741.18947,N,12224.24815,W,000.22,042.1,070215,016.4,E,A*2C
$GPGGA,220002.4,4741.18947,N,12224.24815,W,1,10,0.9,-1.2,M,-18.2,M,,*40
$YXXDR,A,5.4,D,PTCH,A,4.2,D,ROLL*5A
$GPVTG,042.1,T,025.7,M,000.22,N,0000.41,K,A*11
$HCHDG,125.0,0.0,E,,*2F
$GPRMC,220002.5,A,4741.18947,N,12224.24815,W,000.23,042.1,070215,016.4,E,A*2C
$GPGGA,220002.5,4741.18947,N,12224.24815,W,1,10,0.9,-1.2,M,-18.2,M,,*41
$YXXDR,A,5.6,D,PTCH,A,4.1,D,ROLL*5B
$GPVTG,042.1,T,025.7,M,000.23,N,0000.43,K,A*12
$HCHDG,125.1,0.0,E,,*2E
$GPRMC,220002.6,A,4741.18947,N,12224.24815,W,000.28,042.1,070215,016.4,E,A*24
$GPGGA,220002.6,4741.18947,N,12224.24815,W,1,10,0.9,-1.2,M,-18.2,M,,*42
$YXXDR,A,5.6,D,PTCH,A,4.1,D,ROLL*5B
$GPVTG,042.1,T,025.7,M,000.28,N,0000.52,K,A*19
$HCHDG,124.9,0.0,E,,*27
$GPRMC,220002.7,A,4741.18947,N,12224.24815,W,000.31,042.1,070215,016.4,E,A*2D
$GPGGA,220002.7,4741.18947,N,12224.24815,W,1,10,0.9,-1.2,M,-18.2,M,,*43
$YXXDR,A,5.6,D,PTCH,A,4.1,D,ROLL*5B
$TIROT,-24.7,A*27
$GPVTG,042.1,T,025.7,M,000.31,N,0000.57,K,A*14
$HCHDG,124.9,0.0,E,,*27
$GPRMC,220002.8,A,4741.18947,N,12224.24815,W,000.31,042.1,070215,016.4,E,A*22
$YXXDR,A,5.6,D,PTCH,A,4.1,D,ROLL*5B
$GPGGA,220002.8,4741.18947,N,12224.24815,W,1,10,0.9,-1.2,M,-18.2,M,,*4C
$GPVTG,042.1,T,025.7,M,000.31,N,0000.57,K,A*14
$HCHDG,124.9,0.0,E,,*27
$GPRMC,220002.9,A,4741.18947,N,12224.24815,W,000.31,042.1,070215,016.4,E,A*23
$YXXDR,A,5.5,D,PTCH,A,4.0,D,ROLL*59
$GPGGA,220002.9,4741.18947,N,12224.24815,W,1,10,0.9,-1.2,M,-18.2,M,,*4D
$GPVTG,042.1,T,025.7,M,000.31,N,0000.58,K,A*1B
$HCHDG,124.9,0.0,E,,*27
$GPRMC,220003.0,A,4741.18947,N,12224.24815,W,000.33,042.1,070215,016.4,E,A*29
$YXXDR,A,5.5,D,PTCH,A,4.0,D,ROLL*59
$GPGGA,220003.0,4741.18947,N,12224.24815,W,1,10,0.9,-1.2,M,-18.2,M,,*45
$GPVTG,042.1,T,025.7,M,000.33,N,0000.61,K,A*13
$GPGSA,A,3,09,32,20,23,01,06,31,04,16,03,,,1.6,0.9,1.3*30
$HCHDG,124.9,0.0,E,,*27
$GPRMC,220003.1,A,4741.18947,N,12224.24815,W,000.30,042.1,070215,016.4,E,A*2B
$YXXDR,A,5.6,D,PTCH,A,3.9,D,ROLL*54
$GPGGA,220003.1,4741.18947,N,12224.24815,W,1,10,0.9,-1.2,M,-18.2,M,,*44
$GPVTG,042.1,T,025.7,M,000.30,N,0000.56,K,A*14
$GPGSV,3,1,10,09,21,276,42,32,45,142,41,20,25,309,44,23,52,283,45*76
$GPGSV,3,2,10,01,19,212,31,06,17,319,41,31,39,052,33,04,02,190,22*7C
$GPGSV,3,3,10,16,19,143,39,03,79,231,34*71
$HCHDG,125.0,0.0,E,,*2F
$GPRMC,220003.2,A,4741.18947,N,12224.24815,W,000.26,042.1,070215,016.4,E,A*2F
$YXXDR,A,5.3,D,PTCH,A,4.0,D,ROLL*5F
$GPGGA,220003.2,4741.18947,N,12224.24815,W,1,10,0.9,-1.2,M,-18.2,M,,*47
$GPVTG,042.1,T,025.7,M,000.26,N,0000.48,K,A*1C
$HCHDG,125.0,0.0,E,,*2F
$GPRMC,220003.3,A,4741.18943,N,12224.24816,W,000.28,042.1,070215,016.4,E,A*27
$YXXDR,A,5.2,D,PTCH,A,4.0,D,ROLL*5E
$GPGGA,220003.3,4741.18943,N,12224.24816,W,1,10,0.9,-1.2,M,-18.2,M,,*41
$GPVTG,042.1,T,025.7,M,000.28,N,0000.51,K,A*1A
$HCHDG,125.0,0.0,E,,*2F
$GPRMC,220003.4,A,4741.18943,N,12224.24816,W,000.26,042.1,070215,016.4,E,A*2E
$YXXDR,A,5.2,D,PTCH,A,4.0,D,ROLL*5E
$GPGGA,220003.4,4741.18943,N,12224.24816,W,1,10,0.9,-1.2,M,-18.2,M,,*46
$GPVTG,042.1,T,025.7,M,000.26,N,0000.48,K,A*1C
$HCHDG,124.9,0.0,E,,*27
$GPRMC,220003.5,A,4741.18943,N,12224.24816,W,000.26,042.1,070215,016.4,E,A*2F
$YXXDR,A,5.2,D,PTCH,A,4.0,D,ROLL*5E
$GPGGA,220003.5,4741.18943,N,12224.24816,W,1,10,0.9,-1.2,M,-18.2,M,,*47
$GPVTG,042.1,T,025.7,M,000.26,N,0000.49,K,A*1D
$HCHDG,124.7,0.0,E,,*29
$GPRMC,220003.6,A,4741.18943,N,12224.24816,W,000.23,042.1,070215,016.4,E,A*29
$YXXDR,A,5.3,D,PTCH,A,4.0,D,ROLL*5F
$GPGGA,220003.6,4741.18943,N,12224.24816,W,1,10,0.9,-1.2,M,-18.2,M,,*44
$GPVTG,042.1,T,025.7,M,000.23,N,0000.43,K,A*12
$HCHDG,125.0,0.0,E,,*2F
$GPRMC,220003.7,A,4741.18943,N,12224.24816,W,000.25,042.1,070215,016.4,E,A*2E
$YXXDR,A,5.3,D,PTCH,A,4.0,D,ROLL*5F
$TIROT,-24.7,A*27
$GPGGA,220003.7,4741.18943,N,12224.24816,W,1,10,0.9,-1.2,M,-18.2,M,,*45
$GPVTG,042.1,T,025.7,M,000.25,N,0000.45,K,A*12
$HCHDG,125.0,0.0,E,,*2F
$GPRMC,220003.8,A,4741.18943,N,12224.24816,W,000.23,042.1,070215,016.4,E,A*27
$YXXDR,A,5.3,D,PTCH,A,4.0,D,ROLL*5F
$GPGGA,220003.8,4741.18943,N,12224.24816,W,1,10,0.9,-1.2,M,-18.2,M,,*4A
$GPVTG,042.1,T,025.7,M,000.23,N,0000.43,K,A*12
$HCHDG,124.9,0.0,E,,*27
$GPRMC,220003.9,A,4741.18943,N,12224.24816,W,000.21,042.1,070215,016.4,E,A*24
$YXXDR,A,5.4,D,PTCH,A,4.0,D,ROLL*58
$GPGGA,220003.9,4741.18943,N,12224.24816,W,1,10,0.9,-1.2,M,-18.2,M,,*4B
$GPVTG,042.1,T,025.7,M,000.21,N,0000.39,K,A*1D
$HCHDG,124.8,0.0,E,,*26
$YXXDR,A,5.4,D,PTCH,A,4.0,D,ROLL*58
$GPRMC,220004.0,A,4741.18940,N,12224.24817,W,000.52,042.1,070215,016.4,E,A*2C
$GPGGA,220004.0,4741.18940,N,12224.24817,W,1,10,0.9,-1.1,M,-18.2,M,,*44
$GPVTG,042.1,T,025.7,M,000.52,N,0000.97,K,A*1D
$GPGSA,A,3,09,32,20,23,01,06,31,04,16,03,,,1.6,0.9,1.3*30
$HCHDG,124.8,0.0,E,,*26
$YXXDR,A,5.4,D,PTCH,A,4.1,D,ROLL*59
$GPRMC,220004.1,A,4741.18940,N,12224.24817,W,000.50,042.1,070215,016.4,E,A*2F
$GPGGA,220004.1,4741.18940,N,12224.24817,W,1,10,0.9,-1.1,M,-18.2,M,,*45
$GPVTG,042.1,T,025.6,M,000.50,N,0000.93,K,A*1A
$GPGSV,3,1,10,09,21,276,40,32,45,142,41,20,25,309,45,23,52,283,45*75
$GPGSV,3,2,10,01,19,212,32,06,17,319,41,31,39,052,33,04,02,190,21*7C
$GPGSV,3,3,10,16,19,143,40,03,79,231,34*7F
$GPRMC,220004.2,A,4741.18940,N,12224.24817,W,000.44,042.0,070215,016.4,E,A*28
$GPGGA,220004.2,4741.18940,N,12224.24817,W,1,10,0.9,-1.1,M,-18.2,M,,*46
$HCHDG,124.8,0.0,E,,*26
$YXXDR,A,5.6,D,PTCH,A,4.0,D,ROLL*5A
$GPVTG,042.0,T,025.6,M,000.44,N,0000.81,K,A*1D
$HCHDG,124.8,0.0,E,,*26
$GPRMC,220004.3,A,4741.18940,N,12224.24817,W,000.37,041.9,070215,016.4,E,A*27
$YXXDR,A,5.6,D,PTCH,A,4.1,D,ROLL*5B
$GPGGA,220004.3,4741.18940,N,12224.24817,W,1,10,0.9,-1.1,M,-18.2,M,,*47
$GPVTG,041.9,T,025.5,M,000.37,N,0000.69,K,A*16
$HCHDG,124.9,0.0,E,,*27
$YXXDR,A,5.7,D,PTCH,A,4.4,D,ROLL*5F
$GPRMC,220004.4,A,4741.18940,N,12224.24817,W,000.32,041.8,070215,016.4,E,A*24
$GPGGA,220004.4,4741.18940,N,12224.24817,W,1,10,0.9,-1.1,M,-18.2,M,,*40
$GPVTG,041.8,T,025.4,M,000.32,N,0000.59,K,A*10
$HCHDG,124.8,0.0,E,,*26
$GPRMC,220004.5,A,4741.18940,N,12224.24817,W,000.61,041.4,070215,016.4,E,A*2F
$GPGGA,220004.5,4741.18940,N,12224.24817,W,1,10,0.9,-1.1,M,-18.2,M,,*41
$YXXDR,A,5.6,D,PTCH,A,4.4,D,ROLL*5E
$GPVTG,041.4,T,025.0,M,000.61,N,0001.13,K,A*11
$HCHDG,124.8,0.0,E,,*26
$GPRMC,220004.6,A,4741.18940,N,12224.24817,W,000.03,041.4,070215,016.4,E,A*28
$YXXDR,A,5.7,D,PTCH,A,4.6,D,ROLL*5D
$GPGGA,220004.6,4741.18940,N,12224.24817,W,1,10,0.9,-1.1,M,-18.2,M,,*42
$GPVTG,041.4,T,025.0,M,000.03,N,0000.05,K,A*13
$HCHDG,124.7,0.0,E,,*29
$YXXDR,A,5.5,D,PTCH,A,4.7,D,ROLL*5E
$GPRMC,220004.7,A,4741.18940,N,12224.24817,W,000.08,041.4,070215,016.4,E,A*22
$TIROT,-8.7,A*19
$GPGGA,220004.7,4741.18940,N,12224.24817,W,1,10,0.9,-1.1,M,-18.2,M,,*43
$GPVTG,041.4,T,025.0,M,000.08,N,0000.16,K,A*1A
$HCHDG,124.8,0.0,E,,*26
$YXXDR,A,5.4,D,PTCH,A,4.9,D,ROLL*51
$GPRMC,220004.8,A,4741.18940,N,12224.24817,W,000.11,041.4,070215,016.4,E,A*25
$GPGGA,220004.8,4741.18940,N,12224.24817,W,1,10,0.9,-1.1,M,-18.2,M,,*4C
$GPVTG,041.4,T,025.0,M,000.11,N,0000.20,K,A*17
$HCHDG,124.7,0.0,E,,*29
$YXXDR,A,5.3,D,PTCH,A,5.0,D,ROLL*5E
$GPRMC,220004.9,A,4741.18940,N,12224.24817,W,000.11,041.4,070215,016.4,E,A*24
$GPGGA,220004.9,4741.18940,N,12224.24817,W,1,10,0.9,-1.1,M,-18.2,M,,*4D
$GPVTG,041.4,T,025.0,M,000.11,N,0000.20,K,A*17
$HCHDG,124.9,0.0,E,,*27
$YXXDR,A,5.3,D,PTCH,A,5.0,D,ROLL*5E
$GPRMC,220005.0,A,4741.18940,N,12224.24817,W,000.13,041.4,070215,016.4,E,A*2E
$GPGGA,220005.0,4741.18940,N,12224.24817,W,1,10,0.9,-1.1,M,-18.2,M,,*45
$GPVTG,041.4,T,025.0,M,000.13,N,0000.25,K,A*10
$GPGSA,A,3,09,32,20,23,01,06,31,04,16,03,,,1.6,0.9,1.3*30
$HCHDG,124.8,0.0,E,,*26
$YXXDR,A,5.3,D,PTCH,A,5.0,D,ROLL*5E
$GPRMC,220005.1,A,4741.18940,N,12224.24817,W,000.14,041.4,070215,016.4,E,A*28
$GPGGA,220005.1,4741.18940,N,12224.24817,W,1,10,0.9,-1.1,M,-18.2,M,,*44
$GPVTG,041.4,T,025.0,M,000.14,N,0000.26,K,A*14
$GPGSV,3,1,10,09,21,276,40,32,45,142,41,20,25,309,45,23,52,283,45*75
$GPGSV,3,2,10,01,19,212,32,06,17,319,41,31,39,052,30,04,02,190,21*7F
$HCHDG,124.8,0.0,E,,*26
$GPGSV,3,3,10,16,19,143,40,03,79,231,34*7F
$YXXDR,A,5.4,D,PTCH,A,5.1,D,ROLL*58
$GPRMC,220005.2,A,4741.18940,N,12224.24817,W,000.19,041.4,070215,016.4,E,A*26
$GPGGA,220005.2,4741.18940,N,12224.24817,W,1,10,0.9,-1.1,M,-18.2,M,,*47
$GPVTG,041.4,T,025.0,M,000.19,N,0000.35,K,A*1B
$HCHDG,124.7,0.0,E,,*29
$YXXDR,A,5.5,D,PTCH,A,5.0,D,ROLL*58
$GPRMC,220005.3,A,4741.18940,N,12224.24817,W,000.21,041.4,070215,016.4,E,A*2C
$GPGGA,220005.3,4741.18940,N,12224.24817,W,1,10,0.9,-1.1,M,-18.2,M,,*46
$GPVTG,041.4,T,025.0,M,000.21,N,0000.38,K,A*1D
$HCHDG,124.9,0.0,E,,*27
$YXXDR,A,5.8,D,PTCH,A,5.1,D,ROLL*54
$GPRMC,220005.4,A,4741.18940,N,12224.24817,W,000.20,041.4,070215,016.4,E,A*2A
$GPGGA,220005.4,4741.18940,N,12224.24817,W,1,10,0.9,-1.1,M,-18.2,M,,*41
$GPVTG,041.4,T,025.0,M,000.20,N,0000.36,K,A*12
$HCHDG,124.8,0.0,E,,*26
$YXXDR,A,5.8,D,PTCH,A,5.1,D,ROLL*54
$GPRMC,220005.5,A,4741.18939,N,12224.24819,W,000.20,041.4,070215,016.4,E,A*2B
$GPGGA,220005.5,4741.18939,N,12224.24819,W,1,10,0.9,-1.1,M,-18.2,M,,*40
$GPVTG,041.4,T,025.0,M,000.20,N,0000.37,K,A*13
$HCHDG,124.9,0.0,E,,*27
$YXXDR,A,5.6,D,PTCH,A,5.1,D,ROLL*5A
$GPRMC,220005.6,A,4741.18939,N,12224.24819,W,000.17,041.4,070215,016.4,E,A*2C
$GPGGA,220005.6,4741.18939,N,12224.24819,W,1,10,0.9,-1.1,M,-18.2,M,,*43
$GPVTG,041.4,T,025.0,M,000.17,N,0000.31,K,A*11
$HCHDG,124.8,0.0,E,,*26
$YXXDR,A,5.6,D,PTCH,A,5.1,D,ROLL*5A
$TIROT,-25.1,A*20
$GPRMC,220005.7,A,4741.18939,N,12224.24819,W,000.18,041.4,070215,016.4,E,A*22
$GPGGA,220005.7,4741.18939,N,12224.24819,W,1,10,0.9,-1.1,M,-18.2,M,,*42
$GPVTG,041.4,T,025.0,M,000.18,N,0000.33,K,A*1C
$HCHDG,124.8,0.0,E,,*26
$YXXDR,A,5.6,D,PTCH,A,5.1,D,ROLL*5A
$GPRMC,220005.8,A,4741.18939,N,12224.24819,W,000.17,041.4,070215,016.4,E,A*22
$GPGGA,220005.8,4741.18939,N,12224.24819,W,1,10,0.9,-1.1,M,-18.2,M,,*4D
$GPVTG,041.4,T,025.0,M,000.17,N,0000.31,K,A*11
$HCHDG,124.8,0.0,E,,*26
$YXXDR,A,5.6,D,PTCH,A,5.1,D,ROLL*5A
$GPRMC,220005.9,A,4741.18939,N,12224.24819,W,000.15,041.4,070215,016.4,E,A*21
$GPGGA,220005.9,4741.18939,N,12224.24819,W,1,10,0.9,-1.1,M,-18.2,M,,*4C
$GPVTG,041.4,T,025.0,M,000.15,N,0000.28,K,A*1B
$HCHDG,124.7,0.0,E,,*29
$YXXDR,A,5.6,D,PTCH,A,5.1,D,ROLL*5A
$GPRMC,220006.0,A,4741.18939,N,12224.24819,W,000.15,041.4,070215,016.4,E,A*2B
$GPGGA,220006.0,4741.18939,N,12224.24819,W,1,10,0.9,-1.1,M,-18.2,M,,*46
$GPVTG,041.4,T,025.0,M,000.15,N,0000.28,K,A*1B
$GPGSA,A,3,09,32,20,23,01,06,31,04,16,03,,,1.6,0.9,1.3*30
$HCHDG,124.6,0.0,E,,*28
$YXXDR,A,5.6,D,PTCH,A,5.1,D,ROLL*5A
$GPRMC,220006.1,A,4741.18939,N,12224.24819,W,000.13,041.4,070215,016.4,E,A*2C
$GPGGA,220006.1,4741.18939,N,12224.24819,W,1,10,0.9,-1.1,M,-18.2,M,,*47
$GPVTG,041.4,T,025.0,M,000.13,N,0000.24,K,A*11
$GPGSV,3,1,10,09,21,276,40,32,45,142,41,20,25,309,46,23,52,283,45*76
$GPGSV,3,2,10,01,19,212,34,06,17,319,41,31,39,052,29,04,02,190,21*71
$HCHDG,124.5,0.0,E,,*2B
$GPGSV,3,3,10,16,19,143,40,03,79,231,34*7F
$YXXDR,A,5.6,D,PTCH,A,5.1,D,ROLL*5A
$GPRMC,220006.2,A,4741.18939,N,12224.24819,W,000.13,041.4,070215,016.4,E,A*2F
$GPGGA,220006.2,4741.18939,N,12224.24819,W,1,10,0.9,-1.1,M,-18.2,M,,*44
$GPVTG,041.4,T,025.0,M,000.13,N,0000.25,K,A*10
$HCHDG,124.6,0.0,E,,*28
$YXXDR,A,5.6,D,PTCH,A,5.0,D,ROLL*5B
$GPRMC,220006.3,A,4741.18939,N,12224.24819,W,000.16,041.4,070215,016.4,E,A*2B
$GPGGA,220006.3,4741.18939,N,12224.24819,W,1,10,0.9,-1.1,M,-18.2,M,,*45
$GPVTG,041.4,T,025.0,M,000.16,N,0000.30,K,A*11
$HCHDG,124.7,0.0,E,,*29
$YXXDR,A,5.6,D,PTCH,A,5.0,D,ROLL*5B
$GPRMC,220006.4,A,4741.18939,N,12224.24819,W,000.20,041.4,070215,016.4,E,A*29
$GPGGA,220006.4,4741.18939,N,12224.24819,W,1,10,0.9,-1.1,M,-18.2,M,,*42
$GPVTG,041.4,T,025.0,M,000.20,N,0000.38,K,A*1C
$HCHDG,124.6,0.0,E,,*28
$YXXDR,A,5.5,D,PTCH,A,4.9,D,ROLL*50
$GPRMC,220006.5,A,4741.18938,N,12224.24818,W,000.19,041.4,070215,016.4,E,A*22
$GPGGA,220006.5,4741.18938,N,12224.24818,W,1,10,0.9,-1.1,M,-18.2,M,,*43
$GPVTG,041.4,T,025.0,M,000.19,N,0000.35,K,A*1B
$HCHDG,124.5,0.0,E,,*2B
$YXXDR,A,5.5,D,PTCH,A,4.7,D,ROLL*5E
$GPRMC,220006.6,A,4741.18938,N,12224.24818,W,000.17,041.4,070215,016.4,E,A*2F
$GPGGA,220006.6,4741.18938,N,12224.24818,W,1,10,0.9,-1.1,M,-18.2,M,,*40
$GPVTG,041.4,T,025.0,M,000.17,N,0000.32,K,A*12
$HCHDG,124.5,0.0,E,,*2B
$YXXDR,A,5.6,D,PTCH,A,4.5,D,ROLL*5F
$TIROT,-17.5,A*25
$GPRMC,220006.7,A,4741.18938,N,12224.24818,W,000.20,041.4,070215,016.4,E,A*2A
$GPGGA,220006.7,4741.18938,N,12224.24818,W,1,10,0.9,-1.1,M,-18.2,M,,*41
$GPVTG,041.4,T,025.0,M,000.20,N,0000.36,K,A*12
$HCHDG,124.6,0.0,E,,*28
$YXXDR,A,5.4,D,PTCH,A,4.5,D,ROLL*5D
$GPRMC,220006.8,A,4741.18938,N,12224.24818,W,000.24,041.4,070215,016.4,E,A*21
$GPGGA,220006.8,4741.18938,N,12224.24818,W,1,10,0.9,-1.1,M,-18.2,M,,*4E
$GPVTG,041.4,T,025.0,M,000.24,N,0000.45,K,A*12
$HCHDG,124.5,0.0,E,,*2B
$YXXDR,A,5.4,D,PTCH,A,4.4,D,ROLL*5C
$GPRMC,220006.9,A,4741.18938,N,12224.24818,W,000.23,041.4,070215,016.4,E,A*27
$GPGGA,220006.9,4741.18938,N,12224.24818,W,1,10,0.9,-1.1,M,-18.2,M,,*4F
$GPVTG,041.4,T,025.0,M,000.23,N,0000.42,K,A*12
$HCHDG,124.5,0.0,E,,*2B
$YXXDR,A,5.4,D,PTCH,A,4.3,D,ROLL*5B
$GPRMC,220007.0,A,4741.18938,N,12224.24818,W,000.20,041.4,070215,016.4,E,A*2C
$GPGGA,220007.0,4741.18938,N,12224.24818,W,1,10,0.9,-1.2,M,-18.2,M,,*44
$GPVTG,041.4,T,025.0,M,000.20,N,0000.37,K,A*13
$GPGSA,A,3,09,32,20,23,01,06,31,04,16,03,,,1.6,0.9,1.3*30
$HCHDG,124.8,0.0,E,,*26
$YXXDR,A,5.4,D,PTCH,A,4.2,D,ROLL*5A
$GPRMC,220007.1,A,4741.18938,N,12224.24818,W,001.16,041.4,070215,016.4,E,A*29
$GPGGA,220007.1,4741.18938,N,12224.24818,W,1,10,0.9,-1.2,M,-18.2,M,,*45
$GPVTG,041.4,T,025.0,M,001.16,N,0002.15,K,A*15
$GPGSV,3,1,10,09,21,276,39,32,45,142,41,20,25,309,46,23,52,283,45*78
$HCHDG,124.8,0.0,E,,*26
$GPGSV,3,2,10,01,19,212,34,06,17,319,41,31,39,052,29,04,02,190,20*70
$GPGSV,3,3,10,16,19,143,41,03,79,231,36*7C
$YXXDR,A,5.4,D,PTCH,A,4.3,D,ROLL*5B
$GPRMC,220007.2,A,4741.18938,N,12224.24818,W,000.69,041.4,070215,016.4,E,A*23
$GPGGA,220007.2,4741.18938,N,12224.24818,W,1,10,0.9,-1.2,M,-18.2,M,,*46
$GPVTG,041.4,T,025.0,M,000.69,N,0001.28,K,A*11
$GPRMC,220007.3,A,4741.18938,N,12224.24818,W,000.72,041.4,070215,016.4,E,A*28
$GPGGA,220007.3,4741.18938,N,12224.24818,W,1,10,0.9,-1.2,M,-18.2,M,,*47
$HCHDG,124.7,0.0,E,,*29
$GPVTG,041.4,T,025.0,M,000.72,N,0001.33,K,A*11
$YXXDR,A,5.4,D,PTCH,A,4.3,D,ROLL*5B
$GPRMC,220007.4,A,4741.18938,N,12224.24818,W,000.45,041.4,070215,016.4,E,A*2B
$GPGGA,220007.4,4741.18938,N,12224.24818,W,1,10,0.9,-1.2,M,-18.2,M,,*40
$HCHDG,124.6,0.0,E,,*28
$GPVTG,041.4,T,025.0,M,000.45,N,0000.84,K,A*18
$YXXDR,A,5.5,D,PTCH,A,4.2,D,ROLL*5B
$GPRMC,220007.5,A,4741.18938,N,12224.24818,W,000.41,041.4,070215,016.4,E,A*2E
$GPGGA,220007.5,4741.18938,N,12224.24818,W,1,10,0.9,-1.2,M,-18.2,M,,*41
$HCHDG,124.6,0.0,E,,*28
$GPVTG,041.4,T,025.0,M,000.41,N,0000.75,K,A*12
$YXXDR,A,5.6,D,PTCH,A,4.1,D,ROLL*5B
$GPRMC,220007.6,A,4741.18938,N,12224.24818,W,000.35,041.4,070215,016.4,E,A*2E
$GPGGA,220007.6,4741.18938,N,12224.24818,W,1,10,0.9,-1.2,M,-18.2,M,,*42
$HCHDG,124.5,0.0,E,,*2B
$GPVTG,041.4,T,025.0,M,000.35,N,0000.65,K,A*10
$YXXDR,A,5.6,D,PTCH,A,4.1,D,ROLL*5B
$GPRMC,220007.7,A,4741.18938,N,12224.24818,W,000.35,041.4,070215,016.4,E,A*2F
$HCHDG,124.6,0.0,E,,*28
$GPGGA,220007.7,4741.18938,N,12224.24818,W,1,10,0.9,-1.2,M,-18.2,M,,*43
$GPVTG,041.4,T,025.0,M,000.35,N,0000.64,K,A*11
$YXXDR,A,5.6,D,PTCH,A,4.1,D,ROLL*5B
$TIROT,-1.3,A*14
$GPRMC,220007.8,A,4741.18938,N,12224.24818,W,000.31,041.4,070215,016.4,E,A*24
$HCHDG,124.5,0.0,E,,*2B
$GPGGA,220007.8,4741.18938,N,12224.24818,W,1,10,0.9,-1.2,M,-18.2,M,,*4C
$GPVTG,041.4,T,025.0,M,000.31,N,0000.57,K,A*15
$YXXDR,A,5.6,D,PTCH,A,4.2,D,ROLL*58
$GPRMC,220007.9,A,4741.18938,N,12224.24818,W,000.32,041.4,070215,016.4,E,A*26
$HCHDG,124.5,0.0,E,,*2B
$GPGGA,220007.9,4741.18938,N,12224.24818,W,1,10,0.9,-1.2,M,-18.2,M,,*4D
$GPVTG,041.4,T,025.0,M,000.32,N,0000.60,K,A*12
$YXXDR,A,5.5,D,PTCH,A,4.3,D,ROLL*5A
$GPRMC,220008.0,A,4741.18938,N,12224.24818,W,000.29,041.4,070215,016.4,E,A*2A
$HCHDG,124.5,0.0,E,,*2B
$GPGGA,220008.0,4741.18938,N,12224.24818,W,1,10,0.9,-1.2,M,-18.2,M,,*4B
$GPVTG,041.4,T,025.0,M,000.29,N,0000.54,K,A*1F
$YXXDR,A,5.4,D,PTCH,A,4.3,D,ROLL*5B
$GPGSA,A,3,09,32,20,23,01,06,31,04,16,03,,,1.6,0.9,1.3*30
$GPRMC,220008.1,A,4741.18938,N,12224.24818,W,000.28,041.4,070215,016.4,E,A*2A
$HCHDG,124.6,0.0,E,,*28
$GPGGA,220008.1,4741.18938,N,12224.24818,W,1,10,0.9,-1.2,M,-18.2,M,,*4A
$GPVTG,041.4,T,025.0,M,000.28,N,0000.52,K,A*18
$YXXDR,A,5.4,D,PTCH,A,4.3,D,ROLL*5B
$GPGSV,3,1,10,09,21,276,39,32,45,142,41,20,25,309,46,23,52,283,45*78
$GPGSV,3,2,10,01,19,212,35,06,17,319,41,31,39,052,29,04,02,190,20*71
$GPGSV,3,3,10,16,19,143,40,03,79,231,37*7C
$GPRMC,220008.2,A,4741.18938,N,12224.24818,W,000.26,041.4,070215,016.4,E,A*27
$HCHDG,124.7,0.0,E,,*29
$GPGGA,220008.2,4741.18938,N,12224.24818,W,1,10,0.9,-1.2,M,-18.2,M,,*49
$GPVTG,041.4,T,025.0,M,000.26,N,0000.49,K,A*1C
$YXXDR,A,5.6,D,PTCH,A,4.3,D,ROLL*59
$GPRMC,220008.3,A,4741.18938,N,12224.24818,W,000.24,041.4,070215,016.4,E,A*24
$HCHDG,124.7,0.0,E,,*29
$GPGGA,220008.3,4741.18938,N,12224.24818,W,1,10,0.9,-1.2,M,-18.2,M,,*48
$GPVTG,041.4,T,025.0,M,000.24,N,0000.45,K,A*12
$YXXDR,A,5.6,D,PTCH,A,4.3,D,ROLL*59
$GPRMC,220008.4,A,4741.18938,N,12224.24818,W,000.24,041.4,070215,016.4,E,A*23
$GPGGA,220008.4,4741.18938,N,12224.24818,W,1,10,0.9,-1.2,M,-18.2,M,,*4F
$GPVTG,041.4,T,025.0,M,000.24,N,0000.44,K,A*13
$HCHDG,124.7,0.0,E,,*29
$YXXDR,A,5.5,D,PTCH,A,4.3,D,ROLL*5A
$GPRMC,220008.5,A,4741.18935,N,12224.24815,W,000.22,041.4,070215,016.4,E,A*24
$HCHDG,124.7,0.0,E,,*29
$GPGGA,220008.5,4741.18935,N,12224.24815,W,1,10,0.9,-1.2,M,-18.2,M,,*4E
$GPVTG,041.4,T,025.0,M,000.22,N,0000.41,K,A*10
$YXXDR,A,5.6,D,PTCH,A,4.4,D,ROLL*5E
$GPRMC,220008.6,A,4741.18935,N,12224.24815,W,000.21,041.4,070215,016.4,E,A*24
$HCHDG,124.7,0.0,E,,*29
$GPGGA,220008.6,4741.18935,N,12224.24815,W,1,10,0.9,-1.2,M,-18.2,M,,*4D
$GPVTG,041.4,T,025.0,M,000.21,N,0000.39,K,A*1C
$YXXDR,A,5.6,D,PTCH,A,4.3,D,ROLL*59
$GPRMC,220008.7,A,4741.18935,N,12224.24815,W,000.23,041.4,070215,016.4,E,A*27
$HCHDG,124.8,0.0,E,,*26
$GPGGA,220008.7,4741.18935,N,12224.24815,W,1,10,0.9,-1.2,M,-18.2,M,,*4C
$GPVTG,041.4,T,025.0,M,000.23,N,0000.42,K,A*12
$YXXDR,A,5.4,D,PTCH,A,4.7,D,ROLL*5F
$TIROT,11.7,A*0C
$GPRMC,220008.8,A,4741.18935,N,12224.24815,W,000.25,041.4,070215,016.4,E,A*2E
$HCHDG,124.7,0.0,E,,*29
$GPGGA,220008.8,4741.18935,N,12224.24815,W,1,10,0.9,-1.2,M,-18.2,M,,*43
$GPVTG,041.4,T,025.0,M,000.25,N,0000.46,K,A*10
$YXXDR,A,5.4,D,PTCH,A,4.7,D,ROLL*5F
$GPRMC,220008.9,A,4741.18935,N,12224.24815,W,000.24,041.4,070215,016.4,E,A*2E
$HCHDG,124.7,0.0,E,,*29
$YXXDR,A,5.5,D,PTCH,A,4.7,D,ROLL*5E
$GPGGA,220008.9,4741.18935,N,12224.24815,W,1,10,0.9,-1.2,M,-18.2,M,,*42
$GPVTG,041.4,T,025.0,M,000.24,N,0000.44,K,A*13
$GPRMC,220009.0,A,4741.18935,N,12224.24815,W,000.22,041.4,070215,016.4,E,A*20
$HCHDG,124.7,0.0,E,,*29
$GPGGA,220009.0,4741.18935,N,12224.24815,W,1,10,0.9,-1.3,M,-18.2,M,,*4B
$YXXDR,A,5.8,D,PTCH,A,4.9,D,ROLL*5D
$GPVTG,041.4,T,025.0,M,000.22,N,0000.41,K,A*10
$GPGSA,A,3,09,32,20,23,01,06,31,04,16,03,,,1.6,0.9,1.3*30
$GPRMC,220009.1,A,4741.18932,N,12224.24816,W,000.62,041.4,070215,016.4,E,A*21
$HCHDG,124.8,0.0,E,,*26
$GPGGA,220009.1,4741.18932,N,12224.24816,W,1,10,0.9,-1.3,M,-18.2,M,,*4E
$GPVTG,041.4,T,025.0,M,000.62,N,0001.14,K,A*15
$YXXDR,A,5.8,D,PTCH,A,4.8,D,ROLL*5C
$GPGSV,3,1,10,09,21,276,39,32,45,142,41,20,25,309,47,23,52,283,45*79
$GPGSV,3,2,10,01,19,212,35,06,17,319,41,31,39,052,28,04,02,190,19*7A
$GPGSV,3,3,10,16,19,143,41,03,79,231,37*7D
$GPRMC,220009.2,A,4741.18932,N,12224.24816,W,000.55,041.4,070215,016.4,E,A*26
$HCHDG,124.8,0.0,E,,*26
$GPGGA,220009.2,4741.18932,N,12224.24816,W,1,10,0.9,-1.3,M,-18.2,M,,*4D
$GPVTG,041.4,T,025.0,M,000.55,N,0001.02,K,A*16
$YXXDR,A,5.7,D,PTCH,A,5.0,D,ROLL*5A
$GPRMC,220009.3,A,4741.18932,N,12224.24816,W,000.47,041.4,070215,016.4,E,A*24
$HCHDG,124.8,0.0,E,,*26
$GPGGA,220009.3,4741.18932,N,12224.24816,W,1,10,0.9,-1.3,M,-18.2,M,,*4C
$YXXDR,A,5.4,D,PTCH,A,5.2,D,ROLL*5B
$GPVTG,041.4,T,025.0,M,000.47,N,0000.87,K,A*19
$GPRMC,220009.4,A,4741.18932,N,12224.24816,W,000.41,041.4,070215,016.4,E,A*25
$HCHDG,124.8,0.0,E,,*26
$GPGGA,220009.4,4741.18932,N,12224.24816,W,1,10,0.9,-1.3,M,-18.2,M,,*4B
$YXXDR,A,5.2,D,PTCH,A,5.2,D,ROLL*5D
$GPVTG,041.4,T,025.0,M,000.41,N,0000.75,K,A*12
$GPRMC,220009.5,A,4741.18932,N,12224.24816,W,000.38,041.4,070215,016.4,E,A*2A
$HCHDG,124.9,0.0,E,,*27
$GPGGA,220009.5,4741.18932,N,12224.24816,W,1,10,0.9,-1.3,M,-18.2,M,,*4A
$YXXDR,A,5.2,D,PTCH,A,5.2,D,ROLL*5D
$GPVTG,041.4,T,025.0,M,000.38,N,0000.70,K,A*19
$HCHDG,125.0,0.0,E,,*2F
$GPRMC,220009.6,A,4741.18932,N,12224.24816,W,000.33,041.4,070215,016.4,E,A*22
$GPGGA,220009.6,4741.18932,N,12224.24816,W,1,10,0.9,-1.3,M,-18.2,M,,*49
$YXXDR,A,5.4,D,PTCH,A,5.2,D,ROLL*5B
$GPVTG,041.4,T,025.0,M,000.33,N,0000.61,K,A*12
$HCHDG,125.0,0.0,E,,*2F
$GPRMC,220009.7,A,4741.18932,N,12224.24816,W,000.51,041.4,070215,016.4,E,A*27
$GPGGA,220009.7,4741.18932,N,12224.24816,W,1,10,0.9,-1.3,M,-18.2,M,,*48
$YXXDR,A,5.3,D,PTCH,A,5.2,D,ROLL*5C
$TIROT,-5.8,A*1B
$GPVTG,041.4,T,025.0,M,000.51,N,0000.95,K,A*1D
$GPRMC,220009.8,A,4741.18932,N,12224.24816,W,000.47,041.4,070215,016.4,E,A*2F
$HCHDG,125.1,0.0,E,,*2E
$YXXDR,A,5.3,D,PTCH,A,5.2,D,ROLL*5C
$GPGGA,220009.8,4741.18932,N,12224.24816,W,1,10,0.9,-1.3,M,-18.2,M,,*47
$GPVTG,041.4,T,025.0,M,000.47,N,0000.87,K,A*19
$HCHDG,124.8,0.0,E,,*26
$GPRMC,220009.9,A,4741.18932,N,12224.24816,W,000.44,041.4,070215,016.4,E,A*2D
$GPGGA,220009.9,4741.18932,N,12224.24816,W,1,10,0.9,-1.3,M,-18.2,M,,*46
$YXXDR,A,5.4,D,PTCH,A,5.1,D,ROLL*58
$GPVTG,041.4,T,025.0,M,000.44,N,0000.82,K,A*1F
$HCHDG,124.9,0.0,E,,*27
$GPRMC,220010.0,A,4741.18932,N,12224.24816,W,000.39,041.4,070215,016.4,E,A*26
$GPGGA,220010.0,4741.18932,N,12224.24816,W,1,10,0.9,-1.4,M,-18.2,M,,*40
$YXXDR,A,5.5,D,PTCH,A,5.0,D,ROLL*58
$GPVTG,041.4,T,025.0,M,000.39,N,0000.72,K,A*1A
$GPGSA,A,3,09,32,20,23,01,06,31,04,16,03,,,1.6,0.9,1.3*30
$GPRMC,220010.1,A,4741.18930,N,12224.24814,W,000.39,041.4,070215,016.4,E,A*27
$HCHDG,124.9,0.0,E,,*27
$YXXDR,A,5.5,D,PTCH,A,5.0,D,ROLL*58
$GPGGA,220010.1,4741.18930,N,12224.24814,W,1,10,0.9,-1.4,M,-18.2,M,,*41
$GPVTG,041.4,T,025.0,M,000.39,N,0000.72,K,A*1A
$GPGSV,3,1,10,09,21,276,38,32,45,142,42,20,25,309,47,23,52,283,45*7B
$GPGSV,3,2,10,01,19,212,34,06,17,319,40,31,39,052,28,04,02,190,18*7B
$GPGSV,3,3,10,16,19,143,41,03,79,231,35*7F
$HCHDG,124.9,0.0,E,,*27
$GPRMC,220010.2,A,4741.18930,N,12224.24814,W,000.36,041.4,070215,016.4,E,A*2B
$GPGGA,220010.2,4741.18930,N,12224.24814,W,1,10,0.9,-1.4,M,-18.2,M,,*42
$YXXDR,A,5.5,D,PTCH,A,5.0,D,ROLL*58
$GPVTG,041.4,T,025.0,M,000.36,N,0000.66,K,A*10
$HCHDG,124.8,0.0,E,,*26
$YXXDR,A,5.6,D,PTCH,A,5.0,D,ROLL*5B
$GPRMC,220010.3,A,4741.18930,N,12224.24814,W,000.34,041.4,070215,016.4,E,A*28
$GPGGA,220010.3,4741.18930,N,12224.24814,W,1,10,0.9,-1.4,M,-18.2,M,,*43
$GPVTG,041.4,T,025.0,M,000.34,N,0000.63,K,A*17
$HCHDG,124.8,0.0,E,,*26
$GPRMC,220010.4,A,4741.18930,N,12224.24814,W,000.32,041.4,070215,016.4,E,A*29
$GPGGA,220010.4,4741.18930,N,12224.24814,W,1,10,0.9,-1.4,M,-18.2,M,,*44
$YXXDR,A,5.5,D,PTCH,A,4.9,D,ROLL*50
$GPVTG,041.4,T,025.0,M,000.32,N,0000.60,K,A*12
$HCHDG,124.8,0.0,E,,*26
$GPRMC,220010.5,A,4741.18930,N,12224.24814,W,000.35,041.4,070215,016.4,E,A*2F
$GPGGA,220010.5,4741.18930,N,12224.24814,W,1,10,0.9,-1.4,M,-18.2,M,,*45
$YXXDR,A,5.5,D,PTCH,A,4.9,D,ROLL*50
$GPVTG,041.4,T,025.0,M,000.35,N,0000.65,K,A*10
$HCHDG,124.8,0.0,E,,*26
$GPRMC,220010.6,A,4741.18930,N,12224.24814,W,000.34,041.4,070215,016.4,E,A*2D
$GPGGA,220010.6,4741.18930,N,12224.24814,W,1,10,0.9,-1.4,M,-18.2,M,,*46
$YXXDR,A,5.5,D,PTCH,A,4.9,D,ROLL*50
$GPVTG,041.4,T,025.0,M,000.34,N,0000.62,K,A*16
$HCHDG,124.8,0.0,E,,*26
$GPRMC,220010.7,A,4741.18930,N,12224.24814,W,000.34,041.4,070215,016.4,E,A*2C
$GPGGA,220010.7,4741.18930,N,12224.24814,W,1,10,0.9,-1.4,M,-18.2,M,,*47
$YXXDR,A,5.4,D,PTCH,A,4.7,D,ROLL*5F
$TIROT,-11.7,A*21
$GPVTG,041.4,T,025.0,M,000.34,N,0000.63,K,A*17
$HCHDG,124.8,0.0,E,,*26
$GPRMC,220010.8,A,4741.18930,N,12224.24814,W,000.31,041.4,070215,016.4,E,A*26
$YXXDR,A,5.4,D,PTCH,A,4.6,D,ROLL*5E
$GPGGA,220010.8,4741.18930,N,12224.24814,W,1,10,0.9,-1.4,M,-18.2,M,,*48
$GPVTG,041.4,T,025.0,M,000.31,N,0000.58,K,A*1A
$HCHDG,124.8,0.0,E,,*26
$GPRMC,220010.9,A,4741.18930,N,12224.24814,W,000.31,041.4,070215,016.4,E,A*27
$YXXDR,A,5.6,D,PTCH,A,4.5,D,ROLL*5F
$GPGGA,220010.9,4741.18930,N,12224.24814,W,1,10,0.9,-1.4,M,-18.2,M,,*49
$GPVTG,041.4,T,025.0,M,000.31,N,0000.57,K,A*15
$HCHDG,124.9,0.0,E,,*27
$GPRMC,220011.0,A,4741.18930,N,12224.24814,W,000.27,041.4,070215,016.4,E,A*28
$YXXDR,A,5.6,D,PTCH,A,4.5,D,ROLL*5F
$GPGGA,220011.0,4741.18930,N,12224.24814,W,1,10,0.9,-1.6,M,-18.2,M,,*43
$GPVTG,041.4,T,025.0,M,000.27,N,0000.50,K,A*15
$GPGSA,A,3,09,32,20,23,01,06,31,04,16,03,,,1.6,0.9,1.3*30
$HCHDG,124.9,0.0,E,,*27
$GPRMC,220011.1,A,4741.18933,N,12224.24815,W,000.47,041.4,070215,016.4,E,A*2D
$YXXDR,A,5.6,D,PTCH,A,4.5,D,ROLL*5F
$GPGGA,220011.1,4741.18933,N,12224.24815,W,1,10,0.9,-1.6,M,-18.2,M,,*40
$GPVTG,041.4,T,025.0,M,000.47,N,0000.88,K,A*16
$GPGSV,3,1,10,09,21,276,37,32,45,142,41,20,25,309,47,23,52,283,46*74
$GPGSV,3,2,10,01,19,212,34,06,17,319,40,31,39,052,27,04,02,190,18*74
$GPGSV,3,3,10,16,19,143,41,03,79,231,36*7C
$HCHDG,124.9,0.0,E,,*27
$GPRMC,220011.2,A,4741.18933,N,12224.24815,W,000.50,041.4,070215,016.4,E,A*28
$GPGGA,220011.2,4741.18933,N,12224.24815,W,1,10,0.9,-1.6,M,-18.2,M,,*43
$YXXDR,A,5.6,D,PTCH,A,4.5,D,ROLL*5F
$GPVTG,041.4,T,025.0,M,000.50,N,0000.93,K,A*1A
$HCHDG,124.9,0.0,E,,*27
$GPRMC,220011.3,A,4741.18933,N,12224.24815,W,000.04,041.4,070215,016.4,E,A*28
$YXXDR,A,5.5,D,PTCH,A,4.7,D,ROLL*5E
$GPGGA,220011.3,4741.18933,N,12224.24815,W,1,10,0.9,-1.6,M,-18.2,M,,*42
$GPVTG,041.4,T,025.0,M,000.04,N,0000.08,K,A*19
$HCHDG,124.9,0.0,E,,*27
$GPRMC,220011.4,A,4741.18933,N,12224.24815,W,000.07,041.4,070215,016.4,E,A*2C
$YXXDR,A,5.5,D,PTCH,A,5.0,D,ROLL*58
$GPGGA,220011.4,4741.18933,N,12224.24815,W,1,10,0.9,-1.6,M,-18.2,M,,*45
$GPVTG,041.4,T,025.0,M,000.07,N,0000.13,K,A*10
$HCHDG,124.9,0.0,E,,*27
$GPRMC,220011.5,A,4741.18933,N,12224.24815,W,000.09,041.4,070215,016.4,E,A*23
$YXXDR,A,5.7,D,PTCH,A,5.0,D,ROLL*5A
$GPGGA,220011.5,4741.18933,N,12224.24815,W,1,10,0.9,-1.6,M,-18.2,M,,*44
$GPVTG,041.4,T,025.0,M,000.09,N,0000.17,K,A*1A
$HCHDG,124.7,0.0,E,,*29
$GPRMC,220011.6,A,4741.18933,N,12224.24815,W,000.08,041.4,070215,016.4,E,A*21
$YXXDR,A,5.7,D,PTCH,A,5.0,D,ROLL*5A
$GPGGA,220011.6,4741.18933,N,12224.24815,W,1,10,0.9,-1.6,M,-18.2,M,,*47
$GPVTG,041.4,T,025.0,M,000.08,N,0000.16,K,A*1A
$HCHDG,124.7,0.0,E,,*29
$GPRMC,220011.7,A,4741.18933,N,12224.24815,W,000.11,041.4,070215,016.4,E,A*28
$YXXDR,A,5.7,D,PTCH,A,5.0,D,ROLL*5A
$TIROT,-1.6,A*11
$GPGGA,220011.7,4741.18933,N,12224.24815,W,1,10,0.9,-1.6,M,-18.2,M,,*46
$GPVTG,041.4,T,025.0,M,000.11,N,0000.21,K,A*16
$HCHDG,124.7,0.0,E,,*29
$GPRMC,220011.8,A,4741.18933,N,12224.24815,W,000.10,041.4,070215,016.4,E,A*26
$YXXDR,A,5.7,D,PTCH,A,5.0,D,ROLL*5A
$GPGGA,220011.8,4741.18933,N,12224.24815,W,1,10,0.9,-1.6,M,-18.2,M,,*49
$GPVTG,041.4,T,025.0,M,000.10,N,0000.19,K,A*1C
$HCHDG,124.7,0.0,E,,*29
$GPRMC,220011.9,A,4741.18933,N,12224.24815,W,000.13,041.4,070215,016.4,E,A*24
$YXXDR,A,5.6,D,PTCH,A,4.9,D,ROLL*53
$GPGGA,220011.9,4741.18933,N,12224.24815,W,1,10,0.9,-1.6,M,-18.2,M,,*48
$GPVTG,041.4,T,025.0,M,000.13,N,0000.24,K,A*11
$HCHDG,124.7,0.0,E,,*29
$YXXDR,A,5.6,D,PTCH,A,4.9,D,ROLL*53
$GPRMC,220012.0,A,4741.18933,N,12224.24815,W,000.16,041.4,070215,016.4,E,A*2B
$GPGGA,220012.0,4741.18933,N,12224.24815,W,1,10,0.9,-1.6,M,-18.2,M,,*42
$GPVTG,041.4,T,025.0,M,000.16,N,0000.30,K,A*11
$GPGSA,A,3,09,32,20,23,01,06,31,04,16,03,,,1.6,0.9,1.3*30
$HCHDG,124.7,0.0,E,,*29
$GPRMC,220012.1,A,4741.18933,N,12224.24815,W,000.17,041.4,070215,016.4,E,A*2B
$GPGGA,220012.1,4741.18933,N,12224.24815,W,1,10,0.9,-1.6,M,-18.2,M,,*43
$YXXDR,A,5.7,D,PTCH,A,4.8,D,ROLL*53
$GPVTG,041.4,T,025.0,M,000.17,N,0000.32,K,A*12
$GPGSV,3,1,10,09,21,276,37,32,45,142,32,20,25,309,47,23,52,283,46*70
$GPGSV,3,2,10,01,19,212,35,06,17,319,39,31,39,052,28,04,02,190,15*79
$GPGSV,3,3,10,16,19,143,40,03,79,231,35*7E
$HCHDG,124.6,0.0,E,,*28
$YXXDR,A,5.7,D,PTCH,A,4.7,D,ROLL*5C
$GPRMC,220012.2,A,4741.18933,N,12224.24813,W,000.19,041.4,070215,016.4,E,A*20
$GPGGA,220012.2,4741.18933,N,12224.24813,W,1,10,0.9,-1.6,M,-18.2,M,,*46
$GPVTG,041.4,T,025.0,M,000.19,N,0000.34,K,A*1A
$HCHDG,124.6,0.0,E,,*28
$YXXDR,A,5.7,D,PTCH,A,4.7,D,ROLL*5C
$GPRMC,220012.3,A,4741.18933,N,12224.24813,W,000.21,041.4,070215,016.4,E,A*2A
$GPGGA,220012.3,4741.18933,N,12224.24813,W,1,10,0.9,-1.6,M,-18.2,M,,*47
$GPVTG,041.4,T,025.0,M,000.21,N,0000.39,K,A*1C
$HCHDG,124.6,0.0,E,,*28
$GPRMC,220012.4,A,4741.18933,N,12224.24813,W,000.22,041.4,070215,016.4,E,A*2E
$YXXDR,A,5.7,D,PTCH,A,4.6,D,ROLL*5D
$GPGGA,220012.4,4741.18933,N,12224.24813,W,1,10,0.9,-1.6,M,-18.2,M,,*40
$GPVTG,041.4,T,025.0,M,000.22,N,0000.42,K,A*13
$HCHDG,124.6,0.0,E,,*28
$GPRMC,220012.5,A,4741.18933,N,12224.24813,W,000.26,041.4,070215,016.4,E,A*2B
$YXXDR,A,5.7,D,PTCH,A,4.6,D,ROLL*5D
$GPGGA,220012.5,4741.18933,N,12224.24813,W,1,10,0.9,-1.6,M,-18.2,M,,*41
$GPVTG,041.4,T,025.0,M,000.26,N,0000.48,K,A*1D
$HCHDG,124.7,0.0,E,,*29
$YXXDR,A,5.7,D,PTCH,A,4.6,D,ROLL*5D
$GPRMC,220012.6,A,4741.18933,N,12224.24813,W,000.23,041.4,070215,016.4,E,A*2D
$GPGGA,220012.6,4741.18933,N,12224.24813,W,1,10,0.9,-1.6,M,-18.2,M,,*42
$GPVTG,041.4,T,025.0,M,000.23,N,0000.43,K,A*13
$HCHDG,124.6,0.0,E,,*28
$GPRMC,220012.7,A,4741.18933,N,12224.24813,W,000.23,041.4,070215,016.4,E,A*2C
$YXXDR,A,5.7,D,PTCH,A,4.8,D,ROLL*53
$TIROT,11.7,A*0C
$GPGGA,220012.7,4741.18933,N,12224.24813,W,1,10,0.9,-1.6,M,-18.2,M,,*43
$GPVTG,041.4,T,025.0,M,000.23,N,0000.43,K,A*13
$HCHDG,124.6,0.0,E,,*28
$YXXDR,A,5.8,D,PTCH,A,4.6,D,ROLL*52
$GPRMC,220012.8,A,4741.18933,N,12224.24813,W,000.24,041.4,070215,016.4,E,A*24
$GPGGA,220012.8,4741.18933,N,12224.24813,W,1,10,0.9,-1.6,M,-18.2,M,,*4C
$GPVTG,041.4,T,025.0,M,000.24,N,0000.45,K,A*12
$HCHDG,124.5,0.0,E,,*2B
$YXXDR,A,5.8,D,PTCH,A,4.4,D,ROLL*50
$GPRMC,220012.9,A,4741.18933,N,12224.24813,W,000.88,041.4,070215,016.4,E,A*23
$GPGGA,220012.9,4741.18933,N,12224.24813,W,1,10,0.9,-1.6,M,-18.2,M,,*4D
$GPVTG,041.4,T,025.0,M,000.88,N,0001.62,K,A*10
$HCHDG,124.5,0.0,E,,*2B
$YXXDR,A,5.8,D,PTCH,A,4.3,D,ROLL*57
$GPRMC,220013.0,A,4741.18933,N,12224.24813,W,000.10,041.4,070215,016.4,E,A*2A
$GPGGA,220013.0,4741.18933,N,12224.24813,W,1,10,0.9,-1.7,M,-18.2,M,,*44
$GPVTG,041.4,T,025.0,M,000.10,N,0000.18,K,A*1D
$GPGSA,A,3,09,32,20,23,01,06,31,04,16,03,,,1.6,0.9,1.3*30
$HCHDG,124.5,0.0,E,,*2B
$YXXDR,A,5.6,D,PTCH,A,4.2,D,ROLL*58
$GPRMC,220013.1,A,4741.18933,N,12224.24813,W,000.14,041.4,070215,016.4,E,A*2F
$GPGGA,220013.1,4741.18933,N,12224.24813,W,1,10,0.9,-1.7,M,-18.2,M,,*45
$GPVTG,041.4,T,025.0,M,000.14,N,0000.25,K,A*17
$GPGSV,3,1,10,09,21,276,37,32,45,142,31,20,25,309,47,23,52,283,45*70
$GPGSV,3,2,10,01,19,212,35,06,17,319,39,31,39,052,29,04,02,190,15*78
$GPGSV,3,3,10,16,19,143,40,03,79,231,35*7E
$HCHDG,124.7,0.0,E,,*29
$GPRMC,220013.2,A,4741.18933,N,12224.24813,W,000.14,041.4,070215,016.4,E,A*2C
$YXXDR,A,5.6,D,PTCH,A,4.4,D,ROLL*5E
$GPGGA,220013.2,4741.18933,N,12224.24813,W,1,10,0.9,-1.7,M,-18.2,M,,*46
$GPVTG,041.4,T,025.0,M,000.14,N,0000.26,K,A*14
$HCHDG,124.7,0.0,E,,*29
$YXXDR,A,5.6,D,PTCH,A,4.4,D,ROLL*5E
$GPRMC,220013.3,A,4741.18933,N,12224.24813,W,000.17,041.4,070215,016.4,E,A*2E
$GPGGA,220013.3,4741.18933,N,12224.24813,W,1,10,0.9,-1.7,M,-18.2,M,,*47
$GPVTG,041.4,T,025.0,M,000.17,N,0000.31,K,A*11
$HCHDG,124.9,0.0,E,,*27
$YXXDR,A,5.6,D,PTCH,A,4.4,D,ROLL*5E
$GPRMC,220013.4,A,4741.18933,N,12224.24813,W,000.15,041.4,070215,016.4,E,A*2B
$GPGGA,220013.4,4741.18933,N,12224.24813,W,1,10,0.9,-1.7,M,-18.2,M,,*40
$GPVTG,041.4,T,025.0,M,000.15,N,0000.28,K,A*1B
$HCHDG,124.7,0.0,E,,*29
$YXXDR,A,5.6,D,PTCH,A,4.4,D,ROLL*5E
$GPRMC,220013.5,A,4741.18932,N,12224.24811,W,000.52,041.4,070215,016.4,E,A*2A
$GPGGA,220013.5,4741.18932,N,12224.24811,W,1,10,0.9,-1.7,M,-18.2,M,,*42
$GPVTG,041.4,T,025.0,M,000.52,N,0000.97,K,A*1C
$HCHDG,124.7,0.0,E,,*29
$YXXDR,A,5.6,D,PTCH,A,4.4,D,ROLL*5E
$GPRMC,220013.6,A,4741.18932,N,12224.24811,W,000.02,041.4,070215,016.4,E,A*2C
$GPGGA,220013.6,4741.18932,N,12224.24811,W,1,10,0.9,-1.7,M,-18.2,M,,*41
$GPVTG,041.4,T,025.0,M,000.02,N,0000.04,K,A*13
$HCHDG,124.7,0.0,E,,*29
$YXXDR,A,5.6,D,PTCH,A,4.4,D,ROLL*5E
$TIROT,24.8,A*05
$GPRMC,220013.7,A,4741.18932,N,12224.24811,W,000.07,041.4,070215,016.4,E,A*28
$GPGGA,220013.7,4741.18932,N,12224.24811,W,1,10,0.9,-1.7,M,-18.2,M,,*40
$GPVTG,041.4,T,025.0,M,000.07,N,0000.14,K,A*17
$HCHDG,124.8,0.0,E,,*26
$YXXDR,A,5.6,D,PTCH,A,4.5,D,ROLL*5F
$GPRMC,220013.8,A,4741.18932,N,12224.24811,W,000.09,041.4,070215,016.4,E,A*29
$GPGGA,220013.8,4741.18932,N,12224.24811,W,1,10,0.9,-1.7,M,-18.2,M,,*4F
$GPVTG,041.4,T,025.0,M,000.09,N,0000.16,K,A*1B
$HCHDG,124.8,0.0,E,,*26
$YXXDR,A,5.6,D,PTCH,A,4.5,D,ROLL*5F
$GPRMC,220013.9,A,4741.18932,N,12224.24811,W,000.13,041.4,070215,016.4,E,A*23
$GPGGA,220013.9,4741.18932,N,12224.24811,W,1,10,0.9,-1.7,M,-18.2,M,,*4E
$GPVTG,041.4,T,025.0,M,000.13,N,0000.23,K,A*16
$HCHDG,124.9,0.0,E,,*27
$YXXDR,A,5.7,D,PTCH,A,4.6,D,ROLL*5D
$GPRMC,220014.0,A,4741.18932,N,12224.24811,W,000.11,041.4,070215,016.4,E,A*2F
$GPGGA,220014.0,4741.18932,N,12224.24811,W,1,10,0.9,-1.6,M,-18.2,M,,*41
$GPVTG,041.4,T,025.0,M,000.11,N,0000.21,K,A*16
$GPGSA,A,3,09,32,20,23,01,06,31,04,16,03,,,1.6,0.9,1.3*30
$HCHDG,124.9,0.0,E,,*27
$YXXDR,A,5.7,D,PTCH,A,4.7,D,ROLL*5C
$GPRMC,220014.1,A,4741.18928,N,12224.24813,W,000.48,041.4,070215,016.4,E,A*2B
$GPGGA,220014.1,4741.18928,N,12224.24813,W,1,10,0.9,-1.6,M,-18.2,M,,*49
$GPVTG,041.4,T,025.0,M,000.48,N,0000.89,K,A*18
$GPGSV,3,1,10,09,21,276,39,32,45,142,37,20,25,309,47,23,52,283,45*78
$GPGSV,3,2,10,01,19,212,33,06,17,319,39,31,39,052,30,04,02,190,15*76
$GPGSV,3,3,10,16,19,143,40,03,79,231,35*7E
$HCHDG,124.9,0.0,E,,*27
$YXXDR,A,5.7,D,PTCH,A,4.7,D,ROLL*5C
$GPRMC,220014.2,A,4741.18928,N,12224.24813,W,000.45,041.4,070215,016.4,E,A*25
$GPGGA,220014.2,4741.18928,N,12224.24813,W,1,10,0.9,-1.6,M,-18.2,M,,*4A
$GPVTG,041.4,T,025.0,M,000.45,N,0000.83,K,A*1F
$HCHDG,125.0,0.0,E,,*2F
$YXXDR,A,5.7,D,PTCH,A,4.7,D,ROLL*5C
$GPRMC,220014.3,A,4741.18928,N,12224.24813,W,000.39,041.4,070215,016.4,E,A*2F
$GPGGA,220014.3,4741.18928,N,12224.24813,W,1,10,0.9,-1.6,M,-18.2,M,,*4B
$GPVTG,041.4,T,025.0,M,000.39,N,0000.72,K,A*1A
$HCHDG,125.1,0.0,E,,*2E
$YXXDR,A,5.7,D,PTCH,A,4.7,D,ROLL*5C
$GPRMC,220014.4,A,4741.18928,N,12224.24813,W,000.36,041.4,070215,016.4,E,A*27
$GPGGA,220014.4,4741.18928,N,12224.24813,W,1,10,0.9,-1.6,M,-18.2,M,,*4C
$GPVTG,041.4,T,025.0,M,000.36,N,0000.66,K,A*10
$HCHDG,125.1,0.0,E,,*2E
$YXXDR,A,5.7,D,PTCH,A,4.8,D,ROLL*53
$GPRMC,220014.5,A,4741.18928,N,12224.24813,W,000.34,041.4,070215,016.4,E,A*24
$GPGGA,220014.5,4741.18928,N,12224.24813,W,1,10,0.9,-1.6,M,-18.2,M,,*4D
$GPVTG,041.4,T,025.0,M,000.34,N,0000.63,K,A*17
$HCHDG,125.1,0.0,E,,*2E
$YXXDR,A,5.7,D,PTCH,A,4.8,D,ROLL*53
$GPRMC,220014.6,A,4741.18928,N,12224.24813,W,000.30,041.4,070215,016.4,E,A*23
$GPGGA,220014.6,4741.18928,N,12224.24813,W,1,10,0.9,-1.6,M,-18.2,M,,*4E
$GPVTG,041.4,T,025.0,M,000.30,N,0000.56,K,A*15
$HCHDG,125.1,0.0,E,,*2E
$YXXDR,A,5.8,D,PTCH,A,5.0,D,ROLL*55
$TIROT,33.5,A*0E
$GPRMC,220014.7,A,4741.18928,N,12224.24813,W,000.33,041.4,070215,016.4,E,A*21
$GPGGA,220014.7,4741.18928,N,12224.24813,W,1,10,0.9,-1.6,M,-18.2,M,,*4F
$GPVTG,041.4,T,025.0,M,000.33,N,0000.60,K,A*13
$HCHDG,125.1,0.0,E,,*2E
$YXXDR,A,5.8,D,PTCH,A,5.3,D,ROLL*56
$GPRMC,220014.8,A,4741.18928,N,12224.24813,W,000.29,041.4,070215,016.4,E,A*25
$GPGGA,220014.8,4741.18928,N,12224.24813,W,1,10,0.9,-1.6,M,-18.2,M,,*40
$GPVTG,041.4,T,025.0,M,000.29,N,0000.55,K,A*1E
$HCHDG,125.2,0.0,E,,*2D
$YXXDR,A,5.9,D,PTCH,A,5.3,D,ROLL*57
$GPRMC,220014.9,A,4741.18928,N,12224.24813,W,000.33,041.4,070215,016.4,E,A*2F
$GPGGA,220014.9,4741.18928,N,12224.24813,W,1,10,0.9,-1.6,M,-18.2,M,,*41
$GPVTG,041.4,T,025.0,M,000.33,N,0000.61,K,A*12
$HCHDG,125.3,0.0,E,,*2C
$YXXDR,A,5.9,D,PTCH,A,5.3,D,ROLL*57
$GPRMC,220015.0,A,4741.18928,N,12224.24813,W,000.32,041.4,070215,016.4,E,A*26
$GPGGA,220015.0,4741.18928,N,12224.24813,W,1,10,0.9,-1.5,M,-18.2,M,,*4A
$GPVTG,041.4,T,025.0,M,000.32,N,0000.60,K,A*12
$GPGSA,A,3,09,32,20,23,01,06,31,04,16,03,,,1.6,0.9,1.3*30
$HCHDG,125.3,0.0,E,,*2C
$YXXDR,A,5.9,D,PTCH,A,5.3,D,ROLL*57
$GPRMC,220015.1,A,4741.18928,N,12224.24813,W,000.37,041.4,070215,016.4,E,A*22
$GPGGA,220015.1,4741.18928,N,12224.24813,W,1,08,0.9,-1.5,M,-18.2,M,,*42
$GPVTG,041.4,T,025.0,M,000.37,N,0000.68,K,A*1F
$GPGSV,3,1,10,09,21,276,40,32,45,142,37,20,25,309,46,23,52,283,45*77
$GPGSV,3,2,10,01,19,212,34,06,17,319,40,31,39,052,30,04,02,190,14*7E
$HCHDG,125.3,0.0,E,,*2C
$GPGSV,3,3,10,16,19,143,38,03,79,231,35*71
$YXXDR,A,5.8,D,PTCH,A,5.5,D,ROLL*50
$GPRMC,220015.2,A,4741.18922,N,12224.24813,W,000.39,041.4,070215,016.4,E,A*25
$GPGGA,220015.2,4741.18922,N,12224.24813,W,1,08,0.9,-1.5,M,-18.2,M,,*4B
$GPVTG,041.4,T,025.0,M,000.39,N,0000.72,K,A*1A
$GPRMC,220015.3,A,4741.18922,N,12224.24813,W,000.37,041.4,070215,016.4,E,A*2A
$HCHDG,125.1,0.0,E,,*2E
$GPGGA,220015.3,4741.18922,N,12224.24813,W,1,08,0.9,-1.5,M,-18.2,M,,*4A
$GPVTG,041.4,T,025.0,M,000.37,N,0000.69,K,A*1E
$YXXDR,A,5.8,D,PTCH,A,5.5,D,ROLL*50
$GPRMC,220015.4,A,4741.18922,N,12224.24813,W,000.34,041.4,070215,016.4,E,A*2E
$HCHDG,125.2,0.0,E,,*2D
$GPGGA,220015.4,4741.18922,N,12224.24813,W,1,08,0.9,-1.5,M,-18.2,M,,*4D
$GPVTG,041.4,T,025.0,M,000.34,N,0000.64,K,A*10
$YXXDR,A,5.8,D,PTCH,A,5.5,D,ROLL*50
$GPRMC,220015.5,A,4741.18922,N,12224.24813,W,000.33,041.4,070215,016.4,E,A*28
$HCHDG,125.3,0.0,E,,*2C
$GPGGA,220015.5,4741.18922,N,12224.24813,W,1,08,0.9,-1.5,M,-18.2,M,,*4C
$GPVTG,041.4,T,025.0,M,000.33,N,0000.61,K,A*12
$YXXDR,A,5.8,D,PTCH,A,5.4,D,ROLL*51
$GPRMC,220015.6,A,4741.18922,N,12224.24813,W,000.34,041.4,070215,016.4,E,A*2C
$HCHDG,125.2,0.0,E,,*2D
$GPGGA,220015.6,4741.18922,N,12224.24813,W,1,08,0.9,-1.5,M,-18.2,M,,*4F
$GPVTG,041.4,T,025.0,M,000.34,N,0000.63,K,A*17
$YXXDR,A,5.8,D,PTCH,A,5.3,D,ROLL*56
$GPRMC,220015.7,A,4741.18922,N,12224.24813,W,000.34,041.4,070215,016.4,E,A*2D
$HCHDG,125.4,0.0,E,,*2B
$GPGGA,220015.7,4741.18922,N,12224.24813,W,1,08,0.9,-1.5,M,-18.2,M,,*4E
$GPVTG,041.4,T,025.0,M,000.34,N,0000.64,K,A*10
$YXXDR,A,5.6,D,PTCH,A,5.3,D,ROLL*58
$TIROT,11.7,A*0C
$GPRMC,220015.8,A,4741.18922,N,12224.24813,W,000.35,041.4,070215,016.4,E,A*23
$HCHDG,125.4,0.0,E,,*2B
$GPGGA,220015.8,4741.18922,N,12224.24813,W,1,08,0.9,-1.5,M,-18.2,M,,*41
$GPVTG,041.4,T,025.0,M,000.35,N,0000.65,K,A*10
$YXXDR,A,5.6,D,PTCH,A,5.2,D,ROLL*59
$GPRMC,220015.9,A,4741.18922,N,12224.24813,W,000.42,041.4,070215,016.4,E,A*22
$GPGGA,220015.9,4741.18922,N,12224.24813,W,1,08,0.9,-1.5,M,-18.2,M,,*40
$HCHDG,125.3,0.0,E,,*2C
$YXXDR,A,5.6,D,PTCH,A,5.1,D,ROLL*5A
$GPVTG,041.4,T,025.0,M,000.42,N,0000.77,K,A*13
$GPRMC,220016.0,A,4741.18922,N,12224.24813,W,000.15,042.5,070215,016.4,E,A*28
$HCHDG,125.4,0.0,E,,*2B
$GPGGA,220016.0,4741.18922,N,12224.24813,W,1,08,0.9,-1.6,M,-18.2,M,,*49
$YXXDR,A,5.6,D,PTCH,A,5.1,D,ROLL*5A
$GPVTG,042.5,T,026.1,M,000.15,N,0000.29,K,A*1A
$GPGSA,A,3,09,32,20,23,01,06,31,16,,,,,1.8,0.9,1.5*3F
$GPRMC,220016.1,A,4741.18922,N,12224.24813,W,000.17,042.5,070215,016.4,E,A*2B
$HCHDG,125.4,0.0,E,,*2B
$GPGGA,220016.1,4741.18922,N,12224.24813,W,1,08,0.9,-1.6,M,-18.2,M,,*48
$YXXDR,A,5.5,D,PTCH,A,5.0,D,ROLL*58
$GPVTG,042.5,T,026.1,M,000.17,N,0000.31,K,A*11
$GPGSV,3,1,09,09,21,276,41,32,45,142,38,20,25,309,46,23,52,283,45*71
$GPGSV,3,2,09,01,19,212,34,06,17,319,41,31,39,052,31,04,02,190,14*76
$GPGSV,3,3,09,16,19,143,33*49
$GPRMC,220016.2,A,4741.18922,N,12224.24813,W,000.18,042.5,070215,016.4,E,A*27
$HCHDG,125.5,0.0,E,,*2A
$GPGGA,220016.2,4741.18922,N,12224.24813,W,1,08,0.9,-1.6,M,-18.2,M,,*4B
$YXXDR,A,5.7,D,PTCH,A,5.0,D,ROLL*5A
$GPVTG,042.5,T,026.1,M,000.18,N,0000.33,K,A*1C
$GPRMC,220016.3,A,4741.18922,N,12224.24813,W,000.21,042.5,070215,016.4,E,A*2C
$HCHDG,125.4,0.0,E,,*2B
$GPGGA,220016.3,4741.18922,N,12224.24813,W,1,08,0.9,-1.6,M,-18.2,M,,*4A
$YXXDR,A,5.6,D,PTCH,A,4.9,D,ROLL*53
$GPVTG,042.5,T,026.1,M,000.21,N,0000.39,K,A*1C
$GPRMC,220016.4,A,4741.18922,N,12224.24813,W,000.29,042.5,070215,016.4,E,A*23
$HCHDG,125.5,0.0,E,,*2A
$GPGGA,220016.4,4741.18922,N,12224.24813,W,1,08,0.9,-1.6,M,-18.2,M,,*4D
$YXXDR,A,5.7,D,PTCH,A,4.8,D,ROLL*53
$GPVTG,042.5,T,026.1,M,000.29,N,0000.53,K,A*18
$GPRMC,220016.5,A,4741.18922,N,12224.24813,W,000.12,042.5,070215,016.4,E,A*2A
$HCHDG,125.5,0.0,E,,*2A
$GPGGA,220016.5,4741.18922,N,12224.24813,W,1,08,0.9,-1.6,M,-18.2,M,,*4C
$YXXDR,A,5.7,D,PTCH,A,4.7,D,ROLL*5C
$GPVTG,042.5,T,026.1,M,000.12,N,0000.23,K,A*17
$GPRMC,220016.6,A,4741.18922,N,12224.24813,W,000.14,042.5,070215,016.4,E,A*2F
$HCHDG,125.5,0.0,E,,*2A
$YXXDR,A,5.7,D,PTCH,A,4.6,D,ROLL*5D
$GPGGA,220016.6,4741.18922,N,12224.24813,W,1,08,0.9,-1.6,M,-18.2,M,,*4F
$GPVTG,042.5,T,026.1,M,000.14,N,0000.25,K,A*17
$GPRMC,220016.7,A,4741.18922,N,12224.24813,W,000.16,042.5,070215,016.4,E,A*2C
$HCHDG,125.5,0.0,E,,*2A
$GPGGA,220016.7,4741.18922,N,12224.24813,W,1,08,0.9,-1.6,M,-18.2,M,,*4E
$YXXDR,A,5.8,D,PTCH,A,4.6,D,ROLL*52
$GPVTG,042.5,T,026.1,M,000.16,N,0000.29,K,A*19
$TIROT,4.3,A*3C
$GPRMC,220016.8,A,4741.18922,N,12224.24813,W,000.15,042.5,070215,016.4,E,A*20
$GPGGA,220016.8,4741.18922,N,12224.24813,W,1,08,0.9,-1.6,M,-18.2,M,,*41
$HCHDG,125.4,0.0,E,,*2B
$YXXDR,A,5.7,D,PTCH,A,4.8,D,ROLL*53
$GPVTG,042.5,T,026.1,M,000.15,N,0000.28,K,A*1B
$GPRMC,220016.9,A,4741.18919,N,12224.24807,W,000.15,042.5,070215,016.4,E,A*2C
$HCHDG,125.6,0.0,E,,*29
$GPGGA,220016.9,4741.18919,N,12224.24807,W,1,08,0.9,-1.6,M,-18.2,M,,*4D
$YXXDR,A,5.8,D,PTCH,A,4.6,D,ROLL*52
$GPVTG,042.5,T,026.1,M,000.15,N,0000.29,K,A*1A
$GPRMC,220017.0,A,4741.18919,N,12224.24807,W,000.14,042.5,070215,016.4,E,A*25
$HCHDG,125.5,0.0,E,,*2A
$YXXDR,A,5.8,D,PTCH,A,4.6,D,ROLL*52
$GPGGA,220017.0,4741.18919,N,12224.24807,W,1,08,0.9,-1.7,M,-18.2,M,,*44
$GPVTG,042.5,T,026.1,M,000.14,N,0000.26,K,A*14
$GPGSA,A,3,09,32,20,23,01,06,31,16,,,,,1.8,0.9,1.5*3F
$GPRMC,220017.1,A,4741.18919,N,12224.24807,W,000.15,042.5,070215,016.4,E,A*25
$HCHDG,125.5,0.0,E,,*2A
$YXXDR,A,5.8,D,PTCH,A,4.5,D,ROLL*51
$GPGGA,220017.1,4741.18919,N,12224.24807,W,1,08,0.9,-1.7,M,-18.2,M,,*45
$GPVTG,042.5,T,026.1,M,000.15,N,0000.29,K,A*1A
$GPGSV,3,1,09,09,21,276,41,32,45,142,38,20,25,309,45,23,52,283,45*72
$GPGSV,3,2,09,01,19,212,32,06,17,319,41,31,39,052,31,04,02,190,14*70
$GPGSV,3,3,09,16,19,143,32*48
$GPRMC,220017.2,A,4741.18919,N,12224.24807,W,000.19,042.5,070215,016.4,E,A*2A
$HCHDG,125.4,0.0,E,,*2B
$YXXDR,A,5.8,D,PTCH,A,4.4,D,ROLL*50
$GPGGA,220017.2,4741.18919,N,12224.24807,W,1,08,0.9,-1.7,M,-18.2,M,,*46
$GPVTG,042.5,T,026.1,M,000.19,N,0000.35,K,A*1B
$GPRMC,220017.3,A,4741.18919,N,12224.24807,W,000.21,042.5,070215,016.4,E,A*20
$HCHDG,125.6,0.0,E,,*29
$YXXDR,A,5.8,D,PTCH,A,4.3,D,ROLL*57
$GPGGA,220017.3,4741.18919,N,12224.24807,W,1,08,0.9,-1.7,M,-18.2,M,,*47
$GPVTG,042.5,T,026.1,M,000.21,N,0000.39,K,A*1C
$GPRMC,220017.4,A,4741.18919,N,12224.24807,W,000.24,042.5,070215,016.4,E,A*22
$HCHDG,125.7,0.0,E,,*28
$YXXDR,A,5.6,D,PTCH,A,4.1,D,ROLL*5B
$GPGGA,220017.4,4741.18919,N,12224.24807,W,1,08,0.9,-1.7,M,-18.2,M,,*40
$GPVTG,042.5,T,026.1,M,000.24,N,0000.44,K,A*13
$GPRMC,220017.5,A,4741.18919,N,12224.24807,W,000.26,042.5,070215,016.4,E,A*21
$HCHDG,125.7,0.0,E,,*28
$YXXDR,A,5.6,D,PTCH,A,4.0,D,ROLL*5A
$GPGGA,220017.5,4741.18919,N,12224.24807,W,1,08,0.9,-1.7,M,-18.2,M,,*41
$GPVTG,042.5,T,026.1,M,000.26,N,0000.47,K,A*12
$GPRMC,220017.6,A,4741.18919,N,12224.24807,W,000.24,042.5,070215,016.4,E,A*20
$HCHDG,125.7,0.0,E,,*28
$YXXDR,A,5.5,D,PTCH,A,4.2,D,ROLL*5B
$GPGGA,220017.6,4741.18919,N,12224.24807,W,1,08,0.9,-1.7,M,-18.2,M,,*42
$GPVTG,042.5,T,026.1,M,000.24,N,0000.44,K,A*13
$GPRMC,220017.7,A,4741.18919,N,12224.24807,W,000.22,042.5,070215,016.4,E,A*27
$GPGGA,220017.7,4741.18919,N,12224.24807,W,1,08,0.9,-1.7,M,-18.2,M,,*43
$HCHDG,125.7,0.0,E,,*28
$YXXDR,A,5.5,D,PTCH,A,4.2,D,ROLL*5B
$TIROT,-11.7,A*21
$GPVTG,042.5,T,026.1,M,000.22,N,0000.40,K,A*11
$HCHDG,125.6,0.0,E,,*29
$GPRMC,220017.8,A,4741.18919,N,12224.24807,W,000.22,042.5,070215,016.4,E,A*28
$GPGGA,220017.8,4741.18919,N,12224.24807,W,1,08,0.9,-1.7,M,-18.2,M,,*4C
$YXXDR,A,5.5,D,PTCH,A,4.3,D,ROLL*5A
$GPVTG,042.5,T,026.1,M,000.22,N,0000.41,K,A*10
$HCHDG,125.6,0.0,E,,*29
$GPRMC,220017.9,A,4741.18918,N,12224.24801,W,000.25,042.5,070215,016.4,E,A*29
$GPGGA,220017.9,4741.18918,N,12224.24801,W,1,08,0.9,-1.7,M,-18.2,M,,*4A
$YXXDR,A,5.6,D,PTCH,A,4.3,D,ROLL*59
$GPVTG,042.5,T,026.1,M,000.25,N,0000.46,K,A*10
$HCHDG,125.6,0.0,E,,*29
$GPRMC,220018.0,A,4741.18918,N,12224.24801,W,000.26,042.5,070215,016.4,E,A*2C
$GPGGA,220018.0,4741.18918,N,12224.24801,W,1,08,0.9,-1.7,M,-18.2,M,,*4C
$YXXDR,A,5.6,D,PTCH,A,4.4,D,ROLL*5E
$GPVTG,042.5,T,026.1,M,000.26,N,0000.49,K,A*1C
$GPGSA,A,3,09,32,20,23,01,06,31,16,,,,,1.8,0.9,1.5*3F
$HCHDG,125.6,0.0,E,,*29
$GPRMC,220018.1,A,4741.18918,N,12224.24801,W,000.24,042.5,070215,016.4,E,A*2F
$GPGGA,220018.1,4741.18918,N,12224.24801,W,1,08,0.9,-1.7,M,-18.2,M,,*4D
$YXXDR,A,5.6,D,PTCH,A,4.3,D,ROLL*59
$GPVTG,042.5,T,026.1,M,000.24,N,0000.45,K,A*12
$GPGSV,3,1,09,09,21,276,42,32,45,142,38,20,25,309,45,23,52,283,45*71
$GPGSV,3,2,09,01,19,212,30,06,17,319,41,31,39,052,33,04,02,190,14*70
$GPGSV,3,3,09,16,19,143,28*43
$HCHDG,125.7,0.0,E,,*28
$GPRMC,220018.2,A,4741.18918,N,12224.24801,W,000.23,042.5,070215,016.4,E,A*2B
$GPGGA,220018.2,4741.18918,N,12224.24801,W,1,08,0.9,-1.7,M,-18.2,M,,*4E
$YXXDR,A,5.6,D,PTCH,A,4.3,D,ROLL*59
$GPVTG,042.5,T,026.1,M,000.23,N,0000.43,K,A*13
$HCHDG,125.7,0.0,E,,*28
$GPRMC,220018.3,A,4741.18918,N,12224.24801,W,000.23,042.5,070215,016.4,E,A*2A
$GPGGA,220018.3,4741.18918,N,12224.24801,W,1,08,0.9,-1.7,M,-18.2,M,,*4F
$YXXDR,A,5.7,D,PTCH,A,4.4,D,ROLL*5F
$GPVTG,042.5,T,026.1,M,000.23,N,0000.43,K,A*13
$HCHDG,125.6,0.0,E,,*29
$GPRMC,220018.4,A,4741.18918,N,12224.24801,W,000.22,042.5,070215,016.4,E,A*2C
$GPGGA,220018.4,4741.18918,N,12224.24801,W,1,08,0.9,-1.7,M,-18.2,M,,*48
$YXXDR,A,5.6,D,PTCH,A,4.4,D,ROLL*5E
$GPVTG,042.5,T,026.1,M,000.22,N,0000.41,K,A*10
$HCHDG,125.6,0.0,E,,*29
$GPRMC,220018.5,A,4741.18918,N,12224.24801,W,000.20,042.5,070215,016.4,E,A*2F
$GPGGA,220018.5,4741.18918,N,12224.24801,W,1,08,0.9,-1.7,M,-18.2,M,,*49
$YXXDR,A,5.8,D,PTCH,A,4.4,D,ROLL*50
$GPVTG,042.5,T,026.1,M,000.20,N,0000.36,K,A*12
$HCHDG,125.6,0.0,E,,*29
$GPRMC,220018.6,A,4741.18918,N,12224.24801,W,000.23,042.5,070215,016.4,E,A*2F
$GPGGA,220018.6,4741.18918,N,12224.24801,W,1,08,0.9,-1.7,M,-18.2,M,,*4A
$YXXDR,A,5.8,D,PTCH,A,4.5,D,ROLL*51
$GPVTG,042.5,T,026.1,M,000.23,N,0000.43,K,A*13
$HCHDG,125.6,0.0,E,,*29
$GPRMC,220018.7,A,4741.18918,N,12224.24801,W,000.25,042.5,070215,016.4,E,A*28
$GPGGA,220018.7,4741.18918,N,12224.24801,W,1,08,0.9,-1.7,M,-18.2,M,,*4B
$YXXDR,A,5.8,D,PTCH,A,4.5,D,ROLL*51
$TIROT,-5.8,A*1B
$GPVTG,042.5,T,026.1,M,000.25,N,0000.46,K,A*10
$HCHDG,125.6,0.0,E,,*29
$GPRMC,220018.8,A,4741.18918,N,12224.24801,W,000.25,042.5,070215,016.4,E,A*27
$YXXDR,A,5.7,D,PTCH,A,4.8,D,ROLL*53
$GPGGA,220018.8,4741.18918,N,12224.24801,W,1,08,0.9,-1.7,M,-18.2,M,,*44
$GPVTG,042.5,T,026.1,M,000.25,N,0000.47,K,A*11
$HCHDG,125.7,0.0,E,,*28
$GPRMC,220018.9,A,4741.18917,N,12224.24798,W,000.30,042.5,070215,016.4,E,A*22
$YXXDR,A,5.7,D,PTCH,A,4.7,D,ROLL*5C
$GPGGA,220018.9,4741.18917,N,12224.24798,W,1,08,0.9,-1.7,M,-18.2,M,,*45
$GPVTG,042.5,T,026.1,M,000.30,N,0000.55,K,A*16
$HCHDG,125.6,0.0,E,,*29
$GPRMC,220019.0,A,4741.18917,N,12224.24798,W,000.08,044.0,070215,016.4,E,A*22
$YXXDR,A,5.7,D,PTCH,A,4.7,D,ROLL*5C
$GPGGA,220019.0,4741.18917,N,12224.24798,W,1,08,0.9,-1.7,M,-18.2,M,,*4D
$GPVTG,044.0,T,027.6,M,000.08,N,0000.15,K,A*1C
$GPGSA,A,3,09,32,20,23,01,06,31,16,,,,,1.8,0.9,1.5*3F
$GPRMC,220019.1,A,4741.18917,N,12224.24798,W,000.10,044.0,070215,016.4,E,A*2A
$HCHDG,125.6,0.0,E,,*29
$GPGGA,220019.1,4741.18917,N,12224.24798,W,1,08,0.9,-1.7,M,-18.2,M,,*4C
$GPVTG,044.0,T,027.6,M,000.10,N,0000.19,K,A*19
$YXXDR,A,5.7,D,PTCH,A,4.7,D,ROLL*5C
$GPGSV,3,1,09,09,21,276,42,32,45,142,38,20,25,309,45,23,52,283,45*71
$GPGSV,3,2,09,01,19,212,32,06,17,319,41,31,38,052,34,04,02,190,14*74
$GPGSV,3,3,09,16,19,143,30*4A
$HCHDG,125.6,0.0,E,,*29
$GPRMC,220019.2,A,4741.18917,N,12224.24798,W,000.11,044.0,070215,016.4,E,A*28
$GPGGA,220019.2,4741.18917,N,12224.24798,W,1,08,0.9,-1.7,M,-18.2,M,,*4F
$YXXDR,A,5.8,D,PTCH,A,4.8,D,ROLL*5C
$GPVTG,044.0,T,027.6,M,000.11,N,0000.20,K,A*12
$HCHDG,125.7,0.0,E,,*28
$GPRMC,220019.3,A,4741.18917,N,12224.24798,W,000.11,044.0,070215,016.4,E,A*29
$YXXDR,A,5.8,D,PTCH,A,4.8,D,ROLL*5C
$GPGGA,220019.3,4741.18917,N,12224.24798,W,1,08,0.9,-1.7,M,-18.2,M,,*4E
$GPVTG,044.0,T,027.6,M,000.11,N,0000.20,K,A*12
$HCHDG,125.7,0.0,E,,*28
$GPRMC,220019.4,A,4741.18917,N,12224.24798,W,000.13,044.0,070215,016.4,E,A*2C
$YXXDR,A,5.8,D,PTCH,A,4.8,D,ROLL*5C
$GPGGA,220019.4,4741.18917,N,12224.24798,W,1,08,0.9,-1.7,M,-18.2,M,,*49
$GPVTG,044.0,T,027.6,M,000.13,N,0000.24,K,A*14
$HCHDG,125.7,0.0,E,,*28
$GPRMC,220019.5,A,4741.18917,N,12224.24798,W,000.12,044.0,070215,016.4,E,A*2C
$YXXDR,A,5.8,D,PTCH,A,4.8,D,ROLL*5C
$GPGGA,220019.5,4741.18917,N,12224.24798,W,1,08,0.9,-1.7,M,-18.2,M,,*48
$GPVTG,044.0,T,027.6,M,000.12,N,0000.23,K,A*12
$HCHDG,125.5,0.0,E,,*2A
$GPRMC,220019.6,A,4741.18917,N,12224.24798,W,000.11,044.0,070215,016.4,E,A*2C
$YXXDR,A,5.8,D,PTCH,A,5.0,D,ROLL*55
$GPGGA,220019.6,4741.18917,N,12224.24798,W,1,08,0.9,-1.7,M,-18.2,M,,*4B
$GPVTG,044.0,T,027.6,M,000.11,N,0000.21,K,A*13
$HCHDG,125.4,0.0,E,,*2B
$GPRMC,220019.7,A,4741.18917,N,12224.24798,W,000.10,044.0,070215,016.4,E,A*2C
$YXXDR,A,5.8,D,PTCH,A,5.0,D,ROLL*55
$TIROT,-13.3,A*27
$GPGGA,220019.7,4741.18917,N,12224.24798,W,1,08,0.9,-1.7,M,-18.2,M,,*4A
$GPVTG,044.0,T,027.6,M,000.10,N,0000.19,K,A*19
$HCHDG,125.4,0.0,E,,*2B
$GPRMC,220019.8,A,4741.18917,N,12224.24798,W,000.13,044.0,070215,016.4,E,A*20
$YXXDR,A,5.8,D,PTCH,A,5.0,D,ROLL*55
$GPGGA,220019.8,4741.18917,N,12224.24798,W,1,08,0.9,-1.7,M,-18.2,M,,*45
$GPVTG,044.0,T,027.6,M,000.13,N,0000.23,K,A*13
$HCHDG,125.5,0.0,E,,*2A
$GPRMC,220019.9,A,4741.18914,N,12224.24796,W,000.15,044.0,070215,016.4,E,A*2A
$YXXDR,A,5.8,D,PTCH,A,5.0,D,ROLL*55
$GPGGA,220019.9,4741.18914,N,12224.24796,W,1,08,0.9,-1.7,M,-18.2,M,,*49
$GPVTG,044.0,T,027.6,M,000.15,N,0000.28,K,A*1E
$HCHDG,125.5,0.0,E,,*2A
$GPRMC,220020.0,A,4741.18914,N,12224.24796,W,000.17,044.0,070215,016.4,E,A*2B
$YXXDR,A,5.8,D,PTCH,A,5.0,D,ROLL*55
$GPGGA,220020.0,4741.18914,N,12224.24796,W,1,08,0.9,-1.7,M,-18.2,M,,*4A
$GPVTG,044.0,T,027.6,M,000.17,N,0000.31,K,A*14
$GPGSA,A,3,09,32,20,23,01,06,31,16,,,,,1.8,0.9,1.5*3F
$HCHDG,125.4,0.0,E,,*2B
$GPRMC,220020.1,A,4741.18914,N,12224.24796,W,000.17,044.0,070215,016.4,E,A*2A
$YXXDR,A,5.8,D,PTCH,A,5.0,D,ROLL*55
$GPGGA,220020.1,4741.18914,N,12224.24796,W,1,08,0.9,-1.7,M,-18.2,M,,*4B
$GPVTG,044.0,T,027.6,M,000.17,N,0000.32,K,A*17
$GPGSV,3,1,09,09,21,276,42,32,45,142,38,20,25,309,45,23,52,283,45*71
$GPGSV,3,2,09,01,19,212,32,06,17,319,41,31,38,052,34,04,02,190,14*74
$GPGSV,3,3,09,16,19,143,30*4A
$HCHDG,125.5,0.0,E,,*2A
$YXXDR,A,5.8,D,PTCH,A,5.0,D,ROLL*55
$GPRMC,220020.2,A,4741.18914,N,12224.24796,W,000.21,044.0,070215,016.4,E,A*2C
$GPGGA,220020.2,4741.18914,N,12224.24796,W,1,08,0.9,-1.7,M,-18.2,M,,*48
$GPVTG,044.0,T,027.6,M,000.21,N,0000.40,K,A*17
$HCHDG,125.5,0.0,E,,*2A
$GPRMC,220020.3,A,4741.18914,N,12224.24796,W,000.21,044.0,070215,016.4,E,A*2D
$YXXDR,A,5.8,D,PTCH,A,5.0,D,ROLL*55
$GPGGA,220020.3,4741.18914,N,12224.24796,W,1,08,0.9,-1.7,M,-18.2,M,,*49
$GPVTG,044.0,T,027.6,M,000.21,N,0000.39,K,A*19
$HCHDG,125.5,0.0,E,,*2A
$GPRMC,220020.4,A,4741.18914,N,12224.24796,W,000.20,044.0,070215,016.4,E,A*2B
$YXXDR,A,5.8,D,PTCH,A,4.8,D,ROLL*5C
$GPGGA,220020.4,4741.18914,N,12224.24796,W,1,08,0.9,-1.7,M,-18.2,M,,*4E
$GPVTG,044.0,T,027.6,M,000.20,N,0000.38,K,A*19
$HCHDG,125.5,0.0,E,,*2A
$GPRMC,220020.5,A,4741.18914,N,12224.24796,W,000.24,044.0,070215,016.4,E,A*2E
$YXXDR,A,5.7,D,PTCH,A,4.8,D,ROLL*53
$GPGGA,220020.5,4741.18914,N,12224.24796,W,1,08,0.9,-1.7,M,-18.2,M,,*4F
$GPVTG,044.0,T,027.6,M,000.24,N,0000.44,K,A*16
$HCHDG,125.5,0.0,E,,*2A
$GPRMC,220020.6,A,4741.18914,N,12224.24796,W,000.26,044.0,070215,016.4,E,A*2F
$YXXDR,A,5.8,D,PTCH,A,4.6,D,ROLL*52
$GPGGA,220020.6,4741.18914,N,12224.24796,W,1,08,0.9,-1.7,M,-18.2,M,,*4C
$GPVTG,044.0,T,027.6,M,000.26,N,0000.49,K,A*19
$HCHDG,125.4,0.0,E,,*2B
$GPRMC,220020.7,A,4741.18914,N,12224.24796,W,000.28,044.0,070215,016.4,E,A*20
$YXXDR,A,5.8,D,PTCH,A,4.5,D,ROLL*51
$TIROT,-24.9,A*29
$GPGGA,220020.7,4741.18914,N,12224.24796,W,1,08,0.9,-1.7,M,-18.2,M,,*4D
$GPVTG,044.0,T,027.6,M,000.28,N,0000.51,K,A*1E
$HCHDG,125.4,0.0,E,,*2B
$GPRMC,220020.8,A,4741.18914,N,12224.24796,W,000.29,044.0,070215,016.4,E,A*2E
$YXXDR,A,5.8,D,PTCH,A,4.4,D,ROLL*50
$GPGGA,220020.8,4741.18914,N,12224.24796,W,1,08,0.9,-1.7,M,-18.2,M,,*42
$GPVTG,044.0,T,027.6,M,000.29,N,0000.54,K,A*1A
$HCHDG,125.3,0.0,E,,*2C
$YXXDR,A,5.8,D,PTCH,A,4.3,D,ROLL*57
$GPRMC,220020.9,A,4741.18914,N,12224.24796,W,000.29,044.0,070215,016.4,E,A*2F
$GPGGA,220020.9,4741.18914,N,12224.24796,W,1,08,0.9,-1.7,M,-18.2,M,,*43
$GPVTG,044.0,T,027.6,M,000.29,N,0000.54,K,A*1A
$HCHDG,125.3,0.0,E,,*2C
$YXXDR,A,5.8,D,PTCH,A,4.3,D,ROLL*57
$GPRMC,220021.0,A,4741.18914,N,12224.24796,W,000.35,044.0,070215,016.4,E,A*2A
$GPGGA,220021.0,4741.18914,N,12224.24796,W,1,08,0.9,-1.7,M,-18.2,M,,*4B
$GPVTG,044.0,T,027.6,M,000.35,N,0000.66,K,A*16
$GPGSA,A,3,09,32,20,23,01,06,31,16,,,,,1.8,0.9,1.5*3F
$HCHDG,125.3,0.0,E,,*2C
$YXXDR,A,5.6,D,PTCH,A,4.1,D,ROLL*5B
$GPRMC,220021.1,A,4741.18914,N,12224.24796,W,000.38,044.0,070215,016.4,E,A*26
$GPGGA,220021.1,4741.18914,N,12224.24796,W,1,08,0.9,-1.7,M,-18.2,M,,*4A
$GPVTG,044.0,T,027.6,M,000.38,N,0000.71,K,A*1D
$GPGSV,3,1,09,09,21,276,43,32,44,142,38,20,25,309,45,23,52,283,45*71
$GPGSV,3,2,09,01,19,212,32,06,17,319,40,31,38,052,33,04,02,190,14*72
$GPGSV,3,3,09,16,19,143,30*4A
$HCHDG,125.5,0.0,E,,*2A
$YXXDR,A,5.6,D,PTCH,A,4.1,D,ROLL*5B
$GPRMC,220021.2,A,4741.18912,N,12224.24794,W,000.40,044.1,070215,016.4,E,A*2F
$GPGGA,220021.2,4741.18912,N,12224.24794,W,1,08,0.9,-1.7,M,-18.2,M,,*4D
$GPVTG,044.1,T,027.6,M,000.40,N,0000.74,K,A*16
$HCHDG,125.5,0.0,E,,*2A
$YXXDR,A,5.5,D,PTCH,A,4.0,D,ROLL*59
$GPRMC,220021.3,A,4741.18912,N,12224.24794,W,000.41,044.2,070215,016.4,E,A*2C
$GPGGA,220021.3,4741.18912,N,12224.24794,W,1,08,0.9,-1.7,M,-18.2,M,,*4C
$GPVTG,044.2,T,027.7,M,000.41,N,0000.75,K,A*14
$HCHDG,125.5,0.0,E,,*2A
$YXXDR,A,5.6,D,PTCH,A,3.9,D,ROLL*54
$GPRMC,220021.4,A,4741.18912,N,12224.24794,W,000.39,044.3,070215,016.4,E,A*25
$GPGGA,220021.4,4741.18912,N,12224.24794,W,1,08,0.9,-1.7,M,-18.2,M,,*4B
$GPVTG,044.3,T,027.8,M,000.39,N,0000.73,K,A*13
$HCHDG,125.5,0.0,E,,*2A
$YXXDR,A,5.5,D,PTCH,A,3.8,D,ROLL*56
