$GPGGA,163909.7,4741.37985,N,12224.32622,W,1,03,6.5,-13.6,M,-18.2,M,,*74
$GPVTG,331.7,T,315.2,M,002.80,N,0005.18,K,A*16
$GPRMC,163909.8,A,4741.37988,N,12224.32625,W,002.75,331.7,141015,016.4,E,A*22
$GPGGA,163909.8,4741.37988,N,12224.32625,W,1,03,6.5,-13.6,M,-18.2,M,,*71
$GPVTG,331.7,T,315.2,M,002.75,N,0005.09,K,A*1C
$GPRMC,163909.9,A,4741.37991,N,12224.32628,W,002.69,331.8,141015,016.4,E,A*24
$GPGGA,163909.9,4741.37991,N,12224.32628,W,1,03,6.5,-13.6,M,-18.2,M,,*75
$GPVTG,331.8,T,315.4,M,002.69,N,0004.99,K,A*10
$HCHDG,318.0,0.0,E,,*23
$YXXDR,A,5.8,D,PTCH,A,3.5,D,ROLL*56
$TIROT,-8.6,A*18
$HCHDG,318.0,0.0,E,,*23
$YXXDR,A,5.9,D,PTCH,A,3.4,D,ROLL*56
$HCHDG,318.0,0.0,E,,*23
$YXXDR,A,6.5,D,PTCH,A,3.4,D,ROLL*59
$HCHDG,318.3,0.0,E,,*20
$YXXDR,A,6.7,D,PTCH,A,3.4,D,ROLL*5B
$GPRMC,163910.0,A,4741.38002,N,12224.32639,W,002.58,330.6,141015,016.4,E,A*24
$GPGGA,163910.0,4741.38002,N,12224.32639,W,1,03,6.5,-13.6,M,-18.2,M,,*78
$GPVTG,330.6,T,314.1,M,002.58,N,0004.77,K,A*19
$GPGSA,A,3,12,02,06,,,,,,,,,,9.0,6.5,6.2*3B
$GPGSV,1,1,04,12,85,207,46,02,76,120,46,25,48,306,39,06,45,056,39*7C
$GPRMC,163910.1,A,4741.38004,N,12224.32638,W,002.63,330.3,141015,016.4,E,A*2F
$GPGGA,163910.1,4741.38004,N,12224.32638,W,1,03,6.5,-13.4,M,-18.2,M,,*7C
$GPVTG,330.3,T,313.9,M,002.63,N,0004.86,K,A*15
$HCHDG,318.3,0.0,E,,*20
$YXXDR,A,7.2,D,PTCH,A,3.4,D,ROLL*5F
$IIVWR,032,R,12.4,N,,,,*67
$IIMTW,+11.0,C*38
$IIMWV,032,R,12.4,N,A*15
$GPRMC,163910.2,A,4741.38007,N,12224.32641,W,002.64,330.0,141015,016.4,E,A*25
$GPGGA,163910.2,4741.38007,N,12224.32641,W,1,03,6.5,-13.4,M,-18.2,M,,*72
$GPVTG,330.0,T,313.5,M,002.64,N,0004.89,K,A*12
$GPRMC,163910.3,A,4741.38010,N,12224.32643,W,002.64,329.9,141015,016.4,E,A*21
$HCHDG,318.7,0.0,E,,*24
$YXXDR,A,7.5,D,PTCH,A,3.5,D,ROLL*59
$IIMWV,044,T,09.3,N,A*1F
$GPGGA,163910.3,4741.38010,N,12224.32643,W,1,03,6.5,-13.4,M,-18.2,M,,*77
$GPVTG,329.9,T,313.4,M,002.64,N,0004.89,K,A*12
$HCHDG,318.9,0.0,E,,*2A
$GPRMC,163910.4,A,4741.38023,N,12224.32654,W,002.69,330.2,141015,016.4,E,A*2E
$YXXDR,A,7.8,D,PTCH,A,3.7,D,ROLL*56
$GPGGA,163910.4,4741.38023,N,12224.32654,W,1,03,6.5,-13.4,M,-18.2,M,,*76
$GPVTG,330.2,T,313.7,M,002.69,N,0004.98,K,A*1F
$HCHDG,319.1,0.0,E,,*23
$IIVHW,,,,,03.6,N,,*1C
$YXXDR,A,7.8,D,PTCH,A,3.8,D,ROLL*59
$GPRMC,163910.5,A,4741.38030,N,12224.32663,W,004.02,330.4,141015,016.4,E,A*24
$GPGGA,163910.5,4741.38030,N,12224.32663,W,1,03,6.5,-13.5,M,-18.2,M,,*70
$GPVTG,330.4,T,314.0,M,004.02,N,0007.44,K,A*10
$IIVLW,07333,N,000.2,N*55
$HCHDG,319.1,0.0,E,,*23
$GPRMC,163910.6,A,4741.38038,N,12224.32673,W,003.49,330.4,141015,016.4,E,A*26
$YXXDR,A,7.7,D,PTCH,A,4.0,D,ROLL*59
$GPGGA,163910.6,4741.38038,N,12224.32673,W,1,03,6.5,-13.5,M,-18.2,M,,*7A
$GPVTG,330.4,T,314.0,M,003.49,N,0006.47,K,A*1A
$HCHDG,319.1,0.0,E,,*23
$GPRMC,163910.7,A,4741.38047,N,12224.32682,W,004.05,330.1,141015,016.4,E,A*2B
$YXXDR,A,7.0,D,PTCH,A,3.9,D,ROLL*50
$GPGGA,163910.7,4741.38047,N,12224.32682,W,1,03,6.5,-13.5,M,-18.2,M,,*7D
$GPVTG,330.1,T,313.6,M,004.05,N,0007.49,K,A*1E
$HCHDG,319.1,0.0,E,,*23
$GPRMC,163910.8,A,4741.38057,N,12224.32690,W,004.10,330.0,141015,016.4,E,A*23
$YXXDR,A,6.8,D,PTCH,A,4.0,D,ROLL*57
$TIROT,-32.3,A*24
$GPGGA,163910.8,4741.38057,N,12224.32690,W,1,03,6.5,-13.5,M,-18.2,M,,*70
$GPVTG,330.0,T,313.5,M,004.10,N,0007.60,K,A*13
$HCHDG,319.1,0.0,E,,*23
$GPRMC,163910.9,A,4741.38068,N,12224.32698,W,004.75,329.5,141015,016.4,E,A*28
$YXXDR,A,6.0,D,PTCH,A,4.1,D,ROLL*5E
$GPGGA,163910.9,4741.38068,N,12224.32698,W,1,03,6.5,-13.6,M,-18.2,M,,*76
$GPVTG,329.5,T,313.0,M,004.75,N,0008.80,K,A*19
$HCHDG,318.6,0.0,E,,*25
$GPRMC,163911.0,A,4741.38080,N,12224.32706,W,004.87,330.1,141015,016.4,E,A*21
$YXXDR,A,5.4,D,PTCH,A,4.2,D,ROLL*5A
$IIVWR,035,R,12.2,N,,,,*66
$GPGGA,163911.0,4741.38080,N,12224.32706,W,1,03,6.5,-13.6,M,-18.2,M,,*7E
$GPVTG,330.1,T,313.6,M,004.87,N,0009.01,K,A*16
$GPGSA,A,3,12,02,06,,,,,,,,,,9.0,6.5,6.2*3B
$GPGSV,1,1,04,12,85,207,46,02,76,120,46,25,48,306,37,06,45,056,39*72
$HCHDG,318.2,0.0,E,,*21
$GPRMC,163911.1,A,4741.38091,N,12224.32709,W,004.46,330.1,141015,016.4,E,A*22
$YXXDR,A,4.9,D,PTCH,A,4.2,D,ROLL*56
$GPGGA,163911.1,4741.38091,N,12224.32709,W,1,03,6.5,-13.6,M,-18.2,M,,*70
$GPVTG,330.1,T,313.6,M,004.46,N,0008.27,K,A*1E
$HCHDG,317.9,0.0,E,,*25
$YXXDR,A,4.4,D,PTCH,A,4.3,D,ROLL*5A
$IIMTW,+11.0,C*38
$GPRMC,163911.2,A,4741.38097,N,12224.32712,W,004.47,330.0,141015,016.4,E,A*2D
$GPGGA,163911.2,4741.38097,N,12224.32712,W,1,03,6.5,-13.6,M,-18.2,M,,*7F
$GPVTG,330.0,T,313.6,M,004.47,N,0008.27,K,A*1E
$IIMWV,035,R,12.2,N,A*14
$HCHDG,317.9,0.0,E,,*25
$YXXDR,A,4.6,D,PTCH,A,4.1,D,ROLL*5A
$GPRMC,163911.3,A,4741.38113,N,12224.32722,W,004.00,330.0,141015,016.4,E,A*21
$IIMWV,044,T,09.4,N,A*18
$GPGGA,163911.3,4741.38113,N,12224.32722,W,1,03,6.5,-13.5,M,-18.2,M,,*73
$GPVTG,330.0,T,313.6,M,004.00,N,0007.41,K,A*12
$HCHDG,317.8,0.0,E,,*24
$YXXDR,A,4.7,D,PTCH,A,4.1,D,ROLL*5B
$GPRMC,163911.4,A,4741.38123,N,12224.32733,W,004.40,329.9,141015,016.4,E,A*20
$GPGGA,163911.4,4741.38123,N,12224.32733,W,1,03,6.5,-13.5,M,-18.2,M,,*77
$GPVTG,329.9,T,313.5,M,004.40,N,0008.14,K,A*1B
$HCHDG,317.6,0.0,E,,*2A
$IIVHW,,,,,03.7,N,,*1D
$GPRMC,163911.5,A,4741.38132,N,12224.32742,W,003.49,330.0,141015,016.4,E,A*28
$YXXDR,A,4.9,D,PTCH,A,4.2,D,ROLL*56
$GPGGA,163911.5,4741.38132,N,12224.32742,W,1,03,6.5,-13.5,M,-18.2,M,,*70
$GPVTG,330.0,T,313.5,M,003.49,N,0006.46,K,A*1D
$IIVLW,07333,N,000.2,N*55
$HCHDG,317.6,0.0,E,,*2A
$YXXDR,A,5.1,D,PTCH,A,4.2,D,ROLL*5F
$GPRMC,163911.6,A,4741.38140,N,12224.32749,W,003.46,329.9,141015,016.4,E,A*2B
$GPGGA,163911.6,4741.38140,N,12224.32749,W,1,03,6.5,-13.5,M,-18.2,M,,*7D
$GPVTG,329.9,T,313.5,M,003.46,N,0006.41,K,A*14
$HCHDG,317.8,0.0,E,,*24
$YXXDR,A,5.2,D,PTCH,A,4.2,D,ROLL*5C
$GPRMC,163911.7,A,4741.38148,N,12224.32755,W,003.36,329.9,141015,016.4,E,A*28
$GPGGA,163911.7,4741.38148,N,12224.32755,W,1,03,6.5,-13.5,M,-18.2,M,,*79
$GPVTG,329.9,T,313.5,M,003.36,N,0006.21,K,A*15
$HCHDG,318.0,0.0,E,,*23
$YXXDR,A,5.4,D,PTCH,A,4.3,D,ROLL*5B
$TIROT,40.0,A*0F
$GPRMC,163911.8,A,4741.38154,N,12224.32761,W,002.59,329.9,141015,016.4,E,A*25
$GPGGA,163911.8,4741.38154,N,12224.32761,W,1,03,6.5,-13.5,M,-18.2,M,,*7C
$GPVTG,329.9,T,313.5,M,002.59,N,0004.79,K,A*12
$HCHDG,318.0,0.0,E,,*23
$YXXDR,A,5.6,D,PTCH,A,4.4,D,ROLL*5E
$GPRMC,163911.9,A,4741.38161,N,12224.32767,W,002.64,329.9,141015,016.4,E,A*2A
$GPGGA,163911.9,4741.38161,N,12224.32767,W,1,03,6.5,-13.5,M,-18.2,M,,*7D
$GPVTG,329.9,T,313.5,M,002.64,N,0004.89,K,A*13
$HCHDG,318.1,0.0,E,,*22
$YXXDR,A,5.4,D,PTCH,A,4.6,D,ROLL*5E
$GPRMC,163912.0,A,4741.38164,N,12224.32771,W,002.69,330.0,141015,016.4,E,A*2E
$IIVWR,033,R,12.7,N,,,,*65
$GPGGA,163912.0,4741.38164,N,12224.32771,W,1,03,6.5,-13.4,M,-18.2,M,,*74
$GPVTG,330.0,T,313.5,M,002.69,N,0004.99,K,A*1E
$GPGSA,A,3,12,02,06,,,,,,,,,,9.0,6.5,6.2*3B
$GPGSV,1,1,04,12,85,207,46,02,76,120,46,25,48,306,37,06,45,056,41*7D
$HCHDG,318.3,0.0,E,,*20
$YXXDR,A,5.7,D,PTCH,A,4.8,D,ROLL*53
$GPRMC,163912.1,A,4741.38173,N,12224.32773,W,002.70,330.0,141015,016.4,E,A*23
$GPGGA,163912.1,4741.38173,N,12224.32773,W,1,03,6.5,-13.4,M,-18.2,M,,*71
$GPVTG,330.0,T,313.5,M,002.70,N,0005.01,K,A*16
$HCHDG,318.5,0.0,E,,*26
$IIMTW,+11.0,C*38
$YXXDR,A,5.8,D,PTCH,A,4.6,D,ROLL*52
$GPRMC,163912.2,A,4741.38179,N,12224.32776,W,002.68,330.0,141015,016.4,E,A*26
$GPGGA,163912.2,4741.38179,N,12224.32776,W,1,03,6.5,-13.4,M,-18.2,M,,*7D
$GPVTG,330.0,T,313.5,M,002.68,N,0004.97,K,A*11
$IIMWV,033,R,12.7,N,A*17
$HCHDG,318.3,0.0,E,,*20
$YXXDR,A,5.8,D,PTCH,A,4.5,D,ROLL*51
$IIMWV,048,T,09.3,N,A*13
$GPRMC,163912.3,A,4741.38186,N,12224.32781,W,003.07,331.3,141015,016.4,E,A*25
$GPGGA,163912.3,4741.38186,N,12224.32781,W,1,03,6.5,-13.5,M,-18.2,M,,*75
$GPVTG,331.3,T,314.9,M,003.07,N,0005.68,K,A*11
$HCHDG,318.5,0.0,E,,*26
$YXXDR,A,6.0,D,PTCH,A,4.2,D,ROLL*5D
$GPRMC,163912.4,A,4741.38194,N,12224.32787,W,003.11,331.4,141015,016.4,E,A*27
$GPGGA,163912.4,4741.38194,N,12224.32787,W,1,03,6.5,-13.5,M,-18.2,M,,*77
$GPVTG,331.4,T,315.0,M,003.11,N,0005.77,K,A*17
$GPRMC,163912.5,A,4741.38204,N,12224.32794,W,004.25,332.4,141015,016.4,E,A*2D
$HCHDG,318.6,0.0,E,,*25
$GPGGA,163912.5,4741.38204,N,12224.32794,W,1,03,6.5,-13.5,M,-18.2,M,,*7E
$IIVHW,,,,,03.7,N,,*1D
$YXXDR,A,6.2,D,PTCH,A,4.3,D,ROLL*5E
$GPVTG,332.4,T,316.0,M,004.25,N,0007.86,K,A*1B
$IIVLW,07333,N,000.2,N*55
$GPRMC,163912.6,A,4741.38213,N,12224.32801,W,003.27,332.1,141015,016.4,E,A*2B
$HCHDG,318.8,0.0,E,,*2B
$GPGGA,163912.6,4741.38213,N,12224.32801,W,1,03,6.5,-13.5,M,-18.2,M,,*78
$GPVTG,332.1,T,315.7,M,003.27,N,0006.06,K,A*16
$YXXDR,A,6.0,D,PTCH,A,4.6,D,ROLL*59
$GPRMC,163912.7,A,4741.38222,N,12224.32809,W,004.16,332.8,141015,016.4,E,A*2C
$HCHDG,318.6,0.0,E,,*25
$GPGGA,163912.7,4741.38222,N,12224.32809,W,1,03,6.5,-13.5,M,-18.2,M,,*73
$GPVTG,332.8,T,316.3,M,004.16,N,0007.71,K,A*1C
$YXXDR,A,6.0,D,PTCH,A,4.7,D,ROLL*58
$GPRMC,163912.8,A,4741.38231,N,12224.32817,W,003.61,332.5,141015,016.4,E,A*24
$HCHDG,318.8,0.0,E,,*2B
$GPGGA,163912.8,4741.38231,N,12224.32817,W,1,03,6.5,-13.5,M,-18.2,M,,*71
$YXXDR,A,6.1,D,PTCH,A,4.6,D,ROLL*58
$GPVTG,332.5,T,316.1,M,003.61,N,0006.69,K,A*1C
$TIROT,-1.7,A*10
$GPRMC,163912.9,A,4741.38240,N,12224.32824,W,003.69,333.1,141015,016.4,E,A*2E
$HCHDG,318.6,0.0,E,,*25
$GPGGA,163912.9,4741.38240,N,12224.32824,W,1,03,6.5,-13.5,M,-18.2,M,,*76
$GPVTG,333.1,T,316.7,M,003.69,N,0006.84,K,A*14
$YXXDR,A,5.8,D,PTCH,A,4.8,D,ROLL*5C
$GPRMC,163913.0,A,4741.38249,N,12224.32832,W,003.68,331.8,141015,016.4,E,A*22
$HCHDG,318.5,0.0,E,,*26
$GPGGA,163913.0,4741.38249,N,12224.32832,W,1,03,6.5,-13.5,M,-18.2,M,,*70
$GPVTG,331.8,T,315.4,M,003.68,N,0006.82,K,A*18
$YXXDR,A,6.0,D,PTCH,A,5.0,D,ROLL*5E
$GPGSA,A,3,12,02,06,,,,,,,,,,9.0,6.5,6.2*3B
$GPGSV,1,1,04,12,85,207,46,02,76,120,47,25,48,306,36,06,45,056,41*7D
$IIVWR,034,R,12.9,N,,,,*6C
$GPRMC,163913.1,A,4741.38253,N,12224.32837,W,003.66,332.0,141015,016.4,E,A*28
$HCHDG,318.5,0.0,E,,*26
$GPGGA,163913.1,4741.38253,N,12224.32837,W,1,03,6.5,-13.4,M,-18.2,M,,*7E
$GPVTG,332.0,T,315.6,M,003.66,N,0006.77,K,A*15
$YXXDR,A,6.0,D,PTCH,A,6.2,D,ROLL*5F
$GPRMC,163913.2,A,4741.38264,N,12224.32850,W,003.61,332.2,141015,016.4,E,A*2B
$HCHDG,318.8,0.0,E,,*2B
$GPGGA,163913.2,4741.38264,N,12224.32850,W,1,03,6.5,-13.4,M,-18.2,M,,*78
$GPVTG,332.2,T,315.7,M,003.61,N,0006.68,K,A*1F
$IIMTW,+11.0,C*38
$YXXDR,A,6.0,D,PTCH,A,6.2,D,ROLL*5F
$IIMWV,034,R,12.9,N,A*1E
$GPRMC,163913.3,A,4741.38269,N,12224.32853,W,003.57,332.1,141015,016.4,E,A*22
$HCHDG,318.8,0.0,E,,*2B
$GPGGA,163913.3,4741.38269,N,12224.32853,W,1,03,6.5,-13.4,M,-18.2,M,,*77
$GPVTG,332.1,T,315.6,M,003.57,N,0006.61,K,A*11
$YXXDR,A,6.0,D,PTCH,A,6.3,D,ROLL*5E
$IIMWV,045,T,09.6,N,A*1B
$GPRMC,163913.4,A,4741.38281,N,12224.32863,W,003.49,332.5,141015,016.4,E,A*2B
$HCHDG,318.8,0.0,E,,*2B
$GPGGA,163913.4,4741.38281,N,12224.32863,W,1,03,6.5,-13.4,M,-18.2,M,,*75
$GPVTG,332.5,T,316.0,M,003.49,N,0006.45,K,A*19
$YXXDR,A,6.1,D,PTCH,A,6.3,D,ROLL*5F
$GPRMC,163913.5,A,4741.38290,N,12224.32869,W,003.50,332.9,141015,016.4,E,A*24
$HCHDG,319.1,0.0,E,,*23
$GPGGA,163913.5,4741.38290,N,12224.32869,W,1,03,6.5,-13.4,M,-18.2,M,,*7E
$IIVHW,,,,,03.6,N,,*1C
$GPVTG,332.9,T,316.4,M,003.50,N,0006.49,K,A*15
$YXXDR,A,6.1,D,PTCH,A,6.5,D,ROLL*59
$IIVLW,07333,N,000.2,N*55
$GPRMC,163913.6,A,4741.38298,N,12224.32875,W,003.48,332.4,141015,016.4,E,A*26
$HCHDG,318.9,0.0,E,,*2A
$GPGGA,163913.6,4741.38298,N,12224.32875,W,1,03,6.5,-13.4,M,-18.2,M,,*78
$YXXDR,A,5.9,D,PTCH,A,6.6,D,ROLL*51
$GPVTG,332.4,T,316.0,M,003.48,N,0006.44,K,A*18
$GPRMC,163913.7,A,4741.38306,N,12224.32883,W,003.51,332.1,141015,016.4,E,A*25
$HCHDG,319.1,0.0,E,,*23
$GPGGA,163913.7,4741.38306,N,12224.32883,W,1,03,6.5,-13.4,M,-18.2,M,,*76
$GPVTG,332.1,T,315.7,M,003.51,N,0006.50,K,A*14
$YXXDR,A,5.8,D,PTCH,A,6.3,D,ROLL*55
$GPRMC,163913.8,A,4741.38315,N,12224.32889,W,003.45,332.7,141015,016.4,E,A*21
$HCHDG,318.9,0.0,E,,*2A
$GPGGA,163913.8,4741.38315,N,12224.32889,W,1,03,6.6,-13.5,M,-18.2,M,,*73
$YXXDR,A,6.0,D,PTCH,A,6.4,D,ROLL*59
$GPVTG,332.7,T,316.2,M,003.45,N,0006.38,K,A*1F
$TIROT,20.5,A*0C
$GPRMC,163913.9,A,4741.38323,N,12224.32896,W,003.84,331.7,141015,016.4,E,A*25
$HCHDG,319.0,0.0,E,,*22
$GPGGA,163913.9,4741.38323,N,12224.32896,W,1,03,6.6,-13.5,M,-18.2,M,,*79
$GPVTG,331.7,T,315.2,M,003.84,N,0007.10,K,A*19
$YXXDR,A,6.1,D,PTCH,A,6.3,D,ROLL*5F
$GPRMC,163914.0,A,4741.38332,N,12224.32904,W,003.78,331.8,141015,016.4,E,A*2D
$HCHDG,319.0,0.0,E,,*22
$GPGGA,163914.0,4741.38332,N,12224.32904,W,1,03,6.6,-13.5,M,-18.2,M,,*7D
$YXXDR,A,6.1,D,PTCH,A,6.3,D,ROLL*5F
$GPVTG,331.8,T,315.3,M,003.78,N,0007.00,K,A*15
$GPGSA,A,3,12,02,06,,,,,,,,,,9.1,6.6,6.2*39
$IIVWR,034,R,12.7,N,,,,*62
$GPGSV,1,1,04,12,85,207,45,02,76,120,47,25,48,306,38,06,45,056,42*73
$GPRMC,163914.1,A,4741.38338,N,12224.32903,W,003.76,331.7,141015,016.4,E,A*20
$HCHDG,319.1,0.0,E,,*23
$GPGGA,163914.1,4741.38338,N,12224.32903,W,1,03,6.6,-13.4,M,-18.2,M,,*70
$YXXDR,A,6.3,D,PTCH,A,6.3,D,ROLL*5D
$GPVTG,331.7,T,315.3,M,003.76,N,0006.97,K,A*1B
$GPRMC,163914.2,A,4741.38342,N,12224.32906,W,003.74,331.0,141015,016.4,E,A*2E
$HCHDG,319.1,0.0,E,,*23
$IIMTW,+11.0,C*38
$GPGGA,163914.2,4741.38342,N,12224.32906,W,1,03,6.6,-13.4,M,-18.2,M,,*7B
$YXXDR,A,6.1,D,PTCH,A,6.3,D,ROLL*5F
$GPVTG,331.0,T,314.6,M,003.74,N,0006.92,K,A*1F
$IIMWV,034,R,12.7,N,A*10
$GPRMC,163914.3,A,4741.38347,N,12224.32910,W,003.73,331.0,141015,016.4,E,A*2A
$HCHDG,319.1,0.0,E,,*23
$GPGGA,163914.3,4741.38347,N,12224.32910,W,1,03,6.6,-13.4,M,-18.2,M,,*78
$YXXDR,A,6.1,D,PTCH,A,6.3,D,ROLL*5F
$GPVTG,331.0,T,314.5,M,003.73,N,0006.90,K,A*19
$IIMWV,046,T,10.0,N,A*16
$GPRMC,163914.4,A,4741.38364,N,12224.32925,W,003.65,331.5,141015,016.4,E,A*28
$HCHDG,319.1,0.0,E,,*23
$GPGGA,163914.4,4741.38364,N,12224.32925,W,1,03,6.6,-13.4,M,-18.2,M,,*78
$YXXDR,A,6.1,D,PTCH,A,6.5,D,ROLL*59
$GPVTG,331.5,T,315.1,M,003.65,N,0006.76,K,A*16
$GPRMC,163914.5,A,4741.38373,N,12224.32932,W,003.68,329.9,141015,016.4,E,A*21
$HCHDG,319.2,0.0,E,,*20
$IIVHW,,,,,03.6,N,,*1C
$GPGGA,163914.5,4741.38373,N,12224.32932,W,1,03,6.6,-13.4,M,-18.2,M,,*79
$YXXDR,A,6.1,D,PTCH,A,6.4,D,ROLL*58
$GPVTG,329.9,T,313.4,M,003.68,N,0006.82,K,A*16
$IIVLW,07333,N,000.2,N*55
$GPRMC,163914.6,A,4741.38381,N,12224.32939,W,003.62,331.1,141015,016.4,E,A*2F
$HCHDG,319.1,0.0,E,,*23
$GPGGA,163914.6,4741.38381,N,12224.32939,W,1,03,6.6,-13.4,M,-18.2,M,,*7C
$YXXDR,A,5.7,D,PTCH,A,6.3,D,ROLL*5A
$GPVTG,331.1,T,314.7,M,003.62,N,0006.70,K,A*14
$HCHDG,319.1,0.0,E,,*23
$GPRMC,163914.7,A,4741.38390,N,12224.32946,W,003.61,331.2,141015,016.4,E,A*26
$YXXDR,A,5.6,D,PTCH,A,6.2,D,ROLL*5A
$GPGGA,163914.7,4741.38390,N,12224.32946,W,1,03,6.6,-13.4,M,-18.2,M,,*75
$GPVTG,331.2,T,314.8,M,003.61,N,0006.68,K,A*12
$GPRMC,163914.8,A,4741.38394,N,12224.32949,W,003.58,331.0,141015,016.4,E,A*2A
$GPGGA,163914.8,4741.38394,N,12224.32949,W,1,03,6.6,-13.4,M,-18.2,M,,*71
$HCHDG,319.0,0.0,E,,*22
$YXXDR,A,5.3,D,PTCH,A,6.1,D,ROLL*5C
$TIROT,-31.7,A*23
$GPVTG,331.0,T,314.6,M,003.58,N,0006.63,K,A*1F
$HCHDG,318.9,0.0,E,,*2A
$GPRMC,163914.9,A,4741.38398,N,12224.32953,W,003.56,330.3,141015,016.4,E,A*20
$GPGGA,163914.9,4741.38398,N,12224.32953,W,1,03,6.6,-13.4,M,-18.2,M,,*77
$YXXDR,A,4.9,D,PTCH,A,6.0,D,ROLL*56
$GPVTG,330.3,T,313.8,M,003.56,N,0006.60,K,A*19
$GPRMC,163915.0,A,4741.38415,N,12224.32968,W,003.60,330.1,141015,016.4,E,A*25
$HCHDG,319.0,0.0,E,,*22
$GPGGA,163915.0,4741.38415,N,12224.32968,W,1,03,6.6,-13.4,M,-18.2,M,,*75
$YXXDR,A,5.5,D,PTCH,A,6.0,D,ROLL*5B
$IIVWR,032,R,12.6,N,,,,*65
$GPVTG,330.1,T,313.7,M,003.60,N,0006.67,K,A*16
$GPGSA,A,3,12,02,06,,,,,,,,,,9.1,6.6,6.2*39
$GPGSV,1,1,04,12,85,207,45,02,76,120,47,25,48,305,38,06,45,056,42*70
$GPRMC,163915.1,A,4741.38421,N,12224.32973,W,003.16,330.0,141015,016.4,E,A*29
$HCHDG,319.1,0.0,E,,*23
$GPGGA,163915.1,4741.38421,N,12224.32973,W,1,03,6.6,-13.3,M,-18.2,M,,*7E
$YXXDR,A,5.4,D,PTCH,A,6.1,D,ROLL*5B
$GPVTG,330.0,T,313.6,M,003.16,N,0005.86,K,A*1B
$HCHDG,319.2,0.0,E,,*20
$GPRMC,163915.2,A,4741.38429,N,12224.32982,W,003.78,328.5,141015,016.4,E,A*28
$GPGGA,163915.2,4741.38429,N,12224.32982,W,1,03,6.6,-13.3,M,-18.2,M,,*7B
$YXXDR,A,5.6,D,PTCH,A,5.9,D,ROLL*52
$IIMTW,+11.0,C*38
$GPVTG,328.5,T,312.0,M,003.78,N,0006.99,K,A*15
$IIMWV,032,R,12.6,N,A*17
$HCHDG,319.3,0.0,E,,*21
$GPRMC,163915.3,A,4741.38433,N,12224.32987,W,003.78,326.3,141015,016.4,E,A*2F
$GPGGA,163915.3,4741.38433,N,12224.32987,W,1,03,6.6,-13.4,M,-18.2,M,,*73
$YXXDR,A,5.6,D,PTCH,A,5.9,D,ROLL*52
$IIMWV,046,T,09.9,N,A*17
$GPVTG,326.3,T,309.8,M,003.78,N,0007.01,K,A*1F
$HCHDG,319.3,0.0,E,,*21
$GPRMC,163915.4,A,4741.38445,N,12224.32999,W,003.74,327.4,141015,016.4,E,A*2C
$GPGGA,163915.4,4741.38445,N,12224.32999,W,1,03,6.6,-13.4,M,-18.2,M,,*7A
$YXXDR,A,5.5,D,PTCH,A,6.0,D,ROLL*5B
$GPVTG,327.4,T,311.0,M,003.74,N,0006.92,K,A*1F
$HCHDG,319.6,0.0,E,,*24
$GPRMC,163915.5,A,4741.38450,N,12224.33003,W,003.71,327.9,141015,016.4,E,A*2A
$IIVHW,,,,,03.5,N,,*1F
$GPGGA,163915.5,4741.38450,N,12224.33003,W,1,03,6.6,-13.4,M,-18.2,M,,*74
$YXXDR,A,5.8,D,PTCH,A,5.8,D,ROLL*5D
$GPVTG,327.9,T,311.4,M,003.71,N,0006.88,K,A*18
$IIVLW,07333,N,000.2,N*55
$HCHDG,319.3,0.0,E,,*21
$GPRMC,163915.6,A,4741.38463,N,12224.33012,W,003.63,328.8,141015,016.4,E,A*24
$GPGGA,163915.6,4741.38463,N,12224.33012,W,1,03,6.6,-13.4,M,-18.2,M,,*77
$GPVTG,328.8,T,312.4,M,003.63,N,0006.72,K,A*13
$GPRMC,163915.7,A,4741.38472,N,12224.33018,W,003.63,329.5,141015,016.4,E,A*23
$GPGGA,163915.7,4741.38472,N,12224.33018,W,1,03,6.6,-13.4,M,-18.2,M,,*7C
$GPVTG,329.5,T,313.1,M,003.63,N,0006.73,K,A*1A
$GPRMC,163915.8,A,4741.38481,N,12224.33024,W,003.60,330.4,141015,016.4,E,A*25
$YXXDR,A,6.0,D,PTCH,A,5.9,D,ROLL*57
$HCHDG,319.5,0.0,E,,*27
$YXXDR,A,5.8,D,PTCH,A,5.8,D,ROLL*5D
$HCHDG,319.7,0.0,E,,*25
$GPGGA,163915.8,4741.38481,N,12224.33024,W,1,03,6.6,-13.4,M,-18.2,M,,*70
$GPVTG,330.4,T,314.0,M,003.60,N,0006.67,K,A*13
$YXXDR,A,6.3,D,PTCH,A,5.7,D,ROLL*5A
$TIROT,1.0,A*3A
$HCHDG,319.8,0.0,E,,*2A
$YXXDR,A,6.5,D,PTCH,A,5.7,D,ROLL*5C
$GPRMC,163915.9,A,4741.38489,N,12224.33031,W,003.53,330.7,141015,016.4,E,A*2B
$GPGGA,163915.9,4741.38489,N,12224.33031,W,1,03,6.6,-13.4,M,-18.2,M,,*7D
$GPVTG,330.7,T,314.2,M,003.53,N,0006.54,K,A*12
$HCHDG,319.8,0.0,E,,*2A
$GPRMC,163916.0,A,4741.38498,N,12224.33038,W,003.57,332.4,141015,016.4,E,A*2D
$YXXDR,A,6.7,D,PTCH,A,5.8,D,ROLL*51
$GPGGA,163916.0,4741.38498,N,12224.33038,W,1,03,6.6,-13.5,M,-18.2,M,,*7F
$GPVTG,332.4,T,316.0,M,003.57,N,0006.61,K,A*11
$IIVWR,030,R,12.9,N,,,,*68
$GPGSA,A,3,12,02,06,,,,,,,,,,9.1,6.6,6.3*38
$GPGSV,1,1,04,12,85,207,45,02,76,120,47,25,48,305,39,06,45,056,42*71
$HCHDG,319.8,0.0,E,,*2A
$GPRMC,163916.1,A,4741.38506,N,12224.33034,W,003.57,334.0,141015,016.4,E,A*24
$YXXDR,A,6.7,D,PTCH,A,5.7,D,ROLL*5E
$GPGGA,163916.1,4741.38506,N,12224.33034,W,1,03,6.6,-13.4,M,-18.2,M,,*75
$GPVTG,334.0,T,317.6,M,003.57,N,0006.61,K,A*14
$HCHDG,319.8,0.0,E,,*2A
$GPRMC,163916.2,A,4741.38515,N,12224.33041,W,003.61,333.4,141015,016.4,E,A*21
$YXXDR,A,6.4,D,PTCH,A,5.9,D,ROLL*53
$IIMTW,+11.0,C*38
$GPGGA,163916.2,4741.38515,N,12224.33041,W,1,03,6.6,-13.5,M,-18.2,M,,*77
$GPVTG,333.4,T,317.0,M,003.61,N,0006.69,K,A*1C
$IIMWV,030,R,12.9,N,A*1A
$HCHDG,319.7,0.0,E,,*25
$GPRMC,163916.3,A,4741.38523,N,12224.33048,W,003.56,333.7,141015,016.4,E,A*2B
$YXXDR,A,6.5,D,PTCH,A,6.0,D,ROLL*58
$IIMWV,043,T,09.6,N,A*1D
$GPGGA,163916.3,4741.38523,N,12224.33048,W,1,03,6.6,-13.5,M,-18.2,M,,*7A
$GPVTG,333.7,T,317.2,M,003.56,N,0006.58,K,A*1B
$HCHDG,320.0,0.0,E,,*28
$GPRMC,163916.4,A,4741.38532,N,12224.33055,W,003.86,332.1,141015,016.4,E,A*2A
$YXXDR,A,6.0,D,PTCH,A,6.2,D,ROLL*5F
$GPGGA,163916.4,4741.38532,N,12224.33055,W,1,03,6.6,-13.5,M,-18.2,M,,*71
$GPVTG,332.1,T,315.7,M,003.86,N,0007.14,K,A*1F
$HCHDG,319.7,0.0,E,,*25
$GPRMC,163916.5,A,4741.38541,N,12224.33064,W,004.38,331.5,141015,016.4,E,A*28
$IIVHW,,,,,03.5,N,,*1F
$YXXDR,A,5.8,D,PTCH,A,6.3,D,ROLL*55
$GPGGA,163916.5,4741.38541,N,12224.33064,W,1,03,6.6,-13.5,M,-18.2,M,,*76
$GPVTG,331.5,T,315.1,M,004.38,N,0008.11,K,A*16
$IIVLW,07333,N,000.2,N*55
$HCHDG,319.6,0.0,E,,*24
$GPRMC,163916.6,A,4741.38552,N,12224.33072,W,004.29,331.9,141015,016.4,E,A*22
$YXXDR,A,5.4,D,PTCH,A,6.3,D,ROLL*59
$GPGGA,163916.6,4741.38552,N,12224.33072,W,1,03,6.6,-13.5,M,-18.2,M,,*70
$GPVTG,331.9,T,315.5,M,004.29,N,0007.95,K,A*1D
$HCHDG,319.7,0.0,E,,*25
$GPRMC,163916.7,A,4741.38562,N,12224.33080,W,004.48,331.0,141015,016.4,E,A*23
$YXXDR,A,5.1,D,PTCH,A,6.4,D,ROLL*5B
$GPGGA,163916.7,4741.38562,N,12224.33080,W,1,03,6.6,-13.5,M,-18.2,M,,*7F
$GPVTG,331.0,T,314.6,M,004.48,N,0008.30,K,A*11
$HCHDG,319.4,0.0,E,,*26
$GPRMC,163916.8,A,4741.38573,N,12224.33087,W,003.98,331.0,141015,016.4,E,A*21
$YXXDR,A,4.8,D,PTCH,A,6.5,D,ROLL*52
$TIROT,-48.5,A*2F
$GPGGA,163916.8,4741.38573,N,12224.33087,W,1,03,6.6,-13.5,M,-18.2,M,,*77
$GPVTG,331.0,T,314.6,M,003.98,N,0007.37,K,A*13
$HCHDG,319.5,0.0,E,,*27
$GPRMC,163916.9,A,4741.38583,N,12224.33094,W,004.53,330.6,141015,016.4,E,A*2A
$YXXDR,A,4.8,D,PTCH,A,6.6,D,ROLL*51
$GPGGA,163916.9,4741.38583,N,12224.33094,W,1,03,6.6,-13.5,M,-18.2,M,,*7B
$GPVTG,330.6,T,314.2,M,004.53,N,0008.39,K,A*11
$HCHDG,319.3,0.0,E,,*21
$GPRMC,163917.0,A,4741.38593,N,12224.33104,W,004.11,330.6,141015,016.4,E,A*2D
$YXXDR,A,4.6,D,PTCH,A,6.6,D,ROLL*5F
$GPGGA,163917.0,4741.38593,N,12224.33104,W,1,03,6.6,-13.5,M,-18.2,M,,*7A
$IIVWR,031,R,12.7,N,,,,*67
$GPVTG,330.6,T,314.2,M,004.11,N,0007.61,K,A*15
$GPGSA,A,3,12,02,06,,,,,,,,,,9.1,6.6,6.3*38
$GPGSV,1,1,04,12,85,207,45,02,76,120,47,25,48,305,38,06,45,056,41*73
$HCHDG,319.3,0.0,E,,*21
$GPRMC,163917.1,A,4741.38599,N,12224.33102,W,004.08,331.3,141015,016.4,E,A*2C
$YXXDR,A,5.0,D,PTCH,A,6.7,D,ROLL*59
$GPGGA,163917.1,4741.38599,N,12224.33102,W,1,03,6.6,-13.3,M,-18.2,M,,*71
$GPVTG,331.3,T,314.8,M,004.08,N,0007.56,K,A*17
$HCHDG,319.1,0.0,E,,*23
$GPRMC,163917.2,A,4741.38608,N,12224.33109,W,003.45,332.2,141015,016.4,E,A*23
$IIMTW,+11.0,C*38
$YXXDR,A,5.1,D,PTCH,A,6.5,D,ROLL*5A
$GPGGA,163917.2,4741.38608,N,12224.33109,W,1,03,6.6,-13.3,M,-18.2,M,,*72
$GPVTG,332.2,T,315.7,M,003.45,N,0006.39,K,A*1D
$IIMWV,031,R,12.7,N,A*15
$HCHDG,319.0,0.0,E,,*22
$GPRMC,163917.3,A,4741.38616,N,12224.33115,W,003.40,331.6,141015,016.4,E,A*22
$YXXDR,A,5.2,D,PTCH,A,6.4,D,ROLL*58
$IIMWV,040,T,10.0,N,A*10
$GPGGA,163917.3,4741.38616,N,12224.33115,W,1,03,6.6,-13.3,M,-18.2,M,,*71
$GPVTG,331.6,T,315.1,M,003.40,N,0006.29,K,A*18
$HCHDG,319.0,0.0,E,,*22
$GPRMC,163917.4,A,4741.38620,N,12224.33117,W,003.34,331.6,141015,016.4,E,A*21
$YXXDR,A,5.5,D,PTCH,A,6.5,D,ROLL*5E
$GPGGA,163917.4,4741.38620,N,12224.33117,W,1,03,6.6,-13.3,M,-18.2,M,,*71
$GPVTG,331.6,T,315.1,M,003.34,N,0006.19,K,A*18
$HCHDG,319.1,0.0,E,,*23
$IIVHW,,,,,03.5,N,,*1F
$GPRMC,163917.5,A,4741.38632,N,12224.33123,W,003.23,331.6,141015,016.4,E,A*22
$YXXDR,A,5.5,D,PTCH,A,6.5,D,ROLL*5E
$GPGGA,163917.5,4741.38632,N,12224.33123,W,1,03,6.6,-13.3,M,-18.2,M,,*74
$GPVTG,331.6,T,315.1,M,003.23,N,0005.99,K,A*15
$IIVLW,07333,N,000.2,N*55
$HCHDG,319.1,0.0,E,,*23
$GPRMC,163917.6,A,4741.38639,N,12224.33128,W,003.11,332.8,141015,016.4,E,A*2D
$YXXDR,A,6.0,D,PTCH,A,6.6,D,ROLL*5B
$GPGGA,163917.6,4741.38639,N,12224.33128,W,1,03,6.6,-13.3,M,-18.2,M,,*77
$GPVTG,332.8,T,316.4,M,003.11,N,0005.76,K,A*1E
$HCHDG,319.2,0.0,E,,*20
$GPRMC,163917.7,A,4741.38646,N,12224.33134,W,003.09,333.0,141015,016.4,E,A*29
$YXXDR,A,6.4,D,PTCH,A,6.6,D,ROLL*5F
$GPGGA,163917.7,4741.38646,N,12224.33134,W,1,03,6.6,-13.3,M,-18.2,M,,*73
$GPVTG,333.0,T,316.6,M,003.09,N,0005.73,K,A*19
$HCHDG,319.4,0.0,E,,*26
$GPRMC,163917.8,A,4741.38649,N,12224.33137,W,003.08,333.2,141015,016.4,E,A*29
$YXXDR,A,6.8,D,PTCH,A,6.6,D,ROLL*53
$TIROT,-6.1,A*11
$GPGGA,163917.8,4741.38649,N,12224.33137,W,1,03,6.6,-13.3,M,-18.2,M,,*70
$GPVTG,333.2,T,316.8,M,003.08,N,0005.71,K,A*16
$HCHDG,319.6,0.0,E,,*24
$GPRMC,163917.9,A,4741.38660,N,12224.33145,W,002.62,333.0,141015,016.4,E,A*29
$YXXDR,A,7.1,D,PTCH,A,6.7,D,ROLL*5A
$GPGGA,163917.9,4741.38660,N,12224.33145,W,1,03,6.6,-13.3,M,-18.2,M,,*7F
$GPVTG,333.0,T,316.5,M,002.62,N,0004.85,K,A*1E
$HCHDG,319.8,0.0,E,,*2A
$GPRMC,163918.0,A,4741.38667,N,12224.33149,W,002.66,334.8,141015,016.4,E,A*2F
$YXXDR,A,7.2,D,PTCH,A,6.9,D,ROLL*57
$GPGGA,163918.0,4741.38667,N,12224.33149,W,1,03,6.6,-13.3,M,-18.2,M,,*72
$IIVWR,031,R,13.0,N,,,,*61
$GPVTG,334.8,T,318.3,M,002.66,N,0004.93,K,A*1A
$GPGSA,A,3,12,02,06,,,,,,,,,,9.1,6.6,6.3*38
$GPGSV,1,1,04,12,85,207,46,02,76,120,47,25,48,305,38,06,45,056,42*73
$HCHDG,319.9,0.0,E,,*2B
$GPRMC,163918.1,A,4741.38676,N,12224.33160,W,003.76,336.3,141015,016.4,E,A*2C
$YXXDR,A,6.9,D,PTCH,A,7.3,D,ROLL*56
$GPGGA,163918.1,4741.38676,N,12224.33160,W,1,03,6.6,-13.4,M,-18.2,M,,*7F
$GPVTG,336.3,T,319.9,M,003.76,N,0006.96,K,A*1F
$HCHDG,320.1,0.0,E,,*29
$IIMTW,+11.0,C*38
$GPRMC,163918.2,A,4741.38685,N,12224.33167,W,003.24,336.5,141015,016.4,E,A*25
$YXXDR,A,7.1,D,PTCH,A,7.6,D,ROLL*5A
$GPGGA,163918.2,4741.38685,N,12224.33167,W,1,03,6.6,-13.4,M,-18.2,M,,*77
$GPVTG,336.5,T,320.1,M,003.24,N,0006.00,K,A*13
$IIMWV,031,R,13.0,N,A*13
$HCHDG,320.2,0.0,E,,*2A
$GPRMC,163918.3,A,4741.38693,N,12224.33174,W,004.16,336.3,141015,016.4,E,A*21
$IIMWV,042,T,09.9,N,A*13
$YXXDR,A,6.8,D,PTCH,A,7.5,D,ROLL*51
$GPGGA,163918.3,4741.38693,N,12224.33174,W,1,03,6.6,-13.5,M,-18.2,M,,*72
$GPVTG,336.3,T,319.9,M,004.16,N,0007.70,K,A*17
$HCHDG,320.3,0.0,E,,*2B
$YXXDR,A,6.3,D,PTCH,A,7.8,D,ROLL*57
$GPRMC,163918.4,A,4741.38703,N,12224.33184,W,004.11,336.8,141015,016.4,E,A*2D
$GPGGA,163918.4,4741.38703,N,12224.33184,W,1,03,6.6,-13.5,M,-18.2,M,,*72
$GPVTG,336.8,T,320.4,M,004.11,N,0007.62,K,A*1F
$HCHDG,320.1,0.0,E,,*29
$IIVHW,,,,,03.6,N,,*1C
$GPRMC,163918.5,A,4741.38712,N,12224.33193,W,004.17,338.5,141015,016.4,E,A*2F
$YXXDR,A,6.0,D,PTCH,A,8.0,D,ROLL*53
$GPGGA,163918.5,4741.38712,N,12224.33193,W,1,03,6.6,-13.5,M,-18.2,M,,*75
$GPVTG,338.5,T,322.0,M,004.17,N,0007.73,K,A*1C
$IIVLW,07333,N,000.2,N*55
$HCHDG,320.0,0.0,E,,*28
$YXXDR,A,5.6,D,PTCH,A,8.0,D,ROLL*56
$GPRMC,163918.6,A,4741.38718,N,12224.33197,W,004.20,336.8,141015,016.4,E,A*25
$GPGGA,163918.6,4741.38718,N,12224.33197,W,1,03,6.6,-13.5,M,-18.2,M,,*78
$GPVTG,336.8,T,320.4,M,004.20,N,0007.78,K,A*16
$HCHDG,319.8,0.0,E,,*2A
$YXXDR,A,5.2,D,PTCH,A,8.0,D,ROLL*52
$GPRMC,163918.7,A,4741.38723,N,12224.33201,W,004.23,337.2,141015,016.4,E,A*28
$GPGGA,163918.7,4741.38723,N,12224.33201,W,1,03,6.6,-13.5,M,-18.2,M,,*7D
$GPVTG,337.2,T,320.7,M,004.23,N,0007.83,K,A*19
$HCHDG,319.5,0.0,E,,*27
$YXXDR,A,5.2,D,PTCH,A,7.6,D,ROLL*5B
$TIROT,-56.5,A*20
$GPRMC,163918.8,A,4741.38744,N,12224.33216,W,003.87,338.1,141015,016.4,E,A*25
$GPGGA,163918.8,4741.38744,N,12224.33216,W,1,03,6.6,-13.5,M,-18.2,M,,*75
$GPVTG,338.1,T,321.6,M,003.87,N,0007.17,K,A*11
$HCHDG,319.5,0.0,E,,*27
$YXXDR,A,5.3,D,PTCH,A,7.5,D,ROLL*59
$GPRMC,163918.9,A,4741.38749,N,12224.33219,W,003.86,336.6,141015,016.4,E,A*2E
$GPGGA,163918.9,4741.38749,N,12224.33219,W,1,03,6.6,-13.5,M,-18.2,M,,*76
$GPVTG,336.6,T,320.1,M,003.86,N,0007.15,K,A*1D
$HCHDG,319.3,0.0,E,,*21
$YXXDR,A,5.2,D,PTCH,A,7.3,D,ROLL*5E
$GPRMC,163919.0,A,4741.38753,N,12224.33223,W,003.85,335.8,141015,016.4,E,A*2A
$IIVWR,030,R,12.7,N,,,,*66
$GPGGA,163919.0,4741.38753,N,12224.33223,W,1,03,6.6,-13.5,M,-18.2,M,,*7C
$GPVTG,335.8,T,319.4,M,003.85,N,0007.12,K,A*1B
$GPGSA,A,3,12,02,06,,,,,,,,,,9.1,6.6,6.3*38
$GPGSV,1,1,04,12,85,207,45,02,76,120,47,25,48,305,38,06,45,056,41*73
$HCHDG,319.1,0.0,E,,*23
$YXXDR,A,4.9,D,PTCH,A,7.2,D,ROLL*55
$GPRMC,163919.1,A,4741.38769,N,12224.33239,W,003.80,334.8,141015,016.4,E,A*2D
$GPGGA,163919.1,4741.38769,N,12224.33239,W,1,03,6.6,-13.5,M,-18.2,M,,*7F
$GPVTG,334.8,T,318.4,M,003.80,N,0007.04,K,A*19
$HCHDG,319.1,0.0,E,,*23
$IIMTW,+11.0,C*38
$GPRMC,163919.2,A,4741.38778,N,12224.33247,W,003.74,333.4,141015,016.4,E,A*27
$YXXDR,A,5.0,D,PTCH,A,7.1,D,ROLL*5E
$GPGGA,163919.2,4741.38778,N,12224.33247,W,1,03,6.6,-13.5,M,-18.2,M,,*75
$GPVTG,333.4,T,316.9,M,003.74,N,0006.92,K,A*14
$IIMWV,030,R,12.7,N,A*14
$HCHDG,319.1,0.0,E,,*23
$YXXDR,A,6.1,D,PTCH,A,6.6,D,ROLL*5A
$IIMWV,042,T,10.0,N,A*12
$GPRMC,163919.3,A,4741.38786,N,12224.33252,W,003.62,333.4,141015,016.4,E,A*24
$GPGGA,163919.3,4741.38786,N,12224.33252,W,1,03,6.6,-13.5,M,-18.2,M,,*71
$GPVTG,333.4,T,316.9,M,003.62,N,0006.70,K,A*1F
$HCHDG,319.2,0.0,E,,*20
$YXXDR,A,5.8,D,PTCH,A,6.5,D,ROLL*53
$GPRMC,163919.4,A,4741.38791,N,12224.33254,W,003.54,332.7,141015,016.4,E,A*24
$GPGGA,163919.4,4741.38791,N,12224.33254,W,1,03,6.6,-13.5,M,-18.2,M,,*76
$GPVTG,332.7,T,316.3,M,003.54,N,0006.55,K,A*15
$HCHDG,319.1,0.0,E,,*23
$IIVHW,,,,,03.5,N,,*1F
$GPRMC,163919.5,A,4741.38803,N,12224.33262,W,003.44,332.3,141015,016.4,E,A*21
$YXXDR,A,5.5,D,PTCH,A,6.5,D,ROLL*5E
$GPGGA,163919.5,4741.38803,N,12224.33262,W,1,03,6.6,-13.5,M,-18.2,M,,*76
$GPVTG,332.3,T,315.8,M,003.44,N,0006.37,K,A*1C
$IIVLW,07333,N,000.2,N*55
$HCHDG,318.9,0.0,E,,*2A
$YXXDR,A,5.5,D,PTCH,A,6.4,D,ROLL*5F
$GPRMC,163919.6,A,4741.38810,N,12224.33269,W,003.43,329.9,141015,016.4,E,A*2C
$GPGGA,163919.6,4741.38810,N,12224.33269,W,1,03,6.6,-13.5,M,-18.2,M,,*7C
$GPVTG,329.9,T,313.5,M,003.43,N,0006.35,K,A*12
$HCHDG,319.1,0.0,E,,*23
$YXXDR,A,5.5,D,PTCH,A,6.4,D,ROLL*5F
$GPRMC,163919.7,A,4741.38818,N,12224.33275,W,003.37,331.6,141015,016.4,E,A*2D
$GPGGA,163919.7,4741.38818,N,12224.33275,W,1,03,6.6,-13.5,M,-18.2,M,,*78
$GPVTG,331.6,T,315.2,M,003.37,N,0006.25,K,A*17
$HCHDG,319.1,0.0,E,,*23
$YXXDR,A,5.6,D,PTCH,A,6.2,D,ROLL*5A
$TIROT,-43.1,A*20
$GPRMC,163919.8,A,4741.38827,N,12224.33280,W,003.36,331.8,141015,016.4,E,A*2B
$GPGGA,163919.8,4741.38827,N,12224.33280,W,1,03,6.6,-13.5,M,-18.2,M,,*71
$GPVTG,331.8,T,315.4,M,003.36,N,0006.22,K,A*19
$HCHDG,319.2,0.0,E,,*20
$GPRMC,163919.9,A,4741.38835,N,12224.33286,W,003.30,332.7,141015,016.4,E,A*25
$YXXDR,A,5.8,D,PTCH,A,6.3,D,ROLL*55
$GPGGA,163919.9,4741.38835,N,12224.33286,W,1,03,6.6,-13.5,M,-18.2,M,,*75
$GPVTG,332.7,T,316.2,M,003.30,N,0006.11,K,A*16
$HCHDG,319.5,0.0,E,,*27
$YXXDR,A,6.2,D,PTCH,A,6.2,D,ROLL*5D
$GPRMC,163920.0,A,4741.38843,N,12224.33291,W,003.52,333.9,141015,016.4,E,A*2A
$IIVWR,030,R,12.8,N,,,,*69
$GPGGA,163920.0,4741.38843,N,12224.33291,W,1,03,6.6,-13.5,M,-18.2,M,,*71
$GPVTG,333.9,T,317.4,M,003.52,N,0006.51,K,A*1E
$GPGSA,A,3,12,02,06,,,,,,,,,,9.1,6.6,6.3*38
$GPGSV,1,1,04,12,85,207,45,02,76,120,47,25,48,305,39,06,45,056,42*71
$HCHDG,319.4,0.0,E,,*26
$YXXDR,A,6.2,D,PTCH,A,6.2,D,ROLL*5D
$GPRMC,163920.1,A,4741.38848,N,12224.33293,W,003.03,333.7,141015,016.4,E,A*28
$GPGGA,163920.1,4741.38848,N,12224.33293,W,1,03,6.6,-13.5,M,-18.2,M,,*79
$GPVTG,333.7,T,317.2,M,003.03,N,0005.61,K,A*12
$HCHDG,319.5,0.0,E,,*27
$IIMTW,+11.0,C*38
$YXXDR,A,6.3,D,PTCH,A,6.3,D,ROLL*5D
$GPRMC,163920.2,A,4741.38857,N,12224.33300,W,003.80,333.8,141015,016.4,E,A*2A
$GPGGA,163920.2,4741.38857,N,12224.33300,W,1,03,6.6,-13.5,M,-18.2,M,,*7F
$GPVTG,333.8,T,317.4,M,003.80,N,0007.04,K,A*11
$IIMWV,030,R,12.8,N,A*1B
$HCHDG,319.5,0.0,E,,*27
$YXXDR,A,6.3,D,PTCH,A,6.4,D,ROLL*5A
$GPRMC,163920.3,A,4741.38866,N,12224.33306,W,003.72,335.1,141015,016.4,E,A*2D
$IIMWV,040,T,09.7,N,A*1F
$GPGGA,163920.3,4741.38866,N,12224.33306,W,1,03,6.6,-13.5,M,-18.2,M,,*7A
$GPVTG,335.1,T,318.7,M,003.72,N,0006.88,K,A*1A
$HCHDG,319.6,0.0,E,,*24
$YXXDR,A,6.2,D,PTCH,A,6.4,D,ROLL*5B
$GPRMC,163920.4,A,4741.38870,N,12224.33309,W,003.66,334.3,141015,016.4,E,A*24
$GPGGA,163920.4,4741.38870,N,12224.33309,W,1,03,6.6,-13.5,M,-18.2,M,,*75
$GPVTG,334.3,T,317.8,M,003.66,N,0006.78,K,A*13
$HCHDG,319.6,0.0,E,,*24
$IIVHW,,,,,03.5,N,,*1F
$YXXDR,A,6.4,D,PTCH,A,6.4,D,ROLL*5D
$GPRMC,163920.5,A,4741.38883,N,12224.33320,W,003.67,332.3,141015,016.4,E,A*25
$GPGGA,163920.5,4741.38883,N,12224.33320,W,1,03,6.6,-13.5,M,-18.2,M,,*73
$GPVTG,332.3,T,315.8,M,003.67,N,0006.80,K,A*11
$IIVLW,07333,N,000.2,N*55
$GPRMC,163920.6,A,4741.38887,N,12224.33324,W,003.68,332.4,141015,016.4,E,A*2E
$GPGGA,163920.6,4741.38887,N,12224.33324,W,1,03,6.6,-13.5,M,-18.2,M,,*70
$HCHDG,319.6,0.0,E,,*24
$GPVTG,332.4,T,315.9,M,003.68,N,0006.82,K,A*1A
$YXXDR,A,6.0,D,PTCH,A,6.6,D,ROLL*5B
$GPRMC,163920.7,A,4741.38901,N,12224.33334,W,003.73,332.6,141015,016.4,E,A*29
$GPGGA,163920.7,4741.38901,N,12224.33334,W,1,03,6.6,-13.5,M,-18.2,M,,*7F
$HCHDG,319.6,0.0,E,,*24
$GPVTG,332.6,T,316.1,M,003.73,N,0006.90,K,A*1A
$YXXDR,A,6.0,D,PTCH,A,6.6,D,ROLL*5B
$GPRMC,163920.8,A,4741.38906,N,12224.33337,W,003.77,332.3,141015,016.4,E,A*23
$GPGGA,163920.8,4741.38906,N,12224.33337,W,1,03,6.6,-13.5,M,-18.2,M,,*74
$HCHDG,319.5,0.0,E,,*27
$GPVTG,332.3,T,315.8,M,003.77,N,0006.98,K,A*19
$YXXDR,A,5.9,D,PTCH,A,6.7,D,ROLL*50
$TIROT,-80.8,A*26
$GPRMC,163920.9,A,4741.38920,N,12224.33348,W,003.75,332.8,141015,016.4,E,A*27
$GPGGA,163920.9,4741.38920,N,12224.33348,W,1,03,6.6,-13.5,M,-18.2,M,,*79
$HCHDG,319.7,0.0,E,,*25
$GPVTG,332.8,T,316.4,M,003.75,N,0006.94,K,A*13
$YXXDR,A,5.8,D,PTCH,A,6.7,D,ROLL*51
$GPRMC,163921.0,A,4741.38929,N,12224.33355,W,003.80,331.7,141015,016.4,E,A*2C
$GPGGA,163921.0,4741.38929,N,12224.33355,W,1,03,6.6,-13.5,M,-18.2,M,,*74
$HCHDG,319.7,0.0,E,,*25
$GPVTG,331.7,T,315.2,M,003.80,N,0007.03,K,A*1F
$YXXDR,A,5.5,D,PTCH,A,6.9,D,ROLL*52
$GPGSA,A,3,12,02,06,,,,,,,,,,9.1,6.6,6.3*38
$GPGSV,1,1,04,12,85,207,45,02,76,120,47,25,48,305,39,06,45,056,42*71
$IIVWR,031,R,12.8,N,,,,*68
$GPRMC,163921.1,A,4741.38939,N,12224.33361,W,003.76,331.9,141015,016.4,E,A*2C
$GPGGA,163921.1,4741.38939,N,12224.33361,W,1,03,6.6,-13.4,M,-18.2,M,,*72
$HCHDG,319.7,0.0,E,,*25
$GPVTG,331.9,T,315.4,M,003.76,N,0006.96,K,A*13
$YXXDR,A,5.3,D,PTCH,A,6.9,D,ROLL*54
$GPRMC,163921.2,A,4741.38948,N,12224.33368,W,003.76,333.2,141015,016.4,E,A*29
$GPGGA,163921.2,4741.38948,N,12224.33368,W,1,03,6.6,-13.4,M,-18.2,M,,*7E
$HCHDG,319.6,0.0,E,,*24
$GPVTG,333.2,T,316.8,M,003.76,N,0006.96,K,A*15
$YXXDR,A,5.4,D,PTCH,A,7.0,D,ROLL*5B
$IIMTW,+11.0,C*38
$IIMWV,031,R,12.8,N,A*1A
$GPRMC,163921.3,A,4741.38953,N,12224.33371,W,003.77,333.5,141015,016.4,E,A*2C
$HCHDG,319.8,0.0,E,,*2A
$GPGGA,163921.3,4741.38953,N,12224.33371,W,1,03,6.6,-13.4,M,-18.2,M,,*7D
$GPVTG,333.5,T,317.1,M,003.77,N,0006.98,K,A*15
$YXXDR,A,5.1,D,PTCH,A,6.9,D,ROLL*56
$IIMWV,040,T,09.8,N,A*10
$GPRMC,163921.4,A,4741.38967,N,12224.33381,W,003.71,332.3,141015,016.4,E,A*22
$HCHDG,319.6,0.0,E,,*24
$GPGGA,163921.4,4741.38967,N,12224.33381,W,1,03,6.6,-13.4,M,-18.2,M,,*72
$GPVTG,332.3,T,315.8,M,003.71,N,0006.86,K,A*10
$YXXDR,A,5.5,D,PTCH,A,7.0,D,ROLL*5A
$GPRMC,163921.5,A,4741.38975,N,12224.33386,W,003.04,332.9,141015,016.4,E,A*2F
$GPGGA,163921.5,4741.38975,N,12224.33386,W,1,03,6.6,-13.4,M,-18.2,M,,*77
$HCHDG,319.6,0.0,E,,*24
$GPVTG,332.9,T,316.4,M,003.04,N,0005.63,K,A*1F
$IIVHW,,,,,03.6,N,,*1C
$GPRMC,163921.6,A,4741.38984,N,12224.33390,W,003.73,331.9,141015,016.4,E,A*26
$GPGGA,163921.6,4741.38984,N,12224.33390,W,1,03,6.6,-13.4,M,-18.2,M,,*7D
$GPVTG,331.9,T,315.5,M,003.73,N,0006.90,K,A*11
$IIVLW,07333,N,000.2,N*55
$YXXDR,A,5.5,D,PTCH,A,7.0,D,ROLL*5A
$HCHDG,319.6,0.0,E,,*24
$YXXDR,A,5.8,D,PTCH,A,6.9,D,ROLL*5F
$HCHDG,319.6,0.0,E,,*24
$GPRMC,163921.7,A,4741.38993,N,12224.33397,W,003.64,332.4,141015,016.4,E,A*2E
$GPGGA,163921.7,4741.38993,N,12224.33397,W,1,03,6.6,-13.4,M,-18.2,M,,*7D
$GPVTG,332.4,T,315.9,M,003.64,N,0006.75,K,A*1E
$YXXDR,A,6.1,D,PTCH,A,7.0,D,ROLL*5D
$GPRMC,163921.8,A,4741.38997,N,12224.33400,W,003.58,333.2,141015,016.4,E,A*24
$HCHDG,319.6,0.0,E,,*24
$GPGGA,163921.8,4741.38997,N,12224.33400,W,1,03,6.6,-13.4,M,-18.2,M,,*7F
$GPVTG,333.2,T,316.8,M,003.58,N,0006.64,K,A*14
$YXXDR,A,6.1,D,PTCH,A,7.0,D,ROLL*5D
$TIROT,-37.3,A*21
$GPRMC,163921.9,A,4741.39010,N,12224.33409,W,003.59,332.8,141015,016.4,E,A*21
$HCHDG,319.7,0.0,E,,*25
$GPGGA,163921.9,4741.39010,N,12224.33409,W,1,03,6.6,-13.4,M,-18.2,M,,*70
$GPVTG,332.8,T,316.4,M,003.59,N,0006.66,K,A*10
$YXXDR,A,6.1,D,PTCH,A,6.9,D,ROLL*55
$GPRMC,163922.0,A,4741.39014,N,12224.33413,W,003.59,333.3,141015,016.4,E,A*2E
$HCHDG,319.7,0.0,E,,*25
$GPGGA,163922.0,4741.39014,N,12224.33413,W,1,03,6.6,-13.4,M,-18.2,M,,*75
$GPVTG,333.3,T,316.8,M,003.59,N,0006.65,K,A*15
$YXXDR,A,6.1,D,PTCH,A,6.8,D,ROLL*54
$GPGSA,A,3,12,02,06,,,,,,,,,,9.1,6.6,6.3*38
$IIVWR,031,R,12.8,N,,,,*68
$GPGSV,1,1,04,12,85,207,45,02,76,120,47,25,48,305,39,06,45,056,42*71
$GPRMC,163922.1,A,4741.39021,N,12224.33417,W,003.59,332.3,141015,016.4,E,A*2C
$HCHDG,319.7,0.0,E,,*25
$GPGGA,163922.1,4741.39021,N,12224.33417,W,1,03,6.6,-13.4,M,-18.2,M,,*76
$GPVTG,332.3,T,315.8,M,003.59,N,0006.65,K,A*17
$YXXDR,A,6.2,D,PTCH,A,6.8,D,ROLL*57
$GPRMC,163922.2,A,4741.39042,N,12224.33432,W,003.64,332.5,141015,016.4,E,A*25
$HCHDG,319.7,0.0,E,,*25
$GPGGA,163922.2,4741.39042,N,12224.33432,W,1,03,6.6,-13.4,M,-18.2,M,,*77
$YXXDR,A,6.2,D,PTCH,A,6.8,D,ROLL*57
$IIMTW,+11.0,C*38
$GPVTG,332.5,T,316.0,M,003.64,N,0006.74,K,A*14
$IIMWV,031,R,12.8,N,A*1A
$GPRMC,163922.3,A,4741.39052,N,12224.33440,W,003.74,332.3,141015,016.4,E,A*27
$HCHDG,319.9,0.0,E,,*2B
$GPGGA,163922.3,4741.39052,N,12224.33440,W,1,03,6.6,-13.4,M,-18.2,M,,*72
$YXXDR,A,6.4,D,PTCH,A,6.7,D,ROLL*5E
$GPVTG,332.3,T,315.8,M,003.74,N,0006.93,K,A*11
$IIMWV,042,T,09.9,N,A*13
$GPRMC,163922.4,A,4741.39061,N,12224.33448,W,003.63,332.3,141015,016.4,E,A*2E
$HCHDG,319.9,0.0,E,,*2B
$GPGGA,163922.4,4741.39061,N,12224.33448,W,1,03,6.6,-13.4,M,-18.2,M,,*7D
$GPVTG,332.3,T,315.8,M,003.63,N,0006.72,K,A*18
$YXXDR,A,6.0,D,PTCH,A,6.6,D,ROLL*5B
$GPRMC,163922.5,A,4741.39070,N,12224.33455,W,003.71,331.4,141015,016.4,E,A*24
$HCHDG,320.1,0.0,E,,*29
$IIVHW,,,,,03.6,N,,*1C
$GPGGA,163922.5,4741.39070,N,12224.33455,W,1,03,6.6,-13.4,M,-18.2,M,,*70
$YXXDR,A,5.9,D,PTCH,A,6.6,D,ROLL*51
$GPVTG,331.4,T,315.0,M,003.71,N,0006.87,K,A*1D
$IIVLW,07333,N,000.2,N*55
$GPRMC,163922.6,A,4741.39080,N,12224.33463,W,003.73,331.1,141015,016.4,E,A*2A
$HCHDG,320.0,0.0,E,,*28
$GPGGA,163922.6,4741.39080,N,12224.33463,W,1,03,6.6,-13.4,M,-18.2,M,,*79
$YXXDR,A,5.8,D,PTCH,A,6.5,D,ROLL*53
$GPVTG,331.1,T,314.6,M,003.73,N,0006.91,K,A*1A
$GPRMC,163922.7,A,4741.39089,N,12224.33471,W,003.78,330.7,141015,016.4,E,A*2D
$HCHDG,320.1,0.0,E,,*29
$GPGGA,163922.7,4741.39089,N,12224.33471,W,1,03,6.6,-13.4,M,-18.2,M,,*72
$YXXDR,A,5.6,D,PTCH,A,6.5,D,ROLL*5D
$GPVTG,330.7,T,314.3,M,003.78,N,0007.00,K,A*1A
$GPRMC,163922.8,A,4741.39098,N,12224.33479,W,003.76,330.9,141015,016.4,E,A*2A
$HCHDG,319.9,0.0,E,,*2B
$GPGGA,163922.8,4741.39098,N,12224.33479,W,1,03,6.6,-13.4,M,-18.2,M,,*75
$YXXDR,A,5.6,D,PTCH,A,6.2,D,ROLL*5A
$TIROT,-14.0,A*23
$GPVTG,330.9,T,314.4,M,003.76,N,0006.97,K,A*12
$GPRMC,163922.9,A,4741.39103,N,12224.33482,W,003.76,330.9,141015,016.4,E,A*2C
$HCHDG,319.8,0.0,E,,*2A
$GPGGA,163922.9,4741.39103,N,12224.33482,W,1,03,6.6,-13.4,M,-18.2,M,,*73
$YXXDR,A,5.6,D,PTCH,A,6.0,D,ROLL*58
$GPVTG,330.9,T,314.4,M,003.76,N,0006.95,K,A*10
$GPRMC,163923.0,A,4741.39116,N,12224.33493,W,003.71,331.4,141015,016.4,E,A*2B
$HCHDG,319.9,0.0,E,,*2B
$GPGGA,163923.0,4741.39116,N,12224.33493,W,1,03,6.6,-13.4,M,-18.2,M,,*7F
$GPVTG,331.4,T,315.0,M,003.71,N,0006.86,K,A*1C
$YXXDR,A,5.9,D,PTCH,A,5.9,D,ROLL*5D
$GPGSA,A,3,12,02,06,,,,,,,,,,9.1,6.6,6.3*38
$IIVWR,031,R,13.0,N,,,,*61
$GPGSV,1,1,04,12,85,207,45,02,76,120,47,25,48,305,39,06,45,056,42*71
$GPRMC,163923.1,A,4741.39127,N,12224.33505,W,003.71,331.5,141015,016.4,E,A*27
$HCHDG,319.8,0.0,E,,*2A
$GPGGA,163923.1,4741.39127,N,12224.33505,W,1,03,6.6,-13.4,M,-18.2,M,,*72
$GPVTG,331.5,T,315.0,M,003.71,N,0006.87,K,A*1C
$YXXDR,A,5.9,D,PTCH,A,5.9,D,ROLL*5D
$GPRMC,163923.2,A,4741.39135,N,12224.33511,W,003.63,331.9,141015,016.4,E,A*2D
$HCHDG,319.9,0.0,E,,*2B
$GPGGA,163923.2,4741.39135,N,12224.33511,W,1,03,6.6,-13.4,M,-18.2,M,,*77
$IIMTW,+11.0,C*38
$YXXDR,A,5.8,D,PTCH,A,5.8,D,ROLL*5D
$GPVTG,331.9,T,315.5,M,003.63,N,0006.72,K,A*1C
$IIMWV,031,R,13.0,N,A*13
$GPRMC,163923.3,A,4741.39144,N,12224.33517,W,003.64,332.6,141015,016.4,E,A*27
$HCHDG,319.7,0.0,E,,*25
$GPGGA,163923.3,4741.39144,N,12224.33517,W,1,03,6.6,-13.4,M,-18.2,M,,*76
$YXXDR,A,5.7,D,PTCH,A,5.7,D,ROLL*5D
$GPVTG,332.6,T,316.2,M,003.64,N,0006.74,K,A*15
$IIMWV,042,T,09.8,N,A*12
$GPRMC,163923.4,A,4741.39149,N,12224.33521,W,003.64,333.4,141015,016.4,E,A*2B
$HCHDG,319.6,0.0,E,,*24
$GPGGA,163923.4,4741.39149,N,12224.33521,W,1,03,6.6,-13.4,M,-18.2,M,,*79
$YXXDR,A,5.7,D,PTCH,A,5.7,D,ROLL*5D
$GPVTG,333.4,T,316.9,M,003.64,N,0006.74,K,A*1D
$GPRMC,163923.5,A,4741.39153,N,12224.33523,W,003.62,334.5,141015,016.4,E,A*23
$HCHDG,319.7,0.0,E,,*25
$IIVHW,,,,,03.6,N,,*1C
$GPGGA,163923.5,4741.39153,N,12224.33523,W,1,03,6.6,-13.4,M,-18.2,M,,*71
$YXXDR,A,6.0,D,PTCH,A,5.9,D,ROLL*57
$GPVTG,334.5,T,318.1,M,003.62,N,0006.70,K,A*1F
$IIVLW,07333,N,000.2,N*55
$GPRMC,163923.6,A,4741.39172,N,12224.33535,W,003.65,335.0,141015,016.4,E,A*27
$HCHDG,319.8,0.0,E,,*2A
$GPGGA,163923.6,4741.39172,N,12224.33535,W,1,03,6.6,-13.4,M,-18.2,M,,*76
$YXXDR,A,5.8,D,PTCH,A,5.8,D,ROLL*5D
$GPVTG,335.0,T,318.6,M,003.65,N,0006.76,K,A*1D
$GPRMC,163923.7,A,4741.39177,N,12224.33539,W,003.69,335.4,141015,016.4,E,A*27
$HCHDG,319.9,0.0,E,,*2B
$GPGGA,163923.7,4741.39177,N,12224.33539,W,1,03,6.6,-13.4,M,-18.2,M,,*7E
$YXXDR,A,6.1,D,PTCH,A,6.1,D,ROLL*5D
$GPVTG,335.4,T,319.0,M,003.69,N,0006.84,K,A*1F
$GPRMC,163923.8,A,4741.39190,N,12224.33549,W,003.63,334.8,141015,016.4,E,A*21
$HCHDG,319.9,0.0,E,,*2B
$YXXDR,A,6.3,D,PTCH,A,6.3,D,ROLL*5D
$GPGGA,163923.8,4741.39190,N,12224.33549,W,1,03,6.6,-13.4,M,-18.2,M,,*7F
$TIROT,-31.1,A*25
$GPVTG,334.8,T,318.4,M,003.63,N,0006.73,K,A*15
$GPRMC,163923.9,A,4741.39199,N,12224.33555,W,003.64,334.9,141015,016.4,E,A*22
$HCHDG,320.3,0.0,E,,*2B
$GPGGA,163923.9,4741.39199,N,12224.33555,W,1,03,6.6,-13.4,M,-18.2,M,,*7A
$YXXDR,A,6.5,D,PTCH,A,6.3,D,ROLL*5B
$GPVTG,334.9,T,318.5,M,003.64,N,0006.75,K,A*14
$GPRMC,163924.0,A,4741.39204,N,12224.33559,W,003.66,334.5,141015,016.4,E,A*29
$HCHDG,320.2,0.0,E,,*2A
$GPGGA,163924.0,4741.39204,N,12224.33559,W,1,03,6.6,-13.4,M,-18.2,M,,*7F
$YXXDR,A,6.8,D,PTCH,A,6.6,D,ROLL*53
$GPVTG,334.5,T,318.0,M,003.66,N,0006.77,K,A*1D
$IIVWR,030,R,13.6,N,,,,*66
$GPGSA,A,3,12,02,06,,,,,,,,,,9.1,6.6,6.3*38
$GPGSV,1,1,04,12,85,207,45,02,76,120,47,25,48,305,40,06,45,056,42*7F
$GPRMC,163924.1,A,4741.39209,N,12224.33562,W,003.67,333.8,141015,016.4,E,A*26
$HCHDG,320.1,0.0,E,,*29
$GPGGA,163924.1,4741.39209,N,12224.33562,W,1,03,6.6,-13.4,M,-18.2,M,,*7B
$YXXDR,A,6.8,D,PTCH,A,6.6,D,ROLL*53
$GPVTG,333.8,T,317.3,M,003.67,N,0006.79,K,A*14
$GPRMC,163924.2,A,4741.39231,N,12224.33578,W,004.33,332.5,141015,016.4,E,A*2F
$HCHDG,320.5,0.0,E,,*2D
$GPGGA,163924.2,4741.39231,N,12224.33578,W,1,03,6.6,-13.4,M,-18.2,M,,*78
$IIMTW,+11.0,C*38
$YXXDR,A,6.4,D,PTCH,A,6.7,D,ROLL*5E
$GPVTG,332.5,T,316.0,M,004.33,N,0008.01,K,A*1D
$IIMWV,030,R,13.6,N,A*14
$GPRMC,163924.3,A,4741.39240,N,12224.33586,W,003.35,332.3,141015,016.4,E,A*2E
$HCHDG,320.4,0.0,E,,*2C
$GPGGA,163924.3,4741.39240,N,12224.33586,W,1,03,6.6,-13.4,M,-18.2,M,,*7E
$IIMWV,042,T,10.0,N,A*12
$YXXDR,A,6.5,D,PTCH,A,6.9,D,ROLL*51
$GPVTG,332.3,T,315.9,M,003.35,N,0006.20,K,A*1D
$GPRMC,163924.4,A,4741.39249,N,12224.33592,W,003.87,331.7,141015,016.4,E,A*2B
$HCHDG,320.3,0.0,E,,*2B
$GPGGA,163924.4,4741.39249,N,12224.33592,W,1,03,6.6,-13.4,M,-18.2,M,,*75
$YXXDR,A,6.3,D,PTCH,A,7.0,D,ROLL*5F
$GPVTG,331.7,T,315.3,M,003.87,N,0007.16,K,A*1D
$GPRMC,163924.5,A,4741.39254,N,12224.33596,W,003.89,331.9,141015,016.4,E,A*22
$IIVHW,,,,,03.6,N,,*1C
$HCHDG,320.2,0.0,E,,*2A
$YXXDR,A,6.1,D,PTCH,A,7.0,D,ROLL*5D
$GPGGA,163924.5,4741.39254,N,12224.33596,W,1,03,6.6,-13.4,M,-18.2,M,,*7C
$GPVTG,331.9,T,315.4,M,003.89,N,0007.21,K,A*1E
$IIVLW,07333,N,000.2,N*55
$GPRMC,163924.6,A,4741.39268,N,12224.33607,W,003.86,331.5,141015,016.4,E,A*26
$HCHDG,320.0,0.0,E,,*28
$GPGGA,163924.6,4741.39268,N,12224.33607,W,1,03,6.6,-13.4,M,-18.2,M,,*7B
$YXXDR,A,6.1,D,PTCH,A,6.9,D,ROLL*55
$GPVTG,331.5,T,315.1,M,003.86,N,0007.16,K,A*1C
$GPRMC,163924.7,A,4741.39278,N,12224.33614,W,003.88,332.0,141015,016.4,E,A*2C
$GPGGA,163924.7,4741.39278,N,12224.33614,W,1,03,6.6,-13.4,M,-18.2,M,,*79
$HCHDG,319.8,0.0,E,,*2A
$YXXDR,A,5.7,D,PTCH,A,6.7,D,ROLL*5E
$GPVTG,332.0,T,315.5,M,003.88,N,0007.18,K,A*1E
$HCHDG,319.8,0.0,E,,*2A
$GPRMC,163924.8,A,4741.39288,N,12224.33621,W,003.93,332.2,141015,016.4,E,A*22
$YXXDR,A,5.7,D,PTCH,A,6.6,D,ROLL*5F
$GPGGA,163924.8,4741.39288,N,12224.33621,W,1,03,6.6,-13.4,M,-18.2,M,,*7F
$GPVTG,332.2,T,315.8,M,003.93,N,0007.29,K,A*19
$TIROT,-40.7,A*25
$HCHDG,319.7,0.0,E,,*25
$GPRMC,163924.9,A,4741.39298,N,12224.33628,W,003.91,333.2,141015,016.4,E,A*28
$YXXDR,A,5.3,D,PTCH,A,6.6,D,ROLL*5B
$GPGGA,163924.9,4741.39298,N,12224.33628,W,1,03,6.6,-13.4,M,-18.2,M,,*76
$GPVTG,333.2,T,316.7,M,003.91,N,0007.24,K,A*1B
$HCHDG,319.7,0.0,E,,*25
$GPRMC,163925.0,A,4741.39307,N,12224.33636,W,003.99,332.8,141015,016.4,E,A*2B
$YXXDR,A,5.2,D,PTCH,A,6.6,D,ROLL*5A
$GPGGA,163925.0,4741.39307,N,12224.33636,W,1,03,6.6,-13.4,M,-18.2,M,,*76
$GPVTG,332.8,T,316.3,M,003.99,N,0007.39,K,A*10
$IIVWR,029,R,13.7,N,,,,*6F
$GPGSA,A,3,12,02,06,,,,,,,,,,9.1,6.6,6.3*38
$GPGSV,1,1,04,12,85,207,44,02,76,120,47,25,48,305,39,06,45,056,42*70
$HCHDG,319.6,0.0,E,,*24
$GPRMC,163925.1,A,4741.39317,N,12224.33655,W,003.64,332.5,141015,016.4,E,A*21
$YXXDR,A,5.1,D,PTCH,A,6.8,D,ROLL*57
$GPGGA,163925.1,4741.39317,N,12224.33655,W,1,04,1.8,-13.5,M,-18.2,M,,*7C
$GPVTG,332.5,T,316.1,M,003.64,N,0006.75,K,A*14
$HCHDG,319.5,0.0,E,,*27
$GPRMC,163925.2,A,4741.39326,N,12224.33661,W,003.69,333.3,141015,016.4,E,A*2D
$YXXDR,A,5.2,D,PTCH,A,6.9,D,ROLL*55
$IIMTW,+11.0,C*38
$GPGGA,163925.2,4741.39326,N,12224.33661,W,1,04,1.8,-13.5,M,-18.2,M,,*7A
$GPVTG,333.3,T,316.9,M,003.69,N,0006.84,K,A*18
$IIMWV,029,R,13.7,N,A*1D
$HCHDG,319.6,0.0,E,,*24
$GPRMC,163925.3,A,4741.39335,N,12224.33667,W,003.64,333.8,141015,016.4,E,A*2E
$YXXDR,A,5.2,D,PTCH,A,6.8,D,ROLL*54
$IIMWV,040,T,10.6,N,A*16
$GPGGA,163925.3,4741.39335,N,12224.33667,W,1,04,1.8,-13.5,M,-18.2,M,,*7F
$GPVTG,333.8,T,317.4,M,003.64,N,0006.74,K,A*1D
$HCHDG,319.6,0.0,E,,*24
$GPRMC,163925.4,A,4741.39344,N,12224.33673,W,003.63,334.2,141015,016.4,E,A*20
$YXXDR,A,5.1,D,PTCH,A,6.8,D,ROLL*57
$GPGGA,163925.4,4741.39344,N,12224.33673,W,1,04,1.8,-13.5,M,-18.2,M,,*7B
$GPVTG,334.2,T,317.8,M,003.63,N,0006.73,K,A*1C
$HCHDG,319.6,0.0,E,,*24
$IIVHW,,,,,03.6,N,,*1C
$GPRMC,163925.5,A,4741.39353,N,12224.33680,W,003.59,333.5,141015,016.4,E,A*22
$GPGGA,163925.5,4741.39353,N,12224.33680,W,1,04,1.8,-13.5,M,-18.2,M,,*70
$YXXDR,A,5.1,D,PTCH,A,6.8,D,ROLL*57
$GPVTG,333.5,T,317.1,M,003.59,N,0006.65,K,A*1B
$IIVLW,07333,N,000.2,N*55
$HCHDG,319.6,0.0,E,,*24
$GPRMC,163925.6,A,4741.39362,N,12224.33686,W,003.59,334.2,141015,016.4,E,A*25
$YXXDR,A,5.2,D,PTCH,A,6.6,D,ROLL*5A
$GPGGA,163925.6,4741.39362,N,12224.33686,W,1,04,1.8,-13.5,M,-18.2,M,,*77
$GPVTG,334.2,T,317.8,M,003.59,N,0006.65,K,A*12
$HCHDG,319.6,0.0,E,,*24
$GPRMC,163925.7,A,4741.39370,N,12224.33692,W,003.55,333.3,141015,016.4,E,A*28
$YXXDR,A,5.7,D,PTCH,A,6.7,D,ROLL*5E
$GPGGA,163925.7,4741.39370,N,12224.33692,W,1,04,1.8,-13.5,M,-18.2,M,,*70
$GPVTG,333.3,T,316.9,M,003.55,N,0006.57,K,A*19
$HCHDG,319.9,0.0,E,,*2B
$GPRMC,163925.8,A,4741.39375,N,12224.33696,W,003.52,334.1,141015,016.4,E,A*24
$YXXDR,A,5.8,D,PTCH,A,6.8,D,ROLL*5E
$TIROT,-34.3,A*22
$GPGGA,163925.8,4741.39375,N,12224.33696,W,1,04,1.8,-13.5,M,-18.2,M,,*7E
$GPVTG,334.1,T,317.6,M,003.52,N,0006.51,K,A*13
$HCHDG,320.0,0.0,E,,*28
$GPRMC,163925.9,A,4741.39388,N,12224.33706,W,003.57,334.0,141015,016.4,E,A*2B
$YXXDR,A,6.1,D,PTCH,A,7.0,D,ROLL*5D
$GPGGA,163925.9,4741.39388,N,12224.33706,W,1,04,1.8,-13.5,M,-18.2,M,,*75
$GPVTG,334.0,T,317.6,M,003.57,N,0006.61,K,A*14
$HCHDG,320.0,0.0,E,,*28
$GPRMC,163926.0,A,4741.39397,N,12224.33712,W,003.53,334.2,141015,016.4,E,A*2C
$GPGGA,163926.0,4741.39397,N,12224.33712,W,1,04,1.8,-13.5,M,-18.2,M,,*74
$YXXDR,A,6.4,D,PTCH,A,7.0,D,ROLL*58
$IIVWR,028,R,13.6,N,,,,*6F
$GPVTG,334.2,T,317.7,M,003.53,N,0006.54,K,A*15
$GPGSA,A,3,12,02,25,06,,,,,,,,,2.7,1.8,2.1*3D
$GPGSV,2,1,05,12,85,207,45,02,76,120,47,25,48,305,40,06,45,056,42*7D
$GPGSV,2,2,05,24,21,209,33*42
$HCHDG,320.2,0.0,E,,*2A
$GPRMC,163926.1,A,4741.39348,N,12224.33521,W,003.97,333.7,141015,016.4,E,A*27
$YXXDR,A,6.4,D,PTCH,A,7.0,D,ROLL*58
$GPGGA,163926.1,4741.39348,N,12224.33521,W,1,04,1.8,-11.3,M,-18.2,M,,*71
$GPVTG,333.7,T,317.2,M,003.97,N,0007.36,K,A*1F
$HCHDG,320.3,0.0,E,,*2B
$IIMTW,+11.0,C*38
$GPRMC,163926.2,A,4741.39357,N,12224.33528,W,003.45,333.6,141015,016.4,E,A*2D
$YXXDR,A,6.6,D,PTCH,A,7.0,D,ROLL*5A
$GPGGA,163926.2,4741.39357,N,12224.33528,W,1,04,1.8,-11.3,M,-18.2,M,,*75
$GPVTG,333.6,T,317.1,M,003.45,N,0006.39,K,A*1C
$IIMWV,028,R,13.6,N,A*1D
$HCHDG,320.2,0.0,E,,*2A
$IIMWV,038,T,10.4,N,A*1B
$GPRMC,163926.3,A,4741.39366,N,12224.33535,W,004.03,333.4,141015,016.4,E,A*25
$YXXDR,A,6.3,D,PTCH,A,6.8,D,ROLL*56
$GPGGA,163926.3,4741.39366,N,12224.33535,W,1,04,1.8,-11.3,M,-18.2,M,,*7A
$GPVTG,333.4,T,316.9,M,004.03,N,0007.47,K,A*1A
$HCHDG,320.2,0.0,E,,*2A
$YXXDR,A,6.1,D,PTCH,A,6.9,D,ROLL*55
$GPRMC,163926.4,A,4741.39376,N,12224.33542,W,003.95,334.1,141015,016.4,E,A*29
$GPGGA,163926.4,4741.39376,N,12224.33542,W,1,04,1.8,-11.4,M,-18.2,M,,*7B
$GPVTG,334.1,T,317.7,M,003.95,N,0007.32,K,A*1D
$HCHDG,320.2,0.0,E,,*2A
$IIVHW,,,,,03.6,N,,*1C
$YXXDR,A,6.0,D,PTCH,A,6.8,D,ROLL*55
$GPRMC,163926.5,A,4741.39386,N,12224.33550,W,004.34,334.4,141015,016.4,E,A*2D
$GPGGA,163926.5,4741.39386,N,12224.33550,W,1,04,1.8,-11.4,M,-18.2,M,,*76
$GPVTG,334.4,T,318.0,M,004.34,N,0008.03,K,A*11
$IIVLW,07333,N,000.2,N*55
$HCHDG,320.2,0.0,E,,*2A
$YXXDR,A,5.8,D,PTCH,A,6.8,D,ROLL*5E
$GPRMC,163926.6,A,4741.39396,N,12224.33558,W,004.27,333.8,141015,016.4,E,A*2E
$GPGGA,163926.6,4741.39396,N,12224.33558,W,1,04,1.8,-11.4,M,-18.2,M,,*7C
$GPVTG,333.8,T,317.3,M,004.27,N,0007.90,K,A*11
$HCHDG,320.2,0.0,E,,*2A
$YXXDR,A,5.7,D,PTCH,A,6.7,D,ROLL*5E
$GPRMC,163926.7,A,4741.39406,N,12224.33565,W,004.25,333.7,141015,016.4,E,A*22
$GPGGA,163926.7,4741.39406,N,12224.33565,W,1,04,1.8,-11.4,M,-18.2,M,,*7D
$GPVTG,333.7,T,317.2,M,004.25,N,0007.87,K,A*1B
$HCHDG,319.8,0.0,E,,*2A
$YXXDR,A,5.7,D,PTCH,A,6.7,D,ROLL*5E
$TIROT,-58.1,A*2A
$GPRMC,163926.8,A,4741.39416,N,12224.33572,W,004.15,333.7,141015,016.4,E,A*29
$GPGGA,163926.8,4741.39416,N,12224.33572,W,1,04,1.8,-11.4,M,-18.2,M,,*75
$GPVTG,333.7,T,317.2,M,004.15,N,0007.69,K,A*18
$HCHDG,319.7,0.0,E,,*25
$YXXDR,A,5.7,D,PTCH,A,6.7,D,ROLL*5E
$GPRMC,163926.9,A,4741.39427,N,12224.33579,W,004.14,333.8,141015,016.4,E,A*2F
$GPGGA,163926.9,4741.39427,N,12224.33579,W,1,04,1.8,-11.4,M,-18.2,M,,*7D
$GPVTG,333.8,T,317.4,M,004.14,N,0007.68,K,A*11
$HCHDG,319.5,0.0,E,,*27
$YXXDR,A,5.9,D,PTCH,A,6.6,D,ROLL*51
$GPRMC,163927.0,A,4741.39436,N,12224.33586,W,004.06,333.8,141015,016.4,E,A*24
$IIVWR,027,R,13.1,N,,,,*67
$GPGGA,163927.0,4741.39436,N,12224.33586,W,1,04,1.8,-11.4,M,-18.2,M,,*75
$GPVTG,333.8,T,317.4,M,004.06,N,0007.53,K,A*1A
$GPGSA,A,3,12,02,25,06,,,,,,,,,2.7,1.8,2.1*3D
$GPGSV,2,1,05,12,85,207,45,02,76,120,47,25,48,305,39,06,45,056,42*73
$GPGSV,2,2,05,24,21,209,33*42
$HCHDG,319.5,0.0,E,,*27
$YXXDR,A,5.8,D,PTCH,A,6.7,D,ROLL*51
$GPRMC,163927.1,A,4741.39429,N,12224.33546,W,003.99,334.0,141015,016.4,E,A*29
$GPGGA,163927.1,4741.39429,N,12224.33546,W,1,04,1.8,-10.4,M,-18.2,M,,*77
$GPVTG,334.0,T,317.6,M,003.99,N,0007.39,K,A*1A
$HCHDG,319.7,0.0,E,,*25
$IIMTW,+11.0,C*38
$IIMWV,027,R,13.1,N,A*15
$IIMWV,038,T,10.3,N,A*1C
$YXXDR,A,5.8,D,PTCH,A,6.9,D,ROLL*5F
$HCHDG,319.6,0.0,E,,*24
$YXXDR,A,5.8,D,PTCH,A,6.9,D,ROLL*5F
$HCHDG,319.5,0.0,E,,*27
$GPRMC,163927.2,A,4741.39429,N,12224.33535,W,003.95,333.7,141015,016.4,E,A*22
$GPGGA,163927.2,4741.39429,N,12224.33535,W,1,04,1.8,-10.4,M,-18.2,M,,*70
$GPVTG,333.7,T,317.3,M,003.95,N,0007.32,K,A*18
$GPRMC,163927.3,A,4741.39439,N,12224.33520,W,003.89,333.4,141015,016.4,E,A*28
$GPGGA,163927.3,4741.39439,N,12224.33520,W,1,04,1.8,-10.4,M,-18.2,M,,*74
$GPVTG,333.4,T,316.9,M,003.89,N,0007.20,K,A*1E
$YXXDR,A,5.8,D,PTCH,A,7.0,D,ROLL*57
$GPRMC,163927.4,A,4741.39444,N,12224.33523,W,003.84,332.5,141015,016.4,E,A*2B
$GPGGA,163927.4,4741.39444,N,12224.33523,W,1,04,1.8,-10.4,M,-18.2,M,,*7A
$GPVTG,332.5,T,316.1,M,003.84,N,0007.11,K,A*19
$HCHDG,319.8,0.0,E,,*2A
$IIVHW,,,,,03.7,N,,*1D
$YXXDR,A,5.9,D,PTCH,A,7.2,D,ROLL*54
$GPRMC,163927.5,A,4741.39457,N,12224.33534,W,003.84,333.1,141015,016.4,E,A*2B
$GPGGA,163927.5,4741.39457,N,12224.33534,W,1,04,1.8,-10.4,M,-18.2,M,,*7F
$GPVTG,333.1,T,316.7,M,003.84,N,0007.11,K,A*1A
$IIVLW,07333,N,000.2,N*55
$HCHDG,319.6,0.0,E,,*24
$GPRMC,163927.6,A,4741.39467,N,12224.33540,W,003.38,333.3,141015,016.4,E,A*2D
$GPGGA,163927.6,4741.39467,N,12224.33540,W,1,04,1.8,-10.4,M,-18.2,M,,*7C
$GPVTG,333.3,T,316.8,M,003.38,N,0006.25,K,A*16
$YXXDR,A,5.6,D,PTCH,A,7.1,D,ROLL*58
$GPRMC,163927.7,A,4741.39476,N,12224.33545,W,003.42,334.7,141015,016.4,E,A*27
$HCHDG,319.6,0.0,E,,*24
$GPGGA,163927.7,4741.39476,N,12224.33545,W,1,04,1.8,-10.4,M,-18.2,M,,*78
$GPVTG,334.7,T,318.2,M,003.42,N,0006.34,K,A*1C
$YXXDR,A,5.6,D,PTCH,A,7.1,D,ROLL*58
$GPRMC,163927.8,A,4741.39485,N,12224.33551,W,003.50,334.1,141015,016.4,E,A*24
$HCHDG,319.6,0.0,E,,*24
$GPGGA,163927.8,4741.39485,N,12224.33551,W,1,04,1.8,-10.4,M,-18.2,M,,*7E
$GPVTG,334.1,T,317.7,M,003.50,N,0006.48,K,A*18
$YXXDR,A,5.8,D,PTCH,A,7.1,D,ROLL*56
$TIROT,23.7,A*0D
$GPRMC,163927.9,A,4741.39489,N,12224.33554,W,003.56,334.4,141015,016.4,E,A*2F
$HCHDG,319.4,0.0,E,,*26
$GPGGA,163927.9,4741.39489,N,12224.33554,W,1,04,1.8,-10.4,M,-18.2,M,,*76
$GPVTG,334.4,T,318.0,M,003.56,N,0006.59,K,A*13
$YXXDR,A,5.6,D,PTCH,A,7.1,D,ROLL*58
$GPRMC,163928.0,A,4741.39494,N,12224.33558,W,003.59,334.2,141015,016.4,E,A*20
$HCHDG,319.4,0.0,E,,*26
$GPGGA,163928.0,4741.39494,N,12224.33558,W,1,04,1.8,-10.3,M,-18.2,M,,*77
$GPVTG,334.2,T,317.8,M,003.59,N,0006.64,K,A*13
$YXXDR,A,6.0,D,PTCH,A,7.1,D,ROLL*5D
$GPGSA,A,3,12,02,25,06,,,,,,,,,2.7,1.8,2.1*3D
$GPGSV,2,1,05,12,85,207,45,02,76,120,47,25,48,305,39,06,45,056,42*73
$IIVWR,026,R,13.3,N,,,,*64
$GPGSV,2,2,05,24,21,209,32*43
$GPRMC,163928.1,A,4741.39500,N,12224.33528,W,003.63,332.0,141015,016.4,E,A*27
$HCHDG,319.7,0.0,E,,*25
$GPGGA,163928.1,4741.39500,N,12224.33528,W,1,04,1.8,-10.0,M,-18.2,M,,*7E
$GPVTG,332.0,T,315.6,M,003.63,N,0006.73,K,A*14
$YXXDR,A,6.1,D,PTCH,A,7.1,D,ROLL*5C
$GPRMC,163928.2,A,4741.39504,N,12224.33532,W,003.66,331.8,141015,016.4,E,A*25
$HCHDG,319.5,0.0,E,,*27
$GPGGA,163928.2,4741.39504,N,12224.33532,W,1,04,1.8,-10.0,M,-18.2,M,,*72
$GPVTG,331.8,T,315.4,M,003.66,N,0006.78,K,A*13
$YXXDR,A,6.0,D,PTCH,A,7.0,D,ROLL*5C
$IIMTW,+11.0,C*38
$IIMWV,026,R,13.3,N,A*16
$GPRMC,163928.3,A,4741.39508,N,12224.33536,W,003.68,331.3,141015,016.4,E,A*29
$HCHDG,319.6,0.0,E,,*24
$GPGGA,163928.3,4741.39508,N,12224.33536,W,1,04,1.8,-10.0,M,-18.2,M,,*7B
$YXXDR,A,5.8,D,PTCH,A,6.9,D,ROLL*5F
$GPVTG,331.3,T,314.9,M,003.68,N,0006.81,K,A*1C
$IIMWV,036,T,09.8,N,A*11
$GPRMC,163928.4,A,4741.39526,N,12224.33550,W,003.66,329.1,141015,016.4,E,A*27
$HCHDG,319.9,0.0,E,,*2B
$GPGGA,163928.4,4741.39526,N,12224.33550,W,1,04,1.8,-10.0,M,-18.2,M,,*70
$YXXDR,A,6.0,D,PTCH,A,7.1,D,ROLL*5D
$GPVTG,329.1,T,312.6,M,003.66,N,0006.77,K,A*19
$GPRMC,163928.5,A,4741.39535,N,12224.33556,W,003.61,330.7,141015,016.4,E,A*2B
$HCHDG,320.0,0.0,E,,*28
$GPGGA,163928.5,4741.39535,N,12224.33556,W,1,04,1.8,-10.0,M,-18.2,M,,*75
$IIVHW,,,,,03.8,N,,*12
$GPVTG,330.7,T,314.3,M,003.61,N,0006.68,K,A*1D
$YXXDR,A,6.2,D,PTCH,A,7.1,D,ROLL*5F
$IIVLW,07333,N,000.2,N*55
$GPRMC,163928.6,A,4741.39544,N,12224.33562,W,003.61,330.7,141015,016.4,E,A*29
$HCHDG,320.0,0.0,E,,*28
$GPGGA,163928.6,4741.39544,N,12224.33562,W,1,04,1.8,-10.0,M,-18.2,M,,*77
$YXXDR,A,6.3,D,PTCH,A,7.2,D,ROLL*5D
$GPVTG,330.7,T,314.2,M,003.61,N,0006.69,K,A*1D
$GPRMC,163928.7,A,4741.39548,N,12224.33566,W,003.64,330.3,141015,016.4,E,A*21
$HCHDG,320.1,0.0,E,,*29
$GPGGA,163928.7,4741.39548,N,12224.33566,W,1,04,1.8,-10.0,M,-18.2,M,,*7E
$YXXDR,A,6.3,D,PTCH,A,7.0,D,ROLL*5F
$GPVTG,330.3,T,313.8,M,003.64,N,0006.74,K,A*1D
$GPRMC,163928.8,A,4741.39562,N,12224.33576,W,003.62,330.5,141015,016.4,E,A*27
$HCHDG,320.2,0.0,E,,*2A
$GPGGA,163928.8,4741.39562,N,12224.33576,W,1,04,1.8,-10.0,M,-18.2,M,,*78
$GPVTG,330.5,T,314.1,M,003.62,N,0006.71,K,A*16
$YXXDR,A,6.3,D,PTCH,A,6.8,D,ROLL*56
$TIROT,-30.1,A*24
$GPRMC,163928.9,A,4741.39571,N,12224.33583,W,003.65,332.9,141015,016.4,E,A*27
$HCHDG,320.3,0.0,E,,*2B
$GPGGA,163928.9,4741.39571,N,12224.33583,W,1,04,1.8,-10.0,M,-18.2,M,,*71
$YXXDR,A,6.0,D,PTCH,A,6.6,D,ROLL*5B
$GPVTG,332.9,T,316.5,M,003.65,N,0006.75,K,A*1D
$GPRMC,163929.0,A,4741.39580,N,12224.33591,W,003.75,332.2,141015,016.4,E,A*28
$HCHDG,320.0,0.0,E,,*28
$GPGGA,163929.0,4741.39580,N,12224.33591,W,1,04,1.8,-10.0,M,-18.2,M,,*74
$YXXDR,A,5.9,D,PTCH,A,6.4,D,ROLL*53
$GPVTG,332.2,T,315.8,M,003.75,N,0006.94,K,A*16
$GPGSA,A,3,12,02,25,06,,,,,,,,,2.7,1.8,2.1*3D
$IIVWR,024,R,13.1,N,,,,*64
$GPGSV,2,1,05,12,85,207,45,02,76,120,47,25,48,305,39,06,45,056,43*72
$GPGSV,2,2,05,24,21,209,34*45
$GPRMC,163929.1,A,4741.39582,N,12224.33556,W,003.86,333.1,141015,016.4,E,A*2E
$HCHDG,319.9,0.0,E,,*2B
$GPGGA,163929.1,4741.39582,N,12224.33556,W,1,04,1.8,-9.7,M,-18.2,M,,*43
$YXXDR,A,5.4,D,PTCH,A,6.2,D,ROLL*58
$GPVTG,333.1,T,316.6,M,003.86,N,0007.15,K,A*1D
$GPRMC,163929.2,A,4741.39592,N,12224.33564,W,003.88,331.1,141015,016.4,E,A*21
$HCHDG,319.9,0.0,E,,*2B
$GPGGA,163929.2,4741.39592,N,12224.33564,W,1,04,1.8,-9.7,M,-18.2,M,,*40
$IIMTW,+11.0,C*38
$YXXDR,A,5.2,D,PTCH,A,6.1,D,ROLL*5D
$GPVTG,331.1,T,314.7,M,003.88,N,0007.18,K,A*1F
$IIMWV,024,R,13.1,N,A*16
$GPRMC,163929.3,A,4741.39602,N,12224.33572,W,003.98,331.4,141015,016.4,E,A*29
$HCHDG,320.0,0.0,E,,*28
$YXXDR,A,5.3,D,PTCH,A,6.0,D,ROLL*5D
$GPGGA,163929.3,4741.39602,N,12224.33572,W,1,04,1.8,-9.7,M,-18.2,M,,*4C
$IIMWV,036,T,09.8,N,A*11
$GPVTG,331.4,T,315.0,M,003.98,N,0007.37,K,A*10
$GPRMC,163929.4,A,4741.39607,N,12224.33576,W,004.04,331.9,141015,016.4,E,A*20
$HCHDG,320.1,0.0,E,,*29
$GPGGA,163929.4,4741.39607,N,12224.33576,W,1,04,1.8,-9.7,M,-18.2,M,,*4A
$YXXDR,A,5.0,D,PTCH,A,6.0,D,ROLL*5E
$GPVTG,331.9,T,315.5,M,004.04,N,0007.49,K,A*13
$GPRMC,163929.5,A,4741.39623,N,12224.33588,W,004.06,331.0,141015,016.4,E,A*2D
$HCHDG,319.9,0.0,E,,*2B
$IIVHW,,,,,03.8,N,,*12
$GPGGA,163929.5,4741.39623,N,12224.33588,W,1,04,1.8,-9.7,M,-18.2,M,,*4C
$YXXDR,A,5.1,D,PTCH,A,6.1,D,ROLL*5E
$GPVTG,331.0,T,314.5,M,004.06,N,0007.52,K,A*13
$IIVLW,07333,N,000.2,N*55
$GPRMC,163929.6,A,4741.39628,N,12224.33592,W,004.05,330.9,141015,016.4,E,A*25
$HCHDG,319.9,0.0,E,,*2B
$GPGGA,163929.6,4741.39628,N,12224.33592,W,1,04,1.8,-9.7,M,-18.2,M,,*4F
$YXXDR,A,5.2,D,PTCH,A,5.9,D,ROLL*56
$GPVTG,330.9,T,314.5,M,004.05,N,0007.51,K,A*1B
$GPRMC,163929.7,A,4741.39642,N,12224.33604,W,003.96,331.4,141015,016.4,E,A*25
$GPGGA,163929.7,4741.39642,N,12224.33604,W,1,04,1.8,-9.7,M,-18.2,M,,*4E
$HCHDG,320.1,0.0,E,,*29
$YXXDR,A,4.9,D,PTCH,A,6.0,D,ROLL*56
$GPVTG,331.4,T,315.0,M,003.96,N,0007.33,K,A*1A
$GPRMC,163929.8,A,4741.39646,N,12224.33608,W,003.89,331.3,141015,016.4,E,A*2B
$HCHDG,319.9,0.0,E,,*2B
$GPGGA,163929.8,4741.39646,N,12224.33608,W,1,04,1.8,-9.7,M,-18.2,M,,*49
$YXXDR,A,5.1,D,PTCH,A,5.9,D,ROLL*55
$GPVTG,331.3,T,314.9,M,003.89,N,0007.20,K,A*19
$TIROT,-3.7,A*12
$GPRMC,163929.9,A,4741.39651,N,12224.33611,W,003.84,331.6,141015,016.4,E,A*2C
$HCHDG,319.9,0.0,E,,*2B
$GPGGA,163929.9,4741.39651,N,12224.33611,W,1,04,1.8,-9.6,M,-18.2,M,,*47
$YXXDR,A,5.4,D,PTCH,A,5.5,D,ROLL*5C
$GPVTG,331.6,T,315.2,M,003.84,N,0007.12,K,A*1A
$GPRMC,163930.0,A,4741.39669,N,12224.33625,W,003.76,331.8,141015,016.4,E,A*22
$HCHDG,320.2,0.0,E,,*2A
$GPGGA,163930.0,4741.39669,N,12224.33625,W,1,04,1.8,-9.6,M,-18.2,M,,*4A
$YXXDR,A,5.8,D,PTCH,A,5.4,D,ROLL*51
$GPVTG,331.8,T,315.3,M,003.76,N,0006.97,K,A*14
$IIVWR,021,R,13.1,N,,,,*61
$GPGSA,A,3,12,02,25,06,,,,,,,,,2.7,1.8,2.1*3D
$GPGSV,2,1,05,12,85,207,46,02,76,120,47,25,48,305,40,06,45,056,43*7F
$GPGSV,2,2,05,24,21,209,34*45
$HCHDG,320.2,0.0,E,,*2A
$GPRMC,163930.1,A,4741.39671,N,12224.33610,W,003.70,331.0,141015,016.4,E,A*22
$GPGGA,163930.1,4741.39671,N,12224.33610,W,1,04,1.8,-9.5,M,-18.2,M,,*47
$YXXDR,A,6.1,D,PTCH,A,5.1,D,ROLL*5E
$GPVTG,331.0,T,314.5,M,003.70,N,0006.85,K,A*1E
$GPRMC,163930.2,A,4741.39682,N,12224.33601,W,004.29,331.6,141015,016.4,E,A*20
$HCHDG,320.4,0.0,E,,*2C
$YXXDR,A,6.4,D,PTCH,A,5.0,D,ROLL*5A
$IIMTW,+11.0,C*38
$GPGGA,163930.2,4741.39682,N,12224.33601,W,1,04,1.8,-9.5,M,-18.2,M,,*48
