$GPGGA,164953.6,4741.19873,N,12224.27623,W,1,08,1.0,-3.5,M,-18.2,M,,*47
$GPVTG,357.0,T,340.5,M,000.29,N,0000.54,K,A*1A
$GPRMC,164953.7,A,4741.19873,N,12224.27623,W,000.27,356.9,151015,016.4,E,A*25
$GPGGA,164953.7,4741.19873,N,12224.27623,W,1,08,1.0,-3.5,M,-18.2,M,,*46
$GPVTG,356.9,T,340.5,M,000.27,N,0000.50,K,A*18
$HCHDG,96.5,0.0,E,,*13
$YXXDR,A,5.0,D,PTCH,A,7.2,D,ROLL*5D
$GPRMC,164953.8,A,4741.19873,N,12224.27623,W,000.29,356.9,151015,016.4,E,A*24
$GPGGA,164953.8,4741.19873,N,12224.27623,W,1,08,1.0,-3.5,M,-18.2,M,,*49
$GPVTG,356.9,T,340.5,M,000.29,N,0000.54,K,A*12
$GPRMC,164953.9,A,4741.19878,N,12224.27630,W,000.26,356.9,151015,016.4,E,A*23
$GPGGA,164953.9,4741.19878,N,12224.27630,W,1,08,1.0,-3.5,M,-18.2,M,,*41
$GPVTG,356.9,T,340.4,M,000.26,N,0000.49,K,A*10
$HCHDG,96.5,0.0,E,,*13
$YXXDR,A,5.1,D,PTCH,A,7.2,D,ROLL*5C
$TIROT,28.0,A*01
$HCHDG,96.6,0.0,E,,*10
$YXXDR,A,5.2,D,PTCH,A,7.1,D,ROLL*5C
$HCHDG,96.5,0.0,E,,*13
$GPRMC,164954.0,A,4741.19878,N,12224.27630,W,000.24,356.8,151015,016.4,E,A*2E
$GPGGA,164954.0,4741.19878,N,12224.27630,W,1,08,1.0,-3.5,M,-18.2,M,,*4F
$YXXDR,A,5.5,D,PTCH,A,7.0,D,ROLL*5A
$IIMWV,253,R,13.7,N,A*12
$IIMWV,252,T,12.7,N,A*14
$GPVTG,356.8,T,340.4,M,000.24,N,0000.45,K,A*1F
$GPGSA,A,3,12,25,06,02,29,05,24,31,,,,,1.7,1.0,1.3*3D
$HCHDG,96.5,0.0,E,,*13
$YXXDR,A,5.4,D,PTCH,A,7.1,D,ROLL*5A
$GPRMC,164954.1,A,4741.19878,N,12224.27630,W,000.27,356.8,151015,016.4,E,A*2C
$GPGGA,164954.1,4741.19878,N,12224.27630,W,1,08,1.0,-3.4,M,-18.2,M,,*4F
$GPVTG,356.8,T,340.3,M,000.27,N,0000.50,K,A*1F
$GPGSV,2,1,08,12,79,172,42,25,54,303,44,06,39,053,43,02,75,093,45*7D
$HCHDG,96.6,0.0,E,,*10
$GPGSV,2,2,08,29,25,274,46,05,20,146,31,24,16,206,31,31,13,326,39*72
$YXXDR,A,5.3,D,PTCH,A,7.1,D,ROLL*5D
$GPRMC,164954.2,A,4741.19878,N,12224.27630,W,000.33,356.7,151015,016.4,E,A*25
$GPGGA,164954.2,4741.19878,N,12224.27630,W,1,08,1.0,-3.4,M,-18.2,M,,*4C
$IIVHW,,,,,00.0,N,,*19
$GPVTG,356.7,T,340.3,M,000.33,N,0000.62,K,A*14
$HCHDG,96.7,0.0,E,,*11
$IIVLW,07374,N,000.0,N*54
$YXXDR,A,5.3,D,PTCH,A,7.1,D,ROLL*5D
$GPRMC,164954.3,A,4741.19878,N,12224.27630,W,000.14,356.0,151015,016.4,E,A*26
$GPGGA,164954.3,4741.19878,N,12224.27630,W,1,08,1.0,-3.4,M,-18.2,M,,*4D
$GPVTG,356.0,T,339.5,M,000.14,N,0000.26,K,A*1E
$IIVWR,107,L,13.7,N,,,,*7C
$HCHDG,96.6,0.0,E,,*10
$YXXDR,A,5.3,D,PTCH,A,7.1,D,ROLL*5D
$GPRMC,164954.4,A,4741.19878,N,12224.27630,W,000.20,356.0,151015,016.4,E,A*26
$GPGGA,164954.4,4741.19878,N,12224.27630,W,1,08,1.0,-3.4,M,-18.2,M,,*4A
$GPVTG,356.0,T,339.5,M,000.20,N,0000.38,K,A*16
$HCHDG,96.7,0.0,E,,*11
$YXXDR,A,5.1,D,PTCH,A,7.2,D,ROLL*5C
$GPRMC,164954.5,A,4741.19878,N,12224.27630,W,000.22,356.0,151015,016.4,E,A*25
$IIMTW,+10.0,C*39
$GPGGA,164954.5,4741.19878,N,12224.27630,W,1,08,1.0,-3.4,M,-18.2,M,,*4B
$GPVTG,356.0,T,339.5,M,000.22,N,0000.41,K,A*1A
$HCHDG,96.7,0.0,E,,*11
$YXXDR,A,5.1,D,PTCH,A,7.2,D,ROLL*5C
$GPRMC,164954.6,A,4741.19878,N,12224.27630,W,000.22,356.0,151015,016.4,E,A*26
$GPGGA,164954.6,4741.19878,N,12224.27630,W,1,08,1.0,-3.4,M,-18.2,M,,*48
$GPVTG,356.0,T,339.5,M,000.22,N,0000.40,K,A*1B
$HCHDG,97.1,0.0,E,,*16
$YXXDR,A,5.1,D,PTCH,A,7.2,D,ROLL*5C
$GPRMC,164954.7,A,4741.19882,N,12224.27638,W,000.61,356.0,151015,016.4,E,A*2D
$GPGGA,164954.7,4741.19882,N,12224.27638,W,1,08,1.0,-3.4,M,-18.2,M,,*44
$GPVTG,356.0,T,339.5,M,000.61,N,0001.13,K,A*1B
$HCHDG,97.1,0.0,E,,*16
$YXXDR,A,5.0,D,PTCH,A,7.2,D,ROLL*5D
$TIROT,39.7,A*06
$GPRMC,164954.8,A,4741.19883,N,12224.27638,W,000.55,356.0,151015,016.4,E,A*24
$GPGGA,164954.8,4741.19883,N,12224.27638,W,1,08,1.0,-3.4,M,-18.2,M,,*4A
$GPVTG,356.0,T,339.5,M,000.55,N,0001.02,K,A*1C
$HCHDG,97.1,0.0,E,,*16
$YXXDR,A,4.8,D,PTCH,A,7.3,D,ROLL*55
$GPGGA,164954.9,4741.19883,N,12224.27638,W,1,08,1.0,-3.4,M,-18.2,M,,*4B
$GPRMC,164954.9,A,4741.19883,N,12224.27638,W,000.50,356.0,151015,016.4,E,A*20
$GPVTG,356.0,T,339.5,M,000.50,N,0000.92,K,A*11
$HCHDG,97.2,0.0,E,,*15
$IIMWV,253,R,13.9,N,A*1C
$YXXDR,A,4.8,D,PTCH,A,7.3,D,ROLL*55
$GPRMC,164955.0,A,4741.19884,N,12224.27638,W,000.52,356.0,151015,016.4,E,A*2D
$GPGGA,164955.0,4741.19884,N,12224.27638,W,1,08,1.0,-3.4,M,-18.2,M,,*44
$GPVTG,356.0,T,339.5,M,000.52,N,0000.97,K,A*16
$IIMWV,253,T,13.7,N,A*14
$GPGSA,A,3,12,25,06,02,29,05,24,31,,,,,1.7,1.0,1.3*3D
$HCHDG,97.2,0.0,E,,*15
$YXXDR,A,4.8,D,PTCH,A,7.2,D,ROLL*54
$GPRMC,164955.1,A,4741.19890,N,12224.27638,W,000.51,356.0,151015,016.4,E,A*2A
$GPGGA,164955.1,4741.19890,N,12224.27638,W,1,08,1.0,-3.3,M,-18.2,M,,*47
$GPVTG,356.0,T,339.5,M,000.51,N,0000.94,K,A*16
$GPGSV,2,1,08,12,79,172,42,25,54,303,44,06,39,053,43,02,75,093,45*7D
$HCHDG,97.4,0.0,E,,*13
$GPGSV,2,2,08,29,25,274,45,05,20,146,32,24,16,206,30,31,13,326,39*73
$YXXDR,A,4.7,D,PTCH,A,7.3,D,ROLL*5A
$GPRMC,164955.2,A,4741.19890,N,12224.27638,W,000.45,356.0,151015,016.4,E,A*2C
$IIVHW,,,,,00.0,N,,*19
$GPGGA,164955.2,4741.19890,N,12224.27638,W,1,08,1.0,-3.2,M,-18.2,M,,*45
$GPVTG,356.0,T,339.5,M,000.45,N,0000.83,K,A*15
$HCHDG,97.3,0.0,E,,*14
$IIVLW,07374,N,000.0,N*54
$YXXDR,A,4.8,D,PTCH,A,7.2,D,ROLL*54
$GPRMC,164955.3,A,4741.19891,N,12224.27638,W,000.42,356.0,151015,016.4,E,A*2B
$GPGGA,164955.3,4741.19891,N,12224.27638,W,1,08,1.0,-3.2,M,-18.2,M,,*45
$GPVTG,356.0,T,339.5,M,000.42,N,0000.78,K,A*16
$IIVWR,107,L,13.9,N,,,,*72
$HCHDG,97.4,0.0,E,,*13
$YXXDR,A,4.8,D,PTCH,A,7.2,D,ROLL*54
$GPRMC,164955.4,A,4741.19890,N,12224.27638,W,000.41,356.0,151015,016.4,E,A*2E
$GPGGA,164955.4,4741.19890,N,12224.27638,W,1,08,1.0,-3.2,M,-18.2,M,,*43
$GPVTG,356.0,T,339.5,M,000.41,N,0000.76,K,A*1B
$HCHDG,97.5,0.0,E,,*12
$YXXDR,A,5.0,D,PTCH,A,7.1,D,ROLL*5E
$GPRMC,164955.5,A,4741.19890,N,12224.27638,W,000.38,356.0,151015,016.4,E,A*21
$IIMTW,+10.0,C*39
$GPGGA,164955.5,4741.19890,N,12224.27638,W,1,08,1.0,-3.2,M,-18.2,M,,*42
$GPVTG,356.0,T,339.5,M,000.38,N,0000.71,K,A*12
$HCHDG,97.4,0.0,E,,*13
$YXXDR,A,4.9,D,PTCH,A,6.9,D,ROLL*5F
$GPRMC,164955.6,A,4741.19890,N,12224.27639,W,000.40,356.0,151015,016.4,E,A*2C
$GPGGA,164955.6,4741.19890,N,12224.27639,W,1,08,1.0,-3.2,M,-18.2,M,,*40
$GPVTG,356.0,T,339.5,M,000.40,N,0000.74,K,A*18
$HCHDG,97.2,0.0,E,,*15
$YXXDR,A,5.2,D,PTCH,A,6.6,D,ROLL*5A
$GPRMC,164955.7,A,4741.19890,N,12224.27639,W,000.36,356.0,151015,016.4,E,A*2C
$GPGGA,164955.7,4741.19890,N,12224.27639,W,1,08,1.0,-3.2,M,-18.2,M,,*41
$GPVTG,356.0,T,339.5,M,000.36,N,0000.66,K,A*1A
$HCHDG,97.2,0.0,E,,*15
$YXXDR,A,5.2,D,PTCH,A,6.6,D,ROLL*5A
$TIROT,-4.3,A*11
$GPRMC,164955.8,A,4741.19890,N,12224.27639,W,000.30,355.8,151015,016.4,E,A*2E
$GPGGA,164955.8,4741.19890,N,12224.27639,W,1,08,1.0,-3.2,M,-18.2,M,,*4E
$GPVTG,355.8,T,339.4,M,000.30,N,0000.55,K,A*16
$HCHDG,97.1,0.0,E,,*16
$YXXDR,A,5.2,D,PTCH,A,6.6,D,ROLL*5A
$GPRMC,164955.9,A,4741.19890,N,12224.27639,W,000.27,355.7,151015,016.4,E,A*26
$GPGGA,164955.9,4741.19890,N,12224.27639,W,1,08,1.0,-3.2,M,-18.2,M,,*4F
$GPVTG,355.7,T,339.3,M,000.27,N,0000.51,K,A*1C
$HCHDG,97.1,0.0,E,,*16
$IIMWV,254,R,13.9,N,A*1B
$YXXDR,A,5.1,D,PTCH,A,6.8,D,ROLL*57
$GPRMC,164956.0,A,4741.19890,N,12224.27640,W,000.71,354.8,151015,016.4,E,A*2F
$GPGGA,164956.0,4741.19890,N,12224.27640,W,1,08,1.0,-3.2,M,-18.2,M,,*4B
$IIMWV,253,T,13.9,N,A*1A
$GPVTG,354.8,T,338.3,M,000.71,N,0001.31,K,A*17
$GPGSA,A,3,12,25,06,02,29,05,24,31,,,,,1.7,1.0,1.3*3D
$HCHDG,97.1,0.0,E,,*16
$YXXDR,A,5.2,D,PTCH,A,7.1,D,ROLL*5C
$GPRMC,164956.1,A,4741.19890,N,12224.27640,W,000.16,354.8,151015,016.4,E,A*2F
$GPGGA,164956.1,4741.19890,N,12224.27640,W,1,08,1.0,-3.2,M,-18.2,M,,*4A
$GPVTG,354.8,T,338.3,M,000.16,N,0000.29,K,A*1E
$GPGSV,2,1,08,12,79,172,42,25,54,303,44,06,39,053,43,02,75,093,45*7D
$HCHDG,97.1,0.0,E,,*16
$GPGSV,2,2,08,29,25,274,45,05,20,146,32,24,16,206,28,31,13,326,39*7A
$YXXDR,A,5.2,D,PTCH,A,7.7,D,ROLL*5A
$GPRMC,164956.2,A,4741.19890,N,12224.27640,W,000.15,354.8,151015,016.4,E,A*2F
$IIVHW,,,,,00.0,N,,*19
$GPGGA,164956.2,4741.19890,N,12224.27640,W,1,08,1.0,-3.2,M,-18.2,M,,*49
$GPVTG,354.8,T,338.3,M,000.15,N,0000.29,K,A*1D
$HCHDG,97.0,0.0,E,,*17
$IIVLW,07374,N,000.0,N*54
$YXXDR,A,5.2,D,PTCH,A,7.5,D,ROLL*58
$GPRMC,164956.3,A,4741.19894,N,12224.27637,W,000.55,354.8,151015,016.4,E,A*2E
$GPGGA,164956.3,4741.19894,N,12224.27637,W,1,08,1.0,-3.2,M,-18.2,M,,*4C
$IIVWR,106,L,13.9,N,,,,*73
$GPVTG,354.8,T,338.3,M,000.55,N,0001.03,K,A*10
$HCHDG,97.1,0.0,E,,*16
$YXXDR,A,5.3,D,PTCH,A,7.5,D,ROLL*59
$GPRMC,164956.4,A,4741.19893,N,12224.27637,W,000.50,354.8,151015,016.4,E,A*2B
$GPGGA,164956.4,4741.19893,N,12224.27637,W,1,08,1.0,-3.2,M,-18.2,M,,*4C
$GPVTG,354.8,T,338.3,M,000.50,N,0000.93,K,A*1D
$HCHDG,97.0,0.0,E,,*17
$YXXDR,A,5.4,D,PTCH,A,7.5,D,ROLL*5E
$GPRMC,164956.5,A,4741.19892,N,12224.27638,W,000.44,354.8,151015,016.4,E,A*21
$IIMTW,+10.0,C*39
$GPGGA,164956.5,4741.19892,N,12224.27638,W,1,08,1.0,-3.2,M,-18.2,M,,*43
$GPVTG,354.8,T,338.3,M,000.44,N,0000.81,K,A*1B
$HCHDG,97.0,0.0,E,,*17
$YXXDR,A,5.2,D,PTCH,A,7.4,D,ROLL*59
$GPRMC,164956.6,A,4741.19891,N,12224.27638,W,000.78,354.8,151015,016.4,E,A*2E
$GPGGA,164956.6,4741.19891,N,12224.27638,W,1,08,1.0,-3.2,M,-18.2,M,,*43
$GPVTG,354.8,T,338.3,M,000.78,N,0001.45,K,A*1D
$HCHDG,96.9,0.0,E,,*1F
$YXXDR,A,5.4,D,PTCH,A,7.2,D,ROLL*59
$GPRMC,164956.7,A,4741.19891,N,12224.27638,W,000.29,354.8,151015,016.4,E,A*2B
$GPGGA,164956.7,4741.19891,N,12224.27638,W,1,08,1.0,-3.2,M,-18.2,M,,*42
$GPVTG,354.8,T,338.3,M,000.29,N,0000.54,K,A*18
$HCHDG,96.8,0.0,E,,*1E
$YXXDR,A,5.4,D,PTCH,A,7.2,D,ROLL*59
$TIROT,-39.5,A*29
$GPRMC,164956.8,A,4741.19891,N,12224.27638,W,000.27,354.8,151015,016.4,E,A*2A
$GPGGA,164956.8,4741.19891,N,12224.27638,W,1,08,1.0,-3.2,M,-18.2,M,,*4D
$GPVTG,354.8,T,338.3,M,000.27,N,0000.50,K,A*12
$HCHDG,96.8,0.0,E,,*1E
$YXXDR,A,5.4,D,PTCH,A,7.2,D,ROLL*59
$GPRMC,164956.9,A,4741.19891,N,12224.27638,W,000.25,354.8,151015,016.4,E,A*29
$GPGGA,164956.9,4741.19891,N,12224.27638,W,1,08,1.0,-3.2,M,-18.2,M,,*4C
$GPVTG,354.8,T,338.3,M,000.25,N,0000.46,K,A*17
$HCHDG,96.7,0.0,E,,*11
$IIMWV,256,R,13.6,N,A*16
$YXXDR,A,5.3,D,PTCH,A,7.2,D,ROLL*5E
$GPRMC,164957.0,A,4741.19890,N,12224.27638,W,000.70,354.8,151015,016.4,E,A*20
$IIMWV,254,T,13.9,N,A*1D
$GPGGA,164957.0,4741.19890,N,12224.27638,W,1,08,1.0,-3.2,M,-18.2,M,,*45
$GPVTG,354.8,T,338.3,M,000.70,N,0001.29,K,A*1F
$GPGSA,A,3,12,25,06,02,29,05,24,31,,,,,1.7,1.0,1.3*3D
$HCHDG,96.7,0.0,E,,*11
$YXXDR,A,5.2,D,PTCH,A,7.7,D,ROLL*5A
$GPRMC,164957.1,A,4741.19890,N,12224.27638,W,000.28,354.8,151015,016.4,E,A*2C
$GPGGA,164957.1,4741.19890,N,12224.27638,W,1,08,1.0,-3.2,M,-18.2,M,,*44
$GPVTG,354.8,T,338.3,M,000.28,N,0000.51,K,A*1C
$HCHDG,96.7,0.0,E,,*11
$GPGSV,2,1,08,12,79,172,43,25,54,303,44,06,39,053,43,02,75,093,45*7C
$GPGSV,2,2,08,29,25,274,45,05,20,146,31,24,16,206,28,31,13,326,38*78
$YXXDR,A,5.2,D,PTCH,A,7.6,D,ROLL*5B
$GPRMC,164957.2,A,4741.19890,N,12224.27638,W,000.28,354.8,151015,016.4,E,A*2F
$GPGGA,164957.2,4741.19890,N,12224.27638,W,1,08,1.0,-3.2,M,-18.2,M,,*47
$IIVHW,,,,,00.0,N,,*19
$GPVTG,354.8,T,338.3,M,000.28,N,0000.53,K,A*1E
$HCHDG,96.7,0.0,E,,*11
$IIVLW,07374,N,000.0,N*54
$YXXDR,A,5.1,D,PTCH,A,7.7,D,ROLL*59
$GPRMC,164957.3,A,4741.19890,N,12224.27638,W,000.27,354.8,151015,016.4,E,A*21
$IIVWR,104,L,13.6,N,,,,*7E
$GPGGA,164957.3,4741.19890,N,12224.27638,W,1,08,1.0,-3.2,M,-18.2,M,,*46
$GPVTG,354.8,T,338.3,M,000.27,N,0000.50,K,A*12
$HCHDG,96.7,0.0,E,,*11
$YXXDR,A,4.8,D,PTCH,A,7.7,D,ROLL*51
$GPRMC,164957.4,A,4741.19890,N,12224.27638,W,000.25,354.8,151015,016.4,E,A*24
$GPGGA,164957.4,4741.19890,N,12224.27638,W,1,08,1.0,-3.2,M,-18.2,M,,*41
$GPVTG,354.8,T,338.3,M,000.25,N,0000.47,K,A*16
$HCHDG,96.8,0.0,E,,*1E
$YXXDR,A,5.0,D,PTCH,A,7.5,D,ROLL*5A
$IIMTW,+10.0,C*39
$GPRMC,164957.5,A,4741.19890,N,12224.27638,W,000.23,354.8,151015,016.4,E,A*23
$GPGGA,164957.5,4741.19890,N,12224.27638,W,1,08,1.0,-3.2,M,-18.2,M,,*40
$GPVTG,354.8,T,338.3,M,000.23,N,0000.43,K,A*14
$HCHDG,96.8,0.0,E,,*1E
$YXXDR,A,4.9,D,PTCH,A,7.5,D,ROLL*52
$GPRMC,164957.6,A,4741.19890,N,12224.27638,W,000.24,354.8,151015,016.4,E,A*27
$GPGGA,164957.6,4741.19890,N,12224.27638,W,1,08,1.0,-3.2,M,-18.2,M,,*43
$GPVTG,354.8,T,338.3,M,000.24,N,0000.45,K,A*15
$HCHDG,96.8,0.0,E,,*1E
$YXXDR,A,4.8,D,PTCH,A,7.4,D,ROLL*52
$GPRMC,164957.7,A,4741.19890,N,12224.27638,W,000.28,354.8,151015,016.4,E,A*2A
$GPGGA,164957.7,4741.19890,N,12224.27638,W,1,08,1.0,-3.2,M,-18.2,M,,*42
$GPVTG,354.8,T,338.3,M,000.28,N,0000.52,K,A*1F
$HCHDG,96.9,0.0,E,,*1F
$YXXDR,A,4.8,D,PTCH,A,7.3,D,ROLL*55
$TIROT,12.7,A*0F
$GPRMC,164957.8,A,4741.19890,N,12224.27638,W,000.31,354.8,151015,016.4,E,A*2D
$GPGGA,164957.8,4741.19890,N,12224.27638,W,1,08,1.0,-3.2,M,-18.2,M,,*4D
$GPVTG,354.8,T,338.3,M,000.31,N,0000.57,K,A*12
$HCHDG,96.9,0.0,E,,*1F
$YXXDR,A,5.0,D,PTCH,A,7.2,D,ROLL*5D
$GPRMC,164957.9,A,4741.19890,N,12224.27638,W,000.29,354.8,151015,016.4,E,A*25
$GPGGA,164957.9,4741.19890,N,12224.27638,W,1,08,1.0,-3.2,M,-18.2,M,,*4C
$GPVTG,354.8,T,338.3,M,000.29,N,0000.55,K,A*19
$HCHDG,96.8,0.0,E,,*1E
$IIMWV,255,R,13.0,N,A*13
$YXXDR,A,5.0,D,PTCH,A,7.1,D,ROLL*5E
$GPRMC,164958.0,A,4741.19892,N,12224.27626,W,000.26,354.8,151015,016.4,E,A*21
$IIMWV,256,T,13.6,N,A*10
$GPGGA,164958.0,4741.19892,N,12224.27626,W,1,08,1.0,-3.2,M,-18.2,M,,*47
$GPVTG,354.8,T,338.3,M,000.26,N,0000.48,K,A*1A
$GPGSA,A,3,12,25,06,02,29,05,24,31,,,,,1.7,1.0,1.3*3D
$HCHDG,96.8,0.0,E,,*1E
$YXXDR,A,5.0,D,PTCH,A,7.1,D,ROLL*5E
$GPRMC,164958.1,A,4741.19892,N,12224.27626,W,000.24,354.8,151015,016.4,E,A*22
$GPGGA,164958.1,4741.19892,N,12224.27626,W,1,08,1.0,-3.3,M,-18.2,M,,*47
$GPVTG,354.8,T,338.3,M,000.24,N,0000.45,K,A*15
$HCHDG,96.8,0.0,E,,*1E
$GPGSV,2,1,08,12,79,172,43,25,54,303,44,06,39,053,43,02,75,093,46*7F
$YXXDR,A,5.2,D,PTCH,A,7.1,D,ROLL*5C
$GPGSV,2,2,08,29,25,274,45,05,20,146,30,24,15,206,29,31,13,326,38*7B
$IIVHW,,,,,00.0,N,,*19
$GPRMC,164958.2,A,4741.19892,N,12224.27626,W,000.20,354.8,151015,016.4,E,A*25
$GPGGA,164958.2,4741.19892,N,12224.27626,W,1,08,1.0,-3.2,M,-18.2,M,,*45
$GPVTG,354.8,T,338.3,M,000.20,N,0000.38,K,A*1B
$HCHDG,96.8,0.0,E,,*1E
$IIVLW,07374,N,000.0,N*54
$YXXDR,A,5.3,D,PTCH,A,7.1,D,ROLL*5D
$GPRMC,164958.3,A,4741.19884,N,12224.27625,W,000.55,354.8,151015,016.4,E,A*22
$IIVWR,105,L,13.0,N,,,,*79
$GPGGA,164958.3,4741.19884,N,12224.27625,W,1,08,1.0,-3.2,M,-18.2,M,,*40
$GPVTG,354.8,T,338.3,M,000.55,N,0001.01,K,A*12
$HCHDG,96.5,0.0,E,,*13
$YXXDR,A,5.4,D,PTCH,A,7.1,D,ROLL*5A
$GPRMC,164958.4,A,4741.19883,N,12224.27625,W,000.48,354.8,151015,016.4,E,A*2E
$GPGGA,164958.4,4741.19883,N,12224.27625,W,1,08,1.0,-3.2,M,-18.2,M,,*40
$GPVTG,354.8,T,338.3,M,000.48,N,0000.90,K,A*17
$GPRMC,164958.5,A,4741.19882,N,12224.27625,W,000.70,354.8,151015,016.4,E,A*25
$GPGGA,164958.5,4741.19882,N,12224.27625,W,1,08,1.0,-3.2,M,-18.2,M,,*40
$GPVTG,354.8,T,338.3,M,000.70,N,0001.30,K,A*17
$IIMTW,+10.0,C*39
$HCHDG,96.4,0.0,E,,*12
$YXXDR,A,5.3,D,PTCH,A,7.1,D,ROLL*5D
$HCHDG,96.4,0.0,E,,*12
$GPRMC,164958.6,A,4741.19882,N,12224.27625,W,000.65,354.8,151015,016.4,E,A*22
$YXXDR,A,5.3,D,PTCH,A,7.1,D,ROLL*5D
$GPGGA,164958.6,4741.19882,N,12224.27625,W,1,08,1.0,-3.2,M,-18.2,M,,*43
$GPVTG,354.8,T,338.3,M,000.65,N,0001.20,K,A*12
$HCHDG,96.4,0.0,E,,*12
$YXXDR,A,5.1,D,PTCH,A,7.2,D,ROLL*5C
$GPRMC,164958.7,A,4741.19882,N,12224.27625,W,000.59,354.8,151015,016.4,E,A*2C
$GPGGA,164958.7,4741.19882,N,12224.27625,W,1,08,1.0,-3.2,M,-18.2,M,,*42
$GPVTG,354.8,T,338.3,M,000.59,N,0001.09,K,A*16
$HCHDG,96.7,0.0,E,,*11
$YXXDR,A,5.0,D,PTCH,A,7.3,D,ROLL*5C
$TIROT,-8.0,A*1E
$GPRMC,164958.8,A,4741.19883,N,12224.27625,W,000.53,354.8,151015,016.4,E,A*28
$GPGGA,164958.8,4741.19883,N,12224.27625,W,1,08,1.0,-3.2,M,-18.2,M,,*4C
$GPVTG,354.8,T,338.3,M,000.53,N,0000.99,K,A*14
$HCHDG,96.7,0.0,E,,*11
$YXXDR,A,4.9,D,PTCH,A,7.5,D,ROLL*52
$GPRMC,164958.9,A,4741.19883,N,12224.27625,W,000.54,354.8,151015,016.4,E,A*2E
$GPGGA,164958.9,4741.19883,N,12224.27625,W,1,08,1.0,-3.2,M,-18.2,M,,*4D
$GPVTG,354.8,T,338.3,M,000.54,N,0001.00,K,A*12
$HCHDG,96.8,0.0,E,,*1E
$IIMWV,257,R,12.7,N,A*17
$YXXDR,A,4.7,D,PTCH,A,7.5,D,ROLL*5C
$GPRMC,164959.0,A,4741.19883,N,12224.27625,W,000.02,354.8,151015,016.4,E,A*25
$IIMWV,255,T,13.0,N,A*15
$GPGGA,164959.0,4741.19883,N,12224.27625,W,1,08,1.0,-3.3,M,-18.2,M,,*44
$GPVTG,354.8,T,338.3,M,000.02,N,0000.03,K,A*13
$HCHDG,97.0,0.0,E,,*17
$GPGSA,A,3,12,25,06,02,29,05,24,31,,,,,1.7,1.0,1.3*3D
$YXXDR,A,4.6,D,PTCH,A,7.5,D,ROLL*5D
$GPRMC,164959.1,A,4741.19883,N,12224.27625,W,000.04,354.8,151015,016.4,E,A*22
$GPGGA,164959.1,4741.19883,N,12224.27625,W,1,08,1.0,-3.3,M,-18.2,M,,*45
$GPVTG,354.8,T,338.3,M,000.04,N,0000.08,K,A*1E
$HCHDG,97.1,0.0,E,,*16
$GPGSV,2,1,08,12,79,172,43,25,54,303,44,06,39,053,42,02,75,093,46*7E
$YXXDR,A,4.6,D,PTCH,A,7.5,D,ROLL*5D
$GPGSV,2,2,08,29,25,274,45,05,20,146,30,24,15,206,30,31,13,326,36*7D
$IIVHW,,,,,00.0,N,,*19
$GPRMC,164959.2,A,4741.19883,N,12224.27625,W,000.11,354.8,151015,016.4,E,A*25
$GPGGA,164959.2,4741.19883,N,12224.27625,W,1,08,1.0,-3.3,M,-18.2,M,,*46
$GPVTG,354.8,T,338.3,M,000.11,N,0000.20,K,A*10
$HCHDG,97.0,0.0,E,,*17
$IIVLW,07374,N,000.0,N*54
$GPRMC,164959.3,A,4741.19883,N,12224.27625,W,000.11,354.8,151015,016.4,E,A*24
$YXXDR,A,4.6,D,PTCH,A,7.5,D,ROLL*5D
$GPGGA,164959.3,4741.19883,N,12224.27625,W,1,08,1.0,-3.3,M,-18.2,M,,*47
$GPVTG,354.8,T,338.3,M,000.11,N,0000.21,K,A*11
$IIVWR,103,L,12.7,N,,,,*79
$HCHDG,97.1,0.0,E,,*16
$YXXDR,A,4.9,D,PTCH,A,7.5,D,ROLL*52
$GPRMC,164959.4,A,4741.19883,N,12224.27625,W,000.15,354.8,151015,016.4,E,A*27
$GPGGA,164959.4,4741.19883,N,12224.27625,W,1,08,1.0,-3.3,M,-18.2,M,,*40
$GPVTG,354.8,T,338.3,M,000.15,N,0000.29,K,A*1D
$HCHDG,97.0,0.0,E,,*17
$GPRMC,164959.5,A,4741.19883,N,12224.27625,W,000.15,354.8,151015,016.4,E,A*26
$YXXDR,A,4.8,D,PTCH,A,7.7,D,ROLL*51
$GPGGA,164959.5,4741.19883,N,12224.27625,W,1,08,1.0,-3.3,M,-18.2,M,,*41
$GPVTG,354.8,T,338.3,M,000.15,N,0000.28,K,A*1C
$IIMTW,+10.0,C*39
$HCHDG,97.0,0.0,E,,*17
$GPRMC,164959.6,A,4741.19883,N,12224.27625,W,000.13,354.8,151015,016.4,E,A*23
$YXXDR,A,5.1,D,PTCH,A,7.7,D,ROLL*59
$GPGGA,164959.6,4741.19883,N,12224.27625,W,1,08,1.0,-3.3,M,-18.2,M,,*42
$GPVTG,354.8,T,338.3,M,000.13,N,0000.25,K,A*17
$HCHDG,96.7,0.0,E,,*11
$GPRMC,164959.7,A,4741.19883,N,12224.27625,W,000.14,354.8,151015,016.4,E,A*25
$YXXDR,A,5.0,D,PTCH,A,7.8,D,ROLL*57
$GPGGA,164959.7,4741.19883,N,12224.27625,W,1,08,1.0,-3.3,M,-18.2,M,,*43
$GPVTG,354.8,T,338.3,M,000.14,N,0000.26,K,A*13
$HCHDG,96.7,0.0,E,,*11
$GPRMC,164959.8,A,4741.19883,N,12224.27625,W,000.17,354.8,151015,016.4,E,A*29
$YXXDR,A,5.0,D,PTCH,A,7.8,D,ROLL*57
$TIROT,-26.8,A*2A
$GPGGA,164959.8,4741.19883,N,12224.27625,W,1,08,1.0,-3.3,M,-18.2,M,,*4C
$GPVTG,354.8,T,338.3,M,000.17,N,0000.32,K,A*15
$HCHDG,96.7,0.0,E,,*11
$GPRMC,164959.9,A,4741.19883,N,12224.27625,W,000.19,354.8,151015,016.4,E,A*26
$YXXDR,A,5.1,D,PTCH,A,8.0,D,ROLL*51
$GPGGA,164959.9,4741.19883,N,12224.27625,W,1,08,1.0,-3.3,M,-18.2,M,,*4D
$GPVTG,354.8,T,338.3,M,000.19,N,0000.36,K,A*1F
$HCHDG,96.6,0.0,E,,*10
$IIMWV,259,R,12.5,N,A*1B
$GPRMC,165000.0,A,4741.19881,N,12224.27633,W,000.18,354.8,151015,016.4,E,A*2F
$GPGGA,165000.0,4741.19881,N,12224.27633,W,1,08,1.0,-3.3,M,-18.2,M,,*45
$YXXDR,A,5.1,D,PTCH,A,8.2,D,ROLL*53
$GPVTG,354.8,T,338.3,M,000.18,N,0000.33,K,A*1B
$GPGSA,A,3,12,25,06,02,29,05,24,31,,,,,1.7,1.0,1.3*3D
$IIMWV,257,T,12.7,N,A*11
$HCHDG,96.6,0.0,E,,*10
$GPRMC,165000.1,A,4741.19881,N,12224.27633,W,000.20,354.8,151015,016.4,E,A*25
$YXXDR,A,5.1,D,PTCH,A,8.2,D,ROLL*53
$GPGGA,165000.1,4741.19881,N,12224.27633,W,1,08,1.0,-3.1,M,-18.2,M,,*46
$GPVTG,354.8,T,338.3,M,000.20,N,0000.37,K,A*14
$GPGSV,2,1,08,12,79,172,43,25,55,302,43,06,39,053,41,02,75,093,46*7A
$GPGSV,2,2,08,29,25,274,46,05,20,146,30,24,15,206,32,31,13,326,34*7E
$HCHDG,96.3,0.0,E,,*15
$GPRMC,165000.2,A,4741.19881,N,12224.27633,W,000.19,354.8,151015,016.4,E,A*2C
$YXXDR,A,5.2,D,PTCH,A,8.1,D,ROLL*53
$GPGGA,165000.2,4741.19881,N,12224.27633,W,1,08,1.0,-3.1,M,-18.2,M,,*45
$GPVTG,354.8,T,338.3,M,000.19,N,0000.35,K,A*1C
$IIVHW,,,,,00.0,N,,*19
$PGRMT,GPS19x-HVS Software Version 2.20,,,,,,,,*6F
$HCHDG,96.4,0.0,E,,*12
$IIVLW,07374,N,000.0,N*54
$GPRMC,165000.3,A,4741.19881,N,12224.27633,W,000.19,354.8,151015,016.4,E,A*2D
$YXXDR,A,5.1,D,PTCH,A,8.0,D,ROLL*51
$GPGGA,165000.3,4741.19881,N,12224.27633,W,1,08,1.0,-3.1,M,-18.2,M,,*44
$GPVTG,354.8,T,338.3,M,000.19,N,0000.36,K,A*1F
$IIVWR,101,L,12.5,N,,,,*79
$HCHDG,96.5,0.0,E,,*13
$YXXDR,A,5.3,D,PTCH,A,7.8,D,ROLL*54
$GPRMC,165000.4,A,4741.19881,N,12224.27633,W,000.21,354.8,151015,016.4,E,A*21
$GPGGA,165000.4,4741.19881,N,12224.27633,W,1,08,1.0,-3.1,M,-18.2,M,,*43
$GPVTG,354.8,T,338.3,M,000.21,N,0000.38,K,A*1A
$HCHDG,96.8,0.0,E,,*1E
$YXXDR,A,5.1,D,PTCH,A,7.7,D,ROLL*59
$GPRMC,165000.5,A,4741.19881,N,12224.27633,W,000.20,354.8,151015,016.4,E,A*21
$GPGGA,165000.5,4741.19881,N,12224.27633,W,1,08,1.0,-3.1,M,-18.2,M,,*42
$IIMTW,+10.0,C*39
$GPVTG,354.8,T,338.3,M,000.20,N,0000.37,K,A*14
$HCHDG,96.7,0.0,E,,*11
$YXXDR,A,5.0,D,PTCH,A,7.5,D,ROLL*5A
$GPRMC,165000.6,A,4741.19881,N,12224.27627,W,000.83,354.8,151015,016.4,E,A*2E
$GPGGA,165000.6,4741.19881,N,12224.27627,W,1,08,1.0,-3.2,M,-18.2,M,,*47
$GPVTG,354.8,T,338.3,M,000.83,N,0001.54,K,A*19
$HCHDG,96.7,0.0,E,,*11
$YXXDR,A,4.8,D,PTCH,A,7.4,D,ROLL*52
$GPRMC,165000.7,A,4741.19881,N,12224.27627,W,000.21,354.8,151015,016.4,E,A*27
$GPGGA,165000.7,4741.19881,N,12224.27627,W,1,08,1.0,-3.2,M,-18.2,M,,*46
$GPVTG,354.8,T,338.3,M,000.21,N,0000.38,K,A*1A
$HCHDG,96.7,0.0,E,,*11
$YXXDR,A,5.1,D,PTCH,A,7.3,D,ROLL*5D
$TIROT,34.1,A*0D
$GPRMC,165000.8,A,4741.19881,N,12224.27627,W,000.21,354.8,151015,016.4,E,A*28
$GPGGA,165000.8,4741.19881,N,12224.27627,W,1,08,1.0,-3.2,M,-18.2,M,,*49
$GPVTG,354.8,T,338.3,M,000.21,N,0000.38,K,A*1A
$HCHDG,96.7,0.0,E,,*11
$YXXDR,A,5.4,D,PTCH,A,6.7,D,ROLL*5D
$GPRMC,165000.9,A,4741.19881,N,12224.27627,W,000.22,354.8,151015,016.4,E,A*2A
$GPGGA,165000.9,4741.19881,N,12224.27627,W,1,08,1.0,-3.2,M,-18.2,M,,*48
$GPVTG,354.8,T,338.3,M,000.22,N,0000.41,K,A*17
$HCHDG,96.7,0.0,E,,*11
$IIMWV,261,R,12.4,N,A*11
$YXXDR,A,5.2,D,PTCH,A,6.8,D,ROLL*54
$GPRMC,165001.0,A,4741.19881,N,12224.27627,W,000.23,354.8,151015,016.4,E,A*23
$GPGGA,165001.0,4741.19881,N,12224.27627,W,1,08,1.0,-3.2,M,-18.2,M,,*40
$GPVTG,354.8,T,338.3,M,000.23,N,0000.42,K,A*15
$IIMWV,259,T,12.5,N,A*1D
$GPGSA,A,3,12,25,06,02,29,05,24,31,,,,,1.7,1.0,1.3*3D
$HCHDG,96.6,0.0,E,,*10
$YXXDR,A,5.3,D,PTCH,A,6.9,D,ROLL*54
$GPRMC,165001.1,A,4741.19881,N,12224.27627,W,000.71,355.0,151015,016.4,E,A*2C
$GPGGA,165001.1,4741.19881,N,12224.27627,W,1,08,1.0,-3.4,M,-18.2,M,,*47
$GPVTG,355.0,T,338.6,M,000.71,N,0001.31,K,A*1B
$GPGSV,2,1,08,12,79,172,43,25,55,302,44,06,39,053,41,02,75,093,46*7D
$GPGSV,2,2,08,29,25,274,46,05,20,146,31,24,15,206,32,31,13,326,34*7F
$HCHDG,96.6,0.0,E,,*10
$YXXDR,A,5.1,D,PTCH,A,6.9,D,ROLL*56
$GPRMC,165001.2,A,4741.19881,N,12224.27627,W,000.25,355.0,151015,016.4,E,A*2E
$GPGGA,165001.2,4741.19881,N,12224.27627,W,1,08,1.0,-3.4,M,-18.2,M,,*44
$IIVHW,,,,,00.0,N,,*19
$GPVTG,355.0,T,338.6,M,000.25,N,0000.47,K,A*1A
$HCHDG,96.6,0.0,E,,*10
$IIVLW,07374,N,000.0,N*54
$YXXDR,A,5.1,D,PTCH,A,6.9,D,ROLL*56
$GPRMC,165001.3,A,4741.19881,N,12224.27627,W,000.29,355.0,151015,016.4,E,A*23
$GPGGA,165001.3,4741.19881,N,12224.27627,W,1,08,1.0,-3.4,M,-18.2,M,,*45
$GPVTG,355.0,T,338.6,M,000.29,N,0000.55,K,A*15
$IIVWR,099,L,12.4,N,,,,*78
$HCHDG,96.6,0.0,E,,*10
$YXXDR,A,5.0,D,PTCH,A,7.1,D,ROLL*5E
$GPRMC,165001.4,A,4741.19881,N,12224.27627,W,000.32,355.0,151015,016.4,E,A*2E
$GPGGA,165001.4,4741.19881,N,12224.27627,W,1,08,1.0,-3.4,M,-18.2,M,,*42
$GPVTG,355.0,T,338.6,M,000.32,N,0000.59,K,A*13
$HCHDG,96.6,0.0,E,,*10
$YXXDR,A,5.0,D,PTCH,A,7.3,D,ROLL*5C
$GPGGA,165001.5,4741.19881,N,12224.27627,W,1,08,1.0,-3.4,M,-18.2,M,,*43
$IIMTW,+10.0,C*39
$GPRMC,165001.5,A,4741.19881,N,12224.27627,W,000.29,355.0,151015,016.4,E,A*25
$GPVTG,355.0,T,338.6,M,000.29,N,0000.54,K,A*14
$HCHDG,96.6,0.0,E,,*10
$YXXDR,A,5.1,D,PTCH,A,7.3,D,ROLL*5D
$GPRMC,165001.6,A,4741.19881,N,12224.27627,W,000.25,355.0,151015,016.4,E,A*2A
$GPGGA,165001.6,4741.19881,N,12224.27627,W,1,08,1.0,-3.4,M,-18.2,M,,*40
$GPVTG,355.0,T,338.6,M,000.25,N,0000.47,K,A*1A
$HCHDG,96.6,0.0,E,,*10
$YXXDR,A,5.0,D,PTCH,A,7.5,D,ROLL*5A
$GPRMC,165001.7,A,4741.19881,N,12224.27627,W,000.28,355.0,151015,016.4,E,A*26
$GPGGA,165001.7,4741.19881,N,12224.27627,W,1,08,1.0,-3.4,M,-18.2,M,,*41
$GPVTG,355.0,T,338.6,M,000.28,N,0000.51,K,A*10
$HCHDG,96.6,0.0,E,,*10
$YXXDR,A,5.1,D,PTCH,A,7.5,D,ROLL*5B
$TIROT,5.8,A*36
$GPRMC,165001.8,A,4741.19880,N,12224.27626,W,000.86,355.4,151015,016.4,E,A*29
$GPGGA,165001.8,4741.19880,N,12224.27626,W,1,08,1.0,-3.4,M,-18.2,M,,*4E
$GPVTG,355.4,T,338.9,M,000.86,N,0001.60,K,A*1C
$HCHDG,96.6,0.0,E,,*10
$YXXDR,A,5.1,D,PTCH,A,7.5,D,ROLL*5B
$GPRMC,165001.9,A,4741.19880,N,12224.27626,W,000.24,355.4,151015,016.4,E,A*20
$GPGGA,165001.9,4741.19880,N,12224.27626,W,1,08,1.0,-3.4,M,-18.2,M,,*4F
$GPVTG,355.4,T,338.9,M,000.24,N,0000.45,K,A*12
$HCHDG,96.6,0.0,E,,*10
$IIMWV,262,R,11.9,N,A*1C
$YXXDR,A,5.1,D,PTCH,A,7.5,D,ROLL*5B
$GPRMC,165002.0,A,4741.19880,N,12224.27626,W,000.25,355.4,151015,016.4,E,A*2B
$GPGGA,165002.0,4741.19880,N,12224.27626,W,1,08,1.0,-3.4,M,-18.2,M,,*45
$GPVTG,355.4,T,338.9,M,000.25,N,0000.45,K,A*13
$IIMWV,261,T,12.4,N,A*17
$GPGSA,A,3,12,25,06,02,29,05,24,31,,,,,1.7,1.0,1.3*3D
$HCHDG,96.7,0.0,E,,*11
$YXXDR,A,4.9,D,PTCH,A,7.5,D,ROLL*52
$GPRMC,165002.1,A,4741.19880,N,12224.27626,W,000.23,355.4,151015,016.4,E,A*2C
$GPGGA,165002.1,4741.19880,N,12224.27626,W,1,08,1.0,-3.4,M,-18.2,M,,*44
$GPVTG,355.4,T,338.9,M,000.23,N,0000.42,K,A*12
$GPGSV,2,1,08,12,79,172,43,25,55,302,44,06,39,053,41,02,75,093,46*7D
$HCHDG,97.0,0.0,E,,*17
$GPGSV,2,2,08,29,25,274,46,05,20,146,29,24,15,206,32,31,13,326,36*74
$YXXDR,A,5.0,D,PTCH,A,7.3,D,ROLL*5C
$GPRMC,165002.2,A,4741.19880,N,12224.27626,W,000.21,355.4,151015,016.4,E,A*2D
$GPGGA,165002.2,4741.19880,N,12224.27626,W,1,08,1.0,-3.4,M,-18.2,M,,*47
$IIVHW,,,,,00.0,N,,*19
$GPVTG,355.4,T,338.9,M,000.21,N,0000.39,K,A*1C
$HCHDG,97.0,0.0,E,,*17
$IIVLW,07374,N,000.0,N*54
$YXXDR,A,5.0,D,PTCH,A,7.3,D,ROLL*5C
$GPRMC,165002.3,A,4741.19880,N,12224.27626,W,000.24,355.4,151015,016.4,E,A*29
$GPGGA,165002.3,4741.19880,N,12224.27626,W,1,08,1.0,-3.4,M,-18.2,M,,*46
$GPVTG,355.4,T,338.9,M,000.24,N,0000.44,K,A*13
$IIVWR,098,L,11.9,N,,,,*77
$HCHDG,97.0,0.0,E,,*17
$YXXDR,A,4.7,D,PTCH,A,7.4,D,ROLL*5D
$GPRMC,165002.4,A,4741.19880,N,12224.27626,W,000.23,355.4,151015,016.4,E,A*29
$GPGGA,165002.4,4741.19880,N,12224.27626,W,1,08,1.0,-3.4,M,-18.2,M,,*41
$GPVTG,355.4,T,338.9,M,000.23,N,0000.43,K,A*13
$HCHDG,96.9,0.0,E,,*1F
$YXXDR,A,4.6,D,PTCH,A,7.4,D,ROLL*5C
$GPRMC,165002.5,A,4741.19880,N,12224.27626,W,000.22,355.4,151015,016.4,E,A*29
$IIMTW,+10.0,C*39
$GPGGA,165002.5,4741.19880,N,12224.27626,W,1,08,1.0,-3.4,M,-18.2,M,,*40
$GPVTG,355.4,T,338.9,M,000.22,N,0000.41,K,A*10
$HCHDG,96.9,0.0,E,,*1F
$YXXDR,A,4.6,D,PTCH,A,7.4,D,ROLL*5C
$GPRMC,165002.6,A,4741.19882,N,12224.27633,W,000.57,355.4,151015,016.4,E,A*2E
$GPGGA,165002.6,4741.19882,N,12224.27633,W,1,08,1.0,-3.4,M,-18.2,M,,*45
$GPVTG,355.4,T,338.9,M,000.57,N,0001.06,K,A*10
$HCHDG,97.0,0.0,E,,*17
$YXXDR,A,4.6,D,PTCH,A,7.4,D,ROLL*5C
$GPRMC,165002.7,A,4741.19882,N,12224.27634,W,000.57,355.4,151015,016.4,E,A*28
$GPGGA,165002.7,4741.19882,N,12224.27634,W,1,08,1.0,-3.4,M,-18.2,M,,*43
$GPVTG,355.4,T,338.9,M,000.57,N,0001.05,K,A*13
$HCHDG,97.0,0.0,E,,*17
$YXXDR,A,4.6,D,PTCH,A,7.4,D,ROLL*5C
$TIROT,-3.7,A*12
$GPRMC,165002.8,A,4741.19881,N,12224.27633,W,000.51,355.4,151015,016.4,E,A*25
$GPGGA,165002.8,4741.19881,N,12224.27633,W,1,08,1.0,-3.4,M,-18.2,M,,*48
$GPVTG,355.4,T,338.9,M,000.51,N,0000.94,K,A*1C
$HCHDG,97.0,0.0,E,,*17
$YXXDR,A,4.6,D,PTCH,A,7.4,D,ROLL*5C
$GPRMC,165002.9,A,4741.19881,N,12224.27633,W,000.45,355.4,151015,016.4,E,A*21
$GPGGA,165002.9,4741.19881,N,12224.27633,W,1,08,1.0,-3.4,M,-18.2,M,,*49
$GPVTG,355.4,T,339.0,M,000.45,N,0000.84,K,A*10
$HCHDG,97.1,0.0,E,,*16
$IIMWV,264,R,12.0,N,A*10
$YXXDR,A,4.6,D,PTCH,A,7.4,D,ROLL*5C
$GPRMC,165003.0,A,4741.19882,N,12224.27633,W,000.40,355.5,151015,016.4,E,A*2E
$GPGGA,165003.0,4741.19882,N,12224.27633,W,1,08,1.0,-3.4,M,-18.2,M,,*42
$GPVTG,355.5,T,339.0,M,000.40,N,0000.75,K,A*1A
$IIMWV,262,T,11.9,N,A*1A
$GPGSA,A,3,12,25,06,02,29,05,24,31,,,,,1.7,1.0,1.3*3D
$HCHDG,97.2,0.0,E,,*15
$YXXDR,A,4.7,D,PTCH,A,7.4,D,ROLL*5D
$GPRMC,165003.1,A,4741.19879,N,12224.27632,W,000.39,355.5,151015,016.4,E,A*24
$GPGGA,165003.1,4741.19879,N,12224.27632,W,1,08,1.0,-3.2,M,-18.2,M,,*40
$GPVTG,355.5,T,339.1,M,000.39,N,0000.73,K,A*13
$GPGSV,2,1,08,12,79,172,43,25,55,302,43,06,39,053,42,02,75,093,46*79
$HCHDG,97.2,0.0,E,,*15
$GPGSV,2,2,08,29,25,274,46,05,20,146,30,24,15,206,32,31,13,326,36*7C
$YXXDR,A,4.8,D,PTCH,A,7.4,D,ROLL*52
$GPRMC,165003.2,A,4741.19879,N,12224.27632,W,000.36,355.6,151015,016.4,E,A*2B
$IIVHW,,,,,00.0,N,,*19
$GPGGA,165003.2,4741.19879,N,12224.27632,W,1,08,1.0,-3.2,M,-18.2,M,,*43
$GPVTG,355.6,T,339.1,M,000.36,N,0000.67,K,A*1A
$HCHDG,97.2,0.0,E,,*15
$IIVLW,07374,N,000.0,N*54
$YXXDR,A,4.8,D,PTCH,A,7.4,D,ROLL*52
$GPRMC,165003.3,A,4741.19879,N,12224.27632,W,000.33,355.6,151015,016.4,E,A*2F
$GPGGA,165003.3,4741.19879,N,12224.27632,W,1,08,1.0,-3.2,M,-18.2,M,,*42
$GPVTG,355.6,T,339.2,M,000.33,N,0000.61,K,A*1A
$IIVWR,096,L,12.0,N,,,,*73
$HCHDG,97.1,0.0,E,,*16
$YXXDR,A,5.1,D,PTCH,A,7.3,D,ROLL*5D
$GPRMC,165003.4,A,4741.19879,N,12224.27632,W,000.28,355.7,151015,016.4,E,A*23
$GPGGA,165003.4,4741.19879,N,12224.27632,W,1,08,1.0,-3.2,M,-18.2,M,,*45
$GPVTG,355.7,T,339.2,M,000.28,N,0000.51,K,A*12
$HCHDG,97.1,0.0,E,,*16
$YXXDR,A,5.1,D,PTCH,A,7.3,D,ROLL*5D
$GPRMC,165003.5,A,4741.19881,N,12224.27631,W,000.41,355.7,151015,016.4,E,A*29
$IIMTW,+10.0,C*39
$GPGGA,165003.5,4741.19881,N,12224.27631,W,1,08,1.0,-3.2,M,-18.2,M,,*40
$GPVTG,355.7,T,339.3,M,000.41,N,0000.76,K,A*19
$HCHDG,97.2,0.0,E,,*15
$YXXDR,A,5.0,D,PTCH,A,7.3,D,ROLL*5C
$GPRMC,165003.6,A,4741.19881,N,12224.27631,W,000.37,355.8,151015,016.4,E,A*24
$GPGGA,165003.6,4741.19881,N,12224.27631,W,1,08,1.0,-3.2,M,-18.2,M,,*43
$GPVTG,355.8,T,339.4,M,000.37,N,0000.69,K,A*1E
$GPRMC,165003.7,A,4741.19881,N,12224.27631,W,000.36,355.9,151015,016.4,E,A*25
$GPGGA,165003.7,4741.19881,N,12224.27631,W,1,08,1.0,-3.2,M,-18.2,M,,*42
$GPVTG,355.9,T,339.4,M,000.36,N,0000.66,K,A*11
$HCHDG,97.3,0.0,E,,*14
$YXXDR,A,4.8,D,PTCH,A,7.4,D,ROLL*52
$HCHDG,97.4,0.0,E,,*13
$YXXDR,A,5.2,D,PTCH,A,7.4,D,ROLL*59
$TIROT,51.4,A*0B
$GPRMC,165003.8,A,4741.19881,N,12224.27631,W,000.36,355.9,151015,016.4,E,A*2A
$GPGGA,165003.8,4741.19881,N,12224.27631,W,1,08,1.0,-3.2,M,-18.2,M,,*4D
$GPVTG,355.9,T,339.5,M,000.36,N,0000.66,K,A*10
$HCHDG,97.4,0.0,E,,*13
$YXXDR,A,5.2,D,PTCH,A,7.4,D,ROLL*59
$GPRMC,165003.9,A,4741.19881,N,12224.27631,W,000.37,355.9,151015,016.4,E,A*2A
$GPGGA,165003.9,4741.19881,N,12224.27631,W,1,08,1.0,-3.2,M,-18.2,M,,*4C
$GPVTG,355.9,T,339.5,M,000.37,N,0000.68,K,A*1F
$HCHDG,97.5,0.0,E,,*12
$YXXDR,A,5.2,D,PTCH,A,7.4,D,ROLL*59
$IIMWV,263,R,12.1,N,A*16
$GPRMC,165004.0,A,4741.19881,N,12224.27631,W,000.36,356.0,151015,016.4,E,A*2F
$GPGGA,165004.0,4741.19881,N,12224.27631,W,1,08,1.0,-3.2,M,-18.2,M,,*42
$IIMWV,264,T,12.0,N,A*16
$GPVTG,356.0,T,339.5,M,000.36,N,0000.67,K,A*1B
$GPGSA,A,3,12,25,06,02,29,05,24,31,,,,,1.7,1.0,1.3*3D
$HCHDG,97.4,0.0,E,,*13
$YXXDR,A,5.3,D,PTCH,A,7.2,D,ROLL*5E
$GPRMC,165004.1,A,4741.19881,N,12224.27631,W,000.39,356.0,151015,016.4,E,A*21
$GPGGA,165004.1,4741.19881,N,12224.27631,W,1,08,1.0,-3.2,M,-18.2,M,,*43
$GPVTG,356.0,T,339.6,M,000.39,N,0000.72,K,A*13
$GPGSV,2,1,08,12,79,172,43,25,55,302,43,06,39,053,41,02,75,093,46*7A
$HCHDG,97.6,0.0,E,,*11
$GPGSV,2,2,08,29,25,274,46,05,20,146,30,24,15,206,30,31,13,326,37*7F
$YXXDR,A,5.3,D,PTCH,A,7.2,D,ROLL*5E
$GPRMC,165004.2,A,4741.19881,N,12224.27631,W,000.38,356.1,151015,016.4,E,A*22
$IIVHW,,,,,00.0,N,,*19
$GPGGA,165004.2,4741.19881,N,12224.27631,W,1,08,1.0,-3.2,M,-18.2,M,,*40
$GPVTG,356.1,T,339.6,M,000.38,N,0000.70,K,A*11
$HCHDG,97.7,0.0,E,,*10
$IIVLW,07374,N,000.0,N*54
$YXXDR,A,5.3,D,PTCH,A,7.2,D,ROLL*5E
$GPRMC,165004.3,A,4741.19881,N,12224.27631,W,000.34,356.1,151015,016.4,E,A*2F
$GPGGA,165004.3,4741.19881,N,12224.27631,W,1,08,1.0,-3.2,M,-18.2,M,,*41
$IIVWR,097,L,12.1,N,,,,*73
$GPVTG,356.1,T,339.7,M,000.34,N,0000.64,K,A*19
$HCHDG,97.7,0.0,E,,*10
$YXXDR,A,5.2,D,PTCH,A,7.1,D,ROLL*5C
$GPRMC,165004.4,A,4741.19881,N,12224.27631,W,000.33,356.2,151015,016.4,E,A*2C
$GPGGA,165004.4,4741.19881,N,12224.27631,W,1,08,1.0,-3.2,M,-18.2,M,,*46
$GPVTG,356.2,T,339.7,M,000.33,N,0000.60,K,A*19
$HCHDG,97.9,0.0,E,,*1E
$YXXDR,A,5.1,D,PTCH,A,7.2,D,ROLL*5C
$GPRMC,165004.5,A,4741.19892,N,12224.27632,W,000.37,356.2,151015,016.4,E,A*28
$IIMTW,+10.0,C*39
$GPGGA,165004.5,4741.19892,N,12224.27632,W,1,08,1.0,-3.2,M,-18.2,M,,*46
$GPVTG,356.2,T,339.7,M,000.37,N,0000.68,K,A*15
$HCHDG,97.6,0.0,E,,*11
$YXXDR,A,5.3,D,PTCH,A,7.1,D,ROLL*5D
$GPRMC,165004.6,A,4741.19892,N,12224.27632,W,000.37,356.2,151015,016.4,E,A*2B
$GPGGA,165004.6,4741.19892,N,12224.27632,W,1,08,1.0,-3.2,M,-18.2,M,,*45
$GPVTG,356.2,T,339.8,M,000.37,N,0000.69,K,A*1B
$HCHDG,97.7,0.0,E,,*10
$YXXDR,A,5.1,D,PTCH,A,7.2,D,ROLL*5C
$GPRMC,165004.7,A,4741.19892,N,12224.27632,W,000.33,356.3,151015,016.4,E,A*2F
$GPGGA,165004.7,4741.19892,N,12224.27632,W,1,08,1.0,-3.2,M,-18.2,M,,*44
$GPVTG,356.3,T,339.8,M,000.33,N,0000.61,K,A*16
$HCHDG,97.8,0.0,E,,*1F
$YXXDR,A,5.3,D,PTCH,A,7.2,D,ROLL*5E
$TIROT,46.7,A*0E
$GPRMC,165004.8,A,4741.19892,N,12224.27632,W,000.28,356.3,151015,016.4,E,A*2A
$GPGGA,165004.8,4741.19892,N,12224.27632,W,1,08,1.0,-3.2,M,-18.2,M,,*4B
$GPVTG,356.3,T,339.9,M,000.28,N,0000.53,K,A*1C
$HCHDG,98.1,0.0,E,,*19
$YXXDR,A,5.3,D,PTCH,A,7.2,D,ROLL*5E
$GPRMC,165004.9,A,4741.19892,N,12224.27632,W,000.27,356.4,151015,016.4,E,A*23
$GPGGA,165004.9,4741.19892,N,12224.27632,W,1,08,1.0,-3.2,M,-18.2,M,,*4A
$GPVTG,356.4,T,339.9,M,000.27,N,0000.50,K,A*17
$HCHDG,98.0,0.0,E,,*18
$IIMWV,259,R,11.3,N,A*1E
$YXXDR,A,5.3,D,PTCH,A,7.4,D,ROLL*58
$GPRMC,165005.0,A,4741.19892,N,12224.27632,W,000.23,356.4,151015,016.4,E,A*2F
$IIMWV,263,T,12.1,N,A*10
$GPGGA,165005.0,4741.19892,N,12224.27632,W,1,08,1.0,-3.2,M,-18.2,M,,*42
$GPVTG,356.4,T,340.0,M,000.23,N,0000.43,K,A*16
$GPGSA,A,3,12,25,06,02,29,05,24,31,,,,,1.7,1.0,1.3*3D
$HCHDG,98.2,0.0,E,,*1A
$YXXDR,A,5.2,D,PTCH,A,7.5,D,ROLL*58
$GPRMC,165005.1,A,4741.19892,N,12224.27632,W,000.22,356.5,151015,016.4,E,A*2E
$GPGGA,165005.1,4741.19892,N,12224.27632,W,1,08,1.0,-3.1,M,-18.2,M,,*40
$GPVTG,356.5,T,340.0,M,000.22,N,0000.41,K,A*14
$HCHDG,98.4,0.0,E,,*1C
$GPGSV,2,1,08,12,79,172,43,25,55,302,43,06,39,053,42,02,75,093,46*79
$YXXDR,A,5.3,D,PTCH,A,7.7,D,ROLL*5B
$GPGSV,2,2,08,29,25,274,46,05,20,146,32,24,15,206,31,31,13,326,37*7C
$GPRMC,165005.2,A,4741.19892,N,12224.27632,W,000.24,356.5,151015,016.4,E,A*2B
$IIVHW,,,,,00.0,N,,*19
$GPGGA,165005.2,4741.19892,N,12224.27632,W,1,08,1.0,-3.1,M,-18.2,M,,*43
$GPVTG,356.5,T,340.1,M,000.24,N,0000.44,K,A*16
$HCHDG,98.4,0.0,E,,*1C
$IIVLW,07374,N,000.0,N*54
$YXXDR,A,5.2,D,PTCH,A,7.7,D,ROLL*5A
$GPRMC,165005.3,A,4741.19892,N,12224.27632,W,000.27,356.6,151015,016.4,E,A*2A
$IIVWR,101,L,11.3,N,,,,*7C
$GPGGA,165005.3,4741.19892,N,12224.27632,W,1,08,1.0,-3.1,M,-18.2,M,,*42
$GPVTG,356.6,T,340.1,M,000.27,N,0000.51,K,A*12
$HCHDG,98.6,0.0,E,,*1E
$YXXDR,A,5.2,D,PTCH,A,7.6,D,ROLL*5B
$GPRMC,165005.4,A,4741.19892,N,12224.27632,W,000.25,356.6,151015,016.4,E,A*2F
$GPGGA,165005.4,4741.19892,N,12224.27632,W,1,08,1.0,-3.1,M,-18.2,M,,*45
$GPVTG,356.6,T,340.2,M,000.25,N,0000.46,K,A*15
$HCHDG,98.8,0.0,E,,*10
$YXXDR,A,5.2,D,PTCH,A,7.6,D,ROLL*5B
$GPRMC,165005.5,A,4741.19900,N,12224.27644,W,000.24,356.6,151015,016.4,E,A*24
$IIMTW,+10.0,C*39
$GPGGA,165005.5,4741.19900,N,12224.27644,W,1,08,1.0,-3.1,M,-18.2,M,,*4F
$GPVTG,356.6,T,340.2,M,000.24,N,0000.45,K,A*17
$HCHDG,98.9,0.0,E,,*11
$YXXDR,A,5.1,D,PTCH,A,7.5,D,ROLL*5B
$GPRMC,165005.6,A,4741.19900,N,12224.27644,W,000.24,356.7,151015,016.4,E,A*26
$GPGGA,165005.6,4741.19900,N,12224.27644,W,1,08,1.0,-3.1,M,-18.2,M,,*4C
$GPVTG,356.7,T,340.2,M,000.24,N,0000.44,K,A*17
$HCHDG,98.9,0.0,E,,*11
$YXXDR,A,5.1,D,PTCH,A,7.5,D,ROLL*5B
$GPRMC,165005.7,A,4741.19900,N,12224.27644,W,000.23,356.7,151015,016.4,E,A*20
$GPGGA,165005.7,4741.19900,N,12224.27644,W,1,08,1.0,-3.1,M,-18.2,M,,*4D
$GPVTG,356.7,T,340.3,M,000.23,N,0000.43,K,A*16
$HCHDG,99.0,0.0,E,,*19
$YXXDR,A,5.0,D,PTCH,A,7.5,D,ROLL*5A
$TIROT,14.5,A*0B
$GPRMC,165005.8,A,4741.19900,N,12224.27644,W,000.22,356.8,151015,016.4,E,A*21
$GPGGA,165005.8,4741.19900,N,12224.27644,W,1,08,1.0,-3.1,M,-18.2,M,,*42
$GPVTG,356.8,T,340.3,M,000.22,N,0000.41,K,A*1A
$HCHDG,99.1,0.0,E,,*18
$YXXDR,A,5.0,D,PTCH,A,7.5,D,ROLL*5A
$GPRMC,165005.9,A,4741.19900,N,12224.27644,W,000.27,356.8,151015,016.4,E,A*25
$GPGGA,165005.9,4741.19900,N,12224.27644,W,1,08,1.0,-3.1,M,-18.2,M,,*43
$GPVTG,356.8,T,340.3,M,000.27,N,0000.50,K,A*1F
$HCHDG,99.0,0.0,E,,*19
$IIMWV,257,R,11.2,N,A*11
$YXXDR,A,5.0,D,PTCH,A,7.5,D,ROLL*5A
$GPRMC,165006.0,A,4741.19900,N,12224.27644,W,000.25,356.8,151015,016.4,E,A*2D
$IIMWV,259,T,11.3,N,A*18
$GPGGA,165006.0,4741.19900,N,12224.27644,W,1,08,1.0,-3.1,M,-18.2,M,,*49
$GPVTG,356.8,T,340.3,M,000.25,N,0000.47,K,A*1B
$HCHDG,99.1,0.0,E,,*18
$GPGSA,A,3,12,25,06,02,29,05,24,31,,,,,1.7,1.0,1.3*3D
$YXXDR,A,5.0,D,PTCH,A,7.5,D,ROLL*5A
$GPRMC,165006.1,A,4741.19900,N,12224.27644,W,000.27,356.8,151015,016.4,E,A*2E
$GPGGA,165006.1,4741.19900,N,12224.27644,W,1,08,1.0,-3.2,M,-18.2,M,,*4B
$GPVTG,356.8,T,340.3,M,000.27,N,0000.51,K,A*1E
$HCHDG,99.2,0.0,E,,*1B
$GPGSV,2,1,08,12,79,172,43,25,55,302,44,06,39,053,42,02,75,093,46*7E
$YXXDR,A,5.0,D,PTCH,A,7.5,D,ROLL*5A
$GPGSV,2,2,08,29,25,274,47,05,20,146,31,24,15,206,32,31,13,326,38*72
$IIVHW,,,,,00.0,N,,*19
$GPRMC,165006.2,A,4741.19900,N,12224.27644,W,000.25,356.8,151015,016.4,E,A*2F
$GPGGA,165006.2,4741.19900,N,12224.27644,W,1,08,1.0,-3.2,M,-18.2,M,,*48
$GPVTG,356.8,T,340.3,M,000.25,N,0000.46,K,A*1A
$HCHDG,99.2,0.0,E,,*1B
$IIVLW,07374,N,000.0,N*54
$YXXDR,A,5.0,D,PTCH,A,7.5,D,ROLL*5A
$GPRMC,165006.3,A,4741.19900,N,12224.27644,W,000.24,356.8,151015,016.4,E,A*2F
$IIVWR,103,L,11.2,N,,,,*7F
$GPGGA,165006.3,4741.19900,N,12224.27644,W,1,08,1.0,-3.2,M,-18.2,M,,*49
$GPVTG,356.8,T,340.3,M,000.24,N,0000.44,K,A*19
$HCHDG,99.3,0.0,E,,*1A
$YXXDR,A,5.0,D,PTCH,A,7.5,D,ROLL*5A
$GPRMC,165006.4,A,4741.19910,N,12224.27655,W,001.30,356.8,151015,016.4,E,A*2D
$GPGGA,165006.4,4741.19910,N,12224.27655,W,1,08,1.0,-3.2,M,-18.2,M,,*4F
$GPVTG,356.8,T,340.3,M,001.30,N,0002.40,K,A*1B
$HCHDG,99.2,0.0,E,,*1B
$YXXDR,A,5.0,D,PTCH,A,7.5,D,ROLL*5A
$IIMTW,+10.0,C*39
$GPRMC,165006.5,A,4741.19910,N,12224.27655,W,000.04,356.8,151015,016.4,E,A*2A
$GPGGA,165006.5,4741.19910,N,12224.27655,W,1,08,1.0,-3.2,M,-18.2,M,,*4E
$GPVTG,356.8,T,340.3,M,000.04,N,0000.07,K,A*1C
$HCHDG,99.2,0.0,E,,*1B
$YXXDR,A,5.0,D,PTCH,A,7.3,D,ROLL*5C
$GPRMC,165006.6,A,4741.19910,N,12224.27655,W,000.08,356.8,151015,016.4,E,A*25
$GPGGA,165006.6,4741.19910,N,12224.27655,W,1,08,1.0,-3.2,M,-18.2,M,,*4D
$GPVTG,356.8,T,340.3,M,000.08,N,0000.14,K,A*12
$HCHDG,99.3,0.0,E,,*1A
$YXXDR,A,5.0,D,PTCH,A,7.1,D,ROLL*5E
$GPRMC,165006.7,A,4741.19910,N,12224.27655,W,000.11,356.8,151015,016.4,E,A*2C
$GPGGA,165006.7,4741.19910,N,12224.27655,W,1,08,1.0,-3.2,M,-18.2,M,,*4C
$GPVTG,356.8,T,340.3,M,000.11,N,0000.21,K,A*1C
$HCHDG,99.5,0.0,E,,*1C
$YXXDR,A,4.9,D,PTCH,A,7.0,D,ROLL*57
$TIROT,-27.8,A*2B
$GPRMC,165006.8,A,4741.19910,N,12224.27655,W,000.18,356.8,151015,016.4,E,A*2A
$GPGGA,165006.8,4741.19910,N,12224.27655,W,1,08,1.0,-3.2,M,-18.2,M,,*43
$GPVTG,356.8,T,340.3,M,000.18,N,0000.33,K,A*16
$HCHDG,99.5,0.0,E,,*1C
$YXXDR,A,4.9,D,PTCH,A,6.9,D,ROLL*5F
$GPRMC,165006.9,A,4741.19910,N,12224.27655,W,000.21,356.8,151015,016.4,E,A*21
$GPGGA,165006.9,4741.19910,N,12224.27655,W,1,08,1.0,-3.2,M,-18.2,M,,*42
$GPVTG,356.8,T,340.3,M,000.21,N,0000.39,K,A*16
$HCHDG,99.5,0.0,E,,*1C
$IIMWV,255,R,11.3,N,A*12
$GPRMC,165007.0,A,4741.19910,N,12224.27660,W,000.85,356.8,151015,016.4,E,A*21
$YXXDR,A,4.8,D,PTCH,A,6.9,D,ROLL*5E
$GPGGA,165007.0,4741.19910,N,12224.27660,W,1,08,1.0,-3.2,M,-18.2,M,,*4C
$GPVTG,356.8,T,340.3,M,000.85,N,0001.57,K,A*11
$GPGSA,A,3,12,25,06,02,29,05,24,31,,,,,1.7,1.0,1.3*3D
$IIMWV,257,T,11.2,N,A*17
$HCHDG,99.4,0.0,E,,*1D
$GPRMC,165007.1,A,4741.19910,N,12224.27660,W,000.29,356.8,151015,016.4,E,A*26
$YXXDR,A,4.9,D,PTCH,A,6.6,D,ROLL*50
$GPGGA,165007.1,4741.19910,N,12224.27660,W,1,08,1.0,-3.1,M,-18.2,M,,*4E
$GPVTG,356.8,T,340.3,M,000.29,N,0000.53,K,A*12
$GPGSV,2,1,08,12,79,172,43,25,55,302,44,06,39,053,42,02,75,093,46*7E
$GPGSV,2,2,08,29,25,274,47,05,20,146,30,24,15,206,28,31,13,326,38*78
$HCHDG,99.3,0.0,E,,*1A
$GPRMC,165007.2,A,4741.19910,N,12224.27660,W,000.26,356.8,151015,016.4,E,A*2A
$YXXDR,A,4.9,D,PTCH,A,6.6,D,ROLL*50
$GPGGA,165007.2,4741.19910,N,12224.27660,W,1,08,1.0,-3.1,M,-18.2,M,,*4D
$GPVTG,356.8,T,340.3,M,000.26,N,0000.49,K,A*16
$IIVHW,,,,,00.0,N,,*19
$HCHDG,99.3,0.0,E,,*1A
$IIVLW,07374,N,000.0,N*54
$YXXDR,A,5.1,D,PTCH,A,6.5,D,ROLL*5A
$GPRMC,165007.3,A,4741.19906,N,12224.27650,W,000.90,356.8,151015,016.4,E,A*22
$GPGGA,165007.3,4741.19906,N,12224.27650,W,1,08,1.0,-3.1,M,-18.2,M,,*48
$GPVTG,356.8,T,340.3,M,000.90,N,0001.66,K,A*17
$IIVWR,105,L,11.3,N,,,,*78
$HCHDG,99.2,0.0,E,,*1B
$GPRMC,165007.4,A,4741.19906,N,12224.27651,W,000.92,356.8,151015,016.4,E,A*26
$YXXDR,A,5.0,D,PTCH,A,6.5,D,ROLL*5B
$GPGGA,165007.4,4741.19906,N,12224.27651,W,1,08,1.0,-3.1,M,-18.2,M,,*4E
$GPVTG,356.8,T,340.3,M,000.92,N,0001.71,K,A*13
$HCHDG,99.1,0.0,E,,*18
$GPRMC,165007.5,A,4741.19908,N,12224.27652,W,000.53,356.8,151015,016.4,E,A*27
$YXXDR,A,4.9,D,PTCH,A,6.6,D,ROLL*50
$GPGGA,165007.5,4741.19908,N,12224.27652,W,1,08,1.0,-3.1,M,-18.2,M,,*42
$GPVTG,356.8,T,340.3,M,000.53,N,0000.98,K,A*18
$IIMTW,+10.0,C*39
$HCHDG,99.0,0.0,E,,*19
$GPRMC,165007.6,A,4741.19908,N,12224.27653,W,000.54,356.8,151015,016.4,E,A*22
$YXXDR,A,5.0,D,PTCH,A,6.7,D,ROLL*59
$GPGGA,165007.6,4741.19908,N,12224.27653,W,1,08,1.0,-3.1,M,-18.2,M,,*40
$GPVTG,356.8,T,340.3,M,000.54,N,0001.00,K,A*1F
$HCHDG,98.9,0.0,E,,*11
$GPRMC,165007.7,A,4741.19907,N,12224.27654,W,000.50,356.8,151015,016.4,E,A*2F
$YXXDR,A,5.0,D,PTCH,A,6.9,D,ROLL*57
$GPGGA,165007.7,4741.19907,N,12224.27654,W,1,08,1.0,-3.0,M,-18.2,M,,*48
$GPVTG,356.8,T,340.3,M,000.50,N,0000.93,K,A*10
$HCHDG,98.9,0.0,E,,*11
$GPRMC,165007.8,A,4741.19906,N,12224.27654,W,000.50,356.8,151015,016.4,E,A*21
$YXXDR,A,4.9,D,PTCH,A,6.9,D,ROLL*5F
$TIROT,-76.0,A*27
$GPGGA,165007.8,4741.19906,N,12224.27654,W,1,08,1.0,-3.0,M,-18.2,M,,*46
$GPVTG,356.8,T,340.3,M,000.50,N,0000.92,K,A*11
$HCHDG,99.0,0.0,E,,*19
$YXXDR,A,4.7,D,PTCH,A,7.1,D,ROLL*58
$GPRMC,165007.9,A,4741.19905,N,12224.27656,W,000.52,356.8,151015,016.4,E,A*23
$GPGGA,165007.9,4741.19905,N,12224.27656,W,1,08,1.0,-3.0,M,-18.2,M,,*46
$GPVTG,356.8,T,340.3,M,000.52,N,0000.95,K,A*14
$HCHDG,98.8,0.0,E,,*10
$IIMWV,255,R,12.2,N,A*10
$GPRMC,165008.0,A,4741.19905,N,12224.27656,W,000.12,356.8,151015,016.4,E,A*21
$YXXDR,A,4.7,D,PTCH,A,7.1,D,ROLL*58
$GPGGA,165008.0,4741.19905,N,12224.27656,W,1,08,1.0,-3.0,M,-18.2,M,,*40
$GPVTG,356.8,T,340.3,M,000.12,N,0000.22,K,A*1C
$GPGSA,A,3,12,25,06,02,29,05,24,31,,,,,1.7,1.0,1.3*3D
$IIMWV,255,T,11.3,N,A*14
$HCHDG,98.7,0.0,E,,*1F
$YXXDR,A,4.8,D,PTCH,A,7.2,D,ROLL*54
$GPRMC,165008.1,A,4741.19905,N,12224.27656,W,000.14,356.8,151015,016.4,E,A*26
$GPGGA,165008.1,4741.19905,N,12224.27656,W,1,08,1.0,-3.1,M,-18.2,M,,*40
$GPVTG,356.8,T,340.3,M,000.14,N,0000.25,K,A*1D
$GPGSV,2,1,08,12,79,172,43,25,55,302,43,06,39,053,43,02,75,093,46*78
$GPGSV,2,2,08,29,25,274,47,05,20,146,30,24,15,206,28,31,13,326,38*78
$HCHDG,98.7,0.0,E,,*1F
$YXXDR,A,4.7,D,PTCH,A,7.1,D,ROLL*58
$GPRMC,165008.2,A,4741.19900,N,12224.27667,W,000.66,356.8,151015,016.4,E,A*27
$GPGGA,165008.2,4741.19900,N,12224.27667,W,1,08,1.0,-3.1,M,-18.2,M,,*44
$GPVTG,356.8,T,340.3,M,000.66,N,0001.23,K,A*1F
$IIVHW,,,,,00.0,N,,*19
$HCHDG,98.5,0.0,E,,*1D
$IIVLW,07374,N,000.0,N*54
$YXXDR,A,4.7,D,PTCH,A,7.1,D,ROLL*58
$GPRMC,165008.3,A,4741.19900,N,12224.27667,W,000.65,356.8,151015,016.4,E,A*25
$HCHDG,98.4,0.0,E,,*1C
$YXXDR,A,4.7,D,PTCH,A,7.1,D,ROLL*58
$IIVWR,105,L,12.2,N,,,,*7A
$GPGGA,165008.3,4741.19900,N,12224.27667,W,1,08,1.0,-3.1,M,-18.2,M,,*45
$GPVTG,356.8,T,340.3,M,000.65,N,0001.21,K,A*1E
$GPRMC,165008.4,A,4741.19901,N,12224.27668,W,000.60,356.8,151015,016.4,E,A*29
$GPGGA,165008.4,4741.19901,N,12224.27668,W,1,08,1.0,-3.1,M,-18.2,M,,*4C
$GPVTG,356.8,T,340.3,M,000.60,N,0001.12,K,A*1B
$HCHDG,98.3,0.0,E,,*1B
$GPRMC,165008.5,A,4741.19901,N,12224.27670,W,000.85,356.8,151015,016.4,E,A*2A
$YXXDR,A,4.8,D,PTCH,A,7.2,D,ROLL*54
$GPGGA,165008.5,4741.19901,N,12224.27670,W,1,08,1.0,-3.1,M,-18.2,M,,*44
$IIMTW,+10.0,C*39
$GPVTG,356.8,T,340.3,M,000.85,N,0001.58,K,A*1E
$HCHDG,98.1,0.0,E,,*19
$YXXDR,A,5.0,D,PTCH,A,7.5,D,ROLL*5A
$GPRMC,165008.6,A,4741.19899,N,12224.27671,W,000.83,356.8,151015,016.4,E,A*2E
$GPGGA,165008.6,4741.19899,N,12224.27671,W,1,08,1.0,-3.1,M,-18.2,M,,*46
$GPVTG,356.8,T,340.3,M,000.83,N,0001.53,K,A*13
$HCHDG,98.1,0.0,E,,*19
$YXXDR,A,4.9,D,PTCH,A,7.7,D,ROLL*50
$GPRMC,165008.7,A,4741.19899,N,12224.27671,W,000.32,356.8,151015,016.4,E,A*25
$GPGGA,165008.7,4741.19899,N,12224.27671,W,1,08,1.0,-3.1,M,-18.2,M,,*47
$GPVTG,356.8,T,340.3,M,000.32,N,0000.59,K,A*12
$HCHDG,97.9,0.0,E,,*1E
$YXXDR,A,5.1,D,PTCH,A,7.8,D,ROLL*56
$TIROT,-35.8,A*28
$GPRMC,165008.8,A,4741.19899,N,12224.27671,W,000.33,356.8,151015,016.4,E,A*2B
$GPGGA,165008.8,4741.19899,N,12224.27671,W,1,08,1.0,-3.1,M,-18.2,M,,*48
$GPVTG,356.8,T,340.3,M,000.33,N,0000.60,K,A*19
$HCHDG,97.9,0.0,E,,*1E
$YXXDR,A,5.0,D,PTCH,A,7.8,D,ROLL*57
$GPRMC,165008.9,A,4741.19899,N,12224.27671,W,000.34,356.8,151015,016.4,E,A*2D
$GPGGA,165008.9,4741.19899,N,12224.27671,W,1,08,1.0,-3.1,M,-18.2,M,,*49
$GPVTG,356.8,T,340.3,M,000.34,N,0000.64,K,A*1A
$HCHDG,97.8,0.0,E,,*1F
$IIMWV,254,R,11.8,N,A*18
$YXXDR,A,5.1,D,PTCH,A,7.9,D,ROLL*57
$GPRMC,165009.0,A,4741.19899,N,12224.27674,W,000.40,356.8,151015,016.4,E,A*23
$GPGGA,165009.0,4741.19899,N,12224.27674,W,1,08,1.0,-3.1,M,-18.2,M,,*44
$GPVTG,356.8,T,340.3,M,000.40,N,0000.74,K,A*18
$IIMWV,255,T,12.2,N,A*16
$GPGSA,A,3,12,25,06,02,29,05,24,31,,,,,1.7,1.0,1.3*3D
$HCHDG,97.9,0.0,E,,*1E
$YXXDR,A,5.1,D,PTCH,A,7.9,D,ROLL*57
$GPRMC,165009.1,A,4741.19899,N,12224.27674,W,000.25,356.8,151015,016.4,E,A*21
$GPGGA,165009.1,4741.19899,N,12224.27674,W,1,08,1.0,-3.0,M,-18.2,M,,*44
$GPVTG,356.8,T,340.3,M,000.25,N,0000.47,K,A*1B
$GPGSV,2,1,08,12,79,172,44,25,55,302,43,06,39,053,43,02,75,093,46*7F
$GPGSV,2,2,08,29,25,274,46,05,20,146,34,24,15,206,29,31,13,326,34*70
$HCHDG,97.8,0.0,E,,*1F
$YXXDR,A,5.1,D,PTCH,A,7.9,D,ROLL*57
$GPRMC,165009.2,A,4741.19899,N,12224.27674,W,000.30,356.8,151015,016.4,E,A*26
$GPGGA,165009.2,4741.19899,N,12224.27674,W,1,08,1.0,-3.0,M,-18.2,M,,*47
$IIVHW,,,,,00.0,N,,*19
$GPVTG,356.8,T,340.3,M,000.30,N,0000.56,K,A*1F
$HCHDG,97.6,0.0,E,,*11
$IIVLW,07374,N,000.0,N*54
$YXXDR,A,5.1,D,PTCH,A,7.9,D,ROLL*57
$GPRMC,165009.3,A,4741.19899,N,12224.27674,W,000.35,356.8,151015,016.4,E,A*22
$GPGGA,165009.3,4741.19899,N,12224.27674,W,1,08,1.0,-3.0,M,-18.2,M,,*46
$GPVTG,356.8,T,340.3,M,000.35,N,0000.65,K,A*1A
$IIVWR,106,L,11.8,N,,,,*70
$HCHDG,97.7,0.0,E,,*10
$YXXDR,A,5.1,D,PTCH,A,8.1,D,ROLL*50
$GPRMC,165009.4,A,4741.19899,N,12224.27674,W,000.12,355.2,151015,016.4,E,A*29
$GPGGA,165009.4,4741.19899,N,12224.27674,W,1,08,1.0,-3.0,M,-18.2,M,,*41
$GPVTG,355.2,T,338.7,M,000.12,N,0000.22,K,A*1E
$HCHDG,97.7,0.0,E,,*10
$YXXDR,A,5.1,D,PTCH,A,8.0,D,ROLL*51
$GPRMC,165009.5,A,4741.19899,N,12224.27674,W,000.11,355.2,151015,016.4,E,A*2B
$GPGGA,165009.5,4741.19899,N,12224.27674,W,1,08,1.0,-3.0,M,-18.2,M,,*40
$IIMTW,+10.0,C*39
$GPVTG,355.2,T,338.7,M,000.11,N,0000.21,K,A*1E
$HCHDG,97.8,0.0,E,,*1F
$YXXDR,A,5.2,D,PTCH,A,8.1,D,ROLL*53
$GPRMC,165009.6,A,4741.19892,N,12224.27685,W,000.48,355.2,151015,016.4,E,A*21
$GPGGA,165009.6,4741.19892,N,12224.27685,W,1,08,1.0,-3.0,M,-18.2,M,,*46
$GPVTG,355.2,T,338.7,M,000.48,N,0000.90,K,A*18
$HCHDG,97.4,0.0,E,,*13
$YXXDR,A,5.1,D,PTCH,A,8.2,D,ROLL*53
$GPRMC,165009.7,A,4741.19892,N,12224.27685,W,000.43,355.2,151015,016.4,E,A*2B
$GPGGA,165009.7,4741.19892,N,12224.27685,W,1,08,1.0,-3.0,M,-18.2,M,,*47
$GPVTG,355.2,T,338.7,M,000.43,N,0000.79,K,A*14
$HCHDG,97.4,0.0,E,,*13
$YXXDR,A,5.1,D,PTCH,A,8.2,D,ROLL*53
$TIROT,27.0,A*0E
$GPRMC,165009.8,A,4741.19892,N,12224.27685,W,000.39,355.2,151015,016.4,E,A*29
$GPGGA,165009.8,4741.19892,N,12224.27685,W,1,08,1.0,-3.0,M,-18.2,M,,*48
$GPVTG,355.2,T,338.7,M,000.39,N,0000.72,K,A*12
$HCHDG,97.4,0.0,E,,*13
$YXXDR,A,5.1,D,PTCH,A,8.2,D,ROLL*53
$GPRMC,165009.9,A,4741.19892,N,12224.27685,W,000.36,355.2,151015,016.4,E,A*27
$GPGGA,165009.9,4741.19892,N,12224.27685,W,1,08,1.0,-3.0,M,-18.2,M,,*49
$GPVTG,355.2,T,338.7,M,000.36,N,0000.67,K,A*19
$HCHDG,97.5,0.0,E,,*12
$IIMWV,252,R,12.0,N,A*15
$YXXDR,A,5.2,D,PTCH,A,8.1,D,ROLL*53
$GPRMC,165010.0,A,4741.19894,N,12224.27687,W,001.35,350.5,151015,016.4,E,A*22
$GPGGA,165010.0,4741.19894,N,12224.27687,W,1,08,1.0,-3.0,M,-18.2,M,,*4C
$GPVTG,350.5,T,334.0,M,001.35,N,0002.49,K,A*1C
$IIMWV,254,T,11.8,N,A*1E
$GPGSA,A,3,12,25,06,02,29,05,24,31,,,,,1.7,1.0,1.3*3D
$HCHDG,97.6,0.0,E,,*11
$YXXDR,A,5.2,D,PTCH,A,8.1,D,ROLL*53
$GPRMC,165010.1,A,4741.19894,N,12224.27687,W,000.15,350.5,151015,016.4,E,A*20
$GPGGA,165010.1,4741.19894,N,12224.27687,W,1,08,1.0,-3.1,M,-18.2,M,,*4C
$GPVTG,350.5,T,334.0,M,000.15,N,0000.28,K,A*1A
$GPGSV,2,1,08,12,79,172,44,25,55,302,43,06,39,053,42,02,75,093,46*7E
$GPGSV,2,2,08,29,25,274,46,05,20,146,34,24,15,206,29,31,13,326,34*70
$HCHDG,97.5,0.0,E,,*12
$YXXDR,A,5.3,D,PTCH,A,7.9,D,ROLL*55
$GPRMC,165010.2,A,4741.19894,N,12224.27687,W,000.21,350.5,151015,016.4,E,A*24
$GPGGA,165010.2,4741.19894,N,12224.27687,W,1,08,1.0,-3.1,M,-18.2,M,,*4F
$IIVHW,,,,,00.0,N,,*19
$GPVTG,350.5,T,334.0,M,000.21,N,0000.38,K,A*1C
$HCHDG,97.7,0.0,E,,*10
$IIVLW,07374,N,000.0,N*54
$YXXDR,A,5.3,D,PTCH,A,7.9,D,ROLL*55
$GPRMC,165010.3,A,4741.19894,N,12224.27687,W,000.21,350.5,151015,016.4,E,A*25
$GPGGA,165010.3,4741.19894,N,12224.27687,W,1,08,1.0,-3.1,M,-18.2,M,,*4E
$GPVTG,350.5,T,334.0,M,000.21,N,0000.39,K,A*1D
$IIVWR,108,L,12.0,N,,,,*75
$HCHDG,97.7,0.0,E,,*10
$YXXDR,A,5.3,D,PTCH,A,7.9,D,ROLL*55
$GPRMC,165010.4,A,4741.19901,N,12224.27683,W,000.66,350.5,151015,016.4,E,A*28
$GPGGA,165010.4,4741.19901,N,12224.27683,W,1,08,1.0,-3.1,M,-18.2,M,,*40
$GPVTG,350.5,T,334.0,M,000.66,N,0001.22,K,A*15
$HCHDG,97.7,0.0,E,,*10
$YXXDR,A,5.3,D,PTCH,A,7.9,D,ROLL*55
$GPRMC,165010.5,A,4741.19901,N,12224.27684,W,000.66,350.5,151015,016.4,E,A*2E
$IIMTW,+10.0,C*39
$GPGGA,165010.5,4741.19901,N,12224.27684,W,1,08,1.0,-3.1,M,-18.2,M,,*46
$GPVTG,350.5,T,334.0,M,000.66,N,0001.22,K,A*15
$HCHDG,97.8,0.0,E,,*1F
$YXXDR,A,5.3,D,PTCH,A,7.8,D,ROLL*54
$GPRMC,165010.6,A,4741.19901,N,12224.27684,W,000.22,350.5,151015,016.4,E,A*2D
$GPGGA,165010.6,4741.19901,N,12224.27684,W,1,08,1.0,-3.1,M,-18.2,M,,*45
$GPVTG,350.5,T,334.0,M,000.22,N,0000.41,K,A*11
$HCHDG,97.8,0.0,E,,*1F
$YXXDR,A,5.3,D,PTCH,A,7.6,D,ROLL*5A
$GPRMC,165010.7,A,4741.19901,N,12224.27684,W,000.24,350.5,151015,016.4,E,A*2A
$GPGGA,165010.7,4741.19901,N,12224.27684,W,1,08,1.0,-3.1,M,-18.2,M,,*44
$GPVTG,350.5,T,334.0,M,000.24,N,0000.44,K,A*12
$HCHDG,97.8,0.0,E,,*1F
$YXXDR,A,5.2,D,PTCH,A,7.7,D,ROLL*5A
$TIROT,5.1,A*3F
$GPRMC,165010.8,A,4741.19901,N,12224.27684,W,000.27,350.5,151015,016.4,E,A*26
$GPGGA,165010.8,4741.19901,N,12224.27684,W,1,08,1.0,-3.1,M,-18.2,M,,*4B
$GPVTG,350.5,T,334.0,M,000.27,N,0000.50,K,A*14
$HCHDG,97.6,0.0,E,,*11
$YXXDR,A,5.3,D,PTCH,A,7.5,D,ROLL*59
$GPRMC,165010.9,A,4741.19901,N,12224.27684,W,000.29,350.5,151015,016.4,E,A*29
$GPGGA,165010.9,4741.19901,N,12224.27684,W,1,08,1.0,-3.1,M,-18.2,M,,*4A
$GPVTG,350.5,T,334.0,M,000.29,N,0000.55,K,A*1F
$HCHDG,97.7,0.0,E,,*10
$IIMWV,252,R,12.1,N,A*14
$YXXDR,A,5.3,D,PTCH,A,7.5,D,ROLL*59
$GPRMC,165011.0,A,4741.19901,N,12224.27684,W,000.32,350.5,151015,016.4,E,A*2B
$GPGGA,165011.0,4741.19901,N,12224.27684,W,1,08,1.0,-3.1,M,-18.2,M,,*42
$IIMWV,252,T,12.0,N,A*13
$GPVTG,350.5,T,334.0,M,000.32,N,0000.59,K,A*19
$GPGSA,A,3,12,25,06,02,29,05,24,31,,,,,1.7,1.0,1.3*3D
$HCHDG,97.8,0.0,E,,*1F
$YXXDR,A,5.2,D,PTCH,A,7.7,D,ROLL*5A
$GPRMC,165011.1,A,4741.19901,N,12224.27684,W,000.34,350.5,151015,016.4,E,A*2C
$GPGGA,165011.1,4741.19901,N,12224.27684,W,1,08,1.0,-3.1,M,-18.2,M,,*43
$GPVTG,350.5,T,334.0,M,000.34,N,0000.64,K,A*11
$GPGSV,2,1,08,12,79,172,44,25,55,302,43,06,39,053,41,02,75,093,46*7D
$HCHDG,97.8,0.0,E,,*1F
$GPGSV,2,2,08,29,25,274,46,05,20,146,35,24,15,206,30,31,13,326,33*7E
$YXXDR,A,5.2,D,PTCH,A,7.6,D,ROLL*5B
$GPRMC,165011.2,A,4741.19901,N,12224.27684,W,000.35,350.5,151015,016.4,E,A*2E
$IIVHW,,,,,00.0,N,,*19
$GPGGA,165011.2,4741.19901,N,12224.27684,W,1,08,1.0,-3.1,M,-18.2,M,,*40
$GPVTG,350.5,T,334.0,M,000.35,N,0000.65,K,A*11
$HCHDG,97.8,0.0,E,,*1F
$IIVLW,07374,N,000.0,N*54
$YXXDR,A,5.3,D,PTCH,A,7.7,D,ROLL*5B
$GPRMC,165011.3,A,4741.19901,N,12224.27684,W,000.36,350.5,151015,016.4,E,A*2C
$GPGGA,165011.3,4741.19901,N,12224.27684,W,1,08,1.0,-3.1,M,-18.2,M,,*41
$IIVWR,108,L,12.1,N,,,,*74
$GPVTG,350.5,T,334.0,M,000.36,N,0000.67,K,A*10
$HCHDG,97.9,0.0,E,,*1E
$YXXDR,A,5.1,D,PTCH,A,7.8,D,ROLL*56
$GPRMC,165011.4,A,4741.19901,N,12224.27684,W,000.36,350.5,151015,016.4,E,A*2B
$GPGGA,165011.4,4741.19901,N,12224.27684,W,1,08,1.0,-3.1,M,-18.2,M,,*46
$GPVTG,350.5,T,334.0,M,000.36,N,0000.67,K,A*10
$HCHDG,97.9,0.0,E,,*1E
$YXXDR,A,5.1,D,PTCH,A,8.0,D,ROLL*51
$GPRMC,165011.5,A,4741.19902,N,12224.27681,W,000.34,350.5,151015,016.4,E,A*2E
$IIMTW,+10.0,C*39
$GPGGA,165011.5,4741.19902,N,12224.27681,W,1,08,1.0,-3.1,M,-18.2,M,,*41
$GPVTG,350.5,T,334.0,M,000.34,N,0000.63,K,A*16
$HCHDG,97.9,0.0,E,,*1E
$YXXDR,A,5.1,D,PTCH,A,8.0,D,ROLL*51
$GPRMC,165011.6,A,4741.19902,N,12224.27681,W,000.35,350.6,151015,016.4,E,A*2F
$GPGGA,165011.6,4741.19902,N,12224.27681,W,1,08,1.0,-3.1,M,-18.2,M,,*42
$GPVTG,350.6,T,334.1,M,000.35,N,0000.64,K,A*12
$HCHDG,97.9,0.0,E,,*1E
$YXXDR,A,5.1,D,PTCH,A,7.8,D,ROLL*56
$GPRMC,165011.7,A,4741.19902,N,12224.27681,W,000.33,350.7,151015,016.4,E,A*29
$GPGGA,165011.7,4741.19902,N,12224.27681,W,1,08,1.0,-3.1,M,-18.2,M,,*43
$GPVTG,350.7,T,334.2,M,000.33,N,0000.62,K,A*10
$HCHDG,98.0,0.0,E,,*18
$YXXDR,A,5.2,D,PTCH,A,7.7,D,ROLL*5A
$TIROT,6.5,A*38
$GPRMC,165011.8,A,4741.19902,N,12224.27681,W,000.34,350.8,151015,016.4,E,A*2E
$GPGGA,165011.8,4741.19902,N,12224.27681,W,1,08,1.0,-3.1,M,-18.2,M,,*4C
$GPVTG,350.8,T,334.3,M,000.34,N,0000.63,K,A*18
$HCHDG,98.0,0.0,E,,*18
$YXXDR,A,5.2,D,PTCH,A,7.6,D,ROLL*5B
$GPRMC,165011.9,A,4741.19902,N,12224.27681,W,000.35,350.9,151015,016.4,E,A*2F
$GPGGA,165011.9,4741.19902,N,12224.27681,W,1,08,1.0,-3.1,M,-18.2,M,,*4D
$GPVTG,350.9,T,334.5,M,000.35,N,0000.65,K,A*18
$HCHDG,98.0,0.0,E,,*18
$IIMWV,255,R,11.7,N,A*16
$YXXDR,A,5.3,D,PTCH,A,7.5,D,ROLL*59
$GPRMC,165012.0,A,4741.19902,N,12224.27681,W,000.33,351.0,151015,016.4,E,A*2B
$GPGGA,165012.0,4741.19902,N,12224.27681,W,1,08,1.0,-3.1,M,-18.2,M,,*47
$IIMWV,252,T,12.1,N,A*12
$GPVTG,351.0,T,334.6,M,000.33,N,0000.61,K,A*11
$GPGSA,A,3,12,25,06,02,29,05,24,31,,,,,1.7,1.0,1.3*3D
$HCHDG,98.0,0.0,E,,*18
$YXXDR,A,5.2,D,PTCH,A,7.5,D,ROLL*58
$GPRMC,165012.1,A,4741.19902,N,12224.27681,W,000.31,351.1,151015,016.4,E,A*29
$GPGGA,165012.1,4741.19902,N,12224.27681,W,1,08,1.0,-3.1,M,-18.2,M,,*46
$GPVTG,351.1,T,334.7,M,000.31,N,0000.57,K,A*16
$GPGSV,2,1,08,12,79,172,44,25,55,302,43,06,39,053,42,02,75,093,46*7E
$HCHDG,98.0,0.0,E,,*18
$GPGSV,2,2,08,29,25,274,46,05,20,146,34,24,15,206,30,31,13,326,33*7F
$YXXDR,A,5.2,D,PTCH,A,7.5,D,ROLL*58
$GPRMC,165012.2,A,4741.19902,N,12224.27681,W,000.27,351.2,151015,016.4,E,A*2E
$IIVHW,,,,,00.0,N,,*19
$GPGGA,165012.2,4741.19902,N,12224.27681,W,1,08,1.0,-3.1,M,-18.2,M,,*45
$GPVTG,351.2,T,334.8,M,000.27,N,0000.49,K,A*12
$HCHDG,98.1,0.0,E,,*19
$IIVLW,07374,N,000.0,N*54
$YXXDR,A,5.2,D,PTCH,A,7.6,D,ROLL*5B
$GPRMC,165012.3,A,4741.19902,N,12224.27681,W,000.26,351.3,151015,016.4,E,A*2F
$GPGGA,165012.3,4741.19902,N,12224.27681,W,1,08,1.0,-3.1,M,-18.2,M,,*44
$IIVWR,105,L,11.7,N,,,,*7C
$GPVTG,351.3,T,334.9,M,000.26,N,0000.49,K,A*13
$HCHDG,98.1,0.0,E,,*19
$YXXDR,A,5.1,D,PTCH,A,7.8,D,ROLL*56
$GPRMC,165012.4,A,4741.19902,N,12224.27681,W,000.23,351.4,151015,016.4,E,A*2A
$GPGGA,165012.4,4741.19902,N,12224.27681,W,1,08,1.0,-3.1,M,-18.2,M,,*43
$GPVTG,351.4,T,335.0,M,000.23,N,0000.43,K,A*13
$HCHDG,98.4,0.0,E,,*1C
$YXXDR,A,5.1,D,PTCH,A,8.1,D,ROLL*50
$GPRMC,165012.5,A,4741.19896,N,12224.27659,W,000.49,351.6,151015,016.4,E,A*2C
$IIMTW,+10.0,C*39
$GPGGA,165012.5,4741.19896,N,12224.27659,W,1,08,1.0,-3.1,M,-18.2,M,,*4B
$GPVTG,351.6,T,335.1,M,000.49,N,0000.91,K,A*13
$HCHDG,98.4,0.0,E,,*1C
$YXXDR,A,5.2,D,PTCH,A,8.2,D,ROLL*50
$GPRMC,165012.6,A,4741.19896,N,12224.27659,W,000.50,351.6,151015,016.4,E,A*27
$GPGGA,165012.6,4741.19896,N,12224.27659,W,1,08,1.0,-3.1,M,-18.2,M,,*48
$GPVTG,351.6,T,335.1,M,000.50,N,0000.93,K,A*19
$HCHDG,98.4,0.0,E,,*1C
$YXXDR,A,5.1,D,PTCH,A,8.2,D,ROLL*53
$GPRMC,165012.7,A,4741.19896,N,12224.27659,W,000.11,351.6,151015,016.4,E,A*23
$GPGGA,165012.7,4741.19896,N,12224.27659,W,1,08,1.0,-3.1,M,-18.2,M,,*49
$GPVTG,351.6,T,335.1,M,000.11,N,0000.21,K,A*15
$HCHDG,98.3,0.0,E,,*1B
$YXXDR,A,5.2,D,PTCH,A,8.4,D,ROLL*56
$TIROT,21.1,A*09
$GPRMC,165012.8,A,4741.19896,N,12224.27659,W,000.55,351.6,151015,016.4,E,A*2C
$GPGGA,165012.8,4741.19896,N,12224.27659,W,1,08,1.0,-3.1,M,-18.2,M,,*46
$GPVTG,351.6,T,335.1,M,000.55,N,0001.01,K,A*16
$HCHDG,98.3,0.0,E,,*1B
$YXXDR,A,5.1,D,PTCH,A,8.4,D,ROLL*55
$GPRMC,165012.9,A,4741.19896,N,12224.27659,W,000.49,351.6,151015,016.4,E,A*20
$GPGGA,165012.9,4741.19896,N,12224.27659,W,1,08,1.0,-3.1,M,-18.2,M,,*47
$GPVTG,351.6,T,335.1,M,000.49,N,0000.90,K,A*12
$HCHDG,98.4,0.0,E,,*1C
$IIMWV,254,R,11.6,N,A*16
$YXXDR,A,5.2,D,PTCH,A,8.4,D,ROLL*56
$GPRMC,165013.0,A,4741.19896,N,12224.27659,W,000.42,351.6,151015,016.4,E,A*23
$IIMWV,255,T,11.7,N,A*10
$GPGGA,165013.0,4741.19896,N,12224.27659,W,1,08,1.0,-3.1,M,-18.2,M,,*4F
$GPVTG,351.6,T,335.1,M,000.42,N,0000.78,K,A*1F
$GPGSA,A,3,12,25,06,02,29,05,24,31,,,,,1.7,1.0,1.3*3D
$HCHDG,98.5,0.0,E,,*1D
$YXXDR,A,5.2,D,PTCH,A,8.4,D,ROLL*56
$GPRMC,165013.1,A,4741.19899,N,12224.27658,W,000.40,351.6,151015,016.4,E,A*2E
$GPGGA,165013.1,4741.19899,N,12224.27658,W,1,08,1.0,-3.0,M,-18.2,M,,*41
$GPVTG,351.6,T,335.1,M,000.40,N,0000.75,K,A*10
$GPGSV,2,1,08,12,79,172,45,25,55,302,43,06,39,053,41,02,75,093,46*7C
$GPGSV,2,2,08,29,25,274,46,05,20,146,33,24,15,206,32,31,13,326,33*7A
$GPRMC,165013.2,A,4741.19899,N,12224.27658,W,000.35,351.6,151015,016.4,E,A*2F
$GPGGA,165013.2,4741.19899,N,12224.27658,W,1,08,1.0,-3.0,M,-18.2,M,,*42
$GPVTG,351.6,T,335.1,M,000.35,N,0000.66,K,A*10
$IIVHW,,,,,00.0,N,,*19
$IIVLW,07374,N,000.0,N*54
$HCHDG,98.5,0.0,E,,*1D
$YXXDR,A,5.2,D,PTCH,A,8.4,D,ROLL*56
$HCHDG,98.7,0.0,E,,*1F
$YXXDR,A,5.2,D,PTCH,A,8.2,D,ROLL*50
$GPRMC,165013.3,A,4741.19899,N,12224.27658,W,000.32,351.6,151015,016.4,E,A*29
$GPGGA,165013.3,4741.19899,N,12224.27658,W,1,08,1.0,-3.0,M,-18.2,M,,*43
$GPVTG,351.6,T,335.1,M,000.32,N,0000.59,K,A*1B
$IIVWR,106,L,11.6,N,,,,*7E
$HCHDG,98.7,0.0,E,,*1F
$YXXDR,A,5.2,D,PTCH,A,8.2,D,ROLL*50
$GPRMC,165013.4,A,4741.19899,N,12224.27658,W,000.34,351.6,151015,016.4,E,A*28
$GPGGA,165013.4,4741.19899,N,12224.27658,W,1,08,1.0,-3.0,M,-18.2,M,,*44
$GPVTG,351.6,T,335.1,M,000.34,N,0000.63,K,A*14
$HCHDG,98.8,0.0,E,,*10
$YXXDR,A,5.2,D,PTCH,A,8.2,D,ROLL*50
$IIMTW,+10.5,C*3C
$GPRMC,165013.5,A,4741.19899,N,12224.27658,W,000.39,351.6,151015,016.4,E,A*24
$GPGGA,165013.5,4741.19899,N,12224.27658,W,1,08,1.0,-3.0,M,-18.2,M,,*45
$GPVTG,351.6,T,335.1,M,000.39,N,0000.72,K,A*19
$HCHDG,98.8,0.0,E,,*10
$YXXDR,A,5.1,D,PTCH,A,8.2,D,ROLL*53
$GPRMC,165013.6,A,4741.19899,N,12224.27658,W,000.17,352.5,151015,016.4,E,A*2B
$GPGGA,165013.6,4741.19899,N,12224.27658,W,1,08,1.0,-3.0,M,-18.2,M,,*46
$GPVTG,352.5,T,336.1,M,000.17,N,0000.31,K,A*11
$HCHDG,98.9,0.0,E,,*11
$YXXDR,A,5.0,D,PTCH,A,8.4,D,ROLL*54
$GPRMC,165013.7,A,4741.19899,N,12224.27658,W,000.19,352.5,151015,016.4,E,A*24
$GPGGA,165013.7,4741.19899,N,12224.27658,W,1,08,1.0,-3.0,M,-18.2,M,,*47
$GPVTG,352.5,T,336.1,M,000.19,N,0000.35,K,A*1B
$HCHDG,99.3,0.0,E,,*1A
$YXXDR,A,5.0,D,PTCH,A,8.4,D,ROLL*54
$TIROT,63.5,A*0B
