$HCHDG,88.2,0.0,E,,*1B
$GPRMC,225959.4,A,4741.19780,N,12224.27667,W,000.17,047.7,161015,016.4,E,A*24
$YXXDR,A,5.6,D,PTCH,A,3.6,D,ROLL*5B
$GPGGA,225959.4,4741.19780,N,12224.27667,W,1,08,1.0,-6.5,M,-18.2,M,,*4F
$GPVTG,047.7,T,031.2,M,000.17,N,0000.31,K,A*13
$HCHDG,88.2,0.0,E,,*1B
$GPRMC,225959.5,A,4741.19780,N,12224.27667,W,000.18,047.7,161015,016.4,E,A*2A
$YXXDR,A,5.6,D,PTCH,A,3.7,D,ROLL*5A
$GPGGA,225959.5,4741.19780,N,12224.27667,W,1,08,1.0,-6.5,M,-18.2,M,,*4E
$GPVTG,047.7,T,031.2,M,000.18,N,0000.33,K,A*1E
$HCHDG,88.3,0.0,E,,*1A
$GPRMC,225959.6,A,4741.19780,N,12224.27667,W,000.23,047.7,161015,016.4,E,A*21
$YXXDR,A,5.7,D,PTCH,A,3.5,D,ROLL*59
$TIROT,10.6,A*0C
$GPGGA,225959.6,4741.19780,N,12224.27667,W,1,08,1.0,-6.5,M,-18.2,M,,*4D
$GPVTG,047.7,T,031.2,M,000.23,N,0000.43,K,A*11
$HCHDG,88.3,0.0,E,,*1A
$GPRMC,225959.7,A,4741.19780,N,12224.27667,W,000.27,047.7,161015,016.4,E,A*24
$YXXDR,A,5.7,D,PTCH,A,3.5,D,ROLL*59
$GPGGA,225959.7,4741.19780,N,12224.27667,W,1,08,1.0,-6.5,M,-18.2,M,,*4C
$GPVTG,047.7,T,031.2,M,000.27,N,0000.49,K,A*1F
$HCHDG,88.3,0.0,E,,*1A
$GPRMC,225959.8,A,4741.19780,N,12224.27665,W,000.25,047.7,161015,016.4,E,A*2B
$YXXDR,A,5.8,D,PTCH,A,3.5,D,ROLL*56
$GPGGA,225959.8,4741.19780,N,12224.27665,W,1,08,1.0,-6.5,M,-18.2,M,,*41
$GPVTG,047.7,T,031.2,M,000.25,N,0000.46,K,A*12
$HCHDG,88.0,0.0,E,,*19
$GPRMC,225959.9,A,4741.19780,N,12224.27665,W,000.22,047.7,161015,016.4,E,A*2D
$YXXDR,A,5.8,D,PTCH,A,3.5,D,ROLL*56
$GPGGA,225959.9,4741.19780,N,12224.27665,W,1,08,1.0,-6.5,M,-18.2,M,,*40
$GPVTG,047.7,T,031.2,M,000.22,N,0000.41,K,A*12
$HCHDG,88.0,0.0,E,,*19
$GPRMC,230000.0,A,4741.19780,N,12224.27665,W,000.20,047.7,161015,016.4,E,A*27
$YXXDR,A,5.7,D,PTCH,A,3.5,D,ROLL*59
$GPGGA,230000.0,4741.19780,N,12224.27665,W,1,08,1.0,-6.5,M,-18.2,M,,*48
$GPVTG,047.7,T,031.2,M,000.20,N,0000.37,K,A*11
$GPGSA,A,3,22,14,08,21,27,16,18,15,,,,,1.7,1.0,1.4*31
$HCHDG,88.1,0.0,E,,*18
$YXXDR,A,5.7,D,PTCH,A,3.5,D,ROLL*59
$GPRMC,230000.1,A,4741.19780,N,12224.27665,W,000.19,047.7,161015,016.4,E,A*2C
$GPGGA,230000.1,4741.19780,N,12224.27665,W,1,08,1.0,-6.5,M,-18.2,M,,*49
$GPVTG,047.7,T,031.2,M,000.19,N,0000.36,K,A*1A
$GPGSV,2,1,08,22,64,257,49,14,27,182,32,08,26,313,41,21,51,115,42*7B
$GPGSV,2,2,08,27,51,278,51,16,05,243,37,18,72,059,48,15,26,049,29*70
$HCHDG,88.1,0.0,E,,*18
$IIRMB,A,0.00,0,W,X,4741.196000,N,12224.276000,E,1.0,105,3.00,V*76
$YXXDR,A,5.7,D,PTCH,A,3.5,D,ROLL*59
$GPRMC,230000.2,A,4741.19780,N,12224.27665,W,000.18,047.7,161015,016.4,E,A*2E
$GPGGA,230000.2,4741.19780,N,12224.27665,W,1,08,1.0,-6.5,M,-18.2,M,,*4A
$GPVTG,047.7,T,031.2,M,000.18,N,0000.34,K,A*19
$PGRMT,GPS19x-HVS Software Version 2.20,,,,,,,,*6F
$HCHDG,88.1,0.0,E,,*18
$GPRMC,230000.3,A,4741.19780,N,12224.27665,W,000.18,047.7,161015,016.4,E,A*2F
$YXXDR,A,5.7,D,PTCH,A,3.5,D,ROLL*59
$GPGGA,230000.3,4741.19780,N,12224.27665,W,1,07,1.5,-6.5,M,-18.2,M,,*41
$GPVTG,047.7,T,031.2,M,000.18,N,0000.34,K,A*19
$HCHDG,88.1,0.0,E,,*18
$GPRMC,230000.4,A,4741.19780,N,12224.27665,W,000.17,047.7,161015,016.4,E,A*27
$YXXDR,A,5.6,D,PTCH,A,3.8,D,ROLL*55
$GPGGA,230000.4,4741.19780,N,12224.27665,W,1,07,1.5,-6.5,M,-18.2,M,,*46
$GPVTG,047.7,T,031.2,M,000.17,N,0000.31,K,A*13
$HCHDG,88.1,0.0,E,,*18
$GPRMC,230000.5,A,4741.19780,N,12224.27665,W,000.17,047.7,161015,016.4,E,A*26
$YXXDR,A,5.6,D,PTCH,A,3.8,D,ROLL*55
$GPGGA,230000.5,4741.19780,N,12224.27665,W,1,07,1.5,-6.5,M,-18.2,M,,*47
$GPVTG,047.7,T,031.2,M,000.17,N,0000.32,K,A*10
$HCHDG,88.0,0.0,E,,*19
$GPRMC,230000.6,A,4741.19780,N,12224.27665,W,000.17,047.7,161015,016.4,E,A*25
$YXXDR,A,5.6,D,PTCH,A,3.8,D,ROLL*55
$TIROT,-5.8,A*1B
$GPGGA,230000.6,4741.19780,N,12224.27665,W,1,07,1.5,-6.5,M,-18.2,M,,*44
$GPVTG,047.7,T,031.2,M,000.17,N,0000.31,K,A*13
$HCHDG,88.0,0.0,E,,*19
$YXXDR,A,5.6,D,PTCH,A,4.0,D,ROLL*5A
$GPRMC,230000.7,A,4741.19780,N,12224.27665,W,000.18,047.7,161015,016.4,E,A*2B
$GPGGA,230000.7,4741.19780,N,12224.27665,W,1,07,1.5,-6.5,M,-18.2,M,,*45
$GPVTG,047.7,T,031.2,M,000.18,N,0000.33,K,A*1E
$HCHDG,88.0,0.0,E,,*19
$YXXDR,A,5.6,D,PTCH,A,4.0,D,ROLL*5A
$GPRMC,230000.8,A,4741.19781,N,12224.27664,W,000.15,047.7,161015,016.4,E,A*29
$GPGGA,230000.8,4741.19781,N,12224.27664,W,1,07,1.5,-6.5,M,-18.2,M,,*4A
$GPVTG,047.7,T,031.2,M,000.15,N,0000.28,K,A*19
$HCHDG,88.0,0.0,E,,*19
$YXXDR,A,5.6,D,PTCH,A,3.8,D,ROLL*55
$GPRMC,230000.9,A,4741.19781,N,12224.27664,W,000.16,047.7,161015,016.4,E,A*2B
$GPGGA,230000.9,4741.19781,N,12224.27664,W,1,07,1.5,-6.5,M,-18.2,M,,*4B
$GPVTG,047.7,T,031.2,M,000.16,N,0000.30,K,A*13
$GPRMC,230001.0,A,4741.19781,N,12224.27664,W,000.14,047.7,161015,016.4,E,A*21
$GPGGA,230001.0,4741.19781,N,12224.27664,W,1,07,1.5,-6.5,M,-18.2,M,,*43
$HCHDG,88.0,0.0,E,,*19
$GPVTG,047.7,T,031.2,M,000.14,N,0000.26,K,A*16
$GPGSA,A,3,22,14,08,21,27,16,18,,,,,,2.4,1.5,1.9*3D
$GPGSV,2,1,07,22,64,257,49,14,27,182,31,08,26,313,42,21,51,115,41*77
$YXXDR,A,5.6,D,PTCH,A,3.8,D,ROLL*55
$GPGSV,2,2,07,27,51,278,51,16,05,243,38,18,72,059,48*46
$GPRMC,230001.1,A,4741.19781,N,12224.27664,W,000.13,047.7,161015,016.4,E,A*27
$GPGGA,230001.1,4741.19781,N,12224.27664,W,1,07,1.5,-6.5,M,-18.2,M,,*42
$HCHDG,88.0,0.0,E,,*19
$IIRMB,A,0.00,0,W,X,4741.196000,N,12224.276000,E,1.0,104,3.00,V*77
$GPVTG,047.7,T,031.2,M,000.13,N,0000.24,K,A*13
$YXXDR,A,5.6,D,PTCH,A,3.8,D,ROLL*55
$GPRMC,230001.2,A,4741.19781,N,12224.27664,W,000.13,047.7,161015,016.4,E,A*24
$GPGGA,230001.2,4741.19781,N,12224.27664,W,1,07,1.5,-6.5,M,-18.2,M,,*41
$HCHDG,88.0,0.0,E,,*19
$GPVTG,047.7,T,031.2,M,000.13,N,0000.23,K,A*14
$YXXDR,A,5.6,D,PTCH,A,3.8,D,ROLL*55
$GPRMC,230001.3,A,4741.19781,N,12224.27664,W,000.13,047.7,161015,016.4,E,A*25
$GPGGA,230001.3,4741.19781,N,12224.27664,W,1,07,1.5,-6.5,M,-18.2,M,,*40
$GPVTG,047.7,T,031.2,M,000.13,N,0000.25,K,A*12
$HCHDG,88.0,0.0,E,,*19
$YXXDR,A,5.6,D,PTCH,A,3.7,D,ROLL*5A
$GPRMC,230001.4,A,4741.19781,N,12224.27664,W,000.14,047.7,161015,016.4,E,A*25
$GPGGA,230001.4,4741.19781,N,12224.27664,W,1,07,1.5,-6.5,M,-18.2,M,,*47
$HCHDG,88.0,0.0,E,,*19
$GPVTG,047.7,T,031.2,M,000.14,N,0000.25,K,A*15
$YXXDR,A,5.6,D,PTCH,A,3.7,D,ROLL*5A
$GPRMC,230001.5,A,4741.19781,N,12224.27664,W,000.14,047.7,161015,016.4,E,A*24
$GPGGA,230001.5,4741.19781,N,12224.27664,W,1,07,1.5,-6.5,M,-18.2,M,,*46
$HCHDG,88.0,0.0,E,,*19
$GPVTG,047.7,T,031.2,M,000.14,N,0000.26,K,A*16
$YXXDR,A,5.6,D,PTCH,A,3.7,D,ROLL*5A
$GPRMC,230001.6,A,4741.19781,N,12224.27664,W,000.12,047.7,161015,016.4,E,A*21
$GPGGA,230001.6,4741.19781,N,12224.27664,W,1,07,1.5,-6.5,M,-18.2,M,,*45
$HCHDG,88.0,0.0,E,,*19
$GPVTG,047.7,T,031.2,M,000.12,N,0000.23,K,A*15
$YXXDR,A,5.6,D,PTCH,A,3.7,D,ROLL*5A
$TIROT,-12.9,A*2C
$GPRMC,230001.7,A,4741.19781,N,12224.27664,W,000.11,047.7,161015,016.4,E,A*23
$GPGGA,230001.7,4741.19781,N,12224.27664,W,1,07,1.5,-6.5,M,-18.2,M,,*44
$HCHDG,88.0,0.0,E,,*19
$GPVTG,047.7,T,031.2,M,000.11,N,0000.21,K,A*14
$YXXDR,A,5.6,D,PTCH,A,3.8,D,ROLL*55
$GPRMC,230001.8,A,4741.19781,N,12224.27664,W,000.13,047.7,161015,016.4,E,A*2E
$GPGGA,230001.8,4741.19781,N,12224.27664,W,1,07,1.5,-6.5,M,-18.2,M,,*4B
$HCHDG,88.0,0.0,E,,*19
$GPVTG,047.7,T,031.2,M,000.13,N,0000.24,K,A*13
$YXXDR,A,5.6,D,PTCH,A,3.8,D,ROLL*55
$GPRMC,230001.9,A,4741.19781,N,12224.27662,W,000.11,047.7,161015,016.4,E,A*2B
$GPGGA,230001.9,4741.19781,N,12224.27662,W,1,07,1.5,-6.5,M,-18.2,M,,*4C
$HCHDG,88.3,0.0,E,,*1A
$YXXDR,A,5.5,D,PTCH,A,3.8,D,ROLL*56
$GPVTG,047.7,T,031.2,M,000.11,N,0000.21,K,A*14
$GPRMC,230002.0,A,4741.19781,N,12224.27662,W,000.11,047.7,161015,016.4,E,A*21
$GPGGA,230002.0,4741.19781,N,12224.27662,W,1,07,1.5,-6.5,M,-18.2,M,,*46
$HCHDG,88.2,0.0,E,,*1B
$IIRMB,A,0.00,0,W,X,4741.196000,N,12224.276000,E,1.0,105,3.00,V*76
$YXXDR,A,5.5,D,PTCH,A,3.8,D,ROLL*56
$GPVTG,047.7,T,031.2,M,000.11,N,0000.20,K,A*15
$GPGSA,A,3,22,14,08,21,27,16,18,,,,,,2.4,1.5,1.9*3D
$GPGSV,2,1,07,22,64,257,49,14,27,182,29,08,26,313,42,21,51,115,41*7E
$GPGSV,2,2,07,27,51,278,51,16,05,243,37,18,72,059,48*49
$GPRMC,230002.1,A,4741.19781,N,12224.27662,W,000.11,047.7,161015,016.4,E,A*20
$GPGGA,230002.1,4741.19781,N,12224.27662,W,1,07,1.5,-6.5,M,-18.2,M,,*47
$HCHDG,88.2,0.0,E,,*1B
$GPVTG,047.7,T,031.2,M,000.11,N,0000.20,K,A*15
$YXXDR,A,5.5,D,PTCH,A,3.8,D,ROLL*56
$GPRMC,230002.2,A,4741.19781,N,12224.27662,W,000.12,047.7,161015,016.4,E,A*20
$GPGGA,230002.2,4741.19781,N,12224.27662,W,1,06,1.7,-6.5,M,-18.2,M,,*47
$HCHDG,88.2,0.0,E,,*1B
$GPVTG,047.7,T,031.2,M,000.12,N,0000.23,K,A*15
$YXXDR,A,5.5,D,PTCH,A,3.8,D,ROLL*56
$GPRMC,230002.3,A,4741.19781,N,12224.27662,W,000.12,047.7,161015,016.4,E,A*21
$GPGGA,230002.3,4741.19781,N,12224.27662,W,1,06,1.7,-6.5,M,-18.2,M,,*46
$HCHDG,88.2,0.0,E,,*1B
$GPVTG,047.7,T,031.2,M,000.12,N,0000.23,K,A*15
$YXXDR,A,5.5,D,PTCH,A,3.8,D,ROLL*56
$GPRMC,230002.4,A,4741.19781,N,12224.27662,W,000.13,047.7,161015,016.4,E,A*27
$GPGGA,230002.4,4741.19781,N,12224.27662,W,1,06,1.7,-6.5,M,-18.2,M,,*41
$HCHDG,88.2,0.0,E,,*1B
$GPVTG,047.7,T,031.2,M,000.13,N,0000.24,K,A*13
$YXXDR,A,5.5,D,PTCH,A,3.8,D,ROLL*56
$GPRMC,230002.5,A,4741.19781,N,12224.27662,W,000.14,047.7,161015,016.4,E,A*21
$GPGGA,230002.5,4741.19781,N,12224.27662,W,1,06,1.7,-6.5,M,-18.2,M,,*40
$HCHDG,88.3,0.0,E,,*1A
$GPVTG,047.7,T,031.2,M,000.14,N,0000.27,K,A*17
$YXXDR,A,5.6,D,PTCH,A,3.8,D,ROLL*55
$GPRMC,230002.6,A,4741.19781,N,12224.27662,W,000.14,047.7,161015,016.4,E,A*22
$GPGGA,230002.6,4741.19781,N,12224.27662,W,1,06,1.7,-6.5,M,-18.2,M,,*43
$HCHDG,88.0,0.0,E,,*19
$GPVTG,047.7,T,031.2,M,000.14,N,0000.26,K,A*16
$YXXDR,A,5.8,D,PTCH,A,3.6,D,ROLL*55
$TIROT,-19.9,A*27
$GPRMC,230002.7,A,4741.19781,N,12224.27662,W,000.15,047.7,161015,016.4,E,A*22
$GPGGA,230002.7,4741.19781,N,12224.27662,W,1,06,1.7,-6.5,M,-18.2,M,,*42
$HCHDG,87.9,0.0,E,,*1F
$GPVTG,047.7,T,031.2,M,000.15,N,0000.28,K,A*19
$YXXDR,A,5.8,D,PTCH,A,3.6,D,ROLL*55
$GPRMC,230002.8,A,4741.19781,N,12224.27662,W,000.18,047.7,161015,016.4,E,A*20
$HCHDG,87.9,0.0,E,,*1F
$GPGGA,230002.8,4741.19781,N,12224.27662,W,1,06,1.7,-6.5,M,-18.2,M,,*4D
$GPVTG,047.7,T,031.2,M,000.18,N,0000.33,K,A*1E
$YXXDR,A,5.8,D,PTCH,A,3.6,D,ROLL*55
$GPRMC,230002.9,A,4741.19780,N,12224.27661,W,000.22,047.7,161015,016.4,E,A*2A
$HCHDG,87.8,0.0,E,,*1E
$GPGGA,230002.9,4741.19780,N,12224.27661,W,1,06,1.7,-6.5,M,-18.2,M,,*4E
$GPVTG,047.7,T,031.2,M,000.22,N,0000.41,K,A*12
$YXXDR,A,5.8,D,PTCH,A,3.5,D,ROLL*56
$GPRMC,230003.0,A,4741.19780,N,12224.27661,W,000.01,047.7,161015,016.4,E,A*23
$GPGGA,230003.0,4741.19780,N,12224.27661,W,1,06,1.7,-6.5,M,-18.2,M,,*46
$HCHDG,87.8,0.0,E,,*1E
$IIRMB,A,0.00,0,W,X,4741.196000,N,12224.276000,E,1.0,104,3.00,V*77
$GPVTG,047.7,T,031.2,M,000.01,N,0000.01,K,A*17
$YXXDR,A,5.7,D,PTCH,A,3.5,D,ROLL*59
$GPGSA,A,3,22,08,21,27,16,18,,,,,,,2.5,1.7,1.9*3B
$GPGSV,2,1,06,22,64,257,49,08,26,313,42,21,51,115,41,27,51,278,51*77
$GPGSV,2,2,06,16,05,243,37,18,72,059,49*71
$GPRMC,230003.1,A,4741.19780,N,12224.27661,W,000.04,047.7,161015,016.4,E,A*27
$HCHDG,87.8,0.0,E,,*1E
$GPGGA,230003.1,4741.19780,N,12224.27661,W,1,06,1.7,-6.5,M,-18.2,M,,*47
$GPVTG,047.7,T,031.2,M,000.04,N,0000.07,K,A*14
$YXXDR,A,5.7,D,PTCH,A,3.5,D,ROLL*59
$GPRMC,230003.2,A,4741.19780,N,12224.27661,W,000.05,047.7,161015,016.4,E,A*25
$HCHDG,87.8,0.0,E,,*1E
$GPGGA,230003.2,4741.19780,N,12224.27661,W,1,06,1.7,-6.5,M,-18.2,M,,*44
$YXXDR,A,5.7,D,PTCH,A,3.5,D,ROLL*59
$GPVTG,047.7,T,031.2,M,000.05,N,0000.09,K,A*1B
$GPRMC,230003.3,A,4741.19780,N,12224.27661,W,000.06,047.7,161015,016.4,E,A*27
$HCHDG,87.8,0.0,E,,*1E
$GPGGA,230003.3,4741.19780,N,12224.27661,W,1,06,1.7,-6.5,M,-18.2,M,,*45
$GPVTG,047.7,T,031.2,M,000.06,N,0000.11,K,A*11
$YXXDR,A,5.6,D,PTCH,A,3.6,D,ROLL*5B
$GPRMC,230003.4,A,4741.19780,N,12224.27661,W,000.07,047.7,161015,016.4,E,A*21
$HCHDG,88.0,0.0,E,,*19
$GPGGA,230003.4,4741.19780,N,12224.27661,W,1,06,1.7,-6.5,M,-18.2,M,,*42
$YXXDR,A,5.5,D,PTCH,A,3.8,D,ROLL*56
$GPVTG,047.7,T,031.2,M,000.07,N,0000.14,K,A*15
$GPRMC,230003.5,A,4741.19780,N,12224.27661,W,000.07,047.7,161015,016.4,E,A*20
$HCHDG,88.0,0.0,E,,*19
$GPGGA,230003.5,4741.19780,N,12224.27661,W,1,06,1.7,-6.5,M,-18.2,M,,*43
$YXXDR,A,5.4,D,PTCH,A,3.8,D,ROLL*57
$GPVTG,047.7,T,031.2,M,000.07,N,0000.13,K,A*12
$GPRMC,230003.6,A,4741.19780,N,12224.27661,W,000.12,047.7,161015,016.4,E,A*27
$HCHDG,88.0,0.0,E,,*19
$GPGGA,230003.6,4741.19780,N,12224.27661,W,1,06,1.7,-6.5,M,-18.2,M,,*40
$YXXDR,A,5.4,D,PTCH,A,4.0,D,ROLL*58
$GPVTG,047.7,T,031.2,M,000.12,N,0000.22,K,A*14
$TIROT,-5.8,A*1B
$GPRMC,230003.7,A,4741.19780,N,12224.27661,W,000.13,047.7,161015,016.4,E,A*27
$HCHDG,88.0,0.0,E,,*19
$GPGGA,230003.7,4741.19780,N,12224.27661,W,1,06,1.7,-6.5,M,-18.2,M,,*41
$YXXDR,A,5.4,D,PTCH,A,4.0,D,ROLL*58
$GPVTG,047.7,T,031.2,M,000.13,N,0000.24,K,A*13
$GPRMC,230003.8,A,4741.19780,N,12224.27661,W,000.14,047.7,161015,016.4,E,A*2F
$HCHDG,88.0,0.0,E,,*19
$GPGGA,230003.8,4741.19780,N,12224.27661,W,1,06,1.7,-6.5,M,-18.2,M,,*4E
$YXXDR,A,5.4,D,PTCH,A,4.0,D,ROLL*58
$GPVTG,047.7,T,031.2,M,000.14,N,0000.26,K,A*16
$GPRMC,230003.9,A,4741.19782,N,12224.27659,W,000.15,047.7,161015,016.4,E,A*26
$HCHDG,88.0,0.0,E,,*19
$YXXDR,A,5.4,D,PTCH,A,4.0,D,ROLL*58
$GPGGA,230003.9,4741.19782,N,12224.27659,W,1,06,1.7,-6.5,M,-18.2,M,,*46
$GPVTG,047.7,T,031.2,M,000.15,N,0000.28,K,A*19
$GPRMC,230004.0,A,4741.19782,N,12224.27659,W,000.17,047.7,161015,016.4,E,A*2A
$GPGGA,230004.0,4741.19782,N,12224.27659,W,1,06,1.7,-6.5,M,-18.2,M,,*48
$GPVTG,047.7,T,031.2,M,000.17,N,0000.31,K,A*13
$HCHDG,88.0,0.0,E,,*19
$IIRMB,A,0.00,0,W,X,4741.196000,N,12224.276000,E,1.0,104,3.00,V*77
$YXXDR,A,5.6,D,PTCH,A,3.9,D,ROLL*54
$GPGSA,A,3,22,08,21,27,16,18,,,,,,,2.5,1.7,1.9*3B
$GPGSV,2,1,06,22,64,257,49,08,26,313,43,21,51,115,41,27,51,278,51*76
$GPGSV,2,2,06,16,05,243,38,18,72,059,49*7E
$GPRMC,230004.1,A,4741.19782,N,12224.27659,W,000.18,047.7,161015,016.4,E,A*24
$GPGGA,230004.1,4741.19782,N,12224.27659,W,1,06,1.7,-6.5,M,-18.2,M,,*49
$GPVTG,047.7,T,031.2,M,000.18,N,0000.34,K,A*19
$HCHDG,88.0,0.0,E,,*19
$YXXDR,A,5.6,D,PTCH,A,3.9,D,ROLL*54
$GPRMC,230004.2,A,4741.19782,N,12224.27659,W,000.18,047.7,161015,016.4,E,A*27
$HCHDG,88.0,0.0,E,,*19
$YXXDR,A,5.5,D,PTCH,A,3.8,D,ROLL*56
$GPGGA,230004.2,4741.19782,N,12224.27659,W,1,06,1.7,-6.5,M,-18.2,M,,*4A
$GPVTG,047.7,T,031.2,M,000.18,N,0000.33,K,A*1E
$GPRMC,230004.3,A,4741.19782,N,12224.27659,W,000.17,047.7,161015,016.4,E,A*29
$HCHDG,88.0,0.0,E,,*19
$YXXDR,A,5.6,D,PTCH,A,3.8,D,ROLL*55
$GPGGA,230004.3,4741.19782,N,12224.27659,W,1,06,1.7,-6.5,M,-18.2,M,,*4B
$GPVTG,047.7,T,031.2,M,000.17,N,0000.31,K,A*13
$GPRMC,230004.4,A,4741.19782,N,12224.27659,W,000.17,047.7,161015,016.4,E,A*2E
$HCHDG,88.1,0.0,E,,*18
$YXXDR,A,5.6,D,PTCH,A,3.8,D,ROLL*55
$GPGGA,230004.4,4741.19782,N,12224.27659,W,1,06,1.7,-6.5,M,-18.2,M,,*4C
$GPVTG,047.7,T,031.2,M,000.17,N,0000.32,K,A*10
$GPRMC,230004.5,A,4741.19782,N,12224.27659,W,000.16,047.7,161015,016.4,E,A*2E
$HCHDG,88.0,0.0,E,,*19
$YXXDR,A,5.6,D,PTCH,A,3.8,D,ROLL*55
$GPGGA,230004.5,4741.19782,N,12224.27659,W,1,06,1.7,-6.5,M,-18.2,M,,*4D
$GPVTG,047.7,T,031.2,M,000.16,N,0000.30,K,A*13
$GPRMC,230004.6,A,4741.19782,N,12224.27659,W,000.16,047.7,161015,016.4,E,A*2D
$HCHDG,88.0,0.0,E,,*19
$YXXDR,A,5.5,D,PTCH,A,3.8,D,ROLL*56
$GPGGA,230004.6,4741.19782,N,12224.27659,W,1,06,1.7,-6.5,M,-18.2,M,,*4E
$TIROT,-7.0,A*11
$GPVTG,047.7,T,031.2,M,000.16,N,0000.30,K,A*13
$GPRMC,230004.7,A,4741.19780,N,12224.27655,W,000.65,047.7,161015,016.4,E,A*26
$HCHDG,88.0,0.0,E,,*19
$YXXDR,A,5.5,D,PTCH,A,3.8,D,ROLL*56
$GPGGA,230004.7,4741.19780,N,12224.27655,W,1,06,1.7,-6.5,M,-18.2,M,,*41
$GPVTG,047.7,T,031.2,M,000.65,N,0001.20,K,A*17
$GPRMC,230004.8,A,4741.19780,N,12224.27655,W,000.59,047.7,161015,016.4,E,A*26
$HCHDG,88.0,0.0,E,,*19
$YXXDR,A,5.6,D,PTCH,A,4.0,D,ROLL*5A
$GPGGA,230004.8,4741.19780,N,12224.27655,W,1,06,1.7,-6.5,M,-18.2,M,,*4E
$GPVTG,047.7,T,031.2,M,000.59,N,0001.09,K,A*13
$GPRMC,230004.9,A,4741.19780,N,12224.27655,W,000.51,047.7,161015,016.4,E,A*2F
$HCHDG,88.0,0.0,E,,*19
$YXXDR,A,5.6,D,PTCH,A,4.0,D,ROLL*5A
$GPGGA,230004.9,4741.19780,N,12224.27655,W,1,06,1.7,-6.5,M,-18.2,M,,*4F
$GPVTG,047.7,T,031.2,M,000.51,N,0000.94,K,A*1E
$GPRMC,230005.0,A,4741.19780,N,12224.27655,W,000.46,047.7,161015,016.4,E,A*21
$HCHDG,88.0,0.0,E,,*19
$IIRMB,A,0.00,0,W,X,4741.196000,N,12224.276000,E,1.0,104,3.00,V*77
$YXXDR,A,5.5,D,PTCH,A,4.2,D,ROLL*5B
$GPGGA,230005.0,4741.19780,N,12224.27655,W,1,06,1.7,-6.5,M,-18.2,M,,*47
$GPVTG,047.7,T,031.2,M,000.46,N,0000.84,K,A*19
$GPGSA,A,3,22,08,21,27,16,18,,,,,,,2.5,1.7,1.9*3B
$GPGSV,2,1,06,22,64,257,49,08,26,313,43,21,51,115,41,27,51,278,51*76
$GPGSV,2,2,06,16,05,243,38,18,72,059,49*7E
$HCHDG,88.0,0.0,E,,*19
$GPRMC,230005.1,A,4741.19781,N,12224.27654,W,000.42,047.7,161015,016.4,E,A*24
$GPGGA,230005.1,4741.19781,N,12224.27654,W,1,06,1.7,-6.5,M,-18.2,M,,*46
$YXXDR,A,5.5,D,PTCH,A,4.3,D,ROLL*5A
$GPVTG,047.7,T,031.2,M,000.42,N,0000.77,K,A*11
$GPRMC,230005.2,A,4741.19781,N,12224.27654,W,000.37,047.7,161015,016.4,E,A*25
$HCHDG,88.0,0.0,E,,*19
$YXXDR,A,5.6,D,PTCH,A,4.5,D,ROLL*5F
$GPGGA,230005.2,4741.19781,N,12224.27654,W,1,06,1.7,-6.5,M,-18.2,M,,*45
$GPVTG,047.7,T,031.2,M,000.37,N,0000.68,K,A*1D
$HCHDG,88.0,0.0,E,,*19
$GPRMC,230005.3,A,4741.19781,N,12224.27654,W,000.32,047.7,161015,016.4,E,A*21
$GPGGA,230005.3,4741.19781,N,12224.27654,W,1,06,1.7,-6.5,M,-18.2,M,,*44
$YXXDR,A,5.6,D,PTCH,A,4.4,D,ROLL*5E
$GPVTG,047.7,T,031.2,M,000.32,N,0000.60,K,A*10
$HCHDG,88.0,0.0,E,,*19
$GPRMC,230005.4,A,4741.19781,N,12224.27654,W,000.31,047.7,161015,016.4,E,A*25
$GPGGA,230005.4,4741.19781,N,12224.27654,W,1,06,1.7,-6.5,M,-18.2,M,,*43
$YXXDR,A,5.6,D,PTCH,A,4.3,D,ROLL*59
$GPVTG,047.7,T,031.2,M,000.31,N,0000.57,K,A*17
$HCHDG,87.9,0.0,E,,*1F
$GPRMC,230005.5,A,4741.19781,N,12224.27654,W,000.28,047.7,161015,016.4,E,A*2C
$GPGGA,230005.5,4741.19781,N,12224.27654,W,1,06,1.7,-6.5,M,-18.2,M,,*42
$YXXDR,A,5.5,D,PTCH,A,4.3,D,ROLL*5A
$GPVTG,047.7,T,031.2,M,000.28,N,0000.52,K,A*1A
$HCHDG,87.9,0.0,E,,*1F
$GPRMC,230005.6,A,4741.19781,N,12224.27654,W,000.26,047.7,161015,016.4,E,A*21
$GPGGA,230005.6,4741.19781,N,12224.27654,W,1,06,1.7,-6.5,M,-18.2,M,,*41
$YXXDR,A,5.6,D,PTCH,A,4.1,D,ROLL*5B
$TIROT,-11.7,A*21
$GPVTG,047.7,T,031.2,M,000.26,N,0000.48,K,A*1F
$HCHDG,87.9,0.0,E,,*1F
$GPRMC,230005.7,A,4741.19781,N,12224.27654,W,000.24,047.7,161015,016.4,E,A*22
$GPGGA,230005.7,4741.19781,N,12224.27654,W,1,06,1.7,-6.5,M,-18.2,M,,*40
$YXXDR,A,5.6,D,PTCH,A,4.0,D,ROLL*5A
$GPVTG,047.7,T,031.2,M,000.24,N,0000.45,K,A*10
$HCHDG,87.9,0.0,E,,*1F
$GPRMC,230005.8,A,4741.19781,N,12224.27654,W,000.23,047.7,161015,016.4,E,A*2A
$GPGGA,230005.8,4741.19781,N,12224.27654,W,1,06,1.7,-6.5,M,-18.2,M,,*4F
$YXXDR,A,5.6,D,PTCH,A,4.0,D,ROLL*5A
$GPVTG,047.7,T,031.2,M,000.23,N,0000.42,K,A*10
$HCHDG,87.9,0.0,E,,*1F
$GPRMC,230005.9,A,4741.19781,N,12224.27654,W,000.21,047.7,161015,016.4,E,A*29
$GPGGA,230005.9,4741.19781,N,12224.27654,W,1,06,1.7,-6.5,M,-18.2,M,,*4E
$YXXDR,A,5.6,D,PTCH,A,3.8,D,ROLL*55
$GPVTG,047.7,T,031.2,M,000.21,N,0000.39,K,A*1E
$HCHDG,87.7,0.0,E,,*11
$IIRMB,A,0.00,0,W,X,4741.196000,N,12224.276000,E,1.0,104,3.00,V*77
$GPRMC,230006.0,A,4741.19781,N,12224.27654,W,000.19,047.7,161015,016.4,E,A*28
$YXXDR,A,5.6,D,PTCH,A,3.8,D,ROLL*55
$GPGGA,230006.0,4741.19781,N,12224.27654,W,1,06,1.7,-6.5,M,-18.2,M,,*44
$GPVTG,047.7,T,031.2,M,000.19,N,0000.35,K,A*19
$GPGSA,A,3,22,08,21,27,16,18,,,,,,,2.5,1.7,1.9*3B
$GPGSV,2,1,06,22,64,257,48,08,26,313,43,21,51,115,41,27,51,278,51*77
$GPGSV,2,2,06,16,05,243,38,18,72,059,49*7E
$HCHDG,87.7,0.0,E,,*11
$GPRMC,230006.1,A,4741.19781,N,12224.27651,W,000.17,047.7,161015,016.4,E,A*22
$GPGGA,230006.1,4741.19781,N,12224.27651,W,1,06,1.7,-6.4,M,-18.2,M,,*41
$YXXDR,A,5.6,D,PTCH,A,3.8,D,ROLL*55
$GPVTG,047.7,T,031.2,M,000.17,N,0000.32,K,A*10
$HCHDG,87.7,0.0,E,,*11
$GPRMC,230006.2,A,4741.19781,N,12224.27651,W,000.17,047.7,161015,016.4,E,A*21
$GPGGA,230006.2,4741.19781,N,12224.27651,W,1,06,1.7,-6.4,M,-18.2,M,,*42
$YXXDR,A,5.6,D,PTCH,A,3.8,D,ROLL*55
$GPVTG,047.7,T,031.2,M,000.17,N,0000.31,K,A*13
$HCHDG,87.7,0.0,E,,*11
$GPRMC,230006.3,A,4741.19781,N,12224.27651,W,000.14,047.7,161015,016.4,E,A*23
$GPGGA,230006.3,4741.19781,N,12224.27651,W,1,06,1.7,-6.4,M,-18.2,M,,*43
$YXXDR,A,5.6,D,PTCH,A,3.8,D,ROLL*55
$GPVTG,047.7,T,031.2,M,000.14,N,0000.27,K,A*17
$HCHDG,87.7,0.0,E,,*11
$GPRMC,230006.4,A,4741.19781,N,12224.27651,W,000.15,047.7,161015,016.4,E,A*25
$GPGGA,230006.4,4741.19781,N,12224.27651,W,1,06,1.7,-6.4,M,-18.2,M,,*44
$YXXDR,A,5.6,D,PTCH,A,3.8,D,ROLL*55
$GPVTG,047.7,T,031.2,M,000.15,N,0000.28,K,A*19
$HCHDG,87.7,0.0,E,,*11
$GPRMC,230006.5,A,4741.19781,N,12224.27651,W,000.14,047.7,161015,016.4,E,A*25
$YXXDR,A,5.6,D,PTCH,A,3.8,D,ROLL*55
$GPGGA,230006.5,4741.19781,N,12224.27651,W,1,06,1.7,-6.4,M,-18.2,M,,*45
$GPVTG,047.7,T,031.2,M,000.14,N,0000.26,K,A*16
$HCHDG,87.4,0.0,E,,*12
$GPRMC,230006.6,A,4741.19781,N,12224.27651,W,000.14,047.7,161015,016.4,E,A*26
$YXXDR,A,5.6,D,PTCH,A,3.8,D,ROLL*55
$TIROT,-7.0,A*11
$GPGGA,230006.6,4741.19781,N,12224.27651,W,1,06,1.7,-6.4,M,-18.2,M,,*46
$GPVTG,047.7,T,031.2,M,000.14,N,0000.26,K,A*16
$HCHDG,87.4,0.0,E,,*12
$GPRMC,230006.7,A,4741.19781,N,12224.27651,W,000.13,047.7,161015,016.4,E,A*20
$YXXDR,A,5.6,D,PTCH,A,3.8,D,ROLL*55
$GPGGA,230006.7,4741.19781,N,12224.27651,W,1,06,1.7,-6.4,M,-18.2,M,,*47
$GPVTG,047.7,T,031.2,M,000.13,N,0000.24,K,A*13
$HCHDG,87.4,0.0,E,,*12
$GPRMC,230006.8,A,4741.19781,N,12224.27651,W,000.11,047.7,161015,016.4,E,A*2D
$YXXDR,A,5.6,D,PTCH,A,3.8,D,ROLL*55
$GPGGA,230006.8,4741.19781,N,12224.27651,W,1,06,1.7,-6.4,M,-18.2,M,,*48
$GPVTG,047.7,T,031.2,M,000.11,N,0000.21,K,A*14
$HCHDG,87.4,0.0,E,,*12
$IIRMB,A,0.00,0,W,X,4741.196000,N,12224.276000,E,1.0,104,3.00,V*77
$YXXDR,A,5.7,D,PTCH,A,3.8,D,ROLL*54
$GPRMC,230006.9,A,4741.19781,N,12224.27651,W,000.11,047.7,161015,016.4,E,A*2C
$GPGGA,230006.9,4741.19781,N,12224.27651,W,1,06,1.7,-6.4,M,-18.2,M,,*49
$GPVTG,047.7,T,031.2,M,000.11,N,0000.21,K,A*14
$HCHDG,87.4,0.0,E,,*12
$GPRMC,230007.0,A,4741.19781,N,12224.27651,W,000.12,047.7,161015,016.4,E,A*27
$YXXDR,A,5.6,D,PTCH,A,3.7,D,ROLL*5A
$GPGGA,230007.0,4741.19781,N,12224.27651,W,1,06,1.7,-6.4,M,-18.2,M,,*41
$GPVTG,047.7,T,031.2,M,000.12,N,0000.23,K,A*15
$GPGSA,A,3,22,08,21,27,16,18,,,,,,,2.5,1.7,1.9*3B
$GPGSV,2,1,06,22,64,257,48,08,26,313,43,21,51,115,42,27,51,278,51*74
$GPGSV,2,2,06,16,05,243,38,18,72,059,49*7E
$HCHDG,87.3,0.0,E,,*15
$YXXDR,A,5.6,D,PTCH,A,3.7,D,ROLL*5A
$GPRMC,230007.1,A,4741.19779,N,12224.27648,W,000.85,047.7,161015,016.4,E,A*27
$GPGGA,230007.1,4741.19779,N,12224.27648,W,1,06,1.7,-6.4,M,-18.2,M,,*4F
$GPVTG,047.7,T,031.2,M,000.85,N,0001.57,K,A*19
$HCHDG,87.3,0.0,E,,*15
$GPRMC,230007.2,A,4741.19779,N,12224.27648,W,000.28,047.7,161015,016.4,E,A*23
$YXXDR,A,5.7,D,PTCH,A,3.5,D,ROLL*59
$GPGGA,230007.2,4741.19779,N,12224.27648,W,1,07,1.3,-6.4,M,-18.2,M,,*49
$GPVTG,047.7,T,031.2,M,000.28,N,0000.52,K,A*1A
$HCHDG,87.3,0.0,E,,*15
$GPRMC,230007.3,A,4741.19779,N,12224.27648,W,000.24,047.7,161015,016.4,E,A*2E
$YXXDR,A,5.7,D,PTCH,A,3.5,D,ROLL*59
$GPGGA,230007.3,4741.19779,N,12224.27648,W,1,07,1.3,-6.4,M,-18.2,M,,*48
$GPVTG,047.7,T,031.2,M,000.24,N,0000.45,K,A*10
$HCHDG,87.3,0.0,E,,*15
$GPRMC,230007.4,A,4741.19779,N,12224.27648,W,000.21,047.7,161015,016.4,E,A*2C
$GPGGA,230007.4,4741.19779,N,12224.27648,W,1,07,1.3,-6.4,M,-18.2,M,,*4F
$YXXDR,A,5.7,D,PTCH,A,3.5,D,ROLL*59
$GPVTG,047.7,T,031.2,M,000.21,N,0000.39,K,A*1E
$HCHDG,87.3,0.0,E,,*15
$GPRMC,230007.5,A,4741.19779,N,12224.27648,W,000.19,047.7,161015,016.4,E,A*26
$YXXDR,A,5.6,D,PTCH,A,3.5,D,ROLL*58
$GPGGA,230007.5,4741.19779,N,12224.27648,W,1,07,1.3,-6.4,M,-18.2,M,,*4E
$GPVTG,047.7,T,031.2,M,000.19,N,0000.36,K,A*1A
$HCHDG,87.3,0.0,E,,*15
$GPRMC,230007.6,A,4741.19779,N,12224.27648,W,000.19,047.7,161015,016.4,E,A*25
$YXXDR,A,5.6,D,PTCH,A,3.3,D,ROLL*5E
$TIROT,-11.7,A*21
$GPGGA,230007.6,4741.19779,N,12224.27648,W,1,08,1.0,-6.4,M,-18.2,M,,*41
$GPVTG,047.7,T,031.2,M,000.19,N,0000.36,K,A*1A
$HCHDG,87.2,0.0,E,,*14
$GPRMC,230007.7,A,4741.19779,N,12224.27648,W,000.22,047.7,161015,016.4,E,A*2C
$YXXDR,A,5.6,D,PTCH,A,3.3,D,ROLL*5E
$GPGGA,230007.7,4741.19779,N,12224.27648,W,1,08,1.0,-6.4,M,-18.2,M,,*40
$GPVTG,047.7,T,031.2,M,000.22,N,0000.40,K,A*13
$HCHDG,87.2,0.0,E,,*14
$GPRMC,230007.8,A,4741.19779,N,12224.27648,W,000.23,047.7,161015,016.4,E,A*22
$YXXDR,A,5.6,D,PTCH,A,3.3,D,ROLL*5E
$GPGGA,230007.8,4741.19779,N,12224.27648,W,1,08,1.0,-6.4,M,-18.2,M,,*4F
$GPVTG,047.7,T,031.2,M,000.23,N,0000.42,K,A*10
$HCHDG,87.1,0.0,E,,*17
$IIRMB,A,0.00,0,W,X,4741.196000,N,12224.276000,E,1.0,104,3.00,V*77
$YXXDR,A,5.6,D,PTCH,A,3.5,D,ROLL*58
$GPRMC,230007.9,A,4741.19779,N,12224.27648,W,000.21,047.7,161015,016.4,E,A*21
$GPGGA,230007.9,4741.19779,N,12224.27648,W,1,08,1.0,-6.4,M,-18.2,M,,*4E
$GPVTG,047.7,T,031.2,M,000.21,N,0000.39,K,A*1E
$HCHDG,87.1,0.0,E,,*17
$YXXDR,A,5.6,D,PTCH,A,3.5,D,ROLL*58
$GPRMC,230008.0,A,4741.19779,N,12224.27648,W,000.19,047.7,161015,016.4,E,A*2C
$GPGGA,230008.0,4741.19779,N,12224.27648,W,1,08,1.0,-6.4,M,-18.2,M,,*48
$GPVTG,047.7,T,031.2,M,000.19,N,0000.35,K,A*19
$GPGSA,A,3,22,14,08,21,27,16,18,15,,,,,1.7,1.0,1.4*31
$HCHDG,87.0,0.0,E,,*16
$YXXDR,A,5.6,D,PTCH,A,3.3,D,ROLL*5E
$GPRMC,230008.1,A,4741.19778,N,12224.27652,W,000.17,047.7,161015,016.4,E,A*29
$GPGGA,230008.1,4741.19778,N,12224.27652,W,1,08,1.0,-6.3,M,-18.2,M,,*44
$GPVTG,047.7,T,031.2,M,000.17,N,0000.31,K,A*13
$GPGSV,2,1,08,22,64,257,48,14,27,182,28,08,26,313,43,21,51,115,42*73
$GPGSV,2,2,08,27,51,278,51,16,05,243,38,18,72,059,49,15,26,049,31*77
$HCHDG,87.0,0.0,E,,*16
$YXXDR,A,5.6,D,PTCH,A,3.5,D,ROLL*58
$GPRMC,230008.2,A,4741.19778,N,12224.27652,W,000.16,047.7,161015,016.4,E,A*2B
$GPGGA,230008.2,4741.19778,N,12224.27652,W,1,08,1.0,-6.3,M,-18.2,M,,*47
$GPVTG,047.7,T,031.2,M,000.16,N,0000.30,K,A*13
$HCHDG,87.1,0.0,E,,*17
$YXXDR,A,5.7,D,PTCH,A,3.5,D,ROLL*59
$GPRMC,230008.3,A,4741.19778,N,12224.27652,W,000.15,047.7,161015,016.4,E,A*29
$GPGGA,230008.3,4741.19778,N,12224.27652,W,1,08,1.0,-6.3,M,-18.2,M,,*46
$GPVTG,047.7,T,031.2,M,000.15,N,0000.28,K,A*19
$GPRMC,230008.4,A,4741.19778,N,12224.27652,W,000.15,047.7,161015,016.4,E,A*2E
$GPGGA,230008.4,4741.19778,N,12224.27652,W,1,08,1.0,-6.3,M,-18.2,M,,*41
$HCHDG,87.1,0.0,E,,*17
$GPVTG,047.7,T,031.2,M,000.15,N,0000.28,K,A*19
$YXXDR,A,5.6,D,PTCH,A,3.8,D,ROLL*55
$GPRMC,230008.5,A,4741.19778,N,12224.27652,W,000.15,047.7,161015,016.4,E,A*2F
$GPGGA,230008.5,4741.19778,N,12224.27652,W,1,08,1.0,-6.3,M,-18.2,M,,*40
$HCHDG,87.1,0.0,E,,*17
$GPVTG,047.7,T,031.2,M,000.15,N,0000.27,K,A*16
$YXXDR,A,5.6,D,PTCH,A,3.8,D,ROLL*55
$GPRMC,230008.6,A,4741.19778,N,12224.27652,W,000.13,047.7,161015,016.4,E,A*2A
$GPGGA,230008.6,4741.19778,N,12224.27652,W,1,08,1.0,-6.3,M,-18.2,M,,*43
$HCHDG,87.2,0.0,E,,*14
$GPVTG,047.7,T,031.2,M,000.13,N,0000.25,K,A*12
$YXXDR,A,5.6,D,PTCH,A,4.0,D,ROLL*5A
$TIROT,4.5,A*3A
$GPRMC,230008.7,A,4741.19778,N,12224.27652,W,000.13,047.7,161015,016.4,E,A*2B
$GPGGA,230008.7,4741.19778,N,12224.27652,W,1,08,1.0,-6.3,M,-18.2,M,,*42
$HCHDG,87.1,0.0,E,,*17
$GPVTG,047.7,T,031.2,M,000.13,N,0000.23,K,A*14
$YXXDR,A,5.8,D,PTCH,A,3.9,D,ROLL*5A
$GPRMC,230008.8,A,4741.19778,N,12224.27652,W,000.11,047.7,161015,016.4,E,A*26
$GPGGA,230008.8,4741.19778,N,12224.27652,W,1,08,1.0,-6.3,M,-18.2,M,,*4D
$HCHDG,87.1,0.0,E,,*17
$IIRMB,A,0.00,0,W,X,4741.196000,N,12224.276000,E,1.0,104,3.00,V*77
$YXXDR,A,5.8,D,PTCH,A,3.9,D,ROLL*5A
$GPVTG,047.7,T,031.2,M,000.11,N,0000.20,K,A*15
$GPRMC,230008.9,A,4741.19778,N,12224.27652,W,000.11,047.7,161015,016.4,E,A*27
$GPGGA,230008.9,4741.19778,N,12224.27652,W,1,08,1.0,-6.3,M,-18.2,M,,*4C
$HCHDG,87.1,0.0,E,,*17
$GPVTG,047.7,T,031.2,M,000.11,N,0000.20,K,A*15
$YXXDR,A,5.8,D,PTCH,A,3.9,D,ROLL*5A
$GPRMC,230009.0,A,4741.19778,N,12224.27652,W,000.17,047.7,161015,016.4,E,A*29
$GPGGA,230009.0,4741.19778,N,12224.27652,W,1,08,1.0,-6.3,M,-18.2,M,,*44
$GPVTG,047.7,T,031.2,M,000.17,N,0000.31,K,A*13
$HCHDG,87.1,0.0,E,,*17
$YXXDR,A,5.6,D,PTCH,A,3.8,D,ROLL*55
$GPGSA,A,3,22,14,08,21,27,16,18,15,,,,,1.7,1.0,1.4*31
$GPRMC,230009.1,A,4741.19778,N,12224.27652,W,000.15,047.7,161015,016.4,E,A*2A
$GPGGA,230009.1,4741.19778,N,12224.27652,W,1,08,1.0,-6.3,M,-18.2,M,,*45
$HCHDG,87.1,0.0,E,,*17
$GPVTG,047.7,T,031.2,M,000.15,N,0000.28,K,A*19
$YXXDR,A,5.6,D,PTCH,A,3.9,D,ROLL*54
$GPGSV,2,1,08,22,64,257,48,14,27,182,28,08,26,313,43,21,51,115,42*73
$GPGSV,2,2,08,27,51,278,51,16,05,243,38,18,72,059,49,15,26,049,33*75
$GPRMC,230009.2,A,4741.19781,N,12224.27656,W,000.15,047.7,161015,016.4,E,A*2B
$GPGGA,230009.2,4741.19781,N,12224.27656,W,1,08,1.0,-6.3,M,-18.2,M,,*44
$HCHDG,87.3,0.0,E,,*15
$GPVTG,047.7,T,031.2,M,000.15,N,0000.28,K,A*19
$YXXDR,A,5.4,D,PTCH,A,3.9,D,ROLL*56
$GPRMC,230009.3,A,4741.19781,N,12224.27656,W,000.14,047.7,161015,016.4,E,A*2B
$GPGGA,230009.3,4741.19781,N,12224.27656,W,1,08,1.0,-6.3,M,-18.2,M,,*45
$HCHDG,87.3,0.0,E,,*15
$GPVTG,047.7,T,031.2,M,000.14,N,0000.27,K,A*17
$YXXDR,A,5.4,D,PTCH,A,3.9,D,ROLL*56
$GPRMC,230009.4,A,4741.19781,N,12224.27656,W,000.14,047.7,161015,016.4,E,A*2C
$GPGGA,230009.4,4741.19781,N,12224.27656,W,1,08,1.0,-6.3,M,-18.2,M,,*42
$HCHDG,87.3,0.0,E,,*15
$GPVTG,047.7,T,031.2,M,000.14,N,0000.26,K,A*16
$YXXDR,A,5.3,D,PTCH,A,3.9,D,ROLL*51
$GPRMC,230009.5,A,4741.19781,N,12224.27656,W,000.16,047.7,161015,016.4,E,A*2F
$GPGGA,230009.5,4741.19781,N,12224.27656,W,1,08,1.0,-6.3,M,-18.2,M,,*43
$HCHDG,87.3,0.0,E,,*15
$GPVTG,047.7,T,031.2,M,000.16,N,0000.29,K,A*1B
$YXXDR,A,5.3,D,PTCH,A,4.0,D,ROLL*5F
$GPRMC,230009.6,A,4741.19781,N,12224.27656,W,000.14,047.7,161015,016.4,E,A*2E
$GPGGA,230009.6,4741.19781,N,12224.27656,W,1,08,1.0,-6.3,M,-18.2,M,,*40
$HCHDG,87.3,0.0,E,,*15
$GPVTG,047.7,T,031.2,M,000.14,N,0000.27,K,A*17
$YXXDR,A,5.4,D,PTCH,A,4.2,D,ROLL*5A
$TIROT,-7.1,A*10
$GPRMC,230009.7,A,4741.19781,N,12224.27656,W,000.13,047.7,161015,016.4,E,A*28
$GPGGA,230009.7,4741.19781,N,12224.27656,W,1,08,1.0,-6.3,M,-18.2,M,,*41
$HCHDG,87.3,0.0,E,,*15
$GPVTG,047.7,T,031.2,M,000.13,N,0000.25,K,A*12
$YXXDR,A,5.4,D,PTCH,A,4.2,D,ROLL*5A
$GPRMC,230009.8,A,4741.19781,N,12224.27656,W,000.13,047.7,161015,016.4,E,A*27
$GPGGA,230009.8,4741.19781,N,12224.27656,W,1,08,1.0,-6.3,M,-18.2,M,,*4E
$HCHDG,87.3,0.0,E,,*15
$IIRMB,A,0.00,0,W,X,4741.196000,N,12224.276000,E,1.0,104,3.00,V*77
$YXXDR,A,5.4,D,PTCH,A,4.2,D,ROLL*5A
$GPVTG,047.7,T,031.2,M,000.13,N,0000.24,K,A*13
$GPRMC,230009.9,A,4741.19781,N,12224.27656,W,000.14,047.7,161015,016.4,E,A*21
$GPGGA,230009.9,4741.19781,N,12224.27656,W,1,08,1.0,-6.3,M,-18.2,M,,*4F
$HCHDG,87.3,0.0,E,,*15
$GPVTG,047.7,T,031.2,M,000.14,N,0000.26,K,A*16
$YXXDR,A,5.6,D,PTCH,A,4.3,D,ROLL*59
$GPRMC,230010.0,A,4741.19781,N,12224.27656,W,000.14,047.7,161015,016.4,E,A*20
$HCHDG,87.4,0.0,E,,*12
$GPGGA,230010.0,4741.19781,N,12224.27656,W,1,08,1.0,-6.3,M,-18.2,M,,*4E
$GPVTG,047.7,T,031.2,M,000.14,N,0000.26,K,A*16
$YXXDR,A,5.6,D,PTCH,A,4.3,D,ROLL*59
$GPGSA,A,3,22,14,08,21,27,16,18,15,,,,,1.7,1.0,1.4*31
$GPRMC,230010.1,A,4741.19781,N,12224.27656,W,000.17,047.7,161015,016.4,E,A*22
$HCHDG,87.5,0.0,E,,*13
$GPGGA,230010.1,4741.19781,N,12224.27656,W,1,08,1.0,-6.3,M,-18.2,M,,*4F
$GPVTG,047.7,T,031.2,M,000.17,N,0000.31,K,A*13
$YXXDR,A,5.4,D,PTCH,A,4.3,D,ROLL*5B
$GPGSV,2,1,08,22,64,257,48,14,27,182,29,08,26,313,43,21,51,115,42*72
$GPGSV,2,2,08,27,51,278,51,16,05,243,38,18,72,059,49,15,26,049,34*72
$GPRMC,230010.2,A,4741.19785,N,12224.27658,W,000.17,047.7,161015,016.4,E,A*2B
$GPGGA,230010.2,4741.19785,N,12224.27658,W,1,08,1.0,-6.3,M,-18.2,M,,*46
$HCHDG,87.5,0.0,E,,*13
$GPVTG,047.7,T,031.2,M,000.17,N,0000.32,K,A*10
$YXXDR,A,5.4,D,PTCH,A,4.2,D,ROLL*5A
$GPRMC,230010.3,A,4741.19785,N,12224.27658,W,000.18,047.7,161015,016.4,E,A*25
$HCHDG,87.6,0.0,E,,*10
$GPGGA,230010.3,4741.19785,N,12224.27658,W,1,08,1.0,-6.3,M,-18.2,M,,*47
$GPVTG,047.7,T,031.2,M,000.18,N,0000.33,K,A*1E
$YXXDR,A,5.4,D,PTCH,A,4.2,D,ROLL*5A
$GPRMC,230010.4,A,4741.19785,N,12224.27658,W,000.16,047.7,161015,016.4,E,A*2C
$HCHDG,87.6,0.0,E,,*10
$GPGGA,230010.4,4741.19785,N,12224.27658,W,1,08,1.0,-6.3,M,-18.2,M,,*40
$GPVTG,047.7,T,031.2,M,000.16,N,0000.30,K,A*13
$YXXDR,A,5.8,D,PTCH,A,3.9,D,ROLL*5A
$GPRMC,230010.5,A,4741.19785,N,12224.27658,W,000.18,047.7,161015,016.4,E,A*23
$HCHDG,87.6,0.0,E,,*10
$GPGGA,230010.5,4741.19785,N,12224.27658,W,1,08,1.0,-6.3,M,-18.2,M,,*41
$GPVTG,047.7,T,031.2,M,000.18,N,0000.33,K,A*1E
$YXXDR,A,5.8,D,PTCH,A,3.9,D,ROLL*5A
$GPRMC,230010.6,A,4741.19785,N,12224.27658,W,000.19,047.7,161015,016.4,E,A*21
$HCHDG,87.7,0.0,E,,*11
$GPGGA,230010.6,4741.19785,N,12224.27658,W,1,08,1.0,-6.3,M,-18.2,M,,*42
$GPVTG,047.7,T,031.2,M,000.19,N,0000.35,K,A*19
$YXXDR,A,5.7,D,PTCH,A,3.8,D,ROLL*54
$TIROT,17.5,A*08
$GPRMC,230010.7,A,4741.19785,N,12224.27658,W,000.16,047.7,161015,016.4,E,A*2F
$HCHDG,87.6,0.0,E,,*10
$GPGGA,230010.7,4741.19785,N,12224.27658,W,1,08,1.0,-6.3,M,-18.2,M,,*43
$GPVTG,047.7,T,031.2,M,000.16,N,0000.30,K,A*13
$YXXDR,A,5.7,D,PTCH,A,3.5,D,ROLL*59
$GPRMC,230010.8,A,4741.19785,N,12224.27658,W,000.20,047.7,161015,016.4,E,A*25
$HCHDG,87.6,0.0,E,,*10
$IIRMB,A,0.00,0,W,X,4741.196000,N,12224.276000,E,1.0,104,3.00,V*77
$GPGGA,230010.8,4741.19785,N,12224.27658,W,1,08,1.0,-6.3,M,-18.2,M,,*4C
$YXXDR,A,5.7,D,PTCH,A,3.4,D,ROLL*58
$GPVTG,047.7,T,031.2,M,000.20,N,0000.37,K,A*11
$GPRMC,230010.9,A,4741.19785,N,12224.27658,W,000.19,047.7,161015,016.4,E,A*2E
$HCHDG,87.4,0.0,E,,*12
$GPGGA,230010.9,4741.19785,N,12224.27658,W,1,08,1.0,-6.3,M,-18.2,M,,*4D
$GPVTG,047.7,T,031.2,M,000.19,N,0000.36,K,A*1A
$YXXDR,A,5.7,D,PTCH,A,3.2,D,ROLL*5E
$GPRMC,230011.0,A,4741.19785,N,12224.27658,W,000.21,047.6,161015,016.4,E,A*2C
$HCHDG,87.2,0.0,E,,*14
$GPGGA,230011.0,4741.19785,N,12224.27658,W,1,08,1.0,-6.3,M,-18.2,M,,*45
$GPVTG,047.6,T,031.1,M,000.21,N,0000.39,K,A*1C
$YXXDR,A,5.7,D,PTCH,A,3.2,D,ROLL*5E
$GPGSA,A,3,22,14,08,21,27,16,18,15,,,,,1.7,1.0,1.4*31
$GPRMC,230011.1,A,4741.19785,N,12224.27658,W,000.18,046.6,161015,016.4,E,A*26
$HCHDG,87.2,0.0,E,,*14
$GPGGA,230011.1,4741.19785,N,12224.27658,W,1,08,1.0,-6.3,M,-18.2,M,,*44
$GPVTG,046.6,T,030.1,M,000.18,N,0000.34,K,A*1B
$YXXDR,A,5.7,D,PTCH,A,3.2,D,ROLL*5E
$GPGSV,2,1,08,22,64,257,48,14,27,182,29,08,26,313,42,21,51,115,42*73
$GPGSV,2,2,08,27,51,278,51,16,05,243,38,18,72,059,49,15,26,049,33*75
$GPRMC,230011.2,A,4741.19787,N,12224.27659,W,000.16,046.6,161015,016.4,E,A*28
$HCHDG,87.2,0.0,E,,*14
$GPGGA,230011.2,4741.19787,N,12224.27659,W,1,08,1.0,-6.3,M,-18.2,M,,*44
$YXXDR,A,5.7,D,PTCH,A,3.4,D,ROLL*58
$GPVTG,046.6,T,030.1,M,000.16,N,0000.30,K,A*11
$GPRMC,230011.3,A,4741.19787,N,12224.27659,W,000.14,046.6,161015,016.4,E,A*2B
$HCHDG,87.2,0.0,E,,*14
$GPGGA,230011.3,4741.19787,N,12224.27659,W,1,08,1.0,-6.3,M,-18.2,M,,*45
$YXXDR,A,5.7,D,PTCH,A,3.4,D,ROLL*58
$GPVTG,046.6,T,030.1,M,000.14,N,0000.26,K,A*14
$GPRMC,230011.4,A,4741.19787,N,12224.27659,W,000.12,046.6,161015,016.4,E,A*2A
$HCHDG,87.2,0.0,E,,*14
$GPGGA,230011.4,4741.19787,N,12224.27659,W,1,08,1.0,-6.3,M,-18.2,M,,*42
$YXXDR,A,5.7,D,PTCH,A,3.4,D,ROLL*58
$GPVTG,046.6,T,030.1,M,000.12,N,0000.23,K,A*17
$GPRMC,230011.5,A,4741.19787,N,12224.27659,W,000.13,046.6,161015,016.4,E,A*2A
$HCHDG,87.3,0.0,E,,*15
$GPGGA,230011.5,4741.19787,N,12224.27659,W,1,08,1.0,-6.3,M,-18.2,M,,*43
$YXXDR,A,5.8,D,PTCH,A,3.4,D,ROLL*57
$GPVTG,046.6,T,030.1,M,000.13,N,0000.25,K,A*10
$GPRMC,230011.6,A,4741.19787,N,12224.27659,W,000.16,046.6,161015,016.4,E,A*2C
$HCHDG,87.3,0.0,E,,*15
$GPGGA,230011.6,4741.19787,N,12224.27659,W,1,08,1.0,-6.3,M,-18.2,M,,*40
$YXXDR,A,5.8,D,PTCH,A,3.5,D,ROLL*56
$TIROT,4.7,A*38
$GPVTG,046.6,T,030.1,M,000.16,N,0000.29,K,A*19
$GPRMC,230011.7,A,4741.19787,N,12224.27659,W,000.19,046.6,161015,016.4,E,A*22
$HCHDG,87.3,0.0,E,,*15
$IIRMB,A,0.00,0,W,X,4741.196000,N,12224.276000,E,1.0,104,3.00,V*77
$GPGGA,230011.7,4741.19787,N,12224.27659,W,1,08,1.0,-6.3,M,-18.2,M,,*41
$YXXDR,A,5.7,D,PTCH,A,3.5,D,ROLL*59
$GPVTG,046.6,T,030.1,M,000.19,N,0000.35,K,A*1B
$GPRMC,230011.8,A,4741.19787,N,12224.27659,W,000.21,046.6,161015,016.4,E,A*26
$HCHDG,87.3,0.0,E,,*15
$GPGGA,230011.8,4741.19787,N,12224.27659,W,1,07,1.3,-6.3,M,-18.2,M,,*42
$GPVTG,046.6,T,030.1,M,000.21,N,0000.38,K,A*1D
$YXXDR,A,5.6,D,PTCH,A,3.5,D,ROLL*58
$GPRMC,230011.9,A,4741.19787,N,12224.27659,W,000.23,046.6,161015,016.4,E,A*25
$HCHDG,87.4,0.0,E,,*12
$GPGGA,230011.9,4741.19787,N,12224.27659,W,1,07,1.3,-6.3,M,-18.2,M,,*43
$YXXDR,A,5.7,D,PTCH,A,3.5,D,ROLL*59
$GPVTG,046.6,T,030.1,M,000.23,N,0000.42,K,A*12
$GPRMC,230012.0,A,4741.19787,N,12224.27659,W,000.21,046.6,161015,016.4,E,A*2D
$HCHDG,87.5,0.0,E,,*13
$GPGGA,230012.0,4741.19787,N,12224.27659,W,1,07,1.3,-6.3,M,-18.2,M,,*49
$GPVTG,046.6,T,030.1,M,000.21,N,0000.38,K,A*1D
$YXXDR,A,5.5,D,PTCH,A,3.6,D,ROLL*58
$GPGSA,A,3,22,08,21,27,16,18,15,,,,,,1.9,1.3,1.4*39
$GPGSV,2,1,07,22,64,257,48,08,26,313,42,21,51,115,42,27,51,278,51*74
$GPGSV,2,2,07,16,05,243,38,18,72,059,49,15,26,049,33*42
$GPRMC,230012.1,A,4741.19787,N,12224.27659,W,000.20,046.6,161015,016.4,E,A*2D
$HCHDG,87.5,0.0,E,,*13
$GPGGA,230012.1,4741.19787,N,12224.27659,W,1,07,1.3,-6.3,M,-18.2,M,,*48
$YXXDR,A,5.6,D,PTCH,A,3.6,D,ROLL*5B
$GPVTG,046.6,T,030.1,M,000.20,N,0000.36,K,A*12
$GPRMC,230012.2,A,4741.19787,N,12224.27658,W,000.18,046.6,161015,016.4,E,A*24
$HCHDG,87.5,0.0,E,,*13
$GPGGA,230012.2,4741.19787,N,12224.27658,W,1,07,1.3,-6.3,M,-18.2,M,,*4A
$GPVTG,046.6,T,030.1,M,000.18,N,0000.33,K,A*1C
$YXXDR,A,5.6,D,PTCH,A,3.6,D,ROLL*5B
$GPRMC,230012.3,A,4741.19787,N,12224.27658,W,000.16,046.6,161015,016.4,E,A*2B
$HCHDG,87.5,0.0,E,,*13
$GPGGA,230012.3,4741.19787,N,12224.27658,W,1,07,1.3,-6.3,M,-18.2,M,,*4B
$YXXDR,A,5.6,D,PTCH,A,3.8,D,ROLL*55
$GPVTG,046.6,T,030.1,M,000.16,N,0000.29,K,A*19
$GPRMC,230012.4,A,4741.19787,N,12224.27658,W,000.15,046.6,161015,016.4,E,A*2F
$HCHDG,87.5,0.0,E,,*13
$GPGGA,230012.4,4741.19787,N,12224.27658,W,1,07,1.3,-6.3,M,-18.2,M,,*4C
$YXXDR,A,5.6,D,PTCH,A,4.1,D,ROLL*5B
$GPVTG,046.6,T,030.1,M,000.15,N,0000.27,K,A*14
$GPRMC,230012.5,A,4741.19787,N,12224.27657,W,000.53,046.6,161015,016.4,E,A*23
$HCHDG,87.5,0.0,E,,*13
$GPGGA,230012.5,4741.19787,N,12224.27657,W,1,07,1.3,-6.3,M,-18.2,M,,*42
$GPVTG,046.6,T,030.1,M,000.53,N,0000.98,K,A*12
$YXXDR,A,5.6,D,PTCH,A,4.1,D,ROLL*5B
$GPRMC,230012.6,A,4741.19787,N,12224.27657,W,000.47,046.6,161015,016.4,E,A*25
$HCHDG,87.5,0.0,E,,*13
$IIRMB,A,0.00,0,W,X,4741.196000,N,12224.276000,E,1.0,104,3.00,V*77
$YXXDR,A,5.6,D,PTCH,A,4.1,D,ROLL*5B
$GPGGA,230012.6,4741.19787,N,12224.27657,W,1,07,1.3,-6.3,M,-18.2,M,,*41
$TIROT,5.8,A*36
$GPVTG,046.6,T,030.1,M,000.47,N,0000.87,K,A*19
$GPRMC,230012.7,A,4741.19787,N,12224.27657,W,000.40,046.6,161015,016.4,E,A*23
$HCHDG,87.4,0.0,E,,*12
$GPGGA,230012.7,4741.19787,N,12224.27657,W,1,07,1.3,-6.3,M,-18.2,M,,*40
$YXXDR,A,5.6,D,PTCH,A,4.1,D,ROLL*5B
$GPVTG,046.6,T,030.1,M,000.40,N,0000.74,K,A*12
$GPRMC,230012.8,A,4741.19787,N,12224.27657,W,000.36,046.6,161015,016.4,E,A*2D
$HCHDG,87.5,0.0,E,,*13
$GPGGA,230012.8,4741.19787,N,12224.27657,W,1,07,1.3,-6.3,M,-18.2,M,,*4F
$YXXDR,A,5.6,D,PTCH,A,4.1,D,ROLL*5B
$GPVTG,046.6,T,030.1,M,000.36,N,0000.67,K,A*11
$GPRMC,230012.9,A,4741.19787,N,12224.27657,W,000.34,046.6,161015,016.4,E,A*2E
$HCHDG,87.5,0.0,E,,*13
$GPGGA,230012.9,4741.19787,N,12224.27657,W,1,07,1.3,-6.3,M,-18.2,M,,*4E
$YXXDR,A,5.6,D,PTCH,A,4.1,D,ROLL*5B
$GPVTG,046.6,T,030.1,M,000.34,N,0000.64,K,A*10
$GPRMC,230013.0,A,4741.19787,N,12224.27657,W,000.32,046.6,161015,016.4,E,A*20
$HCHDG,87.5,0.0,E,,*13
$GPGGA,230013.0,4741.19787,N,12224.27657,W,1,07,1.3,-6.3,M,-18.2,M,,*46
$YXXDR,A,5.6,D,PTCH,A,4.1,D,ROLL*5B
$GPVTG,046.6,T,030.1,M,000.32,N,0000.59,K,A*18
$GPGSA,A,3,22,08,21,27,16,18,15,,,,,,1.9,1.3,1.4*39
$GPGSV,2,1,07,22,64,257,48,08,26,313,41,21,51,115,41,27,51,278,51*74
$GPGSV,2,2,07,16,05,243,38,18,72,059,49,15,26,049,34*45
$GPRMC,230013.1,A,4741.19787,N,12224.27657,W,000.29,046.6,161015,016.4,E,A*2B
$HCHDG,87.5,0.0,E,,*13
$GPGGA,230013.1,4741.19787,N,12224.27657,W,1,07,1.3,-6.4,M,-18.2,M,,*40
$YXXDR,A,5.6,D,PTCH,A,4.1,D,ROLL*5B
$GPVTG,046.6,T,030.1,M,000.29,N,0000.53,K,A*18
$HCHDG,87.5,0.0,E,,*13
$GPRMC,230013.2,A,4741.19787,N,12224.27657,W,000.25,046.6,161015,016.4,E,A*24
$GPGGA,230013.2,4741.19787,N,12224.27657,W,1,07,1.3,-6.4,M,-18.2,M,,*43
$YXXDR,A,5.6,D,PTCH,A,4.1,D,ROLL*5B
$GPVTG,046.6,T,030.1,M,000.25,N,0000.47,K,A*11
$GPRMC,230013.3,A,4741.19787,N,12224.27657,W,000.24,046.6,161015,016.4,E,A*24
$HCHDG,87.6,0.0,E,,*10
$GPGGA,230013.3,4741.19787,N,12224.27657,W,1,07,1.3,-6.4,M,-18.2,M,,*42
$YXXDR,A,5.6,D,PTCH,A,4.1,D,ROLL*5B
$GPVTG,046.6,T,030.1,M,000.24,N,0000.44,K,A*13
$HCHDG,87.6,0.0,E,,*10
$GPRMC,230013.4,A,4741.19787,N,12224.27657,W,000.21,046.6,161015,016.4,E,A*26
$YXXDR,A,5.6,D,PTCH,A,4.1,D,ROLL*5B
$GPGGA,230013.4,4741.19787,N,12224.27657,W,1,07,1.3,-6.4,M,-18.2,M,,*45
$GPVTG,046.6,T,030.1,M,000.21,N,0000.39,K,A*1C
$HCHDG,87.6,0.0,E,,*10
$IIRMB,A,0.00,0,W,X,4741.196000,N,12224.276000,E,1.0,104,3.00,V*77
$GPRMC,230013.5,A,4741.19787,N,12224.27657,W,000.18,046.6,161015,016.4,E,A*2D
$YXXDR,A,5.6,D,PTCH,A,4.1,D,ROLL*5B
$GPGGA,230013.5,4741.19787,N,12224.27657,W,1,07,1.3,-6.4,M,-18.2,M,,*44
$GPVTG,046.6,T,030.1,M,000.18,N,0000.34,K,A*1B
$HCHDG,87.6,0.0,E,,*10
$GPRMC,230013.6,A,4741.19787,N,12224.27657,W,000.18,046.6,161015,016.4,E,A*2E
$GPGGA,230013.6,4741.19787,N,12224.27657,W,1,07,1.3,-6.4,M,-18.2,M,,*47
$YXXDR,A,5.6,D,PTCH,A,4.0,D,ROLL*5A
$TIROT,-1.3,A*14
$GPVTG,046.6,T,030.1,M,000.18,N,0000.33,K,A*1C
$HCHDG,87.6,0.0,E,,*10
$GPRMC,230013.7,A,4741.19787,N,12224.27654,W,000.16,046.6,161015,016.4,E,A*22
$YXXDR,A,5.6,D,PTCH,A,4.0,D,ROLL*5A
$GPGGA,230013.7,4741.19787,N,12224.27654,W,1,07,1.3,-6.4,M,-18.2,M,,*45
$GPVTG,046.6,T,030.1,M,000.16,N,0000.30,K,A*11
$HCHDG,87.5,0.0,E,,*13
$GPRMC,230013.8,A,4741.19787,N,12224.27654,W,000.17,046.6,161015,016.4,E,A*2C
$YXXDR,A,5.6,D,PTCH,A,4.0,D,ROLL*5A
$GPGGA,230013.8,4741.19787,N,12224.27654,W,1,07,1.3,-6.4,M,-18.2,M,,*4A
$GPVTG,046.6,T,030.1,M,000.17,N,0000.31,K,A*11
$HCHDG,87.5,0.0,E,,*13
$YXXDR,A,5.6,D,PTCH,A,4.1,D,ROLL*5B
$GPRMC,230013.9,A,4741.19787,N,12224.27654,W,000.18,046.6,161015,016.4,E,A*22
$GPGGA,230013.9,4741.19787,N,12224.27654,W,1,07,1.3,-6.4,M,-18.2,M,,*4B
$GPVTG,046.6,T,030.1,M,000.18,N,0000.33,K,A*1C
$GPRMC,230014.0,A,4741.19787,N,12224.27654,W,000.16,046.6,161015,016.4,E,A*22
$HCHDG,87.5,0.0,E,,*13
$YXXDR,A,5.6,D,PTCH,A,4.0,D,ROLL*5A
$GPGGA,230014.0,4741.19787,N,12224.27654,W,1,07,1.3,-6.4,M,-18.2,M,,*45
$GPVTG,046.6,T,030.1,M,000.16,N,0000.29,K,A*19
$GPGSA,A,3,22,08,21,27,16,18,15,,,,,,1.9,1.3,1.4*39
$GPGSV,2,1,07,22,64,257,48,08,26,313,40,21,51,115,41,27,51,278,51*75
$GPGSV,2,2,07,16,05,243,38,18,72,059,49,15,26,049,35*44
$GPRMC,230014.1,A,4741.19787,N,12224.27654,W,000.17,046.6,161015,016.4,E,A*22
$HCHDG,87.5,0.0,E,,*13
$YXXDR,A,5.6,D,PTCH,A,3.8,D,ROLL*55
$GPGGA,230014.1,4741.19787,N,12224.27654,W,1,07,1.3,-6.4,M,-18.2,M,,*44
$GPVTG,046.6,T,030.1,M,000.17,N,0000.31,K,A*11
$HCHDG,87.8,0.0,E,,*1E
$GPRMC,230014.2,A,4741.19787,N,12224.27654,W,000.16,046.6,161015,016.4,E,A*20
$GPGGA,230014.2,4741.19787,N,12224.27654,W,1,07,1.3,-6.4,M,-18.2,M,,*47
$YXXDR,A,5.5,D,PTCH,A,3.8,D,ROLL*56
$GPVTG,046.6,T,030.1,M,000.16,N,0000.29,K,A*19
$HCHDG,87.8,0.0,E,,*1E
$YXXDR,A,5.5,D,PTCH,A,3.8,D,ROLL*56
$GPRMC,230014.3,A,4741.19787,N,12224.27654,W,000.15,046.6,161015,016.4,E,A*22
$GPGGA,230014.3,4741.19787,N,12224.27654,W,1,07,1.3,-6.4,M,-18.2,M,,*46
$GPVTG,046.6,T,030.1,M,000.15,N,0000.28,K,A*1B
$HCHDG,87.8,0.0,E,,*1E
$IIRMB,A,0.00,0,W,X,4741.196000,N,12224.276000,E,1.0,104,3.00,V*77
$YXXDR,A,5.6,D,PTCH,A,3.6,D,ROLL*5B
$GPRMC,230014.4,A,4741.19787,N,12224.27654,W,000.16,046.6,161015,016.4,E,A*26
$GPGGA,230014.4,4741.19787,N,12224.27654,W,1,07,1.3,-6.4,M,-18.2,M,,*41
$GPVTG,046.6,T,030.1,M,000.16,N,0000.30,K,A*11
$HCHDG,87.8,0.0,E,,*1E
$GPRMC,230014.5,A,4741.19787,N,12224.27654,W,000.15,046.6,161015,016.4,E,A*24
$GPGGA,230014.5,4741.19787,N,12224.27654,W,1,07,1.3,-6.4,M,-18.2,M,,*40
$YXXDR,A,5.7,D,PTCH,A,3.5,D,ROLL*59
$GPVTG,046.6,T,030.1,M,000.15,N,0000.28,K,A*1B
$HCHDG,87.8,0.0,E,,*1E
$GPRMC,230014.6,A,4741.19787,N,12224.27654,W,000.16,046.6,161015,016.4,E,A*24
$YXXDR,A,5.7,D,PTCH,A,3.5,D,ROLL*59
$TIROT,-7.0,A*11
$GPGGA,230014.6,4741.19787,N,12224.27654,W,1,07,1.3,-6.4,M,-18.2,M,,*43
$GPVTG,046.6,T,030.1,M,000.16,N,0000.30,K,A*11
$HCHDG,87.5,0.0,E,,*13
$GPRMC,230014.7,A,4741.19784,N,12224.27650,W,000.14,046.6,161015,016.4,E,A*20
$YXXDR,A,5.7,D,PTCH,A,3.5,D,ROLL*59
$GPGGA,230014.7,4741.19784,N,12224.27650,W,1,07,1.3,-6.4,M,-18.2,M,,*45
$GPVTG,046.6,T,030.1,M,000.14,N,0000.26,K,A*14
$HCHDG,87.5,0.0,E,,*13
$GPRMC,230014.8,A,4741.19784,N,12224.27650,W,000.13,046.6,161015,016.4,E,A*28
$YXXDR,A,5.7,D,PTCH,A,3.5,D,ROLL*59
$GPGGA,230014.8,4741.19784,N,12224.27650,W,1,07,1.3,-6.4,M,-18.2,M,,*4A
$GPVTG,046.6,T,030.1,M,000.13,N,0000.25,K,A*10
$HCHDG,87.5,0.0,E,,*13
$GPRMC,230014.9,A,4741.19784,N,12224.27650,W,000.13,046.6,161015,016.4,E,A*29
$YXXDR,A,5.7,D,PTCH,A,3.5,D,ROLL*59
$GPGGA,230014.9,4741.19784,N,12224.27650,W,1,07,1.3,-6.4,M,-18.2,M,,*4B
$GPVTG,046.6,T,030.1,M,000.13,N,0000.24,K,A*11
$HCHDG,87.5,0.0,E,,*13
$YXXDR,A,5.7,D,PTCH,A,3.4,D,ROLL*58
$GPRMC,230015.0,A,4741.19784,N,12224.27650,W,000.12,046.6,161015,016.4,E,A*20
$GPGGA,230015.0,4741.19784,N,12224.27650,W,1,07,1.3,-6.4,M,-18.2,M,,*43
$GPVTG,046.6,T,030.1,M,000.12,N,0000.23,K,A*17
$GPGSA,A,3,22,08,21,27,16,18,15,,,,,,1.9,1.3,1.4*39
$GPGSV,2,1,07,22,64,257,49,08,26,313,39,21,51,115,41,27,51,278,51*7A
$GPGSV,2,2,07,16,05,243,38,18,72,059,49,15,26,049,35*44
$HCHDG,87.6,0.0,E,,*10
$YXXDR,A,5.7,D,PTCH,A,3.4,D,ROLL*58
$GPRMC,230015.1,A,4741.19784,N,12224.27650,W,000.12,046.6,161015,016.4,E,A*21
$GPGGA,230015.1,4741.19784,N,12224.27650,W,1,07,1.3,-6.4,M,-18.2,M,,*42
$GPVTG,046.6,T,030.1,M,000.12,N,0000.22,K,A*16
$GPRMC,230015.2,A,4741.19784,N,12224.27650,W,000.14,046.6,161015,016.4,E,A*24
$GPGGA,230015.2,4741.19784,N,12224.27650,W,1,07,1.3,-6.4,M,-18.2,M,,*41
$GPVTG,046.6,T,030.1,M,000.14,N,0000.26,K,A*14
$HCHDG,87.5,0.0,E,,*13
$YXXDR,A,5.7,D,PTCH,A,3.3,D,ROLL*5F
$GPRMC,230015.3,A,4741.19784,N,12224.27650,W,000.13,046.6,161015,016.4,E,A*22
$GPGGA,230015.3,4741.19784,N,12224.27650,W,1,07,1.3,-6.4,M,-18.2,M,,*40
$GPVTG,046.6,T,030.1,M,000.13,N,0000.25,K,A*10
$HCHDG,87.4,0.0,E,,*12
$YXXDR,A,5.8,D,PTCH,A,3.3,D,ROLL*50
$GPRMC,230015.4,A,4741.19784,N,12224.27650,W,000.16,046.6,161015,016.4,E,A*20
$GPGGA,230015.4,4741.19784,N,12224.27650,W,1,07,1.3,-6.4,M,-18.2,M,,*47
$GPVTG,046.6,T,030.1,M,000.16,N,0000.29,K,A*19
$HCHDG,87.4,0.0,E,,*12
$IIRMB,A,0.00,0,W,X,4741.196000,N,12224.276000,E,1.0,104,3.00,V*77
$YXXDR,A,5.8,D,PTCH,A,3.3,D,ROLL*50
$GPRMC,230015.5,A,4741.19784,N,12224.27650,W,000.16,046.6,161015,016.4,E,A*21
$GPGGA,230015.5,4741.19784,N,12224.27650,W,1,07,1.3,-6.4,M,-18.2,M,,*46
$GPVTG,046.6,T,030.1,M,000.16,N,0000.30,K,A*11
$HCHDG,87.5,0.0,E,,*13
$YXXDR,A,5.8,D,PTCH,A,3.5,D,ROLL*56
$GPRMC,230015.6,A,4741.19784,N,12224.27650,W,000.15,046.6,161015,016.4,E,A*21
$GPGGA,230015.6,4741.19784,N,12224.27650,W,1,07,1.3,-6.4,M,-18.2,M,,*45
$GPVTG,046.6,T,030.1,M,000.15,N,0000.27,K,A*14
$HCHDG,87.5,0.0,E,,*13
$YXXDR,A,5.6,D,PTCH,A,3.8,D,ROLL*55
$TIROT,-11.7,A*21
$GPRMC,230015.7,A,4741.19784,N,12224.27650,W,000.14,046.6,161015,016.4,E,A*21
$GPGGA,230015.7,4741.19784,N,12224.27650,W,1,07,1.3,-6.4,M,-18.2,M,,*44
$GPVTG,046.6,T,030.1,M,000.14,N,0000.26,K,A*14
$HCHDG,87.4,0.0,E,,*12
$YXXDR,A,5.6,D,PTCH,A,3.8,D,ROLL*55
$GPRMC,230015.8,A,4741.19783,N,12224.27651,W,000.13,046.6,161015,016.4,E,A*2F
$GPGGA,230015.8,4741.19783,N,12224.27651,W,1,07,1.3,-6.4,M,-18.2,M,,*4D
$GPVTG,046.6,T,030.1,M,000.13,N,0000.23,K,A*16
$HCHDG,87.5,0.0,E,,*13
$YXXDR,A,5.8,D,PTCH,A,3.9,D,ROLL*5A
$GPRMC,230015.9,A,4741.19783,N,12224.27651,W,000.13,046.6,161015,016.4,E,A*2E
$GPGGA,230015.9,4741.19783,N,12224.27651,W,1,07,1.3,-6.4,M,-18.2,M,,*4C
$GPVTG,046.6,T,030.1,M,000.13,N,0000.25,K,A*10
$HCHDG,87.5,0.0,E,,*13
$YXXDR,A,5.8,D,PTCH,A,3.9,D,ROLL*5A
$GPRMC,230016.0,A,4741.19783,N,12224.27651,W,000.13,046.6,161015,016.4,E,A*24
$GPGGA,230016.0,4741.19783,N,12224.27651,W,1,07,1.3,-6.4,M,-18.2,M,,*46
$GPVTG,046.6,T,030.1,M,000.13,N,0000.24,K,A*11
$HCHDG,87.5,0.0,E,,*13
$GPGSA,A,3,22,08,21,27,16,18,15,,,,,,1.9,1.3,1.4*39
$YXXDR,A,5.8,D,PTCH,A,3.9,D,ROLL*5A
$GPGSV,2,1,07,22,64,257,49,08,26,313,39,21,51,115,42,27,51,278,50*78
$GPGSV,2,2,07,16,05,243,38,18,72,059,49,15,26,049,34*45
$GPRMC,230016.1,A,4741.19783,N,12224.27651,W,000.15,046.6,161015,016.4,E,A*23
$GPGGA,230016.1,4741.19783,N,12224.27651,W,1,07,1.3,-6.4,M,-18.2,M,,*47
$GPVTG,046.6,T,030.1,M,000.15,N,0000.28,K,A*1B
$HCHDG,87.2,0.0,E,,*14
$YXXDR,A,5.8,D,PTCH,A,3.9,D,ROLL*5A
$GPRMC,230016.2,A,4741.19783,N,12224.27651,W,000.15,046.6,161015,016.4,E,A*20
$GPGGA,230016.2,4741.19783,N,12224.27651,W,1,07,1.3,-6.4,M,-18.2,M,,*44
$HCHDG,87.1,0.0,E,,*17
$GPVTG,046.6,T,030.1,M,000.15,N,0000.27,K,A*14
$YXXDR,A,5.8,D,PTCH,A,3.9,D,ROLL*5A
$GPRMC,230016.3,A,4741.19783,N,12224.27651,W,000.14,046.6,161015,016.4,E,A*20
$GPGGA,230016.3,4741.19783,N,12224.27651,W,1,07,1.3,-6.4,M,-18.2,M,,*45
$HCHDG,87.4,0.0,E,,*12
$GPVTG,046.6,T,030.1,M,000.14,N,0000.27,K,A*15
$YXXDR,A,5.6,D,PTCH,A,3.8,D,ROLL*55
$GPRMC,230016.4,A,4741.19783,N,12224.27651,W,000.14,046.6,161015,016.4,E,A*27
$GPGGA,230016.4,4741.19783,N,12224.27651,W,1,07,1.3,-6.4,M,-18.2,M,,*42
$HCHDG,87.4,0.0,E,,*12
$IIRMB,A,0.00,0,W,X,4741.196000,N,12224.276000,E,1.0,104,3.00,V*77
$GPVTG,046.6,T,030.1,M,000.14,N,0000.27,K,A*15
$YXXDR,A,5.6,D,PTCH,A,3.8,D,ROLL*55
$GPRMC,230016.5,A,4741.19783,N,12224.27651,W,000.16,046.6,161015,016.4,E,A*24
$GPGGA,230016.5,4741.19783,N,12224.27651,W,1,07,1.3,-6.4,M,-18.2,M,,*43
$HCHDG,87.4,0.0,E,,*12
$GPVTG,046.6,T,030.1,M,000.16,N,0000.30,K,A*11
$YXXDR,A,5.6,D,PTCH,A,3.7,D,ROLL*5A
$GPRMC,230016.6,A,4741.19784,N,12224.27651,W,000.70,046.6,161015,016.4,E,A*20
$GPGGA,230016.6,4741.19784,N,12224.27651,W,1,07,1.3,-6.4,M,-18.2,M,,*47
$HCHDG,87.3,0.0,E,,*15
$GPVTG,046.6,T,030.1,M,000.70,N,0001.30,K,A*10
$YXXDR,A,5.7,D,PTCH,A,3.5,D,ROLL*59
$TIROT,-17.5,A*25
$GPRMC,230016.7,A,4741.19784,N,12224.27651,W,000.68,046.6,161015,016.4,E,A*28
$GPGGA,230016.7,4741.19784,N,12224.27651,W,1,07,1.3,-6.4,M,-18.2,M,,*46
$HCHDG,87.4,0.0,E,,*12
$GPVTG,046.6,T,030.1,M,000.68,N,0001.25,K,A*1D
$YXXDR,A,5.7,D,PTCH,A,3.5,D,ROLL*59
$GPRMC,230016.8,A,4741.19784,N,12224.27651,W,000.07,046.6,161015,016.4,E,A*2E
$GPGGA,230016.8,4741.19784,N,12224.27651,W,1,07,1.3,-6.4,M,-18.2,M,,*49
$HCHDG,87.4,0.0,E,,*12
$GPVTG,046.6,T,030.1,M,000.07,N,0000.13,K,A*10
$YXXDR,A,5.7,D,PTCH,A,3.5,D,ROLL*59
$GPRMC,230016.9,A,4741.19784,N,12224.27651,W,000.08,046.6,161015,016.4,E,A*20
$GPGGA,230016.9,4741.19784,N,12224.27651,W,1,07,1.3,-6.4,M,-18.2,M,,*48
$HCHDG,87.4,0.0,E,,*12
$GPVTG,046.6,T,030.1,M,000.08,N,0000.14,K,A*18
$YXXDR,A,5.6,D,PTCH,A,3.5,D,ROLL*58
$GPRMC,230017.0,A,4741.19784,N,12224.27651,W,000.07,046.6,161015,016.4,E,A*27
$GPGGA,230017.0,4741.19784,N,12224.27651,W,1,07,1.3,-6.4,M,-18.2,M,,*40
$HCHDG,87.4,0.0,E,,*12
$GPVTG,046.6,T,030.1,M,000.07,N,0000.13,K,A*10
$GPGSA,A,3,22,08,21,27,16,18,15,,,,,,1.9,1.3,1.4*39
$YXXDR,A,5.6,D,PTCH,A,3.3,D,ROLL*5E
$GPGSV,2,1,07,22,64,257,49,08,26,313,39,21,51,115,42,27,51,278,50*78
$GPGSV,2,2,07,16,05,243,38,18,72,059,49,15,26,049,36*47
$GPRMC,230017.1,A,4741.19784,N,12224.27651,W,000.07,046.6,161015,016.4,E,A*26
$GPGGA,230017.1,4741.19784,N,12224.27651,W,1,07,1.3,-6.4,M,-18.2,M,,*41
$HCHDG,87.4,0.0,E,,*12
$GPVTG,046.6,T,030.1,M,000.07,N,0000.13,K,A*10
$YXXDR,A,5.5,D,PTCH,A,3.4,D,ROLL*5A
$GPRMC,230017.2,A,4741.19784,N,12224.27651,W,000.10,046.6,161015,016.4,E,A*23
$GPGGA,230017.2,4741.19784,N,12224.27651,W,1,07,1.3,-6.4,M,-18.2,M,,*42
$HCHDG,87.3,0.0,E,,*15
$GPVTG,046.6,T,030.1,M,000.10,N,0000.18,K,A*1D
$YXXDR,A,5.5,D,PTCH,A,3.1,D,ROLL*5F
$GPRMC,230017.3,A,4741.19784,N,12224.27651,W,000.11,046.6,161015,016.4,E,A*23
$GPGGA,230017.3,4741.19784,N,12224.27651,W,1,07,1.3,-6.4,M,-18.2,M,,*43
$HCHDG,87.3,0.0,E,,*15
$IIRMB,A,0.00,0,W,X,4741.196000,N,12224.276000,E,1.0,104,3.00,V*77
$GPVTG,046.6,T,030.1,M,000.11,N,0000.21,K,A*16
$YXXDR,A,5.5,D,PTCH,A,3.1,D,ROLL*5F
$GPRMC,230017.4,A,4741.19784,N,12224.27651,W,000.19,046.6,161015,016.4,E,A*2C
$GPGGA,230017.4,4741.19784,N,12224.27651,W,1,07,1.3,-6.4,M,-18.2,M,,*44
$HCHDG,87.3,0.0,E,,*15
$GPVTG,046.6,T,030.1,M,000.19,N,0000.35,K,A*1B
$YXXDR,A,5.5,D,PTCH,A,2.8,D,ROLL*57
$GPRMC,230017.5,A,4741.19784,N,12224.27651,W,000.07,046.6,161015,016.4,E,A*22
$GPGGA,230017.5,4741.19784,N,12224.27651,W,1,08,1.0,-6.4,M,-18.2,M,,*49
$HCHDG,87.2,0.0,E,,*14
$GPVTG,046.6,T,030.1,M,000.07,N,0000.13,K,A*10
$YXXDR,A,5.5,D,PTCH,A,2.7,D,ROLL*58
$GPRMC,230017.6,A,4741.19783,N,12224.27652,W,000.74,046.6,161015,016.4,E,A*21
$GPGGA,230017.6,4741.19783,N,12224.27652,W,1,08,1.0,-6.4,M,-18.2,M,,*4E
$HCHDG,87.2,0.0,E,,*14
$GPVTG,046.6,T,030.1,M,000.74,N,0001.37,K,A*13
$YXXDR,A,5.5,D,PTCH,A,2.5,D,ROLL*5A
$TIROT,-12.5,A*20
$GPRMC,230017.7,A,4741.19783,N,12224.27652,W,000.68,046.6,161015,016.4,E,A*2D
$GPGGA,230017.7,4741.19783,N,12224.27652,W,1,08,1.0,-6.4,M,-18.2,M,,*4F
$HCHDG,87.2,0.0,E,,*14
$GPVTG,046.6,T,030.1,M,000.68,N,0001.26,K,A*1E
$YXXDR,A,5.5,D,PTCH,A,2.5,D,ROLL*5A
$GPRMC,230017.8,A,4741.19783,N,12224.27652,W,000.60,046.6,161015,016.4,E,A*2A
$GPGGA,230017.8,4741.19783,N,12224.27652,W,1,08,1.0,-6.4,M,-18.2,M,,*40
$HCHDG,87.2,0.0,E,,*14
$GPVTG,046.6,T,030.1,M,000.60,N,0001.10,K,A*13
$YXXDR,A,5.7,D,PTCH,A,2.5,D,ROLL*58
$GPRMC,230017.9,A,4741.19783,N,12224.27652,W,000.50,046.6,161015,016.4,E,A*28
$GPGGA,230017.9,4741.19783,N,12224.27652,W,1,08,1.0,-6.4,M,-18.2,M,,*41
$HCHDG,87.2,0.0,E,,*14
$GPVTG,046.6,T,030.1,M,000.50,N,0000.92,K,A*1B
$YXXDR,A,5.7,D,PTCH,A,2.5,D,ROLL*58
$GPRMC,230018.0,A,4741.19783,N,12224.27652,W,000.42,046.6,161015,016.4,E,A*2D
$GPGGA,230018.0,4741.19783,N,12224.27652,W,1,08,1.0,-6.4,M,-18.2,M,,*47
$HCHDG,87.2,0.0,E,,*14
$GPVTG,046.6,T,030.1,M,000.42,N,0000.79,K,A*1D
$YXXDR,A,5.7,D,PTCH,A,2.5,D,ROLL*58
$GPGSA,A,3,22,14,08,21,27,16,18,15,,,,,1.7,1.0,1.4*31
$GPRMC,230018.1,A,4741.19779,N,12224.27654,W,000.41,046.6,161015,016.4,E,A*2C
$HCHDG,87.3,0.0,E,,*15
$GPGGA,230018.1,4741.19779,N,12224.27654,W,1,08,1.0,-6.3,M,-18.2,M,,*42
$GPVTG,046.6,T,030.1,M,000.41,N,0000.75,K,A*12
$YXXDR,A,5.7,D,PTCH,A,2.5,D,ROLL*58
$GPGSV,2,1,08,22,64,257,49,14,27,182,34,08,26,313,39,21,51,115,43*73
$GPGSV,2,2,08,27,51,278,50,16,05,243,38,18,72,059,49,15,26,049,40*70
$GPRMC,230018.2,A,4741.19779,N,12224.27654,W,000.37,046.6,161015,016.4,E,A*2E
$HCHDG,87.3,0.0,E,,*15
$IIRMB,A,0.00,0,W,X,4741.196000,N,12224.276000,E,1.0,104,3.00,V*77
$GPGGA,230018.2,4741.19779,N,12224.27654,W,1,08,1.0,-6.3,M,-18.2,M,,*41
$YXXDR,A,5.7,D,PTCH,A,2.5,D,ROLL*58
$GPVTG,046.6,T,030.1,M,000.37,N,0000.69,K,A*1E
$GPRMC,230018.3,A,4741.19779,N,12224.27654,W,000.34,046.6,161015,016.4,E,A*2C
$HCHDG,87.3,0.0,E,,*15
$GPGGA,230018.3,4741.19779,N,12224.27654,W,1,08,1.0,-6.3,M,-18.2,M,,*40
$GPVTG,046.6,T,030.1,M,000.34,N,0000.63,K,A*17
$YXXDR,A,5.7,D,PTCH,A,2.6,D,ROLL*5B
$GPRMC,230018.4,A,4741.19779,N,12224.27654,W,000.32,046.6,161015,016.4,E,A*2D
$HCHDG,87.4,0.0,E,,*12
$GPGGA,230018.4,4741.19779,N,12224.27654,W,1,08,1.0,-6.3,M,-18.2,M,,*47
$GPVTG,046.6,T,030.1,M,000.32,N,0000.59,K,A*18
$YXXDR,A,5.6,D,PTCH,A,2.6,D,ROLL*5A
$GPRMC,230018.5,A,4741.19779,N,12224.27654,W,000.30,046.6,161015,016.4,E,A*2E
$HCHDG,87.3,0.0,E,,*15
$GPGGA,230018.5,4741.19779,N,12224.27654,W,1,08,1.0,-6.3,M,-18.2,M,,*46
$GPVTG,046.6,T,030.1,M,000.30,N,0000.55,K,A*16
$YXXDR,A,5.6,D,PTCH,A,2.6,D,ROLL*5A
$GPRMC,230018.6,A,4741.19779,N,12224.27654,W,000.27,046.6,161015,016.4,E,A*2B
$HCHDG,87.3,0.0,E,,*15
$GPGGA,230018.6,4741.19779,N,12224.27654,W,1,08,1.0,-6.3,M,-18.2,M,,*45
$GPVTG,046.6,T,030.1,M,000.27,N,0000.50,K,A*15
$YXXDR,A,5.5,D,PTCH,A,2.7,D,ROLL*58
$TIROT,17.6,A*0B
$GPRMC,230018.7,A,4741.19779,N,12224.27654,W,000.23,046.6,161015,016.4,E,A*2E
$HCHDG,87.4,0.0,E,,*12
$GPGGA,230018.7,4741.19779,N,12224.27654,W,1,08,1.0,-6.3,M,-18.2,M,,*44
$YXXDR,A,5.6,D,PTCH,A,2.7,D,ROLL*5B
$GPVTG,046.6,T,030.1,M,000.23,N,0000.43,K,A*13
$GPRMC,230018.8,A,4741.19779,N,12224.27654,W,000.22,046.6,161015,016.4,E,A*20
$HCHDG,87.4,0.0,E,,*12
$GPGGA,230018.8,4741.19779,N,12224.27654,W,1,08,1.0,-6.3,M,-18.2,M,,*4B
$YXXDR,A,5.6,D,PTCH,A,2.7,D,ROLL*5B
$GPVTG,046.6,T,030.1,M,000.22,N,0000.40,K,A*11
$GPRMC,230018.9,A,4741.19779,N,12224.27654,W,000.21,046.6,161015,016.4,E,A*22
$HCHDG,87.6,0.0,E,,*10
$GPGGA,230018.9,4741.19779,N,12224.27654,W,1,08,1.0,-6.3,M,-18.2,M,,*4A
$YXXDR,A,5.4,D,PTCH,A,2.8,D,ROLL*56
$GPVTG,046.6,T,030.1,M,000.21,N,0000.39,K,A*1C
$GPRMC,230019.0,A,4741.19779,N,12224.27654,W,000.20,046.6,161015,016.4,E,A*2B
$GPGGA,230019.0,4741.19779,N,12224.27654,W,1,08,1.0,-6.3,M,-18.2,M,,*42
$HCHDG,87.7,0.0,E,,*11
$YXXDR,A,5.6,D,PTCH,A,2.7,D,ROLL*5B
$GPVTG,046.6,T,030.1,M,000.20,N,0000.37,K,A*13
$GPGSA,A,3,22,14,08,21,27,16,18,15,,,,,1.7,1.0,1.4*31
$GPRMC,230019.1,A,4741.19777,N,12224.27664,W,000.17,046.6,161015,016.4,E,A*23
$HCHDG,87.4,0.0,E,,*12
$GPGGA,230019.1,4741.19777,N,12224.27664,W,1,08,1.0,-6.2,M,-18.2,M,,*4F
$YXXDR,A,5.5,D,PTCH,A,2.8,D,ROLL*57
$GPVTG,046.6,T,030.1,M,000.17,N,0000.31,K,A*11
$GPGSV,2,1,08,22,64,257,48,14,27,182,30,08,26,313,39,21,51,115,43*76
$GPGSV,2,2,08,27,51,278,50,16,05,243,38,18,72,059,49,15,26,049,40*70
$GPRMC,230019.2,A,4741.19777,N,12224.27664,W,000.16,046.6,161015,016.4,E,A*21
$HCHDG,87.4,0.0,E,,*12
$IIRMB,A,0.00,0,W,X,4741.196000,N,12224.276000,E,1.0,104,3.00,V*77
$YXXDR,A,5.6,D,PTCH,A,2.7,D,ROLL*5B
$GPGGA,230019.2,4741.19777,N,12224.27664,W,1,08,1.0,-6.2,M,-18.2,M,,*4C
$GPVTG,046.6,T,030.1,M,000.16,N,0000.29,K,A*19
$GPRMC,230019.3,A,4741.19777,N,12224.27664,W,000.17,046.6,161015,016.4,E,A*21
$HCHDG,87.4,0.0,E,,*12
$GPGGA,230019.3,4741.19777,N,12224.27664,W,1,08,1.0,-6.2,M,-18.2,M,,*4D
$GPVTG,046.6,T,030.1,M,000.17,N,0000.31,K,A*11
$YXXDR,A,5.5,D,PTCH,A,2.8,D,ROLL*57
$GPRMC,230019.4,A,4741.19777,N,12224.27664,W,000.15,046.6,161015,016.4,E,A*24
$HCHDG,87.4,0.0,E,,*12
$GPGGA,230019.4,4741.19777,N,12224.27664,W,1,08,1.0,-6.2,M,-18.2,M,,*4A
$GPVTG,046.6,T,030.1,M,000.15,N,0000.28,K,A*1B
$YXXDR,A,5.6,D,PTCH,A,3.0,D,ROLL*5D
$GPRMC,230019.5,A,4741.19777,N,12224.27664,W,000.14,046.6,161015,016.4,E,A*24
$HCHDG,87.4,0.0,E,,*12
$GPGGA,230019.5,4741.19777,N,12224.27664,W,1,08,1.0,-6.2,M,-18.2,M,,*4B
$YXXDR,A,5.7,D,PTCH,A,3.1,D,ROLL*5D
$GPVTG,046.6,T,030.1,M,000.14,N,0000.25,K,A*17
$GPRMC,230019.6,A,4741.19777,N,12224.27664,W,000.12,046.6,161015,016.4,E,A*21
$HCHDG,87.4,0.0,E,,*12
$GPGGA,230019.6,4741.19777,N,12224.27664,W,1,08,1.0,-6.2,M,-18.2,M,,*48
$GPVTG,046.6,T,030.1,M,000.12,N,0000.22,K,A*16
$YXXDR,A,5.7,D,PTCH,A,3.1,D,ROLL*5D
$TIROT,-5.8,A*1B
$GPRMC,230019.7,A,4741.19777,N,12224.27664,W,000.16,046.6,161015,016.4,E,A*24
$HCHDG,87.4,0.0,E,,*12
$GPGGA,230019.7,4741.19777,N,12224.27664,W,1,08,1.0,-6.2,M,-18.2,M,,*49
$YXXDR,A,5.7,D,PTCH,A,3.2,D,ROLL*5E
$GPVTG,046.6,T,030.1,M,000.16,N,0000.30,K,A*11
$GPRMC,230019.8,A,4741.19777,N,12224.27664,W,000.17,046.6,161015,016.4,E,A*2A
$HCHDG,87.4,0.0,E,,*12
$GPGGA,230019.8,4741.19777,N,12224.27664,W,1,08,1.0,-6.2,M,-18.2,M,,*46
$YXXDR,A,5.6,D,PTCH,A,3.3,D,ROLL*5E
$GPVTG,046.6,T,030.1,M,000.17,N,0000.31,K,A*11
$GPRMC,230019.9,A,4741.19777,N,12224.27664,W,000.17,046.6,161015,016.4,E,A*2B
$HCHDG,87.4,0.0,E,,*12
$YXXDR,A,5.6,D,PTCH,A,3.3,D,ROLL*5E
$HCHDG,87.3,0.0,E,,*15
$YXXDR,A,5.6,D,PTCH,A,3.3,D,ROLL*5E
$GPGGA,230019.9,4741.19777,N,12224.27664,W,1,08,1.0,-6.2,M,-18.2,M,,*47
$GPVTG,046.6,T,030.1,M,000.17,N,0000.32,K,A*12
$GPRMC,230020.0,A,4741.19777,N,12224.27664,W,000.20,046.6,161015,016.4,E,A*2C
$GPGGA,230020.0,4741.19777,N,12224.27664,W,1,08,1.0,-6.2,M,-18.2,M,,*44
$GPVTG,046.6,T,030.1,M,000.20,N,0000.36,K,A*12
$GPGSA,A,3,22,14,08,21,27,16,18,15,,,,,1.7,1.0,1.4*31
$HCHDG,87.3,0.0,E,,*15
$IIRMB,A,0.00,0,W,X,4741.196000,N,12224.276000,E,1.0,104,3.00,V*77
$YXXDR,A,5.6,D,PTCH,A,3.3,D,ROLL*5E
$GPRMC,230020.1,A,4741.19780,N,12224.27668,W,000.17,046.6,161015,016.4,E,A*2D
$GPGGA,230020.1,4741.19780,N,12224.27668,W,1,08,1.0,-6.3,M,-18.2,M,,*40
$GPVTG,046.6,T,030.1,M,000.17,N,0000.31,K,A*11
$GPGSV,2,1,08,22,64,257,48,14,27,182,30,08,26,313,39,21,51,115,43*76
