$HCHDG,92.4,0.0,E,,*16
$IIVHW,,,,,00.0,N,,*19
$GPRMC,230000.0,A,4741.19761,N,12224.27736,W,000.19,055.5,151015,016.4,E,A*27
$YXXDR,A,5.2,D,PTCH,A,2.3,D,ROLL*5B
$GPGGA,230000.0,4741.19761,N,12224.27736,W,1,08,1.0,-5.7,M,-18.2,M,,*41
$GPVTG,055.5,T,039.0,M,000.19,N,0000.35,K,A*12
$GPGSA,A,3,22,14,27,08,21,16,18,15,,,,,1.7,1.0,1.4*31
$HCHDG,92.4,0.0,E,,*16
$GPRMC,230000.1,A,4741.19761,N,12224.27736,W,000.20,055.4,151015,016.4,E,A*2D
$YXXDR,A,5.4,D,PTCH,A,2.4,D,ROLL*5A
$GPGGA,230000.1,4741.19761,N,12224.27736,W,1,08,1.0,-5.8,M,-18.2,M,,*4F
$GPVTG,055.4,T,038.9,M,000.20,N,0000.37,K,A*13
$GPGSV,2,1,08,22,62,255,43,14,25,182,38,27,51,281,48,08,25,314,37*7A
$GPGSV,2,2,08,21,53,114,45,16,07,244,41,18,74,058,47,15,27,049,36*7B
$HCHDG,92.4,0.0,E,,*16
$GPRMC,230000.2,A,4741.19761,N,12224.27736,W,000.21,055.3,151015,016.4,E,A*28
$YXXDR,A,5.3,D,PTCH,A,2.7,D,ROLL*5E
$GPGGA,230000.2,4741.19761,N,12224.27736,W,1,08,1.0,-5.8,M,-18.2,M,,*4C
$GPVTG,055.3,T,038.8,M,000.21,N,0000.39,K,A*1A
$PGRMT,GPS19x-HVS Software Version 2.20,,,,,,,,*6F
$HCHDG,92.3,0.0,E,,*11
$GPRMC,230000.3,A,4741.19761,N,12224.27736,W,000.21,055.2,151015,016.4,E,A*28
$YXXDR,A,5.4,D,PTCH,A,2.8,D,ROLL*56
$GPGGA,230000.3,4741.19761,N,12224.27736,W,1,08,1.0,-5.8,M,-18.2,M,,*4D
$GPVTG,055.2,T,038.7,M,000.21,N,0000.38,K,A*15
$HCHDG,92.1,0.0,E,,*13
$GPRMC,230000.4,A,4741.19761,N,12224.27736,W,000.26,055.1,151015,016.4,E,A*2B
$YXXDR,A,5.4,D,PTCH,A,2.9,D,ROLL*57
$GPGGA,230000.4,4741.19761,N,12224.27736,W,1,08,1.0,-5.8,M,-18.2,M,,*4A
$GPVTG,055.1,T,038.6,M,000.26,N,0000.47,K,A*18
$IIVLW,07411,N,037.3,N*57
$HCHDG,92.0,0.0,E,,*12
$GPRMC,230000.5,A,4741.19761,N,12224.27736,W,000.10,054.5,151015,016.4,E,A*2A
$YXXDR,A,5.5,D,PTCH,A,2.9,D,ROLL*56
$GPGGA,230000.5,4741.19761,N,12224.27736,W,1,08,1.0,-5.8,M,-18.2,M,,*4B
$IIVWR,102,L,13.5,N,,,,*7B
$GPVTG,054.5,T,038.0,M,000.10,N,0000.18,K,A*14
$HCHDG,92.1,0.0,E,,*13
$GPRMC,230000.6,A,4741.19761,N,12224.27736,W,000.13,054.5,151015,016.4,E,A*2A
$YXXDR,A,5.4,D,PTCH,A,3.0,D,ROLL*5F
$TIROT,34.2,A*0E
$GPGGA,230000.6,4741.19761,N,12224.27736,W,1,08,1.0,-5.8,M,-18.2,M,,*48
$GPVTG,054.5,T,038.0,M,000.13,N,0000.25,K,A*19
$HCHDG,92.1,0.0,E,,*13
$IIMTW,+10.5,C*3C
$GPRMC,230000.7,A,4741.19761,N,12224.27736,W,000.14,054.5,151015,016.4,E,A*2C
$YXXDR,A,5.4,D,PTCH,A,3.1,D,ROLL*5E
$GPGGA,230000.7,4741.19761,N,12224.27736,W,1,08,1.0,-5.8,M,-18.2,M,,*49
$GPVTG,054.5,T,038.0,M,000.14,N,0000.25,K,A*1E
$IIMWV,258,R,13.5,N,A*1B
$HCHDG,92.1,0.0,E,,*13
$GPRMC,230000.8,A,4741.19762,N,12224.27740,W,000.16,054.5,151015,016.4,E,A*23
$YXXDR,A,5.2,D,PTCH,A,3.2,D,ROLL*5B
$IIMWV,259,T,13.7,N,A*1E
$GPGGA,230000.8,4741.19762,N,12224.27740,W,1,08,1.0,-5.8,M,-18.2,M,,*44
$GPVTG,054.5,T,038.0,M,000.16,N,0000.29,K,A*10
$HCHDG,92.1,0.0,E,,*13
$GPRMC,230000.9,A,4741.19762,N,12224.27740,W,000.19,054.5,151015,016.4,E,A*2D
$YXXDR,A,5.2,D,PTCH,A,3.4,D,ROLL*5D
$GPGGA,230000.9,4741.19762,N,12224.27740,W,1,08,1.0,-5.8,M,-18.2,M,,*45
$GPVTG,054.5,T,038.0,M,000.19,N,0000.35,K,A*12
$HCHDG,92.2,0.0,E,,*10
$IIVHW,,,,,00.0,N,,*19
$YXXDR,A,5.2,D,PTCH,A,3.5,D,ROLL*5C
$GPRMC,230001.0,A,4741.19762,N,12224.27740,W,000.23,054.5,151015,016.4,E,A*2C
$GPGGA,230001.0,4741.19762,N,12224.27740,W,1,08,1.0,-5.8,M,-18.2,M,,*4D
$GPVTG,054.5,T,038.0,M,000.23,N,0000.42,K,A*1B
$GPGSA,A,3,22,14,27,08,21,16,18,15,,,,,1.7,1.0,1.4*31
$HCHDG,92.4,0.0,E,,*16
$YXXDR,A,5.0,D,PTCH,A,4.2,D,ROLL*5E
$GPRMC,230001.1,A,4741.19762,N,12224.27740,W,000.26,054.5,151015,016.4,E,A*28
$GPGGA,230001.1,4741.19762,N,12224.27740,W,1,08,1.0,-5.8,M,-18.2,M,,*4C
$GPVTG,054.5,T,038.0,M,000.26,N,0000.48,K,A*14
$GPGSV,2,1,08,22,62,255,44,14,25,182,37,27,51,281,48,08,25,314,38*7D
$GPGSV,2,2,08,21,53,114,45,16,07,244,40,18,74,058,48,15,27,049,35*76
$HCHDG,92.3,0.0,E,,*11
$GPRMC,230001.2,A,4741.19762,N,12224.27740,W,000.24,054.5,151015,016.4,E,A*29
$YXXDR,A,5.0,D,PTCH,A,4.2,D,ROLL*5E
$GPGGA,230001.2,4741.19762,N,12224.27740,W,1,08,1.0,-5.8,M,-18.2,M,,*4F
$GPVTG,054.5,T,038.0,M,000.24,N,0000.45,K,A*1B
$HCHDG,92.6,0.0,E,,*14
$GPRMC,230001.3,A,4741.19762,N,12224.27740,W,000.28,054.5,151015,016.4,E,A*24
$YXXDR,A,4.8,D,PTCH,A,4.2,D,ROLL*57
$GPGGA,230001.3,4741.19762,N,12224.27740,W,1,08,1.0,-5.8,M,-18.2,M,,*4E
$GPVTG,054.5,T,038.0,M,000.28,N,0000.52,K,A*11
$HCHDG,92.6,0.0,E,,*14
$GPRMC,230001.4,A,4741.19762,N,12224.27740,W,000.29,054.5,151015,016.4,E,A*22
$YXXDR,A,5.0,D,PTCH,A,4.2,D,ROLL*5E
$GPGGA,230001.4,4741.19762,N,12224.27740,W,1,08,1.0,-5.8,M,-18.2,M,,*49
$GPVTG,054.5,T,038.0,M,000.29,N,0000.54,K,A*16
$IIVLW,07411,N,037.3,N*57
$HCHDG,92.7,0.0,E,,*15
$YXXDR,A,4.8,D,PTCH,A,4.5,D,ROLL*50
$GPRMC,230001.5,A,4741.19762,N,12224.27740,W,000.27,054.5,151015,016.4,E,A*2D
$IIVWR,100,L,13.4,N,,,,*78
$GPGGA,230001.5,4741.19762,N,12224.27740,W,1,08,1.0,-5.8,M,-18.2,M,,*48
$GPVTG,054.5,T,038.0,M,000.27,N,0000.50,K,A*1C
$HCHDG,92.8,0.0,E,,*1A
$YXXDR,A,4.7,D,PTCH,A,4.4,D,ROLL*5E
$TIROT,10.3,A*09
$GPRMC,230001.6,A,4741.19762,N,12224.27740,W,000.27,054.5,151015,016.4,E,A*2E
$GPGGA,230001.6,4741.19762,N,12224.27740,W,1,08,1.0,-5.8,M,-18.2,M,,*4B
$GPVTG,054.5,T,038.0,M,000.27,N,0000.50,K,A*1C
$HCHDG,93.0,0.0,E,,*13
$IIMTW,+10.5,C*3C
$YXXDR,A,4.7,D,PTCH,A,4.5,D,ROLL*5F
$GPRMC,230001.7,A,4741.19762,N,12224.27740,W,000.28,054.5,151015,016.4,E,A*20
$GPGGA,230001.7,4741.19762,N,12224.27740,W,1,08,1.0,-5.8,M,-18.2,M,,*4A
$GPVTG,054.5,T,038.0,M,000.28,N,0000.52,K,A*11
$IIMWV,260,R,13.4,N,A*11
$HCHDG,93.0,0.0,E,,*13
$YXXDR,A,4.7,D,PTCH,A,4.6,D,ROLL*5C
$GPRMC,230001.8,A,4741.19760,N,12224.27741,W,000.24,054.5,151015,016.4,E,A*20
$IIMWV,258,T,13.5,N,A*1D
$GPGGA,230001.8,4741.19760,N,12224.27741,W,1,08,1.0,-5.8,M,-18.2,M,,*46
$GPVTG,054.5,T,038.0,M,000.24,N,0000.45,K,A*1B
$HCHDG,93.1,0.0,E,,*12
$YXXDR,A,4.7,D,PTCH,A,4.6,D,ROLL*5C
$GPRMC,230001.9,A,4741.19760,N,12224.27741,W,000.23,054.5,151015,016.4,E,A*26
$GPGGA,230001.9,4741.19760,N,12224.27741,W,1,08,1.0,-5.8,M,-18.2,M,,*47
$GPVTG,054.5,T,038.0,M,000.23,N,0000.43,K,A*1A
$HCHDG,93.0,0.0,E,,*13
$IIVHW,,,,,00.0,N,,*19
$YXXDR,A,4.7,D,PTCH,A,4.7,D,ROLL*5D
$GPRMC,230002.0,A,4741.19760,N,12224.27741,W,000.25,054.5,151015,016.4,E,A*2A
$GPGGA,230002.0,4741.19760,N,12224.27741,W,1,08,1.0,-5.8,M,-18.2,M,,*4D
$GPVTG,054.5,T,038.1,M,000.25,N,0000.46,K,A*18
$GPGSA,A,3,22,14,27,08,21,16,18,15,,,,,1.7,1.0,1.4*31
$HCHDG,93.1,0.0,E,,*12
$YXXDR,A,4.4,D,PTCH,A,5.0,D,ROLL*58
$GPRMC,230002.1,A,4741.19760,N,12224.27741,W,000.24,054.6,151015,016.4,E,A*29
$GPGGA,230002.1,4741.19760,N,12224.27741,W,1,08,1.0,-5.7,M,-18.2,M,,*43
$GPVTG,054.6,T,038.1,M,000.24,N,0000.45,K,A*19
$GPGSV,2,1,08,22,62,255,44,14,25,182,38,27,51,281,48,08,25,314,39*73
$GPGSV,2,2,08,21,53,114,45,16,06,244,42,18,74,058,48,15,27,049,35*75
$HCHDG,93.5,0.0,E,,*16
$YXXDR,A,4.3,D,PTCH,A,5.0,D,ROLL*5F
$GPRMC,230002.2,A,4741.19760,N,12224.27741,W,000.26,054.6,151015,016.4,E,A*28
$GPGGA,230002.2,4741.19760,N,12224.27741,W,1,08,1.0,-5.7,M,-18.2,M,,*40
$GPVTG,054.6,T,038.2,M,000.26,N,0000.48,K,A*15
$HCHDG,93.6,0.0,E,,*15
$YXXDR,A,4.3,D,PTCH,A,5.0,D,ROLL*5F
$GPRMC,230002.3,A,4741.19760,N,12224.27741,W,000.24,054.7,151015,016.4,E,A*2A
$GPGGA,230002.3,4741.19760,N,12224.27741,W,1,08,1.0,-5.7,M,-18.2,M,,*41
$GPVTG,054.7,T,038.2,M,000.24,N,0000.45,K,A*1B
$HCHDG,93.6,0.0,E,,*15
$YXXDR,A,4.5,D,PTCH,A,5.3,D,ROLL*5A
$GPRMC,230002.4,A,4741.19760,N,12224.27741,W,000.22,054.7,151015,016.4,E,A*2B
$GPGGA,230002.4,4741.19760,N,12224.27741,W,1,08,1.0,-5.7,M,-18.2,M,,*46
$GPVTG,054.7,T,038.3,M,000.22,N,0000.41,K,A*18
$IIVLW,07411,N,037.3,N*57
$HCHDG,93.7,0.0,E,,*14
$YXXDR,A,4.5,D,PTCH,A,5.3,D,ROLL*5A
$GPRMC,230002.5,A,4741.19760,N,12224.27741,W,000.23,054.8,151015,016.4,E,A*24
$IIVWR,100,L,13.6,N,,,,*7A
$GPGGA,230002.5,4741.19760,N,12224.27741,W,1,08,1.0,-5.7,M,-18.2,M,,*47
$GPVTG,054.8,T,038.3,M,000.23,N,0000.42,K,A*15
$HCHDG,93.8,0.0,E,,*1B
$YXXDR,A,4.6,D,PTCH,A,5.2,D,ROLL*58
$TIROT,15.7,A*08
$GPRMC,230002.6,A,4741.19760,N,12224.27741,W,000.21,054.8,151015,016.4,E,A*25
$GPGGA,230002.6,4741.19760,N,12224.27741,W,1,08,1.0,-5.7,M,-18.2,M,,*44
$GPVTG,054.8,T,038.4,M,000.21,N,0000.39,K,A*1C
$HCHDG,93.7,0.0,E,,*14
$IIMTW,+11.0,C*38
$YXXDR,A,4.6,D,PTCH,A,5.4,D,ROLL*5E
$GPRMC,230002.7,A,4741.19760,N,12224.27741,W,000.19,057.4,151015,016.4,E,A*20
$GPGGA,230002.7,4741.19760,N,12224.27741,W,1,08,1.0,-5.7,M,-18.2,M,,*45
$GPVTG,057.4,T,041.0,M,000.19,N,0000.35,K,A*1E
$IIMWV,260,R,13.6,N,A*13
$HCHDG,93.7,0.0,E,,*14
$YXXDR,A,4.6,D,PTCH,A,5.4,D,ROLL*5E
$IIMWV,260,T,13.4,N,A*17
$GPRMC,230002.8,A,4741.19758,N,12224.27741,W,000.19,057.4,151015,016.4,E,A*24
$GPGGA,230002.8,4741.19758,N,12224.27741,W,1,08,1.0,-5.7,M,-18.2,M,,*41
$GPVTG,057.4,T,041.0,M,000.19,N,0000.35,K,A*1E
$HCHDG,93.8,0.0,E,,*1B
$YXXDR,A,4.8,D,PTCH,A,5.2,D,ROLL*56
$GPRMC,230002.9,A,4741.19758,N,12224.27741,W,000.21,057.4,151015,016.4,E,A*2E
$GPGGA,230002.9,4741.19758,N,12224.27741,W,1,08,1.0,-5.7,M,-18.2,M,,*40
$GPVTG,057.4,T,041.0,M,000.21,N,0000.39,K,A*19
$HCHDG,93.8,0.0,E,,*1B
$IIVHW,,,,,00.0,N,,*19
$YXXDR,A,5.0,D,PTCH,A,5.1,D,ROLL*5C
$GPRMC,230003.0,A,4741.19758,N,12224.27741,W,000.20,057.4,151015,016.4,E,A*27
$GPGGA,230003.0,4741.19758,N,12224.27741,W,1,08,1.0,-5.7,M,-18.2,M,,*48
$GPVTG,057.4,T,041.0,M,000.20,N,0000.36,K,A*17
$GPGSA,A,3,22,14,27,08,21,16,18,15,,,,,1.7,1.0,1.4*31
$HCHDG,93.8,0.0,E,,*1B
$YXXDR,A,5.0,D,PTCH,A,5.0,D,ROLL*5D
$GPRMC,230003.1,A,4741.19758,N,12224.27741,W,000.20,057.4,151015,016.4,E,A*26
$GPGGA,230003.1,4741.19758,N,12224.27741,W,1,08,1.0,-5.7,M,-18.2,M,,*49
$GPVTG,057.4,T,041.0,M,000.20,N,0000.38,K,A*19
$GPGSV,2,1,08,22,62,255,44,14,25,182,39,27,51,281,48,08,25,314,40*7C
$HCHDG,93.5,0.0,E,,*16
$GPGSV,2,2,08,21,53,114,45,16,06,244,42,18,74,058,48,15,27,049,36*76
$YXXDR,A,5.1,D,PTCH,A,4.9,D,ROLL*54
$GPRMC,230003.2,A,4741.19758,N,12224.27741,W,000.20,057.4,151015,016.4,E,A*25
$GPGGA,230003.2,4741.19758,N,12224.27741,W,1,08,1.0,-5.7,M,-18.2,M,,*4A
$GPVTG,057.4,T,041.0,M,000.20,N,0000.37,K,A*16
$HCHDG,93.5,0.0,E,,*16
$YXXDR,A,5.1,D,PTCH,A,4.9,D,ROLL*54
$GPRMC,230003.3,A,4741.19758,N,12224.27741,W,000.20,057.4,151015,016.4,E,A*24
$GPGGA,230003.3,4741.19758,N,12224.27741,W,1,08,1.0,-5.7,M,-18.2,M,,*4B
$GPVTG,057.4,T,041.0,M,000.20,N,0000.37,K,A*16
$HCHDG,93.5,0.0,E,,*16
$YXXDR,A,5.1,D,PTCH,A,4.7,D,ROLL*5A
$GPRMC,230003.4,A,4741.19758,N,12224.27741,W,000.21,057.4,151015,016.4,E,A*22
$GPGGA,230003.4,4741.19758,N,12224.27741,W,1,08,1.0,-5.7,M,-18.2,M,,*4C
$GPVTG,057.4,T,041.0,M,000.21,N,0000.39,K,A*19
$IIVLW,07411,N,037.3,N*57
$HCHDG,93.4,0.0,E,,*17
$YXXDR,A,5.0,D,PTCH,A,4.7,D,ROLL*5B
$IIVWR,100,L,13.3,N,,,,*7F
$GPRMC,230003.5,A,4741.19758,N,12224.27741,W,000.20,057.4,151015,016.4,E,A*22
$GPGGA,230003.5,4741.19758,N,12224.27741,W,1,08,1.0,-5.7,M,-18.2,M,,*4D
$GPVTG,057.4,T,041.0,M,000.20,N,0000.37,K,A*16
$HCHDG,93.5,0.0,E,,*16
$YXXDR,A,4.9,D,PTCH,A,4.6,D,ROLL*52
$TIROT,-13.2,A*26
$GPRMC,230003.6,A,4741.19758,N,12224.27741,W,000.19,057.4,151015,016.4,E,A*2B
$GPGGA,230003.6,4741.19758,N,12224.27741,W,1,08,1.0,-5.7,M,-18.2,M,,*4E
$GPVTG,057.4,T,041.0,M,000.19,N,0000.35,K,A*1E
$HCHDG,93.7,0.0,E,,*14
$IIMTW,+10.5,C*3C
$YXXDR,A,4.9,D,PTCH,A,4.4,D,ROLL*50
$GPRMC,230003.7,A,4741.19758,N,12224.27741,W,000.18,057.4,151015,016.4,E,A*2B
$GPGGA,230003.7,4741.19758,N,12224.27741,W,1,08,1.0,-5.7,M,-18.2,M,,*4F
$GPVTG,057.4,T,041.0,M,000.18,N,0000.33,K,A*19
$IIMWV,260,R,13.3,N,A*16
$HCHDG,93.6,0.0,E,,*15
$YXXDR,A,5.0,D,PTCH,A,4.2,D,ROLL*5E
$IIMWV,260,T,13.6,N,A*15
$GPRMC,230003.8,A,4741.19756,N,12224.27743,W,000.18,057.4,151015,016.4,E,A*28
$GPGGA,230003.8,4741.19756,N,12224.27743,W,1,08,1.0,-5.7,M,-18.2,M,,*4C
$GPVTG,057.4,T,041.0,M,000.18,N,0000.33,K,A*19
$HCHDG,93.3,0.0,E,,*10
$YXXDR,A,5.3,D,PTCH,A,4.0,D,ROLL*5F
$GPRMC,230003.9,A,4741.19756,N,12224.27743,W,000.19,057.4,151015,016.4,E,A*28
$GPGGA,230003.9,4741.19756,N,12224.27743,W,1,08,1.0,-5.7,M,-18.2,M,,*4D
$GPVTG,057.4,T,041.0,M,000.19,N,0000.35,K,A*1E
$HCHDG,93.2,0.0,E,,*11
$IIVHW,,,,,00.0,N,,*19
$YXXDR,A,5.3,D,PTCH,A,4.0,D,ROLL*5F
$GPRMC,230004.0,A,4741.19756,N,12224.27743,W,000.18,057.4,151015,016.4,E,A*27
$GPGGA,230004.0,4741.19756,N,12224.27743,W,1,08,1.0,-5.7,M,-18.2,M,,*43
$GPVTG,057.4,T,041.0,M,000.18,N,0000.33,K,A*19
$GPGSA,A,3,22,14,27,08,21,16,18,15,,,,,1.7,1.0,1.4*31
$HCHDG,93.3,0.0,E,,*10
$YXXDR,A,5.3,D,PTCH,A,4.0,D,ROLL*5F
$GPRMC,230004.1,A,4741.19756,N,12224.27743,W,000.23,057.4,151015,016.4,E,A*2E
$GPGGA,230004.1,4741.19756,N,12224.27743,W,1,08,1.0,-5.7,M,-18.2,M,,*42
$GPVTG,057.4,T,041.0,M,000.23,N,0000.43,K,A*16
$GPGSV,2,1,08,22,62,255,44,14,25,182,39,27,51,281,48,08,25,314,40*7C
$HCHDG,93.0,0.0,E,,*13
$GPGSV,2,2,08,21,53,114,45,16,06,244,42,18,74,058,48,15,27,049,36*76
$YXXDR,A,5.3,D,PTCH,A,4.0,D,ROLL*5F
$GPRMC,230004.2,A,4741.19756,N,12224.27743,W,000.23,057.4,151015,016.4,E,A*2D
$GPGGA,230004.2,4741.19756,N,12224.27743,W,1,08,1.0,-5.7,M,-18.2,M,,*41
$GPVTG,057.4,T,041.0,M,000.23,N,0000.42,K,A*17
$HCHDG,93.0,0.0,E,,*13
$YXXDR,A,5.4,D,PTCH,A,4.0,D,ROLL*58
$GPRMC,230004.3,A,4741.19756,N,12224.27743,W,000.23,057.4,151015,016.4,E,A*2C
$GPGGA,230004.3,4741.19756,N,12224.27743,W,1,08,1.0,-5.7,M,-18.2,M,,*40
$GPVTG,057.4,T,041.0,M,000.23,N,0000.43,K,A*16
$HCHDG,93.0,0.0,E,,*13
$YXXDR,A,5.4,D,PTCH,A,4.2,D,ROLL*5A
$GPRMC,230004.4,A,4741.19756,N,12224.27743,W,000.25,057.4,151015,016.4,E,A*2D
$GPGGA,230004.4,4741.19756,N,12224.27743,W,1,08,1.0,-5.7,M,-18.2,M,,*47
$GPVTG,057.4,T,041.0,M,000.25,N,0000.46,K,A*15
$GPRMC,230004.5,A,4741.19756,N,12224.27743,W,000.22,057.4,151015,016.4,E,A*2B
$GPGGA,230004.5,4741.19756,N,12224.27743,W,1,08,1.0,-5.7,M,-18.2,M,,*46
$GPVTG,057.4,T,041.0,M,000.22,N,0000.41,K,A*15
$IIVLW,07411,N,037.3,N*57
$IIVWR,101,L,13.0,N,,,,*7D
$HCHDG,93.0,0.0,E,,*13
$YXXDR,A,5.1,D,PTCH,A,5.0,D,ROLL*5C
$HCHDG,93.0,0.0,E,,*13
$YXXDR,A,5.1,D,PTCH,A,5.0,D,ROLL*5C
$TIROT,-14.9,A*2A
$GPRMC,230004.6,A,4741.19756,N,12224.27743,W,000.25,057.4,151015,016.4,E,A*2F
$GPGGA,230004.6,4741.19756,N,12224.27743,W,1,08,1.0,-5.7,M,-18.2,M,,*45
$GPVTG,057.4,T,041.0,M,000.25,N,0000.46,K,A*15
$HCHDG,92.9,0.0,E,,*1B
$IIMTW,+10.5,C*3C
$YXXDR,A,5.1,D,PTCH,A,4.8,D,ROLL*55
$GPRMC,230004.7,A,4741.19756,N,12224.27743,W,000.23,057.4,151015,016.4,E,A*28
$GPGGA,230004.7,4741.19756,N,12224.27743,W,1,08,1.0,-5.7,M,-18.2,M,,*44
$IIMWV,259,R,13.0,N,A*1F
$GPVTG,057.4,T,041.0,M,000.23,N,0000.43,K,A*16
$HCHDG,93.0,0.0,E,,*13
$YXXDR,A,5.4,D,PTCH,A,4.4,D,ROLL*5C
$IIMWV,260,T,13.3,N,A*10
$GPRMC,230004.8,A,4741.19756,N,12224.27741,W,000.21,057.4,151015,016.4,E,A*27
$GPGGA,230004.8,4741.19756,N,12224.27741,W,1,08,1.0,-5.7,M,-18.2,M,,*49
$GPVTG,057.4,T,041.0,M,000.21,N,0000.38,K,A*18
$HCHDG,92.7,0.0,E,,*15
$YXXDR,A,5.4,D,PTCH,A,4.4,D,ROLL*5C
$GPRMC,230004.9,A,4741.19756,N,12224.27741,W,000.19,057.4,151015,016.4,E,A*2D
$GPGGA,230004.9,4741.19756,N,12224.27741,W,1,08,1.0,-5.7,M,-18.2,M,,*48
$GPVTG,057.4,T,041.0,M,000.19,N,0000.35,K,A*1E
$IIVHW,,,,,00.0,N,,*19
$HCHDG,92.7,0.0,E,,*15
$YXXDR,A,5.4,D,PTCH,A,4.3,D,ROLL*5B
$GPRMC,230005.0,A,4741.19756,N,12224.27741,W,000.20,057.4,151015,016.4,E,A*2F
$GPGGA,230005.0,4741.19756,N,12224.27741,W,1,08,1.0,-5.7,M,-18.2,M,,*40
$GPVTG,057.4,T,041.0,M,000.20,N,0000.37,K,A*16
$GPGSA,A,3,22,14,27,08,21,16,18,15,,,,,1.7,1.0,1.4*31
$HCHDG,92.7,0.0,E,,*15
$YXXDR,A,5.4,D,PTCH,A,4.2,D,ROLL*5A
$GPRMC,230005.1,A,4741.19756,N,12224.27741,W,000.20,057.4,151015,016.4,E,A*2E
$GPGGA,230005.1,4741.19756,N,12224.27741,W,1,08,1.0,-5.7,M,-18.2,M,,*41
$GPVTG,057.4,T,041.0,M,000.20,N,0000.37,K,A*16
$GPGSV,2,1,08,22,62,255,44,14,25,182,39,27,51,281,47,08,25,314,40*73
$HCHDG,92.8,0.0,E,,*1A
$GPGSV,2,2,08,21,53,114,46,16,06,244,43,18,74,058,48,15,27,049,35*77
$YXXDR,A,5.6,D,PTCH,A,4.0,D,ROLL*5A
$GPRMC,230005.2,A,4741.19756,N,12224.27741,W,000.20,057.4,151015,016.4,E,A*2D
$GPGGA,230005.2,4741.19756,N,12224.27741,W,1,08,1.0,-5.7,M,-18.2,M,,*42
$GPVTG,057.4,T,041.0,M,000.20,N,0000.37,K,A*16
$HCHDG,92.8,0.0,E,,*1A
$YXXDR,A,5.6,D,PTCH,A,4.0,D,ROLL*5A
$GPRMC,230005.3,A,4741.19756,N,12224.27741,W,000.19,057.4,151015,016.4,E,A*26
$GPGGA,230005.3,4741.19756,N,12224.27741,W,1,08,1.0,-5.7,M,-18.2,M,,*43
$GPVTG,057.4,T,041.0,M,000.19,N,0000.35,K,A*1E
$HCHDG,92.5,0.0,E,,*17
$YXXDR,A,5.5,D,PTCH,A,4.0,D,ROLL*59
$GPRMC,230005.4,A,4741.19756,N,12224.27741,W,000.20,057.4,151015,016.4,E,A*2B
$GPGGA,230005.4,4741.19756,N,12224.27741,W,1,08,1.0,-5.7,M,-18.2,M,,*44
$IIVLW,07411,N,037.3,N*57
$GPVTG,057.4,T,041.0,M,000.20,N,0000.38,K,A*19
$HCHDG,92.4,0.0,E,,*16
$YXXDR,A,5.6,D,PTCH,A,4.5,D,ROLL*5F
$IIVWR,102,L,12.8,N,,,,*77
$GPRMC,230005.5,A,4741.19756,N,12224.27741,W,000.23,057.4,151015,016.4,E,A*29
$GPGGA,230005.5,4741.19756,N,12224.27741,W,1,08,1.0,-5.7,M,-18.2,M,,*45
$GPVTG,057.4,T,041.0,M,000.23,N,0000.42,K,A*17
$HCHDG,92.4,0.0,E,,*16
$YXXDR,A,5.6,D,PTCH,A,4.4,D,ROLL*5E
$TIROT,1.5,A*3F
$GPRMC,230005.6,A,4741.19756,N,12224.27741,W,000.21,057.4,151015,016.4,E,A*28
$GPGGA,230005.6,4741.19756,N,12224.27741,W,1,08,1.0,-5.7,M,-18.2,M,,*46
$GPVTG,057.4,T,041.0,M,000.21,N,0000.39,K,A*19
$HCHDG,92.4,0.0,E,,*16
$IIMTW,+10.5,C*3C
$YXXDR,A,5.6,D,PTCH,A,4.3,D,ROLL*59
$GPRMC,230005.7,A,4741.19756,N,12224.27741,W,000.24,057.4,151015,016.4,E,A*2C
$GPGGA,230005.7,4741.19756,N,12224.27741,W,1,08,1.0,-5.7,M,-18.2,M,,*47
$IIMWV,258,R,12.8,N,A*17
$GPVTG,057.4,T,041.0,M,000.24,N,0000.44,K,A*16
$HCHDG,92.1,0.0,E,,*13
$YXXDR,A,5.6,D,PTCH,A,4.1,D,ROLL*5B
$IIMWV,259,T,13.0,N,A*19
$GPRMC,230005.8,A,4741.19757,N,12224.27739,W,000.23,057.4,151015,016.4,E,A*2A
$GPGGA,230005.8,4741.19757,N,12224.27739,W,1,08,1.0,-5.7,M,-18.2,M,,*46
$GPVTG,057.4,T,041.0,M,000.23,N,0000.42,K,A*17
$HCHDG,92.2,0.0,E,,*10
$YXXDR,A,5.6,D,PTCH,A,4.0,D,ROLL*5A
$GPRMC,230005.9,A,4741.19757,N,12224.27739,W,000.22,057.4,151015,016.4,E,A*2A
$GPGGA,230005.9,4741.19757,N,12224.27739,W,1,08,1.0,-5.7,M,-18.2,M,,*47
$GPVTG,057.4,T,041.0,M,000.22,N,0000.40,K,A*14
$HCHDG,92.1,0.0,E,,*13
$IIVHW,,,,,00.0,N,,*19
$YXXDR,A,5.6,D,PTCH,A,3.7,D,ROLL*5A
$GPRMC,230006.0,A,4741.19757,N,12224.27739,W,000.19,057.4,151015,016.4,E,A*28
$GPGGA,230006.0,4741.19757,N,12224.27739,W,1,08,1.0,-5.7,M,-18.2,M,,*4D
$GPVTG,057.4,T,041.0,M,000.19,N,0000.35,K,A*1E
$GPGSA,A,3,22,14,27,08,21,16,18,15,,,,,1.7,1.0,1.4*31
$HCHDG,92.1,0.0,E,,*13
$YXXDR,A,5.7,D,PTCH,A,3.5,D,ROLL*59
$GPRMC,230006.1,A,4741.19757,N,12224.27739,W,000.19,057.4,151015,016.4,E,A*29
$GPGGA,230006.1,4741.19757,N,12224.27739,W,1,08,1.0,-5.7,M,-18.2,M,,*4C
$GPVTG,057.4,T,041.0,M,000.19,N,0000.35,K,A*1E
$HCHDG,92.1,0.0,E,,*13
$GPGSV,2,1,08,22,62,255,45,14,25,182,39,27,51,281,47,08,25,314,40*72
$YXXDR,A,5.5,D,PTCH,A,3.6,D,ROLL*58
$GPGSV,2,2,08,21,53,114,46,16,06,244,43,18,74,058,48,15,27,049,35*77
$GPRMC,230006.2,A,4741.19757,N,12224.27739,W,000.18,057.4,151015,016.4,E,A*2B
$GPGGA,230006.2,4741.19757,N,12224.27739,W,1,08,1.0,-5.7,M,-18.2,M,,*4F
$GPVTG,057.4,T,041.0,M,000.18,N,0000.34,K,A*1E
$HCHDG,92.1,0.0,E,,*13
$YXXDR,A,5.5,D,PTCH,A,3.4,D,ROLL*5A
$GPRMC,230006.3,A,4741.19757,N,12224.27739,W,000.19,057.4,151015,016.4,E,A*2B
$GPGGA,230006.3,4741.19757,N,12224.27739,W,1,08,1.0,-5.7,M,-18.2,M,,*4E
$GPVTG,057.4,T,041.0,M,000.19,N,0000.35,K,A*1E
$HCHDG,92.2,0.0,E,,*10
$YXXDR,A,5.4,D,PTCH,A,3.4,D,ROLL*5B
$GPRMC,230006.4,A,4741.19757,N,12224.27739,W,000.21,057.4,151015,016.4,E,A*27
$GPGGA,230006.4,4741.19757,N,12224.27739,W,1,08,1.0,-5.7,M,-18.2,M,,*49
$IIVLW,07411,N,037.3,N*57
$GPVTG,057.4,T,041.0,M,000.21,N,0000.40,K,A*17
$HCHDG,92.2,0.0,E,,*10
$YXXDR,A,5.4,D,PTCH,A,3.1,D,ROLL*5E
$IIVWR,099,L,13.3,N,,,,*7E
$GPRMC,230006.5,A,4741.19757,N,12224.27739,W,000.21,057.4,151015,016.4,E,A*26
$GPGGA,230006.5,4741.19757,N,12224.27739,W,1,08,1.0,-5.7,M,-18.2,M,,*48
$GPVTG,057.4,T,041.0,M,000.21,N,0000.39,K,A*19
$HCHDG,92.2,0.0,E,,*10
$YXXDR,A,5.2,D,PTCH,A,3.1,D,ROLL*58
$TIROT,12.7,A*0F
$GPRMC,230006.6,A,4741.19761,N,12224.27734,W,000.61,057.4,151015,016.4,E,A*29
$GPGGA,230006.6,4741.19761,N,12224.27734,W,1,08,1.0,-5.7,M,-18.2,M,,*43
$GPVTG,057.4,T,041.0,M,000.61,N,0001.13,K,A*14
$HCHDG,92.5,0.0,E,,*17
$IIMTW,+10.5,C*3C
$YXXDR,A,5.3,D,PTCH,A,2.8,D,ROLL*51
$GPRMC,230006.7,A,4741.19761,N,12224.27734,W,000.07,057.4,151015,016.4,E,A*28
$IIMWV,261,R,13.3,N,A*17
$GPGGA,230006.7,4741.19761,N,12224.27734,W,1,08,1.0,-5.7,M,-18.2,M,,*42
$GPVTG,057.4,T,041.0,M,000.07,N,0000.12,K,A*14
$HCHDG,92.5,0.0,E,,*17
$YXXDR,A,5.1,D,PTCH,A,2.8,D,ROLL*53
$IIMWV,258,T,12.8,N,A*11
$GPRMC,230006.8,A,4741.19761,N,12224.27734,W,000.09,057.4,151015,016.4,E,A*29
$GPGGA,230006.8,4741.19761,N,12224.27734,W,1,08,1.0,-5.7,M,-18.2,M,,*4D
$GPVTG,057.4,T,041.0,M,000.09,N,0000.16,K,A*1E
$HCHDG,92.6,0.0,E,,*14
$YXXDR,A,5.1,D,PTCH,A,2.8,D,ROLL*53
$GPRMC,230006.9,A,4741.19761,N,12224.27734,W,000.08,057.4,151015,016.4,E,A*29
$GPGGA,230006.9,4741.19761,N,12224.27734,W,1,08,1.0,-5.7,M,-18.2,M,,*4C
$GPVTG,057.4,T,041.0,M,000.08,N,0000.15,K,A*1C
$IIVHW,,,,,00.0,N,,*19
$HCHDG,92.7,0.0,E,,*15
$YXXDR,A,5.1,D,PTCH,A,2.8,D,ROLL*53
$GPRMC,230007.0,A,4741.19761,N,12224.27734,W,000.14,057.4,151015,016.4,E,A*2C
$GPGGA,230007.0,4741.19761,N,12224.27734,W,1,08,1.0,-5.7,M,-18.2,M,,*44
$GPVTG,057.4,T,041.0,M,000.14,N,0000.25,K,A*12
$HCHDG,92.8,0.0,E,,*1A
$GPGSA,A,3,22,14,27,08,21,16,18,15,,,,,1.7,1.0,1.4*31
$YXXDR,A,5.0,D,PTCH,A,2.8,D,ROLL*52
$GPRMC,230007.1,A,4741.19761,N,12224.27734,W,000.17,057.4,151015,016.4,E,A*2E
$GPGGA,230007.1,4741.19761,N,12224.27734,W,1,08,1.0,-5.7,M,-18.2,M,,*45
$GPVTG,057.4,T,041.0,M,000.17,N,0000.31,K,A*14
$HCHDG,92.8,0.0,E,,*1A
$GPGSV,2,1,08,22,62,255,46,14,25,182,39,27,51,281,48,08,25,314,40*7E
$YXXDR,A,5.2,D,PTCH,A,2.6,D,ROLL*5E
$GPGSV,2,2,08,21,53,114,46,16,06,244,42,18,74,058,48,15,27,049,35*76
$GPRMC,230007.2,A,4741.19761,N,12224.27734,W,000.18,057.4,151015,016.4,E,A*22
$GPGGA,230007.2,4741.19761,N,12224.27734,W,1,08,1.0,-5.7,M,-18.2,M,,*46
$GPVTG,057.4,T,041.0,M,000.18,N,0000.34,K,A*1E
$HCHDG,92.9,0.0,E,,*1B
$YXXDR,A,5.2,D,PTCH,A,2.7,D,ROLL*5F
$GPRMC,230007.3,A,4741.19761,N,12224.27734,W,000.19,057.4,151015,016.4,E,A*22
$GPGGA,230007.3,4741.19761,N,12224.27734,W,1,08,1.0,-5.7,M,-18.2,M,,*47
$GPVTG,057.4,T,041.0,M,000.19,N,0000.35,K,A*1E
$HCHDG,92.6,0.0,E,,*14
$YXXDR,A,5.4,D,PTCH,A,2.8,D,ROLL*56
$GPRMC,230007.4,A,4741.19761,N,12224.27734,W,000.19,057.4,151015,016.4,E,A*25
$IIVLW,07411,N,037.3,N*57
$GPGGA,230007.4,4741.19761,N,12224.27734,W,1,08,1.0,-5.7,M,-18.2,M,,*40
$GPVTG,057.4,T,041.0,M,000.19,N,0000.34,K,A*1F
$HCHDG,92.6,0.0,E,,*14
$GPRMC,230007.5,A,4741.19761,N,12224.27734,W,000.24,057.4,151015,016.4,E,A*2A
$YXXDR,A,5.5,D,PTCH,A,2.8,D,ROLL*57
$GPGGA,230007.5,4741.19761,N,12224.27734,W,1,08,1.0,-5.7,M,-18.2,M,,*41
$GPVTG,057.4,T,041.0,M,000.24,N,0000.44,K,A*16
$IIVWR,096,L,13.5,N,,,,*77
$HCHDG,92.7,0.0,E,,*15
$GPRMC,230007.6,A,4741.19761,N,12224.27734,W,000.31,057.4,151015,016.4,E,A*2D
$YXXDR,A,5.6,D,PTCH,A,3.0,D,ROLL*5D
$TIROT,22.4,A*0F
$GPGGA,230007.6,4741.19761,N,12224.27734,W,1,08,1.0,-5.7,M,-18.2,M,,*42
$GPVTG,057.4,T,041.0,M,000.31,N,0000.57,K,A*10
$HCHDG,92.7,0.0,E,,*15
$GPRMC,230007.7,A,4741.19760,N,12224.27727,W,000.36,057.4,151015,016.4,E,A*28
$YXXDR,A,5.4,D,PTCH,A,2.4,D,ROLL*5A
$IIMTW,+10.5,C*3C
$GPGGA,230007.7,4741.19760,N,12224.27727,W,1,08,1.0,-5.7,M,-18.2,M,,*40
$GPVTG,057.4,T,041.0,M,000.36,N,0000.67,K,A*14
$IIMWV,264,R,13.5,N,A*14
$HCHDG,92.7,0.0,E,,*15
$GPRMC,230007.8,A,4741.19760,N,12224.27727,W,000.05,057.4,151015,016.4,E,A*27
$YXXDR,A,5.4,D,PTCH,A,2.4,D,ROLL*5A
$IIMWV,261,T,13.3,N,A*11
$GPGGA,230007.8,4741.19760,N,12224.27727,W,1,08,1.0,-5.7,M,-18.2,M,,*4F
$GPVTG,057.4,T,041.0,M,000.05,N,0000.09,K,A*1C
$HCHDG,92.6,0.0,E,,*14
$GPRMC,230007.9,A,4741.19760,N,12224.27727,W,000.11,057.4,151015,016.4,E,A*23
$YXXDR,A,5.2,D,PTCH,A,2.6,D,ROLL*5E
$GPGGA,230007.9,4741.19760,N,12224.27727,W,1,08,1.0,-5.7,M,-18.2,M,,*4E
$GPVTG,057.4,T,041.0,M,000.11,N,0000.20,K,A*12
$HCHDG,92.5,0.0,E,,*17
$IIVHW,,,,,00.0,N,,*19
$GPRMC,230008.0,A,4741.19760,N,12224.27727,W,000.13,057.4,151015,016.4,E,A*27
$YXXDR,A,5.3,D,PTCH,A,2.8,D,ROLL*51
$GPGGA,230008.0,4741.19760,N,12224.27727,W,1,08,1.0,-5.7,M,-18.2,M,,*48
$GPVTG,057.4,T,041.0,M,000.13,N,0000.24,K,A*14
$GPGSA,A,3,22,14,27,08,21,16,18,15,,,,,1.7,1.0,1.4*31
$HCHDG,92.5,0.0,E,,*17
$GPRMC,230008.1,A,4741.19760,N,12224.27727,W,000.13,057.4,151015,016.4,E,A*26
$YXXDR,A,5.2,D,PTCH,A,3.1,D,ROLL*58
$GPGGA,230008.1,4741.19760,N,12224.27727,W,1,08,1.0,-5.7,M,-18.2,M,,*49
$GPVTG,057.4,T,041.0,M,000.13,N,0000.24,K,A*14
$GPGSV,2,1,08,22,62,255,46,14,25,182,39,27,51,281,48,08,25,314,41*7F
$GPGSV,2,2,08,21,53,114,45,16,06,244,42,18,74,058,48,15,27,049,38*78
$HCHDG,92.5,0.0,E,,*17
$GPRMC,230008.2,A,4741.19760,N,12224.27727,W,000.17,057.4,151015,016.4,E,A*21
$YXXDR,A,5.3,D,PTCH,A,3.5,D,ROLL*5D
$GPGGA,230008.2,4741.19760,N,12224.27727,W,1,08,1.0,-5.7,M,-18.2,M,,*4A
$GPVTG,057.4,T,041.0,M,000.17,N,0000.32,K,A*17
$HCHDG,92.6,0.0,E,,*14
$GPRMC,230008.3,A,4741.19760,N,12224.27727,W,000.15,057.4,151015,016.4,E,A*22
$YXXDR,A,5.4,D,PTCH,A,3.7,D,ROLL*58
$GPGGA,230008.3,4741.19760,N,12224.27727,W,1,08,1.0,-5.7,M,-18.2,M,,*4B
$GPVTG,057.4,T,041.0,M,000.15,N,0000.28,K,A*1E
$HCHDG,92.6,0.0,E,,*14
$GPRMC,230008.4,A,4741.19762,N,12224.27726,W,000.47,057.4,151015,016.4,E,A*21
$YXXDR,A,5.4,D,PTCH,A,3.9,D,ROLL*56
$GPGGA,230008.4,4741.19762,N,12224.27726,W,1,08,1.0,-5.7,M,-18.2,M,,*4F
$GPVTG,057.4,T,041.0,M,000.47,N,0000.87,K,A*1C
$IIVLW,07411,N,037.3,N*57
$HCHDG,92.3,0.0,E,,*11
$GPRMC,230008.5,A,4741.19762,N,12224.27726,W,000.44,057.4,151015,016.4,E,A*23
$YXXDR,A,5.5,D,PTCH,A,4.0,D,ROLL*59
$IIVWR,096,L,13.6,N,,,,*74
$GPGGA,230008.5,4741.19762,N,12224.27726,W,1,08,1.0,-5.7,M,-18.2,M,,*4E
$GPVTG,057.4,T,041.0,M,000.44,N,0000.81,K,A*19
$HCHDG,92.3,0.0,E,,*11
$GPRMC,230008.6,A,4741.19762,N,12224.27726,W,000.42,057.4,151015,016.4,E,A*26
$YXXDR,A,5.5,D,PTCH,A,4.0,D,ROLL*59
$TIROT,2.6,A*3F
$GPGGA,230008.6,4741.19762,N,12224.27726,W,1,08,1.0,-5.7,M,-18.2,M,,*4D
$GPVTG,057.4,T,041.0,M,000.42,N,0000.78,K,A*19
$HCHDG,92.3,0.0,E,,*11
$GPRMC,230008.7,A,4741.19762,N,12224.27726,W,000.37,057.4,151015,016.4,E,A*25
$IIMTW,+10.5,C*3C
$YXXDR,A,5.5,D,PTCH,A,4.0,D,ROLL*59
$GPGGA,230008.7,4741.19762,N,12224.27726,W,1,08,1.0,-5.7,M,-18.2,M,,*4C
$GPVTG,057.4,T,041.0,M,000.37,N,0000.68,K,A*1A
$IIMWV,264,R,13.6,N,A*17
$HCHDG,92.4,0.0,E,,*16
$YXXDR,A,5.5,D,PTCH,A,4.0,D,ROLL*59
$GPRMC,230008.8,A,4741.19762,N,12224.27726,W,000.34,057.4,151015,016.4,E,A*29
$IIMWV,264,T,13.5,N,A*12
$GPGGA,230008.8,4741.19762,N,12224.27726,W,1,08,1.0,-5.7,M,-18.2,M,,*43
$GPVTG,057.4,T,041.0,M,000.34,N,0000.64,K,A*15
$HCHDG,92.4,0.0,E,,*16
$YXXDR,A,5.5,D,PTCH,A,4.0,D,ROLL*59
$GPRMC,230008.9,A,4741.19762,N,12224.27726,W,000.31,057.4,151015,016.4,E,A*2D
$GPGGA,230008.9,4741.19762,N,12224.27726,W,1,08,1.0,-5.7,M,-18.2,M,,*42
$GPVTG,057.4,T,041.0,M,000.31,N,0000.57,K,A*10
$HCHDG,92.4,0.0,E,,*16
$IIVHW,,,,,00.0,N,,*19
$GPRMC,230009.0,A,4741.19762,N,12224.27726,W,000.31,057.4,151015,016.4,E,A*25
$YXXDR,A,5.5,D,PTCH,A,4.2,D,ROLL*5B
$GPGGA,230009.0,4741.19762,N,12224.27726,W,1,08,1.0,-5.7,M,-18.2,M,,*4A
$GPVTG,057.4,T,041.0,M,000.31,N,0000.57,K,A*10
$GPGSA,A,3,22,14,27,08,21,16,18,15,,,,,1.7,1.0,1.4*31
$HCHDG,92.4,0.0,E,,*16
$YXXDR,A,5.4,D,PTCH,A,4.3,D,ROLL*5B
$GPRMC,230009.1,A,4741.19762,N,12224.27726,W,000.26,057.4,151015,016.4,E,A*22
$GPGGA,230009.1,4741.19762,N,12224.27726,W,1,08,1.0,-5.8,M,-18.2,M,,*44
$GPVTG,057.4,T,041.0,M,000.26,N,0000.48,K,A*18
$GPGSV,2,1,08,22,62,255,46,14,25,182,40,27,51,281,48,08,25,314,41*71
$GPGSV,2,2,08,21,53,114,44,16,06,244,43,18,74,058,48,15,27,049,38*78
$HCHDG,92.4,0.0,E,,*16
$YXXDR,A,5.4,D,PTCH,A,4.5,D,ROLL*5D
$HCHDG,92.5,0.0,E,,*17
$YXXDR,A,5.2,D,PTCH,A,4.2,D,ROLL*5C
$GPRMC,230009.2,A,4741.19762,N,12224.27726,W,000.23,057.4,151015,016.4,E,A*24
$GPGGA,230009.2,4741.19762,N,12224.27726,W,1,08,1.0,-5.8,M,-18.2,M,,*47
$GPVTG,057.4,T,041.0,M,000.23,N,0000.42,K,A*17
$GPRMC,230009.3,A,4741.19762,N,12224.27726,W,000.23,057.4,151015,016.4,E,A*25
$GPGGA,230009.3,4741.19762,N,12224.27726,W,1,08,1.0,-5.8,M,-18.2,M,,*46
$GPVTG,057.4,T,041.0,M,000.23,N,0000.43,K,A*16
$GPRMC,230009.4,A,4741.19762,N,12224.27726,W,000.21,057.4,151015,016.4,E,A*20
$HCHDG,92.8,0.0,E,,*1A
$YXXDR,A,5.1,D,PTCH,A,4.2,D,ROLL*5F
$GPGGA,230009.4,4741.19762,N,12224.27726,W,1,08,1.0,-5.8,M,-18.2,M,,*41
$GPVTG,057.4,T,041.0,M,000.21,N,0000.39,K,A*19
$IIVLW,07411,N,037.3,N*57
$HCHDG,92.9,0.0,E,,*1B
$YXXDR,A,5.0,D,PTCH,A,4.0,D,ROLL*5C
$GPRMC,230009.5,A,4741.19762,N,12224.27726,W,000.24,057.4,151015,016.4,E,A*24
$IIVWR,095,L,13.3,N,,,,*72
$GPGGA,230009.5,4741.19762,N,12224.27726,W,1,08,1.0,-5.8,M,-18.2,M,,*40
$GPVTG,057.4,T,041.0,M,000.24,N,0000.44,K,A*16
$HCHDG,93.0,0.0,E,,*13
$YXXDR,A,4.8,D,PTCH,A,4.0,D,ROLL*55
$TIROT,2.0,A*39
$GPRMC,230009.6,A,4741.19764,N,12224.27725,W,000.26,057.4,151015,016.4,E,A*20
$GPGGA,230009.6,4741.19764,N,12224.27725,W,1,08,1.0,-5.8,M,-18.2,M,,*46
$GPVTG,057.4,T,041.0,M,000.26,N,0000.49,K,A*19
$HCHDG,93.3,0.0,E,,*10
$IIMTW,+10.5,C*3C
$YXXDR,A,5.0,D,PTCH,A,4.2,D,ROLL*5E
$GPRMC,230009.7,A,4741.19764,N,12224.27725,W,000.26,057.4,151015,016.4,E,A*21
$GPGGA,230009.7,4741.19764,N,12224.27725,W,1,08,1.0,-5.8,M,-18.2,M,,*47
$GPVTG,057.4,T,041.0,M,000.26,N,0000.49,K,A*19
$IIMWV,265,R,13.3,N,A*13
$HCHDG,93.3,0.0,E,,*10
$YXXDR,A,5.1,D,PTCH,A,4.7,D,ROLL*5A
$GPRMC,230009.8,A,4741.19764,N,12224.27725,W,000.27,057.4,151015,016.4,E,A*2F
$IIMWV,264,T,13.6,N,A*11
$GPGGA,230009.8,4741.19764,N,12224.27725,W,1,08,1.0,-5.8,M,-18.2,M,,*48
$GPVTG,057.4,T,041.0,M,000.27,N,0000.51,K,A*11
$HCHDG,93.2,0.0,E,,*11
$YXXDR,A,5.1,D,PTCH,A,4.8,D,ROLL*55
$GPRMC,230009.9,A,4741.19764,N,12224.27725,W,000.28,057.4,151015,016.4,E,A*21
$GPGGA,230009.9,4741.19764,N,12224.27725,W,1,08,1.0,-5.8,M,-18.2,M,,*49
$GPVTG,057.4,T,041.0,M,000.28,N,0000.51,K,A*1E
$HCHDG,93.3,0.0,E,,*10
$IIVHW,,,,,00.0,N,,*19
$YXXDR,A,5.1,D,PTCH,A,4.8,D,ROLL*55
$GPRMC,230010.0,A,4741.19764,N,12224.27725,W,000.33,057.4,151015,016.4,E,A*2A
$GPGGA,230010.0,4741.19764,N,12224.27725,W,1,08,1.0,-5.8,M,-18.2,M,,*48
$GPVTG,057.4,T,041.0,M,000.33,N,0000.62,K,A*14
$GPGSA,A,3,22,14,27,08,21,16,18,15,,,,,1.7,1.0,1.4*31
$HCHDG,93.2,0.0,E,,*11
$YXXDR,A,5.2,D,PTCH,A,4.7,D,ROLL*59
$GPRMC,230010.1,A,4741.19764,N,12224.27725,W,000.21,057.4,151015,016.4,E,A*28
$GPGGA,230010.1,4741.19764,N,12224.27725,W,1,08,1.0,-5.8,M,-18.2,M,,*49
$GPVTG,057.4,T,041.0,M,000.21,N,0000.39,K,A*19
$GPGSV,2,1,08,22,62,255,46,14,25,182,40,27,51,281,48,08,25,314,41*71
$GPGSV,2,2,08,21,53,114,43,16,06,244,43,18,74,058,48,15,27,049,38*7F
$HCHDG,93.2,0.0,E,,*11
$YXXDR,A,5.3,D,PTCH,A,4.8,D,ROLL*57
$GPRMC,230010.2,A,4741.19764,N,12224.27725,W,000.24,057.4,151015,016.4,E,A*2E
$GPGGA,230010.2,4741.19764,N,12224.27725,W,1,08,1.0,-5.8,M,-18.2,M,,*4A
$GPVTG,057.4,T,041.0,M,000.24,N,0000.44,K,A*16
$HCHDG,93.2,0.0,E,,*11
$YXXDR,A,5.4,D,PTCH,A,4.7,D,ROLL*5F
$GPRMC,230010.3,A,4741.19764,N,12224.27725,W,000.23,057.4,151015,016.4,E,A*28
$GPGGA,230010.3,4741.19764,N,12224.27725,W,1,08,1.0,-5.8,M,-18.2,M,,*4B
$GPVTG,057.4,T,041.0,M,000.23,N,0000.42,K,A*17
$HCHDG,93.2,0.0,E,,*11
$YXXDR,A,5.4,D,PTCH,A,4.7,D,ROLL*5F
$GPRMC,230010.4,A,4741.19764,N,12224.27725,W,000.24,057.4,151015,016.4,E,A*28
$GPGGA,230010.4,4741.19764,N,12224.27725,W,1,08,1.0,-5.8,M,-18.2,M,,*4C
$GPVTG,057.4,T,041.0,M,000.24,N,0000.44,K,A*16
$IIVLW,07411,N,037.3,N*57
$HCHDG,93.0,0.0,E,,*13
$YXXDR,A,5.4,D,PTCH,A,4.6,D,ROLL*5E
$GPRMC,230010.5,A,4741.19764,N,12224.27725,W,000.22,057.4,151015,016.4,E,A*2F
$IIVWR,092,L,13.4,N,,,,*72
$GPGGA,230010.5,4741.19764,N,12224.27725,W,1,08,1.0,-5.8,M,-18.2,M,,*4D
$GPVTG,057.4,T,041.0,M,000.22,N,0000.41,K,A*15
$HCHDG,93.0,0.0,E,,*13
$YXXDR,A,5.4,D,PTCH,A,4.6,D,ROLL*5E
$TIROT,1.5,A*3F
$GPRMC,230010.6,A,4741.19763,N,12224.27724,W,000.26,057.4,151015,016.4,E,A*2E
$GPGGA,230010.6,4741.19763,N,12224.27724,W,1,08,1.0,-5.8,M,-18.2,M,,*48
$GPVTG,057.4,T,041.0,M,000.26,N,0000.48,K,A*18
$HCHDG,93.4,0.0,E,,*17
$IIMTW,+10.5,C*3C
$YXXDR,A,5.3,D,PTCH,A,4.6,D,ROLL*59
$GPRMC,230010.7,A,4741.19763,N,12224.27724,W,000.25,057.4,151015,016.4,E,A*2C
$GPGGA,230010.7,4741.19763,N,12224.27724,W,1,08,1.0,-5.8,M,-18.2,M,,*49
$GPVTG,057.4,T,041.0,M,000.25,N,0000.46,K,A*15
$IIMWV,268,R,13.4,N,A*19
$HCHDG,93.4,0.0,E,,*17
$YXXDR,A,5.2,D,PTCH,A,4.6,D,ROLL*58
$IIMWV,265,T,13.3,N,A*15
$GPRMC,230010.8,A,4741.19763,N,12224.27724,W,000.26,057.4,151015,016.4,E,A*20
$GPGGA,230010.8,4741.19763,N,12224.27724,W,1,08,1.0,-5.8,M,-18.2,M,,*46
$GPVTG,057.4,T,041.0,M,000.26,N,0000.47,K,A*17
$HCHDG,93.5,0.0,E,,*16
$YXXDR,A,5.2,D,PTCH,A,4.6,D,ROLL*58
$GPRMC,230010.9,A,4741.19763,N,12224.27724,W,000.26,057.4,151015,016.4,E,A*21
$GPGGA,230010.9,4741.19763,N,12224.27724,W,1,08,1.0,-5.8,M,-18.2,M,,*47
$GPVTG,057.4,T,041.0,M,000.26,N,0000.48,K,A*18
$HCHDG,93.2,0.0,E,,*11
$IIVHW,,,,,00.0,N,,*19
$YXXDR,A,5.4,D,PTCH,A,4.1,D,ROLL*59
$GPRMC,230011.0,A,4741.19763,N,12224.27724,W,000.25,057.4,151015,016.4,E,A*2A
$GPGGA,230011.0,4741.19763,N,12224.27724,W,1,08,1.0,-5.8,M,-18.2,M,,*4F
$GPVTG,057.4,T,041.0,M,000.25,N,0000.47,K,A*14
$GPGSA,A,3,22,14,27,08,21,16,18,15,,,,,1.7,1.0,1.4*31
$HCHDG,93.3,0.0,E,,*10
$YXXDR,A,5.4,D,PTCH,A,4.0,D,ROLL*58
$GPRMC,230011.1,A,4741.19763,N,12224.27724,W,000.24,057.4,151015,016.4,E,A*2A
$GPGGA,230011.1,4741.19763,N,12224.27724,W,1,08,1.0,-5.9,M,-18.2,M,,*4F
$GPVTG,057.4,T,041.0,M,000.24,N,0000.45,K,A*17
$GPGSV,2,1,08,22,62,255,47,14,25,182,41,27,51,281,48,08,25,314,42*72
$HCHDG,93.3,0.0,E,,*10
$GPGSV,2,2,08,21,53,114,44,16,06,244,43,18,74,058,48,15,27,049,39*79
$YXXDR,A,5.4,D,PTCH,A,3.9,D,ROLL*56
$GPRMC,230011.2,A,4741.19763,N,12224.27724,W,000.21,057.4,151015,016.4,E,A*2C
$GPGGA,230011.2,4741.19763,N,12224.27724,W,1,08,1.0,-5.9,M,-18.2,M,,*4C
$GPVTG,057.4,T,041.0,M,000.21,N,0000.40,K,A*17
$HCHDG,93.3,0.0,E,,*10
$YXXDR,A,5.3,D,PTCH,A,3.9,D,ROLL*51
$GPRMC,230011.3,A,4741.19763,N,12224.27724,W,000.21,057.4,151015,016.4,E,A*2D
$GPGGA,230011.3,4741.19763,N,12224.27724,W,1,08,1.0,-5.9,M,-18.2,M,,*4D
$GPVTG,057.4,T,041.0,M,000.21,N,0000.39,K,A*19
$HCHDG,93.4,0.0,E,,*17
$YXXDR,A,5.4,D,PTCH,A,4.0,D,ROLL*58
$GPRMC,230011.4,A,4741.19763,N,12224.27724,W,000.20,057.4,151015,016.4,E,A*2B
$GPGGA,230011.4,4741.19763,N,12224.27724,W,1,08,1.0,-5.9,M,-18.2,M,,*4A
$GPVTG,057.4,T,041.0,M,000.20,N,0000.37,K,A*16
$IIVLW,07411,N,037.3,N*57
$HCHDG,93.4,0.0,E,,*17
$YXXDR,A,5.3,D,PTCH,A,4.0,D,ROLL*5F
$IIVWR,091,L,13.4,N,,,,*71
$GPRMC,230011.5,A,4741.19763,N,12224.27724,W,000.17,057.4,151015,016.4,E,A*2E
$GPGGA,230011.5,4741.19763,N,12224.27724,W,1,08,1.0,-5.9,M,-18.2,M,,*4B
$GPVTG,057.4,T,041.0,M,000.17,N,0000.32,K,A*17
$HCHDG,93.5,0.0,E,,*16
$YXXDR,A,5.4,D,PTCH,A,3.9,D,ROLL*56
$TIROT,9.7,A*35
$GPRMC,230011.6,A,4741.19764,N,12224.27723,W,000.17,057.4,151015,016.4,E,A*2D
$GPGGA,230011.6,4741.19764,N,12224.27723,W,1,08,1.0,-5.9,M,-18.2,M,,*48
$GPVTG,057.4,T,041.0,M,000.17,N,0000.32,K,A*17
$HCHDG,93.5,0.0,E,,*16
$IIMTW,+10.5,C*3C
$YXXDR,A,5.4,D,PTCH,A,3.9,D,ROLL*56
$GPRMC,230011.7,A,4741.19764,N,12224.27723,W,000.16,057.4,151015,016.4,E,A*2D
$GPGGA,230011.7,4741.19764,N,12224.27723,W,1,08,1.0,-5.9,M,-18.2,M,,*49
$GPVTG,057.4,T,041.0,M,000.16,N,0000.29,K,A*1C
$IIMWV,269,R,13.4,N,A*18
$HCHDG,93.5,0.0,E,,*16
$YXXDR,A,5.4,D,PTCH,A,3.9,D,ROLL*56
$IIMWV,268,T,13.4,N,A*1F
$GPRMC,230011.8,A,4741.19764,N,12224.27723,W,000.16,057.4,151015,016.4,E,A*22
$GPGGA,230011.8,4741.19764,N,12224.27723,W,1,08,1.0,-5.9,M,-18.2,M,,*46
$GPVTG,057.4,T,041.0,M,000.16,N,0000.30,K,A*14
$HCHDG,93.5,0.0,E,,*16
$YXXDR,A,5.4,D,PTCH,A,4.0,D,ROLL*58
$GPRMC,230011.9,A,4741.19764,N,12224.27723,W,000.16,057.4,151015,016.4,E,A*23
$GPGGA,230011.9,4741.19764,N,12224.27723,W,1,08,1.0,-5.9,M,-18.2,M,,*47
$GPVTG,057.4,T,041.0,M,000.16,N,0000.30,K,A*14
$HCHDG,93.2,0.0,E,,*11
$IIVHW,,,,,00.0,N,,*19
$YXXDR,A,5.8,D,PTCH,A,4.9,D,ROLL*5D
$GPRMC,230012.0,A,4741.19764,N,12224.27723,W,000.15,057.4,151015,016.4,E,A*2A
$GPGGA,230012.0,4741.19764,N,12224.27723,W,1,08,1.0,-5.9,M,-18.2,M,,*4D
$GPVTG,057.4,T,041.0,M,000.15,N,0000.29,K,A*1F
$GPGSA,A,3,22,14,27,08,21,16,18,15,,,,,1.7,1.0,1.4*31
$HCHDG,93.2,0.0,E,,*11
$YXXDR,A,5.8,D,PTCH,A,4.9,D,ROLL*5D
$GPRMC,230012.1,A,4741.19764,N,12224.27723,W,000.14,057.4,151015,016.4,E,A*2A
$GPGGA,230012.1,4741.19764,N,12224.27723,W,1,08,1.0,-5.9,M,-18.2,M,,*4C
$GPVTG,057.4,T,041.0,M,000.14,N,0000.26,K,A*11
$GPGSV,2,1,08,22,62,255,47,14,25,182,41,27,51,281,48,08,25,314,41*71
$HCHDG,93.2,0.0,E,,*11
$GPGSV,2,2,08,21,53,114,44,16,06,244,44,18,74,058,48,15,27,049,39*7E
$YXXDR,A,5.8,D,PTCH,A,5.2,D,ROLL*57
$GPRMC,230012.2,A,4741.19764,N,12224.27723,W,000.15,057.4,151015,016.4,E,A*28
$GPGGA,230012.2,4741.19764,N,12224.27723,W,1,08,1.0,-5.9,M,-18.2,M,,*4F
$GPVTG,057.4,T,041.0,M,000.15,N,0000.28,K,A*1E
$HCHDG,93.2,0.0,E,,*11
$YXXDR,A,5.8,D,PTCH,A,5.1,D,ROLL*54
$GPRMC,230012.3,A,4741.19764,N,12224.27723,W,000.15,057.4,151015,016.4,E,A*29
$GPGGA,230012.3,4741.19764,N,12224.27723,W,1,08,1.0,-5.9,M,-18.2,M,,*4E
$GPVTG,057.4,T,041.0,M,000.15,N,0000.27,K,A*11
$HCHDG,93.1,0.0,E,,*12
$YXXDR,A,5.8,D,PTCH,A,5.1,D,ROLL*54
$GPRMC,230012.4,A,4741.19764,N,12224.27723,W,000.15,057.4,151015,016.4,E,A*2E
$GPGGA,230012.4,4741.19764,N,12224.27723,W,1,08,1.0,-5.9,M,-18.2,M,,*49
$GPVTG,057.4,T,041.0,M,000.15,N,0000.27,K,A*11
$IIVLW,07411,N,037.3,N*57
$HCHDG,93.0,0.0,E,,*13
$YXXDR,A,5.6,D,PTCH,A,5.4,D,ROLL*5F
$IIVWR,092,L,13.1,N,,,,*77
$GPRMC,230012.5,A,4741.19764,N,12224.27723,W,000.13,057.4,151015,016.4,E,A*29
$GPGGA,230012.5,4741.19764,N,12224.27723,W,1,08,1.0,-5.9,M,-18.2,M,,*48
$GPVTG,057.4,T,041.0,M,000.13,N,0000.24,K,A*14
$HCHDG,93.1,0.0,E,,*12
$YXXDR,A,5.6,D,PTCH,A,5.3,D,ROLL*58
$TIROT,-5.8,A*1B
$GPRMC,230012.6,A,4741.19766,N,12224.27719,W,000.16,057.4,151015,016.4,E,A*24
$GPGGA,230012.6,4741.19766,N,12224.27719,W,1,08,1.0,-5.9,M,-18.2,M,,*40
$GPVTG,057.4,T,041.0,M,000.16,N,0000.30,K,A*14
$HCHDG,93.1,0.0,E,,*12
$IIMTW,+10.5,C*3C
$YXXDR,A,5.6,D,PTCH,A,5.3,D,ROLL*58
$GPRMC,230012.7,A,4741.19766,N,12224.27719,W,000.15,057.4,151015,016.4,E,A*26
$GPGGA,230012.7,4741.19766,N,12224.27719,W,1,08,1.0,-5.9,M,-18.2,M,,*41
$IIMWV,268,R,13.1,N,A*1C
$GPVTG,057.4,T,041.0,M,000.15,N,0000.27,K,A*11
$HCHDG,92.8,0.0,E,,*1A
$YXXDR,A,5.6,D,PTCH,A,5.4,D,ROLL*5F
$IIMWV,269,T,13.4,N,A*1E
$GPRMC,230012.8,A,4741.19766,N,12224.27719,W,000.14,057.4,151015,016.4,E,A*28
$GPGGA,230012.8,4741.19766,N,12224.27719,W,1,08,1.0,-5.9,M,-18.2,M,,*4E
$GPVTG,057.4,T,041.0,M,000.14,N,0000.26,K,A*11
$HCHDG,92.8,0.0,E,,*1A
$YXXDR,A,5.7,D,PTCH,A,5.5,D,ROLL*5F
$GPRMC,230012.9,A,4741.19766,N,12224.27719,W,000.16,057.4,151015,016.4,E,A*2B
$GPGGA,230012.9,4741.19766,N,12224.27719,W,1,08,1.0,-5.9,M,-18.2,M,,*4F
$GPVTG,057.4,T,041.0,M,000.16,N,0000.30,K,A*14
$HCHDG,92.8,0.0,E,,*1A
$IIVHW,,,,,00.0,N,,*19
$YXXDR,A,5.9,D,PTCH,A,5.6,D,ROLL*52
$GPRMC,230013.0,A,4741.19766,N,12224.27719,W,000.16,057.4,151015,016.4,E,A*23
$GPGGA,230013.0,4741.19766,N,12224.27719,W,1,08,1.0,-5.9,M,-18.2,M,,*47
$GPVTG,057.4,T,041.0,M,000.16,N,0000.29,K,A*1C
$GPGSA,A,3,22,14,27,08,21,16,18,15,,,,,1.7,1.0,1.4*31
$HCHDG,92.6,0.0,E,,*14
$YXXDR,A,6.0,D,PTCH,A,5.7,D,ROLL*59
$GPRMC,230013.1,A,4741.19766,N,12224.27719,W,000.17,057.4,151015,016.4,E,A*23
$GPGGA,230013.1,4741.19766,N,12224.27719,W,1,08,1.0,-5.9,M,-18.2,M,,*46
$GPVTG,057.4,T,041.0,M,000.17,N,0000.32,K,A*17
$HCHDG,92.6,0.0,E,,*14
$GPGSV,2,1,08,22,62,255,47,14,25,182,41,27,51,281,48,08,25,314,41*71
$GPGSV,2,2,08,21,53,114,44,16,06,244,44,18,74,058,48,15,27,049,39*7E
$YXXDR,A,6.0,D,PTCH,A,5.9,D,ROLL*57
$GPRMC,230013.2,A,4741.19766,N,12224.27719,W,000.18,057.4,151015,016.4,E,A*2F
$GPGGA,230013.2,4741.19766,N,12224.27719,W,1,08,1.0,-5.9,M,-18.2,M,,*45
$GPVTG,057.4,T,041.0,M,000.18,N,0000.33,K,A*19
$HCHDG,92.6,0.0,E,,*14
$YXXDR,A,6.1,D,PTCH,A,6.1,D,ROLL*5D
$GPRMC,230013.3,A,4741.19766,N,12224.27719,W,000.20,057.4,151015,016.4,E,A*25
$GPGGA,230013.3,4741.19766,N,12224.27719,W,1,08,1.0,-5.9,M,-18.2,M,,*44
$GPVTG,057.4,T,041.0,M,000.20,N,0000.37,K,A*16
$HCHDG,92.7,0.0,E,,*15
$YXXDR,A,5.9,D,PTCH,A,6.2,D,ROLL*55
$GPRMC,230013.4,A,4741.19766,N,12224.27719,W,000.20,057.4,151015,016.4,E,A*22
$GPGGA,230013.4,4741.19766,N,12224.27719,W,1,08,1.0,-5.9,M,-18.2,M,,*43
$IIVLW,07411,N,037.3,N*57
$GPVTG,057.4,T,041.0,M,000.20,N,0000.37,K,A*16
$HCHDG,92.7,0.0,E,,*15
$YXXDR,A,5.8,D,PTCH,A,6.3,D,ROLL*55
$IIVWR,094,L,12.7,N,,,,*76
$GPRMC,230013.5,A,4741.19766,N,12224.27719,W,000.23,057.4,151015,016.4,E,A*20
$GPGGA,230013.5,4741.19766,N,12224.27719,W,1,08,1.0,-5.9,M,-18.2,M,,*42
$GPVTG,057.4,T,041.0,M,000.23,N,0000.42,K,A*17
$HCHDG,92.7,0.0,E,,*15
$YXXDR,A,5.7,D,PTCH,A,6.4,D,ROLL*5D
$TIROT,23.6,A*0C
$GPRMC,230013.6,A,4741.19765,N,12224.27716,W,000.21,057.4,151015,016.4,E,A*2D
$GPGGA,230013.6,4741.19765,N,12224.27716,W,1,08,1.0,-5.9,M,-18.2,M,,*4D
$GPVTG,057.4,T,041.0,M,000.21,N,0000.39,K,A*19
$HCHDG,92.7,0.0,E,,*15
$IIMTW,+10.5,C*3C
$YXXDR,A,5.7,D,PTCH,A,6.3,D,ROLL*5A
$GPRMC,230013.7,A,4741.19765,N,12224.27716,W,000.22,057.4,151015,016.4,E,A*2F
$IIMWV,266,R,12.7,N,A*15
$GPGGA,230013.7,4741.19765,N,12224.27716,W,1,08,1.0,-5.9,M,-18.2,M,,*4C
$GPVTG,057.4,T,041.0,M,000.22,N,0000.41,K,A*15
$HCHDG,92.8,0.0,E,,*1A
$YXXDR,A,5.4,D,PTCH,A,6.3,D,ROLL*59
$IIMWV,268,T,13.1,N,A*1A
$GPRMC,230013.8,A,4741.19765,N,12224.27716,W,000.22,057.4,151015,016.4,E,A*20
$GPGGA,230013.8,4741.19765,N,12224.27716,W,1,08,1.0,-5.9,M,-18.2,M,,*43
$GPVTG,057.4,T,041.0,M,000.22,N,0000.40,K,A*14
$HCHDG,92.8,0.0,E,,*1A
$YXXDR,A,5.4,D,PTCH,A,6.1,D,ROLL*5B
$HCHDG,92.8,0.0,E,,*1A
$YXXDR,A,5.7,D,PTCH,A,5.7,D,ROLL*5D
$IIVHW,,,,,00.0,N,,*19
$GPRMC,230013.9,A,4741.19765,N,12224.27716,W,000.20,057.4,151015,016.4,E,A*23
$GPGGA,230013.9,4741.19765,N,12224.27716,W,1,08,1.0,-5.9,M,-18.2,M,,*42
$GPVTG,057.4,T,041.0,M,000.20,N,0000.38,K,A*19
$GPRMC,230014.0,A,4741.19765,N,12224.27716,W,000.19,058.5,151015,016.4,E,A*29
$GPGGA,230014.0,4741.19765,N,12224.27716,W,1,08,1.0,-5.9,M,-18.2,M,,*4C
$GPVTG,058.5,T,042.0,M,000.19,N,0000.34,K,A*12
$HCHDG,92.8,0.0,E,,*1A
$GPGSA,A,3,22,14,27,08,21,16,18,15,,,,,1.7,1.0,1.4*31
$YXXDR,A,5.9,D,PTCH,A,5.6,D,ROLL*52
$GPRMC,230014.1,A,4741.19765,N,12224.27716,W,000.18,058.5,151015,016.4,E,A*29
$GPGGA,230014.1,4741.19765,N,12224.27716,W,1,08,1.0,-5.9,M,-18.2,M,,*4D
$GPVTG,058.5,T,042.0,M,000.18,N,0000.33,K,A*14
$HCHDG,92.8,0.0,E,,*1A
$GPGSV,2,1,08,22,62,255,47,14,25,182,41,27,51,281,48,08,25,314,41*71
$YXXDR,A,5.9,D,PTCH,A,5.6,D,ROLL*52
$GPGSV,2,2,08,21,53,114,44,16,06,244,44,18,74,058,48,15,27,049,40*70
$GPRMC,230014.2,A,4741.19765,N,12224.27716,W,000.20,058.5,151015,016.4,E,A*21
$GPGGA,230014.2,4741.19765,N,12224.27716,W,1,08,1.0,-5.9,M,-18.2,M,,*4E
$GPVTG,058.5,T,042.0,M,000.20,N,0000.37,K,A*1B
$HCHDG,92.8,0.0,E,,*1A
$YXXDR,A,5.7,D,PTCH,A,5.7,D,ROLL*5D
$GPRMC,230014.3,A,4741.19765,N,12224.27716,W,000.19,058.5,151015,016.4,E,A*2A
$GPGGA,230014.3,4741.19765,N,12224.27716,W,1,08,1.0,-5.9,M,-18.2,M,,*4F
$GPVTG,058.5,T,042.0,M,000.19,N,0000.35,K,A*13
$HCHDG,92.8,0.0,E,,*1A
$YXXDR,A,5.6,D,PTCH,A,5.6,D,ROLL*5D
$GPRMC,230014.4,A,4741.19765,N,12224.27716,W,000.20,058.5,151015,016.4,E,A*27
$GPGGA,230014.4,4741.19765,N,12224.27716,W,1,08,1.0,-5.9,M,-18.2,M,,*48
$IIVLW,07411,N,037.3,N*57
$GPVTG,058.5,T,042.0,M,000.20,N,0000.37,K,A*1B
$HCHDG,92.8,0.0,E,,*1A
$YXXDR,A,5.6,D,PTCH,A,5.5,D,ROLL*5E
$IIVWR,095,L,12.6,N,,,,*76
$GPRMC,230014.5,A,4741.19765,N,12224.27716,W,000.20,058.5,151015,016.4,E,A*26
$GPGGA,230014.5,4741.19765,N,12224.27716,W,1,08,1.0,-5.9,M,-18.2,M,,*49
$GPVTG,058.5,T,042.0,M,000.20,N,0000.37,K,A*1B
$HCHDG,92.7,0.0,E,,*15
$YXXDR,A,5.6,D,PTCH,A,5.5,D,ROLL*5E
$TIROT,7.6,A*3A
$GPRMC,230014.6,A,4741.19765,N,12224.27715,W,000.21,058.5,151015,016.4,E,A*27
$GPGGA,230014.6,4741.19765,N,12224.27715,W,1,08,1.0,-5.9,M,-18.2,M,,*49
$GPVTG,058.5,T,042.0,M,000.21,N,0000.40,K,A*1A
$HCHDG,92.7,0.0,E,,*15
$IIMTW,+10.5,C*3C
$YXXDR,A,5.6,D,PTCH,A,5.4,D,ROLL*5F
$GPRMC,230014.7,A,4741.19765,N,12224.27715,W,000.26,058.5,151015,016.4,E,A*21
$IIMWV,265,R,12.6,N,A*17
$GPGGA,230014.7,4741.19765,N,12224.27715,W,1,08,1.0,-5.9,M,-18.2,M,,*48
$GPVTG,058.5,T,042.0,M,000.26,N,0000.47,K,A*1A
$HCHDG,92.7,0.0,E,,*15
$YXXDR,A,5.6,D,PTCH,A,5.3,D,ROLL*58
$IIMWV,266,T,12.7,N,A*13
$GPRMC,230014.8,A,4741.19765,N,12224.27715,W,000.25,058.5,151015,016.4,E,A*2D
$GPGGA,230014.8,4741.19765,N,12224.27715,W,1,08,1.0,-5.9,M,-18.2,M,,*47
$GPVTG,058.5,T,042.0,M,000.25,N,0000.46,K,A*18
$HCHDG,92.7,0.0,E,,*15
$YXXDR,A,5.6,D,PTCH,A,5.1,D,ROLL*5A
$GPRMC,230014.9,A,4741.19765,N,12224.27715,W,000.26,058.5,151015,016.4,E,A*2F
$GPGGA,230014.9,4741.19765,N,12224.27715,W,1,08,1.0,-5.9,M,-18.2,M,,*46
$GPVTG,058.5,T,042.0,M,000.26,N,0000.49,K,A*14
$HCHDG,92.7,0.0,E,,*15
$IIVHW,,,,,00.0,N,,*19
$YXXDR,A,5.6,D,PTCH,A,5.1,D,ROLL*5A
$GPRMC,230015.0,A,4741.19765,N,12224.27715,W,000.25,058.5,151015,016.4,E,A*24
$GPGGA,230015.0,4741.19765,N,12224.27715,W,1,08,1.0,-5.9,M,-18.2,M,,*4E
$GPVTG,058.5,T,042.0,M,000.25,N,0000.46,K,A*18
$HCHDG,92.7,0.0,E,,*15
$GPGSA,A,3,22,14,27,08,21,16,18,15,,,,,1.7,1.0,1.4*31
$YXXDR,A,5.6,D,PTCH,A,5.1,D,ROLL*5A
$GPRMC,230015.1,A,4741.19765,N,12224.27715,W,000.23,058.5,151015,016.4,E,A*23
$GPGGA,230015.1,4741.19765,N,12224.27715,W,1,08,1.0,-5.9,M,-18.2,M,,*4F
$GPVTG,058.5,T,042.0,M,000.23,N,0000.42,K,A*1A
$HCHDG,92.7,0.0,E,,*15
$GPGSV,2,1,08,22,62,255,47,14,25,182,41,27,51,281,48,08,25,314,40*70
$YXXDR,A,5.6,D,PTCH,A,5.1,D,ROLL*5A
$GPGSV,2,2,08,21,53,114,44,16,06,244,44,18,74,058,49,15,27,049,40*71
$GPRMC,230015.2,A,4741.19765,N,12224.27715,W,000.20,058.5,151015,016.4,E,A*23
$GPGGA,230015.2,4741.19765,N,12224.27715,W,1,08,1.0,-5.9,M,-18.2,M,,*4C
$GPVTG,058.5,T,042.0,M,000.20,N,0000.37,K,A*1B
$HCHDG,93.0,0.0,E,,*13
$YXXDR,A,5.4,D,PTCH,A,5.2,D,ROLL*5B
$GPRMC,230015.3,A,4741.19765,N,12224.27715,W,000.19,058.5,151015,016.4,E,A*28
$GPGGA,230015.3,4741.19765,N,12224.27715,W,1,08,1.0,-5.9,M,-18.2,M,,*4D
$GPVTG,058.5,T,042.0,M,000.19,N,0000.35,K,A*13
$HCHDG,93.0,0.0,E,,*13
$GPRMC,230015.4,A,4741.19765,N,12224.27715,W,000.17,058.5,151015,016.4,E,A*21
$YXXDR,A,5.3,D,PTCH,A,5.0,D,ROLL*5E
$GPGGA,230015.4,4741.19765,N,12224.27715,W,1,08,1.0,-5.9,M,-18.2,M,,*4A
$GPVTG,058.5,T,042.0,M,000.17,N,0000.31,K,A*19
$IIVLW,07411,N,037.3,N*57
$HCHDG,93.0,0.0,E,,*13
$GPRMC,230015.5,A,4741.19765,N,12224.27715,W,000.16,058.5,151015,016.4,E,A*21
$YXXDR,A,5.3,D,PTCH,A,5.0,D,ROLL*5E
$GPGGA,230015.5,4741.19765,N,12224.27715,W,1,08,1.0,-5.9,M,-18.2,M,,*4B
$IIVWR,096,L,12.5,N,,,,*76
$GPVTG,058.5,T,042.0,M,000.16,N,0000.30,K,A*19
$HCHDG,93.0,0.0,E,,*13
$GPRMC,230015.6,A,4741.19765,N,12224.27715,W,000.17,058.5,151015,016.4,E,A*23
$YXXDR,A,5.3,D,PTCH,A,5.0,D,ROLL*5E
$TIROT,9.0,A*32
$GPGGA,230015.6,4741.19765,N,12224.27715,W,1,08,1.0,-5.9,M,-18.2,M,,*48
$GPVTG,058.5,T,042.0,M,000.17,N,0000.32,K,A*1A
$HCHDG,93.0,0.0,E,,*13
$IIMTW,+10.5,C*3C
$GPRMC,230015.7,A,4741.19762,N,12224.27714,W,000.19,058.5,151015,016.4,E,A*2A
$YXXDR,A,5.4,D,PTCH,A,4.9,D,ROLL*51
$GPGGA,230015.7,4741.19762,N,12224.27714,W,1,08,1.0,-5.9,M,-18.2,M,,*4F
$GPVTG,058.5,T,042.0,M,000.19,N,0000.35,K,A*13
$IIMWV,264,R,12.5,N,A*15
$HCHDG,93.1,0.0,E,,*12
$GPRMC,230015.8,A,4741.19762,N,12224.27714,W,000.20,058.5,151015,016.4,E,A*2F
$YXXDR,A,5.4,D,PTCH,A,4.7,D,ROLL*5F
$IIMWV,265,T,12.6,N,A*11
$GPGGA,230015.8,4741.19762,N,12224.27714,W,1,08,1.0,-5.9,M,-18.2,M,,*40
$GPVTG,058.5,T,042.0,M,000.20,N,0000.37,K,A*1B
$HCHDG,93.1,0.0,E,,*12
$GPRMC,230015.9,A,4741.19762,N,12224.27714,W,000.18,058.5,151015,016.4,E,A*25
$YXXDR,A,5.4,D,PTCH,A,4.7,D,ROLL*5F
$GPGGA,230015.9,4741.19762,N,12224.27714,W,1,08,1.0,-5.9,M,-18.2,M,,*41
$GPVTG,058.5,T,042.0,M,000.18,N,0000.33,K,A*14
$HCHDG,93.1,0.0,E,,*12
$IIVHW,,,,,00.0,N,,*19
$GPRMC,230016.0,A,4741.19762,N,12224.27714,W,000.18,058.5,151015,016.4,E,A*2F
$YXXDR,A,5.3,D,PTCH,A,4.6,D,ROLL*59
$GPGGA,230016.0,4741.19762,N,12224.27714,W,1,08,1.0,-5.9,M,-18.2,M,,*4B
$GPVTG,058.5,T,042.0,M,000.18,N,0000.34,K,A*13
$GPGSA,A,3,22,14,27,08,21,16,18,15,,,,,1.7,1.0,1.4*31
$HCHDG,93.1,0.0,E,,*12
$GPRMC,230016.1,A,4741.19762,N,12224.27714,W,000.17,058.5,151015,016.4,E,A*21
$YXXDR,A,5.3,D,PTCH,A,4.6,D,ROLL*59
$GPGGA,230016.1,4741.19762,N,12224.27714,W,1,08,1.0,-6.0,M,-18.2,M,,*40
$GPVTG,058.5,T,042.0,M,000.17,N,0000.31,K,A*19
$GPGSV,2,1,08,22,62,255,47,14,25,182,41,27,51,281,48,08,25,314,40*70
$GPGSV,2,2,08,21,53,114,45,16,06,244,44,18,74,058,48,15,27,049,40*71
$HCHDG,93.0,0.0,E,,*13
$YXXDR,A,5.4,D,PTCH,A,4.6,D,ROLL*5E
$GPRMC,230016.2,A,4741.19762,N,12224.27714,W,000.16,058.5,151015,016.4,E,A*23
$GPGGA,230016.2,4741.19762,N,12224.27714,W,1,08,1.0,-6.0,M,-18.2,M,,*43
$GPVTG,058.5,T,042.0,M,000.16,N,0000.29,K,A*11
$HCHDG,93.0,0.0,E,,*13
$GPRMC,230016.3,A,4741.19762,N,12224.27714,W,000.19,058.5,151015,016.4,E,A*2D
$YXXDR,A,5.4,D,PTCH,A,4.6,D,ROLL*5E
$GPGGA,230016.3,4741.19762,N,12224.27714,W,1,08,1.0,-6.0,M,-18.2,M,,*42
$GPVTG,058.5,T,042.0,M,000.19,N,0000.35,K,A*13
$HCHDG,93.3,0.0,E,,*10
$GPRMC,230016.4,A,4741.19762,N,12224.27714,W,000.19,058.5,151015,016.4,E,A*2A
$YXXDR,A,5.4,D,PTCH,A,4.6,D,ROLL*5E
$GPGGA,230016.4,4741.19762,N,12224.27714,W,1,08,1.0,-6.0,M,-18.2,M,,*45
$GPVTG,058.5,T,042.0,M,000.19,N,0000.35,K,A*13
$IIVLW,07411,N,037.3,N*57
$HCHDG,93.3,0.0,E,,*10
$GPRMC,230016.5,A,4741.19762,N,12224.27714,W,000.18,058.5,151015,016.4,E,A*2A
$YXXDR,A,5.3,D,PTCH,A,4.5,D,ROLL*5A
$IIVWR,097,L,12.4,N,,,,*76
$GPGGA,230016.5,4741.19762,N,12224.27714,W,1,08,1.0,-6.0,M,-18.2,M,,*44
$GPVTG,058.5,T,042.0,M,000.18,N,0000.33,K,A*14
$HCHDG,93.3,0.0,E,,*10
$GPRMC,230016.6,A,4741.19762,N,12224.27714,W,000.18,058.5,151015,016.4,E,A*29
$YXXDR,A,5.4,D,PTCH,A,4.4,D,ROLL*5C
$TIROT,8.6,A*35
$GPGGA,230016.6,4741.19762,N,12224.27714,W,1,08,1.0,-6.0,M,-18.2,M,,*47
$GPVTG,058.5,T,042.0,M,000.18,N,0000.33,K,A*14
$HCHDG,93.3,0.0,E,,*10
$IIMTW,+10.5,C*3C
$GPRMC,230016.7,A,4741.19760,N,12224.27714,W,000.18,058.5,151015,016.4,E,A*2A
$YXXDR,A,5.4,D,PTCH,A,4.4,D,ROLL*5C
$GPGGA,230016.7,4741.19760,N,12224.27714,W,1,08,1.0,-6.0,M,-18.2,M,,*44
$GPVTG,058.5,T,042.0,M,000.18,N,0000.33,K,A*14
$IIMWV,263,R,12.4,N,A*13
$HCHDG,93.0,0.0,E,,*13
$GPRMC,230016.8,A,4741.19760,N,12224.27714,W,000.18,058.5,151015,016.4,E,A*25
$IIMWV,264,T,12.5,N,A*13
$YXXDR,A,5.6,D,PTCH,A,4.3,D,ROLL*59
$GPGGA,230016.8,4741.19760,N,12224.27714,W,1,08,1.0,-6.0,M,-18.2,M,,*4B
$GPVTG,058.5,T,042.0,M,000.18,N,0000.33,K,A*14
$HCHDG,92.9,0.0,E,,*1B
$YXXDR,A,5.6,D,PTCH,A,4.2,D,ROLL*58
$GPRMC,230016.9,A,4741.19760,N,12224.27714,W,000.19,058.5,151015,016.4,E,A*25
$GPGGA,230016.9,4741.19760,N,12224.27714,W,1,08,1.0,-6.0,M,-18.2,M,,*4A
$GPVTG,058.5,T,042.0,M,000.19,N,0000.34,K,A*12
$HCHDG,92.9,0.0,E,,*1B
$IIVHW,,,,,00.0,N,,*19
$YXXDR,A,5.7,D,PTCH,A,4.4,D,ROLL*5F
$GPRMC,230017.0,A,4741.19760,N,12224.27714,W,000.19,058.5,151015,016.4,E,A*2D
$GPGGA,230017.0,4741.19760,N,12224.27714,W,1,08,1.0,-6.0,M,-18.2,M,,*42
$GPVTG,058.5,T,042.0,M,000.19,N,0000.36,K,A*10
$GPGSA,A,3,22,14,27,08,21,16,18,15,,,,,1.7,1.0,1.4*31
$HCHDG,93.0,0.0,E,,*13
$YXXDR,A,5.8,D,PTCH,A,4.5,D,ROLL*51
$GPRMC,230017.1,A,4741.19760,N,12224.27714,W,000.19,058.5,151015,016.4,E,A*2C
$GPGGA,230017.1,4741.19760,N,12224.27714,W,1,08,1.0,-6.0,M,-18.2,M,,*43
$GPVTG,058.5,T,042.0,M,000.19,N,0000.36,K,A*10
$GPGSV,2,1,08,22,62,255,47,14,25,182,41,27,51,281,48,08,25,314,40*70
$GPGSV,2,2,08,21,53,114,44,16,06,244,43,18,74,058,48,15,27,049,40*77
$HCHDG,92.9,0.0,E,,*1B
$GPRMC,230017.2,A,4741.19760,N,12224.27714,W,000.17,058.5,151015,016.4,E,A*21
$YXXDR,A,5.8,D,PTCH,A,4.6,D,ROLL*52
$GPGGA,230017.2,4741.19760,N,12224.27714,W,1,08,1.0,-6.0,M,-18.2,M,,*40
$GPVTG,058.5,T,042.0,M,000.17,N,0000.32,K,A*1A
$HCHDG,92.8,0.0,E,,*1A
$GPRMC,230017.3,A,4741.19760,N,12224.27714,W,000.17,058.5,151015,016.4,E,A*20
$YXXDR,A,5.7,D,PTCH,A,4.8,D,ROLL*53
$GPGGA,230017.3,4741.19760,N,12224.27714,W,1,08,1.0,-6.0,M,-18.2,M,,*41
$GPVTG,058.5,T,042.0,M,000.17,N,0000.31,K,A*19
$HCHDG,92.8,0.0,E,,*1A
$GPRMC,230017.4,A,4741.19760,N,12224.27714,W,000.18,058.5,151015,016.4,E,A*28
$YXXDR,A,5.4,D,PTCH,A,4.6,D,ROLL*5E
$GPGGA,230017.4,4741.19760,N,12224.27714,W,1,08,1.0,-6.0,M,-18.2,M,,*46
$GPVTG,058.5,T,042.0,M,000.18,N,0000.33,K,A*14
$IIVLW,07411,N,037.3,N*57
$HCHDG,92.8,0.0,E,,*1A
$GPRMC,230017.5,A,4741.19760,N,12224.27714,W,000.20,058.5,151015,016.4,E,A*22
$YXXDR,A,5.4,D,PTCH,A,4.0,D,ROLL*58
$IIVWR,098,L,12.1,N,,,,*7C
$GPGGA,230017.5,4741.19760,N,12224.27714,W,1,08,1.0,-6.0,M,-18.2,M,,*47
$GPVTG,058.5,T,042.0,M,000.20,N,0000.36,K,A*1A
$HCHDG,92.8,0.0,E,,*1A
$GPRMC,230017.6,A,4741.19760,N,12224.27714,W,000.17,058.5,151015,016.4,E,A*25
$YXXDR,A,5.3,D,PTCH,A,3.8,D,ROLL*50
$TIROT,-6.7,A*17
$GPGGA,230017.6,4741.19760,N,12224.27714,W,1,08,1.0,-6.0,M,-18.2,M,,*44
$GPVTG,058.5,T,042.0,M,000.17,N,0000.31,K,A*19
$HCHDG,92.8,0.0,E,,*1A
$IIMTW,+10.5,C*3C
$GPRMC,230017.7,A,4741.19759,N,12224.27723,W,000.16,058.5,151015,016.4,E,A*2B
$YXXDR,A,5.4,D,PTCH,A,3.4,D,ROLL*5B
$GPGGA,230017.7,4741.19759,N,12224.27723,W,1,08,1.0,-6.0,M,-18.2,M,,*4B
$GPVTG,058.5,T,042.0,M,000.16,N,0000.30,K,A*19
$IIMWV,262,R,12.1,N,A*17
$HCHDG,92.8,0.0,E,,*1A
$IIMWV,263,T,12.4,N,A*15
$GPRMC,230017.8,A,4741.19759,N,12224.27723,W,000.17,058.5,151015,016.4,E,A*25
$YXXDR,A,5.5,D,PTCH,A,3.1,D,ROLL*5F
$GPGGA,230017.8,4741.19759,N,12224.27723,W,1,08,1.0,-6.0,M,-18.2,M,,*44
$GPVTG,058.5,T,042.0,M,000.17,N,0000.31,K,A*19
$HCHDG,92.8,0.0,E,,*1A
$GPRMC,230017.9,A,4741.19759,N,12224.27723,W,000.15,058.5,151015,016.4,E,A*26
$YXXDR,A,5.7,D,PTCH,A,2.7,D,ROLL*5A
$GPGGA,230017.9,4741.19759,N,12224.27723,W,1,08,1.0,-6.0,M,-18.2,M,,*45
$GPVTG,058.5,T,042.0,M,000.15,N,0000.28,K,A*13
$HCHDG,92.7,0.0,E,,*15
$IIVHW,,,,,00.0,N,,*19
$YXXDR,A,5.6,D,PTCH,A,3.0,D,ROLL*5D
$GPRMC,230018.0,A,4741.19759,N,12224.27723,W,000.16,058.5,151015,016.4,E,A*23
$GPGGA,230018.0,4741.19759,N,12224.27723,W,1,08,1.0,-6.0,M,-18.2,M,,*43
$GPVTG,058.5,T,042.0,M,000.16,N,0000.30,K,A*19
$GPGSA,A,3,22,14,27,08,21,16,18,15,,,,,1.7,1.0,1.4*31
$HCHDG,92.7,0.0,E,,*15
$YXXDR,A,5.4,D,PTCH,A,4.7,D,ROLL*5F
$GPRMC,230018.1,A,4741.19759,N,12224.27723,W,000.18,058.5,151015,016.4,E,A*2C
$GPGGA,230018.1,4741.19759,N,12224.27723,W,1,08,1.0,-6.0,M,-18.2,M,,*42
$GPVTG,058.5,T,042.0,M,000.18,N,0000.34,K,A*13
$GPGSV,2,1,08,22,62,255,47,14,25,182,41,27,51,281,48,08,25,314,41*71
$GPGSV,2,2,08,21,53,114,44,16,06,244,43,18,74,058,48,15,27,049,40*77
$HCHDG,92.7,0.0,E,,*15
$GPRMC,230018.2,A,4741.19759,N,12224.27723,W,000.17,058.5,151015,016.4,E,A*20
$YXXDR,A,5.3,D,PTCH,A,4.8,D,ROLL*57
$GPGGA,230018.2,4741.19759,N,12224.27723,W,1,08,1.0,-6.0,M,-18.2,M,,*41
$GPVTG,058.5,T,042.0,M,000.17,N,0000.32,K,A*1A
$HCHDG,92.8,0.0,E,,*1A
$YXXDR,A,5.3,D,PTCH,A,4.8,D,ROLL*57
$GPRMC,230018.3,A,4741.19759,N,12224.27723,W,000.17,058.5,151015,016.4,E,A*21
$GPGGA,230018.3,4741.19759,N,12224.27723,W,1,08,1.0,-6.0,M,-18.2,M,,*40
$GPVTG,058.5,T,042.0,M,000.17,N,0000.32,K,A*1A
$HCHDG,92.8,0.0,E,,*1A
$YXXDR,A,5.3,D,PTCH,A,4.8,D,ROLL*57
$GPRMC,230018.4,A,4741.19759,N,12224.27723,W,000.16,058.5,151015,016.4,E,A*27
$GPGGA,230018.4,4741.19759,N,12224.27723,W,1,08,1.0,-6.0,M,-18.2,M,,*47
$GPVTG,058.5,T,042.0,M,000.16,N,0000.30,K,A*19
$IIVLW,07411,N,037.3,N*57
$HCHDG,92.9,0.0,E,,*1B
$YXXDR,A,5.3,D,PTCH,A,4.8,D,ROLL*57
$GPRMC,230018.5,A,4741.19759,N,12224.27723,W,000.16,058.5,151015,016.4,E,A*26
$IIVWR,098,L,12.1,N,,,,*7C
$GPGGA,230018.5,4741.19759,N,12224.27723,W,1,08,1.0,-6.0,M,-18.2,M,,*46
$GPVTG,058.5,T,042.0,M,000.16,N,0000.30,K,A*19
$HCHDG,92.9,0.0,E,,*1B
$YXXDR,A,5.3,D,PTCH,A,4.5,D,ROLL*5A
$TIROT,33.6,A*0D
$GPRMC,230018.6,A,4741.19759,N,12224.27723,W,000.20,058.5,151015,016.4,E,A*20
$GPGGA,230018.6,4741.19759,N,12224.27723,W,1,08,1.0,-6.0,M,-18.2,M,,*45
$GPVTG,058.5,T,042.0,M,000.20,N,0000.37,K,A*1B
$HCHDG,93.0,0.0,E,,*13
$IIMTW,+10.5,C*3C
$YXXDR,A,5.6,D,PTCH,A,3.9,D,ROLL*54
$GPRMC,230018.7,A,4741.19758,N,12224.27726,W,000.21,058.5,151015,016.4,E,A*24
$GPGGA,230018.7,4741.19758,N,12224.27726,W,1,08,1.0,-6.0,M,-18.2,M,,*40
$GPVTG,058.5,T,042.0,M,000.21,N,0000.38,K,A*15
$IIMWV,262,R,12.1,N,A*17
$HCHDG,93.0,0.0,E,,*13
$YXXDR,A,5.4,D,PTCH,A,3.9,D,ROLL*56
$IIMWV,262,T,12.1,N,A*11
$GPRMC,230018.8,A,4741.19758,N,12224.27726,W,000.21,058.5,151015,016.4,E,A*2B
$GPGGA,230018.8,4741.19758,N,12224.27726,W,1,08,1.0,-6.0,M,-18.2,M,,*4F
$GPVTG,058.5,T,042.0,M,000.21,N,0000.39,K,A*14
$HCHDG,93.0,0.0,E,,*13
$YXXDR,A,5.4,D,PTCH,A,4.0,D,ROLL*58
$GPRMC,230018.9,A,4741.19758,N,12224.27726,W,000.19,058.2,151015,016.4,E,A*26
$GPGGA,230018.9,4741.19758,N,12224.27726,W,1,08,1.0,-6.0,M,-18.2,M,,*4E
$GPVTG,058.2,T,041.7,M,000.19,N,0000.34,K,A*11
$IIVHW,,,,,00.0,N,,*19
$HCHDG,93.3,0.0,E,,*10
$YXXDR,A,5.4,D,PTCH,A,4.0,D,ROLL*58
$GPRMC,230019.0,A,4741.19758,N,12224.27726,W,000.19,058.2,151015,016.4,E,A*2E
$GPGGA,230019.0,4741.19758,N,12224.27726,W,1,08,1.0,-6.0,M,-18.2,M,,*46
$GPVTG,058.2,T,041.7,M,000.19,N,0000.34,K,A*11
$GPGSA,A,3,22,14,27,08,21,16,18,15,,,,,1.7,1.0,1.4*31
$GPRMC,230019.1,A,4741.19758,N,12224.27726,W,000.17,058.2,151015,016.4,E,A*21
$GPGGA,230019.1,4741.19758,N,12224.27726,W,1,08,1.0,-6.0,M,-18.2,M,,*47
$GPVTG,058.2,T,041.7,M,000.17,N,0000.32,K,A*19
$GPGSV,2,1,08,22,62,255,47,14,25,182,40,27,51,281,48,08,25,314,41*70
$GPGSV,2,2,08,21,53,114,43,16,06,244,43,18,74,058,48,15,27,049,40*70
$GPRMC,230019.2,A,4741.19758,N,12224.27726,W,000.17,058.2,151015,016.4,E,A*22
$GPGGA,230019.2,4741.19758,N,12224.27726,W,1,08,1.0,-6.0,M,-18.2,M,,*44
$GPVTG,058.2,T,041.7,M,000.17,N,0000.32,K,A*19
$HCHDG,93.2,0.0,E,,*11
$YXXDR,A,5.5,D,PTCH,A,3.7,D,ROLL*59
$HCHDG,93.2,0.0,E,,*11
$YXXDR,A,5.5,D,PTCH,A,3.6,D,ROLL*58
$HCHDG,93.2,0.0,E,,*11
$YXXDR,A,5.5,D,PTCH,A,3.6,D,ROLL*58
$GPRMC,230019.3,A,4741.19758,N,12224.27726,W,000.16,058.2,151015,016.4,E,A*22
$GPGGA,230019.3,4741.19758,N,12224.27726,W,1,08,1.0,-6.0,M,-18.2,M,,*45
$GPVTG,058.2,T,041.7,M,000.16,N,0000.29,K,A*12
$HCHDG,93.2,0.0,E,,*11
$YXXDR,A,5.5,D,PTCH,A,3.8,D,ROLL*56
$GPRMC,230019.4,A,4741.19758,N,12224.27726,W,000.17,058.2,151015,016.4,E,A*24
$GPGGA,230019.4,4741.19758,N,12224.27726,W,1,08,1.0,-6.0,M,-18.2,M,,*42
$GPVTG,058.2,T,041.7,M,000.17,N,0000.31,K,A*1A
$IIVLW,07411,N,037.3,N*57
$HCHDG,92.9,0.0,E,,*1B
$YXXDR,A,5.6,D,PTCH,A,3.9,D,ROLL*54
$IIVWR,098,L,12.4,N,,,,*79
$GPRMC,230019.5,A,4741.19758,N,12224.27726,W,000.19,058.2,151015,016.4,E,A*2B
$GPGGA,230019.5,4741.19758,N,12224.27726,W,1,08,1.0,-6.0,M,-18.2,M,,*43
$GPVTG,058.2,T,041.7,M,000.19,N,0000.36,K,A*13
$HCHDG,92.9,0.0,E,,*1B
$YXXDR,A,5.6,D,PTCH,A,4.1,D,ROLL*5B
$TIROT,-9.7,A*18
$GPRMC,230019.6,A,4741.19758,N,12224.27726,W,000.19,058.2,151015,016.4,E,A*28
$GPGGA,230019.6,4741.19758,N,12224.27726,W,1,08,1.0,-6.0,M,-18.2,M,,*40
$GPVTG,058.2,T,041.7,M,000.19,N,0000.35,K,A*10
$HCHDG,92.9,0.0,E,,*1B
$IIMTW,+10.5,C*3C
$YXXDR,A,5.7,D,PTCH,A,4.4,D,ROLL*5F
$GPRMC,230019.7,A,4741.19760,N,12224.27733,W,000.19,058.2,151015,016.4,E,A*26
$GPGGA,230019.7,4741.19760,N,12224.27733,W,1,08,1.0,-6.0,M,-18.2,M,,*4E
$IIMWV,262,R,12.4,N,A*12
$GPVTG,058.2,T,041.7,M,000.19,N,0000.35,K,A*10
$HCHDG,92.9,0.0,E,,*1B
$YXXDR,A,5.6,D,PTCH,A,4.5,D,ROLL*5F
$IIMWV,262,T,12.1,N,A*11
$GPRMC,230019.8,A,4741.19760,N,12224.27733,W,000.18,058.2,151015,016.4,E,A*28
$GPGGA,230019.8,4741.19760,N,12224.27733,W,1,08,1.0,-6.0,M,-18.2,M,,*41
$GPVTG,058.2,T,041.7,M,000.18,N,0000.34,K,A*10
$HCHDG,92.9,0.0,E,,*1B
$YXXDR,A,5.7,D,PTCH,A,4.7,D,ROLL*5C
$GPRMC,230019.9,A,4741.19760,N,12224.27733,W,000.18,058.2,151015,016.4,E,A*29
$GPGGA,230019.9,4741.19760,N,12224.27733,W,1,08,1.0,-6.0,M,-18.2,M,,*40
$GPVTG,058.2,T,041.7,M,000.18,N,0000.34,K,A*10
$HCHDG,92.9,0.0,E,,*1B
$IIVHW,,,,,00.0,N,,*19
$YXXDR,A,5.7,D,PTCH,A,4.7,D,ROLL*5C
$GPGGA,230020.0,4741.19760,N,12224.27733,W,1,08,1.0,-6.0,M,-18.2,M,,*43
$GPRMC,230020.0,A,4741.19760,N,12224.27733,W,000.21,058.1,151015,016.4,E,A*23
$GPVTG,058.1,T,041.6,M,000.21,N,0000.39,K,A*15
$GPGSA,A,3,22,14,27,08,21,16,18,15,,,,,1.7,1.0,1.4*31
$HCHDG,92.9,0.0,E,,*1B
$YXXDR,A,5.7,D,PTCH,A,4.6,D,ROLL*5D
$GPRMC,230020.1,A,4741.19760,N,12224.27733,W,000.21,057.9,151015,016.4,E,A*25
