$DATA,IMU,1,3,1,0,EULER,121.4375,-0.25,-5.1875,ACC,-0.03,0,0.04,GRAV,-0.04,0.89,9.76*52
$GPGSV,3,2,10,08,29,049,36,05,11,258,33,07,49,102,38,20,09,303,43*76
$GPGSV,3,3,10,30,79,072,31,11,22,099,38*79
$GPRMC,230000.2,A,4741.19894,N,12224.25456,W,000.11,098.5,020416,016.4,E,A*2E
$IIRMB,A,0.00,L,M,X,4741.777000,N,12224.575000,W,0.6,340,-0.05,V*20
$IIVWR,073,R,10.0,N,,,,*64
$HCHDG,265.0,0.0,E,,*28
$YXXDR,A,5.4,D,PTCH,A,1.7,D,ROLL*5A
$GPGGA,230000.2,4741.19894,N,12224.25456,W,1,10,0.9,-4.7,M,-18.2,M,,*41
$GPVTG,098.5,T,082.0,M,000.11,N,0000.19,K,A*15
$PGRMT,GPS19x-HVS Software Version 2.20,,,,,,,,*6F
$DATA,IMU,1,3,1,0,EULER,121.4375,-0.25,-5.1875,ACC,-0.03,0,-0.01,GRAV,-0.04,0.89,9.76*7A
$HCHDG,264.9,0.0,E,,*20
$GPRMC,230000.3,A,4741.19894,N,12224.25456,W,000.09,098.5,020416,016.4,E,A*26
$IIRMB,A,0.00,L,M,X,4741.777000,N,12224.575000,W,0.6,340,-0.04,V*21
$YXXDR,A,5.4,D,PTCH,A,1.6,D,ROLL*5B
$GPGGA,230000.3,4741.19894,N,12224.25456,W,1,10,0.9,-4.7,M,-18.2,M,,*40
$GPVTG,098.5,T,082.0,M,000.09,N,0000.17,K,A*12
$IIMTW,+08.0,C*30
$DATA,IMU,1,3,1,0,EULER,121.4375,-0.25,-5.1875,ACC,0,0,0.04,GRAV,-0.04,0.89,9.76*52
$HCHDG,264.9,0.0,E,,*20
$GPRMC,230000.4,A,4741.19894,N,12224.25456,W,000.08,098.5,020416,016.4,E,A*20
$IIRMB,A,0.00,L,M,X,4741.777000,N,12224.575000,W,0.6,340,-0.04,V*21
$YXXDR,A,5.5,D,PTCH,A,1.4,D,ROLL*58
$GPGGA,230000.4,4741.19894,N,12224.25456,W,1,10,0.9,-4.7,M,-18.2,M,,*47
$IIMWV,073,R,10.0,N,A*16
$GPVTG,098.5,T,082.0,M,000.08,N,0000.15,K,A*11
$IIMWV,073,T,10.3,N,A*13
$DATA,IMU,1,3,1,0,EULER,121.4375,-0.25,-5.1875,ACC,0,0.01,0,GRAV,-0.04,0.89,9.76*57
$DATA,env,P,969.296875,T,17.86*7C
$HCHDG,264.7,0.0,E,,*2E
$YXXDR,A,5.5,D,PTCH,A,1.4,D,ROLL*58
$GPRMC,230000.5,A,4741.19894,N,12224.25456,W,000.09,098.5,020416,016.4,E,A*20
$IIRMB,A,0.00,L,M,X,4741.777000,N,12224.575000,W,0.6,340,-0.04,V*21
$GPGGA,230000.5,4741.19894,N,12224.25456,W,1,10,0.9,-4.8,M,-18.2,M,,*49
$GPVTG,098.5,T,082.0,M,000.09,N,0000.16,K,A*13
$IIRMB,A,0.00,L,,X   ,,,,,000.6,340,,V,A*3E
$DATA,IMU,1,3,1,0,EULER,121.4375,-0.25,-5.1875,ACC,0.03,0,0.03,GRAV,-0.04,0.89,9.76*78
$HCHDG,264.7,0.0,E,,*2E
$GPRMC,230000.6,A,4741.19892,N,12224.25453,W,000.10,098.5,020416,016.4,E,A*28
$IIRMB,A,0.00,L,M,X,4741.777000,N,12224.575000,W,0.6,340,-0.05,V*20
$YXXDR,A,5.5,D,PTCH,A,1.4,D,ROLL*58
$GPGGA,230000.6,4741.19892,N,12224.25453,W,1,11,0.8,-4.8,M,-18.2,M,,*49
$GPVTG,098.5,T,082.0,M,000.10,N,0000.19,K,A*14
$DATA,IMU,1,3,1,0,EULER,121.4375,-0.25,-5.1875,ACC,0.06,0.01,0.02,GRAV,-0.04,0.89,9.76*53
$HCHDG,264.7,0.0,E,,*2E
$GPRMC,230000.7,A,4741.19892,N,12224.25453,W,000.09,098.5,020416,016.4,E,A*21
$IIRMB,A,0.00,L,M,X,4741.777000,N,12224.575000,W,0.6,340,-0.04,V*21
$YXXDR,A,5.5,D,PTCH,A,1.4,D,ROLL*58
$TIROT,-41.6,A*25
$GPGGA,230000.7,4741.19892,N,12224.25453,W,1,11,0.8,-4.8,M,-18.2,M,,*48
$GPVTG,098.5,T,082.0,M,000.09,N,0000.18,K,A*1D
$DATA,IMU,1,3,1,0,EULER,121.4375,-0.25,-5.1875,ACC,0.06,0.02,0.07,GRAV,-0.04,0.89,9.76*55
$HCHDG,264.7,0.0,E,,*2E
$YXXDR,A,5.5,D,PTCH,A,1.4,D,ROLL*58
$GPRMC,230000.8,A,4741.19892,N,12224.25453,W,000.11,098.5,020416,016.4,E,A*27
$IIRMB,A,0.00,L,M,X,4741.777000,N,12224.575000,W,0.6,340,-0.05,V*20
$GPGGA,230000.8,4741.19892,N,12224.25453,W,1,11,0.8,-4.8,M,-18.2,M,,*47
$GPVTG,098.5,T,082.0,M,000.11,N,0000.20,K,A*1F
$DATA,IMU,1,3,1,0,EULER,121.4375,-0.25,-5.1875,ACC,0.07,0.02,0.11,GRAV,-0.04,0.89,9.76*53
$HCHDG,264.7,0.0,E,,*2E
$GPRMC,230000.9,A,4741.19892,N,12224.25453,W,000.11,098.5,020416,016.4,E,A*26
$IIRMB,A,0.00,L,M,X,4741.777000,N,12224.575000,W,0.6,340,-0.05,V*20
$YXXDR,A,5.4,D,PTCH,A,1.6,D,ROLL*5B
$GPGGA,230000.9,4741.19892,N,12224.25453,W,1,11,0.8,-4.8,M,-18.2,M,,*46
$GPVTG,098.5,T,082.0,M,000.11,N,0000.20,K,A*1F
$HCHDG,264.9,0.0,E,,*20
$DATA,IMU,1,3,1,0,EULER,121.5,-0.25,-5.1875,ACC,0.02,0.02,0.11,GRAV,-0.04,0.89,9.76*66
$YXXDR,A,5.4,D,PTCH,A,1.7,D,ROLL*5A
$GPRMC,230001.0,A,4741.19892,N,12224.25453,W,000.10,098.5,020416,016.4,E,A*2F
$IIRMB,A,0.00,L,M,X,4741.777000,N,12224.575000,W,0.6,340,-0.05,V*20
$GPGGA,230001.0,4741.19892,N,12224.25453,W,1,11,0.8,-4.8,M,-18.2,M,,*4E
$GPVTG,098.5,T,082.0,M,000.10,N,0000.19,K,A*14
$GPGSA,A,3,17,28,13,15,09,08,05,07,20,30,11,,1.3,0.8,1.0*31
$HCHDG,264.9,0.0,E,,*20
$DATA,IMU,1,3,1,0,EULER,121.5,-0.25,-5.1875,ACC,0.02,0.01,0.09,GRAV,-0.04,0.89,9.76*6C
$YXXDR,A,5.4,D,PTCH,A,1.8,D,ROLL*55
$GPRMC,230001.1,A,4741.19892,N,12224.25453,W,000.11,098.5,020416,016.4,E,A*2F
$IIRMB,A,0.00,L,M,X,4741.777000,N,12224.575000,W,0.6,340,-0.05,V*20
$GPGGA,230001.1,4741.19892,N,12224.25453,W,1,11,0.8,-4.8,M,-18.2,M,,*4F
$GPVTG,098.5,T,082.0,M,000.11,N,0000.20,K,A*1F
$GPGSV,3,1,11,17,17,183,22,28,67,247,42,13,42,304,39,15,09,322,34*7D
$GPGSV,3,2,11,09,07,161,24,08,29,049,29,05,11,258,33,07,49,102,38*7B
$IIVHW,,,,,00.0,N,,*19
$GPGSV,3,3,11,20,09,303,43,30,79,072,30,11,22,099,38*45
$HCHDG,265.0,0.0,E,,*28
$GPRMC,230001.2,A,4741.19892,N,12224.25453,W,000.11,098.5,020416,016.4,E,A*2C
$IIRMB,A,0.00,L,M,X,4741.777000,N,12224.575000,W,0.6,340,-0.05,V*20
$YXXDR,A,5.4,D,PTCH,A,1.8,D,ROLL*55
$DATA,IMU,1,3,1,0,EULER,121.5,-0.25,-5.1875,ACC,0.01,0,0,GRAV,-0.04,0.89,9.76*67
$GPGGA,230001.2,4741.19892,N,12224.25453,W,1,11,0.8,-4.8,M,-18.2,M,,*4C
$IIVLW,07472,N,020.8,N*5F
$GPVTG,098.5,T,082.0,M,000.11,N,0000.20,K,A*1F
$HCHDG,264.9,0.0,E,,*20
$IIVWR,073,R,09.9,N,,,,*65
$YXXDR,A,5.5,D,PTCH,A,1.9,D,ROLL*55
$GPRMC,230001.3,A,4741.19892,N,12224.25453,W,000.11,098.5,020416,016.4,E,A*2D
$IIRMB,A,0.00,L,M,X,4741.777000,N,12224.575000,W,0.6,340,-0.05,V*20
$GPGGA,230001.3,4741.19892,N,12224.25453,W,1,11,0.8,-4.8,M,-18.2,M,,*4D
$DATA,IMU,1,3,1,0,EULER,121.5625,-0.25,-5.1875,ACC,-0.05,0,0.04,GRAV,-0.04,0.89,9.76*55
$GPVTG,098.5,T,082.0,M,000.11,N,0000.21,K,A*1E
$HCHDG,264.9,0.0,E,,*20
$YXXDR,A,5.5,D,PTCH,A,2.0,D,ROLL*5F
$GPRMC,230001.4,A,4741.19892,N,12224.25453,W,000.11,098.5,020416,016.4,E,A*2A
$IIRMB,A,0.00,L,M,X,4741.777000,N,12224.575000,W,0.6,340,-0.05,V*20
$GPGGA,230001.4,4741.19892,N,12224.25453,W,1,11,0.8,-4.8,M,-18.2,M,,*4A
$DATA,IMU,1,3,1,0,EULER,121.5625,-0.25,-5.1875,ACC,-0.03,0,0.09,GRAV,-0.04,0.89,9.76*5E
$GPVTG,098.5,T,082.0,M,000.11,N,0000.20,K,A*1F
$IIMTW,+08.0,C*30
$DATA,env,P,968.1484375,T,17.87*43
$HCHDG,264.9,0.0,E,,*20
$GPRMC,230001.5,A,4741.19892,N,12224.25453,W,000.10,098.5,020416,016.4,E,A*2A
$IIRMB,A,0.00,L,M,X,4741.777000,N,12224.575000,W,0.6,340,-0.05,V*20
$YXXDR,A,5.5,D,PTCH,A,2.1,D,ROLL*5E
$IIMWV,073,R,09.9,N,A*17
$GPGGA,230001.5,4741.19892,N,12224.25453,W,1,11,0.8,-4.8,M,-18.2,M,,*4B
$GPVTG,098.5,T,082.0,M,000.10,N,0000.19,K,A*14
$DATA,IMU,1,3,1,0,EULER,121.5625,-0.25,-5.1875,ACC,-0.05,0.02,0.1,GRAV,-0.04,0.89,9.76*4C
$IIMWV,073,T,10.0,N,A*10
$HCHDG,264.9,0.0,E,,*20
$YXXDR,A,5.5,D,PTCH,A,2.0,D,ROLL*5F
$GPRMC,230001.6,A,4741.19891,N,12224.25455,W,000.11,098.5,020416,016.4,E,A*2D
$IIRMB,A,0.00,L,M,X,4741.777000,N,12224.575000,W,0.6,340,-0.05,V*20
$GPGGA,230001.6,4741.19891,N,12224.25455,W,1,11,0.8,-4.8,M,-18.2,M,,*4D
$GPVTG,098.5,T,082.0,M,000.11,N,0000.21,K,A*1E
$DATA,IMU,1,3,1,0,EULER,121.5625,-0.25,-5.1875,ACC,-0.04,0.01,0.07,GRAV,-0.04,0.89,9.76*78
$IIRMB,A,0.00,L,,X   ,,,,,000.6,340,,V,A*3E
$HCHDG,265.0,0.0,E,,*28
$YXXDR,A,5.4,D,PTCH,A,1.7,D,ROLL*5A
$TIROT,-23.5,A*22
$GPRMC,230001.7,A,4741.19891,N,12224.25455,W,000.10,098.5,020416,016.4,E,A*2D
$IIRMB,A,0.00,L,M,X,4741.777000,N,12224.575000,W,0.6,340,-0.05,V*20
$GPGGA,230001.7,4741.19891,N,12224.25455,W,1,11,0.8,-4.8,M,-18.2,M,,*4C
$GPVTG,098.5,T,082.0,M,000.10,N,0000.19,K,A*14
$DATA,IMU,1,3,1,0,EULER,121.5625,-0.25,-5.1875,ACC,-0.03,-0.01,0.1,GRAV,-0.04,0.89,9.76*64
$HCHDG,265.0,0.0,E,,*28
$YXXDR,A,5.4,D,PTCH,A,1.7,D,ROLL*5A
$GPRMC,230001.8,A,4741.19891,N,12224.25455,W,000.10,098.5,020416,016.4,E,A*22
$IIRMB,A,0.00,L,M,X,4741.777000,N,12224.575000,W,0.6,340,-0.05,V*20
$GPGGA,230001.8,4741.19891,N,12224.25455,W,1,11,0.8,-4.8,M,-18.2,M,,*43
$GPVTG,098.5,T,082.0,M,000.10,N,0000.19,K,A*14
$DATA,IMU,1,3,1,0,EULER,121.5625,-0.25,-5.1875,ACC,-0.02,0,0.12,GRAV,-0.04,0.89,9.76*55
$HCHDG,264.9,0.0,E,,*20
$YXXDR,A,5.4,D,PTCH,A,1.6,D,ROLL*5B
$GPRMC,230001.9,A,4741.19891,N,12224.25455,W,000.11,098.5,020416,016.4,E,A*22
$IIRMB,A,0.00,L,M,X,4741.777000,N,12224.575000,W,0.6,340,-0.05,V*20
$GPGGA,230001.9,4741.19891,N,12224.25455,W,1,11,0.8,-4.8,M,-18.2,M,,*42
$GPVTG,098.5,T,082.0,M,000.11,N,0000.19,K,A*15
$DATA,IMU,1,3,1,0,EULER,121.5625,-0.25,-5.1875,ACC,-0.01,-0.01,0.15,GRAV,-0.04,0.89,9.76*53
$HCHDG,264.9,0.0,E,,*20
$YXXDR,A,5.4,D,PTCH,A,1.3,D,ROLL*5E
$GPRMC,230002.0,A,4741.19891,N,12224.25455,W,000.11,098.5,020416,016.4,E,A*28
$IIRMB,A,0.00,L,M,X,4741.777000,N,12224.575000,W,0.6,340,-0.05,V*20
$GPGGA,230002.0,4741.19891,N,12224.25455,W,1,11,0.8,-4.8,M,-18.2,M,,*48
$GPVTG,098.5,T,082.0,M,000.11,N,0000.20,K,A*1F
$GPGSA,A,3,17,28,13,15,09,08,05,07,20,30,11,,1.3,0.8,1.0*31
$DATA,IMU,1,3,1,0,EULER,121.5625,-0.25,-5.1875,ACC,0.01,-0.01,0.06,GRAV,-0.04,0.89,9.76*7C
$HCHDG,264.9,0.0,E,,*20
$YXXDR,A,5.4,D,PTCH,A,1.3,D,ROLL*5E
$GPRMC,230002.1,A,4741.19891,N,12224.25455,W,000.11,098.5,020416,016.4,E,A*29
$IIRMB,A,0.00,L,M,X,4741.777000,N,12224.575000,W,0.6,340,-0.05,V*20
$GPGGA,230002.1,4741.19891,N,12224.25455,W,1,11,0.8,-4.8,M,-18.2,M,,*49
$GPVTG,098.5,T,082.0,M,000.11,N,0000.20,K,A*1F
$GPGSV,3,1,11,17,17,183,23,28,67,247,42,13,42,304,40,15,09,322,34*72
$DATA,IMU,1,3,1,0,EULER,121.5625,-0.25,-5.1875,ACC,0.04,0.01,0,GRAV,-0.04,0.89,9.76*7C
$GPGSV,3,2,11,09,07,161,24,08,29,049,26,05,11,258,33,07,49,102,39*75
$HCHDG,264.9,0.0,E,,*20
$GPGSV,3,3,11,20,09,303,44,30,79,072,30,11,22,099,39*43
$YXXDR,A,5.4,D,PTCH,A,1.3,D,ROLL*5E
$GPRMC,230002.2,A,4741.19891,N,12224.25455,W,000.13,098.5,020416,016.4,E,A*28
$IIRMB,A,0.00,L,M,X,4741.777000,N,12224.575000,W,0.6,340,-0.06,V*23
$GPGGA,230002.2,4741.19891,N,12224.25455,W,1,11,0.8,-4.8,M,-18.2,M,,*4A
$GPVTG,098.5,T,082.0,M,000.13,N,0000.24,K,A*19
$DATA,IMU,2,3,1,0,EULER,121.5625,-0.25,-5.1875,ACC,0.05,0,0,GRAV,-0.04,0.89,9.76*51
$HCHDG,264.9,0.0,E,,*20
$YXXDR,A,5.4,D,PTCH,A,1.3,D,ROLL*5E
$GPRMC,230002.3,A,4741.19891,N,12224.25455,W,000.15,098.5,020416,016.4,E,A*2F
$IIRMB,A,0.00,L,M,X,4741.777000,N,12224.575000,W,0.6,340,-0.07,V*22
$IIVHW,,,,,00.0,N,,*19
$GPGGA,230002.3,4741.19891,N,12224.25455,W,1,11,0.8,-4.8,M,-18.2,M,,*4B
$GPVTG,098.5,T,082.0,M,000.15,N,0000.27,K,A*1C
$IIVLW,07472,N,020.8,N*5F
$DATA,IMU,2,3,1,0,EULER,121.5625,-0.25,-5.1875,ACC,0.05,0.01,0.08,GRAV,-0.04,0.89,9.76*58
$HCHDG,264.9,0.0,E,,*20
$YXXDR,A,5.5,D,PTCH,A,1.7,D,ROLL*5B
$GPRMC,230002.4,A,4741.19891,N,12224.25455,W,000.14,098.5,020416,016.4,E,A*29
$IIRMB,A,0.00,L,M,X,4741.777000,N,12224.575000,W,0.6,340,-0.07,V*22
$IIVWR,072,R,09.5,N,,,,*68
$GPGGA,230002.4,4741.19891,N,12224.25455,W,1,11,0.8,-4.8,M,-18.2,M,,*4C
$GPVTG,098.5,T,082.0,M,000.14,N,0000.26,K,A*1C
$DATA,IMU,2,3,1,0,EULER,121.5625,-0.25,-5.1875,ACC,0.06,0,0.06,GRAV,-0.04,0.89,9.76*7A
$HCHDG,265.0,0.0,E,,*28
$DATA,env,P,965.4765625,T,17.88*48
$YXXDR,A,5.5,D,PTCH,A,1.7,D,ROLL*5B
$HCHDG,265.0,0.0,E,,*28
$GPRMC,230002.5,A,4741.19891,N,12224.25455,W,000.14,098.5,020416,016.4,E,A*28
$IIRMB,A,0.00,L,M,X,4741.777000,N,12224.575000,W,0.6,340,-0.07,V*22
$GPGGA,230002.5,4741.19891,N,12224.25455,W,1,11,0.8,-4.9,M,-18.2,M,,*4C
$GPVTG,098.5,T,082.0,M,000.14,N,0000.27,K,A*1D
$GPRMC,230002.6,A,4741.19890,N,12224.25454,W,000.14,098.5,020416,016.4,E,A*2B
$IIRMB,A,0.00,L,M,X,4741.777000,N,12224.575000,W,0.6,340,-0.07,V*22
$IIMTW,+08.0,C*30
$YXXDR,A,5.4,D,PTCH,A,1.7,D,ROLL*5A
$DATA,IMU,2,3,1,0,EULER,121.5625,-0.25,-5.1875,ACC,0.03,0.03,-0.01,GRAV,-0.04,0.89,9.76*78
$GPGGA,230002.6,4741.19890,N,12224.25454,W,1,11,0.8,-4.9,M,-18.2,M,,*4F
$GPVTG,098.5,T,082.0,M,000.14,N,0000.26,K,A*1C
$IIMWV,072,R,09.5,N,A*1A
$HCHDG,265.0,0.0,E,,*28
$DATA,IMU,2,3,1,0,EULER,121.5625,-0.25,-5.1875,ACC,0.01,0,0.12,GRAV,-0.04,0.89,9.76*78
$YXXDR,A,5.4,D,PTCH,A,1.8,D,ROLL*55
$TIROT,11.2,A*09
$GPRMC,230002.7,A,4741.19890,N,12224.25454,W,000.13,098.5,020416,016.4,E,A*2D
$IIRMB,A,0.00,L,M,X,4741.777000,N,12224.575000,W,0.6,340,-0.06,V*23
$IIMWV,073,T,09.9,N,A*11
$GPGGA,230002.7,4741.19890,N,12224.25454,W,1,11,0.8,-4.9,M,-18.2,M,,*4E
$GPVTG,098.5,T,082.0,M,000.13,N,0000.24,K,A*19
$HCHDG,265.1,0.0,E,,*29
$DATA,IMU,1,3,1,0,EULER,121.5625,-0.25,-5.1875,ACC,0,0.01,0.12,GRAV,-0.04,0.89,9.76*7B
$YXXDR,A,5.4,D,PTCH,A,1.8,D,ROLL*55
$GPRMC,230002.8,A,4741.19890,N,12224.25454,W,000.13,098.5,020416,016.4,E,A*22
$IIRMB,A,0.00,L,M,X,4741.777000,N,12224.575000,W,0.6,340,-0.06,V*23
$GPGGA,230002.8,4741.19890,N,12224.25454,W,1,11,0.8,-4.9,M,-18.2,M,,*41
$GPVTG,098.5,T,082.0,M,000.13,N,0000.24,K,A*19
$HCHDG,265.1,0.0,E,,*29
$DATA,IMU,1,3,1,0,EULER,121.5625,-0.25,-5.1875,ACC,0,0,0.13,GRAV,-0.04,0.89,9.76*55
$YXXDR,A,5.5,D,PTCH,A,2.0,D,ROLL*5F
$GPRMC,230002.9,A,4741.19890,N,12224.25454,W,000.15,098.5,020416,016.4,E,A*25
$IIRMB,A,0.00,L,M,X,4741.777000,N,12224.575000,W,0.6,340,-0.07,V*22
$GPGGA,230002.9,4741.19890,N,12224.25454,W,1,11,0.8,-4.9,M,-18.2,M,,*40
$GPVTG,098.5,T,082.0,M,000.15,N,0000.28,K,A*13
$HCHDG,265.2,0.0,E,,*2A
$DATA,IMU,1,3,1,0,EULER,121.5625,-0.25,-5.1875,ACC,-0.01,0.01,0.1,GRAV,-0.04,0.89,9.76*4B
$YXXDR,A,5.5,D,PTCH,A,1.9,D,ROLL*55
$GPRMC,230003.0,A,4741.19890,N,12224.25454,W,000.13,098.5,020416,016.4,E,A*2B
$IIRMB,A,0.00,L,M,X,4741.777000,N,12224.575000,W,0.6,340,-0.06,V*23
$GPGGA,230003.0,4741.19890,N,12224.25454,W,1,11,0.8,-4.9,M,-18.2,M,,*48
$GPVTG,098.5,T,082.0,M,000.13,N,0000.25,K,A*18
$GPGSA,A,3,17,28,13,15,09,08,05,07,20,30,11,,1.3,0.8,1.0*31
$HCHDG,265.2,0.0,E,,*2A
$DATA,IMU,1,3,1,0,EULER,121.5625,-0.25,-5.1875,ACC,0,-0.01,0.1,GRAV,-0.04,0.89,9.76*64
$YXXDR,A,5.4,D,PTCH,A,1.8,D,ROLL*55
$GPRMC,230003.1,A,4741.19890,N,12224.25454,W,000.13,098.5,020416,016.4,E,A*2A
$IIRMB,A,0.00,L,M,X,4741.777000,N,12224.575000,W,0.6,340,-0.06,V*23
$GPGGA,230003.1,4741.19890,N,12224.25454,W,1,11,0.8,-4.9,M,-18.2,M,,*49
$GPVTG,098.5,T,082.0,M,000.13,N,0000.24,K,A*19
$GPGSV,3,1,11,17,17,183,23,28,67,247,42,13,42,304,40,15,09,322,34*72
$HCHDG,265.2,0.0,E,,*2A
$GPGSV,3,2,11,09,07,161,25,08,29,049,28,05,11,258,32,07,49,102,39*7B
$GPGSV,3,3,11,20,09,303,44,30,79,072,30,11,22,099,39*43
$YXXDR,A,5.4,D,PTCH,A,1.8,D,ROLL*55
$DATA,IMU,1,3,1,0,EULER,121.5625,-0.25,-5.1875,ACC,0,0,0.02,GRAV,-0.04,0.89,9.76*55
$IIRMB,A,0.00,L,,X   ,,,,,000.6,340,,V,A*3E
$GPRMC,230003.2,A,4741.19890,N,12224.25454,W,000.11,098.5,020416,016.4,E,A*2B
$IIRMB,A,0.00,L,M,X,4741.777000,N,12224.575000,W,0.6,340,-0.05,V*20
$GPGGA,230003.2,4741.19890,N,12224.25454,W,1,11,0.8,-4.9,M,-18.2,M,,*4A
$GPVTG,098.5,T,082.0,M,000.11,N,0000.21,K,A*1E
$HCHDG,265.3,0.0,E,,*2B
$YXXDR,A,5.4,D,PTCH,A,1.7,D,ROLL*5A
$DATA,IMU,1,3,1,0,EULER,121.5625,-0.25,-5.1875,ACC,-0.01,0,0.06,GRAV,-0.04,0.89,9.76*53
$GPRMC,230003.3,A,4741.19890,N,12224.25454,W,000.13,098.5,020416,016.4,E,A*28
$IIRMB,A,0.00,L,M,X,4741.777000,N,12224.575000,W,0.6,340,-0.06,V*23
$GPGGA,230003.3,4741.19890,N,12224.25454,W,1,11,0.8,-4.9,M,-18.2,M,,*4B
$GPVTG,098.5,T,082.0,M,000.13,N,0000.24,K,A*19
$HCHDG,265.3,0.0,E,,*2B
$YXXDR,A,5.4,D,PTCH,A,1.7,D,ROLL*5A
$IIVHW,,,,,00.0,N,,*19
$DATA,IMU,1,3,1,0,EULER,121.5625,-0.25,-5.1875,ACC,0,0.01,0.04,GRAV,-0.04,0.89,9.76*7C
$GPRMC,230003.4,A,4741.19890,N,12224.25454,W,000.14,098.5,020416,016.4,E,A*28
$IIRMB,A,0.00,L,M,X,4741.777000,N,12224.575000,W,0.6,340,-0.07,V*22
$GPGGA,230003.4,4741.19890,N,12224.25454,W,1,11,0.8,-4.9,M,-18.2,M,,*4C
$GPVTG,098.5,T,082.0,M,000.14,N,0000.25,K,A*1F
$IIVLW,07472,N,020.8,N*5F
$HCHDG,265.4,0.0,E,,*2C
$DATA,env,P,968.1484375,T,17.87*43
$YXXDR,A,5.4,D,PTCH,A,1.7,D,ROLL*5A
$DATA,IMU,1,3,1,0,EULER,121.5625,-0.25,-5.1875,ACC,0,0.01,-0.01,GRAV,-0.04,0.89,9.76*54
$GPRMC,230003.5,A,4741.19890,N,12224.25454,W,000.20,098.5,020416,016.4,E,A*2E
$IIRMB,A,0.00,L,M,X,4741.777000,N,12224.575000,W,0.6,340,-0.10,V*24
$IIVWR,072,R,09.8,N,,,,*65
$GPGGA,230003.5,4741.19890,N,12224.25454,W,1,11,0.8,-4.9,M,-18.2,M,,*4D
$GPVTG,098.5,T,082.0,M,000.20,N,0000.37,K,A*1B
$HCHDG,265.4,0.0,E,,*2C
$YXXDR,A,5.4,D,PTCH,A,1.7,D,ROLL*5A
$DATA,IMU,1,3,1,0,EULER,121.5625,-0.25,-5.1875,ACC,0.02,0.02,0,GRAV,-0.04,0.89,9.76*79
$GPRMC,230003.6,A,4741.19890,N,12224.25454,W,000.10,098.5,020416,016.4,E,A*2E
$IIRMB,A,0.00,L,M,X,4741.777000,N,12224.575000,W,0.6,340,-0.05,V*20
$GPGGA,230003.6,4741.19890,N,12224.25454,W,1,11,0.8,-4.9,M,-18.2,M,,*4E
$GPVTG,098.5,T,082.0,M,000.10,N,0000.18,K,A*15
$HCHDG,265.4,0.0,E,,*2C
$IIMTW,+08.0,C*30
$YXXDR,A,5.4,D,PTCH,A,1.7,D,ROLL*5A
$TIROT,-6.4,A*14
$GPRMC,230003.7,A,4741.19890,N,12224.25454,W,000.10,098.5,020416,016.4,E,A*2F
$IIRMB,A,0.00,L,M,X,4741.777000,N,12224.575000,W,0.6,340,-0.05,V*20
$DATA,IMU,1,3,1,0,EULER,121.5625,-0.25,-5.1875,ACC,0.02,0,0.01,GRAV,-0.04,0.89,9.76*7A
$GPGGA,230003.7,4741.19890,N,12224.25454,W,1,11,0.8,-4.9,M,-18.2,M,,*4F
$GPVTG,098.5,T,082.0,M,000.10,N,0000.19,K,A*14
$HCHDG,265.4,0.0,E,,*2C
$YXXDR,A,5.4,D,PTCH,A,1.7,D,ROLL*5A
$DATA,IMU,1,3,1,0,EULER,121.5625,-0.25,-5.1875,ACC,0,0.01,0,GRAV,-0.04,0.89,9.76*56
$GPRMC,230003.8,A,4741.19890,N,12224.25454,W,000.10,098.5,020416,016.4,E,A*20
$IIRMB,A,0.00,L,M,X,4741.777000,N,12224.575000,W,0.6,340,-0.05,V*20
$GPGGA,230003.8,4741.19890,N,12224.25454,W,1,11,0.8,-4.9,M,-18.2,M,,*40
$GPVTG,098.5,T,082.0,M,000.10,N,0000.19,K,A*14
$HCHDG,265.4,0.0,E,,*2C
$YXXDR,A,5.4,D,PTCH,A,1.8,D,ROLL*55
$DATA,IMU,1,3,1,0,EULER,121.5625,-0.25,-5.1875,ACC,0.02,0,0,GRAV,-0.04,0.89,9.76*55
$GPRMC,230003.9,A,4741.19890,N,12224.25454,W,000.11,098.5,020416,016.4,E,A*20
$IIRMB,A,0.00,L,M,X,4741.777000,N,12224.575000,W,0.6,340,-0.05,V*20
$GPGGA,230003.9,4741.19890,N,12224.25454,W,1,11,0.8,-4.9,M,-18.2,M,,*41
$GPVTG,098.5,T,082.0,M,000.11,N,0000.21,K,A*1E
$HCHDG,265.4,0.0,E,,*2C
$YXXDR,A,5.4,D,PTCH,A,1.8,D,ROLL*55
$DATA,IMU,1,3,1,0,EULER,121.5625,-0.25,-5.1875,ACC,0.02,0,0.09,GRAV,-0.04,0.89,9.76*72
$GPRMC,230004.0,A,4741.19890,N,12224.25454,W,000.11,098.5,020416,016.4,E,A*2E
$IIRMB,A,0.00,L,M,X,4741.777000,N,12224.575000,W,0.6,340,-0.05,V*20
$GPGGA,230004.0,4741.19890,N,12224.25454,W,1,11,0.8,-4.9,M,-18.2,M,,*4F
$GPVTG,098.5,T,082.0,M,000.11,N,0000.20,K,A*1F
$GPGSA,A,3,17,28,13,15,09,08,05,07,20,30,11,,1.3,0.8,1.0*31
$HCHDG,265.3,0.0,E,,*2B
$YXXDR,A,5.4,D,PTCH,A,1.8,D,ROLL*55
$DATA,IMU,1,3,1,0,EULER,121.5625,-0.25,-5.1875,ACC,0.02,0.01,0.07,GRAV,-0.04,0.89,9.76*53
$GPRMC,230004.1,A,4741.19890,N,12224.25454,W,000.10,098.5,020416,016.4,E,A*2E
$IIRMB,A,0.00,L,M,X,4741.777000,N,12224.575000,W,0.6,340,-0.05,V*20
$GPGGA,230004.1,4741.19890,N,12224.25454,W,1,11,0.8,-4.9,M,-18.2,M,,*4E
$GPVTG,098.5,T,082.0,M,000.10,N,0000.18,K,A*15
$GPGSV,3,1,11,17,17,183,23,28,67,247,42,13,42,304,40,15,09,322,34*72
$IIMWV,071,R,09.7,N,A*1B
$HCHDG,265.4,0.0,E,,*2C
$GPGSV,3,2,11,09,07,161,26,08,29,049,31,05,11,258,32,07,49,102,39*70
$YXXDR,A,5.4,D,PTCH,A,1.8,D,ROLL*55
$GPGSV,3,3,11,20,09,303,43,30,79,072,30,11,22,099,39*44
$DATA,IMU,1,3,1,0,EULER,121.5625,-0.25,-5.1875,ACC,0.04,0.02,0.07,GRAV,-0.04,0.89,9.76*56
$GPRMC,230004.2,A,4741.19890,N,12224.25454,W,000.10,098.5,020416,016.4,E,A*2D
$IIRMB,A,0.00,L,M,X,4741.777000,N,12224.575000,W,0.6,340,-0.05,V*20
$IIMWV,072,T,09.8,N,A*11
$GPGGA,230004.2,4741.19890,N,12224.25454,W,1,11,0.8,-4.9,M,-18.2,M,,*4D
$GPVTG,098.5,T,082.0,M,000.10,N,0000.19,K,A*14
$HCHDG,265.4,0.0,E,,*2C
$YXXDR,A,5.4,D,PTCH,A,1.8,D,ROLL*55
$GPRMC,230004.3,A,4741.19890,N,12224.25454,W,000.10,098.5,020416,016.4,E,A*2C
$IIRMB,A,0.00,L,M,X,4741.777000,N,12224.575000,W,0.6,340,-0.05,V*20
$IIRMB,A,0.00,L,,X   ,,,,,000.6,340,,V,A*3E
$DATA,IMU,1,3,1,0,EULER,121.5625,-0.25,-5.1875,ACC,0.03,0.01,0.1,GRAV,-0.04,0.89,9.76*64
$GPGGA,230004.3,4741.19890,N,12224.25454,W,1,11,0.8,-4.9,M,-18.2,M,,*4C
$GPVTG,098.5,T,082.0,M,000.10,N,0000.19,K,A*14
$HCHDG,265.5,0.0,E,,*2D
$YXXDR,A,5.5,D,PTCH,A,1.9,D,ROLL*55
$GPRMC,230004.4,A,4741.19890,N,12224.25454,W,000.08,098.5,020416,016.4,E,A*22
$IIRMB,A,0.00,L,M,X,4741.777000,N,12224.575000,W,0.6,340,-0.04,V*21
$DATA,IMU,1,3,1,0,EULER,121.5625,-0.25,-5.1875,ACC,0.03,0.03,0.11,GRAV,-0.04,0.89,9.76*57
$GPGGA,230004.4,4741.19890,N,12224.25454,W,1,11,0.8,-4.9,M,-18.2,M,,*4B
$GPVTG,098.5,T,082.0,M,000.08,N,0000.16,K,A*12
$HCHDG,265.5,0.0,E,,*2D
$DATA,env,P,968.1484375,T,17.87*43
$YXXDR,A,5.5,D,PTCH,A,1.9,D,ROLL*55
$IIVHW,,,,,00.0,N,,*19
$GPRMC,230004.5,A,4741.19890,N,12224.25454,W,000.09,098.5,020416,016.4,E,A*22
$IIRMB,A,0.00,L,M,X,4741.777000,N,12224.575000,W,0.6,340,-0.04,V*21
$DATA,IMU,1,3,1,0,EULER,121.5625,-0.25,-5.1875,ACC,0.01,0,0.14,GRAV,-0.04,0.89,9.76*7D
$GPGGA,230004.5,4741.19890,N,12224.25454,W,1,11,0.8,-5.0,M,-18.2,M,,*42
$GPVTG,098.5,T,082.0,M,000.09,N,0000.16,K,A*13
$IIVLW,07472,N,020.8,N*5F
$HCHDG,265.5,0.0,E,,*2D
$YXXDR,A,5.5,D,PTCH,A,1.9,D,ROLL*55
$IIVWR,071,R,09.7,N,,,,*69
$GPRMC,230004.6,A,4741.19890,N,12224.25455,W,000.09,098.5,020416,016.4,E,A*20
$IIRMB,A,0.00,L,M,X,4741.777000,N,12224.575000,W,0.6,340,-0.04,V*21
$GPGGA,230004.6,4741.19890,N,12224.25455,W,1,11,0.8,-5.0,M,-18.2,M,,*40
$DATA,IMU,1,3,1,0,EULER,121.5625,-0.25,-5.1875,ACC,0,0.01,0.09,GRAV,-0.04,0.89,9.76*71
$GPVTG,098.5,T,082.0,M,000.09,N,0000.17,K,A*12
$HCHDG,265.6,0.0,E,,*2E
$YXXDR,A,5.5,D,PTCH,A,1.9,D,ROLL*55
$TIROT,-12.4,A*21
$GPRMC,230004.7,A,4741.19890,N,12224.25455,W,000.08,098.5,020416,016.4,E,A*20
$IIRMB,A,0.00,L,M,X,4741.777000,N,12224.575000,W,0.6,340,-0.04,V*21
$GPGGA,230004.7,4741.19890,N,12224.25455,W,1,11,0.8,-5.0,M,-18.2,M,,*41
$DATA,IMU,1,3,1,0,EULER,121.5625,-0.25,-5.1875,ACC,0,0,0.14,GRAV,-0.04,0.89,9.76*52
$GPVTG,098.5,T,082.0,M,000.08,N,0000.15,K,A*11
$HCHDG,265.6,0.0,E,,*2E
$YXXDR,A,5.5,D,PTCH,A,1.9,D,ROLL*55
$GPRMC,230004.8,A,4741.19890,N,12224.25455,W,000.08,098.5,020416,016.4,E,A*2F
$IIRMB,A,0.00,L,M,X,4741.777000,N,12224.575000,W,0.6,340,-0.04,V*21
$GPGGA,230004.8,4741.19890,N,12224.25455,W,1,11,0.8,-5.0,M,-18.2,M,,*4E
$DATA,IMU,1,3,1,0,EULER,121.5625,-0.25,-5.1875,ACC,-0.01,0,0.12,GRAV,-0.04,0.89,9.76*56
$GPVTG,098.5,T,082.0,M,000.08,N,0000.14,K,A*10
$HCHDG,265.6,0.0,E,,*2E
$YXXDR,A,5.4,D,PTCH,A,1.8,D,ROLL*55
$GPRMC,230004.9,A,4741.19890,N,12224.25455,W,000.08,098.5,020416,016.4,E,A*2E
$IIRMB,A,0.00,L,M,X,4741.777000,N,12224.575000,W,0.6,340,-0.04,V*21
$GPGGA,230004.9,4741.19890,N,12224.25455,W,1,11,0.8,-5.0,M,-18.2,M,,*4F
$DATA,IMU,1,3,1,0,EULER,121.5625,-0.25,-5.1875,ACC,0,0.01,0.11,GRAV,-0.04,0.89,9.76*78
$GPVTG,098.5,T,082.0,M,000.08,N,0000.15,K,A*11
$HCHDG,265.6,0.0,E,,*2E
$YXXDR,A,5.4,D,PTCH,A,1.8,D,ROLL*55
$GPRMC,230005.0,A,4741.19890,N,12224.25455,W,000.10,098.5,020416,016.4,E,A*2F
$IIRMB,A,0.00,L,M,X,4741.777000,N,12224.575000,W,0.6,340,-0.05,V*20
$GPGGA,230005.0,4741.19890,N,12224.25455,W,1,11,0.8,-5.0,M,-18.2,M,,*47
$DATA,IMU,1,3,1,0,EULER,121.5625,-0.25,-5.1875,ACC,0,0.01,0.08,GRAV,-0.04,0.89,9.76*70
$GPVTG,098.5,T,082.0,M,000.10,N,0000.19,K,A*14
$GPGSA,A,3,17,28,13,15,09,08,05,07,20,30,11,,1.3,0.8,1.0*31
$HCHDG,265.6,0.0,E,,*2E
$YXXDR,A,5.4,D,PTCH,A,1.8,D,ROLL*55
$GPRMC,230005.1,A,4741.19890,N,12224.25455,W,000.13,098.5,020416,016.4,E,A*2D
$IIRMB,A,0.00,L,M,X,4741.777000,N,12224.575000,W,0.6,340,-0.06,V*23
$GPGGA,230005.1,4741.19890,N,12224.25455,W,1,11,0.8,-5.0,M,-18.2,M,,*46
$DATA,IMU,1,3,1,0,EULER,121.5625,-0.25,-5.1875,ACC,0,0.03,0.09,GRAV,-0.04,0.89,9.76*73
$GPVTG,098.5,T,082.0,M,000.13,N,0000.23,K,A*1E
$GPGSV,3,1,11,17,17,183,23,28,67,247,42,13,42,304,40,15,09,322,30*76
$HCHDG,265.5,0.0,E,,*2D
$GPGSV,3,2,11,09,07,161,26,08,29,049,35,05,11,258,31,07,49,102,39*77
$YXXDR,A,5.4,D,PTCH,A,1.7,D,ROLL*5A
$GPGSV,3,3,11,20,09,303,43,30,79,072,30,11,22,099,39*44
$GPRMC,230005.2,A,4741.19890,N,12224.25455,W,000.15,098.5,020416,016.4,E,A*28
$IIRMB,A,0.00,L,M,X,4741.777000,N,12224.575000,W,0.6,340,-0.07,V*22
$GPGGA,230005.2,4741.19890,N,12224.25455,W,1,11,0.8,-5.0,M,-18.2,M,,*45
$IIMTW,+08.0,C*30
$DATA,IMU,1,3,1,0,EULER,121.5625,-0.25,-5.1875,ACC,0.02,0.01,0.1,GRAV,-0.04,0.89,9.76*65
$GPVTG,098.5,T,082.0,M,000.15,N,0000.28,K,A*13
$HCHDG,265.5,0.0,E,,*2D
$YXXDR,A,5.4,D,PTCH,A,1.7,D,ROLL*5A
$IIMWV,072,R,09.9,N,A*16
$GPRMC,230005.3,A,4741.19890,N,12224.25455,W,000.15,098.5,020416,016.4,E,A*29
$IIRMB,A,0.00,L,M,X,4741.777000,N,12224.575000,W,0.6,340,-0.07,V*22
$GPGGA,230005.3,4741.19890,N,12224.25455,W,1,11,0.8,-5.0,M,-18.2,M,,*44
$GPVTG,098.5,T,082.0,M,000.15,N,0000.28,K,A*13
$IIMWV,071,T,09.7,N,A*1D
$DATA,IMU,1,3,1,0,EULER,121.5625,-0.25,-5.1875,ACC,0.02,0.04,-0.03,GRAV,-0.04,0.89,9.76*7F
$HCHDG,265.5,0.0,E,,*2D
$YXXDR,A,5.4,D,PTCH,A,1.7,D,ROLL*5A
$GPRMC,230005.4,A,4741.19890,N,12224.25455,W,000.13,098.5,020416,016.4,E,A*28
$IIRMB,A,0.00,L,M,X,4741.777000,N,12224.575000,W,0.6,340,-0.06,V*23
$GPGGA,230005.4,4741.19890,N,12224.25455,W,1,11,0.8,-5.0,M,-18.2,M,,*43
$IIRMB,A,0.00,L,,X   ,,,,,000.6,340,,V,A*3E
$GPVTG,098.5,T,082.0,M,000.13,N,0000.24,K,A*19
$DATA,IMU,1,3,1,0,EULER,121.5625,-0.25,-5.1875,ACC,0.03,0.02,0,GRAV,-0.04,0.89,9.76*78
$HCHDG,265.3,0.0,E,,*2B
$DATA,env,P,968.1484375,T,17.87*43
$YXXDR,A,5.4,D,PTCH,A,1.7,D,ROLL*5A
$GPRMC,230005.5,A,4741.19890,N,12224.25455,W,000.11,098.5,020416,016.4,E,A*2B
$IIRMB,A,0.00,L,M,X,4741.777000,N,12224.575000,W,0.6,340,-0.05,V*20
$GPGGA,230005.5,4741.19890,N,12224.25455,W,1,11,0.8,-5.0,M,-18.2,M,,*42
$DATA,IMU,1,3,1,0,EULER,121.5625,-0.25,-5.1875,ACC,0.04,0.01,0.03,GRAV,-0.04,0.89,9.76*51
$GPVTG,098.5,T,082.0,M,000.11,N,0000.21,K,A*1E
$HCHDG,265.3,0.0,E,,*2B
$YXXDR,A,5.4,D,PTCH,A,1.7,D,ROLL*5A
$GPRMC,230005.6,A,4741.19889,N,12224.25460,W,000.12,098.5,020416,016.4,E,A*25
$IIRMB,A,0.00,L,M,X,4741.777000,N,12224.575000,W,0.6,340,-0.06,V*23
$IIVHW,,,,,00.0,N,,*19
$GPGGA,230005.6,4741.19889,N,12224.25460,W,1,11,0.8,-5.0,M,-18.2,M,,*4F
$GPVTG,098.5,T,082.0,M,000.12,N,0000.23,K,A*1F
$DATA,IMU,1,3,1,0,EULER,121.5625,-0.25,-5.1875,ACC,0.05,0.01,0.05,GRAV,-0.04,0.89,9.76*56
$HCHDG,265.4,0.0,E,,*2C
$IIVLW,07472,N,020.8,N*5F
$YXXDR,A,5.4,D,PTCH,A,1.7,D,ROLL*5A
$TIROT,-12.3,A*26
$GPRMC,230005.7,A,4741.19889,N,12224.25460,W,000.14,098.5,020416,016.4,E,A*22
$IIRMB,A,0.00,L,M,X,4741.777000,N,12224.575000,W,0.6,340,-0.07,V*22
$GPGGA,230005.7,4741.19889,N,12224.25460,W,1,11,0.8,-5.0,M,-18.2,M,,*4E
$GPVTG,098.5,T,082.0,M,000.14,N,0000.25,K,A*1F
$DATA,IMU,1,3,1,0,EULER,121.5625,-0.25,-5.1875,ACC,0.05,0.01,0.06,GRAV,-0.04,0.89,9.76*55
$HCHDG,265.4,0.0,E,,*2C
$YXXDR,A,5.4,D,PTCH,A,1.8,D,ROLL*55
$GPRMC,230005.8,A,4741.19889,N,12224.25460,W,000.13,098.5,020416,016.4,E,A*2A
$IIRMB,A,0.00,L,M,X,4741.777000,N,12224.575000,W,0.6,340,-0.06,V*23
$GPGGA,230005.8,4741.19889,N,12224.25460,W,1,11,0.8,-5.0,M,-18.2,M,,*41
$GPVTG,098.5,T,082.0,M,000.13,N,0000.24,K,A*19
$DATA,IMU,1,3,1,0,EULER,121.5625,-0.25,-5.1875,ACC,0.02,0,0.08,GRAV,-0.04,0.89,9.76*73
$HCHDG,265.4,0.0,E,,*2C
$YXXDR,A,5.4,D,PTCH,A,2.0,D,ROLL*5E
$GPRMC,230005.9,A,4741.19889,N,12224.25460,W,000.13,098.5,020416,016.4,E,A*2B
$IIRMB,A,0.00,L,M,X,4741.777000,N,12224.575000,W,0.6,340,-0.06,V*23
$GPGGA,230005.9,4741.19889,N,12224.25460,W,1,11,0.8,-5.0,M,-18.2,M,,*40
$GPVTG,098.5,T,082.0,M,000.13,N,0000.25,K,A*18
$DATA,IMU,2,3,1,0,EULER,121.5625,-0.25,-5.1875,ACC,0.03,0,0.1,GRAV,-0.04,0.89,9.76*48
$HCHDG,265.4,0.0,E,,*2C
$YXXDR,A,5.4,D,PTCH,A,2.0,D,ROLL*5E
$GPRMC,230006.0,A,4741.19889,N,12224.25460,W,000.12,098.5,020416,016.4,E,A*20
$IIRMB,A,0.00,L,M,X,4741.777000,N,12224.575000,W,0.6,340,-0.06,V*23
$GPGGA,230006.0,4741.19889,N,12224.25460,W,1,11,0.8,-5.0,M,-18.2,M,,*4A
$GPVTG,098.5,T,082.0,M,000.12,N,0000.23,K,A*1F
$HCHDG,265.4,0.0,E,,*2C
$GPGSA,A,3,17,28,13,15,09,08,05,07,20,30,11,,1.3,0.8,1.0*31
$DATA,IMU,2,3,1,0,EULER,121.5625,-0.25,-5.1875,ACC,0.03,0.01,0.09,GRAV,-0.04,0.89,9.76*5F
$YXXDR,A,5.5,D,PTCH,A,2.1,D,ROLL*5E
$GPRMC,230006.1,A,4741.19889,N,12224.25460,W,000.12,098.5,020416,016.4,E,A*21
$IIRMB,A,0.00,L,M,X,4741.777000,N,12224.575000,W,0.6,340,-0.06,V*23
$GPGGA,230006.1,4741.19889,N,12224.25460,W,1,11,0.8,-5.0,M,-18.2,M,,*4B
$GPVTG,098.5,T,082.0,M,000.12,N,0000.22,K,A*1E
$IIVWR,072,R,10.1,N,,,,*64
$GPGSV,3,1,11,17,17,183,23,28,67,247,42,13,42,304,40,15,09,322,29*7E
$HCHDG,265.4,0.0,E,,*2C
$YXXDR,A,5.5,D,PTCH,A,2.1,D,ROLL*5E
$DATA,IMU,2,3,1,0,EULER,121.5625,-0.25,-5.1875,ACC,0,0.01,0.12,GRAV,-0.04,0.89,9.76*78
$GPGSV,3,2,11,09,07,161,25,08,29,049,35,05,11,258,30,07,49,102,38*74
$GPGSV,3,3,11,20,09,303,43,30,79,072,30,11,22,099,39*44
$GPRMC,230006.2,A,4741.19889,N,12224.25460,W,000.11,098.5,020416,016.4,E,A*21
$IIRMB,A,0.00,L,M,X,4741.777000,N,12224.575000,W,0.6,340,-0.05,V*20
$GPGGA,230006.2,4741.19889,N,12224.25460,W,1,11,0.8,-5.0,M,-18.2,M,,*48
$GPVTG,098.5,T,082.0,M,000.11,N,0000.21,K,A*1E
$HCHDG,265.4,0.0,E,,*2C
$YXXDR,A,5.5,D,PTCH,A,2.0,D,ROLL*5F
$DATA,IMU,2,3,1,0,EULER,121.5625,-0.25,-5.1875,ACC,-0.01,0.01,0.1,GRAV,-0.04,0.89,9.76*48
$GPRMC,230006.3,A,4741.19889,N,12224.25460,W,000.10,098.5,020416,016.4,E,A*21
$IIRMB,A,0.00,L,M,X,4741.777000,N,12224.575000,W,0.6,340,-0.05,V*20
$GPGGA,230006.3,4741.19889,N,12224.25460,W,1,11,0.8,-5.0,M,-18.2,M,,*49
$IIMTW,+08.5,C*35
$GPVTG,098.5,T,082.0,M,000.10,N,0000.19,K,A*14
$HCHDG,265.4,0.0,E,,*2C
$DATA,IMU,1,3,1,0,EULER,121.5625,-0.25,-5.1875,ACC,0,0,0.11,GRAV,-0.04,0.89,9.76*57
$YXXDR,A,5.5,D,PTCH,A,1.9,D,ROLL*55
$IIMWV,072,R,10.1,N,A*16
$GPRMC,230006.4,A,4741.19889,N,12224.25460,W,000.09,098.5,020416,016.4,E,A*2E
$IIRMB,A,0.00,L,M,X,4741.777000,N,12224.575000,W,0.6,340,-0.04,V*21
$GPGGA,230006.4,4741.19889,N,12224.25460,W,1,11,0.8,-5.0,M,-18.2,M,,*4E
$IIMWV,072,T,09.9,N,A*10
$GPVTG,098.5,T,082.0,M,000.09,N,0000.17,K,A*12
$HCHDG,265.4,0.0,E,,*2C
$DATA,env,P,965.4765625,T,17.88*48
$YXXDR,A,5.5,D,PTCH,A,1.9,D,ROLL*55
$DATA,IMU,1,3,1,0,EULER,121.5625,-0.25,-5.1875,ACC,-0.02,0.01,0.1,GRAV,-0.04,0.89,9.76*48
$GPRMC,230006.5,A,4741.19889,N,12224.25460,W,000.13,098.5,020416,016.4,E,A*24
$IIRMB,A,0.00,L,M,X,4741.777000,N,12224.575000,W,0.6,340,-0.06,V*23
$IIRMB,A,0.00,L,,X   ,,,,,000.6,340,,V,A*3E
$GPGGA,230006.5,4741.19889,N,12224.25460,W,1,11,0.8,-5.0,M,-18.2,M,,*4F
$GPVTG,098.5,T,082.0,M,000.13,N,0000.23,K,A*1E
$HCHDG,265.4,0.0,E,,*2C
$YXXDR,A,5.4,D,PTCH,A,1.8,D,ROLL*55
$DATA,IMU,1,3,1,0,EULER,121.5625,-0.25,-5.1875,ACC,-0.02,0.02,-0.03,GRAV,-0.04,0.89,9.76*54
$GPRMC,230006.6,A,4741.19888,N,12224.25463,W,000.13,098.5,020416,016.4,E,A*25
$IIRMB,A,0.00,L,M,X,4741.777000,N,12224.575000,W,0.6,340,-0.06,V*23
$GPGGA,230006.6,4741.19888,N,12224.25463,W,1,11,0.8,-5.0,M,-18.2,M,,*4E
$GPVTG,098.5,T,082.0,M,000.13,N,0000.24,K,A*19
$HCHDG,265.4,0.0,E,,*2C
$PTAK,FFP1,HEEL,###@*24
$PTAK,FFP2,TGTSPD,kts*2C
$PTAK,FFP3,TGTTWA,###@*27
$YXXDR,A,5.4,D,PTCH,A,1.8,D,ROLL*55
$TIROT,-12.3,A*26
$DATA,IMU,1,3,1,0,EULER,121.5625,-0.25,-5.1875,ACC,-0.01,0.02,0.07,GRAV,-0.04,0.89,9.76*7E
$GPRMC,230006.7,A,4741.19888,N,12224.25463,W,000.14,098.5,020416,016.4,E,A*23
$IIRMB,A,0.00,L,M,X,4741.777000,N,12224.575000,W,0.6,340,-0.07,V*22
$GPGGA,230006.7,4741.19888,N,12224.25463,W,1,11,0.8,-5.0,M,-18.2,M,,*4F
$GPVTG,098.5,T,082.0,M,000.14,N,0000.26,K,A*1C
$HCHDG,265.4,0.0,E,,*2C
$YXXDR,A,5.4,D,PTCH,A,1.8,D,ROLL*55
$DATA,IMU,1,3,1,0,EULER,121.5625,-0.25,-5.1875,ACC,0,0.02,0.04,GRAV,-0.04,0.89,9.76*7F
$GPRMC,230006.8,A,4741.19888,N,12224.25463,W,000.13,098.5,020416,016.4,E,A*2B
$IIRMB,A,0.00,L,M,X,4741.777000,N,12224.575000,W,0.6,340,-0.06,V*23
$GPGGA,230006.8,4741.19888,N,12224.25463,W,1,11,0.8,-5.0,M,-18.2,M,,*40
$GPVTG,098.5,T,082.0,M,000.13,N,0000.25,K,A*18
$HCHDG,265.4,0.0,E,,*2C
$YXXDR,A,5.4,D,PTCH,A,1.7,D,ROLL*5A
$GPRMC,230006.9,A,4741.19888,N,12224.25463,W,000.13,098.5,020416,016.4,E,A*2A
$IIRMB,A,0.00,L,M,X,4741.777000,N,12224.575000,W,0.6,340,-0.06,V*23
$GPGGA,230006.9,4741.19888,N,12224.25463,W,1,11,0.8,-5.0,M,-18.2,M,,*41
$DATA,IMU,1,3,1,0,EULER,121.5625,-0.25,-5.1875,ACC,0.02,0.02,0.02,GRAV,-0.04,0.89,9.76*55
$GPVTG,098.5,T,082.0,M,000.13,N,0000.24,K,A*19
$HCHDG,265.4,0.0,E,,*2C
$YXXDR,A,5.4,D,PTCH,A,1.7,D,ROLL*5A
$DATA,IMU,1,3,1,0,EULER,121.5625,-0.25,-5.1875,ACC,0.04,0.02,0.13,GRAV,-0.04,0.89,9.76*53
$GPRMC,230007.0,A,4741.19888,N,12224.25463,W,000.13,098.5,020416,016.4,E,A*22
$IIRMB,A,0.00,L,M,X,4741.777000,N,12224.575000,W,0.6,340,-0.06,V*23
$GPGGA,230007.0,4741.19888,N,12224.25463,W,1,11,0.8,-5.0,M,-18.2,M,,*49
$GPVTG,098.5,T,082.0,M,000.13,N,0000.24,K,A*19
$HCHDG,265.5,0.0,E,,*2D
$GPGSA,A,3,17,28,13,15,09,08,05,07,20,30,11,,1.3,0.8,1.0*31
$YXXDR,A,5.4,D,PTCH,A,1.7,D,ROLL*5A
$GPRMC,230007.1,A,4741.19888,N,12224.25463,W,000.11,098.5,020416,016.4,E,A*21
$IIRMB,A,0.00,L,M,X,4741.777000,N,12224.575000,W,0.6,340,-0.05,V*20
$DATA,IMU,1,3,1,0,EULER,121.5625,-0.25,-5.1875,ACC,0.04,0,0.12,GRAV,-0.04,0.89,9.76*7E
$GPGGA,230007.1,4741.19888,N,12224.25463,W,1,11,0.8,-5.0,M,-18.2,M,,*48
$GPVTG,098.5,T,082.0,M,000.11,N,0000.21,K,A*1E
$IIVHW,,,,,00.0,N,,*19
$HCHDG,265.5,0.0,E,,*2D
$GPGSV,3,1,11,17,17,183,22,28,67,247,42,13,42,304,40,15,09,322,28*7E
$YXXDR,A,5.4,D,PTCH,A,1.7,D,ROLL*5A
$GPGSV,3,2,11,09,07,161,25,08,29,049,35,05,11,258,30,07,49,102,37*7B
$GPGSV,3,3,11,20,09,303,43,30,79,072,30,11,22,099,39*44
$IIVLW,07472,N,020.8,N*5F
$GPRMC,230007.2,A,4741.19888,N,12224.25463,W,000.11,098.5,020416,016.4,E,A*22
$IIRMB,A,0.00,L,M,X,4741.777000,N,12224.575000,W,0.6,340,-0.05,V*20
$DATA,IMU,1,3,1,0,EULER,121.5625,-0.25,-5.1875,ACC,0.05,0.02,0.12,GRAV,-0.04,0.89,9.76*53
$GPGGA,230007.2,4741.19888,N,12224.25463,W,1,11,0.8,-5.0,M,-18.2,M,,*4B
$GPVTG,098.5,T,082.0,M,000.11,N,0000.19,K,A*15
$HCHDG,265.5,0.0,E,,*2D
$IIVWR,073,R,10.1,N,,,,*65
$YXXDR,A,5.4,D,PTCH,A,1.7,D,ROLL*5A
$GPRMC,230007.3,A,4741.19888,N,12224.25463,W,000.11,098.5,020416,016.4,E,A*23
$IIRMB,A,0.00,L,M,X,4741.777000,N,12224.575000,W,0.6,340,-0.05,V*20
$DATA,IMU,1,3,1,0,EULER,121.5625,-0.25,-5.1875,ACC,0.07,0.01,0.12,GRAV,-0.04,0.89,9.76*52
$GPGGA,230007.3,4741.19888,N,12224.25463,W,1,11,0.8,-5.0,M,-18.2,M,,*4A
$GPVTG,098.5,T,082.0,M,000.11,N,0000.20,K,A*1F
$HCHDG,265.5,0.0,E,,*2D
$YXXDR,A,5.4,D,PTCH,A,1.7,D,ROLL*5A
$GPRMC,230007.4,A,4741.19888,N,12224.25463,W,000.10,098.5,020416,016.4,E,A*25
$IIRMB,A,0.00,L,M,X,4741.777000,N,12224.575000,W,0.6,340,-0.05,V*20
$DATA,IMU,1,3,1,0,EULER,121.5625,-0.25,-5.1875,ACC,0.06,0,0.09,GRAV,-0.04,0.89,9.76*76
$GPGGA,230007.4,4741.19888,N,12224.25463,W,1,11,0.8,-5.0,M,-18.2,M,,*4D
$IIMTW,+08.5,C*35
$GPVTG,098.5,T,082.0,M,000.10,N,0000.18,K,A*15
$HCHDG,265.5,0.0,E,,*2D
$GPRMC,230007.5,A,4741.19888,N,12224.25463,W,000.09,098.5,020416,016.4,E,A*2C
$IIRMB,A,0.00,L,M,X,4741.777000,N,12224.575000,W,0.6,340,-0.04,V*21
$YXXDR,A,5.5,D,PTCH,A,1.9,D,ROLL*55
$DATA,env,P,966.12890625,T,17.88*79
$GPGGA,230007.5,4741.19888,N,12224.25463,W,1,11,0.8,-5.1,M,-18.2,M,,*4D
$IIMWV,073,R,10.1,N,A*17
$GPVTG,098.5,T,082.0,M,000.09,N,0000.18,K,A*1D
$DATA,IMU,1,3,1,0,EULER,121.5625,-0.25,-5.1875,ACC,0.04,0,0.13,GRAV,-0.04,0.89,9.76*7F
$IIMWV,072,T,10.1,N,A*10
$HCHDG,265.5,0.0,E,,*2D
$GPRMC,230007.6,A,4741.19888,N,12224.25463,W,000.11,098.5,020416,016.4,E,A*26
$IIRMB,A,0.00,L,M,X,4741.777000,N,12224.575000,W,0.6,340,-0.05,V*20
$YXXDR,A,5.5,D,PTCH,A,1.9,D,ROLL*55
$GPGGA,230007.6,4741.19888,N,12224.25463,W,1,11,0.8,-5.1,M,-18.2,M,,*4E
$GPVTG,098.5,T,082.0,M,000.11,N,0000.20,K,A*1F
$DATA,IMU,1,3,1,0,EULER,121.5625,-0.25,-5.1875,ACC,0.03,0,0.13,GRAV,-0.04,0.89,9.76*78
$IIRMB,A,0.00,L,,X   ,,,,,000.6,340,,V,A*3E
$HCHDG,265.5,0.0,E,,*2D
$GPRMC,230007.7,A,4741.19888,N,12224.25463,W,000.10,098.5,020416,016.4,E,A*26
$IIRMB,A,0.00,L,M,X,4741.777000,N,12224.575000,W,0.6,340,-0.05,V*20
$YXXDR,A,5.5,D,PTCH,A,1.9,D,ROLL*55
$TIROT,-18.2,A*2D
$GPGGA,230007.7,4741.19888,N,12224.25463,W,1,11,0.8,-5.1,M,-18.2,M,,*4F
$GPVTG,098.5,T,082.0,M,000.10,N,0000.18,K,A*15
$DATA,IMU,1,3,1,0,EULER,121.5625,-0.25,-5.1875,ACC,0.02,-0.01,0.02,GRAV,-0.04,0.89,9.76*7B
$HCHDG,265.5,0.0,E,,*2D
$GPRMC,230007.8,A,4741.19888,N,12224.25463,W,000.10,098.5,020416,016.4,E,A*29
$IIRMB,A,0.00,L,M,X,4741.777000,N,12224.575000,W,0.6,340,-0.05,V*20
$YXXDR,A,5.5,D,PTCH,A,2.0,D,ROLL*5F
$GPGGA,230007.8,4741.19888,N,12224.25463,W,1,11,0.8,-5.1,M,-18.2,M,,*40
$DATA,IMU:CAL,[-5,3,32,-117,-134,-271,-5,-1,2,1000,486]*0C
$GPVTG,098.5,T,082.0,M,000.10,N,0000.19,K,A*14
$DATA,IMU,1,3,1,0,EULER,0,0,0,ACC,0,0,0,GRAV,0,0,0*56
$HCHDG,265.7,0.0,E,,*2F
$GPRMC,230007.9,A,4741.19888,N,12224.25463,W,000.09,098.5,020416,016.4,E,A*20
$IIRMB,A,0.00,L,M,X,4741.777000,N,12224.575000,W,0.6,340,-0.04,V*21
$YXXDR,A,5.5,D,PTCH,A,2.0,D,ROLL*5F
$GPGGA,230007.9,4741.19888,N,12224.25463,W,1,11,0.8,-5.1,M,-18.2,M,,*41
$GPVTG,098.5,T,082.0,M,000.09,N,0000.17,K,A*12
$DATA,IMU,1,3,1,0,EULER,121.5625,-0.25,-5.1875,ACC,0.01,0,0.13,GRAV,-0.04,0.89,9.76*7A
$HCHDG,265.7,0.0,E,,*2F
$GPRMC,230008.0,A,4741.19888,N,12224.25463,W,000.09,098.5,020416,016.4,E,A*26
$IIRMB,A,0.00,L,M,X,4741.777000,N,12224.575000,W,0.6,340,-0.04,V*21
$YXXDR,A,5.5,D,PTCH,A,2.0,D,ROLL*5F
$GPGGA,230008.0,4741.19888,N,12224.25463,W,1,11,0.8,-5.1,M,-18.2,M,,*47
$GPVTG,098.5,T,082.0,M,000.09,N,0000.16,K,A*13
$GPGSA,A,3,17,28,13,15,09,08,05,07,20,30,11,,1.3,0.8,1.0*31
$DATA,IMU,1,3,1,0,EULER,121.5625,-0.25,-5.1875,ACC,0,0.02,0.02,GRAV,-0.04,0.89,9.76*79
$HCHDG,265.7,0.0,E,,*2F
$GPRMC,230008.1,A,4741.19888,N,12224.25463,W,000.08,098.5,020416,016.4,E,A*26
$IIRMB,A,0.00,L,M,X,4741.777000,N,12224.575000,W,0.6,340,-0.04,V*21
$YXXDR,A,5.5,D,PTCH,A,2.0,D,ROLL*5F
$GPGGA,230008.1,4741.19888,N,12224.25463,W,1,11,0.8,-5.1,M,-18.2,M,,*46
$GPVTG,098.5,T,082.0,M,000.08,N,0000.16,K,A*12
$GPGSV,3,1,11,17,17,183,21,28,67,247,42,13,42,304,39,15,09,322,29*72
$GPGSV,3,2,11,09,07,161,26,08,29,049,35,05,11,258,30,07,49,102,37*78
$DATA,IMU,1,3,1,0,EULER,121.5625,-0.25,-5.1875,ACC,0.02,0,0.02,GRAV,-0.04,0.89,9.76*79
$GPGSV,3,3,11,20,09,303,43,30,79,072,30,11,22,099,39*44
$HCHDG,265.7,0.0,E,,*2F
$GPRMC,230008.2,A,4741.19888,N,12224.25463,W,000.08,098.5,020416,016.4,E,A*25
$IIRMB,A,0.00,L,M,X,4741.777000,N,12224.575000,W,0.6,340,-0.04,V*21
$YXXDR,A,5.5,D,PTCH,A,2.0,D,ROLL*5F
$GPGGA,230008.2,4741.19888,N,12224.25463,W,1,11,0.8,-5.1,M,-18.2,M,,*45
$GPVTG,098.5,T,082.0,M,000.08,N,0000.15,K,A*11
$DATA,IMU,1,3,1,0,EULER,121.5625,-0.25,-5.1875,ACC,0.01,0.01,-0.01,GRAV,-0.04,0.89,9.76*7B
$HCHDG,265.7,0.0,E,,*2F
$GPRMC,230008.3,A,4741.19888,N,12224.25463,W,000.10,098.5,020416,016.4,E,A*2D
$IIRMB,A,0.00,L,M,X,4741.777000,N,12224.575000,W,0.6,340,-0.05,V*20
$IIVHW,,,,,00.0,N,,*19
$YXXDR,A,5.5,D,PTCH,A,2.0,D,ROLL*5F
$GPGGA,230008.3,4741.19888,N,12224.25463,W,1,11,0.8,-5.1,M,-18.2,M,,*44
$GPVTG,098.5,T,082.0,M,000.10,N,0000.19,K,A*14
$IIVLW,07472,N,020.8,N*5F
$DATA,IMU,1,3,1,0,EULER,121.5625,-0.25,-5.1875,ACC,0.02,0,0.06,GRAV,-0.04,0.89,9.76*7D
$HCHDG,265.6,0.0,E,,*2E
$GPRMC,230008.4,A,4741.19888,N,12224.25463,W,000.11,098.5,020416,016.4,E,A*2B
$IIRMB,A,0.00,L,M,X,4741.777000,N,12224.575000,W,0.6,340,-0.05,V*20
$YXXDR,A,5.5,D,PTCH,A,2.0,D,ROLL*5F
$GPGGA,230008.4,4741.19888,N,12224.25463,W,1,11,0.8,-5.1,M,-18.2,M,,*43
$IIVWR,072,R,10.0,N,,,,*65
$GPVTG,098.5,T,082.0,M,000.11,N,0000.21,K,A*1E
$DATA,IMU,1,3,1,0,EULER,121.5625,-0.25,-5.1875,ACC,0.05,0.02,0.04,GRAV,-0.04,0.89,9.76*54
$HCHDG,265.6,0.0,E,,*2E
$YXXDR,A,5.5,D,PTCH,A,1.9,D,ROLL*55
$GPRMC,230008.5,A,4741.19888,N,12224.25463,W,000.12,098.5,020416,016.4,E,A*29
$IIRMB,A,0.00,L,M,X,4741.777000,N,12224.575000,W,0.6,340,-0.06,V*23
$DATA,env,P,966.12890625,T,17.88*79
$GPGGA,230008.5,4741.19888,N,12224.25463,W,1,11,0.8,-5.1,M,-18.2,M,,*42
$GPVTG,098.5,T,082.0,M,000.12,N,0000.22,K,A*1E
$DATA,IMU,1,3,1,0,EULER,121.5625,-0.25,-5.1875,ACC,0.08,0.01,0.03,GRAV,-0.04,0.89,9.76*5D
$HCHDG,265.6,0.0,E,,*2E
$GPRMC,230008.6,A,4741.19888,N,12224.25463,W,000.11,098.5,020416,016.4,E,A*29
$IIRMB,A,0.00,L,M,X,4741.777000,N,12224.575000,W,0.6,340,-0.05,V*20
$IIMTW,+08.5,C*35
$YXXDR,A,5.4,D,PTCH,A,1.8,D,ROLL*55
$GPGGA,230008.6,4741.19888,N,12224.25463,W,1,11,0.8,-5.1,M,-18.2,M,,*41
$GPVTG,098.5,T,082.0,M,000.11,N,0000.21,K,A*1E
$IIMWV,072,R,10.0,N,A*17
$HCHDG,265.6,0.0,E,,*2E
$DATA,IMU,1,3,1,0,EULER,121.5625,-0.25,-5.1875,ACC,0.05,0.01,0.07,GRAV,-0.04,0.89,9.76*54
$YXXDR,A,5.4,D,PTCH,A,1.8,D,ROLL*55
$GPRMC,230008.7,A,4741.19887,N,12224.25462,W,000.10,098.5,020416,016.4,E,A*27
$IIRMB,A,0.00,L,M,X,4741.777000,N,12224.575000,W,0.6,340,-0.05,V*20
$TIROT,-17.6,A*26
$IIMWV,073,T,10.1,N,A*11
$GPGGA,230008.7,4741.19887,N,12224.25462,W,1,11,0.8,-5.1,M,-18.2,M,,*4E
$GPVTG,098.5,T,082.0,M,000.10,N,0000.19,K,A*14
$HCHDG,265.7,0.0,E,,*2F
$DATA,IMU,1,3,1,0,EULER,121.5625,-0.25,-5.1875,ACC,0.09,0,0.1,GRAV,-0.04,0.89,9.76*41
$YXXDR,A,5.4,D,PTCH,A,1.8,D,ROLL*55
$GPRMC,230008.8,A,4741.19887,N,12224.25462,W,000.09,098.5,020416,016.4,E,A*20
$IIRMB,A,0.00,L,M,X,4741.777000,N,12224.575000,W,0.6,340,-0.04,V*21
$GPGGA,230008.8,4741.19887,N,12224.25462,W,1,11,0.8,-5.1,M,-18.2,M,,*41
$GPVTG,098.5,T,082.0,M,000.09,N,0000.16,K,A*13
$DATA,IMU,1,3,1,0,EULER,121.5625,-0.25,-5.1875,ACC,0.03,0,0.12,GRAV,-0.04,0.89,9.76*79
$HCHDG,265.7,0.0,E,,*2F
$GPRMC,230008.9,A,4741.19887,N,12224.25462,W,000.09,098.5,020416,016.4,E,A*21
$IIRMB,A,0.00,L,M,X,4741.777000,N,12224.575000,W,0.6,340,-0.04,V*21
$YXXDR,A,5.4,D,PTCH,A,1.8,D,ROLL*55
$GPGGA,230008.9,4741.19887,N,12224.25462,W,1,11,0.8,-5.1,M,-18.2,M,,*40
$GPVTG,098.5,T,082.0,M,000.09,N,0000.17,K,A*12
$HCHDG,265.7,0.0,E,,*2F
$DATA,IMU,1,3,1,0,EULER,121.5625,-0.25,-5.1875,ACC,0.05,0,0.11,GRAV,-0.04,0.89,9.76*7C
$YXXDR,A,5.5,D,PTCH,A,1.9,D,ROLL*55
$GPRMC,230009.0,A,4741.19887,N,12224.25462,W,000.08,098.5,020416,016.4,E,A*28
$IIRMB,A,0.00,L,M,X,4741.777000,N,12224.575000,W,0.6,340,-0.04,V*21
$GPGGA,230009.0,4741.19887,N,12224.25462,W,1,11,0.8,-5.1,M,-18.2,M,,*48
$GPVTG,098.5,T,082.0,M,000.08,N,0000.15,K,A*11
$GPGSA,A,3,17,28,13,15,09,08,05,07,20,30,11,,1.3,0.8,1.0*31
$HCHDG,265.7,0.0,E,,*2F
$DATA,IMU,1,3,1,0,EULER,121.5625,-0.25,-5.1875,ACC,0.03,-0.01,0.14,GRAV,-0.04,0.89,9.76*7D
$YXXDR,A,5.5,D,PTCH,A,1.9,D,ROLL*55
$GPRMC,230009.1,A,4741.19887,N,12224.25462,W,000.07,098.5,020416,016.4,E,A*26
$IIRMB,A,0.00,L,M,X,4741.777000,N,12224.575000,W,0.6,340,-0.03,V*26
$GPGGA,230009.1,4741.19887,N,12224.25462,W,1,11,0.8,-5.1,M,-18.2,M,,*49
$GPVTG,098.5,T,082.0,M,000.07,N,0000.13,K,A*18
$GPGSV,3,1,11,17,18,183,21,28,67,247,42,13,42,304,39,15,09,322,29*7D
$GPGSV,3,2,11,09,07,161,26,08,29,049,35,05,11,258,30,07,49,102,37*78
$GPGSV,3,3,11,20,09,303,43,30,79,072,30,11,22,099,39*44
$HCHDG,265.7,0.0,E,,*2F
$GPRMC,230009.2,A,4741.19887,N,12224.25462,W,000.07,098.5,020416,016.4,E,A*25
$IIRMB,A,0.00,L,M,X,4741.777000,N,12224.575000,W,0.6,340,-0.03,V*26
$DATA,IMU,1,3,1,0,EULER,121.5625,-0.25,-5.1875,ACC,0.02,0,0.14,GRAV,-0.04,0.89,9.76*7E
$YXXDR,A,5.5,D,PTCH,A,1.9,D,ROLL*55
$GPGGA,230009.2,4741.19887,N,12224.25462,W,1,11,0.8,-5.1,M,-18.2,M,,*4A
$GPVTG,098.5,T,082.0,M,000.07,N,0000.13,K,A*18
$HCHDG,265.7,0.0,E,,*2F
$YXXDR,A,5.5,D,PTCH,A,2.1,D,ROLL*5E
$GPRMC,230009.3,A,4741.19887,N,12224.25462,W,000.08,098.5,020416,016.4,E,A*2B
$IIRMB,A,0.00,L,M,X,4741.777000,N,12224.575000,W,0.6,340,-0.04,V*21
$GPGGA,230009.3,4741.19887,N,12224.25462,W,1,11,0.8,-5.1,M,-18.2,M,,*4B
$DATA,IMU,2,3,1,0,EULER,121.5625,-0.25,-5.1875,ACC,0.02,0,0.07,GRAV,-0.04,0.89,9.76*7F
$GPVTG,098.5,T,082.0,M,000.08,N,0000.15,K,A*11
$HCHDG,265.7,0.0,E,,*2F
$YXXDR,A,5.5,D,PTCH,A,2.0,D,ROLL*5F
$GPRMC,230009.4,A,4741.19887,N,12224.25462,W,000.09,098.5,020416,016.4,E,A*2D
$IIRMB,A,0.00,L,M,X,4741.777000,N,12224.575000,W,0.6,340,-0.04,V*21
$GPGGA,230009.4,4741.19887,N,12224.25462,W,1,11,0.8,-5.1,M,-18.2,M,,*4C
$DATA,IMU,2,3,1,0,EULER,121.5625,-0.25,-5.1875,ACC,0,0.01,0.05,GRAV,-0.04,0.89,9.76*7E
$GPVTG,098.5,T,082.0,M,000.09,N,0000.16,K,A*13
$HCHDG,265.7,0.0,E,,*2F
$GPRMC,230009.5,A,4741.19887,N,12224.25462,W,000.09,098.5,020416,016.4,E,A*2C
$IIRMB,A,0.00,L,M,X,4741.777000,N,12224.575000,W,0.6,340,-0.04,V*21
$YXXDR,A,5.5,D,PTCH,A,2.0,D,ROLL*5F
$GPGGA,230009.5,4741.19887,N,12224.25462,W,1,11,0.8,-5.1,M,-18.2,M,,*4D
$DATA,env,P,966.12890625,T,17.88*79
$GPVTG,098.5,T,082.0,M,000.09,N,0000.16,K,A*13
$DATA,IMU,2,3,1,0,EULER,121.5625,-0.25,-5.1875,ACC,0.05,0.03,0.1,GRAV,-0.04,0.89,9.76*63
$HCHDG,265.7,0.0,E,,*2F
$YXXDR,A,5.5,D,PTCH,A,1.9,D,ROLL*55
$GPRMC,230009.6,A,4741.19887,N,12224.25462,W,000.08,098.5,020416,016.4,E,A*2E
$IIRMB,A,0.00,L,M,X,4741.777000,N,12224.575000,W,0.6,340,-0.04,V*21
$GPGGA,230009.6,4741.19887,N,12224.25462,W,1,11,0.8,-5.1,M,-18.2,M,,*4E
$DATA,IMU,1,3,1,0,EULER,121.5625,-0.25,-5.1875,ACC,0.03,0.01,0.06,GRAV,-0.04,0.89,9.76*53
$GPVTG,098.5,T,082.0,M,000.08,N,0000.14,K,A*10
$HCHDG,265.7,0.0,E,,*2F
$YXXDR,A,5.5,D,PTCH,A,1.9,D,ROLL*55
$TIROT,-7.1,A*10
$GPRMC,230009.7,A,4741.19886,N,12224.25462,W,000.09,098.5,020416,016.4,E,A*2F
$IIRMB,A,0.00,L,M,X,4741.777000,N,12224.575000,W,0.6,340,-0.04,V*21
$GPGGA,230009.7,4741.19886,N,12224.25462,W,1,11,0.8,-5.1,M,-18.2,M,,*4E
$GPVTG,098.5,T,082.0,M,000.09,N,0000.17,K,A*12
$DATA,IMU,1,3,1,0,EULER,121.5625,-0.25,-5.1875,ACC,0.04,0.01,0.09,GRAV,-0.04,0.89,9.76*5B
$HCHDG,265.7,0.0,E,,*2F
$YXXDR,A,5.5,D,PTCH,A,1.9,D,ROLL*55
$GPRMC,230009.8,A,4741.19886,N,12224.25462,W,000.09,098.5,020416,016.4,E,A*20
$IIRMB,A,0.00,L,M,X,4741.777000,N,12224.575000,W,0.6,340,-0.04,V*21
$GPGGA,230009.8,4741.19886,N,12224.25462,W,1,11,0.8,-5.1,M,-18.2,M,,*41
$GPVTG,098.5,T,082.0,M,000.09,N,0000.17,K,A*12
$DATA,IMU,1,3,1,0,EULER,121.5625,-0.25,-5.1875,ACC,0.02,0.03,0.11,GRAV,-0.04,0.89,9.76*56
$HCHDG,265.7,0.0,E,,*2F
$YXXDR,A,5.5,D,PTCH,A,1.9,D,ROLL*55
$GPRMC,230009.9,A,4741.19886,N,12224.25462,W,000.08,098.5,020416,016.4,E,A*20
$IIRMB,A,0.00,L,M,X,4741.777000,N,12224.575000,W,0.6,340,-0.04,V*21
$GPGGA,230009.9,4741.19886,N,12224.25462,W,1,11,0.8,-5.1,M,-18.2,M,,*40
$GPVTG,098.5,T,082.0,M,000.08,N,0000.15,K,A*11
$DATA,IMU,1,3,1,0,EULER,121.5625,-0.25,-5.1875,ACC,0.06,0.01,0.12,GRAV,-0.04,0.89,9.76*53
$HCHDG,265.7,0.0,E,,*2F
$YXXDR,A,5.5,D,PTCH,A,1.9,D,ROLL*55
$GPRMC,230010.0,A,4741.19886,N,12224.25462,W,000.09,098.5,020416,016.4,E,A*20
$IIRMB,A,0.00,L,M,X,4741.777000,N,12224.575000,W,0.6,340,-0.04,V*21
$GPGGA,230010.0,4741.19886,N,12224.25462,W,1,11,0.8,-5.1,M,-18.2,M,,*41
$GPVTG,098.5,T,082.0,M,000.09,N,0000.17,K,A*12
$DATA,IMU,1,3,1,0,EULER,121.5625,-0.25,-5.1875,ACC,0.05,0.02,0.09,GRAV,-0.04,0.89,9.76*59
$GPGSA,A,3,17,28,13,15,09,08,05,07,20,30,11,,1.3,0.8,1.0*31
$HCHDG,265.6,0.0,E,,*2E
$YXXDR,A,5.4,D,PTCH,A,1.8,D,ROLL*55
$GPRMC,230010.1,A,4741.19886,N,12224.25462,W,000.11,098.5,020416,016.4,E,A*28
$IIRMB,A,0.00,L,M,X,4741.777000,N,12224.575000,W,0.6,340,-0.05,V*20
$GPGGA,230010.1,4741.19886,N,12224.25462,W,1,11,0.8,-5.1,M,-18.2,M,,*40
$GPVTG,098.5,T,082.0,M,000.11,N,0000.20,K,A*1F
$DATA,IMU,1,3,1,0,EULER,121.5625,-0.25,-5.1875,ACC,0.08,0,0.12,GRAV,-0.04,0.89,9.76*72
$GPGSV,3,1,11,17,18,183,22,28,67,247,42,13,42,304,39,15,09,322,29*7E
$GPGSV,3,2,11,09,07,161,26,08,29,049,35,05,11,258,29,07,49,102,36*71
$HCHDG,265.6,0.0,E,,*2E
$GPGSV,3,3,11,20,09,303,43,30,79,072,30,11,22,099,39*44
$YXXDR,A,5.4,D,PTCH,A,1.8,D,ROLL*55
$GPRMC,230010.2,A,4741.19886,N,12224.25462,W,000.09,098.5,020416,016.4,E,A*22
$IIRMB,A,0.00,L,M,X,4741.777000,N,12224.575000,W,0.6,340,-0.04,V*21
$GPGGA,230010.2,4741.19886,N,12224.25462,W,1,11,0.8,-5.1,M,-18.2,M,,*43
$GPVTG,098.5,T,082.0,M,000.09,N,0000.18,K,A*1D
$DATA,IMU,1,3,1,0,EULER,121.5625,-0.25,-5.1875,ACC,0.08,0,0.13,GRAV,-0.04,0.89,9.76*73
$HCHDG,265.6,0.0,E,,*2E
$YXXDR,A,5.5,D,PTCH,A,1.9,D,ROLL*55
$GPRMC,230010.3,A,4741.19886,N,12224.25462,W,000.09,098.5,020416,016.4,E,A*23
$IIRMB,A,0.00,L,M,X,4741.777000,N,12224.575000,W,0.6,340,-0.04,V*21
$GPGGA,230010.3,4741.19886,N,12224.25462,W,1,11,0.8,-5.1,M,-18.2,M,,*42
$GPVTG,098.5,T,082.0,M,000.09,N,0000.17,K,A*12
$DATA,IMU,1,3,1,0,EULER,121.5625,-0.25,-5.1875,ACC,0.08,0.02,0.06,GRAV,-0.04,0.89,9.76*5B
$HCHDG,265.6,0.0,E,,*2E
$YXXDR,A,5.5,D,PTCH,A,1.9,D,ROLL*55
$GPRMC,230010.4,A,4741.19886,N,12224.25462,W,000.10,098.5,020416,016.4,E,A*2C
$IIRMB,A,0.00,L,M,X,4741.777000,N,12224.575000,W,0.6,340,-0.05,V*20
$GPGGA,230010.4,4741.19886,N,12224.25462,W,1,11,0.8,-5.1,M,-18.2,M,,*45
$GPVTG,098.5,T,082.0,M,000.10,N,0000.19,K,A*14
$DATA,IMU,1,3,1,0,EULER,121.5625,-0.25,-5.1875,ACC,0.06,0,0.09,GRAV,-0.04,0.89,9.76*76
$HCHDG,265.6,0.0,E,,*2E
$YXXDR,A,5.5,D,PTCH,A,1.9,D,ROLL*55
$GPRMC,230010.5,A,4741.19886,N,12224.25462,W,000.09,098.5,020416,016.4,E,A*25
$IIRMB,A,0.00,L,M,X,4741.777000,N,12224.575000,W,0.6,340,-0.04,V*21
$DATA,env,P,967.8828125,T,17.87*48
$GPGGA,230010.5,4741.19886,N,12224.25462,W,1,11,0.8,-5.1,M,-18.2,M,,*44
$GPVTG,098.5,T,082.0,M,000.09,N,0000.16,K,A*13
$DATA,IMU,1,3,1,0,EULER,121.5625,-0.25,-5.1875,ACC,0.05,0,0.07,GRAV,-0.04,0.89,9.76*7B
$HCHDG,265.6,0.0,E,,*2E
$YXXDR,A,5.5,D,PTCH,A,1.9,D,ROLL*55
$GPRMC,230010.6,A,4741.19886,N,12224.25462,W,000.08,098.5,020416,016.4,E,A*27
$IIRMB,A,0.00,L,M,X,4741.777000,N,12224.575000,W,0.6,340,-0.04,V*21
$GPGGA,230010.6,4741.19886,N,12224.25462,W,1,11,0.8,-5.1,M,-18.2,M,,*47
$GPVTG,098.5,T,082.0,M,000.08,N,0000.16,K,A*12
$DATA,IMU,1,3,1,0,EULER,121.5625,-0.25,-5.1875,ACC,0.04,0,0.05,GRAV,-0.04,0.89,9.76*78
$HCHDG,265.6,0.0,E,,*2E
$YXXDR,A,5.5,D,PTCH,A,2.0,D,ROLL*5F
$TIROT,-13.0,A*24
$GPRMC,230010.7,A,4741.19885,N,12224.25463,W,000.13,098.5,020416,016.4,E,A*2E
$IIRMB,A,0.00,L,M,X,4741.777000,N,12224.575000,W,0.6,340,-0.06,V*23
$GPGGA,230010.7,4741.19885,N,12224.25463,W,1,11,0.8,-5.1,M,-18.2,M,,*44
$GPVTG,098.5,T,082.0,M,000.13,N,0000.23,K,A*1E
$DATA,IMU,1,3,1,0,EULER,121.5625,-0.25,-5.1875,ACC,0.04,0,0,GRAV,-0.04,0.89,9.76*53
$HCHDG,265.6,0.0,E,,*2E
$YXXDR,A,5.5,D,PTCH,A,2.0,D,ROLL*5F
$GPRMC,230010.8,A,4741.19885,N,12224.25463,W,000.13,098.5,020416,016.4,E,A*21
$IIRMB,A,0.00,L,M,X,4741.777000,N,12224.575000,W,0.6,340,-0.06,V*23
$GPGGA,230010.8,4741.19885,N,12224.25463,W,1,11,0.8,-5.1,M,-18.2,M,,*4B
$GPVTG,098.5,T,082.0,M,000.13,N,0000.24,K,A*19
$DATA,IMU,1,3,1,0,EULER,121.5625,-0.25,-5.1875,ACC,0.01,0.02,0,GRAV,-0.04,0.89,9.76*7A
$HCHDG,265.6,0.0,E,,*2E
$YXXDR,A,5.5,D,PTCH,A,2.1,D,ROLL*5E
$GPRMC,230010.9,A,4741.19885,N,12224.25463,W,000.13,098.5,020416,016.4,E,A*20
$IIRMB,A,0.00,L,M,X,4741.777000,N,12224.575000,W,0.6,340,-0.06,V*23
$GPGGA,230010.9,4741.19885,N,12224.25463,W,1,11,0.8,-5.1,M,-18.2,M,,*4A
$GPVTG,098.5,T,082.0,M,000.13,N,0000.24,K,A*19
$DATA,IMU,1,3,1,0,EULER,121.5625,-0.25,-5.1875,ACC,0,0.03,0.04,GRAV,-0.04,0.89,9.76*7E
$HCHDG,265.6,0.0,E,,*2E
$YXXDR,A,5.5,D,PTCH,A,2.1,D,ROLL*5E
$GPRMC,230011.0,A,4741.19885,N,12224.25463,W,000.13,098.5,020416,016.4,E,A*28
$IIRMB,A,0.00,L,M,X,4741.777000,N,12224.575000,W,0.6,340,-0.06,V*23
$GPGGA,230011.0,4741.19885,N,12224.25463,W,1,11,0.8,-5.1,M,-18.2,M,,*42
$GPVTG,098.5,T,082.0,M,000.13,N,0000.24,K,A*19
$GPGSA,A,3,17,28,13,15,09,08,05,07,20,30,11,,1.3,0.8,1.0*31
$DATA,IMU,1,3,1,0,EULER,121.5625,-0.25,-5.1875,ACC,0.02,0.03,0.05,GRAV,-0.04,0.89,9.76*53
$HCHDG,265.6,0.0,E,,*2E
$YXXDR,A,5.5,D,PTCH,A,2.1,D,ROLL*5E
$GPRMC,230011.1,A,4741.19885,N,12224.25463,W,000.14,098.5,020416,016.4,E,A*2E
$IIRMB,A,0.00,L,M,X,4741.777000,N,12224.575000,W,0.6,340,-0.07,V*22
$GPGGA,230011.1,4741.19885,N,12224.25463,W,1,11,0.8,-5.1,M,-18.2,M,,*43
$GPVTG,098.5,T,082.0,M,000.14,N,0000.26,K,A*1C
$GPGSV,3,1,11,17,18,183,24,28,67,247,42,13,42,304,39,15,09,322,29*78
$HCHDG,265.6,0.0,E,,*2E
$DATA,IMU,1,3,1,0,EULER,121.5625,-0.25,-5.1875,ACC,0.03,0.03,0.07,GRAV,-0.04,0.89,9.76*50
$GPGSV,3,2,11,09,07,161,25,08,29,049,35,05,11,258,29,07,49,102,36*72
$GPGSV,3,3,11,20,09,303,43,30,79,072,29,11,22,099,39*4C
$YXXDR,A,5.5,D,PTCH,A,2.0,D,ROLL*5F
$IIRMB,A,0.00,L,,X   ,,,,,000.6,340,,V,A*3E
$GPRMC,230011.2,A,4741.19885,N,12224.25463,W,000.15,098.5,020416,016.4,E,A*2C
$IIRMB,A,0.00,L,M,X,4741.777000,N,12224.575000,W,0.6,340,-0.07,V*22
$GPGGA,230011.2,4741.19885,N,12224.25463,W,1,11,0.8,-5.1,M,-18.2,M,,*40
$GPVTG,098.5,T,082.0,M,000.15,N,0000.27,K,A*1C
$HCHDG,265.6,0.0,E,,*2E
$DATA,IMU,1,3,1,0,EULER,121.5625,-0.25,-5.1875,ACC,0.03,0.03,0.08,GRAV,-0.04,0.89,9.76*5F
$YXXDR,A,5.5,D,PTCH,A,1.9,D,ROLL*55
$GPRMC,230011.3,A,4741.19885,N,12224.25463,W,000.15,098.5,020416,016.4,E,A*2D
$IIRMB,A,0.00,L,M,X,4741.777000,N,12224.575000,W,0.6,340,-0.07,V*22
$GPGGA,230011.3,4741.19885,N,12224.25463,W,1,11,0.8,-5.1,M,-18.2,M,,*41
$GPVTG,098.5,T,082.0,M,000.15,N,0000.28,K,A*13
$HCHDG,265.4,0.0,E,,*2C
$DATA,IMU,1,3,1,0,EULER,121.5625,-0.25,-5.1875,ACC,0.08,0.02,0.11,GRAV,-0.04,0.89,9.76*5D
$IIVHW,,,,,00.0,N,,*19
$YXXDR,A,5.4,D,PTCH,A,1.7,D,ROLL*5A
$GPRMC,230011.4,A,4741.19885,N,12224.25463,W,000.14,098.5,020416,016.4,E,A*2B
$IIRMB,A,0.00,L,M,X,4741.777000,N,12224.575000,W,0.6,340,-0.07,V*22
$GPGGA,230011.4,4741.19885,N,12224.25463,W,1,11,0.8,-5.1,M,-18.2,M,,*46
$GPVTG,098.5,T,082.0,M,000.14,N,0000.26,K,A*1C
$IIVLW,07472,N,020.8,N*5F
$HCHDG,265.4,0.0,E,,*2C
$DATA,IMU,1,3,1,0,EULER,121.5625,-0.25,-5.1875,ACC,0.07,0,0.09,GRAV,-0.04,0.89,9.76*77
$YXXDR,A,5.4,D,PTCH,A,1.7,D,ROLL*5A
$IIVWR,073,R,10.1,N,,,,*65
$GPRMC,230011.5,A,4741.19885,N,12224.25463,W,000.13,098.5,020416,016.4,E,A*2D
$IIRMB,A,0.00,L,M,X,4741.777000,N,12224.575000,W,0.6,340,-0.06,V*23
$DATA,env,P,965.4765625,T,17.88*48
$GPGGA,230011.5,4741.19885,N,12224.25463,W,1,11,0.8,-5.1,M,-18.2,M,,*47
$GPVTG,098.5,T,082.0,M,000.13,N,0000.25,K,A*18
$HCHDG,265.4,0.0,E,,*2C
$DATA,IMU,1,3,1,0,EULER,121.5625,-0.25,-5.1875,ACC,0.07,0.01,0.12,GRAV,-0.04,0.89,9.76*52
$YXXDR,A,5.4,D,PTCH,A,1.7,D,ROLL*5A
$GPRMC,230011.6,A,4741.19885,N,12224.25463,W,000.12,098.5,020416,016.4,E,A*2F
$IIRMB,A,0.00,L,M,X,4741.777000,N,12224.575000,W,0.6,340,-0.06,V*23
$GPGGA,230011.6,4741.19885,N,12224.25463,W,1,11,0.8,-5.1,M,-18.2,M,,*44
$GPVTG,098.5,T,082.0,M,000.12,N,0000.22,K,A*1E
$HCHDG,265.4,0.0,E,,*2C
$IIMTW,+08.5,C*35
$YXXDR,A,5.4,D,PTCH,A,1.8,D,ROLL*55
$TIROT,-24.7,A*27
$DATA,IMU,1,3,1,0,EULER,121.5625,-0.25,-5.1875,ACC,0.07,0,0.08,GRAV,-0.04,0.89,9.76*76
$GPRMC,230011.7,A,4741.19884,N,12224.25464,W,000.11,098.5,020416,016.4,E,A*2B
$IIRMB,A,0.00,L,M,X,4741.777000,N,12224.575000,W,0.6,340,-0.05,V*20
$GPGGA,230011.7,4741.19884,N,12224.25464,W,1,11,0.8,-5.1,M,-18.2,M,,*43
$GPVTG,098.5,T,082.0,M,000.11,N,0000.20,K,A*1F
$HCHDG,265.4,0.0,E,,*2C
$YXXDR,A,5.4,D,PTCH,A,1.8,D,ROLL*55
$DATA,IMU,1,3,1,0,EULER,121.5625,-0.25,-5.1875,ACC,0.08,0,0,GRAV,-0.04,0.89,9.76*5F
$GPRMC,230011.8,A,4741.19884,N,12224.25464,W,000.10,098.5,020416,016.4,E,A*25
$IIRMB,A,0.00,L,M,X,4741.777000,N,12224.575000,W,0.6,340,-0.05,V*20
$GPGGA,230011.8,4741.19884,N,12224.25464,W,1,11,0.8,-5.1,M,-18.2,M,,*4C
$GPVTG,098.5,T,082.0,M,000.10,N,0000.19,K,A*14
$HCHDG,265.4,0.0,E,,*2C
$YXXDR,A,5.4,D,PTCH,A,2.0,D,ROLL*5E
$GPRMC,230011.9,A,4741.19884,N,12224.25464,W,000.10,098.5,020416,016.4,E,A*24
$IIRMB,A,0.00,L,M,X,4741.777000,N,12224.575000,W,0.6,340,-0.05,V*20
$DATA,IMU,1,3,1,0,EULER,121.5625,-0.25,-5.1875,ACC,0.05,0,0.11,GRAV,-0.04,0.89,9.76*7C
$GPGGA,230011.9,4741.19884,N,12224.25464,W,1,11,0.8,-5.1,M,-18.2,M,,*4D
$GPVTG,098.5,T,082.0,M,000.10,N,0000.18,K,A*15
$HCHDG,265.4,0.0,E,,*2C
$YXXDR,A,5.4,D,PTCH,A,2.0,D,ROLL*5E
$GPRMC,230012.0,A,4741.19884,N,12224.25464,W,000.10,098.5,020416,016.4,E,A*2E
$IIRMB,A,0.00,L,M,X,4741.777000,N,12224.575000,W,0.6,340,-0.05,V*20
$GPGGA,230012.0,4741.19884,N,12224.25464,W,1,11,0.8,-5.1,M,-18.2,M,,*47
$DATA,IMU,1,3,1,0,EULER,121.5625,-0.25,-5.1875,ACC,0.04,0,0.1,GRAV,-0.04,0.89,9.76*4C
$GPVTG,098.5,T,082.0,M,000.10,N,0000.19,K,A*14
$GPGSA,A,3,17,28,13,15,09,08,05,07,20,30,11,,1.3,0.8,1.0*31
$HCHDG,265.4,0.0,E,,*2C
$YXXDR,A,5.5,D,PTCH,A,2.0,D,ROLL*5F
$GPRMC,230012.1,A,4741.19884,N,12224.25464,W,000.09,098.5,020416,016.4,E,A*27
$IIRMB,A,0.00,L,M,X,4741.777000,N,12224.575000,W,0.6,340,-0.04,V*21
$GPGGA,230012.1,4741.19884,N,12224.25464,W,1,11,0.8,-5.1,M,-18.2,M,,*46
$DATA,IMU,1,3,1,0,EULER,121.5625,-0.25,-5.1875,ACC,0.02,0.02,0.1,GRAV,-0.04,0.89,9.76*66
$GPVTG,098.5,T,082.0,M,000.09,N,0000.17,K,A*12
$GPGSV,3,1,11,17,18,183,25,28,67,247,42,13,42,304,39,15,09,322,29*79
$IIMWV,073,R,10.0,N,A*16
$HCHDG,265.4,0.0,E,,*2C
$GPGSV,3,2,11,09,07,161,25,08,29,049,35,05,11,258,28,07,49,102,36*73
$YXXDR,A,5.5,D,PTCH,A,2.1,D,ROLL*5E
$GPGSV,3,3,11,20,09,303,43,30,79,072,30,11,22,099,39*44
$GPRMC,230012.2,A,4741.19884,N,12224.25464,W,000.09,098.5,020416,016.4,E,A*24
$IIRMB,A,0.00,L,M,X,4741.777000,N,12224.575000,W,0.6,340,-0.04,V*21
$GPGGA,230012.2,4741.19884,N,12224.25464,W,1,11,0.8,-5.1,M,-18.2,M,,*45
$IIMWV,073,T,10.2,N,A*12
$GPVTG,098.5,T,082.0,M,000.09,N,0000.16,K,A*13
$DATA,IMU,1,3,1,0,EULER,121.5625,-0.25,-5.1875,ACC,0,0.01,0.11,GRAV,-0.04,0.89,9.76*78
$HCHDG,265.6,0.0,E,,*2E
$YXXDR,A,5.5,D,PTCH,A,2.1,D,ROLL*5E
$IIRMB,A,0.00,L,,X   ,,,,,000.6,340,,V,A*3E
$GPRMC,230012.3,A,4741.19884,N,12224.25464,W,000.09,098.5,020416,016.4,E,A*25
$IIRMB,A,0.00,L,M,X,4741.777000,N,12224.575000,W,0.6,340,-0.04,V*21
$GPGGA,230012.3,4741.19884,N,12224.25464,W,1,11,0.8,-5.1,M,-18.2,M,,*44
$GPVTG,098.5,T,082.0,M,000.09,N,0000.16,K,A*13
$DATA,IMU,1,3,1,0,EULER,121.5625,-0.25,-5.1875,ACC,0.02,0.03,0,GRAV,-0.04,0.89,9.76*78
$HCHDG,265.6,0.0,E,,*2E
$YXXDR,A,5.5,D,PTCH,A,2.1,D,ROLL*5E
$GPRMC,230012.4,A,4741.19884,N,12224.25464,W,000.08,098.5,020416,016.4,E,A*23
$IIRMB,A,0.00,L,M,X,4741.777000,N,12224.575000,W,0.6,340,-0.04,V*21
$GPGGA,230012.4,4741.19884,N,12224.25464,W,1,11,0.8,-5.1,M,-18.2,M,,*43
$GPVTG,098.5,T,082.0,M,000.08,N,0000.15,K,A*11
$DATA,IMU,1,3,1,0,EULER,121.5625,-0.25,-5.1875,ACC,0.02,0.02,0.05,GRAV,-0.04,0.89,9.76*52
$HCHDG,265.6,0.0,E,,*2E
$YXXDR,A,5.5,D,PTCH,A,2.0,D,ROLL*5F
$IIVHW,,,,,00.0,N,,*19
$GPRMC,230012.5,A,4741.19884,N,12224.25464,W,000.08,098.5,020416,016.4,E,A*22
$IIRMB,A,0.00,L,M,X,4741.777000,N,12224.575000,W,0.6,340,-0.04,V*21
$DATA,env,P,965.4765625,T,17.88*48
$GPGGA,230012.5,4741.19884,N,12224.25464,W,1,11,0.8,-5.2,M,-18.2,M,,*41
$GPVTG,098.5,T,082.0,M,000.08,N,0000.15,K,A*11
$IIVLW,07472,N,020.8,N*5F
$DATA,IMU,2,3,1,0,EULER,121.5625,-0.25,-5.1875,ACC,0.01,0.03,0.05,GRAV,-0.04,0.89,9.76*53
$HCHDG,265.6,0.0,E,,*2E
$YXXDR,A,5.5,D,PTCH,A,1.9,D,ROLL*55
$IIVWR,073,R,10.0,N,,,,*64
$GPRMC,230012.6,A,4741.19884,N,12224.25464,W,000.08,098.5,020416,016.4,E,A*21
$IIRMB,A,0.00,L,M,X,4741.777000,N,12224.575000,W,0.6,340,-0.04,V*21
$GPGGA,230012.6,4741.19884,N,12224.25464,W,1,11,0.8,-5.2,M,-18.2,M,,*42
$GPVTG,098.5,T,082.0,M,000.08,N,0000.15,K,A*11
$HCHDG,265.6,0.0,E,,*2E
$YXXDR,A,5.4,D,PTCH,A,2.0,D,ROLL*5E
$TIROT,0.0,A*3B
$DATA,IMU,2,3,1,0,EULER,121.5625,-0.25,-5.1875,ACC,0.03,0.01,0.01,GRAV,-0.04,0.89,9.76*57
$GPRMC,230012.7,A,4741.19883,N,12224.25465,W,000.08,098.5,020416,016.4,E,A*26
$IIRMB,A,0.00,L,M,X,4741.777000,N,12224.575000,W,0.6,340,-0.04,V*21
$GPGGA,230012.7,4741.19883,N,12224.25465,W,1,11,0.8,-5.2,M,-18.2,M,,*45
$GPVTG,098.5,T,082.0,M,000.08,N,0000.14,K,A*10
$HCHDG,265.4,0.0,E,,*2C
$DATA,IMU,2,3,1,0,EULER,121.5625,-0.25,-5.1875,ACC,0.04,0.01,0.08,GRAV,-0.04,0.89,9.76*59
$YXXDR,A,5.4,D,PTCH,A,1.8,D,ROLL*55
$GPRMC,230012.8,A,4741.19883,N,12224.25465,W,000.08,098.5,020416,016.4,E,A*29
$IIRMB,A,0.00,L,M,X,4741.777000,N,12224.575000,W,0.6,340,-0.04,V*21
$GPGGA,230012.8,4741.19883,N,12224.25465,W,1,11,0.8,-5.2,M,-18.2,M,,*4A
$GPVTG,098.5,T,082.0,M,000.08,N,0000.15,K,A*11
$HCHDG,265.4,0.0,E,,*2C
$DATA,IMU,2,3,1,0,EULER,121.5625,-0.25,-5.1875,ACC,0.03,0,0.09,GRAV,-0.04,0.89,9.76*70
$YXXDR,A,5.4,D,PTCH,A,1.8,D,ROLL*55
$GPRMC,230012.9,A,4741.19883,N,12224.25465,W,000.08,098.5,020416,016.4,E,A*28
$IIRMB,A,0.00,L,M,X,4741.777000,N,12224.575000,W,0.6,340,-0.04,V*21
$GPGGA,230012.9,4741.19883,N,12224.25465,W,1,11,0.8,-5.2,M,-18.2,M,,*4B
$GPVTG,098.5,T,082.0,M,000.08,N,0000.15,K,A*11
$HCHDG,265.4,0.0,E,,*2C
$DATA,IMU,2,3,1,0,EULER,121.5625,-0.25,-5.1875,ACC,0.05,0.01,0.11,GRAV,-0.04,0.89,9.76*50
$YXXDR,A,5.4,D,PTCH,A,1.8,D,ROLL*55
$GPRMC,230013.0,A,4741.19883,N,12224.25465,W,000.07,098.5,020416,016.4,E,A*2F
$IIRMB,A,0.00,L,M,X,4741.777000,N,12224.575000,W,0.6,340,-0.03,V*26
$GPGGA,230013.0,4741.19883,N,12224.25465,W,1,11,0.8,-5.2,M,-18.2,M,,*43
$GPVTG,098.5,T,082.0,M,000.07,N,0000.13,K,A*18
$GPGSA,A,3,17,28,13,15,09,08,05,07,20,30,11,,1.3,0.8,1.0*31
$HCHDG,265.4,0.0,E,,*2C
$DATA,IMU,2,3,1,0,EULER,121.5625,-0.25,-5.1875,ACC,0.05,0,0.13,GRAV,-0.04,0.89,9.76*7D
$YXXDR,A,5.4,D,PTCH,A,1.8,D,ROLL*55
$GPRMC,230013.1,A,4741.19883,N,12224.25465,W,000.07,098.5,020416,016.4,E,A*2E
$IIRMB,A,0.00,L,M,X,4741.777000,N,12224.575000,W,0.6,340,-0.03,V*26
