$GPRMC,025959.9,A,4741.19799,N,12224.24342,W,000.20,075.4,140616,016.4,E,A*22
$IIRMB,A,0.00,L,M,X,4741.777000,N,12224.575000,W,0.6,339,-0.02,V*29
$GPGGA,025959.9,4741.19799,N,12224.24342,W,1,10,0.8,-6.5,M,-18.2,M,,*49
$GPVTG,075.4,T,059.0,M,000.20,N,0000.36,K,A*1E
$IIVHW,,,,,00.0,N,,*19
$HCHDG,269.2,0.0,E,,*26
$YXXDR,A,6.0,D,PTCH,A,4.0,D,ROLL*5F
$DATA,IMU,0,3,3,0,EULER,326.75,11,-3.4375,ACC,0.01,0.1,-0.25,GRAV,1.87,0.57,9.6*62
$IIVLW,07547,N,007.4,N*51
$GPRMC,030000.0,A,4741.19799,N,12224.24342,W,000.23,075.4,140616,016.4,E,A*29
$IIRMB,A,0.00,L,M,X,4741.777000,N,12224.575000,W,0.6,339,-0.03,V*28
$GPGGA,030000.0,4741.19799,N,12224.24342,W,1,10,0.8,-6.5,M,-18.2,M,,*41
$GPVTG,075.4,T,059.0,M,000.23,N,0000.43,K,A*1F
$IIVWR,087,R,11.9,N,,,,*67
$GPGSA,A,3,25,02,29,05,31,18,21,26,16,20,,,1.4,0.8,1.1*3D
$HCHDG,269.2,0.0,E,,*26
$YXXDR,A,5.9,D,PTCH,A,4.2,D,ROLL*57
$DATA,IMU,0,3,3,0,EULER,326.75,11,-3.4375,ACC,0,0.04,-0.26,GRAV,1.87,0.57,9.6*7B
$GPRMC,030000.1,A,4741.19799,N,12224.24342,W,000.25,075.4,140616,016.4,E,A*2E
$IIRMB,A,0.00,L,M,X,4741.777000,N,12224.575000,W,0.6,339,-0.03,V*28
$GPGGA,030000.1,4741.19799,N,12224.24342,W,1,10,0.8,-6.5,M,-18.2,M,,*40
$GPVTG,075.4,T,059.0,M,000.25,N,0000.46,K,A*1C
$HCHDG,269.2,0.0,E,,*26
$GPGSV,3,1,10,25,27,192,27,02,14,073,17,29,78,107,36,05,48,065,36*7A
$YXXDR,A,5.9,D,PTCH,A,4.2,D,ROLL*57
$DATA,IMU,0,3,3,0,EULER,326.75,10.9375,-3.375,ACC,0,0.03,-0.24,GRAV,1.86,0.57,9.61*5D
$GPGSV,3,2,10,31,03,264,25,18,15,204,22,21,45,262,36,26,29,309,45*71
$GPGSV,3,3,10,16,08,328,42,20,62,161,40*7C
$GPRMC,030000.2,A,4741.19799,N,12224.24342,W,000.26,075.4,140616,016.4,E,A*2E
$IIRMB,A,0.00,L,M,X,4741.777000,N,12224.575000,W,0.6,339,-0.03,V*28
$IIMTW,+11.0,C*38
$GPGGA,030000.2,4741.19799,N,12224.24342,W,1,10,0.8,-6.5,M,-18.2,M,,*43
$GPVTG,075.4,T,059.0,M,000.26,N,0000.48,K,A*11
$HCHDG,269.3,0.0,E,,*27
$PGRMT,GPS19x-HVS Software Version 2.20,,,,,,,,*6F
$YXXDR,A,5.7,D,PTCH,A,4.2,D,ROLL*59
$TIROT,7.1,A*3D
$IIMWV,087,R,11.9,N,A*15
$GPRMC,030000.3,A,4741.19799,N,12224.24342,W,000.23,075.4,140616,016.4,E,A*2A
$IIRMB,A,0.00,L,M,X,4741.777000,N,12224.575000,W,0.6,339,-0.03,V*28
$DATA,IMU,0,3,3,0,EULER,326.75,10.875,-3.3125,ACC,-0.05,0.01,-0.24,GRAV,1.84,0.56,9.61*5C
$GPGGA,030000.3,4741.19799,N,12224.24342,W,1,10,0.8,-6.5,M,-18.2,M,,*42
$GPVTG,075.4,T,059.0,M,000.23,N,0000.43,K,A*1F
$IIMWV,087,T,11.8,N,A*12
$GPRMC,030000.4,A,4741.19799,N,12224.24342,W,000.22,075.4,140616,016.4,E,A*2C
$IIRMB,A,0.00,L,M,X,4741.777000,N,12224.575000,W,0.6,339,-0.02,V*29
$HCHDG,269.4,0.0,E,,*20
$GPGGA,030000.4,4741.19799,N,12224.24342,W,1,10,0.8,-6.5,M,-18.2,M,,*45
$YXXDR,A,5.7,D,PTCH,A,4.1,D,ROLL*5A
$GPVTG,075.4,T,059.0,M,000.22,N,0000.41,K,A*1C
$DATA,IMU,0,3,3,0,EULER,326.75,10.75,-3.3125,ACC,0,0.05,-0.19,GRAV,1.82,0.55,9.61*6D
$DATA,env,P,968.48828125,T,19.51*76
$HCHDG,269.4,0.0,E,,*20
$GPRMC,030000.5,A,4741.19801,N,12224.24344,W,000.22,075.4,140616,016.4,E,A*25
$IIRMB,A,0.00,L,M,X,4741.777000,N,12224.575000,W,0.6,339,-0.02,V*29
$YXXDR,A,5.7,D,PTCH,A,4.1,D,ROLL*5A
$GPGGA,030000.5,4741.19801,N,12224.24344,W,1,10,0.8,-6.5,M,-18.2,M,,*4C
$GPVTG,075.4,T,059.0,M,000.22,N,0000.41,K,A*1C
$DATA,IMU,0,3,3,0,EULER,326.75,10.625,-3.3125,ACC,0,0.07,-0.24,GRAV,1.81,0.55,9.62*52
$HCHDG,269.4,0.0,E,,*20
$GPRMC,030000.6,A,4741.19801,N,12224.24344,W,000.22,075.4,140616,016.4,E,A*26
$IIRMB,A,0.00,L,M,X,4741.777000,N,12224.575000,W,0.6,339,-0.02,V*29
$YXXDR,A,5.6,D,PTCH,A,4.0,D,ROLL*5A
$GPGGA,030000.6,4741.19801,N,12224.24344,W,1,10,0.8,-6.5,M,-18.2,M,,*4F
$GPVTG,075.4,T,059.0,M,000.22,N,0000.40,K,A*1D
$DATA,IMU,0,3,3,0,EULER,326.75,10.5625,-3.3125,ACC,-0.05,0.06,-0.23,GRAV,1.79,0.55,9.62*60
$HCHDG,269.4,0.0,E,,*20
$GPRMC,030000.7,A,4741.19801,N,12224.24344,W,000.22,075.4,140616,016.4,E,A*27
$IIRMB,A,0.00,L,M,X,4741.777000,N,12224.575000,W,0.6,339,-0.02,V*29
$GPGGA,030000.7,4741.19801,N,12224.24344,W,1,10,0.8,-6.5,M,-18.2,M,,*4E
$YXXDR,A,5.8,D,PTCH,A,3.9,D,ROLL*5A
$GPVTG,075.4,T,059.0,M,000.22,N,0000.40,K,A*1D
$DATA,IMU,0,3,3,0,EULER,326.75,10.4375,-3.25,ACC,-0.05,0,-0.22,GRAV,1.78,0.55,9.62*4B
$HCHDG,269.5,0.0,E,,*21
$GPRMC,030000.8,A,4741.19801,N,12224.24344,W,000.21,075.4,140616,016.4,E,A*2B
$IIRMB,A,0.00,L,M,X,4741.777000,N,12224.575000,W,0.6,339,-0.02,V*29
$YXXDR,A,5.8,D,PTCH,A,3.9,D,ROLL*5A
$GPGGA,030000.8,4741.19801,N,12224.24344,W,1,10,0.8,-6.5,M,-18.2,M,,*41
$GPVTG,075.4,T,059.0,M,000.21,N,0000.39,K,A*10
$DATA,IMU,0,3,3,0,EULER,326.6875,10.375,-3.25,ACC,-0.03,0.02,-0.24,GRAV,1.76,0.55,9.62*53
$IIRMB,A,0.00,L,,X   ,,,,,000.6,339,,V,A*30
$HCHDG,269.4,0.0,E,,*20
$GPRMC,030000.9,A,4741.19801,N,12224.24344,W,000.24,075.4,140616,016.4,E,A*2F
$IIRMB,A,0.00,L,M,X,4741.777000,N,12224.575000,W,0.6,339,-0.03,V*28
$YXXDR,A,5.8,D,PTCH,A,3.9,D,ROLL*5A
$GPGGA,030000.9,4741.19801,N,12224.24344,W,1,10,0.8,-6.5,M,-18.2,M,,*40
$GPVTG,075.4,T,059.0,M,000.24,N,0000.44,K,A*1F
$DATA,IMU,0,3,3,0,EULER,326.6875,10.3125,-3.25,ACC,-0.03,0,-0.23,GRAV,1.76,0.55,9.63*4D
$HCHDG,269.4,0.0,E,,*20
$GPRMC,030001.0,A,4741.19801,N,12224.24344,W,000.21,075.4,140616,016.4,E,A*22
$IIRMB,A,0.00,L,M,X,4741.777000,N,12224.575000,W,0.6,339,-0.02,V*29
$YXXDR,A,5.7,D,PTCH,A,3.8,D,ROLL*54
$GPGGA,030001.0,4741.19801,N,12224.24344,W,1,10,0.8,-6.5,M,-18.2,M,,*48
$GPVTG,075.4,T,059.0,M,000.21,N,0000.38,K,A*11
$GPGSA,A,3,25,02,29,05,31,18,21,26,16,20,,,1.4,0.8,1.1*3D
$DATA,IMU,0,3,3,0,EULER,326.6875,10.3125,-3.25,ACC,0,0.09,-0.35,GRAV,1.76,0.55,9.63*6D
$IIVHW,,,,,00.0,N,,*19
$HCHDG,269.4,0.0,E,,*20
$GPRMC,030001.1,A,4741.19801,N,12224.24344,W,000.19,075.4,140616,016.4,E,A*28
$IIRMB,A,0.00,L,M,X,4741.777000,N,12224.575000,W,0.6,339,-0.02,V*29
$YXXDR,A,5.7,D,PTCH,A,3.8,D,ROLL*54
$GPGGA,030001.1,4741.19801,N,12224.24344,W,1,10,0.8,-6.5,M,-18.2,M,,*49
$IIVLW,07547,N,007.4,N*51
$GPVTG,075.4,T,059.0,M,000.19,N,0000.34,K,A*16
$GPGSV,3,1,10,25,27,192,26,02,14,073,17,29,78,107,35,05,48,064,37*78
$DATA,IMU,0,3,3,0,EULER,326.6875,10.3125,-3.3125,ACC,0.02,0.08,-0.31,GRAV,1.76,0.55,9.63*46
$GPGSV,3,2,10,31,03,264,26,18,15,204,23,21,45,262,39,26,29,309,45*7C
$GPGSV,3,3,10,16,08,328,43,20,62,161,40*7D
$IIVWR,087,R,12.2,N,,,,*6F
$HCHDG,269.5,0.0,E,,*21
$GPRMC,030001.2,A,4741.19801,N,12224.24344,W,000.20,075.4,140616,016.4,E,A*21
$IIRMB,A,0.00,L,M,X,4741.777000,N,12224.575000,W,0.6,339,-0.02,V*29
$YXXDR,A,5.8,D,PTCH,A,3.6,D,ROLL*55
$GPGGA,030001.2,4741.19801,N,12224.24344,W,1,10,0.8,-6.5,M,-18.2,M,,*4A
$GPVTG,075.4,T,059.0,M,000.20,N,0000.37,K,A*1F
$DATA,IMU,0,3,3,0,EULER,326.6875,10.3125,-3.3125,ACC,0,0.09,-0.34,GRAV,1.76,0.56,9.63*6D
$HCHDG,269.5,0.0,E,,*21
$GPRMC,030001.3,A,4741.19801,N,12224.24344,W,000.22,075.4,140616,016.4,E,A*22
$IIRMB,A,0.00,L,M,X,4741.777000,N,12224.575000,W,0.6,339,-0.02,V*29
$YXXDR,A,5.8,D,PTCH,A,3.5,D,ROLL*56
$TIROT,16.4,A*08
$GPGGA,030001.3,4741.19801,N,12224.24344,W,1,10,0.8,-6.5,M,-18.2,M,,*4B
$GPVTG,075.4,T,059.0,M,000.22,N,0000.41,K,A*1C
$DATA,IMU,0,3,3,0,EULER,326.6875,10.3125,-3.3125,ACC,0,0.09,-0.42,GRAV,1.76,0.56,9.63*6C
$IIMTW,+11.0,C*38
$HCHDG,269.6,0.0,E,,*22
$GPRMC,030001.4,A,4741.19801,N,12224.24344,W,000.24,075.4,140616,016.4,E,A*23
$IIRMB,A,0.00,L,M,X,4741.777000,N,12224.575000,W,0.6,339,-0.03,V*28
$YXXDR,A,5.8,D,PTCH,A,3.5,D,ROLL*56
$GPGGA,030001.4,4741.19801,N,12224.24344,W,1,10,0.8,-6.5,M,-18.2,M,,*4C
$GPVTG,075.4,T,059.0,M,000.24,N,0000.45,K,A*1E
$DATA,IMU,0,3,3,0,EULER,326.75,10.3125,-3.3125,ACC,0,0.11,-0.33,GRAV,1.76,0.56,9.63*6D
$DATA,env,P,968.4765625,T,19.5*7E
$HCHDG,269.6,0.0,E,,*22
$GPRMC,030001.5,A,4741.19802,N,12224.24348,W,000.25,075.4,140616,016.4,E,A*2C
$IIRMB,A,0.00,L,M,X,4741.777000,N,12224.575000,W,0.6,339,-0.03,V*28
$GPGGA,030001.5,4741.19802,N,12224.24348,W,1,10,0.8,-6.5,M,-18.2,M,,*42
$YXXDR,A,5.8,D,PTCH,A,3.5,D,ROLL*56
$GPVTG,075.4,T,059.0,M,000.25,N,0000.46,K,A*1C
$DATA,IMU,0,3,3,0,EULER,326.75,10.3125,-3.3125,ACC,-0.04,0.05,-0.33,GRAV,1.76,0.56,9.63*6F
$HCHDG,269.7,0.0,E,,*23
$GPRMC,030001.6,A,4741.19802,N,12224.24348,W,000.29,075.4,140616,016.4,E,A*23
$IIRMB,A,0.00,L,M,X,4741.777000,N,12224.575000,W,0.6,339,-0.03,V*28
$YXXDR,A,5.8,D,PTCH,A,3.5,D,ROLL*56
$GPGGA,030001.6,4741.19802,N,12224.24348,W,1,10,0.8,-6.5,M,-18.2,M,,*41
$GPVTG,075.4,T,059.0,M,000.29,N,0000.53,K,A*14
$DATA,IMU,0,3,3,0,EULER,326.75,10.3125,-3.3125,ACC,-0.01,0.02,-0.28,GRAV,1.76,0.56,9.63*67
$HCHDG,269.6,0.0,E,,*22
$GPRMC,030001.7,A,4741.19802,N,12224.24348,W,000.26,075.4,140616,016.4,E,A*2D
$IIRMB,A,0.00,L,M,X,4741.777000,N,12224.575000,W,0.6,339,-0.03,V*28
$YXXDR,A,5.7,D,PTCH,A,3.5,D,ROLL*59
$GPGGA,030001.7,4741.19802,N,12224.24348,W,1,10,0.8,-6.5,M,-18.2,M,,*40
$GPVTG,075.4,T,059.0,M,000.26,N,0000.48,K,A*11
$DATA,IMU,0,3,3,0,EULER,326.75,10.3125,-3.3125,ACC,-0.05,0,-0.25,GRAV,1.76,0.56,9.63*42
$HCHDG,269.8,0.0,E,,*2C
$GPRMC,030001.8,A,4741.19802,N,12224.24348,W,000.26,075.4,140616,016.4,E,A*22
$IIRMB,A,0.00,L,M,X,4741.777000,N,12224.575000,W,0.6,339,-0.03,V*28
$YXXDR,A,5.7,D,PTCH,A,3.5,D,ROLL*59
$GPGGA,030001.8,4741.19802,N,12224.24348,W,1,10,0.8,-6.5,M,-18.2,M,,*4F
$GPVTG,075.4,T,059.0,M,000.26,N,0000.49,K,A*10
$IIMWV,090,R,12.3,N,A*1A
$DATA,IMU,0,3,3,0,EULER,326.75,10.3125,-3.3125,ACC,-0.01,0.07,-0.28,GRAV,1.76,0.56,9.63*62
$IIMWV,087,T,12.2,N,A*1B
$HCHDG,269.8,0.0,E,,*2C
$GPRMC,030001.9,A,4741.19802,N,12224.24348,W,000.26,075.4,140616,016.4,E,A*23
$IIRMB,A,0.00,L,M,X,4741.777000,N,12224.575000,W,0.6,339,-0.03,V*28
$YXXDR,A,5.5,D,PTCH,A,3.6,D,ROLL*58
$GPGGA,030001.9,4741.19802,N,12224.24348,W,1,10,0.8,-6.5,M,-18.2,M,,*4E
$GPVTG,075.4,T,059.0,M,000.26,N,0000.49,K,A*10
$GPRMC,030002.0,A,4741.19802,N,12224.24348,W,000.25,075.4,140616,016.4,E,A*2A
$IIRMB,A,0.00,L,M,X,4741.777000,N,12224.575000,W,0.6,339,-0.03,V*28
$HCHDG,269.9,0.0,E,,*2D
$IIRMB,A,0.00,L,,X   ,,,,,000.6,339,,V,A*30
$GPGGA,030002.0,4741.19802,N,12224.24348,W,1,10,0.8,-6.5,M,-18.2,M,,*44
$YXXDR,A,5.6,D,PTCH,A,3.5,D,ROLL*58
$GPVTG,075.4,T,059.0,M,000.25,N,0000.46,K,A*1C
$DATA,IMU,0,3,3,0,EULER,326.75,10.3125,-3.3125,ACC,-0.09,0.07,-0.39,GRAV,1.76,0.56,9.63*6A
$GPGSA,A,3,25,02,29,05,31,18,21,26,16,20,,,1.4,0.8,1.1*3D
$HCHDG,269.9,0.0,E,,*2D
$GPRMC,030002.1,A,4741.19802,N,12224.24348,W,000.25,075.4,140616,016.4,E,A*2B
$IIRMB,A,0.00,L,M,X,4741.777000,N,12224.575000,W,0.6,339,-0.03,V*28
$YXXDR,A,5.6,D,PTCH,A,3.5,D,ROLL*58
$GPGGA,030002.1,4741.19802,N,12224.24348,W,1,10,0.8,-6.5,M,-18.2,M,,*45
$DATA,IMU,0,3,3,0,EULER,326.75,10.3125,-3.3125,ACC,-0.04,0.07,-0.25,GRAV,1.76,0.56,9.63*6A
$GPVTG,075.4,T,059.0,M,000.25,N,0000.47,K,A*1D
$GPGSV,3,1,10,25,27,192,25,02,14,073,17,29,78,107,36,05,48,064,38*77
$IIVHW,,,,,00.0,N,,*19
$GPGSV,3,2,10,31,03,264,25,18,15,204,22,21,45,262,39,26,29,309,44*7F
$GPGSV,3,3,10,16,08,328,43,20,62,161,39*73
$HCHDG,270.1,0.0,E,,*2D
$GPRMC,030002.2,A,4741.19802,N,12224.24348,W,000.22,075.3,140616,016.4,E,A*28
$IIRMB,A,0.00,L,M,X,4741.777000,N,12224.575000,W,0.6,339,-0.02,V*29
$YXXDR,A,5.7,D,PTCH,A,3.5,D,ROLL*59
$GPGGA,030002.2,4741.19802,N,12224.24348,W,1,10,0.8,-6.5,M,-18.2,M,,*46
$IIVLW,07547,N,007.4,N*51
$DATA,IMU,0,3,3,0,EULER,326.75,10.3125,-3.3125,ACC,-0.04,0.09,-0.26,GRAV,1.76,0.56,9.63*67
$GPVTG,075.3,T,058.8,M,000.22,N,0000.40,K,A*13
$IIVWR,090,R,12.3,N,,,,*68
$HCHDG,270.1,0.0,E,,*2D
$GPRMC,030002.3,A,4741.19802,N,12224.24348,W,000.20,075.1,140616,016.4,E,A*29
$IIRMB,A,0.00,L,M,X,4741.777000,N,12224.575000,W,0.6,339,-0.02,V*29
$YXXDR,A,5.7,D,PTCH,A,3.4,D,ROLL*58
$TIROT,30.5,A*0D
$GPGGA,030002.3,4741.19802,N,12224.24348,W,1,10,0.8,-6.5,M,-18.2,M,,*47
$GPVTG,075.1,T,058.7,M,000.20,N,0000.37,K,A*1C
$DATA,IMU,0,3,3,0,EULER,326.75,10.3125,-3.3125,ACC,-0.01,0.11,-0.23,GRAV,1.76,0.56,9.63*6E
$HCHDG,270.3,0.0,E,,*2F
$GPRMC,030002.4,A,4741.19802,N,12224.24348,W,000.17,073.9,140616,016.4,E,A*24
$IIRMB,A,0.00,L,M,X,4741.777000,N,12224.575000,W,0.6,339,-0.01,V*2A
$YXXDR,A,5.7,D,PTCH,A,3.3,D,ROLL*5F
$GPGGA,030002.4,4741.19802,N,12224.24348,W,1,10,0.8,-6.5,M,-18.2,M,,*40
$GPVTG,073.9,T,057.4,M,000.17,N,0000.32,K,A*1F
$DATA,IMU,0,3,3,0,EULER,326.75,10.3125,-3.3125,ACC,0.03,0.08,-0.23,GRAV,1.76,0.56,9.63*49
$DATA,env,P,968.4765625,T,19.5*7E
$HCHDG,270.3,0.0,E,,*2F
$GPRMC,030002.5,A,4741.19802,N,12224.24351,W,000.18,073.9,140616,016.4,E,A*22
$IIRMB,A,0.00,L,M,X,4741.777000,N,12224.575000,W,0.6,339,-0.02,V*29
$YXXDR,A,5.7,D,PTCH,A,3.3,D,ROLL*5F
$GPGGA,030002.5,4741.19802,N,12224.24351,W,1,10,0.8,-6.5,M,-18.2,M,,*49
$GPVTG,073.9,T,057.4,M,000.18,N,0000.34,K,A*16
$DATA,IMU,0,3,3,0,EULER,326.75,10.3125,-3.25,ACC,0.03,0.05,-0.21,GRAV,1.76,0.55,9.63*47
$HCHDG,270.5,0.0,E,,*29
$GPRMC,030002.6,A,4741.19802,N,12224.24351,W,000.18,073.9,140616,016.4,E,A*21
$IIRMB,A,0.00,L,M,X,4741.777000,N,12224.575000,W,0.6,339,-0.02,V*29
$YXXDR,A,5.7,D,PTCH,A,3.2,D,ROLL*5E
$GPGGA,030002.6,4741.19802,N,12224.24351,W,1,10,0.8,-6.5,M,-18.2,M,,*4A
$GPVTG,073.9,T,057.4,M,000.18,N,0000.34,K,A*16
$DATA,IMU,0,3,3,0,EULER,326.75,10.3125,-3.1875,ACC,-0.05,0.14,-0.33,GRAV,1.76,0.54,9.63*62
$HCHDG,270.3,0.0,E,,*2F
$GPRMC,030002.7,A,4741.19802,N,12224.24351,W,000.18,073.9,140616,016.4,E,A*20
$IIRMB,A,0.00,L,M,X,4741.777000,N,12224.575000,W,0.6,339,-0.02,V*29
$YXXDR,A,5.6,D,PTCH,A,3.6,D,ROLL*5B
$GPGGA,030002.7,4741.19802,N,12224.24351,W,1,10,0.8,-6.5,M,-18.2,M,,*4B
$GPVTG,073.9,T,057.4,M,000.18,N,0000.33,K,A*11
$DATA,IMU,0,3,3,0,EULER,326.75,10.3125,-3.125,ACC,-0.02,0.08,-0.28,GRAV,1.76,0.53,9.63*58
$HCHDG,270.4,0.0,E,,*28
$GPRMC,030002.8,A,4741.19802,N,12224.24351,W,000.19,073.9,140616,016.4,E,A*2E
$IIRMB,A,0.00,L,M,X,4741.777000,N,12224.575000,W,0.6,339,-0.02,V*29
$YXXDR,A,5.6,D,PTCH,A,3.6,D,ROLL*5B
$GPGGA,030002.8,4741.19802,N,12224.24351,W,1,10,0.8,-6.5,M,-18.2,M,,*44
$GPVTG,073.9,T,057.4,M,000.19,N,0000.35,K,A*16
$DATA,IMU,0,3,3,0,EULER,326.75,10.3125,-3.0625,ACC,0.05,0.12,-0.34,GRAV,1.76,0.52,9.63*42
$HCHDG,270.6,0.0,E,,*2A
$YXXDR,A,5.6,D,PTCH,A,3.6,D,ROLL*5B
$GPRMC,030002.9,A,4741.19802,N,12224.24351,W,000.22,073.9,140616,016.4,E,A*27
$IIRMB,A,0.00,L,M,X,4741.777000,N,12224.575000,W,0.6,339,-0.02,V*29
$IIMTW,+11.0,C*38
$GPGGA,030002.9,4741.19802,N,12224.24351,W,1,10,0.8,-6.5,M,-18.2,M,,*45
$GPVTG,073.9,T,057.4,M,000.22,N,0000.41,K,A*1D
$DATA,IMU,0,3,3,0,EULER,326.75,10.3125,-3.0625,ACC,0.03,0.09,-0.3,GRAV,1.76,0.51,9.63*79
$IIMWV,095,R,12.0,N,A*1C
$HCHDG,270.6,0.0,E,,*2A
$GPRMC,030003.0,A,4741.19802,N,12224.24351,W,000.28,073.9,140616,016.4,E,A*25
$IIRMB,A,0.00,L,M,X,4741.777000,N,12224.575000,W,0.6,339,-0.02,V*29
$YXXDR,A,5.7,D,PTCH,A,3.8,D,ROLL*54
$GPGGA,030003.0,4741.19802,N,12224.24351,W,1,10,0.8,-6.5,M,-18.2,M,,*4D
$IIMWV,090,T,12.3,N,A*1C
$GPVTG,073.9,T,057.4,M,000.28,N,0000.52,K,A*15
$GPGSA,A,3,25,02,29,05,31,18,21,26,16,20,,,1.4,0.8,1.1*3D
$DATA,IMU,0,3,3,0,EULER,326.75,10.3125,-3.0625,ACC,0.01,0.1,-0.24,GRAV,1.76,0.51,9.63*76
$HCHDG,270.7,0.0,E,,*2B
$GPRMC,030003.1,A,4741.19802,N,12224.24351,W,000.01,073.9,140616,016.4,E,A*2F
$IIRMB,A,0.00,L,M,X,4741.777000,N,12224.575000,W,0.6,339,-0.00,V*2B
$YXXDR,A,5.7,D,PTCH,A,3.8,D,ROLL*54
$IIRMB,A,0.00,L,,X   ,,,,,000.6,339,,V,A*30
$GPGGA,030003.1,4741.19802,N,12224.24351,W,1,10,0.8,-6.5,M,-18.2,M,,*4C
$GPVTG,073.9,T,057.4,M,000.01,N,0000.02,K,A*1B
$GPGSV,3,1,10,25,27,192,25,02,14,073,16,29,78,107,36,05,48,064,40*79
$DATA,IMU,0,3,3,0,EULER,326.75,10.3125,-3.0625,ACC,0,0.16,-0.26,GRAV,1.76,0.51,9.63*6D
$GPGSV,3,2,10,31,03,264,24,18,15,204,22,21,45,262,39,26,29,309,44*7E
$GPGSV,3,3,10,16,08,328,43,20,62,161,38*72
$HCHDG,270.9,0.0,E,,*25
$GPRMC,030003.2,A,4741.19802,N,12224.24351,W,000.06,073.9,140616,016.4,E,A*2B
$IIRMB,A,0.00,L,M,X,4741.777000,N,12224.575000,W,0.6,339,-0.01,V*2A
$YXXDR,A,5.7,D,PTCH,A,3.8,D,ROLL*54
$GPGGA,030003.2,4741.19802,N,12224.24351,W,1,10,0.8,-6.5,M,-18.2,M,,*4F
$GPVTG,073.9,T,057.4,M,000.06,N,0000.10,K,A*1F
$DATA,IMU,0,3,3,0,EULER,326.75,10.375,-3.125,ACC,-0.03,0.17,-0.22,GRAV,1.76,0.52,9.63*68
$HCHDG,270.9,0.0,E,,*25
$IIVHW,,,,,00.0,N,,*19
$GPRMC,030003.3,A,4741.19802,N,12224.24351,W,000.08,073.9,140616,016.4,E,A*24
$IIRMB,A,0.00,L,M,X,4741.777000,N,12224.575000,W,0.6,339,-0.01,V*2A
$YXXDR,A,5.8,D,PTCH,A,3.6,D,ROLL*55
$TIROT,41.1,A*0F
$GPGGA,030003.3,4741.19802,N,12224.24351,W,1,10,0.8,-6.5,M,-18.2,M,,*4E
$GPVTG,073.9,T,057.4,M,000.08,N,0000.14,K,A*15
$IIVLW,07547,N,007.4,N*51
$DATA,IMU,0,3,3,0,EULER,326.75,10.375,-3.1875,ACC,-0.03,0.15,-0.25,GRAV,1.76,0.53,9.63*51
$HCHDG,271.0,0.0,E,,*2D
$YXXDR,A,5.6,D,PTCH,A,3.7,D,ROLL*5A
$GPRMC,030003.4,A,4741.19802,N,12224.24351,W,000.13,073.9,140616,016.4,E,A*29
$IIRMB,A,0.00,L,M,X,4741.777000,N,12224.575000,W,0.6,339,-0.01,V*2A
$GPGGA,030003.4,4741.19802,N,12224.24351,W,1,10,0.8,-6.5,M,-18.2,M,,*49
$GPVTG,073.9,T,057.4,M,000.13,N,0000.25,K,A*1D
$DATA,IMU,0,3,3,0,EULER,326.75,10.375,-3.1875,ACC,-0.04,-0.03,-0.23,GRAV,1.76,0.54,9.63*7D
$DATA,env,P,968.27734375,T,19.51*7A
$HCHDG,271.0,0.0,E,,*2D
$YXXDR,A,5.5,D,PTCH,A,3.6,D,ROLL*58
$GPRMC,030003.5,A,4741.19801,N,12224.24355,W,000.12,073.9,140616,016.4,E,A*2E
$IIRMB,A,0.00,L,M,X,4741.777000,N,12224.575000,W,0.6,339,-0.01,V*2A
$GPGGA,030003.5,4741.19801,N,12224.24355,W,1,10,0.8,-6.5,M,-18.2,M,,*4F
$GPVTG,073.9,T,057.4,M,000.12,N,0000.22,K,A*1B
$DATA,IMU,0,3,3,0,EULER,326.75,10.375,-3.1875,ACC,-0.04,0.02,-0.19,GRAV,1.76,0.54,9.63*58
$HCHDG,271.1,0.0,E,,*2C
$YXXDR,A,5.5,D,PTCH,A,3.6,D,ROLL*58
$GPRMC,030003.6,A,4741.19801,N,12224.24355,W,000.47,073.9,140616,016.4,E,A*2D
$IIRMB,A,0.00,L,M,X,4741.777000,N,12224.575000,W,0.6,339,-0.04,V*2F
$GPGGA,030003.6,4741.19801,N,12224.24355,W,1,10,0.8,-6.5,M,-18.2,M,,*4C
$GPVTG,073.9,T,057.4,M,000.47,N,0000.88,K,A*1B
$DATA,IMU,0,3,3,0,EULER,326.75,10.375,-3.25,ACC,-0.04,0.02,-0.17,GRAV,1.77,0.54,9.63*5B
$HCHDG,271.2,0.0,E,,*2F
$YXXDR,A,5.4,D,PTCH,A,3.6,D,ROLL*59
$GPRMC,030003.7,A,4741.19801,N,12224.24355,W,000.45,073.9,140616,016.4,E,A*2E
$IIRMB,A,0.00,L,M,X,4741.777000,N,12224.575000,W,0.6,339,-0.04,V*2F
$GPGGA,030003.7,4741.19801,N,12224.24355,W,1,10,0.8,-6.5,M,-18.2,M,,*4D
$GPVTG,073.9,T,057.4,M,000.45,N,0000.84,K,A*15
$DATA,IMU,0,3,3,0,EULER,326.75,10.375,-3.25,ACC,-0.05,0.05,-0.18,GRAV,1.77,0.55,9.62*52
$HCHDG,271.3,0.0,E,,*2E
$YXXDR,A,5.3,D,PTCH,A,3.5,D,ROLL*5D
$GPRMC,030003.8,A,4741.19801,N,12224.24355,W,000.44,073.9,140616,016.4,E,A*20
$IIRMB,A,0.00,L,M,X,4741.777000,N,12224.575000,W,0.6,339,-0.04,V*2F
$GPGGA,030003.8,4741.19801,N,12224.24355,W,1,10,0.8,-6.5,M,-18.2,M,,*42
$IIVWR,098,R,11.7,N,,,,*67
$GPVTG,073.9,T,057.4,M,000.44,N,0000.81,K,A*11
$DATA,IMU,0,3,3,0,EULER,326.75,10.375,-3.375,ACC,-0.06,0.04,-0.21,GRAV,1.76,0.57,9.62*6F
$HCHDG,271.3,0.0,E,,*2E
$YXXDR,A,5.4,D,PTCH,A,3.5,D,ROLL*5A
$GPRMC,030003.9,A,4741.19801,N,12224.24355,W,000.39,073.9,140616,016.4,E,A*2B
$IIRMB,A,0.00,L,M,X,4741.777000,N,12224.575000,W,0.6,339,-0.03,V*28
$GPGGA,030003.9,4741.19801,N,12224.24355,W,1,10,0.8,-6.5,M,-18.2,M,,*43
$GPVTG,073.9,T,057.4,M,000.39,N,0000.72,K,A*17
$DATA,IMU,0,3,3,0,EULER,326.75,10.375,-3.375,ACC,-0.09,0.04,-0.24,GRAV,1.76,0.57,9.62*65
$HCHDG,271.3,0.0,E,,*2E
$YXXDR,A,5.4,D,PTCH,A,3.5,D,ROLL*5A
$GPRMC,030004.0,A,4741.19800,N,12224.24357,W,000.40,073.9,140616,016.4,E,A*28
$IIRMB,A,0.00,L,M,X,4741.777000,N,12224.575000,W,0.6,339,-0.03,V*28
$IIMTW,+11.0,C*38
$GPGGA,030004.0,4741.19800,N,12224.24357,W,1,10,0.8,-6.5,M,-18.2,M,,*4E
$GPVTG,073.9,T,057.4,M,000.40,N,0000.73,K,A*18
$PTAK,FFP1,HEEL,###@*24
$PTAK,FFP2,TGTSPD,kts*2C
$PTAK,FFP3,TGTTWA,###@*27
$GPGSA,A,3,25,02,29,05,31,18,21,26,16,20,,,1.4,0.8,1.1*3D
$IIMWV,098,R,11.7,N,A*15
$DATA,IMU,0,3,3,0,EULER,326.75,10.375,-3.4375,ACC,-0.09,0.09,-0.38,GRAV,1.76,0.58,9.62*5E
$HCHDG,271.3,0.0,E,,*2E
$YXXDR,A,5.5,D,PTCH,A,3.4,D,ROLL*5A
$GPRMC,030004.1,A,4741.19800,N,12224.24357,W,000.36,073.9,140616,016.4,E,A*28
$IIRMB,A,0.00,L,M,X,4741.777000,N,12224.575000,W,0.6,339,-0.03,V*28
$IIMWV,095,T,12.0,N,A*1A
$GPGGA,030004.1,4741.19800,N,12224.24357,W,1,10,0.8,-6.5,M,-18.2,M,,*4F
$GPVTG,073.9,T,057.4,M,000.36,N,0000.67,K,A*1C
$GPGSV,3,1,10,25,27,192,24,02,14,073,17,29,78,107,38,05,48,064,41*76
$GPGSV,3,2,10,31,03,264,23,18,15,204,22,21,45,262,40,26,29,309,44*77
$HCHDG,271.5,0.0,E,,*28
$GPGSV,3,3,10,16,08,328,43,20,62,161,38*72
$DATA,IMU,0,3,3,0,EULER,326.75,10.375,-3.5,ACC,-0.08,0.1,-0.49,GRAV,1.76,0.59,9.62*50
$YXXDR,A,5.6,D,PTCH,A,3.3,D,ROLL*5E
$GPRMC,030004.2,A,4741.19800,N,12224.24357,W,000.35,073.9,140616,016.4,E,A*28
$IIRMB,A,0.00,L,M,X,4741.777000,N,12224.575000,W,0.6,339,-0.03,V*28
$IIRMB,A,0.00,L,,X   ,,,,,000.6,339,,V,A*30
$GPGGA,030004.2,4741.19800,N,12224.24357,W,1,10,0.8,-6.5,M,-18.2,M,,*4C
$GPVTG,073.9,T,057.4,M,000.35,N,0000.66,K,A*1E
$HCHDG,271.5,0.0,E,,*28
$DATA,IMU,0,3,3,0,EULER,326.75,10.375,-3.5,ACC,0,0.07,-0.35,GRAV,1.76,0.59,9.62*66
$YXXDR,A,5.7,D,PTCH,A,3.3,D,ROLL*5F
$TIROT,29.3,A*03
$GPRMC,030004.3,A,4741.19800,N,12224.24357,W,000.32,073.9,140616,016.4,E,A*2E
$IIRMB,A,0.00,L,M,X,4741.777000,N,12224.575000,W,0.6,339,-0.03,V*28
$GPGGA,030004.3,4741.19800,N,12224.24357,W,1,10,0.8,-6.5,M,-18.2,M,,*4D
$GPVTG,073.9,T,057.4,M,000.32,N,0000.59,K,A*15
$HCHDG,271.7,0.0,E,,*2A
$DATA,IMU,0,3,3,0,EULER,326.75,10.375,-3.5,ACC,0,-0.04,-0.36,GRAV,1.77,0.59,9.62*4A
$YXXDR,A,5.7,D,PTCH,A,3.2,D,ROLL*5E
$GPRMC,030004.4,A,4741.19800,N,12224.24357,W,000.33,073.9,140616,016.4,E,A*28
$IIRMB,A,0.00,L,M,X,4741.777000,N,12224.575000,W,0.6,339,-0.03,V*28
$GPGGA,030004.4,4741.19800,N,12224.24357,W,1,10,0.8,-6.5,M,-18.2,M,,*4A
$GPVTG,073.9,T,057.4,M,000.33,N,0000.61,K,A*1F
$DATA,env,P,968.29296875,T,19.51*72
$HCHDG,271.7,0.0,E,,*2A
$DATA,IMU,0,3,3,0,EULER,326.75,10.375,-3.5,ACC,-0.04,-0.06,-0.2,GRAV,1.77,0.59,9.62*78
$GPRMC,030004.5,A,4741.19800,N,12224.24357,W,000.31,073.9,140616,016.4,E,A*2B
$IIRMB,A,0.00,L,M,X,4741.777000,N,12224.575000,W,0.6,339,-0.03,V*28
$YXXDR,A,5.7,D,PTCH,A,3.1,D,ROLL*5D
$GPGGA,030004.5,4741.19800,N,12224.24357,W,1,10,0.8,-6.5,M,-18.2,M,,*4B
$GPVTG,073.9,T,057.4,M,000.31,N,0000.58,K,A*17
$HCHDG,271.7,0.0,E,,*2A
$DATA,IMU,0,3,3,0,EULER,326.75,10.375,-3.5,ACC,0.02,-0.04,-0.23,GRAV,1.77,0.59,9.62*62
$YXXDR,A,5.5,D,PTCH,A,3.1,D,ROLL*5F
$GPRMC,030004.6,A,4741.19800,N,12224.24357,W,000.32,074.1,140616,016.4,E,A*24
$IIRMB,A,0.00,L,M,X,4741.777000,N,12224.575000,W,0.6,339,-0.03,V*28
$GPGGA,030004.6,4741.19800,N,12224.24357,W,1,10,0.8,-6.5,M,-18.2,M,,*48
$GPVTG,074.1,T,057.7,M,000.32,N,0000.59,K,A*19
$HCHDG,271.9,0.0,E,,*24
$YXXDR,A,5.5,D,PTCH,A,3.1,D,ROLL*5F
$DATA,IMU,0,3,3,0,EULER,326.75,10.375,-3.5,ACC,0,0,-0.24,GRAV,1.77,0.59,9.62*4E
$GPRMC,030004.7,A,4741.19800,N,12224.24357,W,000.29,074.4,140616,016.4,E,A*2A
$IIRMB,A,0.00,L,M,X,4741.777000,N,12224.575000,W,0.6,339,-0.03,V*28
$GPGGA,030004.7,4741.19800,N,12224.24357,W,1,10,0.8,-6.5,M,-18.2,M,,*49
$GPVTG,074.4,T,057.9,M,000.29,N,0000.53,K,A*12
$HCHDG,271.9,0.0,E,,*24
$GPRMC,030004.8,A,4741.19800,N,12224.24357,W,000.27,074.7,140616,016.4,E,A*28
$IIRMB,A,0.00,L,M,X,4741.777000,N,12224.575000,W,0.6,339,-0.03,V*28
$DATA,IMU,0,3,3,0,EULER,326.75,10.375,-3.5,ACC,0.02,-0.02,-0.26,GRAV,1.77,0.59,9.62*61
$YXXDR,A,5.5,D,PTCH,A,3.1,D,ROLL*5F
$IIVHW,,,,,00.0,N,,*19
$GPGGA,030004.8,4741.19800,N,12224.24357,W,1,10,0.8,-6.5,M,-18.2,M,,*46
$GPVTG,074.7,T,058.2,M,000.27,N,0000.50,K,A*18
$IIVLW,07547,N,007.4,N*51
$HCHDG,272.0,0.0,E,,*2E
$YXXDR,A,6.0,D,PTCH,A,3.5,D,ROLL*5D
$DATA,IMU,0,3,3,0,EULER,326.75,10.375,-3.5,ACC,0.01,0.01,-0.28,GRAV,1.77,0.59,9.62*42
$GPRMC,030004.9,A,4741.19800,N,12224.24357,W,000.26,074.9,140616,016.4,E,A*26
$IIRMB,A,0.00,L,M,X,4741.777000,N,12224.575000,W,0.6,339,-0.03,V*28
$GPGGA,030004.9,4741.19800,N,12224.24357,W,1,10,0.8,-6.6,M,-18.2,M,,*44
$IIVWR,099,R,11.2,N,,,,*63
$GPVTG,074.9,T,058.5,M,000.26,N,0000.49,K,A*18
$HCHDG,272.0,0.0,E,,*2E
$YXXDR,A,6.0,D,PTCH,A,3.6,D,ROLL*5E
$GPRMC,030005.0,A,4741.19800,N,12224.24358,W,000.27,075.2,140616,016.4,E,A*2A
$IIRMB,A,0.00,L,M,X,4741.777000,N,12224.575000,W,0.6,339,-0.03,V*28
$DATA,IMU,0,3,3,0,EULER,326.75,10.375,-3.5,ACC,0.04,-0.02,-0.19,GRAV,1.77,0.59,9.62*6B
$GPGGA,030005.0,4741.19800,N,12224.24358,W,1,10,0.8,-6.6,M,-18.2,M,,*43
$GPVTG,075.2,T,058.7,M,000.27,N,0000.51,K,A*18
$GPGSA,A,3,25,02,29,05,31,18,21,26,16,20,,,1.4,0.8,1.1*3D
$HCHDG,272.1,0.0,E,,*2F
$YXXDR,A,6.0,D,PTCH,A,3.6,D,ROLL*5E
$DATA,IMU,0,3,3,0,EULER,326.75,10.375,-3.5,ACC,-0.01,0.02,-0.19,GRAV,1.77,0.59,9.62*6E
$IIMTW,+11.0,C*38
$GPRMC,030005.1,A,4741.19800,N,12224.24358,W,000.24,075.5,140616,016.4,E,A*2F
$IIRMB,A,0.00,L,M,X,4741.777000,N,12224.575000,W,0.6,339,-0.03,V*28
$GPGGA,030005.1,4741.19800,N,12224.24358,W,1,10,0.8,-6.6,M,-18.2,M,,*42
$GPVTG,075.5,T,059.0,M,000.24,N,0000.45,K,A*1F
$GPGSV,3,1,10,25,27,192,23,02,14,073,16,29,78,107,40,05,48,064,40*7E
$IIMWV,099,R,11.2,N,A*11
$GPGSV,3,2,10,31,03,264,23,18,15,204,23,21,45,262,43,26,29,309,44*75
$HCHDG,272.3,0.0,E,,*2D
$GPGSV,3,3,10,16,08,328,43,20,62,161,38*72
$YXXDR,A,6.0,D,PTCH,A,3.5,D,ROLL*5D
$GPRMC,030005.2,A,4741.19800,N,12224.24358,W,000.22,075.7,140616,016.4,E,A*28
$IIRMB,A,0.00,L,M,X,4741.777000,N,12224.575000,W,0.6,339,-0.03,V*28
$IIMWV,098,T,11.7,N,A*13
$DATA,IMU,0,3,3,0,EULER,326.75,10.375,-3.5,ACC,-0.09,-0.02,-0.21,GRAV,1.77,0.59,9.62*40
$GPGGA,030005.2,4741.19800,N,12224.24358,W,1,10,0.8,-6.6,M,-18.2,M,,*41
$GPVTG,075.7,T,059.3,M,000.22,N,0000.41,K,A*1C
$HCHDG,272.3,0.0,E,,*2D
$YXXDR,A,5.8,D,PTCH,A,3.5,D,ROLL*56
$TIROT,2.3,A*3A
$GPRMC,030005.3,A,4741.19800,N,12224.24358,W,000.21,076.0,140616,016.4,E,A*2E
$IIRMB,A,0.00,L,M,X,4741.777000,N,12224.575000,W,0.6,339,-0.03,V*28
$IIRMB,A,0.00,L,,X   ,,,,,000.6,339,,V,A*30
$GPGGA,030005.3,4741.19800,N,12224.24358,W,1,10,0.8,-6.6,M,-18.2,M,,*40
$DATA,IMU,0,3,3,0,EULER,326.6875,10.375,-3.4375,ACC,-0.16,-0.01,-0.35,GRAV,1.77,0.58,9.62*77
$GPVTG,076.0,T,059.5,M,000.21,N,0000.39,K,A*12
$HCHDG,272.4,0.0,E,,*2A
$YXXDR,A,5.7,D,PTCH,A,3.5,D,ROLL*59
$GPRMC,030005.4,A,4741.19800,N,12224.24358,W,000.20,076.3,140616,016.4,E,A*2B
$IIRMB,A,0.00,L,M,X,4741.777000,N,12224.575000,W,0.6,339,-0.03,V*28
$GPGGA,030005.4,4741.19800,N,12224.24358,W,1,10,0.8,-6.6,M,-18.2,M,,*47
$DATA,IMU,0,3,3,0,EULER,326.625,10.375,-3.4375,ACC,0.01,-0.01,-0.25,GRAV,1.77,0.58,9.62*60
$GPVTG,076.3,T,059.8,M,000.20,N,0000.37,K,A*13
$HCHDG,272.4,0.0,E,,*2A
$DATA,env,P,968.29296875,T,19.5*43
$YXXDR,A,5.6,D,PTCH,A,3.5,D,ROLL*58
$GPRMC,030005.5,A,4741.19800,N,12224.24358,W,000.22,076.5,140616,016.4,E,A*2E
$IIRMB,A,0.00,L,M,X,4741.777000,N,12224.575000,W,0.6,339,-0.03,V*28
$GPGGA,030005.5,4741.19800,N,12224.24358,W,1,10,0.8,-6.6,M,-18.2,M,,*46
$DATA,IMU,0,3,3,0,EULER,326.5625,10.375,-3.4375,ACC,0,-0.05,-0.32,GRAV,1.77,0.58,9.62*78
$GPVTG,076.5,T,060.1,M,000.22,N,0000.41,K,A*15
$HCHDG,272.2,0.0,E,,*2C
$YXXDR,A,5.6,D,PTCH,A,3.5,D,ROLL*58
$GPRMC,030005.6,A,4741.19800,N,12224.24358,W,000.23,076.5,140616,016.4,E,A*2C
$IIRMB,A,0.00,L,M,X,4741.777000,N,12224.575000,W,0.6,339,-0.03,V*28
$GPGGA,030005.6,4741.19800,N,12224.24358,W,1,09,0.9,-6.6,M,-18.2,M,,*4C
$DATA,IMU,0,3,3,0,EULER,326.5,10.375,-3.4375,ACC,0.02,-0.03,-0.29,GRAV,1.77,0.58,9.62*69
$GPVTG,076.5,T,060.1,M,000.23,N,0000.42,K,A*17
$HCHDG,272.3,0.0,E,,*2D
$YXXDR,A,5.6,D,PTCH,A,3.5,D,ROLL*58
$GPRMC,030005.7,A,4741.19800,N,12224.24358,W,000.27,076.5,140616,016.4,E,A*29
$IIRMB,A,0.00,L,M,X,4741.777000,N,12224.575000,W,0.6,339,-0.04,V*2F
$GPGGA,030005.7,4741.19800,N,12224.24358,W,1,09,0.9,-6.6,M,-18.2,M,,*4D
$DATA,IMU,0,3,3,0,EULER,326.4375,10.375,-3.4375,ACC,0.06,-0.02,-0.26,GRAV,1.77,0.57,9.62*5C
$GPVTG,076.5,T,060.1,M,000.27,N,0000.50,K,A*10
$HCHDG,272.5,0.0,E,,*2B
$YXXDR,A,5.6,D,PTCH,A,3.3,D,ROLL*5E
$GPRMC,030005.8,A,4741.19800,N,12224.24358,W,000.28,076.5,140616,016.4,E,A*29
$IIRMB,A,0.00,L,M,X,4741.777000,N,12224.575000,W,0.6,339,-0.04,V*2F
$GPGGA,030005.8,4741.19800,N,12224.24358,W,1,09,0.9,-6.6,M,-18.2,M,,*42
$DATA,IMU,0,3,3,0,EULER,326.375,10.375,-3.4375,ACC,0.06,0.03,-0.3,GRAV,1.77,0.58,9.62*7C
$GPVTG,076.5,T,060.1,M,000.28,N,0000.52,K,A*1D
$HCHDG,272.5,0.0,E,,*2B
$YXXDR,A,5.7,D,PTCH,A,3.5,D,ROLL*59
$GPRMC,030005.9,A,4741.19800,N,12224.24358,W,000.30,076.5,140616,016.4,E,A*21
$IIRMB,A,0.00,L,M,X,4741.777000,N,12224.575000,W,0.6,339,-0.04,V*2F
$GPGGA,030005.9,4741.19800,N,12224.24358,W,1,09,0.9,-6.6,M,-18.2,M,,*43
$GPVTG,076.5,T,060.1,M,000.30,N,0000.55,K,A*13
$DATA,IMU,0,3,3,0,EULER,326.375,10.375,-3.4375,ACC,0.07,0.04,-0.29,GRAV,1.77,0.58,9.62*42
$IIVHW,,,,,00.0,N,,*19
$HCHDG,272.5,0.0,E,,*2B
$YXXDR,A,5.7,D,PTCH,A,3.5,D,ROLL*59
$GPRMC,030006.0,A,4741.19800,N,12224.24359,W,000.33,076.5,140616,016.4,E,A*29
$IIRMB,A,0.00,L,M,X,4741.777000,N,12224.575000,W,0.6,339,-0.04,V*2F
$IIVLW,07547,N,007.4,N*51
$GPGGA,030006.0,4741.19800,N,12224.24359,W,1,10,0.8,-6.6,M,-18.2,M,,*41
$GPVTG,076.5,T,060.1,M,000.33,N,0000.61,K,A*17
$DATA,IMU,0,3,3,0,EULER,326.375,10.4375,-3.5,ACC,-0.12,0.08,-0.32,GRAV,1.77,0.59,9.62*68
$GPGSA,A,3,25,02,29,05,31,18,21,26,16,20,,,1.4,0.8,1.1*3D
$IIVWR,101,R,10.9,N,,,,*69
$HCHDG,272.5,0.0,E,,*2B
$YXXDR,A,5.8,D,PTCH,A,3.5,D,ROLL*56
$GPRMC,030006.1,A,4741.19800,N,12224.24359,W,000.32,076.5,140616,016.4,E,A*29
$IIRMB,A,0.00,L,M,X,4741.777000,N,12224.575000,W,0.6,339,-0.04,V*2F
$GPGGA,030006.1,4741.19800,N,12224.24359,W,1,10,0.8,-6.6,M,-18.2,M,,*40
$GPVTG,076.5,T,060.1,M,000.32,N,0000.59,K,A*1D
$DATA,IMU,0,3,3,0,EULER,326.375,10.4375,-3.5625,ACC,0.02,0.11,-0.28,GRAV,1.78,0.6,9.62*43
$GPGSV,3,1,10,25,27,192,22,02,14,073,16,29,78,107,41,05,48,064,39*70
$HCHDG,272.5,0.0,E,,*2B
$GPGSV,3,2,10,31,03,264,24,18,15,204,22,21,45,262,44,26,29,309,45*75
$GPGSV,3,3,10,16,08,328,42,20,62,161,38*73
$YXXDR,A,5.9,D,PTCH,A,3.6,D,ROLL*54
$GPRMC,030006.2,A,4741.19800,N,12224.24359,W,000.31,076.5,140616,016.4,E,A*29
$IIRMB,A,0.00,L,M,X,4741.777000,N,12224.575000,W,0.6,339,-0.04,V*2F
$GPGGA,030006.2,4741.19800,N,12224.24359,W,1,10,0.8,-6.6,M,-18.2,M,,*43
$GPVTG,076.5,T,060.1,M,000.31,N,0000.57,K,A*10
$IIMTW,+11.0,C*38
$DATA,IMU,0,3,3,0,EULER,326.375,10.5,-3.625,ACC,0.01,0.11,-0.27,GRAV,1.78,0.61,9.62*7B
$HCHDG,272.5,0.0,E,,*2B
$IIMWV,101,R,10.9,N,A*1B
$YXXDR,A,5.9,D,PTCH,A,3.6,D,ROLL*54
$TIROT,-19.9,A*27
$GPRMC,030006.3,A,4741.19800,N,12224.24359,W,000.29,076.5,140616,016.4,E,A*21
$IIRMB,A,0.00,L,M,X,4741.777000,N,12224.575000,W,0.6,339,-0.04,V*2F
$GPGGA,030006.3,4741.19800,N,12224.24359,W,1,10,0.8,-6.6,M,-18.2,M,,*42
$GPVTG,076.5,T,060.1,M,000.29,N,0000.54,K,A*1A
$IIMWV,099,T,11.2,N,A*17
$DATA,IMU,0,3,3,0,EULER,326.375,10.5,-3.625,ACC,-0.05,0.08,-0.27,GRAV,1.78,0.61,9.62*5A
$HCHDG,272.4,0.0,E,,*2A
$YXXDR,A,5.9,D,PTCH,A,3.7,D,ROLL*55
$GPRMC,030006.4,A,4741.19800,N,12224.24359,W,000.28,076.5,140616,016.4,E,A*27
$IIRMB,A,0.00,L,M,X,4741.777000,N,12224.575000,W,0.6,339,-0.04,V*2F
$GPGGA,030006.4,4741.19800,N,12224.24359,W,1,10,0.8,-6.6,M,-18.2,M,,*45
$GPVTG,076.5,T,060.1,M,000.28,N,0000.51,K,A*1E
$DATA,IMU,0,3,3,0,EULER,326.4375,10.5,-3.625,ACC,0.01,0.06,-0.34,GRAV,1.78,0.61,9.62*4B
$HCHDG,272.4,0.0,E,,*2A
$DATA,env,P,969.546875,T,19.49*7B
$YXXDR,A,5.7,D,PTCH,A,3.8,D,ROLL*54
$GPRMC,030006.5,A,4741.19800,N,12224.24359,W,000.27,076.5,140616,016.4,E,A*29
$IIRMB,A,0.00,L,M,X,4741.777000,N,12224.575000,W,0.6,339,-0.04,V*2F
$GPGGA,030006.5,4741.19800,N,12224.24359,W,1,10,0.8,-6.6,M,-18.2,M,,*44
$GPVTG,076.5,T,060.1,M,000.27,N,0000.51,K,A*11
$DATA,IMU,0,3,3,0,EULER,326.4375,10.5,-3.6875,ACC,0.07,0.03,-0.3,GRAV,1.79,0.62,9.62*43
$HCHDG,272.4,0.0,E,,*2A
$YXXDR,A,5.6,D,PTCH,A,3.8,D,ROLL*55
$GPRMC,030006.6,A,4741.19800,N,12224.24359,W,000.27,076.7,140616,016.4,E,A*28
$IIRMB,A,0.00,L,M,X,4741.777000,N,12224.575000,W,0.6,339,-0.04,V*2F
$GPGGA,030006.6,4741.19800,N,12224.24359,W,1,10,0.8,-6.6,M,-18.2,M,,*47
$GPVTG,076.7,T,060.2,M,000.27,N,0000.50,K,A*11
$DATA,IMU,0,3,3,0,EULER,326.4375,10.5625,-3.6875,ACC,0.08,0.04,-0.28,GRAV,1.8,0.62,9.61*76
$HCHDG,272.4,0.0,E,,*2A
$YXXDR,A,5.5,D,PTCH,A,3.8,D,ROLL*56
$GPRMC,030006.7,A,4741.19800,N,12224.24359,W,000.26,076.9,140616,016.4,E,A*26
$IIRMB,A,0.00,L,M,X,4741.777000,N,12224.575000,W,0.6,339,-0.04,V*2F
$GPGGA,030006.7,4741.19800,N,12224.24359,W,1,10,0.8,-6.6,M,-18.2,M,,*46
$GPVTG,076.9,T,060.4,M,000.26,N,0000.48,K,A*11
$DATA,IMU,0,3,3,0,EULER,326.4375,10.6875,-3.6875,ACC,0.06,0,-0.32,GRAV,1.82,0.62,9.61*63
$HCHDG,272.2,0.0,E,,*2C
$YXXDR,A,5.4,D,PTCH,A,3.9,D,ROLL*56
$GPRMC,030006.8,A,4741.19800,N,12224.24359,W,000.23,077.0,140616,016.4,E,A*24
$IIRMB,A,0.00,L,M,X,4741.777000,N,12224.575000,W,0.6,339,-0.03,V*28
$GPGGA,030006.8,4741.19800,N,12224.24359,W,1,10,0.8,-6.6,M,-18.2,M,,*49
$GPVTG,077.0,T,060.6,M,000.23,N,0000.42,K,A*14
$IIRMB,A,0.00,L,,X   ,,,,,000.6,339,,V,A*30
$DATA,IMU,0,3,3,0,EULER,326.4375,10.75,-3.6875,ACC,0.13,0.02,-0.35,GRAV,1.83,0.62,9.61*43
$HCHDG,272.2,0.0,E,,*2C
$YXXDR,A,5.4,D,PTCH,A,3.9,D,ROLL*56
$GPRMC,030006.9,A,4741.19800,N,12224.24359,W,000.25,077.2,140616,016.4,E,A*21
$IIRMB,A,0.00,L,M,X,4741.777000,N,12224.575000,W,0.6,339,-0.04,V*2F
$GPGGA,030006.9,4741.19800,N,12224.24359,W,1,10,0.8,-6.7,M,-18.2,M,,*49
$GPVTG,077.2,T,060.7,M,000.25,N,0000.47,K,A*14
$HCHDG,272.2,0.0,E,,*2C
$DATA,IMU,0,3,3,0,EULER,326.4375,10.8125,-3.6875,ACC,0.12,-0.02,-0.34,GRAV,1.84,0.62,9.61*65
$YXXDR,A,5.4,D,PTCH,A,3.8,D,ROLL*57
$GPRMC,030007.0,A,4741.19799,N,12224.24357,W,000.25,077.3,140616,016.4,E,A*29
$IIRMB,A,0.00,L,M,X,4741.777000,N,12224.575000,W,0.6,339,-0.04,V*2F
$GPGGA,030007.0,4741.19799,N,12224.24357,W,1,10,0.8,-6.7,M,-18.2,M,,*40
$GPVTG,077.3,T,060.9,M,000.25,N,0000.47,K,A*1B
$IIVHW,,,,,00.0,N,,*19
$GPGSA,A,3,25,02,29,05,31,18,21,26,16,20,,,1.4,0.8,1.1*3D
$HCHDG,272.2,0.0,E,,*2C
$YXXDR,A,5.4,D,PTCH,A,3.9,D,ROLL*56
$DATA,IMU,0,3,3,0,EULER,326.4375,10.8125,-3.6875,ACC,0.06,0,-0.25,GRAV,1.84,0.62,9.61*61
$IIVLW,07547,N,007.4,N*51
$GPRMC,030007.1,A,4741.19799,N,12224.24357,W,000.25,077.5,140616,016.4,E,A*2E
$IIRMB,A,0.00,L,M,X,4741.777000,N,12224.575000,W,0.6,339,-0.04,V*2F
$GPGGA,030007.1,4741.19799,N,12224.24357,W,1,10,0.8,-6.7,M,-18.2,M,,*41
$GPVTG,077.5,T,061.1,M,000.25,N,0000.46,K,A*15
$IIVWR,100,R,10.6,N,,,,*67
$GPGSV,3,1,10,25,27,192,23,02,14,073,16,29,78,107,42,05,48,064,39*72
$GPGSV,3,2,10,31,03,264,23,18,15,204,21,21,45,262,44,26,29,309,46*72
$GPGSV,3,3,10,16,08,328,42,20,62,161,37*7C
$GPRMC,030007.2,A,4741.19799,N,12224.24357,W,000.24,077.7,140616,016.4,E,A*2E
$IIRMB,A,0.00,L,M,X,4741.777000,N,12224.575000,W,0.6,339,-0.04,V*2F
$GPGGA,030007.2,4741.19799,N,12224.24357,W,1,10,0.8,-6.7,M,-18.2,M,,*42
$HCHDG,272.2,0.0,E,,*2C
$YXXDR,A,5.4,D,PTCH,A,3.9,D,ROLL*56
$GPVTG,077.7,T,061.2,M,000.24,N,0000.44,K,A*17
$HCHDG,272.1,0.0,E,,*2F
$YXXDR,A,5.4,D,PTCH,A,4.0,D,ROLL*58
$TIROT,-41.0,A*23
$DATA,IMU,0,3,3,0,EULER,326.375,10.8125,-3.6875,ACC,0.08,-0.02,-0.19,GRAV,1.84,0.62,9.61*55
$GPRMC,030007.3,A,4741.19799,N,12224.24357,W,000.20,077.8,140616,016.4,E,A*24
$IIRMB,A,0.00,L,M,X,4741.777000,N,12224.575000,W,0.6,339,-0.03,V*28
$GPGGA,030007.3,4741.19799,N,12224.24357,W,1,10,0.8,-6.7,M,-18.2,M,,*43
$IIMTW,+11.0,C*38
$GPVTG,077.8,T,061.4,M,000.20,N,0000.37,K,A*1E
$DATA,IMU,0,3,3,0,EULER,326.3125,10.875,-3.6875,ACC,0.12,0.02,-0.23,GRAV,1.85,0.62,9.61*7B
$HCHDG,272.0,0.0,E,,*2E
$YXXDR,A,5.6,D,PTCH,A,4.0,D,ROLL*5A
$GPRMC,030007.4,A,4741.19799,N,12224.24357,W,000.43,078.0,140616,016.4,E,A*21
$IIRMB,A,0.00,L,M,X,4741.777000,N,12224.575000,W,0.6,339,-0.07,V*2C
$GPGGA,030007.4,4741.19799,N,12224.24357,W,1,10,0.8,-6.7,M,-18.2,M,,*44
$GPVTG,078.0,T,061.5,M,000.43,N,0000.80,K,A*11
$DATA,IMU,0,3,3,0,EULER,326.3125,10.875,-3.6875,ACC,0.17,0.05,-0.23,GRAV,1.85,0.62,9.61*79
$HCHDG,272.0,0.0,E,,*2E
$DATA,env,P,968.29296875,T,19.5*43
$YXXDR,A,5.5,D,PTCH,A,4.2,D,ROLL*5B
$GPRMC,030007.5,A,4741.19799,N,12224.24357,W,000.92,078.2,140616,016.4,E,A*2E
$IIRMB,A,0.00,L,M,X,4741.777000,N,12224.575000,W,0.6,339,-0.15,V*2F
$GPGGA,030007.5,4741.19799,N,12224.24357,W,1,10,0.8,-6.7,M,-18.2,M,,*45
$GPVTG,078.2,T,061.7,M,000.92,N,0001.70,K,A*13
$DATA,IMU,0,3,3,0,EULER,326.3125,10.875,-3.6875,ACC,0.22,0.06,-0.25,GRAV,1.85,0.62,9.6*4B
$HCHDG,271.9,0.0,E,,*24
$YXXDR,A,5.6,D,PTCH,A,4.1,D,ROLL*5B
$GPRMC,030007.6,A,4741.19799,N,12224.24357,W,000.30,078.2,140616,016.4,E,A*25
$IIRMB,A,0.00,L,M,X,4741.777000,N,12224.575000,W,0.6,339,-0.05,V*2E
$GPGGA,030007.6,4741.19799,N,12224.24357,W,1,10,0.8,-6.7,M,-18.2,M,,*46
$GPVTG,078.2,T,061.7,M,000.30,N,0000.56,K,A*1E
$DATA,IMU,0,3,3,0,EULER,326.3125,11,-3.6875,ACC,0.2,0,-0.19,GRAV,1.87,0.62,9.6*49
$HCHDG,271.9,0.0,E,,*24
$YXXDR,A,5.6,D,PTCH,A,4.2,D,ROLL*58
$GPRMC,030007.7,A,4741.19799,N,12224.24357,W,000.28,078.2,140616,016.4,E,A*2D
$IIRMB,A,0.00,L,M,X,4741.777000,N,12224.575000,W,0.6,339,-0.05,V*2E
$GPGGA,030007.7,4741.19799,N,12224.24357,W,1,10,0.8,-6.7,M,-18.2,M,,*47
$GPVTG,078.2,T,061.7,M,000.28,N,0000.51,K,A*10
$DATA,IMU,0,3,3,0,EULER,326.3125,11,-3.6875,ACC,0.17,-0.08,-0.23,GRAV,1.88,0.62,9.6*70
$HCHDG,271.8,0.0,E,,*25
$YXXDR,A,5.7,D,PTCH,A,4.4,D,ROLL*5F
$IIMWV,102,R,09.9,N,A*10
$GPRMC,030007.8,A,4741.19799,N,12224.24357,W,000.27,078.2,140616,016.4,E,A*2D
$IIRMB,A,0.00,L,M,X,4741.777000,N,12224.575000,W,0.6,339,-0.04,V*2F
$GPGGA,030007.8,4741.19799,N,12224.24357,W,1,10,0.8,-6.7,M,-18.2,M,,*48
$GPVTG,078.2,T,061.7,M,000.27,N,0000.49,K,A*16
$IIMWV,100,T,10.6,N,A*13
$DATA,IMU,0,3,3,0,EULER,326.3125,11.0625,-3.6875,ACC,0.12,-0.07,-0.32,GRAV,1.88,0.61,9.6*56
$HCHDG,271.8,0.0,E,,*25
$YXXDR,A,5.7,D,PTCH,A,4.6,D,ROLL*5D
$GPRMC,030007.9,A,4741.19799,N,12224.24357,W,000.26,078.2,140616,016.4,E,A*2D
$IIRMB,A,0.00,L,M,X,4741.777000,N,12224.575000,W,0.6,339,-0.04,V*2F
$GPGGA,030007.9,4741.19799,N,12224.24357,W,1,10,0.8,-6.7,M,-18.2,M,,*49
$GPVTG,078.2,T,061.7,M,000.26,N,0000.47,K,A*19
$IIRMB,A,0.00,L,,X   ,,,,,000.6,339,,V,A*30
$HCHDG,271.7,0.0,E,,*2A
$DATA,IMU,0,3,3,0,EULER,326.3125,11.0625,-3.6875,ACC,0.01,0.03,-0.32,GRAV,1.88,0.62,9.6*7E
$YXXDR,A,5.7,D,PTCH,A,4.8,D,ROLL*53
$GPRMC,030008.0,A,4741.19799,N,12224.24357,W,000.23,078.2,140616,016.4,E,A*2E
$IIRMB,A,0.00,L,M,X,4741.777000,N,12224.575000,W,0.6,339,-0.04,V*2F
$GPGGA,030008.0,4741.19799,N,12224.24357,W,1,10,0.8,-6.7,M,-18.2,M,,*4F
$GPVTG,078.2,T,061.7,M,000.23,N,0000.43,K,A*18
$GPGSA,A,3,25,02,29,05,31,18,21,26,16,20,,,1.4,0.8,1.1*3D
$DATA,IMU,0,3,3,0,EULER,326.3125,11.0625,-3.75,ACC,0.08,0.03,-0.34,GRAV,1.88,0.63,9.6*7E
$HCHDG,271.7,0.0,E,,*2A
$YXXDR,A,5.7,D,PTCH,A,4.8,D,ROLL*53
$GPRMC,030008.1,A,4741.19799,N,12224.24357,W,000.26,078.2,140616,016.4,E,A*2A
$IIRMB,A,0.00,L,M,X,4741.777000,N,12224.575000,W,0.6,339,-0.04,V*2F
$GPGGA,030008.1,4741.19799,N,12224.24357,W,1,10,0.8,-6.7,M,-18.2,M,,*4E
$IIVHW,,,,,00.0,N,,*19
$GPVTG,078.2,T,061.7,M,000.26,N,0000.49,K,A*17
$HCHDG,271.5,0.0,E,,*28
$GPGSV,3,1,10,25,27,192,24,02,14,073,16,29,78,107,43,05,48,064,39*74
$YXXDR,A,5.6,D,PTCH,A,4.9,D,ROLL*53
$DATA,IMU,0,3,3,0,EULER,326.25,11.125,-3.875,ACC,0.09,0.03,-0.3,GRAV,1.9,0.65,9.59*43
$GPGSV,3,2,10,31,03,264,25,18,15,204,19,21,45,262,44,26,29,309,46*7F
$GPGSV,3,3,10,16,08,328,42,20,62,161,36*7D
$IIVLW,07547,N,007.4,N*51
$GPRMC,030008.2,A,4741.19799,N,12224.24357,W,000.33,078.2,140616,016.4,E,A*2D
$IIRMB,A,0.00,L,M,X,4741.777000,N,12224.575000,W,0.6,339,-0.05,V*2E
$GPGGA,030008.2,4741.19799,N,12224.24357,W,1,10,0.8,-6.7,M,-18.2,M,,*4D
$GPVTG,078.2,T,061.7,M,000.33,N,0000.60,K,A*18
$IIVWR,102,R,09.9,N,,,,*62
$HCHDG,271.4,0.0,E,,*29
$GPRMC,030008.3,A,4741.19799,N,12224.24357,W,000.33,078.2,140616,016.4,E,A*2C
$IIRMB,A,0.00,L,M,X,4741.777000,N,12224.575000,W,0.6,339,-0.05,V*2E
$YXXDR,A,5.5,D,PTCH,A,5.0,D,ROLL*58
$TIROT,-55.9,A*2F
$GPGGA,030008.3,4741.19799,N,12224.24357,W,1,10,0.8,-6.7,M,-18.2,M,,*4C
$DATA,IMU,0,3,3,0,EULER,326.3125,11.1875,-3.9375,ACC,0.1,0,-0.26,GRAV,1.9,0.67,9.59*6E
$GPVTG,078.2,T,061.7,M,000.33,N,0000.62,K,A*1A
$GPRMC,030008.4,A,4741.19799,N,12224.24357,W,000.33,078.2,140616,016.4,E,A*2B
$IIRMB,A,0.00,L,M,X,4741.777000,N,12224.575000,W,0.6,339,-0.05,V*2E
$HCHDG,271.4,0.0,E,,*29
$GPGGA,030008.4,4741.19799,N,12224.24357,W,1,10,0.8,-6.7,M,-18.2,M,,*4B
$DATA,IMU,0,3,3,0,EULER,326.3125,11.1875,-4,ACC,0.06,-0.01,-0.33,GRAV,1.91,0.68,9.59*40
$GPVTG,078.2,T,061.7,M,000.33,N,0000.61,K,A*19
$YXXDR,A,5.5,D,PTCH,A,5.0,D,ROLL*58
$HCHDG,271.2,0.0,E,,*2F
$GPRMC,030008.5,A,4741.19799,N,12224.24357,W,000.31,078.2,140616,016.4,E,A*28
$IIRMB,A,0.00,L,M,X,4741.777000,N,12224.575000,W,0.6,339,-0.05,V*2E
$YXXDR,A,5.6,D,PTCH,A,5.1,D,ROLL*5A
$DATA,env,P,968.29296875,T,19.5*43
$GPGGA,030008.5,4741.19799,N,12224.24357,W,1,10,0.8,-6.7,M,-18.2,M,,*4A
$GPVTG,078.2,T,061.7,M,000.31,N,0000.57,K,A*1E
$DATA,IMU,0,3,3,0,EULER,326.3125,11.25,-4.0625,ACC,0.07,-0.05,-0.32,GRAV,1.91,0.68,9.59*67
$HCHDG,271.3,0.0,E,,*2E
$GPRMC,030008.6,A,4741.19799,N,12224.24355,W,000.32,078.2,140616,016.4,E,A*2A
$IIRMB,A,0.00,L,M,X,4741.777000,N,12224.575000,W,0.6,339,-0.05,V*2E
$YXXDR,A,5.6,D,PTCH,A,5.1,D,ROLL*5A
$GPGGA,030008.6,4741.19799,N,12224.24355,W,1,10,0.8,-6.7,M,-18.2,M,,*4B
$GPVTG,078.2,T,061.7,M,000.32,N,0000.58,K,A*12
$DATA,IMU,0,3,3,0,EULER,326.3125,11.3125,-4.0625,ACC,0.1,-0.01,-0.26,GRAV,1.93,0.68,9.59*50
$GPRMC,030008.7,A,4741.19799,N,12224.24355,W,000.32,078.0,140616,016.4,E,A*29
$IIRMB,A,0.00,L,M,X,4741.777000,N,12224.575000,W,0.6,339,-0.05,V*2E
$HCHDG,271.1,0.0,E,,*2C
$GPGGA,030008.7,4741.19799,N,12224.24355,W,1,10,0.8,-6.7,M,-18.2,M,,*4A
$YXXDR,A,5.5,D,PTCH,A,5.1,D,ROLL*59
$GPVTG,078.0,T,061.5,M,000.32,N,0000.60,K,A*19
$DATA,IMU,0,3,3,0,EULER,326.3125,11.375,-4.0625,ACC,0.1,0,-0.29,GRAV,1.94,0.68,9.58*6F
$HCHDG,271.2,0.0,E,,*2F
$GPRMC,030008.8,A,4741.19799,N,12224.24355,W,000.30,077.8,140616,016.4,E,A*23
$IIRMB,A,0.00,L,M,X,4741.777000,N,12224.575000,W,0.6,339,-0.05,V*2E
$YXXDR,A,5.4,D,PTCH,A,5.2,D,ROLL*5B
$GPGGA,030008.8,4741.19799,N,12224.24355,W,1,10,0.8,-6.7,M,-18.2,M,,*45
$GPVTG,077.8,T,061.4,M,000.30,N,0000.56,K,A*18
$DATA,IMU,0,3,3,0,EULER,326.3125,11.5,-4.0625,ACC,0.18,-0.05,-0.32,GRAV,1.95,0.68,9.58*5E
$HCHDG,271.1,0.0,E,,*2C
$GPRMC,030008.9,A,4741.19799,N,12224.24355,W,000.29,077.6,140616,016.4,E,A*24
$IIRMB,A,0.00,L,M,X,4741.777000,N,12224.575000,W,0.6,339,-0.04,V*2F
$YXXDR,A,5.5,D,PTCH,A,5.1,D,ROLL*59
$IIMTW,+11.0,C*38
$GPGGA,030008.9,4741.19799,N,12224.24355,W,1,10,0.8,-6.7,M,-18.2,M,,*44
$GPVTG,077.6,T,061.2,M,000.29,N,0000.54,K,A*1A
$DATA,IMU,0,3,3,0,EULER,326.3125,11.5625,-4.0625,ACC,0.18,-0.04,-0.28,GRAV,1.97,0.68,9.58*67
$IIMWV,105,R,09.4,N,A*1A
$GPRMC,030009.0,A,4741.19799,N,12224.24355,W,000.25,077.5,140616,016.4,E,A*23
$IIRMB,A,0.00,L,M,X,4741.777000,N,12224.575000,W,0.6,339,-0.04,V*2F
$HCHDG,271.0,0.0,E,,*2D
$GPGGA,030009.0,4741.19799,N,12224.24355,W,1,10,0.8,-6.7,M,-18.2,M,,*4C
$YXXDR,A,5.6,D,PTCH,A,5.1,D,ROLL*5A
$IIMWV,102,T,09.9,N,A*16
$GPVTG,077.5,T,061.0,M,000.25,N,0000.46,K,A*14
$GPGSA,A,3,25,02,29,05,31,18,21,26,16,20,,,1.4,0.8,1.1*3D
$DATA,IMU,0,3,3,0,EULER,326.3125,11.6875,-4,ACC,0.15,-0.02,-0.25,GRAV,1.99,0.68,9.57*47
$HCHDG,270.9,0.0,E,,*25
$GPRMC,030009.1,A,4741.19799,N,12224.24355,W,000.27,077.3,140616,016.4,E,A*26
$IIRMB,A,0.00,L,M,X,4741.777000,N,12224.575000,W,0.6,339,-0.04,V*2F
$YXXDR,A,5.6,D,PTCH,A,5.1,D,ROLL*5A
$IIRMB,A,0.00,L,,X   ,,,,,000.6,339,,V,A*30
$GPGGA,030009.1,4741.19799,N,12224.24355,W,1,10,0.8,-6.7,M,-18.2,M,,*4D
$GPVTG,077.3,T,060.9,M,000.27,N,0000.51,K,A*1E
$DATA,IMU,0,3,3,0,EULER,326.3125,11.8125,-4,ACC,0.23,-0.01,-0.23,GRAV,2.01,0.67,9.57*48
$GPGSV,3,1,10,25,27,192,24,02,14,073,15,29,78,107,43,05,48,064,39*77
$GPGSV,3,2,10,31,03,264,27,18,15,204,19,21,45,262,44,26,29,309,46*7D
$GPGSV,3,3,10,16,08,328,43,20,62,161,37*7D
$HCHDG,270.8,0.0,E,,*24
$GPRMC,030009.2,A,4741.19799,N,12224.24355,W,000.30,077.1,140616,016.4,E,A*21
$IIRMB,A,0.00,L,M,X,4741.777000,N,12224.575000,W,0.6,339,-0.04,V*2F
$YXXDR,A,5.6,D,PTCH,A,5.2,D,ROLL*59
$GPGGA,030009.2,4741.19799,N,12224.24355,W,1,10,0.8,-6.7,M,-18.2,M,,*4E
$GPVTG,077.1,T,060.7,M,000.30,N,0000.56,K,A*13
$DATA,IMU,0,3,3,0,EULER,326.3125,11.875,-4,ACC,0.21,0.06,-0.21,GRAV,2.02,0.67,9.57*55
$GPRMC,030009.3,A,4741.19799,N,12224.24355,W,000.33,077.0,140616,016.4,E,A*22
$IIRMB,A,0.00,L,M,X,4741.777000,N,12224.575000,W,0.6,339,-0.05,V*2E
$HCHDG,270.8,0.0,E,,*24
$IIVHW,,,,,00.0,N,,*19
$GPGGA,030009.3,4741.19799,N,12224.24355,W,1,10,0.8,-6.7,M,-18.2,M,,*4F
$YXXDR,A,5.6,D,PTCH,A,5.2,D,ROLL*59
$TIROT,-46.9,A*2D
$GPVTG,077.0,T,060.5,M,000.33,N,0000.61,K,A*17
$DATA,IMU,0,3,3,0,EULER,326.3125,11.9375,-4,ACC,0.23,-0.03,-0.16,GRAV,2.03,0.67,9.57*48
$IIVLW,07547,N,007.4,N*51
$HCHDG,270.7,0.0,E,,*2B
$GPRMC,030009.4,A,4741.19799,N,12224.24355,W,000.34,076.8,140616,016.4,E,A*2B
$IIRMB,A,0.00,L,M,X,4741.777000,N,12224.575000,W,0.6,339,-0.05,V*2E
$YXXDR,A,5.6,D,PTCH,A,5.2,D,ROLL*59
$GPGGA,030009.4,4741.19799,N,12224.24355,W,1,10,0.8,-6.7,M,-18.2,M,,*48
$GPVTG,076.8,T,060.4,M,000.34,N,0000.63,K,A*1A
$DATA,IMU,0,3,3,0,EULER,326.25,11.9375,-4,ACC,0.08,0,-0.17,GRAV,2.03,0.67,9.57*42
$HCHDG,270.7,0.0,E,,*2B
$GPRMC,030009.5,A,4741.19797,N,12224.24360,W,000.39,076.6,140616,016.4,E,A*21
$IIRMB,A,0.00,L,M,X,4741.777000,N,12224.575000,W,0.6,339,-0.05,V*2E
$YXXDR,A,5.6,D,PTCH,A,5.5,D,ROLL*5E
$DATA,env,P,969.546875,T,19.49*7B
$GPGGA,030009.5,4741.19797,N,12224.24360,W,1,10,0.8,-6.7,M,-18.2,M,,*41
$GPVTG,076.6,T,060.2,M,000.39,N,0000.73,K,A*1E
$DATA,IMU,0,3,3,0,EULER,326.25,11.9375,-4,ACC,0.15,0.01,-0.2,GRAV,2.03,0.67,9.57*55
$HCHDG,270.7,0.0,E,,*2B
$GPRMC,030009.6,A,4741.19797,N,12224.24360,W,000.37,076.5,140616,016.4,E,A*2F
$IIRMB,A,0.00,L,M,X,4741.777000,N,12224.575000,W,0.6,339,-0.05,V*2E
$YXXDR,A,5.6,D,PTCH,A,5.5,D,ROLL*5E
$GPGGA,030009.6,4741.19797,N,12224.24360,W,1,10,0.8,-6.7,M,-18.2,M,,*42
$GPVTG,076.5,T,060.0,M,000.37,N,0000.69,K,A*1A
$DATA,IMU,0,3,3,0,EULER,326.3125,11.875,-4,ACC,0.08,0,-0.17,GRAV,2.02,0.67,9.57*73
$HCHDG,270.6,0.0,E,,*2A
$GPRMC,030009.7,A,4741.19797,N,12224.24360,W,000.40,076.5,140616,016.4,E,A*2E
$IIRMB,A,0.00,L,M,X,4741.777000,N,12224.575000,W,0.6,339,-0.05,V*2E
$YXXDR,A,5.6,D,PTCH,A,5.6,D,ROLL*5D
$GPGGA,030009.7,4741.19797,N,12224.24360,W,1,10,0.8,-6.7,M,-18.2,M,,*43
$GPVTG,076.5,T,060.1,M,000.40,N,0000.74,K,A*17
$DATA,IMU,0,3,3,0,EULER,326.3125,11.8125,-4,ACC,0.08,-0.05,-0.21,GRAV,2.01,0.67,9.57*47
$HCHDG,270.6,0.0,E,,*2A
$GPRMC,030009.8,A,4741.19797,N,12224.24360,W,000.37,076.5,140616,016.4,E,A*21
$IIRMB,A,0.00,L,M,X,4741.777000,N,12224.575000,W,0.6,339,-0.05,V*2E
$YXXDR,A,5.6,D,PTCH,A,5.6,D,ROLL*5D
$GPGGA,030009.8,4741.19797,N,12224.24360,W,1,10,0.8,-6.7,M,-18.2,M,,*4C
$GPVTG,076.5,T,060.1,M,000.37,N,0000.69,K,A*1B
$IIVWR,106,R,09.0,N,,,,*6F
$DATA,IMU,0,3,3,0,EULER,326.4375,11.75,-4,ACC,0.03,-0.05,-0.22,GRAV,1.99,0.67,9.57*41
$HCHDG,270.6,0.0,E,,*2A
$GPRMC,030009.9,A,4741.19797,N,12224.24360,W,000.32,076.6,140616,016.4,E,A*26
$IIRMB,A,0.00,L,M,X,4741.777000,N,12224.575000,W,0.6,339,-0.04,V*2F
$YXXDR,A,5.6,D,PTCH,A,5.6,D,ROLL*5D
$GPGGA,030009.9,4741.19797,N,12224.24360,W,1,10,0.8,-6.6,M,-18.2,M,,*4C
$GPVTG,076.6,T,060.1,M,000.32,N,0000.59,K,A*1E
$DATA,IMU,0,3,3,0,EULER,326.5,11.6875,-4,ACC,0.03,-0.02,-0.22,GRAV,1.98,0.67,9.57*79
$HCHDG,270.6,0.0,E,,*2A
$GPRMC,030010.0,A,4741.19797,N,12224.24360,W,000.28,076.6,140616,016.4,E,A*2C
$IIRMB,A,0.00,L,M,X,4741.777000,N,12224.575000,W,0.6,339,-0.04,V*2F
$YXXDR,A,5.6,D,PTCH,A,5.6,D,ROLL*5D
$IIMTW,+11.0,C*38
$GPGGA,030010.0,4741.19797,N,12224.24360,W,1,08,1.1,-6.6,M,-18.2,M,,*4C
$GPVTG,076.6,T,060.2,M,000.28,N,0000.52,K,A*1D
$GPGSA,A,3,25,29,05,31,18,21,26,16,,,,,1.9,1.1,1.5*3C
$DATA,IMU,0,3,3,0,EULER,326.5625,11.625,-4,ACC,0.02,-0.03,-0.2,GRAV,1.97,0.67,9.58*47
$IIMWV,106,R,09.0,N,A*1D
$HCHDG,270.5,0.0,E,,*29
$GPRMC,030010.1,A,4741.19797,N,12224.24360,W,000.24,076.7,140616,016.4,E,A*20
$IIRMB,A,0.00,L,M,X,4741.777000,N,12224.575000,W,0.6,339,-0.03,V*28
$YXXDR,A,5.6,D,PTCH,A,5.7,D,ROLL*5C
$GPGGA,030010.1,4741.19797,N,12224.24360,W,1,08,1.1,-6.6,M,-18.2,M,,*4D
$IIMWV,105,T,09.4,N,A*1C
$GPVTG,076.7,T,060.2,M,000.24,N,0000.44,K,A*17
$GPGSV,3,1,09,25,27,192,25,02,14,073,14,29,78,107,43,05,48,064,38*7E
$GPGSV,3,2,09,31,03,264,26,18,15,204,19,21,45,262,44,26,29,309,45*77
$DATA,IMU,0,3,3,0,EULER,326.625,11.5,-4,ACC,0.04,-0.08,-0.27,GRAV,1.96,0.67,9.58*4D
$GPGSV,3,3,09,16,08,328,43*41
$HCHDG,270.5,0.0,E,,*29
$GPRMC,030010.2,A,4741.19797,N,12224.24360,W,000.27,076.7,140616,016.4,E,A*20
$IIRMB,A,0.00,L,M,X,4741.777000,N,12224.575000,W,0.6,339,-0.04,V*2F
$YXXDR,A,5.6,D,PTCH,A,5.7,D,ROLL*5C
$IIRMB,A,0.00,L,,X   ,,,,,000.6,339,,V,A*30
$GPGGA,030010.2,4741.19797,N,12224.24360,W,1,08,1.1,-6.6,M,-18.2,M,,*4E
$GPVTG,076.7,T,060.3,M,000.27,N,0000.50,K,A*10
$DATA,IMU,0,3,3,0,EULER,326.6875,11.4375,-4.0625,ACC,0.05,-0.14,-0.31,GRAV,1.95,0.68,9.58*68
$HCHDG,270.4,0.0,E,,*28
$GPRMC,030010.3,A,4741.19797,N,12224.24360,W,000.24,076.8,140616,016.4,E,A*2D
$IIRMB,A,0.00,L,M,X,4741.777000,N,12224.575000,W,0.6,339,-0.03,V*28
$YXXDR,A,5.6,D,PTCH,A,5.6,D,ROLL*5D
$TIROT,-13.5,A*21
$GPGGA,030010.3,4741.19797,N,12224.24360,W,1,08,1.1,-6.6,M,-18.2,M,,*4F
$GPVTG,076.8,T,060.3,M,000.24,N,0000.44,K,A*19
$DATA,IMU,0,3,3,0,EULER,326.75,11.375,-4.125,ACC,-0.04,-0.08,-0.31,GRAV,1.94,0.69,9.58*44
$HCHDG,270.4,0.0,E,,*28
$GPRMC,030010.4,A,4741.19797,N,12224.24360,W,000.22,076.8,140616,016.4,E,A*2C
$IIRMB,A,0.00,L,M,X,4741.777000,N,12224.575000,W,0.6,339,-0.03,V*28
$YXXDR,A,5.8,D,PTCH,A,5.4,D,ROLL*51
$GPGGA,030010.4,4741.19797,N,12224.24360,W,1,08,1.1,-6.6,M,-18.2,M,,*48
$GPVTG,076.8,T,060.4,M,000.22,N,0000.41,K,A*1D
$DATA,IMU,0,3,3,0,EULER,326.8125,11.375,-4.1875,ACC,0,-0.03,-0.3,GRAV,1.93,0.7,9.58*77
$HCHDG,270.4,0.0,E,,*28
$GPRMC,030010.5,A,4741.19797,N,12224.24360,W,000.20,076.9,140616,016.4,E,A*2E
$IIRMB,A,0.00,L,M,X,4741.777000,N,12224.575000,W,0.6,339,-0.03,V*28
$YXXDR,A,5.8,D,PTCH,A,5.3,D,ROLL*56
$DATA,env,P,968.4765625,T,19.5*7E
$GPGGA,030010.5,4741.19797,N,12224.24360,W,1,08,1.1,-6.6,M,-18.2,M,,*49
$GPVTG,076.9,T,060.4,M,000.20,N,0000.38,K,A*10
$DATA,IMU,0,3,3,0,EULER,326.875,11.375,-4.25,ACC,0.02,-0.11,-0.4,GRAV,1.93,0.72,9.58*55
$HCHDG,270.2,0.0,E,,*2E
$GPRMC,030010.6,A,4741.19797,N,12224.24360,W,000.22,076.9,140616,016.4,E,A*2F
$IIRMB,A,0.00,L,M,X,4741.777000,N,12224.575000,W,0.6,339,-0.03,V*28
$YXXDR,A,5.8,D,PTCH,A,5.1,D,ROLL*54
$GPGGA,030010.6,4741.19797,N,12224.24360,W,1,07,1.2,-6.6,M,-18.2,M,,*46
$GPVTG,076.9,T,060.5,M,000.22,N,0000.41,K,A*1D
$DATA,IMU,0,3,3,0,EULER,326.9375,11.3125,-4.375,ACC,0,-0.06,-0.39,GRAV,1.93,0.73,9.58*70
$HCHDG,270.4,0.0,E,,*28
$GPRMC,030010.7,A,4741.19793,N,12224.24365,W,000.20,076.9,140616,016.4,E,A*2D
$IIRMB,A,0.00,L,M,X,4741.777000,N,12224.575000,W,0.6,339,-0.03,V*28
$YXXDR,A,5.7,D,PTCH,A,5.0,D,ROLL*5A
$GPGGA,030010.7,4741.19793,N,12224.24365,W,1,07,1.2,-6.6,M,-18.2,M,,*46
$GPVTG,076.9,T,060.5,M,000.20,N,0000.37,K,A*1E
$DATA,IMU,0,3,3,0,EULER,326.9375,11.3125,-4.4375,ACC,0.02,-0.07,-0.4,GRAV,1.93,0.74,9.58*50
$HCHDG,270.4,0.0,E,,*28
$GPRMC,030010.8,A,4741.19793,N,12224.24365,W,000.20,076.9,140616,016.4,E,A*22
$IIRMB,A,0.00,L,M,X,4741.777000,N,12224.575000,W,0.6,339,-0.03,V*28
$YXXDR,A,5.7,D,PTCH,A,5.0,D,ROLL*5A
$GPGGA,030010.8,4741.19793,N,12224.24365,W,1,08,1.1,-6.6,M,-18.2,M,,*45
$IIVHW,,,,,00.0,N,,*19
$GPVTG,076.9,T,060.5,M,000.20,N,0000.38,K,A*11
$IIVLW,07547,N,007.4,N*51
$DATA,IMU,0,3,3,0,EULER,326.9375,11.3125,-4.4375,ACC,0.03,-0.04,-0.34,GRAV,1.93,0.74,9.58*61
$HCHDG,270.4,0.0,E,,*28
$YXXDR,A,5.7,D,PTCH,A,5.0,D,ROLL*5A
$GPRMC,030010.9,A,4741.19793,N,12224.24365,W,000.20,076.9,140616,016.4,E,A*23
$IIRMB,A,0.00,L,M,X,4741.777000,N,12224.575000,W,0.6,339,-0.03,V*28
$GPGGA,030010.9,4741.19793,N,12224.24365,W,1,08,1.1,-6.6,M,-18.2,M,,*44
$GPVTG,076.9,T,060.5,M,000.20,N,0000.38,K,A*11
$IIVWR,107,R,08.9,N,,,,*66
$DATA,IMU,0,3,3,0,EULER,326.9375,11.3125,-4.4375,ACC,0,-0.07,-0.32,GRAV,1.93,0.74,9.58*49
$HCHDG,270.3,0.0,E,,*2F
$GPRMC,030011.0,A,4741.19793,N,12224.24365,W,000.20,076.9,140616,016.4,E,A*2B
$IIRMB,A,0.00,L,M,X,4741.777000,N,12224.575000,W,0.6,339,-0.03,V*28
$YXXDR,A,5.6,D,PTCH,A,4.9,D,ROLL*53
$GPGGA,030011.0,4741.19793,N,12224.24365,W,1,08,1.1,-6.6,M,-18.2,M,,*4C
$GPVTG,076.9,T,060.5,M,000.20,N,0000.36,K,A*1F
$GPGSA,A,3,25,29,05,31,18,21,26,16,,,,,1.9,1.1,1.5*3C
$HCHDG,270.3,0.0,E,,*2F
$DATA,IMU,0,3,3,0,EULER,326.9375,11.3125,-4.4375,ACC,0,-0.1,-0.28,GRAV,1.93,0.74,9.58*74
$GPRMC,030011.1,A,4741.19790,N,12224.24367,W,000.64,076.9,140616,016.4,E,A*2B
$IIRMB,A,0.00,L,M,X,4741.777000,N,12224.575000,W,0.6,339,-0.09,V*22
$YXXDR,A,5.5,D,PTCH,A,4.7,D,ROLL*5E
$GPGGA,030011.1,4741.19790,N,12224.24367,W,1,08,1.1,-6.6,M,-18.2,M,,*4C
$IIMTW,+11.0,C*38
$GPVTG,076.9,T,060.5,M,000.64,N,0001.18,K,A*12
$GPGSV,3,1,09,25,27,192,25,02,14,073,13,29,78,107,42,05,48,064,38*78
$GPGSV,3,2,09,31,03,264,27,18,15,204,19,21,45,262,42,26,29,309,44*71
$IIMWV,107,R,08.9,N,A*14
$GPGSV,3,3,09,16,08,328,43*41
$HCHDG,270.3,0.0,E,,*2F
$DATA,IMU,0,3,3,0,EULER,326.9375,11.375,-4.4375,ACC,0,-0.06,-0.27,GRAV,1.93,0.74,9.58*78
$GPRMC,030011.2,A,4741.19790,N,12224.24367,W,000.57,076.9,140616,016.4,E,A*28
$IIRMB,A,0.00,L,M,X,4741.777000,N,12224.575000,W,0.6,339,-0.08,V*23
$YXXDR,A,5.5,D,PTCH,A,4.7,D,ROLL*5E
$GPGGA,030011.2,4741.19790,N,12224.24367,W,1,08,1.1,-6.6,M,-18.2,M,,*4F
$IIMWV,106,T,09.0,N,A*1B
$GPVTG,076.9,T,060.5,M,000.57,N,0001.06,K,A*1D
$HCHDG,270.4,0.0,E,,*28
$DATA,IMU,0,3,3,0,EULER,326.9375,11.375,-4.4375,ACC,0.02,-0.1,-0.26,GRAV,1.94,0.74,9.58*65
$GPRMC,030011.3,A,4741.19790,N,12224.24367,W,000.55,076.9,140616,016.4,E,A*2B
$IIRMB,A,0.00,L,M,X,4741.777000,N,12224.575000,W,0.6,339,-0.08,V*23
$YXXDR,A,5.4,D,PTCH,A,4.6,D,ROLL*5E
$TIROT,-5.8,A*1B
$GPGGA,030011.3,4741.19790,N,12224.24367,W,1,08,1.1,-6.6,M,-18.2,M,,*4E
$IIRMB,A,0.00,L,,X   ,,,,,000.6,339,,V,A*30
$GPVTG,076.9,T,060.5,M,000.55,N,0001.02,K,A*1B
$HCHDG,270.2,0.0,E,,*2E
$YXXDR,A,5.4,D,PTCH,A,4.6,D,ROLL*5E
$GPRMC,030011.4,A,4741.19790,N,12224.24367,W,000.48,076.9,140616,016.4,E,A*20
$IIRMB,A,0.00,L,M,X,4741.777000,N,12224.575000,W,0.6,339,-0.07,V*2C
$GPGGA,030011.4,4741.19790,N,12224.24367,W,1,08,1.1,-6.6,M,-18.2,M,,*49
$GPVTG,076.9,T,060.5,M,000.48,N,0000.88,K,A*14
$DATA,IMU,0,3,3,0,EULER,326.9375,11.4375,-4.4375,ACC,0.05,-0.09,-0.2,GRAV,1.95,0.74,9.58*59
$HCHDG,270.2,0.0,E,,*2E
$YXXDR,A,5.4,D,PTCH,A,4.6,D,ROLL*5E
$GPRMC,030011.5,A,4741.19790,N,12224.24367,W,000.41,076.9,140616,016.4,E,A*28
$IIRMB,A,0.00,L,M,X,4741.777000,N,12224.575000,W,0.6,339,-0.06,V*2D
$GPGGA,030011.5,4741.19790,N,12224.24367,W,1,08,1.1,-6.6,M,-18.2,M,,*48
$DATA,env,P,968.4765625,T,19.5*7E
$GPVTG,076.9,T,060.5,M,000.41,N,0000.76,K,A*1C
$DATA,IMU,0,3,3,0,EULER,326.9375,11.4375,-4.4375,ACC,0.06,-0.1,-0.18,GRAV,1.95,0.74,9.58*59
$HCHDG,270.3,0.0,E,,*2F
$GPRMC,030011.6,A,4741.19790,N,12224.24367,W,000.36,076.9,140616,016.4,E,A*2B
$IIRMB,A,0.00,L,M,X,4741.777000,N,12224.575000,W,0.6,339,-0.05,V*2E
$YXXDR,A,5.5,D,PTCH,A,4.7,D,ROLL*5E
$GPGGA,030011.6,4741.19790,N,12224.24367,W,1,08,1.1,-6.6,M,-18.2,M,,*4B
$GPVTG,076.9,T,060.5,M,000.36,N,0000.68,K,A*13
$DATA,IMU,0,3,3,0,EULER,326.9375,11.5,-4.4375,ACC,0.08,-0.13,-0.19,GRAV,1.95,0.74,9.58*55
$HCHDG,270.5,0.0,E,,*29
$GPRMC,030011.7,A,4741.19790,N,12224.24367,W,000.35,076.9,140616,016.4,E,A*29
$IIRMB,A,0.00,L,M,X,4741.777000,N,12224.575000,W,0.6,339,-0.05,V*2E
$YXXDR,A,5.5,D,PTCH,A,4.7,D,ROLL*5E
$GPGGA,030011.7,4741.19790,N,12224.24367,W,1,08,1.1,-6.6,M,-18.2,M,,*4A
$GPVTG,076.9,T,060.5,M,000.35,N,0000.64,K,A*1C
$DATA,IMU,0,3,3,0,EULER,326.9375,11.5,-4.4375,ACC,0.07,-0.09,-0.18,GRAV,1.95,0.74,9.57*5F
$HCHDG,270.5,0.0,E,,*29
$GPRMC,030011.8,A,4741.19790,N,12224.24367,W,000.31,076.9,140616,016.4,E,A*22
$IIRMB,A,0.00,L,M,X,4741.777000,N,12224.575000,W,0.6,339,-0.04,V*2F
$YXXDR,A,5.5,D,PTCH,A,4.7,D,ROLL*5E
$GPGGA,030011.8,4741.19790,N,12224.24367,W,1,08,1.1,-6.6,M,-18.2,M,,*45
$GPVTG,076.9,T,060.5,M,000.31,N,0000.57,K,A*18
$DATA,IMU,0,3,3,0,EULER,326.9375,11.5,-4.4375,ACC,0.08,-0.08,-0.15,GRAV,1.96,0.74,9.57*5F
$HCHDG,270.5,0.0,E,,*29
$GPRMC,030011.9,A,4741.19790,N,12224.24367,W,000.26,076.9,140616,016.4,E,A*25
$IIRMB,A,0.00,L,M,X,4741.777000,N,12224.575000,W,0.6,339,-0.04,V*2F
$YXXDR,A,5.5,D,PTCH,A,4.9,D,ROLL*50
$GPGGA,030011.9,4741.19790,N,12224.24367,W,1,08,1.1,-6.5,M,-18.2,M,,*47
$GPVTG,076.9,T,060.5,M,000.26,N,0000.49,K,A*11
$DATA,IMU,0,3,3,0,EULER,326.9375,11.5,-4.4375,ACC,0.08,-0.07,-0.18,GRAV,1.96,0.74,9.57*5D
$IIVHW,,,,,00.0,N,,*19
$HCHDG,270.5,0.0,E,,*29
$GPRMC,030012.0,A,4741.19790,N,12224.24367,W,000.24,076.9,140616,016.4,E,A*2D
$IIRMB,A,0.00,L,M,X,4741.777000,N,12224.575000,W,0.6,339,-0.03,V*28
$IIVLW,07547,N,007.4,N*51
$YXXDR,A,5.5,D,PTCH,A,4.9,D,ROLL*50
$GPGGA,030012.0,4741.19790,N,12224.24367,W,1,08,1.1,-6.5,M,-18.2,M,,*4D
$GPVTG,076.9,T,060.5,M,000.24,N,0000.45,K,A*1F
$GPGSA,A,3,25,29,05,31,18,21,26,16,,,,,1.9,1.1,1.5*3C
$DATA,IMU,0,3,3,0,EULER,326.9375,11.5,-4.4375,ACC,0.05,-0.08,-0.18,GRAV,1.96,0.74,9.57*5F
$IIVWR,109,R,08.6,N,,,,*67
$HCHDG,270.5,0.0,E,,*29
$GPRMC,030012.1,A,4741.19790,N,12224.24367,W,000.26,076.9,140616,016.4,E,A*2E
$IIRMB,A,0.00,L,M,X,4741.777000,N,12224.575000,W,0.6,339,-0.04,V*2F
$YXXDR,A,5.8,D,PTCH,A,5.0,D,ROLL*55
$HCHDG,270.6,0.0,E,,*2A
$GPGGA,030012.1,4741.19790,N,12224.24367,W,1,08,1.1,-6.5,M,-18.2,M,,*4C
$GPVTG,076.9,T,060.5,M,000.26,N,0000.47,K,A*1F
$GPGSV,3,1,09,25,27,192,25,02,14,073,12,29,78,107,42,05,48,064,38*79
$GPGSV,3,2,09,31,03,264,23,18,15,204,19,21,45,262,42,26,29,309,44*75
$GPGSV,3,3,09,16,08,328,43*41
$YXXDR,A,5.8,D,PTCH,A,5.0,D,ROLL*55
$GPRMC,030012.2,A,4741.19790,N,12224.24367,W,000.22,076.9,140616,016.4,E,A*29
$IIRMB,A,0.00,L,M,X,4741.777000,N,12224.575000,W,0.6,339,-0.03,V*28
$GPGGA,030012.2,4741.19790,N,12224.24367,W,1,08,1.1,-6.5,M,-18.2,M,,*4F
$GPVTG,076.9,T,060.5,M,000.22,N,0000.41,K,A*1D
$IIMTW,+11.0,C*38
$DATA,IMU,0,3,3,0,EULER,326.9375,11.5,-4.4375,ACC,0.1,-0.08,-0.18,GRAV,1.96,0.74,9.57*6B
$HCHDG,270.6,0.0,E,,*2A
$YXXDR,A,5.6,D,PTCH,A,5.1,D,ROLL*5A
$GPRMC,030012.3,A,4741.19790,N,12224.24367,W,000.21,076.9,140616,016.4,E,A*2B
$IIRMB,A,0.00,L,M,X,4741.777000,N,12224.575000,W,0.6,339,-0.03,V*28
$IIMWV,109,R,08.6,N,A*15
$TIROT,7.4,A*38
$GPGGA,030012.3,4741.19790,N,12224.24367,W,1,08,1.1,-6.5,M,-18.2,M,,*4E
$DATA,IMU,0,3,3,0,EULER,326.9375,11.5,-4.4375,ACC,0.04,-0.09,-0.2,GRAV,1.96,0.74,9.57*64
$GPVTG,076.9,T,060.5,M,000.21,N,0000.39,K,A*11
$IIMWV,107,T,08.9,N,A*12
$HCHDG,270.6,0.0,E,,*2A
$GPRMC,030012.4,A,4741.19790,N,12224.24367,W,000.20,076.9,140616,016.4,E,A*2D
$IIRMB,A,0.00,L,M,X,4741.777000,N,12224.575000,W,0.6,339,-0.03,V*28
$YXXDR,A,5.6,D,PTCH,A,5.2,D,ROLL*59
$GPGGA,030012.4,4741.19790,N,12224.24367,W,1,08,1.1,-6.5,M,-18.2,M,,*49
$DATA,IMU,0,3,3,0,EULER,326.9375,11.5,-4.4375,ACC,0.08,-0.11,-0.32,GRAV,1.96,0.74,9.57*52
$GPVTG,076.9,T,060.5,M,000.20,N,0000.37,K,A*1E
$HCHDG,270.6,0.0,E,,*2A
$GPRMC,030012.5,A,4741.19789,N,12224.24363,W,000.19,076.9,140616,016.4,E,A*2A
$IIRMB,A,0.00,L,M,X,4741.777000,N,12224.575000,W,0.6,339,-0.03,V*28
$YXXDR,A,5.6,D,PTCH,A,5.2,D,ROLL*59
$GPGGA,030012.5,4741.19789,N,12224.24363,W,1,08,1.1,-6.5,M,-18.2,M,,*44
$DATA,IMU,0,3,3,0,EULER,326.9375,11.5,-4.4375,ACC,0.1,-0.13,-0.29,GRAV,1.96,0.74,9.57*63
$DATA,env,P,967.859375,T,19.5*45
$GPVTG,076.9,T,060.5,M,000.19,N,0000.36,K,A*15
$HCHDG,270.6,0.0,E,,*2A
$GPRMC,030012.6,A,4741.19789,N,12224.24363,W,000.18,076.9,140616,016.4,E,A*28
$IIRMB,A,0.00,L,M,X,4741.777000,N,12224.575000,W,0.6,339,-0.02,V*29
$YXXDR,A,5.6,D,PTCH,A,5.2,D,ROLL*59
$GPGGA,030012.6,4741.19789,N,12224.24363,W,1,07,1.2,-6.5,M,-18.2,M,,*4B
$DATA,IMU,0,3,3,0,EULER,326.9375,11.5625,-4.375,ACC,0.09,-0.13,-0.26,GRAV,1.97,0.73,9.57*57
$GPVTG,076.9,T,060.5,M,000.18,N,0000.33,K,A*11
$HCHDG,270.6,0.0,E,,*2A
$GPRMC,030012.7,A,4741.19789,N,12224.24363,W,000.18,076.9,140616,016.4,E,A*29
$IIRMB,A,0.00,L,M,X,4741.777000,N,12224.575000,W,0.6,339,-0.02,V*29
$YXXDR,A,5.6,D,PTCH,A,5.2,D,ROLL*59
$GPGGA,030012.7,4741.19789,N,12224.24363,W,1,07,1.2,-6.5,M,-18.2,M,,*4A
$DATA,IMU,0,3,3,0,EULER,326.9375,11.5625,-4.375,ACC,0.06,-0.12,-0.24,GRAV,1.97,0.73,9.57*5B
$GPVTG,076.9,T,060.5,M,000.18,N,0000.34,K,A*16
$HCHDG,270.6,0.0,E,,*2A
$YXXDR,A,5.6,D,PTCH,A,5.2,D,ROLL*59
$GPRMC,030012.8,A,4741.19789,N,12224.24363,W,000.17,076.9,140616,016.4,E,A*29
$IIRMB,A,0.00,L,M,X,4741.777000,N,12224.575000,W,0.6,339,-0.02,V*29
$GPGGA,030012.8,4741.19789,N,12224.24363,W,1,07,1.2,-6.5,M,-18.2,M,,*45
$GPVTG,076.9,T,060.5,M,000.17,N,0000.31,K,A*1C
