$GPGGA,165121.4,4741.19684,N,12224.24506,W,1,07,1.3,0.5,M,-18.2,M,,*6A
$GPVTG,356.5,T,340.1,M,000.14,N,0000.26,K,A*11
$GPRMC,165121.5,A,4741.19684,N,12224.24506,W,000.13,356.5,060816,016.4,E,A*29
$IIRMB,A,0.00,L,M,X,4741.777000,N,12224.575000,W,0.6,339,0.12,V*05
$GPGGA,165121.5,4741.19684,N,12224.24506,W,1,07,1.3,0.5,M,-18.2,M,,*6B
$GPVTG,356.5,T,340.1,M,000.13,N,0000.25,K,A*15
$IIVHW,,,,,00.0,N,,*19
$HCHDG,271.1,0.0,E,,*2C
$YXXDR,A,5.4,D,PTCH,A,4.7,D,ROLL*5F
$HCHDG,271.1,0.0,E,,*2C
$YXXDR,A,5.4,D,PTCH,A,4.7,D,ROLL*5F
$DATA,env,P,975.74609375,T,16.78*7B
$GPRMC,165121.6,A,4741.19684,N,12224.24506,W,000.15,356.5,060816,016.4,E,A*2C
$IIRMB,A,0.00,L,M,X,4741.777000,N,12224.575000,W,0.6,339,0.14,V*03
$GPGGA,165121.6,4741.19684,N,12224.24506,W,1,07,1.3,0.5,M,-18.2,M,,*68
$GPVTG,356.5,T,340.1,M,000.15,N,0000.28,K,A*1E
$IIVLW,07570,N,000.0,N*56
$HCHDG,270.9,0.0,E,,*25
$GPRMC,165121.7,A,4741.19684,N,12224.24506,W,000.15,356.5,060816,016.4,E,A*2D
$IIRMB,A,0.00,L,M,X,4741.777000,N,12224.575000,W,0.6,339,0.14,V*03
$IIVWR,073,L,07.8,N,,,,*74
$YXXDR,A,5.4,D,PTCH,A,4.6,D,ROLL*5E
$DATA,IMU,0,3,0,0,EULER,359.9375,-0.375,-2.75,ACC,-0.02,0.01,0.4,GRAV,-0.06,0.47,9.79*7B
$GPGGA,165121.7,4741.19684,N,12224.24506,W,1,07,1.3,0.5,M,-18.2,M,,*69
$GPVTG,356.5,T,340.1,M,000.15,N,0000.29,K,A*1F
$DATA,IMU,0,3,0,0,EULER,359.9375,-0.375,-2.75,ACC,-0.04,0,0.33,GRAV,-0.06,0.47,9.79*66
$HCHDG,270.9,0.0,E,,*25
$GPRMC,165121.8,A,4741.19684,N,12224.24506,W,000.14,356.5,060816,016.4,E,A*23
$IIRMB,A,0.00,L,M,X,4741.777000,N,12224.575000,W,0.6,339,0.13,V*04
$YXXDR,A,5.4,D,PTCH,A,4.6,D,ROLL*5E
$GPGGA,165121.8,4741.19684,N,12224.24506,W,1,07,1.3,0.5,M,-18.2,M,,*66
$GPVTG,356.5,T,340.1,M,000.14,N,0000.27,K,A*10
$IIMTW,+13.0,C*3A
$DATA,IMU,0,3,0,0,EULER,359.9375,-0.375,-2.75,ACC,-0.04,0,0.33,GRAV,-0.06,0.47,9.79*66
$HCHDG,270.9,0.0,E,,*25
$YXXDR,A,5.2,D,PTCH,A,4.6,D,ROLL*58
$GPRMC,165121.9,A,4741.19684,N,12224.24506,W,000.13,356.5,060816,016.4,E,A*25
$IIRMB,A,0.00,L,M,X,4741.777000,N,12224.575000,W,0.6,339,0.12,V*05
$IIMWV,287,R,07.8,N,A*11
$GPGGA,165121.9,4741.19684,N,12224.24506,W,1,07,1.3,0.5,M,-18.2,M,,*67
$GPVTG,356.5,T,340.1,M,000.13,N,0000.24,K,A*14
$IIMWV,287,T,07.2,N,A*1D
$DATA,IMU,0,3,0,0,EULER,359.9375,-0.375,-2.75,ACC,0.01,0.05,0.38,GRAV,-0.06,0.47,9.79*6E
$HCHDG,270.8,0.0,E,,*24
$YXXDR,A,5.2,D,PTCH,A,4.6,D,ROLL*58
$GPRMC,165122.0,A,4741.19684,N,12224.24506,W,000.13,356.5,060816,016.4,E,A*2F
$IIRMB,A,0.00,L,M,X,4741.777000,N,12224.575000,W,0.6,339,0.12,V*05
$GPGGA,165122.0,4741.19684,N,12224.24506,W,1,07,1.3,0.5,M,-18.2,M,,*6D
$GPVTG,356.5,T,340.1,M,000.13,N,0000.25,K,A*15
$GPGSA,A,3,17,28,24,15,13,01,19,,,,,,2.4,1.3,2.0*31
$GPGSV,2,1,07,17,80,114,44,28,48,074,37,24,35,307,40,15,28,259,44*76
$DATA,IMU,0,3,0,0,EULER,359.9375,-0.3125,-2.75,ACC,-0.01,-0.03,0.37,GRAV,-0.06,0.47,9.79*53
$HCHDG,270.8,0.0,E,,*24
$GPGSV,2,2,07,13,28,221,40,01,21,046,38,19,62,200,33*46
$YXXDR,A,5.2,D,PTCH,A,4.6,D,ROLL*58
$TIROT,10.2,A*08
$GPRMC,165122.1,A,4741.19684,N,12224.24506,W,000.12,356.5,060816,016.4,E,A*2F
$IIRMB,A,0.00,L,M,X,4741.777000,N,12224.575000,W,0.6,339,0.11,V*06
$GPGGA,165122.1,4741.19684,N,12224.24506,W,1,07,1.3,0.5,M,-18.2,M,,*6C
$GPVTG,356.5,T,340.1,M,000.12,N,0000.23,K,A*12
$DATA,IMU,0,3,0,0,EULER,359.9375,-0.3125,-2.75,ACC,-0.04,-0.02,0.34,GRAV,-0.05,0.47,9.79*57
$HCHDG,270.8,0.0,E,,*24
$YXXDR,A,5.2,D,PTCH,A,4.6,D,ROLL*58
$GPRMC,165122.2,A,4741.19684,N,12224.24506,W,000.11,356.5,060816,016.4,E,A*2F
$IIRMB,A,0.00,L,M,X,4741.777000,N,12224.575000,W,0.6,339,0.10,V*07
$GPGGA,165122.2,4741.19684,N,12224.24506,W,1,07,1.3,0.5,M,-18.2,M,,*6F
$GPVTG,356.5,T,340.1,M,000.11,N,0000.21,K,A*13
$DATA,IMU,0,3,0,0,EULER,359.9375,-0.25,-2.75,ACC,0,-0.06,0.31,GRAV,-0.05,0.47,9.79*53
$HCHDG,270.8,0.0,E,,*24
$YXXDR,A,5.2,D,PTCH,A,4.6,D,ROLL*58
$GPRMC,165122.3,A,4741.19683,N,12224.24503,W,000.14,356.5,060816,016.4,E,A*29
$IIRMB,A,0.00,L,M,X,4741.777000,N,12224.575000,W,0.6,339,0.13,V*04
$GPGGA,165122.3,4741.19683,N,12224.24503,W,1,07,1.3,0.5,M,-18.2,M,,*6C
$GPVTG,356.5,T,340.1,M,000.14,N,0000.26,K,A*11
$HCHDG,270.6,0.0,E,,*2A
$DATA,IMU,0,3,0,0,EULER,0,-0.25,-2.75,ACC,-0.03,0,0.36,GRAV,-0.05,0.47,9.79*78
$YXXDR,A,5.2,D,PTCH,A,4.6,D,ROLL*58
$GPRMC,165122.4,A,4741.19683,N,12224.24503,W,000.15,356.5,060816,016.4,E,A*2F
$IIRMB,A,0.00,L,M,X,4741.777000,N,12224.575000,W,0.6,339,0.14,V*03
$GPGGA,165122.4,4741.19683,N,12224.24503,W,1,07,1.3,0.6,M,-18.2,M,,*68
$GPVTG,356.5,T,340.1,M,000.15,N,0000.29,K,A*1F
$IIRMB,A,0.00,L,,X   ,,,,,000.6,339,,V,A*30
$HCHDG,270.6,0.0,E,,*2A
$DATA,IMU,0,3,0,0,EULER,0,-0.25,-2.75,ACC,0,0,0.35,GRAV,-0.05,0.47,9.79*7B
$YXXDR,A,5.3,D,PTCH,A,4.6,D,ROLL*59
$GPRMC,165122.5,A,4741.19683,N,12224.24503,W,000.14,356.5,060816,016.4,E,A*2F
$IIRMB,A,0.00,L,M,X,4741.777000,N,12224.575000,W,0.6,339,0.13,V*04
$GPGGA,165122.5,4741.19683,N,12224.24503,W,1,07,1.3,0.6,M,-18.2,M,,*69
$GPVTG,356.5,T,340.1,M,000.14,N,0000.26,K,A*11
$HCHDG,270.6,0.0,E,,*2A
$DATA,IMU,0,3,0,0,EULER,0,-0.25,-2.75,ACC,0.01,0.01,0.4,GRAV,-0.05,0.47,9.79*49
$YXXDR,A,5.3,D,PTCH,A,4.6,D,ROLL*59
$GPRMC,165122.6,A,4741.19683,N,12224.24503,W,000.12,356.5,060816,016.4,E,A*2A
$IIRMB,A,0.00,L,M,X,4741.777000,N,12224.575000,W,0.6,339,0.11,V*06
$GPGGA,165122.6,4741.19683,N,12224.24503,W,1,07,1.3,0.6,M,-18.2,M,,*6A
$GPVTG,356.5,T,340.1,M,000.12,N,0000.22,K,A*13
$IIVHW,,,,,00.0,N,,*19
$DATA,env,P,975.74609375,T,16.78*7B
$HCHDG,270.6,0.0,E,,*2A
$YXXDR,A,5.3,D,PTCH,A,4.8,D,ROLL*57
$DATA,IMU,0,3,0,0,EULER,0,-0.25,-2.75,ACC,0.01,0,0.43,GRAV,-0.05,0.47,9.79*55
$IIVLW,07570,N,000.0,N*56
$GPRMC,165122.7,A,4741.19683,N,12224.24503,W,000.13,356.5,060816,016.4,E,A*2A
$IIRMB,A,0.00,L,M,X,4741.777000,N,12224.575000,W,0.6,339,0.12,V*05
$GPGGA,165122.7,4741.19683,N,12224.24503,W,1,07,1.3,0.6,M,-18.2,M,,*6B
$GPVTG,356.5,T,340.1,M,000.13,N,0000.25,K,A*15
$IIVWR,075,L,07.8,N,,,,*72
$HCHDG,270.6,0.0,E,,*2A
$YXXDR,A,5.4,D,PTCH,A,4.7,D,ROLL*5F
$DATA,IMU,0,3,0,0,EULER,0,-0.25,-2.75,ACC,0.17,-0.02,0.34,GRAV,-0.05,0.47,9.79*53
$GPRMC,165122.8,A,4741.19683,N,12224.24503,W,000.12,356.5,060816,016.4,E,A*24
$IIRMB,A,0.00,L,M,X,4741.777000,N,12224.575000,W,0.6,339,0.11,V*06
$GPGGA,165122.8,4741.19683,N,12224.24503,W,1,07,1.3,0.6,M,-18.2,M,,*64
$GPVTG,356.5,T,340.1,M,000.12,N,0000.23,K,A*12
$HCHDG,270.6,0.0,E,,*2A
$YXXDR,A,5.4,D,PTCH,A,4.9,D,ROLL*51
$DATA,IMU,0,3,0,0,EULER,0,-0.25,-2.75,ACC,0.11,-0.02,0.37,GRAV,-0.05,0.47,9.79*56
$GPRMC,165122.9,A,4741.19683,N,12224.24503,W,000.12,356.5,060816,016.4,E,A*25
$IIRMB,A,0.00,L,M,X,4741.777000,N,12224.575000,W,0.6,339,0.11,V*06
$GPGGA,165122.9,4741.19683,N,12224.24503,W,1,07,1.3,0.6,M,-18.2,M,,*65
$GPVTG,356.5,T,340.1,M,000.12,N,0000.21,K,A*10
$IIMTW,+13.0,C*3A
$HCHDG,270.6,0.0,E,,*2A
$YXXDR,A,5.4,D,PTCH,A,4.9,D,ROLL*51
$DATA,IMU,0,3,0,0,EULER,0,-0.25,-2.75,ACC,0.03,0,0.33,GRAV,-0.05,0.47,9.79*50
$GPRMC,165123.0,A,4741.19683,N,12224.24503,W,000.12,356.5,060816,016.4,E,A*2D
$IIRMB,A,0.00,L,M,X,4741.777000,N,12224.575000,W,0.6,339,0.11,V*06
$GPGGA,165123.0,4741.19683,N,12224.24503,W,1,07,1.3,0.6,M,-18.2,M,,*6D
$GPVTG,356.5,T,340.1,M,000.12,N,0000.23,K,A*12
$GPGSA,A,3,17,28,24,15,13,01,19,,,,,,2.4,1.3,2.0*31
$GPGSV,2,1,07,17,80,114,44,28,48,074,38,24,35,307,40,15,28,259,44*79
$GPGSV,2,2,07,13,28,221,40,01,21,046,38,19,62,200,32*47
$HCHDG,270.6,0.0,E,,*2A
$YXXDR,A,5.4,D,PTCH,A,4.9,D,ROLL*51
$TIROT,36.4,A*0A
$GPRMC,165123.1,A,4741.19683,N,12224.24503,W,000.14,356.5,060816,016.4,E,A*2A
$IIRMB,A,0.00,L,M,X,4741.777000,N,12224.575000,W,0.6,339,0.13,V*04
$GPGGA,165123.1,4741.19683,N,12224.24503,W,1,07,1.3,0.6,M,-18.2,M,,*6C
$GPVTG,356.5,T,340.1,M,000.14,N,0000.26,K,A*11
$GPRMC,165123.2,A,4741.19683,N,12224.24503,W,000.18,356.5,060816,016.4,E,A*25
$IIRMB,A,0.00,L,M,X,4741.777000,N,12224.575000,W,0.6,339,0.17,V*00
$GPGGA,165123.2,4741.19683,N,12224.24503,W,1,07,1.3,0.6,M,-18.2,M,,*6F
$GPVTG,356.5,T,340.1,M,000.18,N,0000.33,K,A*19
$HCHDG,270.6,0.0,E,,*2A
$YXXDR,A,5.3,D,PTCH,A,5.0,D,ROLL*5E
$DATA,IMU,0,3,0,0,EULER,0,-0.25,-2.75,ACC,0,-0.04,0.31,GRAV,-0.05,0.47,9.79*78
$GPRMC,165123.3,A,4741.19683,N,12224.24503,W,000.16,356.5,060816,016.4,E,A*2A
$IIRMB,A,0.00,L,M,X,4741.777000,N,12224.575000,W,0.6,339,0.15,V*02
$HCHDG,270.9,0.0,E,,*25
$DATA,IMU,0,3,0,0,EULER,0,-0.3125,-2.75,ACC,0,0,0.39,GRAV,-0.06,0.47,9.79*76
$GPGGA,165123.3,4741.19683,N,12224.24503,W,1,07,1.3,0.6,M,-18.2,M,,*6E
$GPVTG,356.5,T,340.1,M,000.16,N,0000.30,K,A*14
$YXXDR,A,5.3,D,PTCH,A,5.0,D,ROLL*5E
$GPRMC,165123.4,A,4741.19672,N,12224.24498,W,000.17,356.5,060816,016.4,E,A*21
$IIRMB,A,0.00,L,M,X,4741.777000,N,12224.575000,W,0.6,339,0.16,V*01
$HCHDG,270.8,0.0,E,,*24
$DATA,IMU,0,3,0,0,EULER,0,-0.375,-2.75,ACC,0.02,-0.02,0.36,GRAV,-0.07,0.47,9.79*61
$GPGGA,165123.4,4741.19672,N,12224.24498,W,1,07,1.3,0.6,M,-18.2,M,,*64
$GPVTG,356.5,T,340.1,M,000.17,N,0000.32,K,A*17
$YXXDR,A,5.3,D,PTCH,A,5.2,D,ROLL*5C
$IIMWV,282,R,07.8,N,A*14
$GPRMC,165123.5,A,4741.19672,N,12224.24498,W,000.20,356.5,060816,016.4,E,A*24
$IIRMB,A,0.00,L,M,X,4741.777000,N,12224.575000,W,0.6,339,0.19,V*0E
$IIMWV,285,T,07.8,N,A*15
$HCHDG,270.8,0.0,E,,*24
$GPGGA,165123.5,4741.19672,N,12224.24498,W,1,07,1.3,0.6,M,-18.2,M,,*65
$YXXDR,A,5.5,D,PTCH,A,5.1,D,ROLL*59
$GPVTG,356.5,T,340.1,M,000.20,N,0000.38,K,A*19
$DATA,IMU,0,3,0,0,EULER,0,-0.5,-2.75,ACC,0.04,0,0.37,GRAV,-0.09,0.47,9.79*6D
$GPRMC,165123.6,A,4741.19672,N,12224.24498,W,000.19,356.5,060816,016.4,E,A*2D
$IIRMB,A,0.00,L,M,X,4741.777000,N,12224.575000,W,0.6,339,0.18,V*0F
$IIRMB,A,0.00,L,,X   ,,,,,000.6,339,,V,A*30
$HCHDG,270.9,0.0,E,,*25
$GPGGA,165123.6,4741.19672,N,12224.24498,W,1,07,1.3,0.6,M,-18.2,M,,*66
$GPVTG,356.5,T,340.1,M,000.19,N,0000.36,K,A*1D
$YXXDR,A,5.4,D,PTCH,A,5.1,D,ROLL*58
$DATA,IMU,0,3,0,0,EULER,0,-0.625,-2.75,ACC,0.01,0.01,0.36,GRAV,-0.11,0.47,9.79*4B
$DATA,env,P,974.61328125,T,16.78*7F
$GPRMC,165123.7,A,4741.19672,N,12224.24498,W,000.19,356.5,060816,016.4,E,A*2C
$IIRMB,A,0.00,L,M,X,4741.777000,N,12224.575000,W,0.6,339,0.18,V*0F
$HCHDG,271.0,0.0,E,,*2D
$GPGGA,165123.7,4741.19672,N,12224.24498,W,1,07,1.3,0.6,M,-18.2,M,,*67
$GPVTG,356.5,T,340.1,M,000.19,N,0000.34,K,A*1F
$YXXDR,A,5.4,D,PTCH,A,4.9,D,ROLL*51
$DATA,IMU,0,3,0,0,EULER,0,-0.75,-2.75,ACC,0,0.02,0.25,GRAV,-0.13,0.47,9.79*54
$IIVHW,,,,,00.0,N,,*19
$GPRMC,165123.8,A,4741.19672,N,12224.24498,W,000.16,356.5,060816,016.4,E,A*2C
$IIRMB,A,0.00,L,M,X,4741.777000,N,12224.575000,W,0.6,339,0.15,V*02
$HCHDG,271.0,0.0,E,,*2D
$GPGGA,165123.8,4741.19672,N,12224.24498,W,1,07,1.3,0.6,M,-18.2,M,,*68
$YXXDR,A,5.5,D,PTCH,A,4.7,D,ROLL*5E
$GPVTG,356.5,T,340.1,M,000.16,N,0000.30,K,A*14
$IIVLW,07570,N,000.0,N*56
$DATA,IMU,0,3,0,0,EULER,359.9375,-0.875,-2.75,ACC,0.11,-0.01,0.29,GRAV,-0.15,0.47,9.79*4F
$GPRMC,165123.9,A,4741.19672,N,12224.24498,W,000.15,356.5,060816,016.4,E,A*2E
$IIRMB,A,0.00,L,M,X,4741.777000,N,12224.575000,W,0.6,339,0.14,V*03
$IIVWR,078,L,07.8,N,,,,*7F
$HCHDG,271.0,0.0,E,,*2D
$GPGGA,165123.9,4741.19672,N,12224.24498,W,1,07,1.3,0.6,M,-18.2,M,,*69
$GPVTG,356.5,T,340.1,M,000.15,N,0000.27,K,A*11
$YXXDR,A,5.3,D,PTCH,A,4.5,D,ROLL*5A
$DATA,IMU,0,3,0,0,EULER,359.9375,-1,-2.75,ACC,0.08,-0.03,0.3,GRAV,-0.17,0.47,9.79*6A
$GPRMC,165124.0,A,4741.19672,N,12224.24498,W,000.13,356.5,060816,016.4,E,A*26
$IIRMB,A,0.00,L,M,X,4741.777000,N,12224.575000,W,0.6,339,0.12,V*05
$HCHDG,271.1,0.0,E,,*2C
$GPGGA,165124.0,4741.19672,N,12224.24498,W,1,07,1.3,0.6,M,-18.2,M,,*67
$YXXDR,A,5.4,D,PTCH,A,4.4,D,ROLL*5C
$GPVTG,356.5,T,340.1,M,000.13,N,0000.25,K,A*15
$GPGSA,A,3,17,28,24,15,13,01,19,,,,,,2.4,1.3,2.0*31
$DATA,IMU,0,3,0,0,EULER,359.9375,-1.125,-2.75,ACC,0.05,-0.02,0.35,GRAV,-0.2,0.47,9.79*7F
$GPGSV,2,1,07,17,80,114,44,28,48,074,39,24,35,307,41,15,28,259,43*7E
$GPGSV,2,2,07,13,28,221,40,01,21,046,38,19,62,200,31*44
$GPRMC,165124.1,A,4741.19672,N,12224.24498,W,000.13,356.5,060816,016.4,E,A*27
$IIRMB,A,0.00,L,M,X,4741.777000,N,12224.575000,W,0.6,339,0.12,V*05
$GPGGA,165124.1,4741.19672,N,12224.24498,W,1,07,1.3,0.6,M,-18.2,M,,*66
$HCHDG,271.1,0.0,E,,*2C
$GPVTG,356.5,T,340.1,M,000.13,N,0000.24,K,A*14
$YXXDR,A,5.4,D,PTCH,A,4.4,D,ROLL*5C
$TIROT,20.5,A*0C
$DATA,IMU,0,3,0,0,EULER,359.9375,-1.3125,-2.75,ACC,0.09,0.01,0.41,GRAV,-0.22,0.47,9.79*5F
$GPRMC,165124.2,A,4741.19672,N,12224.24498,W,000.12,356.5,060816,016.4,E,A*25
$IIRMB,A,0.00,L,M,X,4741.777000,N,12224.575000,W,0.6,339,0.11,V*06
$HCHDG,271.1,0.0,E,,*2C
$GPGGA,165124.2,4741.19672,N,12224.24498,W,1,07,1.3,0.6,M,-18.2,M,,*65
$YXXDR,A,5.4,D,PTCH,A,4.3,D,ROLL*5B
$GPVTG,356.5,T,340.1,M,000.12,N,0000.22,K,A*13
$DATA,IMU,0,3,0,0,EULER,359.9375,-1.375,-2.75,ACC,0.05,-0.02,0.41,GRAV,-0.24,0.47,9.79*4F
$GPRMC,165124.3,A,4741.19672,N,12224.24498,W,000.13,356.5,060816,016.4,E,A*25
$IIRMB,A,0.00,L,M,X,4741.777000,N,12224.575000,W,0.6,339,0.12,V*05
$HCHDG,271.2,0.0,E,,*2F
$GPGGA,165124.3,4741.19672,N,12224.24498,W,1,07,1.3,0.6,M,-18.2,M,,*64
$YXXDR,A,5.4,D,PTCH,A,4.3,D,ROLL*5B
$GPVTG,356.5,T,340.1,M,000.13,N,0000.25,K,A*15
$DATA,IMU,0,3,0,0,EULER,359.9375,-1.5,-2.75,ACC,0.05,-0.02,0.38,GRAV,-0.26,0.47,9.79*47
$GPRMC,165124.4,A,4741.19667,N,12224.24491,W,000.18,356.5,060816,016.4,E,A*24
$IIRMB,A,0.00,L,M,X,4741.777000,N,12224.575000,W,0.6,339,0.17,V*00
$HCHDG,271.2,0.0,E,,*2F
$GPGGA,165124.4,4741.19667,N,12224.24491,W,1,07,1.3,0.7,M,-18.2,M,,*6F
$YXXDR,A,5.6,D,PTCH,A,4.4,D,ROLL*5E
$GPVTG,356.5,T,340.1,M,000.18,N,0000.34,K,A*1E
$DATA,IMU,0,3,0,0,EULER,359.9375,-1.625,-2.75,ACC,0.04,-0.02,0.42,GRAV,-0.28,0.47,9.79*41
$GPRMC,165124.5,A,4741.19667,N,12224.24491,W,000.18,356.5,060816,016.4,E,A*25
$IIRMB,A,0.00,L,M,X,4741.777000,N,12224.575000,W,0.6,339,0.17,V*00
$HCHDG,271.2,0.0,E,,*2F
$GPGGA,165124.5,4741.19667,N,12224.24491,W,1,07,1.3,0.7,M,-18.2,M,,*6E
$YXXDR,A,5.6,D,PTCH,A,4.4,D,ROLL*5E
$GPVTG,356.5,T,340.1,M,000.18,N,0000.34,K,A*1E
$IIMTW,+13.0,C*3A
$DATA,IMU,0,3,0,0,EULER,359.9375,-1.6875,-2.75,ACC,0.03,0,0.39,GRAV,-0.29,0.47,9.79*77
$IIMWV,282,R,08.1,N,A*12
$GPRMC,165124.6,A,4741.19667,N,12224.24491,W,000.18,356.5,060816,016.4,E,A*26
$IIRMB,A,0.00,L,M,X,4741.777000,N,12224.575000,W,0.6,339,0.17,V*00
$HCHDG,271.3,0.0,E,,*2E
$YXXDR,A,5.6,D,PTCH,A,4.3,D,ROLL*59
$GPGGA,165124.6,4741.19667,N,12224.24491,W,1,07,1.3,0.7,M,-18.2,M,,*6D
$GPVTG,356.5,T,340.1,M,000.18,N,0000.33,K,A*19
$IIMWV,282,T,07.8,N,A*12
$DATA,IMU,0,3,0,0,EULER,359.9375,-1.75,-2.75,ACC,0.04,-0.05,0.4,GRAV,-0.3,0.47,9.79*7E
$DATA,env,P,970.29296875,T,16.78*7F
$GPRMC,165124.7,A,4741.19667,N,12224.24491,W,000.19,356.5,060816,016.4,E,A*26
$IIRMB,A,0.00,L,M,X,4741.777000,N,12224.575000,W,0.6,339,0.18,V*0F
$HCHDG,271.2,0.0,E,,*2F
$GPGGA,165124.7,4741.19667,N,12224.24491,W,1,07,1.3,0.7,M,-18.2,M,,*6C
$YXXDR,A,5.6,D,PTCH,A,4.3,D,ROLL*59
$IIRMB,A,0.00,L,,X   ,,,,,000.6,339,,V,A*30
$GPVTG,356.5,T,340.1,M,000.19,N,0000.36,K,A*1D
$DATA,IMU,0,3,0,0,EULER,359.9375,-1.8125,-2.75,ACC,0.05,-0.02,0.42,GRAV,-0.31,0.47,9.79*77
$GPRMC,165124.8,A,4741.19667,N,12224.24491,W,000.18,356.5,060816,016.4,E,A*28
$IIRMB,A,0.00,L,M,X,4741.777000,N,12224.575000,W,0.6,339,0.17,V*00
$HCHDG,271.2,0.0,E,,*2F
$GPGGA,165124.8,4741.19667,N,12224.24491,W,1,07,1.3,0.7,M,-18.2,M,,*63
$YXXDR,A,5.4,D,PTCH,A,4.3,D,ROLL*5B
$GPVTG,356.5,T,340.1,M,000.18,N,0000.33,K,A*19
$DATA,IMU,0,3,0,0,EULER,359.9375,-1.8125,-2.75,ACC,0.06,-0.02,0.43,GRAV,-0.31,0.47,9.79*75
$GPRMC,165124.9,A,4741.19667,N,12224.24491,W,000.15,356.5,060816,016.4,E,A*24
$IIRMB,A,0.00,L,M,X,4741.777000,N,12224.575000,W,0.6,339,0.14,V*03
$HCHDG,271.2,0.0,E,,*2F
$IIVHW,,,,,00.0,N,,*19
$GPGGA,165124.9,4741.19667,N,12224.24491,W,1,07,1.3,0.7,M,-18.2,M,,*62
$GPVTG,356.5,T,340.1,M,000.15,N,0000.28,K,A*1E
$YXXDR,A,5.6,D,PTCH,A,4.0,D,ROLL*5A
$DATA,IMU,0,3,0,0,EULER,359.9375,-1.8125,-2.75,ACC,0,0,0.41,GRAV,-0.31,0.47,9.79*5E
$IIVLW,07570,N,000.0,N*56
$GPRMC,165125.0,A,4741.19667,N,12224.24491,W,000.14,356.5,060816,016.4,E,A*2D
$IIRMB,A,0.00,L,M,X,4741.777000,N,12224.575000,W,0.6,339,0.13,V*04
$HCHDG,271.3,0.0,E,,*2E
$GPGGA,165125.0,4741.19667,N,12224.24491,W,1,07,1.3,0.7,M,-18.2,M,,*6A
$YXXDR,A,5.4,D,PTCH,A,4.0,D,ROLL*58
$GPVTG,356.5,T,340.1,M,000.14,N,0000.26,K,A*11
$GPGSA,A,3,17,28,24,15,13,01,19,,,,,,2.4,1.3,2.0*31
$GPGSV,2,1,07,17,80,114,44,28,48,074,39,24,35,307,40,15,28,259,43*7F
$DATA,IMU,0,3,0,0,EULER,359.9375,-1.8125,-2.75,ACC,-0.01,-0.02,0.45,GRAV,-0.31,0.47,9.79*59
$GPGSV,2,2,07,13,28,221,40,01,21,046,38,19,62,200,35*40
$GPRMC,165125.1,A,4741.19667,N,12224.24491,W,000.14,356.5,060816,016.4,E,A*2C
$IIRMB,A,0.00,L,M,X,4741.777000,N,12224.575000,W,0.6,339,0.13,V*04
$HCHDG,271.2,0.0,E,,*2F
$GPGGA,165125.1,4741.19667,N,12224.24491,W,1,07,1.3,0.7,M,-18.2,M,,*6B
$YXXDR,A,5.4,D,PTCH,A,4.0,D,ROLL*58
$TIROT,25.5,A*09
$GPVTG,356.5,T,340.1,M,000.14,N,0000.25,K,A*12
$DATA,IMU,0,3,0,0,EULER,359.9375,-1.8125,-2.75,ACC,0,-0.01,0.42,GRAV,-0.31,0.47,9.79*5F
$GPRMC,165125.2,A,4741.19667,N,12224.24491,W,000.14,356.5,060816,016.4,E,A*2F
$IIRMB,A,0.00,L,M,X,4741.777000,N,12224.575000,W,0.6,339,0.13,V*04
$HCHDG,271.3,0.0,E,,*2E
$GPGGA,165125.2,4741.19667,N,12224.24491,W,1,07,1.3,0.7,M,-18.2,M,,*68
$YXXDR,A,5.4,D,PTCH,A,3.9,D,ROLL*56
$GPVTG,356.5,T,340.1,M,000.14,N,0000.25,K,A*12
$DATA,IMU,0,3,0,0,EULER,359.9375,-1.8125,-2.75,ACC,-0.03,-0.01,0.41,GRAV,-0.31,0.47,9.79*5C
$GPRMC,165125.3,A,4741.19667,N,12224.24491,W,000.14,356.5,060816,016.4,E,A*2E
$IIRMB,A,0.00,L,M,X,4741.777000,N,12224.575000,W,0.6,339,0.13,V*04
$HCHDG,271.2,0.0,E,,*2F
$GPGGA,165125.3,4741.19667,N,12224.24491,W,1,07,1.3,0.7,M,-18.2,M,,*69
$YXXDR,A,5.4,D,PTCH,A,3.8,D,ROLL*57
$GPVTG,356.5,T,340.1,M,000.14,N,0000.27,K,A*10
$DATA,IMU,0,3,0,0,EULER,359.9375,-1.8125,-2.75,ACC,-0.02,0,0.42,GRAV,-0.31,0.47,9.79*5C
$HCHDG,271.3,0.0,E,,*2E
$GPRMC,165125.4,A,4741.19666,N,12224.24490,W,000.14,356.5,060816,016.4,E,A*29
$IIRMB,A,0.00,L,M,X,4741.777000,N,12224.575000,W,0.6,339,0.13,V*04
$YXXDR,A,5.4,D,PTCH,A,3.8,D,ROLL*57
$GPGGA,165125.4,4741.19666,N,12224.24490,W,1,07,1.3,0.8,M,-18.2,M,,*61
$GPVTG,356.5,T,340.1,M,000.14,N,0000.26,K,A*11
$IIVWR,075,L,08.3,N,,,,*76
$DATA,IMU,0,3,0,0,EULER,359.9375,-1.8125,-2.75,ACC,-0.01,-0.01,0.43,GRAV,-0.31,0.47,9.79*5C
$GPRMC,165125.5,A,4741.19666,N,12224.24490,W,000.12,356.5,060816,016.4,E,A*2E
$IIRMB,A,0.00,L,M,X,4741.777000,N,12224.575000,W,0.6,339,0.11,V*06
$HCHDG,271.3,0.0,E,,*2E
$GPGGA,165125.5,4741.19666,N,12224.24490,W,1,07,1.3,0.8,M,-18.2,M,,*60
$YXXDR,A,5.4,D,PTCH,A,3.7,D,ROLL*58
$GPVTG,356.5,T,340.1,M,000.12,N,0000.22,K,A*13
$DATA,IMU,0,3,0,0,EULER,359.9375,-1.75,-2.75,ACC,-0.03,0,0.4,GRAV,-0.3,0.47,9.79*52
$GPRMC,165125.6,A,4741.19666,N,12224.24490,W,000.11,356.5,060816,016.4,E,A*2E
$IIRMB,A,0.00,L,M,X,4741.777000,N,12224.575000,W,0.6,339,0.10,V*07
$HCHDG,271.3,0.0,E,,*2E
$GPGGA,165125.6,4741.19666,N,12224.24490,W,1,07,1.3,0.8,M,-18.2,M,,*63
$YXXDR,A,5.2,D,PTCH,A,3.6,D,ROLL*5F
$GPVTG,356.5,T,340.1,M,000.11,N,0000.21,K,A*13
$IIMTW,+13.0,C*3A
$DATA,IMU,0,3,0,0,EULER,359.9375,-1.6875,-2.75,ACC,-0.03,-0.01,0.41,GRAV,-0.29,0.47,9.79*57
$DATA,env,P,970.29296875,T,16.78*7F
$IIMWV,285,R,08.3,N,A*17
$GPRMC,165125.7,A,4741.19666,N,12224.24490,W,000.13,356.5,060816,016.4,E,A*2D
$IIRMB,A,0.00,L,M,X,4741.777000,N,12224.575000,W,0.6,339,0.12,V*05
$HCHDG,271.0,0.0,E,,*2D
$YXXDR,A,5.2,D,PTCH,A,3.4,D,ROLL*5D
$GPGGA,165125.7,4741.19666,N,12224.24490,W,1,07,1.3,0.8,M,-18.2,M,,*62
$GPVTG,356.5,T,340.1,M,000.13,N,0000.24,K,A*14
$IIMWV,282,T,08.1,N,A*14
$DATA,IMU,0,3,0,0,EULER,359.9375,-1.5625,-2.75,ACC,-0.02,0,0.31,GRAV,-0.27,0.47,9.79*55
$HCHDG,271.1,0.0,E,,*2C
$GPRMC,165125.8,A,4741.19666,N,12224.24490,W,000.14,356.5,060816,016.4,E,A*25
$IIRMB,A,0.00,L,M,X,4741.777000,N,12224.575000,W,0.6,339,0.13,V*04
$YXXDR,A,5.2,D,PTCH,A,3.4,D,ROLL*5D
$GPGGA,165125.8,4741.19666,N,12224.24490,W,1,07,1.3,0.8,M,-18.2,M,,*6D
$IIRMB,A,0.00,L,,X   ,,,,,000.6,339,,V,A*30
$GPVTG,356.5,T,340.1,M,000.14,N,0000.25,K,A*12
$DATA,IMU,0,3,0,0,EULER,359.9375,-1.5,-2.75,ACC,-0.04,0,0.31,GRAV,-0.26,0.47,9.79*63
$HCHDG,271.1,0.0,E,,*2C
$GPRMC,165125.9,A,4741.19666,N,12224.24490,W,000.13,356.5,060816,016.4,E,A*23
$IIRMB,A,0.00,L,M,X,4741.777000,N,12224.575000,W,0.6,339,0.12,V*05
$YXXDR,A,5.2,D,PTCH,A,3.4,D,ROLL*5D
$GPGGA,165125.9,4741.19666,N,12224.24490,W,1,07,1.3,0.8,M,-18.2,M,,*6C
$GPVTG,356.5,T,340.1,M,000.13,N,0000.25,K,A*15
$DATA,IMU,0,3,0,0,EULER,359.9375,-1.4375,-2.75,ACC,-0.03,-0.01,0.32,GRAV,-0.24,0.47,9.79*57
$HCHDG,271.1,0.0,E,,*2C
$GPRMC,165126.0,A,4741.19666,N,12224.24490,W,000.13,356.5,060816,016.4,E,A*29
$IIRMB,A,0.00,L,M,X,4741.777000,N,12224.575000,W,0.6,339,0.12,V*05
$YXXDR,A,5.2,D,PTCH,A,3.4,D,ROLL*5D
$GPGGA,165126.0,4741.19666,N,12224.24490,W,1,07,1.3,0.8,M,-18.2,M,,*66
$GPVTG,356.5,T,340.1,M,000.13,N,0000.25,K,A*15
$GPGSA,A,3,17,28,24,15,13,01,19,,,,,,2.4,1.3,2.0*31
$GPGSV,2,1,07,17,80,114,44,28,48,074,39,24,35,307,39,15,28,259,43*71
$GPGSV,2,2,07,13,28,221,40,01,21,046,38,19,62,200,36*43
$DATA,IMU,0,3,0,0,EULER,359.9375,-1.3125,-2.75,ACC,-0.02,0,0.36,GRAV,-0.22,0.47,9.79*56
$HCHDG,271.1,0.0,E,,*2C
$GPRMC,165126.1,A,4741.19666,N,12224.24490,W,000.12,356.5,060816,016.4,E,A*29
$IIRMB,A,0.00,L,M,X,4741.777000,N,12224.575000,W,0.6,339,0.11,V*06
$YXXDR,A,5.2,D,PTCH,A,3.4,D,ROLL*5D
$GPGGA,165126.1,4741.19666,N,12224.24490,W,1,07,1.3,0.8,M,-18.2,M,,*67
$TIROT,27.1,A*0F
$GPVTG,356.5,T,340.1,M,000.12,N,0000.22,K,A*13
$DATA,IMU,0,3,0,0,EULER,359.9375,-1.1875,-2.75,ACC,-0.03,-0.02,0.35,GRAV,-0.2,0.47,9.79*69
$HCHDG,271.1,0.0,E,,*2C
$GPRMC,165126.2,A,4741.19666,N,12224.24490,W,000.10,356.5,060816,016.4,E,A*28
$IIRMB,A,0.00,L,M,X,4741.777000,N,12224.575000,W,0.6,339,0.10,V*07
$GPGGA,165126.2,4741.19666,N,12224.24490,W,1,07,1.3,0.8,M,-18.2,M,,*64
$YXXDR,A,5.2,D,PTCH,A,3.4,D,ROLL*5D
$GPVTG,356.5,T,340.1,M,000.10,N,0000.19,K,A*19
$DATA,IMU,0,3,0,0,EULER,359.9375,-1.125,-2.75,ACC,0.01,0,0.38,GRAV,-0.19,0.47,9.79*4D
$HCHDG,271.1,0.0,E,,*2C
$GPRMC,165126.3,A,4741.19666,N,12224.24490,W,000.12,356.5,060816,016.4,E,A*2B
$IIRMB,A,0.00,L,M,X,4741.777000,N,12224.575000,W,0.6,339,0.11,V*06
$GPGGA,165126.3,4741.19666,N,12224.24490,W,1,07,1.3,0.8,M,-18.2,M,,*65
$GPVTG,356.5,T,340.1,M,000.12,N,0000.22,K,A*13
$YXXDR,A,5.2,D,PTCH,A,3.4,D,ROLL*5D
$HCHDG,271.1,0.0,E,,*2C
$DATA,IMU,0,3,0,0,EULER,359.9375,-1,-2.75,ACC,0.04,-0.02,0.39,GRAV,-0.17,0.47,9.79*5E
$GPRMC,165126.4,A,4741.19659,N,12224.24481,W,000.14,356.5,060816,016.4,E,A*26
$IIRMB,A,0.00,L,M,X,4741.777000,N,12224.575000,W,0.6,339,0.13,V*04
$GPGGA,165126.4,4741.19659,N,12224.24481,W,1,07,1.3,0.8,M,-18.2,M,,*6E
$YXXDR,A,5.3,D,PTCH,A,3.5,D,ROLL*5D
$GPVTG,356.5,T,340.1,M,000.14,N,0000.26,K,A*11
$IIVHW,,,,,00.0,N,,*19
$HCHDG,271.1,0.0,E,,*2C
$IIVLW,07570,N,000.0,N*56
$DATA,IMU,0,3,0,0,EULER,359.9375,-0.9375,-2.75,ACC,0.05,-0.01,0.4,GRAV,-0.16,0.47,9.79*44
$GPRMC,165126.5,A,4741.19659,N,12224.24481,W,000.14,356.5,060816,016.4,E,A*27
$IIRMB,A,0.00,L,M,X,4741.777000,N,12224.575000,W,0.6,339,0.13,V*04
$YXXDR,A,5.3,D,PTCH,A,3.5,D,ROLL*5D
$GPGGA,165126.5,4741.19659,N,12224.24481,W,1,07,1.3,0.8,M,-18.2,M,,*6F
$GPVTG,356.5,T,340.1,M,000.14,N,0000.26,K,A*11
$IIVWR,076,L,07.6,N,,,,*7F
$DATA,IMU,0,3,0,0,EULER,359.9375,-0.9375,-2.75,ACC,0.05,-0.01,0.41,GRAV,-0.16,0.47,9.79*75
$GPRMC,165126.6,A,4741.19659,N,12224.24481,W,000.13,356.5,060816,016.4,E,A*23
$IIRMB,A,0.00,L,M,X,4741.777000,N,12224.575000,W,0.6,339,0.12,V*05
$HCHDG,271.2,0.0,E,,*2F
$GPGGA,165126.6,4741.19659,N,12224.24481,W,1,07,1.3,0.8,M,-18.2,M,,*6C
$YXXDR,A,5.4,D,PTCH,A,3.5,D,ROLL*5A
$GPVTG,356.5,T,340.1,M,000.13,N,0000.25,K,A*15
$DATA,env,P,967.80078125,T,16.79*75
$HCHDG,271.2,0.0,E,,*2F
$GPRMC,165126.7,A,4741.19659,N,12224.24481,W,000.13,356.5,060816,016.4,E,A*22
$IIRMB,A,0.00,L,M,X,4741.777000,N,12224.575000,W,0.6,339,0.12,V*05
$GPGGA,165126.7,4741.19659,N,12224.24481,W,1,07,1.3,0.8,M,-18.2,M,,*6D
$YXXDR,A,5.4,D,PTCH,A,3.7,D,ROLL*58
$DATA,IMU,0,3,0,0,EULER,359.9375,-0.9375,-2.75,ACC,0.05,-0.02,0.46,GRAV,-0.16,0.47,9.79*71
$GPVTG,356.5,T,340.1,M,000.13,N,0000.24,K,A*14
$IIMTW,+13.0,C*3A
$IIMWV,284,R,07.6,N,A*1C
$HCHDG,271.2,0.0,E,,*2F
$GPRMC,165126.8,A,4741.19659,N,12224.24481,W,000.13,356.5,060816,016.4,E,A*2D
$IIRMB,A,0.00,L,M,X,4741.777000,N,12224.575000,W,0.6,339,0.12,V*05
$YXXDR,A,5.3,D,PTCH,A,3.8,D,ROLL*50
$GPGGA,165126.8,4741.19659,N,12224.24481,W,1,07,1.3,0.8,M,-18.2,M,,*62
$DATA,IMU,0,3,0,0,EULER,359.9375,-0.9375,-2.75,ACC,0.04,-0.02,0.42,GRAV,-0.16,0.47,9.79*74
$GPVTG,356.5,T,340.1,M,000.13,N,0000.24,K,A*14
$IIMWV,285,T,08.3,N,A*11
$HCHDG,271.2,0.0,E,,*2F
$GPRMC,165126.9,A,4741.19659,N,12224.24481,W,000.14,356.5,060816,016.4,E,A*2B
$IIRMB,A,0.00,L,M,X,4741.777000,N,12224.575000,W,0.6,339,0.13,V*04
$YXXDR,A,5.3,D,PTCH,A,4.0,D,ROLL*5F
$GPGGA,165126.9,4741.19659,N,12224.24481,W,1,07,1.3,0.8,M,-18.2,M,,*63
$GPVTG,356.5,T,340.1,M,000.14,N,0000.26,K,A*11
$IIRMB,A,0.00,L,,X   ,,,,,000.6,339,,V,A*30
$DATA,IMU,0,3,0,0,EULER,359.9375,-0.9375,-2.75,ACC,0.01,0,0.34,GRAV,-0.16,0.47,9.79*71
$HCHDG,271.2,0.0,E,,*2F
$GPRMC,165127.0,A,4741.19659,N,12224.24481,W,000.13,356.5,060816,016.4,E,A*24
$IIRMB,A,0.00,L,M,X,4741.777000,N,12224.575000,W,0.6,339,0.12,V*05
$YXXDR,A,5.4,D,PTCH,A,4.1,D,ROLL*59
$GPGGA,165127.0,4741.19659,N,12224.24481,W,1,07,1.3,0.8,M,-18.2,M,,*6B
$DATA,IMU,0,3,0,0,EULER,359.9375,-0.9375,-2.75,ACC,0.02,-0.01,0.35,GRAV,-0.16,0.47,9.79*71
$GPVTG,356.5,T,340.1,M,000.13,N,0000.24,K,A*14
$GPGSA,A,3,17,28,24,15,13,01,19,,,,,,2.4,1.3,2.0*31
$GPGSV,2,1,07,17,80,114,43,28,48,074,39,24,35,307,39,15,28,259,43*76
$GPGSV,2,2,07,13,28,221,39,01,21,046,39,19,62,200,37*4D
$HCHDG,271.2,0.0,E,,*2F
$GPRMC,165127.1,A,4741.19659,N,12224.24481,W,000.14,356.5,060816,016.4,E,A*22
$IIRMB,A,0.00,L,M,X,4741.777000,N,12224.575000,W,0.6,339,0.13,V*04
$YXXDR,A,5.5,D,PTCH,A,4.2,D,ROLL*5B
$TIROT,33.8,A*03
$GPGGA,165127.1,4741.19659,N,12224.24481,W,1,07,1.3,0.8,M,-18.2,M,,*6A
$GPVTG,356.5,T,340.1,M,000.14,N,0000.26,K,A*11
$DATA,IMU,0,3,0,0,EULER,359.9375,-0.9375,-2.75,ACC,0,0,0.4,GRAV,-0.16,0.47,9.79*6D
$HCHDG,271.2,0.0,E,,*2F
$GPRMC,165127.2,A,4741.19659,N,12224.24481,W,000.13,356.5,060816,016.4,E,A*26
$IIRMB,A,0.00,L,M,X,4741.777000,N,12224.575000,W,0.6,339,0.12,V*05
$YXXDR,A,5.5,D,PTCH,A,4.3,D,ROLL*5A
$GPGGA,165127.2,4741.19659,N,12224.24481,W,1,07,1.3,0.8,M,-18.2,M,,*69
$GPVTG,356.5,T,340.1,M,000.13,N,0000.23,K,A*13
$DATA,IMU,0,3,0,0,EULER,359.9375,-0.9375,-2.75,ACC,0,0,0.37,GRAV,-0.16,0.47,9.79*5D
$HCHDG,271.2,0.0,E,,*2F
$GPRMC,165127.3,A,4741.19659,N,12224.24481,W,000.13,356.5,060816,016.4,E,A*27
$IIRMB,A,0.00,L,M,X,4741.777000,N,12224.575000,W,0.6,339,0.12,V*05
$YXXDR,A,5.5,D,PTCH,A,4.3,D,ROLL*5A
$GPGGA,165127.3,4741.19659,N,12224.24481,W,1,07,1.3,0.8,M,-18.2,M,,*68
$GPVTG,356.5,T,340.1,M,000.13,N,0000.24,K,A*14
$DATA,IMU,0,3,0,0,EULER,359.9375,-0.9375,-2.75,ACC,-0.01,0,0.38,GRAV,-0.16,0.47,9.79*50
$HCHDG,271.2,0.0,E,,*2F
$GPRMC,165127.4,A,4741.19654,N,12224.24464,W,000.15,356.5,060816,016.4,E,A*20
$IIRMB,A,0.00,L,M,X,4741.777000,N,12224.575000,W,0.6,339,0.14,V*03
$YXXDR,A,5.5,D,PTCH,A,4.3,D,ROLL*5A
$GPGGA,165127.4,4741.19654,N,12224.24464,W,1,07,1.3,0.9,M,-18.2,M,,*68
$GPVTG,356.5,T,340.1,M,000.15,N,0000.27,K,A*11
$DATA,IMU,0,3,0,0,EULER,359.9375,-0.9375,-2.75,ACC,-0.02,0,0.36,GRAV,-0.16,0.47,9.79*5D
$HCHDG,271.2,0.0,E,,*2F
$GPRMC,165127.5,A,4741.19654,N,12224.24464,W,000.14,356.5,060816,016.4,E,A*20
$IIRMB,A,0.00,L,M,X,4741.777000,N,12224.575000,W,0.6,339,0.13,V*04
$YXXDR,A,5.5,D,PTCH,A,4.3,D,ROLL*5A
$GPGGA,165127.5,4741.19654,N,12224.24464,W,1,07,1.3,0.9,M,-18.2,M,,*69
$GPVTG,356.5,T,340.1,M,000.14,N,0000.25,K,A*12
$DATA,IMU,0,3,0,0,EULER,359.9375,-0.9375,-2.75,ACC,-0.02,0.01,0.4,GRAV,-0.16,0.47,9.79*43
$IIVHW,,,,,00.0,N,,*19
$HCHDG,271.2,0.0,E,,*2F
$GPRMC,165127.6,A,4741.19654,N,12224.24464,W,000.12,356.5,060816,016.4,E,A*25
$IIRMB,A,0.00,L,M,X,4741.777000,N,12224.575000,W,0.6,339,0.11,V*06
$YXXDR,A,5.5,D,PTCH,A,4.2,D,ROLL*5B
$GPGGA,165127.6,4741.19654,N,12224.24464,W,1,07,1.3,0.9,M,-18.2,M,,*6A
$IIVLW,07570,N,000.0,N*56
$GPVTG,356.5,T,340.1,M,000.12,N,0000.23,K,A*12
$DATA,IMU,0,3,0,0,EULER,359.9375,-0.9375,-2.75,ACC,-0.04,-0.02,0.38,GRAV,-0.16,0.47,9.79*54
$DATA,env,P,969.53125,T,16.79*4A
$IIVWR,074,L,06.6,N,,,,*7C
$HCHDG,271.2,0.0,E,,*2F
$GPRMC,165127.7,A,4741.19654,N,12224.24464,W,000.11,356.5,060816,016.4,E,A*27
$IIRMB,A,0.00,L,M,X,4741.777000,N,12224.575000,W,0.6,339,0.10,V*07
$YXXDR,A,5.4,D,PTCH,A,4.2,D,ROLL*5A
$GPGGA,165127.7,4741.19654,N,12224.24464,W,1,07,1.3,0.9,M,-18.2,M,,*6B
$GPVTG,356.5,T,340.1,M,000.11,N,0000.20,K,A*12
$DATA,IMU,0,3,0,0,EULER,359.9375,-0.9375,-2.75,ACC,-0.04,-0.01,0.39,GRAV,-0.16,0.47,9.79*56
$HCHDG,271.2,0.0,E,,*2F
$GPRMC,165127.8,A,4741.19654,N,12224.24464,W,000.11,356.5,060816,016.4,E,A*28
$IIRMB,A,0.00,L,M,X,4741.777000,N,12224.575000,W,0.6,339,0.10,V*07
$YXXDR,A,5.4,D,PTCH,A,4.1,D,ROLL*59
$GPGGA,165127.8,4741.19654,N,12224.24464,W,1,07,1.3,0.9,M,-18.2,M,,*64
$GPVTG,356.5,T,340.1,M,000.11,N,0000.20,K,A*12
$DATA,IMU,0,3,0,0,EULER,359.9375,-0.9375,-2.75,ACC,-0.04,0.01,0.42,GRAV,-0.16,0.47,9.79*77
$IIMTW,+13.0,C*3A
$HCHDG,271.1,0.0,E,,*2C
$GPRMC,165127.9,A,4741.19654,N,12224.24464,W,000.10,356.5,060816,016.4,E,A*28
$IIRMB,A,0.00,L,M,X,4741.777000,N,12224.575000,W,0.6,339,0.10,V*07
$YXXDR,A,5.4,D,PTCH,A,4.1,D,ROLL*59
$GPGGA,165127.9,4741.19654,N,12224.24464,W,1,07,1.3,0.9,M,-18.2,M,,*65
$IIMWV,286,R,06.6,N,A*1F
$GPVTG,356.5,T,340.1,M,000.10,N,0000.19,K,A*19
$DATA,IMU,0,3,0,0,EULER,359.9375,-0.9375,-2.75,ACC,-0.05,0,0.42,GRAV,-0.16,0.47,9.79*59
$IIMWV,284,T,07.6,N,A*1A
$HCHDG,271.1,0.0,E,,*2C
$GPRMC,165128.0,A,4741.19654,N,12224.24464,W,000.10,356.5,060816,016.4,E,A*2E
$IIRMB,A,0.00,L,M,X,4741.777000,N,12224.575000,W,0.6,339,0.10,V*07
$YXXDR,A,5.4,D,PTCH,A,4.1,D,ROLL*59
$GPGGA,165128.0,4741.19654,N,12224.24464,W,1,07,1.3,0.9,M,-18.2,M,,*63
$GPVTG,356.5,T,340.1,M,000.10,N,0000.18,K,A*18
$GPGSA,A,3,17,28,24,15,13,01,19,,,,,,2.4,1.3,2.0*31
$DATA,IMU,0,3,0,0,EULER,359.9375,-0.9375,-2.75,ACC,-0.05,0,0.42,GRAV,-0.16,0.47,9.79*59
$GPGSV,2,1,07,17,80,114,43,28,48,074,39,24,35,307,39,15,28,259,42*77
$GPGSV,2,2,07,13,28,221,39,01,21,046,39,19,62,200,37*4D
$HCHDG,271.2,0.0,E,,*2F
$GPRMC,165128.1,A,4741.19654,N,12224.24464,W,000.12,356.5,060816,016.4,E,A*2D
$IIRMB,A,0.00,L,M,X,4741.777000,N,12224.575000,W,0.6,339,0.11,V*06
$YXXDR,A,5.4,D,PTCH,A,4.1,D,ROLL*59
$TIROT,16.2,A*0E
$GPGGA,165128.1,4741.19654,N,12224.24464,W,1,07,1.3,0.9,M,-18.2,M,,*62
$GPVTG,356.5,T,340.1,M,000.12,N,0000.22,K,A*13
$DATA,IMU,0,3,0,0,EULER,359.9375,-0.9375,-2.75,ACC,-0.05,-0.01,0.4,GRAV,-0.16,0.47,9.79*69
$HCHDG,271.2,0.0,E,,*2F
$GPRMC,165128.2,A,4741.19654,N,12224.24464,W,000.12,356.5,060816,016.4,E,A*2E
$IIRMB,A,0.00,L,M,X,4741.777000,N,12224.575000,W,0.6,339,0.11,V*06
$YXXDR,A,5.4,D,PTCH,A,4.0,D,ROLL*58
$GPGGA,165128.2,4741.19654,N,12224.24464,W,1,07,1.3,0.9,M,-18.2,M,,*61
$GPVTG,356.5,T,340.1,M,000.12,N,0000.22,K,A*13
$DATA,IMU,0,3,0,0,EULER,359.9375,-0.9375,-2.75,ACC,-0.06,-0.02,0.42,GRAV,-0.16,0.47,9.79*5B
$HCHDG,271.1,0.0,E,,*2C
$GPRMC,165128.3,A,4741.19654,N,12224.24464,W,000.12,356.5,060816,016.4,E,A*2F
$IIRMB,A,0.00,L,M,X,4741.777000,N,12224.575000,W,0.6,339,0.11,V*06
$YXXDR,A,5.4,D,PTCH,A,4.0,D,ROLL*58
$GPGGA,165128.3,4741.19654,N,12224.24464,W,1,07,1.3,0.9,M,-18.2,M,,*60
$GPVTG,356.5,T,340.1,M,000.12,N,0000.22,K,A*13
$DATA,IMU,0,3,0,0,EULER,359.9375,-0.9375,-2.75,ACC,-0.08,0,0.44,GRAV,-0.16,0.47,9.79*52
$HCHDG,271.1,0.0,E,,*2C
$YXXDR,A,5.4,D,PTCH,A,4.0,D,ROLL*58
$GPRMC,165128.4,A,4741.19653,N,12224.24462,W,000.11,356.5,060816,016.4,E,A*2A
$IIRMB,A,0.00,L,M,X,4741.777000,N,12224.575000,W,0.6,339,0.10,V*07
$GPGGA,165128.4,4741.19653,N,12224.24462,W,1,07,1.3,1.0,M,-18.2,M,,*6E
$GPVTG,356.5,T,340.1,M,000.11,N,0000.20,K,A*12
$DATA,IMU,0,3,0,0,EULER,359.9375,-0.9375,-2.75,ACC,-0.08,-0.02,0.43,GRAV,-0.16,0.47,9.79*54
$IIRMB,A,0.00,L,,X   ,,,,,000.6,339,,V,A*30
$HCHDG,271.1,0.0,E,,*2C
$GPRMC,165128.5,A,4741.19653,N,12224.24462,W,000.10,356.5,060816,016.4,E,A*2A
$IIRMB,A,0.00,L,M,X,4741.777000,N,12224.575000,W,0.6,339,0.10,V*07
$YXXDR,A,5.4,D,PTCH,A,4.0,D,ROLL*58
$GPGGA,165128.5,4741.19653,N,12224.24462,W,1,07,1.3,1.0,M,-18.2,M,,*6F
$GPVTG,356.5,T,340.1,M,000.10,N,0000.19,K,A*19
$DATA,IMU,0,3,0,0,EULER,359.9375,-0.9375,-2.75,ACC,-0.09,0,0.34,GRAV,-0.16,0.47,9.79*54
$HCHDG,271.1,0.0,E,,*2C
$GPRMC,165128.6,A,4741.19653,N,12224.24462,W,000.09,356.5,060816,016.4,E,A*21
$IIRMB,A,0.00,L,M,X,4741.777000,N,12224.575000,W,0.6,339,0.09,V*0F
$YXXDR,A,5.3,D,PTCH,A,3.9,D,ROLL*51
$GPGGA,165128.6,4741.19653,N,12224.24462,W,1,07,1.3,1.0,M,-18.2,M,,*6C
$GPVTG,356.5,T,340.1,M,000.09,N,0000.16,K,A*1E
$IIVHW,,,,,00.0,N,,*19
$DATA,IMU,0,3,0,0,EULER,359.9375,-0.9375,-2.75,ACC,-0.09,0,0.33,GRAV,-0.16,0.47,9.79*53
$DATA,env,P,967.95703125,T,16.79*7A
$HCHDG,271.1,0.0,E,,*2C
$GPRMC,165128.7,A,4741.19653,N,12224.24462,W,000.09,356.5,060816,016.4,E,A*20
$IIRMB,A,0.00,L,M,X,4741.777000,N,12224.575000,W,0.6,339,0.09,V*0F
$YXXDR,A,5.3,D,PTCH,A,3.9,D,ROLL*51
$IIVLW,07570,N,000.0,N*56
$GPGGA,165128.7,4741.19653,N,12224.24462,W,1,07,1.3,1.0,M,-18.2,M,,*6D
$GPVTG,356.5,T,340.1,M,000.09,N,0000.16,K,A*1E
$IIVWR,071,L,06.6,N,,,,*79
$DATA,IMU,0,3,0,0,EULER,359.9375,-0.9375,-2.75,ACC,-0.08,-0.01,0.3,GRAV,-0.16,0.47,9.79*63
$HCHDG,271.1,0.0,E,,*2C
$YXXDR,A,5.3,D,PTCH,A,3.9,D,ROLL*51
$GPRMC,165128.8,A,4741.19653,N,12224.24462,W,000.09,356.5,060816,016.4,E,A*2F
$IIRMB,A,0.00,L,M,X,4741.777000,N,12224.575000,W,0.6,339,0.09,V*0F
$GPGGA,165128.8,4741.19653,N,12224.24462,W,1,07,1.3,1.0,M,-18.2,M,,*62
$GPVTG,356.5,T,340.1,M,000.09,N,0000.17,K,A*1F
$DATA,IMU,0,3,0,0,EULER,359.9375,-0.9375,-2.75,ACC,-0.09,0,0.37,GRAV,-0.16,0.47,9.79*57
$HCHDG,271.1,0.0,E,,*2C
$YXXDR,A,5.3,D,PTCH,A,3.8,D,ROLL*50
$GPRMC,165128.9,A,4741.19653,N,12224.24462,W,000.09,356.5,060816,016.4,E,A*2E
$IIRMB,A,0.00,L,M,X,4741.777000,N,12224.575000,W,0.6,339,0.09,V*0F
$GPGGA,165128.9,4741.19653,N,12224.24462,W,1,07,1.3,1.0,M,-18.2,M,,*63
$GPVTG,356.5,T,340.1,M,000.09,N,0000.17,K,A*1F
$IIMTW,+13.0,C*3A
$DATA,IMU,0,3,0,0,EULER,359.9375,-0.9375,-2.75,ACC,-0.11,0,0.37,GRAV,-0.16,0.47,9.79*5E
$HCHDG,271.1,0.0,E,,*2C
$GPRMC,165129.0,A,4741.19653,N,12224.24462,W,000.10,356.5,060816,016.4,E,A*2E
$IIRMB,A,0.00,L,M,X,4741.777000,N,12224.575000,W,0.6,339,0.10,V*07
$YXXDR,A,5.3,D,PTCH,A,3.8,D,ROLL*50
$GPGGA,165129.0,4741.19653,N,12224.24462,W,1,07,1.3,1.0,M,-18.2,M,,*6B
$GPVTG,356.5,T,340.1,M,000.10,N,0000.19,K,A*19
$GPGSA,A,3,17,28,24,15,13,01,19,,,,,,2.4,1.3,2.0*31
$GPGSV,2,1,07,17,80,114,43,28,48,074,39,24,35,307,39,15,28,259,42*77
$DATA,IMU,0,3,0,0,EULER,359.9375,-0.9375,-2.75,ACC,-0.08,0.01,0.34,GRAV,-0.16,0.47,9.79*7A
$GPGSV,2,2,07,13,28,221,38,01,21,046,39,19,62,200,37*4C
$HCHDG,271.1,0.0,E,,*2C
$YXXDR,A,5.3,D,PTCH,A,3.8,D,ROLL*50
$TIROT,21.0,A*08
$GPRMC,165129.1,A,4741.19653,N,12224.24462,W,000.10,356.5,060816,016.4,E,A*2F
$IIRMB,A,0.00,L,M,X,4741.777000,N,12224.575000,W,0.6,339,0.10,V*07
$GPGGA,165129.1,4741.19653,N,12224.24462,W,1,07,1.3,1.0,M,-18.2,M,,*6A
$GPVTG,356.5,T,340.1,M,000.10,N,0000.19,K,A*19
$HCHDG,271.1,0.0,E,,*2C
$DATA,IMU,0,3,0,0,EULER,359.9375,-0.9375,-2.75,ACC,-0.07,0,0.42,GRAV,-0.16,0.47,9.79*5B
$YXXDR,A,5.4,D,PTCH,A,3.7,D,ROLL*58
$GPRMC,165129.2,A,4741.19653,N,12224.24462,W,000.11,356.5,060816,016.4,E,A*2D
$IIRMB,A,0.00,L,M,X,4741.777000,N,12224.575000,W,0.6,339,0.10,V*07
$GPGGA,165129.2,4741.19653,N,12224.24462,W,1,07,1.3,1.0,M,-18.2,M,,*69
$GPVTG,356.5,T,340.1,M,000.11,N,0000.20,K,A*12
$HCHDG,271.1,0.0,E,,*2C
$DATA,IMU,0,3,0,0,EULER,359.9375,-0.9375,-2.75,ACC,-0.08,0.01,0.42,GRAV,-0.16,0.47,9.79*7B
$YXXDR,A,5.3,D,PTCH,A,3.8,D,ROLL*50
$GPRMC,165129.3,A,4741.19653,N,12224.24462,W,000.10,356.5,060816,016.4,E,A*2D
$IIRMB,A,0.00,L,M,X,4741.777000,N,12224.575000,W,0.6,339,0.10,V*07
$GPGGA,165129.3,4741.19653,N,12224.24462,W,1,07,1.3,1.0,M,-18.2,M,,*68
$GPVTG,356.5,T,340.1,M,000.10,N,0000.19,K,A*19
$HCHDG,271.1,0.0,E,,*2C
$DATA,IMU,0,3,0,0,EULER,359.9375,-0.9375,-2.75,ACC,-0.05,-0.02,0.41,GRAV,-0.16,0.47,9.79*5B
$YXXDR,A,5.3,D,PTCH,A,3.8,D,ROLL*50
$GPRMC,165129.4,A,4741.19646,N,12224.24452,W,000.11,356.5,060816,016.4,E,A*2C
$IIRMB,A,0.00,L,M,X,4741.777000,N,12224.575000,W,0.6,339,0.10,V*07
$GPGGA,165129.4,4741.19646,N,12224.24452,W,1,07,1.3,1.1,M,-18.2,M,,*69
$IIMWV,292,R,07.0,N,A*1D
$GPVTG,356.5,T,340.1,M,000.11,N,0000.21,K,A*13
$HCHDG,271.1,0.0,E,,*2C
$IIMWV,289,T,06.6,N,A*16
$YXXDR,A,5.2,D,PTCH,A,3.7,D,ROLL*5E
$GPRMC,165129.5,A,4741.19646,N,12224.24452,W,000.13,356.5,060816,016.4,E,A*2F
$IIRMB,A,0.00,L,M,X,4741.777000,N,12224.575000,W,0.6,339,0.12,V*05
$DATA,IMU,0,3,0,0,EULER,359.9375,-0.9375,-2.75,ACC,-0.06,0,0.43,GRAV,-0.16,0.47,9.79*5B
$GPGGA,165129.5,4741.19646,N,12224.24452,W,1,07,1.3,1.1,M,-18.2,M,,*68
$GPVTG,356.5,T,340.1,M,000.13,N,0000.24,K,A*14
$IIRMB,A,0.00,L,,X   ,,,,,000.6,339,,V,A*30
$HCHDG,271.1,0.0,E,,*2C
$YXXDR,A,5.2,D,PTCH,A,3.7,D,ROLL*5E
$DATA,IMU,0,3,0,0,EULER,359.9375,-0.9375,-2.75,ACC,-0.02,0,0.44,GRAV,-0.16,0.47,9.79*58
$GPRMC,165129.6,A,4741.19646,N,12224.24452,W,000.13,356.5,060816,016.4,E,A*2C
$IIRMB,A,0.00,L,M,X,4741.777000,N,12224.575000,W,0.6,339,0.12,V*05
$GPGGA,165129.6,4741.19646,N,12224.24452,W,1,07,1.3,1.1,M,-18.2,M,,*6B
$GPVTG,356.5,T,340.1,M,000.13,N,0000.24,K,A*14
$DATA,env,P,967.5703125,T,16.8*75
$HCHDG,271.0,0.0,E,,*2D
$YXXDR,A,5.2,D,PTCH,A,3.7,D,ROLL*5E
$GPRMC,165129.7,A,4741.19646,N,12224.24452,W,000.11,356.5,060816,016.4,E,A*2F
$IIRMB,A,0.00,L,M,X,4741.777000,N,12224.575000,W,0.6,339,0.10,V*07
$DATA,IMU,0,3,0,0,EULER,359.9375,-0.9375,-2.75,ACC,0,0,0.41,GRAV,-0.16,0.47,9.79*5C
$GPGGA,165129.7,4741.19646,N,12224.24452,W,1,07,1.3,1.1,M,-18.2,M,,*6A
$GPVTG,356.5,T,340.1,M,000.11,N,0000.21,K,A*13
$IIVHW,,,,,00.0,N,,*19
$HCHDG,271.0,0.0,E,,*2D
$YXXDR,A,5.3,D,PTCH,A,3.8,D,ROLL*50
$GPRMC,165129.8,A,4741.19646,N,12224.24452,W,000.11,356.5,060816,016.4,E,A*20
$IIRMB,A,0.00,L,M,X,4741.777000,N,12224.575000,W,0.6,339,0.10,V*07
$IIVLW,07570,N,000.0,N*56
$DATA,IMU,0,3,0,0,EULER,359.9375,-0.9375,-2.75,ACC,0,0.01,0.3,GRAV,-0.16,0.47,9.79*45
$GPGGA,165129.8,4741.19646,N,12224.24452,W,1,07,1.3,1.1,M,-18.2,M,,*65
$GPVTG,356.5,T,340.1,M,000.11,N,0000.20,K,A*12
$IIVWR,068,L,07.0,N,,,,*76
$HCHDG,271.0,0.0,E,,*2D
$YXXDR,A,5.2,D,PTCH,A,3.7,D,ROLL*5E
$GPRMC,165129.9,A,4741.19646,N,12224.24452,W,000.11,356.5,060816,016.4,E,A*21
$IIRMB,A,0.00,L,M,X,4741.777000,N,12224.575000,W,0.6,339,0.10,V*07
$DATA,IMU,0,3,0,0,EULER,359.9375,-0.9375,-2.75,ACC,0,-0.01,0.31,GRAV,-0.16,0.47,9.79*59
$GPGGA,165129.9,4741.19646,N,12224.24452,W,1,07,1.3,1.1,M,-18.2,M,,*64
$GPVTG,356.5,T,340.1,M,000.11,N,0000.20,K,A*12
$HCHDG,271.0,0.0,E,,*2D
$YXXDR,A,5.2,D,PTCH,A,3.7,D,ROLL*5E
$GPRMC,165130.0,A,4741.19646,N,12224.24452,W,000.11,356.5,060816,016.4,E,A*20
$IIRMB,A,0.00,L,M,X,4741.777000,N,12224.575000,W,0.6,339,0.10,V*07
$DATA,IMU,0,3,0,0,EULER,359.9375,-0.9375,-2.75,ACC,0.02,0,0.36,GRAV,-0.16,0.47,9.79*70
$GPGGA,165130.0,4741.19646,N,12224.24452,W,1,07,1.3,1.1,M,-18.2,M,,*65
$GPVTG,356.5,T,340.1,M,000.11,N,0000.20,K,A*12
$GPGSA,A,3,17,28,24,15,13,01,19,,,,,,2.4,1.3,2.0*31
$GPGSV,2,1,07,17,80,114,43,28,48,074,39,24,35,307,39,15,28,259,42*77
$GPGSV,2,2,07,13,28,221,38,01,21,046,39,19,62,200,38*43
$HCHDG,271.0,0.0,E,,*2D
$YXXDR,A,5.3,D,PTCH,A,3.9,D,ROLL*51
$TIROT,9.2,A*30
$GPRMC,165130.1,A,4741.19646,N,12224.24452,W,000.09,356.5,060816,016.4,E,A*28
$IIRMB,A,0.00,L,M,X,4741.777000,N,12224.575000,W,0.6,339,0.09,V*0F
$GPGGA,165130.1,4741.19646,N,12224.24452,W,1,07,1.3,1.1,M,-18.2,M,,*64
$GPVTG,356.5,T,340.1,M,000.09,N,0000.18,K,A*10
$DATA,IMU,0,3,0,0,EULER,359.9375,-0.9375,-2.75,ACC,0,0,0.43,GRAV,-0.16,0.47,9.79*5E
$HCHDG,271.0,0.0,E,,*2D
$YXXDR,A,5.3,D,PTCH,A,3.8,D,ROLL*50
$GPRMC,165130.2,A,4741.19646,N,12224.24452,W,000.09,356.5,060816,016.4,E,A*2B
$IIRMB,A,0.00,L,M,X,4741.777000,N,12224.575000,W,0.6,339,0.09,V*0F
$GPGGA,165130.2,4741.19646,N,12224.24452,W,1,07,1.3,1.1,M,-18.2,M,,*67
$DATA,IMU,0,3,0,0,EULER,359.9375,-0.9375,-2.75,ACC,0.03,0,0.41,GRAV,-0.16,0.47,9.79*71
$GPVTG,356.5,T,340.1,M,000.09,N,0000.17,K,A*1F
$HCHDG,271.0,0.0,E,,*2D
$YXXDR,A,5.3,D,PTCH,A,3.9,D,ROLL*51
$GPRMC,165130.3,A,4741.19646,N,12224.24452,W,000.08,356.5,060816,016.4,E,A*2B
$IIRMB,A,0.00,L,M,X,4741.777000,N,12224.575000,W,0.6,339,0.08,V*0E
$GPGGA,165130.3,4741.19646,N,12224.24452,W,1,07,1.3,1.1,M,-18.2,M,,*66
$DATA,IMU,0,3,0,0,EULER,359.9375,-0.9375,-2.75,ACC,0.04,-0.02,0.43,GRAV,-0.16,0.47,9.79*75
$GPVTG,356.5,T,340.1,M,000.08,N,0000.16,K,A*1F
$HCHDG,271.1,0.0,E,,*2C
$YXXDR,A,5.3,D,PTCH,A,4.0,D,ROLL*5F
$GPRMC,165130.4,A,4741.19646,N,12224.24452,W,000.08,356.5,060816,016.4,E,A*2C
$IIRMB,A,0.00,L,M,X,4741.777000,N,12224.575000,W,0.6,339,0.08,V*0E
$GPGGA,165130.4,4741.19646,N,12224.24452,W,1,07,1.3,1.1,M,-18.2,M,,*61
$GPVTG,356.5,T,340.1,M,000.08,N,0000.15,K,A*1C
$DATA,IMU,0,3,0,0,EULER,359.9375,-0.9375,-2.75,ACC,0.02,-0.01,0.41,GRAV,-0.16,0.47,9.79*72
$HCHDG,271.1,0.0,E,,*2C
$IIMTW,+13.0,C*3A
$YXXDR,A,5.4,D,PTCH,A,4.0,D,ROLL*58
$GPRMC,165130.5,A,4741.19646,N,12224.24452,W,000.08,356.5,060816,016.4,E,A*2D
$IIRMB,A,0.00,L,M,X,4741.777000,N,12224.575000,W,0.6,339,0.08,V*0E
$GPGGA,165130.5,4741.19646,N,12224.24452,W,1,07,1.3,1.1,M,-18.2,M,,*60
$GPVTG,356.5,T,340.1,M,000.08,N,0000.14,K,A*1D
$PTAK,FFP1,HEEL,###@*24
$PTAK,FFP2,TGTSPD,kts*2C
$PTAK,FFP3,TGTTWA,###@*27
$DATA,IMU,0,3,0,0,EULER,359.9375,-0.9375,-2.75,ACC,0.01,0,0.43,GRAV,-0.16,0.47,9.79*71
$IIMWV,285,R,07.3,N,A*18
$HCHDG,271.1,0.0,E,,*2C
$YXXDR,A,5.4,D,PTCH,A,4.0,D,ROLL*58
$GPRMC,165130.6,A,4741.19646,N,12224.24452,W,000.07,356.5,060816,016.4,E,A*21
$IIRMB,A,0.00,L,M,X,4741.777000,N,12224.575000,W,0.6,339,0.07,V*01
$IIMWV,292,T,07.0,N,A*1B
$GPGGA,165130.6,4741.19646,N,12224.24452,W,1,07,1.3,1.1,M,-18.2,M,,*63
$GPVTG,356.5,T,340.1,M,000.07,N,0000.12,K,A*14
$DATA,IMU,0,3,0,0,EULER,359.9375,-0.9375,-2.75,ACC,0,0,0.42,GRAV,-0.16,0.47,9.79*5F
$DATA,env,P,967.95703125,T,16.79*7A
$HCHDG,271.0,0.0,E,,*2D
$IIRMB,A,0.00,L,,X   ,,,,,000.6,339,,V,A*30
$YXXDR,A,5.4,D,PTCH,A,4.2,D,ROLL*5A
$GPRMC,165130.7,A,4741.19646,N,12224.24452,W,000.07,356.5,060816,016.4,E,A*20
$IIRMB,A,0.00,L,M,X,4741.777000,N,12224.575000,W,0.6,339,0.07,V*01
$GPGGA,165130.7,4741.19646,N,12224.24452,W,1,07,1.3,1.1,M,-18.2,M,,*62
$GPVTG,356.5,T,340.1,M,000.07,N,0000.12,K,A*14
$DATA,IMU,0,3,0,0,EULER,359.9375,-0.9375,-2.75,ACC,0,0,0.44,GRAV,-0.16,0.47,9.79*59
$HCHDG,271.0,0.0,E,,*2D
$YXXDR,A,5.4,D,PTCH,A,4.2,D,ROLL*5A
$GPRMC,165130.8,A,4741.19646,N,12224.24452,W,000.06,356.5,060816,016.4,E,A*2E
$IIRMB,A,0.00,L,M,X,4741.777000,N,12224.575000,W,0.6,339,0.06,V*00
$GPGGA,165130.8,4741.19646,N,12224.24452,W,1,07,1.3,1.1,M,-18.2,M,,*6D
$GPVTG,356.5,T,340.1,M,000.06,N,0000.11,K,A*16
$DATA,IMU,0,3,0,0,EULER,359.9375,-0.9375,-2.75,ACC,0,0,0.32,GRAV,-0.16,0.47,9.79*58
$HCHDG,271.0,0.0,E,,*2D
$IIVHW,,,,,00.0,N,,*19
$YXXDR,A,5.4,D,PTCH,A,4.2,D,ROLL*5A
$GPRMC,165130.9,A,4741.19646,N,12224.24452,W,000.06,356.5,060816,016.4,E,A*2F
$IIRMB,A,0.00,L,M,X,4741.777000,N,12224.575000,W,0.6,339,0.06,V*00
$GPGGA,165130.9,4741.19646,N,12224.24452,W,1,07,1.3,1.1,M,-18.2,M,,*6C
$GPVTG,356.5,T,340.1,M,000.06,N,0000.11,K,A*16
$IIVLW,07570,N,000.0,N*56
$DATA,IMU,0,3,0,0,EULER,359.9375,-0.9375,-2.75,ACC,0.01,0,0.32,GRAV,-0.16,0.47,9.79*77
$HCHDG,271.0,0.0,E,,*2D
$YXXDR,A,5.4,D,PTCH,A,4.2,D,ROLL*5A
$GPRMC,165131.0,A,4741.19646,N,12224.24452,W,000.06,356.5,060816,016.4,E,A*27
$IIRMB,A,0.00,L,M,X,4741.777000,N,12224.575000,W,0.6,339,0.06,V*00
$GPGGA,165131.0,4741.19646,N,12224.24452,W,1,07,1.3,1.1,M,-18.2,M,,*64
$GPVTG,356.5,T,340.1,M,000.06,N,0000.10,K,A*17
$GPGSA,A,3,17,28,24,15,13,01,19,,,,,,2.4,1.3,2.0*31
$DATA,IMU,0,3,0,0,EULER,359.9375,-0.9375,-2.75,ACC,-0.01,0.01,0.37,GRAV,-0.16,0.47,9.79*70
$GPGSV,2,1,07,17,80,114,43,28,48,074,39,24,35,307,39,15,28,259,42*77
$HCHDG,271.0,0.0,E,,*2D
$GPGSV,2,2,07,13,28,221,38,01,21,046,40,19,62,200,38*4D
$YXXDR,A,5.4,D,PTCH,A,4.2,D,ROLL*5A
$TIROT,22.0,A*0B
$GPRMC,165131.1,A,4741.19646,N,12224.24452,W,000.06,356.5,060816,016.4,E,A*26
$IIRMB,A,0.00,L,M,X,4741.777000,N,12224.575000,W,0.6,339,0.06,V*00
$GPGGA,165131.1,4741.19646,N,12224.24452,W,1,07,1.3,1.1,M,-18.2,M,,*65
$GPVTG,356.5,T,340.1,M,000.06,N,0000.11,K,A*16
$GPRMC,165131.2,A,4741.19646,N,12224.24452,W,000.05,356.5,060816,016.4,E,A*26
$IIRMB,A,0.00,L,M,X,4741.777000,N,12224.575000,W,0.6,339,0.05,V*03
$DATA,IMU,0,3,0,0,EULER,359.9375,-0.9375,-2.75,ACC,0.01,0,0.36,GRAV,-0.16,0.47,9.79*73
$GPGGA,165131.2,4741.19646,N,12224.24452,W,1,07,1.3,1.1,M,-18.2,M,,*66
$GPVTG,356.5,T,340.1,M,000.05,N,0000.10,K,A*14
$HCHDG,271.0,0.0,E,,*2D
$YXXDR,A,5.4,D,PTCH,A,4.2,D,ROLL*5A
$GPRMC,165131.3,A,4741.19646,N,12224.24452,W,000.07,356.5,060816,016.4,E,A*25
$IIRMB,A,0.00,L,M,X,4741.777000,N,12224.575000,W,0.6,339,0.07,V*01
$DATA,IMU,0,3,0,0,EULER,359.9375,-0.9375,-2.75,ACC,-0.03,-0.01,0.36,GRAV,-0.16,0.47,9.79*5E
$HCHDG,271.0,0.0,E,,*2D
$GPGGA,165131.3,4741.19646,N,12224.24452,W,1,07,1.3,1.1,M,-18.2,M,,*67
$YXXDR,A,5.4,D,PTCH,A,4.2,D,ROLL*5A
$GPVTG,356.5,T,340.1,M,000.07,N,0000.12,K,A*14
$GPRMC,165131.4,A,4741.19646,N,12224.24452,W,000.09,356.5,060816,016.4,E,A*2C
$IIRMB,A,0.00,L,M,X,4741.777000,N,12224.575000,W,0.6,339,0.09,V*0F
$DATA,IMU,0,3,0,0,EULER,359.9375,-0.9375,-2.75,ACC,-0.02,0,0.42,GRAV,-0.16,0.47,9.79*5E
$GPGGA,165131.4,4741.19646,N,12224.24452,W,1,07,1.3,1.2,M,-18.2,M,,*63
$GPVTG,356.5,T,340.1,M,000.09,N,0000.17,K,A*1F
$HCHDG,271.0,0.0,E,,*2D
$YXXDR,A,5.4,D,PTCH,A,4.2,D,ROLL*5A
$IIVWR,078,L,07.9,N,,,,*7E
$GPRMC,165131.5,A,4741.19645,N,12224.24450,W,000.11,356.5,060816,016.4,E,A*25
$IIRMB,A,0.00,L,M,X,4741.777000,N,12224.575000,W,0.6,339,0.10,V*07
$HCHDG,271.0,0.0,E,,*2D
$GPGGA,165131.5,4741.19645,N,12224.24450,W,1,07,1.3,1.2,M,-18.2,M,,*63
$YXXDR,A,5.4,D,PTCH,A,4.2,D,ROLL*5A
$DATA,IMU,0,3,0,0,EULER,359.9375,-0.9375,-2.75,ACC,-0.04,0,0.44,GRAV,-0.16,0.47,9.79*5E
$GPVTG,356.5,T,340.1,M,000.11,N,0000.20,K,A*12
$GPRMC,165131.6,A,4741.19645,N,12224.24450,W,000.11,356.5,060816,016.4,E,A*26
$IIRMB,A,0.00,L,M,X,4741.777000,N,12224.575000,W,0.6,339,0.10,V*07
$HCHDG,271.0,0.0,E,,*2D
$GPGGA,165131.6,4741.19645,N,12224.24450,W,1,07,1.3,1.2,M,-18.2,M,,*60
$YXXDR,A,5.4,D,PTCH,A,4.2,D,ROLL*5A
$GPVTG,356.5,T,340.1,M,000.11,N,0000.20,K,A*12
$IIMTW,+13.0,C*3A
$DATA,IMU,0,3,0,0,EULER,359.9375,-0.9375,-2.75,ACC,-0.03,0,0.43,GRAV,-0.16,0.47,9.79*5E
$IIMWV,282,R,07.9,N,A*15
$GPRMC,165131.7,A,4741.19645,N,12224.24450,W,000.12,356.5,060816,016.4,E,A*24
$IIRMB,A,0.00,L,M,X,4741.777000,N,12224.575000,W,0.6,339,0.11,V*06
$DATA,env,P,967.77734375,T,16.8*43
$GPGGA,165131.7,4741.19645,N,12224.24450,W,1,07,1.3,1.2,M,-18.2,M,,*61
$HCHDG,271.0,0.0,E,,*2D
$GPVTG,356.5,T,340.1,M,000.12,N,0000.23,K,A*12
$YXXDR,A,5.4,D,PTCH,A,4.2,D,ROLL*5A
$DATA,IMU,0,3,0,0,EULER,359.9375,-0.9375,-2.75,ACC,-0.03,-0.01,0.38,GRAV,-0.16,0.47,9.79*50
$IIMWV,285,T,07.3,N,A*1E
$GPRMC,165131.8,A,4741.19645,N,12224.24450,W,000.13,356.5,060816,016.4,E,A*2A
$IIRMB,A,0.00,L,M,X,4741.777000,N,12224.575000,W,0.6,339,0.12,V*05
$HCHDG,270.9,0.0,E,,*25
$GPGGA,165131.8,4741.19645,N,12224.24450,W,1,07,1.3,1.2,M,-18.2,M,,*6E
$YXXDR,A,5.4,D,PTCH,A,4.0,D,ROLL*58
$GPVTG,356.5,T,340.1,M,000.13,N,0000.23,K,A*13
$IIRMB,A,0.00,L,,X   ,,,,,000.6,339,,V,A*30
$DATA,IMU,0,3,0,0,EULER,359.9375,-0.9375,-2.75,ACC,-0.04,-0.01,0.41,GRAV,-0.16,0.47,9.79*59
$GPRMC,165131.9,A,4741.19645,N,12224.24450,W,000.12,356.5,060816,016.4,E,A*2A
$IIRMB,A,0.00,L,M,X,4741.777000,N,12224.575000,W,0.6,339,0.11,V*06
$HCHDG,270.9,0.0,E,,*25
$GPGGA,165131.9,4741.19645,N,12224.24450,W,1,07,1.3,1.2,M,-18.2,M,,*6F
$YXXDR,A,5.4,D,PTCH,A,4.1,D,ROLL*59
$GPVTG,356.5,T,340.1,M,000.12,N,0000.23,K,A*12
$DATA,IMU,0,3,0,0,EULER,359.9375,-0.9375,-2.75,ACC,-0.04,0,0.32,GRAV,-0.16,0.47,9.79*5F
$GPRMC,165132.0,A,4741.19645,N,12224.24450,W,000.11,356.5,060816,016.4,E,A*23
$IIRMB,A,0.00,L,M,X,4741.777000,N,12224.575000,W,0.6,339,0.10,V*07
$HCHDG,270.9,0.0,E,,*25
$GPGGA,165132.0,4741.19645,N,12224.24450,W,1,07,1.3,1.2,M,-18.2,M,,*65
$YXXDR,A,5.4,D,PTCH,A,4.0,D,ROLL*58
$GPVTG,356.5,T,340.1,M,000.11,N,0000.21,K,A*13
$GPGSA,A,3,17,28,24,15,13,01,19,,,,,,2.4,1.3,2.0*31
$DATA,IMU,0,3,0,0,EULER,359.9375,-0.9375,-2.75,ACC,-0.04,0,0.3,GRAV,-0.16,0.47,9.79*6D
$GPGSV,2,1,07,17,80,114,43,28,48,074,39,24,35,307,38,15,28,259,42*76
$GPGSV,2,2,07,13,28,221,39,01,21,046,41,19,62,200,38*4D
$GPRMC,165132.1,A,4741.19645,N,12224.24450,W,000.11,356.5,060816,016.4,E,A*22
$IIRMB,A,0.00,L,M,X,4741.777000,N,12224.575000,W,0.6,339,0.10,V*07
$HCHDG,270.9,0.0,E,,*25
$GPGGA,165132.1,4741.19645,N,12224.24450,W,1,07,1.3,1.2,M,-18.2,M,,*64
$YXXDR,A,5.3,D,PTCH,A,4.0,D,ROLL*5F
$TIROT,16.3,A*0F
$GPVTG,356.5,T,340.1,M,000.11,N,0000.20,K,A*12
$DATA,IMU,0,3,0,0,EULER,359.9375,-0.9375,-2.75,ACC,-0.04,-0.01,0.38,GRAV,-0.16,0.47,9.79*57
$GPRMC,165132.2,A,4741.19645,N,12224.24450,W,000.10,356.5,060816,016.4,E,A*20
$IIRMB,A,0.00,L,M,X,4741.777000,N,12224.575000,W,0.6,339,0.10,V*07
$GPGGA,165132.2,4741.19645,N,12224.24450,W,1,07,1.3,1.2,M,-18.2,M,,*67
$GPVTG,356.5,T,340.1,M,000.10,N,0000.19,K,A*19
$HCHDG,270.9,0.0,E,,*25
$YXXDR,A,5.3,D,PTCH,A,4.0,D,ROLL*5F
$DATA,IMU,0,3,0,0,EULER,359.9375,-0.9375,-2.75,ACC,-0.04,0,0.43,GRAV,-0.16,0.47,9.79*59
$GPRMC,165132.3,A,4741.19645,N,12224.24450,W,000.11,356.5,060816,016.4,E,A*20
$IIRMB,A,0.00,L,M,X,4741.777000,N,12224.575000,W,0.6,339,0.10,V*07
$HCHDG,270.9,0.0,E,,*25
$GPGGA,165132.3,4741.19645,N,12224.24450,W,1,07,1.3,1.2,M,-18.2,M,,*66
$YXXDR,A,5.3,D,PTCH,A,4.0,D,ROLL*5F
$GPVTG,356.5,T,340.1,M,000.11,N,0000.21,K,A*13
$DATA,IMU,0,3,0,0,EULER,359.9375,-0.9375,-2.75,ACC,-0.06,-0.02,0.44,GRAV,-0.16,0.47,9.79*5D
$GPRMC,165132.4,A,4741.19645,N,12224.24450,W,000.12,356.5,060816,016.4,E,A*24
$IIRMB,A,0.00,L,M,X,4741.777000,N,12224.575000,W,0.6,339,0.11,V*06
$HCHDG,270.9,0.0,E,,*25
$GPGGA,165132.4,4741.19645,N,12224.24450,W,1,07,1.3,1.2,M,-18.2,M,,*61
$YXXDR,A,5.3,D,PTCH,A,4.0,D,ROLL*5F
$GPVTG,356.5,T,340.1,M,000.12,N,0000.22,K,A*13
$IIVHW,,,,,00.0,N,,*19
$DATA,IMU,0,3,0,0,EULER,359.9375,-0.9375,-2.75,ACC,-0.07,0.01,0.42,GRAV,-0.16,0.47,9.79*74
$GPRMC,165132.5,A,4741.19645,N,12224.24450,W,000.11,356.5,060816,016.4,E,A*26
$IIRMB,A,0.00,L,M,X,4741.777000,N,12224.575000,W,0.6,339,0.10,V*07
$IIVLW,07570,N,000.0,N*56
$HCHDG,270.8,0.0,E,,*24
$GPGGA,165132.5,4741.19645,N,12224.24450,W,1,07,1.3,1.2,M,-18.2,M,,*60
$GPVTG,356.5,T,340.1,M,000.11,N,0000.20,K,A*12
$YXXDR,A,5.3,D,PTCH,A,4.0,D,ROLL*5F
$IIVWR,073,L,07.9,N,,,,*75
$DATA,IMU,0,3,0,0,EULER,359.9375,-0.9375,-2.75,ACC,-0.04,-0.01,0.42,GRAV,-0.16,0.47,9.79*5A
$GPRMC,165132.6,A,4741.19645,N,12224.24450,W,000.12,356.5,060816,016.4,E,A*26
$IIRMB,A,0.00,L,M,X,4741.777000,N,12224.575000,W,0.6,339,0.11,V*06
$HCHDG,270.8,0.0,E,,*24
$GPGGA,165132.6,4741.19645,N,12224.24450,W,1,07,1.3,1.2,M,-18.2,M,,*63
$YXXDR,A,5.3,D,PTCH,A,4.0,D,ROLL*5F
$GPVTG,356.5,T,340.1,M,000.12,N,0000.21,K,A*10
$DATA,IMU,0,3,0,0,EULER,359.9375,-0.9375,-2.75,ACC,-0.05,0,0.44,GRAV,-0.16,0.47,9.79*5F
$GPRMC,165132.7,A,4741.19645,N,12224.24450,W,000.12,356.5,060816,016.4,E,A*27
$IIRMB,A,0.00,L,M,X,4741.777000,N,12224.575000,W,0.6,339,0.11,V*06
$HCHDG,270.8,0.0,E,,*24
$DATA,env,P,970.828125,T,16.81*71
$GPGGA,165132.7,4741.19645,N,12224.24450,W,1,07,1.3,1.2,M,-18.2,M,,*62
$GPVTG,356.5,T,340.1,M,000.12,N,0000.23,K,A*12
$YXXDR,A,5.3,D,PTCH,A,4.0,D,ROLL*5F
$IIMTW,+13.0,C*3A
$DATA,IMU,0,3,0,0,EULER,359.9375,-0.9375,-2.75,ACC,-0.07,0,0.42,GRAV,-0.16,0.47,9.79*5B
$IIMWV,287,R,07.9,N,A*10
$GPRMC,165132.8,A,4741.19645,N,12224.24450,W,000.11,356.5,060816,016.4,E,A*2B
$IIRMB,A,0.00,L,M,X,4741.777000,N,12224.575000,W,0.6,339,0.10,V*07
$HCHDG,270.8,0.0,E,,*24
$GPGGA,165132.8,4741.19645,N,12224.24450,W,1,07,1.3,1.2,M,-18.2,M,,*6D
$YXXDR,A,5.3,D,PTCH,A,4.0,D,ROLL*5F
$GPVTG,356.5,T,340.1,M,000.11,N,0000.20,K,A*12
$IIMWV,282,T,07.9,N,A*13
$DATA,IMU,0,3,0,0,EULER,359.9375,-0.9375,-2.75,ACC,-0.03,0,0.44,GRAV,-0.16,0.47,9.79*59
$GPRMC,165132.9,A,4741.19645,N,12224.24450,W,000.11,356.5,060816,016.4,E,A*2A
$IIRMB,A,0.00,L,M,X,4741.777000,N,12224.575000,W,0.6,339,0.10,V*07
$HCHDG,270.8,0.0,E,,*24
$GPGGA,165132.9,4741.19645,N,12224.24450,W,1,07,1.3,1.2,M,-18.2,M,,*6C
$YXXDR,A,5.3,D,PTCH,A,3.9,D,ROLL*51
$GPVTG,356.5,T,340.1,M,000.11,N,0000.20,K,A*12
$IIRMB,A,0.00,L,,X   ,,,,,000.6,339,,V,A*30
$DATA,IMU,0,3,0,0,EULER,359.9375,-0.9375,-2.75,ACC,-0.05,-0.01,0.32,GRAV,-0.16,0.47,9.79*5C
$GPRMC,165133.0,A,4741.19645,N,12224.24450,W,000.10,356.5,060816,016.4,E,A*23
$IIRMB,A,0.00,L,M,X,4741.777000,N,12224.575000,W,0.6,339,0.10,V*07
$HCHDG,270.7,0.0,E,,*2B
$GPGGA,165133.0,4741.19645,N,12224.24450,W,1,07,1.3,1.2,M,-18.2,M,,*64
$YXXDR,A,5.3,D,PTCH,A,3.9,D,ROLL*51
$GPVTG,356.5,T,340.1,M,000.10,N,0000.19,K,A*19
$GPGSA,A,3,17,28,24,15,13,01,19,,,,,,2.4,1.3,2.0*31
$GPGSV,2,1,07,17,80,114,43,28,48,074,38,24,35,307,31,15,28,259,41*7D
$GPGSV,2,2,07,13,27,220,39,01,21,046,42,19,62,200,38*40
$DATA,IMU,0,3,0,0,EULER,359.9375,-0.9375,-2.75,ACC,-0.05,0,0.32,GRAV,-0.16,0.47,9.79*5E
$GPRMC,165133.1,A,4741.19645,N,12224.24450,W,000.10,356.5,060816,016.4,E,A*22
$IIRMB,A,0.00,L,M,X,4741.777000,N,12224.575000,W,0.6,339,0.10,V*07
$HCHDG,270.7,0.0,E,,*2B
$GPGGA,165133.1,4741.19645,N,12224.24450,W,1,07,1.3,1.2,M,-18.2,M,,*65
$YXXDR,A,5.3,D,PTCH,A,3.9,D,ROLL*51
$TIROT,20.9,A*00
$GPVTG,356.5,T,340.1,M,000.10,N,0000.19,K,A*19
$DATA,IMU,0,3,0,0,EULER,359.9375,-0.9375,-2.75,ACC,-0.03,0,0.4,GRAV,-0.16,0.47,9.79*6D
$GPRMC,165133.2,A,4741.19645,N,12224.24450,W,000.10,356.5,060816,016.4,E,A*21
$IIRMB,A,0.00,L,M,X,4741.777000,N,12224.575000,W,0.6,339,0.10,V*07
$HCHDG,270.7,0.0,E,,*2B
$GPGGA,165133.2,4741.19645,N,12224.24450,W,1,07,1.3,1.2,M,-18.2,M,,*66
$YXXDR,A,5.3,D,PTCH,A,3.9,D,ROLL*51
$GPVTG,356.5,T,340.1,M,000.10,N,0000.18,K,A*18
$DATA,IMU,0,3,0,0,EULER,359.9375,-0.9375,-2.75,ACC,-0.04,0,0.38,GRAV,-0.16,0.47,9.79*55
$GPRMC,165133.3,A,4741.19645,N,12224.24450,W,000.12,356.5,060816,016.4,E,A*22
$IIRMB,A,0.00,L,M,X,4741.777000,N,12224.575000,W,0.6,339,0.11,V*06
$HCHDG,270.7,0.0,E,,*2B
$GPGGA,165133.3,4741.19645,N,12224.24450,W,1,07,1.3,1.2,M,-18.2,M,,*67
$YXXDR,A,5.3,D,PTCH,A,3.9,D,ROLL*51
$GPVTG,356.5,T,340.1,M,000.12,N,0000.22,K,A*13
$DATA,IMU,0,3,0,0,EULER,359.9375,-0.9375,-2.75,ACC,-0.03,-0.01,0.39,GRAV,-0.16,0.47,9.79*51
$GPRMC,165133.4,A,4741.19645,N,12224.24450,W,000.11,356.5,060816,016.4,E,A*26
$IIRMB,A,0.00,L,M,X,4741.777000,N,12224.575000,W,0.6,339,0.10,V*07
$HCHDG,270.7,0.0,E,,*2B
$YXXDR,A,5.3,D,PTCH,A,3.9,D,ROLL*51
$GPGGA,165133.4,4741.19645,N,12224.24450,W,1,07,1.3,1.3,M,-18.2,M,,*61
$GPVTG,356.5,T,340.1,M,000.11,N,0000.21,K,A*13
$GPRMC,165133.5,A,4741.19648,N,12224.24441,W,000.12,356.5,060816,016.4,E,A*29
$IIRMB,A,0.00,L,M,X,4741.777000,N,12224.575000,W,0.6,339,0.11,V*06
$HCHDG,270.7,0.0,E,,*2B
$DATA,IMU,0,3,0,0,EULER,359.9375,-0.9375,-2.75,ACC,-0.02,0,0.39,GRAV,-0.16,0.47,9.79*52
$YXXDR,A,5.2,D,PTCH,A,3.9,D,ROLL*50
$GPGGA,165133.5,4741.19648,N,12224.24441,W,1,07,1.3,1.3,M,-18.2,M,,*6D
$GPVTG,356.5,T,340.1,M,000.12,N,0000.22,K,A*13
$IIVHW,,,,,00.0,N,,*19
$GPRMC,165133.6,A,4741.19648,N,12224.24441,W,000.13,356.5,060816,016.4,E,A*2B
$IIRMB,A,0.00,L,M,X,4741.777000,N,12224.575000,W,0.6,339,0.12,V*05
$HCHDG,270.6,0.0,E,,*2A
$YXXDR,A,5.2,D,PTCH,A,4.0,D,ROLL*5E
$DATA,IMU,0,3,0,0,EULER,359.9375,-0.9375,-2.75,ACC,-0.03,-0.02,0.45,GRAV,-0.16,0.47,9.79*59
$GPGGA,165133.6,4741.19648,N,12224.24441,W,1,07,1.3,1.3,M,-18.2,M,,*6E
$GPVTG,356.5,T,340.1,M,000.13,N,0000.23,K,A*13
$IIVLW,07570,N,000.0,N*56
$IIVWR,070,L,07.7,N,,,,*78
$GPRMC,165133.7,A,4741.19648,N,12224.24441,W,000.12,356.5,060816,016.4,E,A*2B
$IIRMB,A,0.00,L,M,X,4741.777000,N,12224.575000,W,0.6,339,0.11,V*06
$HCHDG,270.6,0.0,E,,*2A
$DATA,env,P,967.56640625,T,16.8*42
$GPGGA,165133.7,4741.19648,N,12224.24441,W,1,07,1.3,1.3,M,-18.2,M,,*6F
$YXXDR,A,5.3,D,PTCH,A,3.9,D,ROLL*51
$GPVTG,356.5,T,340.1,M,000.12,N,0000.23,K,A*12
$DATA,IMU,0,3,0,0,EULER,359.9375,-0.9375,-2.75,ACC,-0.03,0,0.32,GRAV,-0.16,0.47,9.79*58
$GPRMC,165133.8,A,4741.19648,N,12224.24441,W,000.12,356.5,060816,016.4,E,A*24
$IIRMB,A,0.00,L,M,X,4741.777000,N,12224.575000,W,0.6,339,0.11,V*06
$HCHDG,270.6,0.0,E,,*2A
$GPGGA,165133.8,4741.19648,N,12224.24441,W,1,07,1.3,1.3,M,-18.2,M,,*60
$GPVTG,356.5,T,340.1,M,000.12,N,0000.22,K,A*13
$YXXDR,A,5.2,D,PTCH,A,3.9,D,ROLL*50
$DATA,IMU,0,3,0,0,EULER,359.9375,-0.9375,-2.75,ACC,-0.04,-0.03,0.33,GRAV,-0.16,0.47,9.79*5E
$IIMTW,+13.0,C*3A
$HCHDG,270.6,0.0,E,,*2A
$GPRMC,165133.9,A,4741.19648,N,12224.24441,W,000.14,356.5,060816,016.4,E,A*23
$IIRMB,A,0.00,L,M,X,4741.777000,N,12224.575000,W,0.6,339,0.13,V*04
$YXXDR,A,5.2,D,PTCH,A,3.9,D,ROLL*50
$GPGGA,165133.9,4741.19648,N,12224.24441,W,1,07,1.3,1.3,M,-18.2,M,,*61
$GPVTG,356.5,T,340.1,M,000.14,N,0000.25,K,A*12
$IIMWV,290,R,07.7,N,A*18
$DATA,IMU,0,3,0,0,EULER,359.9375,-0.9375,-2.75,ACC,-0.04,0,0.36,GRAV,-0.16,0.47,9.79*5B
$IIMWV,287,T,07.9,N,A*16
$HCHDG,270.6,0.0,E,,*2A
$GPRMC,165134.0,A,4741.19648,N,12224.24441,W,000.13,356.5,060816,016.4,E,A*2A
$IIRMB,A,0.00,L,M,X,4741.777000,N,12224.575000,W,0.6,339,0.12,V*05
$YXXDR,A,5.2,D,PTCH,A,3.9,D,ROLL*50
$GPGGA,165134.0,4741.19648,N,12224.24441,W,1,07,1.3,1.3,M,-18.2,M,,*6F
$GPVTG,356.5,T,340.1,M,000.13,N,0000.24,K,A*14
$DATA,IMU,0,3,0,0,EULER,359.9375,-0.9375,-2.75,ACC,-0.04,0,0.38,GRAV,-0.16,0.47,9.79*55
$GPGSA,A,3,17,28,24,15,13,01,19,,,,,,2.4,1.3,2.0*31
$GPGSV,2,1,07,17,80,114,43,28,48,074,39,24,35,307,32,15,28,259,41*7F
$GPGSV,2,2,07,13,27,220,40,01,21,046,42,19,62,200,38*4E
$HCHDG,270.5,0.0,E,,*29
$GPRMC,165134.1,A,4741.19648,N,12224.24441,W,000.13,356.5,060816,016.4,E,A*2B
$IIRMB,A,0.00,L,M,X,4741.777000,N,12224.575000,W,0.6,339,0.12,V*05
$YXXDR,A,5.2,D,PTCH,A,3.9,D,ROLL*50
$TIROT,15.0,A*0F
$GPGGA,165134.1,4741.19648,N,12224.24441,W,1,07,1.3,1.3,M,-18.2,M,,*6E
$GPVTG,356.5,T,340.1,M,000.13,N,0000.23,K,A*13
$DATA,IMU,0,3,0,0,EULER,359.9375,-0.9375,-2.75,ACC,-0.04,0,0.37,GRAV,-0.16,0.47,9.79*5A
$HCHDG,270.5,0.0,E,,*29
$GPRMC,165134.2,A,4741.19648,N,12224.24441,W,000.12,356.5,060816,016.4,E,A*29
$IIRMB,A,0.00,L,M,X,4741.777000,N,12224.575000,W,0.6,339,0.11,V*06
$YXXDR,A,5.2,D,PTCH,A,3.9,D,ROLL*50
$GPGGA,165134.2,4741.19648,N,12224.24441,W,1,07,1.3,1.3,M,-18.2,M,,*6D
$GPVTG,356.5,T,340.1,M,000.12,N,0000.23,K,A*12
$DATA,IMU,0,3,0,0,EULER,359.9375,-0.9375,-2.75,ACC,-0.06,-0.02,0.35,GRAV,-0.16,0.47,9.79*5B
$HCHDG,270.5,0.0,E,,*29
$GPRMC,165134.3,A,4741.19648,N,12224.24441,W,000.13,356.5,060816,016.4,E,A*29
$IIRMB,A,0.00,L,M,X,4741.777000,N,12224.575000,W,0.6,339,0.12,V*05
$YXXDR,A,5.2,D,PTCH,A,3.9,D,ROLL*50
$GPGGA,165134.3,4741.19648,N,12224.24441,W,1,07,1.3,1.3,M,-18.2,M,,*6C
$GPVTG,356.5,T,340.1,M,000.13,N,0000.24,K,A*14
$DATA,IMU,0,3,0,0,EULER,359.9375,-0.9375,-2.75,ACC,-0.03,0,0.39,GRAV,-0.16,0.47,9.79*53
$HCHDG,270.4,0.0,E,,*28
$GPRMC,165134.4,A,4741.19648,N,12224.24441,W,000.12,356.5,060816,016.4,E,A*2F
$IIRMB,A,0.00,L,M,X,4741.777000,N,12224.575000,W,0.6,339,0.11,V*06
$YXXDR,A,5.2,D,PTCH,A,3.9,D,ROLL*50
$GPGGA,165134.4,4741.19648,N,12224.24441,W,1,07,1.3,1.3,M,-18.2,M,,*6B
$GPVTG,356.5,T,340.1,M,000.12,N,0000.21,K,A*10
$DATA,IMU,0,3,0,0,EULER,359.9375,-0.9375,-2.75,ACC,-0.03,-0.01,0.39,GRAV,-0.16,0.47,9.79*51
$IIRMB,A,0.00,L,,X   ,,,,,000.6,339,,V,A*30
$HCHDG,270.4,0.0,E,,*28
$GPRMC,165134.5,A,4741.19650,N,12224.24438,W,000.11,356.5,060816,016.4,E,A*2A
$IIRMB,A,0.00,L,M,X,4741.777000,N,12224.575000,W,0.6,339,0.10,V*07
$YXXDR,A,5.2,D,PTCH,A,3.9,D,ROLL*50
$GPGGA,165134.5,4741.19650,N,12224.24438,W,1,07,1.3,1.3,M,-18.2,M,,*6D
$GPVTG,356.5,T,340.1,M,000.11,N,0000.21,K,A*13
$DATA,IMU,0,3,0,0,EULER,359.9375,-0.9375,-2.75,ACC,-0.02,0,0.36,GRAV,-0.16,0.47,9.79*5D
$HCHDG,270.4,0.0,E,,*28
$GPRMC,165134.6,A,4741.19650,N,12224.24438,W,000.12,356.5,060816,016.4,E,A*2A
$IIRMB,A,0.00,L,M,X,4741.777000,N,12224.575000,W,0.6,339,0.11,V*06
$YXXDR,A,5.2,D,PTCH,A,3.9,D,ROLL*50
$GPGGA,165134.6,4741.19650,N,12224.24438,W,1,07,1.3,1.3,M,-18.2,M,,*6E
$GPVTG,356.5,T,340.1,M,000.12,N,0000.22,K,A*13
$DATA,IMU,0,3,0,0,EULER,359.9375,-0.9375,-2.75,ACC,-0.05,-0.01,0.4,GRAV,-0.16,0.47,9.79*69
$IIVHW,,,,,00.0,N,,*19
$HCHDG,270.4,0.0,E,,*28
