$GPRMC,030000.0,A,4741.22966,N,12224.61529,W,005.80,031.8,020816,016.4,E,A*2C
$IIRMB,A,0.00,L,M,X,4741.777000,N,12224.575000,W,0.5,3,5.07,V*0D
$GPGGA,030000.0,4741.22966,N,12224.61529,W,1,10,0.8,-2.1,M,-18.3,M,,*4C
$GPVTG,031.8,T,015.4,M,005.80,N,0010.75,K,A*17
$GPGSA,A,3,21,20,18,15,16,13,10,27,08,32,,,1.3,0.8,1.0*3D
$HCHDG,11.8,0.0,E,,*11
$YXXDR,A,6.2,D,PTCH,A,18.9,D,ROLL*69
$IIVLW,07569,N,010.6,N*59
$IIVWR,019,L,20.0,N,,,,*75
$DATA,IMU,0,3,3,0,EULER,5.8125,20.875,-0.9375,ACC,-0.18,0.19,0.29,GRAV,3.49,0.14,9.16*7F
$GPRMC,030000.1,A,4741.22984,N,12224.61508,W,005.11,031.9,020816,016.4,E,A*2B
$IIRMB,A,0.00,L,M,X,4741.777000,N,12224.575000,W,0.5,3,4.47,V*08
$HCHDG,12.2,0.0,E,,*18
$GPGGA,030000.1,4741.22984,N,12224.61508,W,1,10,0.8,-2.0,M,-18.3,M,,*43
$YXXDR,A,6.3,D,PTCH,A,18.7,D,ROLL*66
$GPVTG,031.9,T,015.4,M,005.11,N,0009.46,K,A*16
$GPGSV,3,1,11,21,52,113,48,20,16,069,38,14,04,194,35,18,74,059,44*7C
$DATA,IMU,0,3,3,0,EULER,6.0625,20.8125,-0.5,ACC,-0.28,0.06,0.18,GRAV,3.48,0.07,9.16*76
$GPGSV,3,2,11,15,28,051,50,16,10,251,37,13,05,031,37,10,66,257,43*74
$GPGSV,3,3,11,27,51,283,37,08,25,315,34,32,21,188,35*4F
$HCHDG,12.3,0.0,E,,*19
$GPRMC,030000.2,A,4741.22996,N,12224.61498,W,005.15,031.9,020816,016.4,E,A*27
$IIRMB,A,0.00,L,M,X,4741.777000,N,12224.575000,W,0.5,3,4.50,V*0E
$IIMTW,+12.5,C*3E
$GPGGA,030000.2,4741.22996,N,12224.61498,W,1,10,0.8,-2.0,M,-18.3,M,,*4B
$YXXDR,A,6.3,D,PTCH,A,18.6,D,ROLL*67
$GPVTG,031.9,T,015.4,M,005.15,N,0009.53,K,A*16
$PGRMT,GPS19x-HVS Software Version 2.20,,,,,,,,*6F
$DATA,IMU,0,3,3,0,EULER,6.4375,20.75,-0.1875,ACC,-0.47,0.15,-0.21,GRAV,3.47,0.03,9.16*67
$IIMWV,341,R,20.0,N,A*17
$GPRMC,030000.3,A,4741.23009,N,12224.61488,W,005.24,031.9,020816,016.4,E,A*2B
$IIRMB,A,0.00,L,M,X,4741.777000,N,12224.575000,W,0.5,3,4.58,V*06
$HCHDG,12.3,0.0,E,,*19
$IIMWV,333,T,14.5,N,A*16
$GPGGA,030000.3,4741.23009,N,12224.61488,W,1,10,0.8,-2.1,M,-18.3,M,,*44
$YXXDR,A,6.3,D,PTCH,A,18.3,D,ROLL*62
$GPVTG,031.9,T,015.4,M,005.24,N,0009.71,K,A*14
$DATA,env,P,968.94140625,T,23.95*76
$DATA,IMU,0,3,3,0,EULER,6.8125,20.6875,-0.1875,ACC,-0.44,0.15,-0.5,GRAV,3.46,0.03,9.17*57
$GPRMC,030000.4,A,4741.23022,N,12224.61480,W,004.67,031.9,020816,016.4,E,A*2B
$IIRMB,A,0.00,L,M,X,4741.777000,N,12224.575000,W,0.5,3,4.08,V*03
$HCHDG,12.2,0.0,E,,*18
$GPGGA,030000.4,4741.23022,N,12224.61480,W,1,10,0.8,-2.1,M,-18.3,M,,*42
$YXXDR,A,6.2,D,PTCH,A,17.8,D,ROLL*67
$GPVTG,031.9,T,015.4,M,004.67,N,0008.65,K,A*16
$DATA,IMU,0,3,3,0,EULER,7.1875,20.6875,-0.375,ACC,-0.45,0.08,-0.71,GRAV,3.46,0.06,9.17*52
$HCHDG,11.9,0.0,E,,*10
$GPRMC,030000.5,A,4741.23034,N,12224.61470,W,004.76,031.9,020816,016.4,E,A*22
$IIRMB,A,0.00,L,M,X,4741.777000,N,12224.575000,W,0.5,3,4.16,V*0C
$YXXDR,A,6.0,D,PTCH,A,17.6,D,ROLL*6B
$GPGGA,030000.5,4741.23034,N,12224.61470,W,1,10,0.8,-2.1,M,-18.3,M,,*4B
$TIROT,39.1,A*00
$GPVTG,031.9,T,015.4,M,004.76,N,0008.81,K,A*1C
$DATA,IMU,0,3,3,0,EULER,7.5,20.75,-0.8125,ACC,-0.42,0.01,-0.95,GRAV,3.47,0.13,9.16*5D
$HCHDG,11.9,0.0,E,,*10
$GPRMC,030000.6,A,4741.23046,N,12224.61461,W,004.72,031.9,020816,016.4,E,A*20
$IIRMB,A,0.00,L,M,X,4741.777000,N,12224.575000,W,0.5,3,4.12,V*08
$YXXDR,A,5.7,D,PTCH,A,17.3,D,ROLL*6A
$GPGGA,030000.6,4741.23046,N,12224.61461,W,1,10,0.8,-2.1,M,-18.3,M,,*4D
$GPVTG,031.9,T,015.4,M,004.72,N,0008.74,K,A*12
$DATA,IMU,0,3,3,0,EULER,7.75,20.8125,-1.4375,ACC,-0.54,-0.01,-1.08,GRAV,3.49,0.23,9.16*4E
$GPRMC,030000.7,A,4741.23058,N,12224.61452,W,005.06,031.9,020816,016.4,E,A*2C
$IIRMB,A,0.00,L,M,X,4741.777000,N,12224.575000,W,0.5,3,4.42,V*0D
$HCHDG,11.7,0.0,E,,*1E
$YXXDR,A,5.2,D,PTCH,A,16.9,D,ROLL*64
$GPGGA,030000.7,4741.23058,N,12224.61452,W,1,10,0.8,-2.1,M,-18.3,M,,*43
$GPVTG,031.9,T,015.4,M,005.06,N,0009.37,K,A*16
$DATA,IMU,0,3,3,0,EULER,7.8125,20.875,-2.125,ACC,-0.4,-0.02,-0.95,GRAV,3.5,0.35,9.15*49
$HCHDG,11.4,0.0,E,,*1D
$GPRMC,030000.8,A,4741.23064,N,12224.61447,W,005.04,031.9,020816,016.4,E,A*2A
$IIRMB,A,0.00,L,M,X,4741.777000,N,12224.575000,W,0.5,3,4.40,V*0F
$YXXDR,A,5.1,D,PTCH,A,16.7,D,ROLL*69
$GPGGA,030000.8,4741.23064,N,12224.61447,W,1,10,0.8,-2.1,M,-18.3,M,,*47
$GPVTG,031.9,T,015.4,M,005.04,N,0009.33,K,A*10
$IIRMB,A,0.00,L,,X   ,,,,,000.5,003,,V,A*39
$DATA,IMU,0,3,3,0,EULER,7.75,21,-2.8125,ACC,-0.31,0,-0.85,GRAV,3.52,0.46,9.14*69
$HCHDG,10.7,0.0,E,,*1F
$GPRMC,030000.9,A,4741.23081,N,12224.61431,W,004.98,031.9,020816,016.4,E,A*25
$IIRMB,A,0.00,L,M,X,4741.777000,N,12224.575000,W,0.5,3,4.35,V*0D
$YXXDR,A,4.7,D,PTCH,A,16.3,D,ROLL*6A
$GPGGA,030000.9,4741.23081,N,12224.61431,W,1,10,0.8,-2.1,M,-18.3,M,,*4C
$GPVTG,031.9,T,015.4,M,004.98,N,0009.22,K,A*14
$DATA,IMU,0,3,3,0,EULER,7.5625,21.125,-3.5,ACC,0.02,-0.02,-0.67,GRAV,3.54,0.55,9.12*6F
$HCHDG,10.3,0.0,E,,*1B
$GPRMC,030001.0,A,4741.23093,N,12224.61419,W,005.45,031.9,020816,016.4,E,A*25
$IIRMB,A,0.00,L,M,X,4741.777000,N,12224.575000,W,0.5,3,4.76,V*0A
$GPGGA,030001.0,4741.23093,N,12224.61419,W,1,10,0.8,-2.1,M,-18.3,M,,*4D
$YXXDR,A,4.5,D,PTCH,A,15.8,D,ROLL*60
$GPVTG,031.9,T,015.4,M,005.45,N,0010.09,K,A*14
$GPGSA,A,3,21,20,18,15,16,13,10,27,08,32,,,1.3,0.8,1.0*3D
$IIVHW,,,,,05.7,N,,*1B
$DATA,IMU,0,3,3,0,EULER,7.3125,21.3125,-3.9375,ACC,0.1,0,-0.41,GRAV,3.56,0.63,9.11*52
$HCHDG,9.7,0.0,E,,*27
$GPRMC,030001.1,A,4741.23116,N,12224.61389,W,005.38,031.9,020816,016.4,E,A*2C
$IIRMB,A,0.00,L,M,X,4741.777000,N,12224.575000,W,0.5,3,4.70,V*0C
$YXXDR,A,4.7,D,PTCH,A,15.5,D,ROLL*6F
$IIVLW,07569,N,010.6,N*59
$GPGGA,030001.1,4741.23116,N,12224.61389,W,1,10,0.8,-2.0,M,-18.3,M,,*4F
$GPVTG,031.9,T,015.4,M,005.38,N,0009.97,K,A*11
$GPGSV,3,1,11,21,52,113,48,20,16,069,40,14,04,194,34,18,74,059,45*73
$IIVWR,020,L,19.2,N,,,,*77
$GPGSV,3,2,11,15,28,051,50,16,10,251,36,13,05,031,38,10,66,257,43*7A
$GPGSV,3,3,11,27,51,283,36,08,25,315,33,32,21,188,35*49
$DATA,IMU,0,3,3,0,EULER,6.875,21.5,-4.25,ACC,0.19,0.13,-0.17,GRAV,3.6,0.68,9.09*75
$HCHDG,9.2,0.0,E,,*22
$GPRMC,030001.2,A,4741.23128,N,12224.61376,W,005.41,031.9,020816,016.4,E,A*2C
$IIRMB,A,0.00,L,M,X,4741.777000,N,12224.575000,W,0.5,3,4.72,V*0E
$YXXDR,A,4.8,D,PTCH,A,15.0,D,ROLL*65
$GPGGA,030001.2,4741.23128,N,12224.61376,W,1,10,0.8,-2.0,M,-18.3,M,,*41
$GPVTG,031.9,T,015.4,M,005.41,N,0010.02,K,A*1B
$GPRMC,030001.3,A,4741.23134,N,12224.61370,W,005.44,031.9,020816,016.4,E,A*23
$IIRMB,A,0.00,L,M,X,4741.777000,N,12224.575000,W,0.5,3,4.75,V*09
$GPGGA,030001.3,4741.23134,N,12224.61370,W,1,10,0.8,-2.0,M,-18.3,M,,*4B
$DATA,IMU,0,3,3,0,EULER,6.5625,21.625,-4.375,ACC,0.27,0.17,0.08,GRAV,3.62,0.69,9.08*61
$GPVTG,031.9,T,015.4,M,005.44,N,0010.07,K,A*1B
$HCHDG,8.8,0.0,E,,*29
$IIMTW,+12.5,C*3E
$YXXDR,A,5.0,D,PTCH,A,14.9,D,ROLL*64
$GPRMC,030001.4,A,4741.23141,N,12224.61364,W,005.43,031.9,020816,016.4,E,A*24
$IIRMB,A,0.00,L,M,X,4741.777000,N,12224.575000,W,0.5,3,4.74,V*08
$DATA,env,P,968.90625,T,23.94*46
$IIMWV,340,R,19.2,N,A*1E
$GPGGA,030001.4,4741.23141,N,12224.61364,W,1,10,0.8,-2.0,M,-18.3,M,,*4B
$GPVTG,031.9,T,015.4,M,005.43,N,0010.05,K,A*1E
$DATA,IMU,0,3,3,0,EULER,6.1875,21.75,-4.25,ACC,0.35,0.19,0.32,GRAV,3.64,0.67,9.08*67
$HCHDG,8.8,0.0,E,,*29
$YXXDR,A,5.1,D,PTCH,A,15.3,D,ROLL*6E
$GPRMC,030001.5,A,4741.23165,N,12224.61339,W,005.37,031.9,020816,016.4,E,A*28
$IIRMB,A,0.00,L,M,X,4741.777000,N,12224.575000,W,0.5,3,4.69,V*04
$GPGGA,030001.5,4741.23165,N,12224.61339,W,1,10,0.8,-2.0,M,-18.3,M,,*44
$GPVTG,031.9,T,015.4,M,005.37,N,0009.95,K,A*1C
$DATA,IMU,0,3,3,0,EULER,6,21.75,-3.9375,ACC,0.19,0.19,0.51,GRAV,3.63,0.62,9.08*43
$HCHDG,8.8,0.0,E,,*29
$YXXDR,A,5.4,D,PTCH,A,15.7,D,ROLL*6F
$TIROT,-43.5,A*24
$GPRMC,030001.6,A,4741.23178,N,12224.61328,W,005.37,031.9,020816,016.4,E,A*27
$IIRMB,A,0.00,L,M,X,4741.777000,N,12224.575000,W,0.5,3,4.69,V*04
$GPGGA,030001.6,4741.23178,N,12224.61328,W,1,10,0.8,-2.0,M,-18.3,M,,*4B
$GPVTG,031.9,T,015.4,M,005.37,N,0009.95,K,A*1C
$DATA,IMU,0,3,3,0,EULER,5.875,21.625,-3.4375,ACC,0.05,0.13,0.54,GRAV,3.61,0.53,9.1*51
$HCHDG,9.1,0.0,E,,*21
$YXXDR,A,5.4,D,PTCH,A,16.3,D,ROLL*68
$GPRMC,030001.7,A,4741.23190,N,12224.61317,W,005.29,031.9,020816,016.4,E,A*23
$IIRMB,A,0.00,L,M,X,4741.777000,N,12224.575000,W,0.5,3,4.62,V*0F
$GPGGA,030001.7,4741.23190,N,12224.61317,W,1,10,0.8,-2.0,M,-18.3,M,,*40
$GPVTG,031.9,T,015.4,M,005.29,N,0009.79,K,A*11
$DATA,IMU,0,3,3,0,EULER,5.9375,21.4375,-2.8125,ACC,-0.1,0.1,0.62,GRAV,3.58,0.44,9.11*4F
$HCHDG,9.6,0.0,E,,*26
$YXXDR,A,5.7,D,PTCH,A,17.2,D,ROLL*6B
$GPRMC,030001.8,A,4741.23197,N,12224.61312,W,005.24,031.9,020816,016.4,E,A*23
$IIRMB,A,0.00,L,M,X,4741.777000,N,12224.575000,W,0.5,3,4.57,V*09
$GPGGA,030001.8,4741.23197,N,12224.61312,W,1,10,0.8,-2.0,M,-18.3,M,,*4D
$GPVTG,031.9,T,015.4,M,005.24,N,0009.70,K,A*15
$HCHDG,10.3,0.0,E,,*1B
$DATA,IMU,0,3,3,0,EULER,6.0625,21.3125,-2.3125,ACC,-0.07,0.13,0.4,GRAV,3.56,0.35,9.12*70
$YXXDR,A,5.7,D,PTCH,A,17.8,D,ROLL*61
$IIMWV,332,T,13.8,N,A*1D
$GPRMC,030001.9,A,4741.23216,N,12224.61300,W,005.18,031.9,020816,016.4,E,A*24
$IIRMB,A,0.00,L,M,X,4741.777000,N,12224.575000,W,0.5,3,4.52,V*0C
$GPGGA,030001.9,4741.23216,N,12224.61300,W,1,10,0.8,-2.0,M,-18.3,M,,*45
$GPVTG,031.9,T,015.4,M,005.18,N,0009.58,K,A*10
$HCHDG,10.7,0.0,E,,*1F
$DATA,IMU,0,3,3,0,EULER,6.3125,21.0625,-1.8125,ACC,-0.2,0.16,0.32,GRAV,3.52,0.29,9.14*72
$YXXDR,A,5.7,D,PTCH,A,18.3,D,ROLL*65
$IIRMB,A,0.00,L,,X   ,,,,,000.5,003,,V,A*39
$GPRMC,030002.0,A,4741.23228,N,12224.61291,W,004.52,031.9,020816,016.4,E,A*25
$IIRMB,A,0.00,L,M,X,4741.777000,N,12224.575000,W,0.5,3,3.94,V*01
$GPGGA,030002.0,4741.23228,N,12224.61291,W,1,10,0.8,-2.0,M,-18.3,M,,*4B
$GPVTG,031.9,T,015.4,M,004.52,N,0008.36,K,A*16
$HCHDG,11.4,0.0,E,,*1D
$GPGSA,A,3,21,20,18,15,16,13,10,27,08,32,,,1.3,0.8,1.0*3D
$YXXDR,A,5.8,D,PTCH,A,18.5,D,ROLL*6C
$DATA,IMU,0,3,3,0,EULER,6.625,20.6875,-1.5625,ACC,-0.37,0.09,0.17,GRAV,3.45,0.24,9.17*77
$GPRMC,030002.1,A,4741.23242,N,12224.61277,W,005.20,031.9,020816,016.4,E,A*24
$IIRMB,A,0.00,L,M,X,4741.777000,N,12224.575000,W,0.5,3,4.54,V*0A
$GPGGA,030002.1,4741.23242,N,12224.61277,W,1,10,0.8,-2.0,M,-18.3,M,,*4E
$GPVTG,031.9,T,015.4,M,005.20,N,0009.63,K,A*13
$HCHDG,11.5,0.0,E,,*1C
$IIVHW,,,,,05.6,N,,*1A
$GPGSV,3,1,11,21,52,113,48,20,16,069,39,14,04,194,35,18,74,059,45*7C
$YXXDR,A,5.8,D,PTCH,A,18.7,D,ROLL*6E
$DATA,IMU,0,3,3,0,EULER,7,20.25,-1.375,ACC,-0.5,-0.01,0.02,GRAV,3.37,0.22,9.2*70
$GPGSV,3,2,11,15,28,051,50,16,10,251,33,13,05,031,37,10,66,257,43*70
$GPGSV,3,3,11,27,51,283,36,08,25,315,33,32,21,188,35*49
$IIVLW,07569,N,010.6,N*59
$GPRMC,030002.2,A,4741.23249,N,12224.61273,W,005.18,031.9,020816,016.4,E,A*23
$IIRMB,A,0.00,L,M,X,4741.777000,N,12224.575000,W,0.5,3,4.52,V*0C
$GPGGA,030002.2,4741.23249,N,12224.61273,W,1,10,0.8,-2.0,M,-18.3,M,,*42
$HCHDG,11.7,0.0,E,,*1E
$GPVTG,031.9,T,015.4,M,005.18,N,0009.59,K,A*11
$YXXDR,A,5.7,D,PTCH,A,18.5,D,ROLL*63
$IIVWR,019,L,19.3,N,,,,*7C
$DATA,IMU,0,3,3,0,EULER,7.375,19.8125,-1.4375,ACC,-0.56,-0.01,-0.16,GRAV,3.32,0.23,9.22*70
$GPRMC,030002.3,A,4741.23267,N,12224.61261,W,004.07,031.9,020816,016.4,E,A*22
$IIRMB,A,0.00,L,M,X,4741.777000,N,12224.575000,W,0.5,3,3.55,V*0C
$GPGGA,030002.3,4741.23267,N,12224.61261,W,1,10,0.8,-2.0,M,-18.3,M,,*4C
$GPVTG,031.9,T,015.4,M,004.07,N,0007.53,K,A*1A
$HCHDG,11.8,0.0,E,,*11
$YXXDR,A,5.7,D,PTCH,A,18.2,D,ROLL*64
$DATA,IMU,0,3,3,0,EULER,7.625,19.5,-1.625,ACC,-0.44,0.04,-0.35,GRAV,3.27,0.27,9.23*54
$IIMTW,+12.5,C*3E
$DATA,env,P,968.94140625,T,23.95*76
$GPRMC,030002.4,A,4741.23277,N,12224.61253,W,004.54,031.9,020816,016.4,E,A*23
$IIRMB,A,0.00,L,M,X,4741.777000,N,12224.575000,W,0.5,3,3.96,V*03
$GPGGA,030002.4,4741.23277,N,12224.61253,W,1,10,0.8,-2.0,M,-18.3,M,,*4B
$GPVTG,031.9,T,015.4,M,004.54,N,0008.41,K,A*10
$HCHDG,11.6,0.0,E,,*1F
$YXXDR,A,5.4,D,PTCH,A,17.8,D,ROLL*62
$DATA,IMU,0,3,3,0,EULER,7.8125,19.3125,-2.0625,ACC,-0.51,0,-0.6,GRAV,3.24,0.33,9.24*77
$GPRMC,030002.5,A,4741.23289,N,12224.61245,W,004.57,031.9,020816,016.4,E,A*27
$IIRMB,A,0.00,L,M,X,4741.777000,N,12224.575000,W,0.5,3,3.99,V*0C
$GPGGA,030002.5,4741.23289,N,12224.61245,W,1,10,0.8,-2.0,M,-18.3,M,,*4C
$GPVTG,031.9,T,015.4,M,004.57,N,0008.47,K,A*15
$HCHDG,11.2,0.0,E,,*1B
$YXXDR,A,5.1,D,PTCH,A,17.0,D,ROLL*6F
$TIROT,-37.4,A*26
$DATA,IMU,0,3,3,0,EULER,7.9375,19.25,-2.5,ACC,-0.24,0,-0.63,GRAV,3.23,0.41,9.24*74
$GPRMC,030002.6,A,4741.23301,N,12224.61236,W,004.67,031.9,020816,016.4,E,A*22
$IIRMB,A,0.00,L,M,X,4741.777000,N,12224.575000,W,0.5,3,4.07,V*0C
$GPGGA,030002.6,4741.23301,N,12224.61236,W,1,10,0.8,-2.0,M,-18.3,M,,*4A
$HCHDG,11.1,0.0,E,,*18
$GPVTG,031.9,T,015.4,M,004.67,N,0008.64,K,A*17
$YXXDR,A,5.0,D,PTCH,A,16.7,D,ROLL*68
$DATA,IMU,0,3,3,0,EULER,7.9375,19.1875,-2.9375,ACC,-0.2,0.07,-0.59,GRAV,3.22,0.49,9.24*58
$GPRMC,030002.7,A,4741.23312,N,12224.61226,W,004.69,031.9,020816,016.4,E,A*2E
$IIRMB,A,0.00,L,M,X,4741.777000,N,12224.575000,W,0.5,3,4.09,V*02
$GPGGA,030002.7,4741.23312,N,12224.61226,W,1,10,0.8,-2.0,M,-18.3,M,,*48
$GPVTG,031.9,T,015.4,M,004.69,N,0008.68,K,A*15
$HCHDG,10.5,0.0,E,,*1D
$YXXDR,A,5.1,D,PTCH,A,15.3,D,ROLL*6E
$DATA,IMU,0,3,3,0,EULER,7.9375,19.125,-3.3125,ACC,-0.17,0.09,-0.57,GRAV,3.21,0.54,9.24*52
$GPRMC,030002.8,A,4741.23324,N,12224.61215,W,004.81,031.9,020816,016.4,E,A*22
$IIRMB,A,0.00,L,M,X,4741.777000,N,12224.575000,W,0.5,3,4.20,V*09
$GPGGA,030002.8,4741.23324,N,12224.61215,W,1,10,0.8,-2.0,M,-18.3,M,,*42
$GPVTG,031.9,T,015.4,M,004.81,N,0008.92,K,A*16
$HCHDG,9.8,0.0,E,,*28
$YXXDR,A,5.1,D,PTCH,A,14.9,D,ROLL*65
$IIMWV,341,R,19.1,N,A*1C
$DATA,IMU,0,3,3,0,EULER,7.875,19.0625,-3.625,ACC,-0.14,-0.01,-0.54,GRAV,3.2,0.58,9.25*7A
$GPRMC,030002.9,A,4741.23330,N,12224.61210,W,004.88,031.9,020816,016.4,E,A*2A
$IIRMB,A,0.00,L,M,X,4741.777000,N,12224.575000,W,0.5,3,4.26,V*0F
$IIMWV,333,T,14.0,N,A*13
$GPGGA,030002.9,4741.23330,N,12224.61210,W,1,10,0.8,-1.9,M,-18.3,M,,*49
$GPVTG,031.9,T,015.4,M,004.88,N,0009.03,K,A*16
$HCHDG,9.3,0.0,E,,*23
$YXXDR,A,5.6,D,PTCH,A,13.7,D,ROLL*6B
$DATA,IMU,0,3,3,0,EULER,7.875,18.9375,-3.6875,ACC,-0.15,-0.08,-0.48,GRAV,3.18,0.6,9.25*4A
$GPRMC,030003.0,A,4741.23336,N,12224.61204,W,004.91,031.9,020816,016.4,E,A*29
$IIRMB,A,0.00,L,M,X,4741.777000,N,12224.575000,W,0.5,3,4.28,V*01
$IIRMB,A,0.00,L,,X   ,,,,,000.5,003,,V,A*39
$GPGGA,030003.0,4741.23336,N,12224.61204,W,1,10,0.8,-1.9,M,-18.3,M,,*42
$GPVTG,031.9,T,015.4,M,004.91,N,0009.09,K,A*14
$HCHDG,9.1,0.0,E,,*21
$GPGSA,A,3,21,20,18,15,16,13,10,27,08,32,,,1.3,0.8,1.0*3D
$YXXDR,A,5.6,D,PTCH,A,13.5,D,ROLL*69
$DATA,IMU,0,3,3,0,EULER,7.875,18.8125,-3.6875,ACC,-0.18,-0.05,-0.37,GRAV,3.16,0.59,9.26*73
$GPRMC,030003.1,A,4741.23359,N,12224.61187,W,004.99,031.4,020816,016.4,E,A*2C
$IIRMB,A,0.00,L,M,X,4741.777000,N,12224.575000,W,0.5,3,4.37,V*0F
$GPGGA,030003.1,4741.23359,N,12224.61187,W,1,10,0.8,-1.7,M,-18.3,M,,*4C
$HCHDG,9.2,0.0,E,,*22
$GPVTG,031.4,T,014.9,M,004.99,N,0009.25,K,A*13
$GPGSV,3,1,11,21,52,113,47,20,16,069,40,14,04,194,34,18,74,059,45*7C
$YXXDR,A,5.6,D,PTCH,A,13.7,D,ROLL*6B
$GPGSV,3,2,11,15,28,051,49,16,10,251,32,13,05,031,38,10,66,257,43*76
$DATA,IMU,0,3,3,0,EULER,7.875,18.625,-3.5,ACC,0.04,-0.07,-0.42,GRAV,3.13,0.56,9.27*5E
$GPGSV,3,3,11,27,51,283,35,08,25,315,33,32,21,188,35*4A
$IIVHW,,,,,05.5,N,,*19
$GPRMC,030003.2,A,4741.23371,N,12224.61176,W,004.99,031.8,020816,016.4,E,A*27
$IIRMB,A,0.00,L,M,X,4741.777000,N,12224.575000,W,0.5,3,4.36,V*0E
$GPGGA,030003.2,4741.23371,N,12224.61176,W,1,10,0.8,-1.7,M,-18.3,M,,*4B
$HCHDG,9.2,0.0,E,,*22
$GPVTG,031.8,T,015.3,M,004.99,N,0009.24,K,A*15
$IIVLW,07569,N,010.6,N*59
$IIVWR,019,L,19.1,N,,,,*7E
$YXXDR,A,5.5,D,PTCH,A,14.0,D,ROLL*68
$GPRMC,030003.3,A,4741.23383,N,12224.61164,W,005.02,032.5,020816,016.4,E,A*25
$IIRMB,A,0.00,L,M,X,4741.777000,N,12224.575000,W,0.5,3,4.35,V*0D
$GPGGA,030003.3,4741.23383,N,12224.61164,W,1,10,0.8,-1.7,M,-18.3,M,,*44
$GPVTG,032.5,T,016.0,M,005.02,N,0009.29,K,A*15
$HCHDG,9.5,0.0,E,,*25
$YXXDR,A,5.6,D,PTCH,A,14.2,D,ROLL*69
$DATA,IMU,0,3,3,0,EULER,7.9375,18.4375,-3.125,ACC,-0.05,-0.03,-0.26,GRAV,3.1,0.5,9.28*7B
$DATA,env,P,968.46875,T,23.95*47
$GPRMC,030003.4,A,4741.23395,N,12224.61152,W,005.15,031.9,020816,016.4,E,A*29
$IIRMB,A,0.00,L,M,X,4741.777000,N,12224.575000,W,0.5,3,4.49,V*06
$GPGGA,030003.4,4741.23395,N,12224.61152,W,1,10,0.8,-1.7,M,-18.3,M,,*41
$DATA,IMU,0,3,3,0,EULER,8.0625,18.3125,-3,ACC,0.02,-0.02,-0.4,GRAV,3.08,0.49,9.29*7E
$GPVTG,031.9,T,015.4,M,005.15,N,0009.54,K,A*11
$HCHDG,9.5,0.0,E,,*25
$YXXDR,A,5.4,D,PTCH,A,14.4,D,ROLL*6D
$GPRMC,030003.5,A,4741.23408,N,12224.61142,W,005.14,031.5,020816,016.4,E,A*27
$IIRMB,A,0.00,L,M,X,4741.777000,N,12224.575000,W,0.5,3,4.50,V*0E
$GPGGA,030003.5,4741.23408,N,12224.61142,W,1,10,0.8,-1.7,M,-18.3,M,,*42
$HCHDG,9.9,0.0,E,,*29
$DATA,IMU,0,3,3,0,EULER,8.25,18.1875,-2.9375,ACC,0,0.02,-0.4,GRAV,3.06,0.47,9.3*68
$GPVTG,031.5,T,015.0,M,005.14,N,0009.52,K,A*1E
$YXXDR,A,5.4,D,PTCH,A,14.4,D,ROLL*6D
$TIROT,49.0,A*06
$GPRMC,030003.6,A,4741.23421,N,12224.61132,W,005.19,030.8,020816,016.4,E,A*29
$IIRMB,A,0.00,L,M,X,4741.777000,N,12224.575000,W,0.5,3,4.57,V*09
$GPGGA,030003.6,4741.23421,N,12224.61132,W,1,10,0.8,-1.7,M,-18.3,M,,*4D
$HCHDG,9.9,0.0,E,,*29
$DATA,IMU,0,3,3,0,EULER,8.4375,18.125,-2.8125,ACC,-0.18,0.02,-0.27,GRAV,3.05,0.46,9.3*68
$GPVTG,030.8,T,014.3,M,005.19,N,0009.62,K,A*1E
$YXXDR,A,5.5,D,PTCH,A,14.6,D,ROLL*6E
$GPRMC,030003.7,A,4741.23433,N,12224.61122,W,005.14,030.1,020816,016.4,E,A*2E
$IIRMB,A,0.00,L,M,X,4741.777000,N,12224.575000,W,0.5,3,4.56,V*08
$GPGGA,030003.7,4741.23433,N,12224.61122,W,1,10,0.8,-1.7,M,-18.3,M,,*4E
$HCHDG,10.3,0.0,E,,*1B
$GPVTG,030.1,T,013.7,M,005.14,N,0009.51,K,A*19
$YXXDR,A,5.7,D,PTCH,A,14.8,D,ROLL*62
$DATA,IMU,0,3,3,0,EULER,8.625,18.0625,-2.8125,ACC,-0.2,0,-0.06,GRAV,3.04,0.46,9.31*4F
$GPRMC,030003.8,A,4741.23440,N,12224.61117,W,005.09,028.7,020816,016.4,E,A*20
$IIRMB,A,0.00,L,M,X,4741.777000,N,12224.575000,W,0.5,3,4.57,V*09
$GPGGA,030003.8,4741.23440,N,12224.61117,W,1,10,0.8,-1.7,M,-18.3,M,,*43
$HCHDG,10.7,0.0,E,,*1F
$GPVTG,028.7,T,012.2,M,005.09,N,0009.43,K,A*1D
$YXXDR,A,5.7,D,PTCH,A,15.1,D,ROLL*6A
$IIMTW,+12.5,C*3E
$DATA,IMU,0,3,3,0,EULER,8.8125,18.0625,-2.75,ACC,-0.2,0,0.01,GRAV,3.04,0.45,9.31*55
$IIMWV,340,R,19.7,N,A*1B
$GPRMC,030003.9,A,4741.23458,N,12224.61102,W,005.60,028.5,020816,016.4,E,A*21
$IIRMB,A,0.00,L,M,X,4741.777000,N,12224.575000,W,0.5,3,5.04,V*0E
$HCHDG,10.9,0.0,E,,*11
$GPGGA,030003.9,4741.23458,N,12224.61102,W,1,10,0.8,-1.7,M,-18.3,M,,*4F
$GPVTG,028.5,T,012.0,M,005.60,N,0010.38,K,A*16
$YXXDR,A,5.7,D,PTCH,A,15.5,D,ROLL*6E
$IIMWV,333,T,14.0,N,A*13
$DATA,IMU,0,3,3,0,EULER,9,17.875,-2.75,ACC,-0.28,0.09,0.14,GRAV,3.01,0.45,9.32*5D
$GPRMC,030004.0,A,4741.23472,N,12224.61092,W,005.00,028.2,020816,016.4,E,A*2E
$IIRMB,A,0.00,L,M,X,4741.777000,N,12224.575000,W,0.5,3,4.51,V*0F
$GPGGA,030004.0,4741.23472,N,12224.61092,W,1,10,0.8,-1.7,M,-18.3,M,,*41
$HCHDG,11.2,0.0,E,,*1B
$GPVTG,028.2,T,011.8,M,005.00,N,0009.25,K,A*18
$IIRMB,A,0.00,L,,X   ,,,,,000.5,003,,V,A*39
$YXXDR,A,5.6,D,PTCH,A,15.3,D,ROLL*69
$GPGSA,A,3,21,20,18,15,16,13,10,27,08,32,,,1.3,0.8,1.0*3D
$DATA,IMU,0,3,3,0,EULER,9.25,17.6875,-2.75,ACC,-0.3,0.11,0.3,GRAV,2.97,0.44,9.33*4A
$GPRMC,030004.1,A,4741.23480,N,12224.61090,W,004.99,028.6,020816,016.4,E,A*25
$IIRMB,A,0.00,L,M,X,4741.777000,N,12224.575000,W,0.5,3,4.48,V*07
$HCHDG,11.4,0.0,E,,*1D
$GPGGA,030004.1,4741.23480,N,12224.61090,W,1,10,0.8,-1.5,M,-18.3,M,,*4D
$GPVTG,028.6,T,012.2,M,004.99,N,0009.24,K,A*15
$YXXDR,A,5.6,D,PTCH,A,15.1,D,ROLL*6B
$GPGSV,3,1,11,21,52,113,46,20,16,069,40,14,04,194,34,18,74,059,45*7D
$DATA,IMU,0,3,3,0,EULER,9.375,17.5,-2.625,ACC,-0.38,0.06,0.34,GRAV,2.94,0.43,9.34*7F
$GPGSV,3,2,11,15,28,051,48,16,10,251,30,13,05,031,39,10,66,257,42*75
$GPGSV,3,3,11,27,51,283,37,08,25,315,34,32,21,188,35*4F
$GPRMC,030004.2,A,4741.23501,N,12224.61078,W,005.04,027.9,020816,016.4,E,A*2D
$IIRMB,A,0.00,L,M,X,4741.777000,N,12224.575000,W,0.5,3,4.55,V*0B
$HCHDG,11.7,0.0,E,,*1E
$GPGGA,030004.2,4741.23501,N,12224.61078,W,1,10,0.8,-1.5,M,-18.3,M,,*40
$IIVHW,,,,,05.4,N,,*18
$GPVTG,027.9,T,011.5,M,005.04,N,0009.33,K,A*12
$YXXDR,A,5.6,D,PTCH,A,13.8,D,ROLL*64
$DATA,IMU,0,3,3,0,EULER,9.5625,17.25,-2.5,ACC,-0.38,0.06,0.43,GRAV,2.91,0.41,9.35*7A
$IIVLW,07569,N,010.6,N*59
$GPRMC,030004.3,A,4741.23513,N,12224.61068,W,004.68,028.4,020816,016.4,E,A*27
$IIRMB,A,0.00,L,M,X,4741.777000,N,12224.575000,W,0.5,3,4.21,V*08
$HCHDG,11.6,0.0,E,,*1F
$GPGGA,030004.3,4741.23513,N,12224.61068,W,1,10,0.8,-1.5,M,-18.3,M,,*43
$GPVTG,028.4,T,012.0,M,004.68,N,0008.67,K,A*1D
$IIVWR,020,L,19.7,N,,,,*72
$YXXDR,A,5.4,D,PTCH,A,13.0,D,ROLL*6E
$DATA,IMU,0,3,3,0,EULER,9.625,17.125,-2.3125,ACC,-0.26,0.13,0.36,GRAV,2.89,0.38,9.36*43
$DATA,env,P,968.84375,T,23.94*43
$GPRMC,030004.4,A,4741.23524,N,12224.61058,W,004.75,029.0,020816,016.4,E,A*2E
$IIRMB,A,0.00,L,M,X,4741.777000,N,12224.575000,W,0.5,3,4.25,V*0C
$GPGGA,030004.4,4741.23524,N,12224.61058,W,1,10,0.8,-1.5,M,-18.3,M,,*43
$HCHDG,11.6,0.0,E,,*1F
$GPVTG,029.0,T,012.5,M,004.75,N,0008.80,K,A*18
$YXXDR,A,5.5,D,PTCH,A,12.4,D,ROLL*6A
$DATA,IMU,0,3,3,0,EULER,9.75,17.125,-2.125,ACC,-0.25,0.12,0.27,GRAV,2.89,0.35,9.36*4C
$GPRMC,030004.5,A,4741.23530,N,12224.61053,W,004.82,029.0,020816,016.4,E,A*29
$IIRMB,A,0.00,L,M,X,4741.777000,N,12224.575000,W,0.5,3,4.31,V*09
$GPGGA,030004.5,4741.23530,N,12224.61053,W,1,10,0.8,-1.5,M,-18.3,M,,*4C
$HCHDG,11.3,0.0,E,,*1A
$GPVTG,029.0,T,012.6,M,004.82,N,0008.93,K,A*11
$YXXDR,A,5.5,D,PTCH,A,12.3,D,ROLL*6D
$TIROT,69.5,A*01
$DATA,IMU,0,3,3,0,EULER,9.875,17.125,-2,ACC,-0.2,0.1,0.16,GRAV,2.89,0.33,9.36*6F
$GPRMC,030004.6,A,4741.23549,N,12224.61038,W,005.39,028.5,020816,016.4,E,A*2C
$IIRMB,A,0.00,L,M,X,4741.777000,N,12224.575000,W,0.5,3,4.85,V*06
$GPGGA,030004.6,4741.23549,N,12224.61038,W,1,10,0.8,-1.5,M,-18.3,M,,*4C
$HCHDG,11.2,0.0,E,,*1B
$GPVTG,028.5,T,012.1,M,005.39,N,0009.99,K,A*18
$YXXDR,A,5.5,D,PTCH,A,12.3,D,ROLL*6D
$DATA,IMU,0,3,3,0,EULER,10.0625,17.25,-1.9375,ACC,-0.22,0.14,0.04,GRAV,2.91,0.31,9.35*75
$GPRMC,030004.7,A,4741.23562,N,12224.61029,W,005.00,027.6,020816,016.4,E,A*22
$IIRMB,A,0.00,L,M,X,4741.777000,N,12224.575000,W,0.5,3,4.53,V*0D
$GPGGA,030004.7,4741.23562,N,12224.61029,W,1,10,0.8,-1.5,M,-18.3,M,,*44
$HCHDG,11.0,0.0,E,,*19
$GPVTG,027.6,T,011.2,M,005.00,N,0009.26,K,A*1A
$YXXDR,A,5.7,D,PTCH,A,12.3,D,ROLL*6F
$DATA,IMU,0,3,3,0,EULER,10.25,17.375,-1.875,ACC,-0.27,0.14,-0.07,GRAV,2.93,0.31,9.35*5E
$GPRMC,030004.8,A,4741.23573,N,12224.61020,W,004.49,028.9,020816,016.4,E,A*28
$IIRMB,A,0.00,L,M,X,4741.777000,N,12224.575000,W,0.5,3,4.02,V*09
$GPGGA,030004.8,4741.23573,N,12224.61020,W,1,10,0.8,-1.5,M,-18.3,M,,*42
$HCHDG,10.9,0.0,E,,*11
$GPVTG,028.9,T,012.5,M,004.49,N,0008.32,K,A*16
$YXXDR,A,5.6,D,PTCH,A,12.4,D,ROLL*69
$DATA,IMU,0,3,3,0,EULER,10.5,17.5,-1.9375,ACC,-0.26,0.09,-0.17,GRAV,2.95,0.31,9.34*51
$GPRMC,030004.9,A,4741.23585,N,12224.61010,W,005.07,028.1,020816,016.4,E,A*20
$IIRMB,A,0.00,L,M,X,4741.777000,N,12224.575000,W,0.5,2,4.57,V*08
$GPGGA,030004.9,4741.23585,N,12224.61010,W,1,10,0.8,-1.5,M,-18.3,M,,*49
$HCHDG,10.6,0.0,E,,*1E
$IIMTW,+12.5,C*3E
$GPVTG,028.1,T,011.7,M,005.07,N,0009.39,K,A*1E
$YXXDR,A,5.7,D,PTCH,A,12.4,D,ROLL*68
$DATA,IMU,0,3,3,0,EULER,10.6875,17.625,-2,ACC,-0.33,0.05,-0.3,GRAV,2.97,0.33,9.33*73
$IIMWV,340,R,19.7,N,A*1B
$GPRMC,030005.0,A,4741.23591,N,12224.61005,W,005.04,028.1,020816,016.4,E,A*2A
$IIRMB,A,0.00,L,M,X,4741.777000,N,12224.575000,W,0.5,2,4.55,V*0A
$GPGGA,030005.0,4741.23591,N,12224.61005,W,1,10,0.8,-1.5,M,-18.3,M,,*40
$HCHDG,10.9,0.0,E,,*11
$IIMWV,333,T,14.5,N,A*16
$GPVTG,028.1,T,011.6,M,005.04,N,0009.34,K,A*11
$GPGSA,A,3,21,20,18,15,16,13,10,27,08,32,,,1.3,0.8,1.0*3D
$YXXDR,A,5.5,D,PTCH,A,12.5,D,ROLL*6B
$DATA,IMU,0,3,3,0,EULER,10.875,17.8125,-2.0625,ACC,-0.27,-0.02,-0.42,GRAV,3.01,0.34,9.32*47
$GPRMC,030005.1,A,4741.23598,N,12224.61000,W,005.05,028.6,020816,016.4,E,A*21
$IIRMB,A,0.00,L,M,X,4741.777000,N,12224.575000,W,0.5,2,4.53,V*0C
$HCHDG,10.8,0.0,E,,*10
$IIRMB,A,0.00,L,,X   ,,,,,000.5,003,,V,A*39
$GPGGA,030005.1,4741.23598,N,12224.61000,W,1,10,0.8,-1.3,M,-18.3,M,,*4B
$GPVTG,028.6,T,012.2,M,005.05,N,0009.35,K,A*11
$YXXDR,A,5.5,D,PTCH,A,12.9,D,ROLL*67
$GPGSV,3,1,11,21,52,113,46,20,16,069,42,14,04,194,32,18,74,059,45*79
$DATA,IMU,0,3,3,0,EULER,11,18.0625,-2.25,ACC,-0.25,-0.11,-0.6,GRAV,3.05,0.37,9.31*60
$GPGSV,3,2,11,15,28,051,48,16,10,251,30,13,05,031,39,10,66,257,38*78
$GPGSV,3,3,11,27,51,283,38,08,25,315,37,32,21,188,33*45
$GPRMC,030005.2,A,4741.23623,N,12224.60980,W,004.40,028.6,020816,016.4,E,A*21
$IIRMB,A,0.00,L,M,X,4741.777000,N,12224.575000,W,0.5,2,3.95,V*01
$HCHDG,10.8,0.0,E,,*10
$GPGGA,030005.2,4741.23623,N,12224.60980,W,1,10,0.8,-1.3,M,-18.3,M,,*4B
$GPVTG,028.6,T,012.2,M,004.40,N,0008.15,K,A*12
$YXXDR,A,5.4,D,PTCH,A,12.9,D,ROLL*66
$DATA,IMU,0,3,3,0,EULER,11.125,18.375,-2.5625,ACC,-0.28,-0.1,-0.76,GRAV,3.09,0.42,9.29*47
$GPRMC,030005.3,A,4741.23634,N,12224.60970,W,004.87,028.5,020816,016.4,E,A*21
$IIRMB,A,0.00,L,M,X,4741.777000,N,12224.575000,W,0.5,2,4.38,V*01
$IIVHW,,,,,05.4,N,,*18
$GPGGA,030005.3,4741.23634,N,12224.60970,W,1,10,0.8,-1.3,M,-18.3,M,,*43
$HCHDG,10.8,0.0,E,,*10
$GPVTG,028.5,T,012.0,M,004.87,N,0009.02,K,A*1F
$YXXDR,A,5.3,D,PTCH,A,13.0,D,ROLL*69
$IIVLW,07569,N,010.6,N*59
$DATA,IMU,0,3,3,0,EULER,11.125,18.5625,-2.9375,ACC,-0.26,-0.16,-0.86,GRAV,3.13,0.48,9.27*46
$DATA,env,P,968.90625,T,23.94*46
$GPRMC,030005.4,A,4741.23646,N,12224.60961,W,004.82,028.5,020816,016.4,E,A*26
$IIRMB,A,0.00,L,M,X,4741.777000,N,12224.575000,W,0.5,2,4.33,V*0A
$HCHDG,10.6,0.0,E,,*1E
$GPGGA,030005.4,4741.23646,N,12224.60961,W,1,10,0.8,-1.3,M,-18.3,M,,*41
$YXXDR,A,4.8,D,PTCH,A,13.0,D,ROLL*63
$GPVTG,028.5,T,012.0,M,004.82,N,0008.92,K,A*12
$DATA,IMU,0,3,3,0,EULER,11.0625,18.8125,-3.375,ACC,-0.13,-0.13,-0.96,GRAV,3.17,0.55,9.26*48
$GPRMC,030005.5,A,4741.23657,N,12224.60949,W,005.32,028.5,020816,016.4,E,A*27
$IIRMB,A,0.00,L,M,X,4741.777000,N,12224.575000,W,0.5,2,4.78,V*05
$HCHDG,10.4,0.0,E,,*1C
$GPGGA,030005.5,4741.23657,N,12224.60949,W,1,10,0.8,-1.3,M,-18.3,M,,*4A
$YXXDR,A,4.7,D,PTCH,A,13.1,D,ROLL*6D
$TIROT,8.8,A*3B
$GPVTG,028.5,T,012.0,M,005.32,N,0009.86,K,A*1C
$DATA,IMU,0,3,3,0,EULER,10.875,19.0625,-3.875,ACC,-0.14,-0.12,-0.94,GRAV,3.21,0.63,9.24*71
$GPRMC,030005.6,A,4741.23669,N,12224.60937,W,004.88,028.5,020816,016.4,E,A*20
$IIRMB,A,0.00,L,M,X,4741.777000,N,12224.575000,W,0.5,2,4.38,V*01
$HCHDG,10.0,0.0,E,,*18
$GPGGA,030005.6,4741.23669,N,12224.60937,W,1,10,0.8,-1.3,M,-18.3,M,,*4D
$YXXDR,A,4.7,D,PTCH,A,13.1,D,ROLL*6D
$GPVTG,028.5,T,012.1,M,004.88,N,0009.04,K,A*17
$DATA,IMU,0,3,3,0,EULER,10.5625,19.3125,-4.25,ACC,-0.03,-0.06,-0.65,GRAV,3.25,0.69,9.22*74
$GPRMC,030005.7,A,4741.23680,N,12224.60925,W,004.99,028.5,020816,016.4,E,A*25
$IIRMB,A,0.00,L,M,X,4741.777000,N,12224.575000,W,0.5,2,4.48,V*06
$HCHDG,9.9,0.0,E,,*29
$GPGGA,030005.7,4741.23680,N,12224.60925,W,1,10,0.8,-1.3,M,-18.3,M,,*48
$YXXDR,A,4.5,D,PTCH,A,13.2,D,ROLL*6C
$GPVTG,028.5,T,012.1,M,004.99,N,0009.25,K,A*14
$DATA,IMU,0,3,3,0,EULER,10.1875,19.625,-4.5625,ACC,0.09,0,-0.47,GRAV,3.29,0.73,9.2*5B
$GPRMC,030005.8,A,4741.23692,N,12224.60911,W,005.76,028.5,020816,016.4,E,A*2E
$IIRMB,A,0.00,L,M,X,4741.777000,N,12224.575000,W,0.5,2,5.17,V*0D
$HCHDG,9.4,0.0,E,,*24
$GPGGA,030005.8,4741.23692,N,12224.60911,W,1,10,0.8,-1.2,M,-18.3,M,,*42
$YXXDR,A,4.6,D,PTCH,A,13.2,D,ROLL*6F
$GPVTG,028.5,T,012.1,M,005.76,N,0010.68,K,A*15
$IIVWR,019,L,20.0,N,,,,*75
$DATA,IMU,0,3,3,0,EULER,9.875,19.875,-4.625,ACC,0.08,0.04,-0.21,GRAV,3.33,0.75,9.19*70
$GPRMC,030005.9,A,4741.23704,N,12224.60897,W,005.32,028.5,020816,016.4,E,A*2E
$IIRMB,A,0.00,L,M,X,4741.777000,N,12224.575000,W,0.5,2,4.78,V*05
$HCHDG,9.4,0.0,E,,*24
$GPGGA,030005.9,4741.23704,N,12224.60897,W,1,10,0.8,-1.2,M,-18.3,M,,*42
$GPVTG,028.5,T,012.1,M,005.32,N,0009.85,K,A*1E
$YXXDR,A,4.8,D,PTCH,A,13.3,D,ROLL*60
$IIMTW,+12.5,C*3E
$DATA,IMU,0,3,3,0,EULER,9.5,20,-4.5,ACC,0.05,0.03,0.1,GRAV,3.36,0.72,9.18*73
$GPRMC,030006.0,A,4741.23717,N,12224.60885,W,005.42,028.5,020816,016.4,E,A*22
$IIRMB,A,0.00,L,M,X,4741.777000,N,12224.575000,W,0.5,2,4.87,V*05
$HCHDG,9.2,0.0,E,,*22
$GPGGA,030006.0,4741.23717,N,12224.60885,W,1,10,0.8,-1.2,M,-18.3,M,,*49
$YXXDR,A,5.0,D,PTCH,A,13.5,D,ROLL*6F
$IIMWV,341,R,20.0,N,A*17
$GPVTG,028.5,T,012.1,M,005.42,N,0010.03,K,A*1F
$GPGSA,A,3,21,20,18,15,16,13,10,27,08,32,,,1.3,0.8,1.0*3D
$IIMWV,333,T,14.6,N,A*15
$DATA,IMU,0,3,3,0,EULER,9.1875,20.1875,-4.1875,ACC,-0.03,0.03,0.3,GRAV,3.38,0.67,9.17*7A
$GPRMC,030006.1,A,4741.23730,N,12224.60881,W,005.39,028.5,020816,016.4,E,A*2E
$IIRMB,A,0.00,L,M,X,4741.777000,N,12224.575000,W,0.5,2,4.84,V*06
$HCHDG,9.1,0.0,E,,*21
$GPGGA,030006.1,4741.23730,N,12224.60881,W,1,10,0.8,-1.3,M,-18.3,M,,*48
$YXXDR,A,5.3,D,PTCH,A,14.0,D,ROLL*6E
$GPVTG,028.5,T,012.1,M,005.39,N,0009.99,K,A*18
$GPGSV,3,1,11,21,52,113,46,20,16,069,40,14,04,194,29,18,74,059,45*71
$GPGSV,3,2,11,15,28,051,48,16,10,251,31,13,05,031,38,10,66,257,40*77
$IIRMB,A,0.00,L,,X   ,,,,,000.5,002,,V,A*38
$GPGSV,3,3,11,27,51,282,39,08,25,315,33,32,21,188,33*41
$DATA,IMU,0,3,3,0,EULER,8.875,20.375,-3.625,ACC,-0.07,0,0.3,GRAV,3.41,0.58,9.17*66
$HCHDG,9.4,0.0,E,,*24
$GPRMC,030006.2,A,4741.23736,N,12224.60875,W,005.40,028.5,020816,016.4,E,A*2E
$IIRMB,A,0.00,L,M,X,4741.777000,N,12224.575000,W,0.5,2,4.85,V*07
$GPGGA,030006.2,4741.23736,N,12224.60875,W,1,10,0.8,-1.3,M,-18.3,M,,*46
$YXXDR,A,5.4,D,PTCH,A,14.8,D,ROLL*61
$GPVTG,028.5,T,012.1,M,005.40,N,0010.01,K,A*1F
$DATA,IMU,0,3,3,0,EULER,8.5625,20.5,-3.0625,ACC,-0.01,0.11,0.37,GRAV,3.43,0.49,9.17*71
$GPRMC,030006.3,A,4741.23755,N,12224.60856,W,005.46,028.5,020816,016.4,E,A*2D
$IIRMB,A,0.00,L,M,X,4741.777000,N,12224.575000,W,0.5,2,4.90,V*03
$HCHDG,9.7,0.0,E,,*27
$GPGGA,030006.3,4741.23755,N,12224.60856,W,1,10,0.8,-1.3,M,-18.3,M,,*43
$YXXDR,A,5.8,D,PTCH,A,15.5,D,ROLL*61
$GPVTG,028.5,T,012.1,M,005.46,N,0010.10,K,A*19
$IIVHW,,,,,05.2,N,,*1E
$DATA,env,P,968.94140625,T,23.95*76
$DATA,IMU,0,3,3,0,EULER,8.375,20.625,-2.4375,ACC,-0.06,0.06,0.37,GRAV,3.46,0.38,9.16*46
$GPRMC,030006.4,A,4741.23768,N,12224.60844,W,005.40,028.5,020816,016.4,E,A*21
$IIRMB,A,0.00,L,M,X,4741.777000,N,12224.575000,W,0.5,2,4.85,V*07
$HCHDG,9.8,0.0,E,,*28
$GPGGA,030006.4,4741.23768,N,12224.60844,W,1,10,0.8,-1.3,M,-18.3,M,,*49
$YXXDR,A,6.0,D,PTCH,A,16.0,D,ROLL*6C
$GPVTG,028.5,T,012.1,M,005.40,N,0010.00,K,A*1E
$DATA,IMU,0,3,3,0,EULER,8.25,20.8125,-1.875,ACC,-0.03,0.12,0.26,GRAV,3.48,0.29,9.16*7D
$GPRMC,030006.5,A,4741.23780,N,12224.60832,W,005.41,028.5,020816,016.4,E,A*26
$IIRMB,A,0.00,L,M,X,4741.777000,N,12224.575000,W,0.5,2,4.86,V*04
$HCHDG,9.9,0.0,E,,*29
$PTAK,FFP1,HEEL,###@*24
$PTAK,FFP2,TGTSPD,kts*2C
$PTAK,FFP3,TGTTWA,###@*27
$GPGGA,030006.5,4741.23780,N,12224.60832,W,1,10,0.8,-1.3,M,-18.3,M,,*4F
$GPVTG,028.5,T,012.1,M,005.41,N,0010.01,K,A*1E
$YXXDR,A,5.9,D,PTCH,A,16.5,D,ROLL*63
$TIROT,-57.2,A*26
$DATA,IMU,0,3,3,0,EULER,8.1875,20.9375,-1.4375,ACC,-0.14,0.18,0.1,GRAV,3.5,0.23,9.15*41
$GPRMC,030006.6,A,4741.23793,N,12224.60822,W,005.32,028.5,020816,016.4,E,A*22
$IIRMB,A,0.00,L,M,X,4741.777000,N,12224.575000,W,0.5,2,4.78,V*05
$HCHDG,10.1,0.0,E,,*19
$GPGGA,030006.6,4741.23793,N,12224.60822,W,1,10,0.8,-1.3,M,-18.3,M,,*4F
$YXXDR,A,6.1,D,PTCH,A,16.8,D,ROLL*65
$GPVTG,028.5,T,012.1,M,005.32,N,0009.85,K,A*1E
$DATA,IMU,0,3,3,0,EULER,8.25,21.0625,-1.25,ACC,-0.08,0.25,-0.06,GRAV,3.52,0.2,9.14*5E
$GPRMC,030006.7,A,4741.23799,N,12224.60817,W,005.28,028.5,020816,016.4,E,A*24
$IIRMB,A,0.00,L,M,X,4741.777000,N,12224.575000,W,0.5,2,4.74,V*09
$HCHDG,10.3,0.0,E,,*1B
$GPGGA,030006.7,4741.23799,N,12224.60817,W,1,10,0.8,-1.3,M,-18.3,M,,*42
$YXXDR,A,6.2,D,PTCH,A,16.9,D,ROLL*67
$GPVTG,028.5,T,012.1,M,005.28,N,0009.78,K,A*17
$DATA,IMU,0,3,3,0,EULER,8.375,21.1875,-1.125,ACC,-0.21,0.2,-0.18,GRAV,3.55,0.18,9.13*59
$GPRMC,030006.8,A,4741.23817,N,12224.60801,W,004.69,028.5,020816,016.4,E,A*21
$IIRMB,A,0.00,L,M,X,4741.777000,N,12224.575000,W,0.5,2,4.21,V*09
$HCHDG,10.4,0.0,E,,*1C
$YXXDR,A,6.2,D,PTCH,A,17.2,D,ROLL*6D
$GPGGA,030006.8,4741.23817,N,12224.60801,W,1,10,0.8,-1.4,M,-18.3,M,,*44
$GPVTG,028.5,T,012.1,M,004.69,N,0008.69,K,A*12
$IIVLW,07569,N,010.7,N*58
$IIVWR,019,L,20.2,N,,,,*77
$HCHDG,10.4,0.0,E,,*1C
$GPRMC,030006.9,A,4741.23829,N,12224.60792,W,005.10,028.5,020816,016.4,E,A*27
$IIRMB,A,0.00,L,M,X,4741.777000,N,12224.575000,W,0.5,2,4.58,V*07
$DATA,IMU,0,3,3,0,EULER,8.5625,21.3125,-1.25,ACC,-0.3,0.19,-0.34,GRAV,3.56,0.2,9.13*6F
$GPGGA,030006.9,4741.23829,N,12224.60792,W,1,10,0.8,-1.4,M,-18.3,M,,*4D
$YXXDR,A,6.0,D,PTCH,A,17.4,D,ROLL*69
$GPVTG,028.5,T,012.1,M,005.10,N,0009.45,K,A*12
$GPRMC,030007.0,A,4741.23841,N,12224.60783,W,005.04,028.5,020816,016.4,E,A*24
$IIRMB,A,0.00,L,M,X,4741.777000,N,12224.575000,W,0.5,2,4.52,V*0D
$DATA,IMU,0,3,3,0,EULER,8.75,21.375,-1.4375,ACC,-0.28,0.13,-0.44,GRAV,3.57,0.23,9.12*58
$HCHDG,10.6,0.0,E,,*1E
$GPGGA,030007.0,4741.23841,N,12224.60783,W,1,10,0.8,-1.4,M,-18.3,M,,*4B
$IIMTW,+12.5,C*3E
$YXXDR,A,5.8,D,PTCH,A,17.6,D,ROLL*60
$GPVTG,028.5,T,012.1,M,005.04,N,0009.33,K,A*16
$GPGSA,A,3,21,20,18,15,16,13,10,27,08,32,,,1.3,0.8,1.0*3D
$IIMWV,341,R,20.2,N,A*15
$GPRMC,030007.1,A,4741.23847,N,12224.60784,W,004.96,027.5,020816,016.4,E,A*21
$IIRMB,A,0.00,L,M,X,4741.777000,N,12224.575000,W,0.5,2,4.49,V*07
$HCHDG,10.8,0.0,E,,*10
$YXXDR,A,5.5,D,PTCH,A,17.6,D,ROLL*6D
$DATA,IMU,0,3,3,0,EULER,9,21.4375,-1.75,ACC,-0.35,0.07,-0.59,GRAV,3.58,0.3,9.12*7E
$GPGGA,030007.1,4741.23847,N,12224.60784,W,1,10,0.8,-1.3,M,-18.3,M,,*4C
$GPVTG,027.5,T,011.1,M,004.96,N,0009.19,K,A*18
$IIMWV,334,T,15.2,N,A*17
$GPGSV,3,1,11,21,52,113,46,20,16,069,40,14,04,194,33,18,74,059,45*7A
$GPGSV,3,2,11,15,28,051,49,16,10,251,31,13,05,031,38,10,66,257,41*77
$GPGSV,3,3,11,27,51,282,38,08,25,315,32,32,21,188,33*41
$HCHDG,10.7,0.0,E,,*1F
$GPRMC,030007.2,A,4741.23852,N,12224.60781,W,004.91,028.8,020816,016.4,E,A*26
$IIRMB,A,0.00,L,M,X,4741.777000,N,12224.575000,W,0.5,2,4.40,V*0E
$YXXDR,A,5.4,D,PTCH,A,17.8,D,ROLL*62
$DATA,IMU,0,3,3,0,EULER,9.125,21.5,-2.1875,ACC,-0.29,0.11,-0.58,GRAV,3.59,0.36,9.11*63
$GPGGA,030007.2,4741.23852,N,12224.60781,W,1,10,0.8,-1.4,M,-18.3,M,,*49
$IIRMB,A,0.00,L,,X   ,,,,,000.5,002,,V,A*38
$GPVTG,028.8,T,012.4,M,004.91,N,0009.09,K,A*1A
$GPRMC,030007.3,A,4741.23875,N,12224.60765,W,005.23,028.9,020816,016.4,E,A*21
$IIRMB,A,0.00,L,M,X,4741.777000,N,12224.575000,W,0.5,2,4.68,V*04
$HCHDG,11.0,0.0,E,,*19
$YXXDR,A,5.3,D,PTCH,A,17.7,D,ROLL*6A
$GPGGA,030007.3,4741.23875,N,12224.60765,W,1,10,0.8,-1.4,M,-18.3,M,,*47
$GPVTG,028.9,T,012.4,M,005.23,N,0009.68,K,A*14
$DATA,IMU,0,3,3,0,EULER,9.3125,21.5625,-2.625,ACC,-0.4,0.13,-0.5,GRAV,3.6,0.43,9.1*57
$DATA,env,P,968.84375,T,23.94*43
$HCHDG,11.1,0.0,E,,*18
$GPRMC,030007.4,A,4741.23888,N,12224.60755,W,004.72,028.9,020816,016.4,E,A*22
$IIRMB,A,0.00,L,M,X,4741.777000,N,12224.575000,W,0.5,2,4.22,V*0A
$YXXDR,A,5.1,D,PTCH,A,17.7,D,ROLL*68
$GPGGA,030007.4,4741.23888,N,12224.60755,W,1,10,0.8,-1.4,M,-18.3,M,,*41
$GPVTG,028.9,T,012.4,M,004.72,N,0008.75,K,A*1C
$DATA,IMU,0,3,3,0,EULER,9.4375,21.5,-3,ACC,-0.39,0.09,-0.44,GRAV,3.59,0.48,9.1*49
$HCHDG,10.9,0.0,E,,*11
$GPRMC,030007.5,A,4741.23900,N,12224.60745,W,005.36,029.0,020816,016.4,E,A*2A
$IIRMB,A,0.00,L,M,X,4741.777000,N,12224.575000,W,0.5,2,4.79,V*04
$YXXDR,A,5.2,D,PTCH,A,17.4,D,ROLL*68
$TIROT,39.7,A*06
$GPGGA,030007.5,4741.23900,N,12224.60745,W,1,10,0.8,-1.3,M,-18.3,M,,*47
$GPVTG,029.0,T,012.6,M,005.36,N,0009.93,K,A*1E
$DATA,IMU,0,3,3,0,EULER,9.4375,21.5,-3.25,ACC,-0.38,0.08,-0.31,GRAV,3.6,0.51,9.1*50
$HCHDG,10.8,0.0,E,,*10
$GPRMC,030007.6,A,4741.23906,N,12224.60740,W,005.37,030.1,020816,016.4,E,A*22
$IIRMB,A,0.00,L,M,X,4741.777000,N,12224.575000,W,0.5,2,4.75,V*08
$YXXDR,A,5.2,D,PTCH,A,17.2,D,ROLL*6E
$GPGGA,030007.6,4741.23906,N,12224.60740,W,1,10,0.8,-1.3,M,-18.3,M,,*47
$GPVTG,030.1,T,013.7,M,005.37,N,0009.94,K,A*11
$DATA,IMU,0,3,3,0,EULER,9.5,21.625,-3.3125,ACC,-0.3,0.01,-0.19,GRAV,3.61,0.53,9.09*56
$HCHDG,10.5,0.0,E,,*1D
$GPRMC,030007.7,A,4741.23925,N,12224.60723,W,005.29,029.1,020816,016.4,E,A*20
$IIRMB,A,0.00,L,M,X,4741.777000,N,12224.575000,W,0.5,2,4.72,V*0F
$YXXDR,A,5.2,D,PTCH,A,17.0,D,ROLL*6C
$GPGGA,030007.7,4741.23925,N,12224.60723,W,1,10,0.8,-1.3,M,-18.3,M,,*42
$GPVTG,029.1,T,012.7,M,005.29,N,0009.80,K,A*12
$DATA,IMU,0,3,3,0,EULER,9.5,21.75,-3.3125,ACC,-0.07,0.07,-0.28,GRAV,3.64,0.53,9.08*51
$HCHDG,10.4,0.0,E,,*1C
$GPRMC,030007.8,A,4741.23937,N,12224.60712,W,005.28,029.2,020816,016.4,E,A*2C
$IIRMB,A,0.00,L,M,X,4741.777000,N,12224.575000,W,0.5,2,4.71,V*0C
$GPGGA,030007.8,4741.23937,N,12224.60712,W,1,10,0.8,-1.3,M,-18.3,M,,*4C
$YXXDR,A,5.3,D,PTCH,A,16.9,D,ROLL*65
$IIVHW,,,,,05.4,N,,*18
$GPVTG,029.2,T,012.7,M,005.28,N,0009.78,K,A*17
$DATA,IMU,0,3,3,0,EULER,9.5,22,-3.25,ACC,0,0.08,-0.29,GRAV,3.67,0.51,9.07*78
$IIVLW,07569,N,010.7,N*58
$HCHDG,10.3,0.0,E,,*1B
$GPRMC,030007.9,A,4741.23949,N,12224.60701,W,005.23,029.3,020816,016.4,E,A*2C
$IIRMB,A,0.00,L,M,X,4741.777000,N,12224.575000,W,0.5,2,4.66,V*0A
$YXXDR,A,5.2,D,PTCH,A,15.8,D,ROLL*66
$GPGGA,030007.9,4741.23949,N,12224.60701,W,1,10,0.8,-1.3,M,-18.3,M,,*46
$GPVTG,029.3,T,012.8,M,005.23,N,0009.68,K,A*13
$GPRMC,030008.0,A,4741.23961,N,12224.60689,W,005.26,029.3,020816,016.4,E,A*24
$IIRMB,A,0.00,L,M,X,4741.777000,N,12224.575000,W,0.5,2,4.69,V*05
$GPGGA,030008.0,4741.23961,N,12224.60689,W,1,10,0.8,-1.3,M,-18.3,M,,*4B
$GPVTG,029.3,T,012.9,M,005.26,N,0009.74,K,A*1A
$GPGSA,A,3,21,20,18,15,16,13,10,27,08,32,,,1.3,0.8,1.0*3D
$IIVWR,018,L,20.0,N,,,,*74
$HCHDG,10.1,0.0,E,,*19
$YXXDR,A,5.2,D,PTCH,A,16.0,D,ROLL*6D
$GPRMC,030008.1,A,4741.23969,N,12224.60692,W,005.30,029.4,020816,016.4,E,A*27
$IIRMB,A,0.00,L,M,X,4741.777000,N,12224.575000,W,0.5,2,4.72,V*0F
$DATA,IMU,0,3,3,0,EULER,9.625,22.25,-2.9375,ACC,0,0.02,-0.21,GRAV,3.71,0.46,9.06*59
$IIMTW,+12.5,C*3E
$GPGGA,030008.1,4741.23969,N,12224.60692,W,1,10,0.8,-1.3,M,-18.3,M,,*48
$GPVTG,029.4,T,013.0,M,005.30,N,0009.81,K,A*18
$HCHDG,10.1,0.0,E,,*19
$GPGSV,3,1,11,21,52,113,46,20,16,069,40,14,04,194,33,18,74,059,44*7B
$YXXDR,A,5.2,D,PTCH,A,16.3,D,ROLL*6E
$IIMWV,342,R,20.0,N,A*14
$GPGSV,3,2,11,15,28,051,49,16,10,251,30,13,05,031,37,10,66,257,42*7A
$DATA,IMU,0,3,3,0,EULER,9.625,22.3125,-2.75,ACC,-0.01,0.03,-0.02,GRAV,3.72,0.43,9.05*56
$GPGSV,3,3,11,27,51,282,37,08,25,315,32,32,21,188,35*48
$GPRMC,030008.2,A,4741.23988,N,12224.60683,W,004.64,029.4,020816,016.4,E,A*2B
$IIRMB,A,0.00,L,M,X,4741.777000,N,12224.575000,W,0.5,2,4.13,V*08
$GPGGA,030008.2,4741.23988,N,12224.60683,W,1,10,0.8,-1.3,M,-18.3,M,,*44
$IIMWV,334,T,15.2,N,A*17
$GPVTG,029.4,T,013.0,M,004.64,N,0008.59,K,A*1C
$HCHDG,10.5,0.0,E,,*1D
$YXXDR,A,5.3,D,PTCH,A,18.7,D,ROLL*65
$DATA,IMU,0,3,3,0,EULER,9.6875,22.375,-2.625,ACC,-0.21,0.06,-0.04,GRAV,3.73,0.41,9.05*6E
$GPRMC,030008.3,A,4741.24000,N,12224.60673,W,005.49,029.3,020816,016.4,E,A*22
$IIRMB,A,0.00,L,M,X,4741.777000,N,12224.575000,W,0.5,2,4.89,V*0B
$GPGGA,030008.3,4741.24000,N,12224.60673,W,1,10,0.8,-1.3,M,-18.3,M,,*44
$IIRMB,A,0.00,L,,X   ,,,,,000.5,002,,V,A*38
$GPVTG,029.3,T,012.9,M,005.49,N,0010.16,K,A*1F
$HCHDG,10.5,0.0,E,,*1D
$YXXDR,A,5.3,D,PTCH,A,18.7,D,ROLL*65
$DATA,IMU,0,3,3,0,EULER,9.6875,22.375,-2.5,ACC,-0.17,0.05,-0.05,GRAV,3.74,0.39,9.05*65
$GPRMC,030008.4,A,4741.24013,N,12224.60663,W,005.38,029.3,020816,016.4,E,A*20
$IIRMB,A,0.00,L,M,X,4741.777000,N,12224.575000,W,0.5,2,4.79,V*04
$GPGGA,030008.4,4741.24013,N,12224.60663,W,1,10,0.8,-1.3,M,-18.3,M,,*40
$GPVTG,029.3,T,012.9,M,005.38,N,0009.97,K,A*18
$DATA,env,P,968.94140625,T,23.95*76
$HCHDG,10.9,0.0,E,,*11
$YXXDR,A,5.3,D,PTCH,A,18.7,D,ROLL*65
$DATA,IMU,0,3,3,0,EULER,9.75,22.4375,-2.4375,ACC,-0.19,0.04,-0.02,GRAV,3.74,0.39,9.05*67
$GPRMC,030008.5,A,4741.24019,N,12224.60657,W,005.34,029.4,020816,016.4,E,A*27
$IIRMB,A,0.00,L,M,X,4741.777000,N,12224.575000,W,0.5,2,4.75,V*08
$GPGGA,030008.5,4741.24019,N,12224.60657,W,1,10,0.8,-1.3,M,-18.3,M,,*4C
$GPVTG,029.4,T,012.9,M,005.34,N,0009.89,K,A*1C
$HCHDG,10.8,0.0,E,,*10
$YXXDR,A,5.4,D,PTCH,A,18.7,D,ROLL*62
$TIROT,10.7,A*0D
$DATA,IMU,0,3,3,0,EULER,9.75,22.5,-2.5,ACC,0,0.11,-0.03,GRAV,3.76,0.39,9.04*6A
$GPRMC,030008.6,A,4741.24037,N,12224.60641,W,004.82,029.4,020816,016.4,E,A*23
$IIRMB,A,0.00,L,M,X,4741.777000,N,12224.575000,W,0.5,2,4.29,V*01
$GPGGA,030008.6,4741.24037,N,12224.60641,W,1,10,0.8,-1.4,M,-18.3,M,,*43
$GPVTG,029.4,T,012.9,M,004.82,N,0008.92,K,A*1B
$HCHDG,11.1,0.0,E,,*18
$YXXDR,A,5.4,D,PTCH,A,18.6,D,ROLL*63
$DATA,IMU,0,3,3,0,EULER,9.75,22.625,-2.5,ACC,-0.21,0.12,0.01,GRAV,3.77,0.4,9.04*7D
$GPRMC,030008.7,A,4741.24043,N,12224.60636,W,004.82,029.4,020816,016.4,E,A*21
$IIRMB,A,0.00,L,M,X,4741.777000,N,12224.575000,W,0.5,2,4.29,V*01
$GPGGA,030008.7,4741.24043,N,12224.60636,W,1,10,0.8,-1.4,M,-18.3,M,,*41
$GPVTG,029.4,T,012.9,M,004.82,N,0008.93,K,A*1A
$HCHDG,10.9,0.0,E,,*11
$YXXDR,A,5.4,D,PTCH,A,18.6,D,ROLL*63
$DATA,IMU,0,3,3,0,EULER,9.75,22.625,-2.625,ACC,-0.3,0.13,0.13,GRAV,3.77,0.41,9.04*7A
$GPRMC,030008.8,A,4741.24061,N,12224.60620,W,005.63,029.4,020816,016.4,E,A*27
$IIRMB,A,0.00,L,M,X,4741.777000,N,12224.575000,W,0.5,2,5.01,V*0A
$GPGGA,030008.8,4741.24061,N,12224.60620,W,1,10,0.8,-1.4,M,-18.3,M,,*49
$GPVTG,029.4,T,012.9,M,005.63,N,0010.43,K,A*10
$HCHDG,11.0,0.0,E,,*19
$YXXDR,A,5.4,D,PTCH,A,18.5,D,ROLL*60
$DATA,IMU,0,3,3,0,EULER,9.8125,22.5625,-2.6875,ACC,-0.25,0.15,0.15,GRAV,3.76,0.43,9.04*49
$GPRMC,030008.9,A,4741.24073,N,12224.60610,W,004.20,029.4,020816,016.4,E,A*20
$IIRMB,A,0.00,L,M,X,4741.777000,N,12224.575000,W,0.5,2,3.74,V*0E
$GPGGA,030008.9,4741.24073,N,12224.60610,W,1,10,0.8,-1.4,M,-18.3,M,,*48
$GPVTG,029.4,T,012.9,M,004.20,N,0007.78,K,A*18
$HCHDG,10.9,0.0,E,,*11
$YXXDR,A,5.4,D,PTCH,A,18.5,D,ROLL*60
$DATA,IMU,0,3,3,0,EULER,9.875,22.625,-2.75,ACC,-0.19,0.13,0.1,GRAV,3.77,0.43,9.04*7B
$GPRMC,030009.0,A,4741.24084,N,12224.60601,W,004.94,029.4,020816,016.4,E,A*2F
$IIRMB,A,0.00,L,M,X,4741.777000,N,12224.575000,W,0.5,2,4.39,V*00
$IIVHW,,,,,05.4,N,,*18
$GPGGA,030009.0,4741.24084,N,12224.60601,W,1,10,0.8,-1.4,M,-18.3,M,,*48
$GPVTG,029.4,T,012.9,M,004.94,N,0009.15,K,A*12
$HCHDG,11.0,0.0,E,,*19
$GPGSA,A,3,21,20,18,15,16,13,10,27,08,32,,,1.3,0.8,1.0*3D
$YXXDR,A,5.4,D,PTCH,A,18.5,D,ROLL*60
$IIVLW,07569,N,010.7,N*58
$DATA,IMU,0,3,3,0,EULER,9.875,22.6875,-2.6875,ACC,-0.18,0.1,0.14,GRAV,3.78,0.42,9.03*47
$GPRMC,030009.1,A,4741.24091,N,12224.60593,W,004.51,029.4,020816,016.4,E,A*2B
$IIRMB,A,0.00,L,M,X,4741.777000,N,12224.575000,W,0.5,2,4.01,V*0B
$IIVWR,018,L,19.9,N,,,,*77
$GPGGA,030009.1,4741.24091,N,12224.60593,W,1,10,0.8,-1.4,M,-18.3,M,,*45
$GPVTG,029.4,T,012.9,M,004.51,N,0008.36,K,A*1B
$HCHDG,10.8,0.0,E,,*10
$GPGSV,3,1,11,21,52,113,46,20,16,069,39,14,04,194,33,18,74,059,44*75
$YXXDR,A,5.4,D,PTCH,A,18.1,D,ROLL*64
$GPGSV,3,2,11,15,28,051,49,16,10,251,30,13,05,031,37,10,66,257,42*7A
$GPGSV,3,3,11,27,51,282,35,08,25,315,32,32,21,188,35*4A
$DATA,IMU,0,3,3,0,EULER,10,22.75,-2.5625,ACC,-0.19,0.07,0.1,GRAV,3.79,0.41,9.03*6C
$GPRMC,030009.2,A,4741.24102,N,12224.60582,W,004.55,029.4,020816,016.4,E,A*27
$IIRMB,A,0.00,L,M,X,4741.777000,N,12224.575000,W,0.5,2,4.05,V*0F
$GPGGA,030009.2,4741.24102,N,12224.60582,W,1,10,0.8,-1.4,M,-18.3,M,,*4D
$GPVTG,029.4,T,012.9,M,004.55,N,0008.42,K,A*1C
$HCHDG,11.0,0.0,E,,*19
$IIMTW,+12.5,C*3E
$YXXDR,A,5.4,D,PTCH,A,18.1,D,ROLL*64
$DATA,IMU,0,3,3,0,EULER,10.125,22.75,-2.5625,ACC,-0.33,0.05,-0.02,GRAV,3.79,0.4,9.03*51
$GPRMC,030009.3,A,4741.24114,N,12224.60571,W,004.61,029.4,020816,016.4,E,A*2A
$IIRMB,A,0.00,L,M,X,4741.777000,N,12224.575000,W,0.5,2,4.10,V*0B
$IIMWV,342,R,19.9,N,A*17
$GPGGA,030009.3,4741.24114,N,12224.60571,W,1,10,0.8,-1.4,M,-18.3,M,,*47
$GPVTG,029.4,T,012.9,M,004.61,N,0008.54,K,A*1C
$HCHDG,10.9,0.0,E,,*11
$YXXDR,A,5.4,D,PTCH,A,18.1,D,ROLL*64
$IIMWV,335,T,14.9,N,A*1C
$DATA,IMU,0,3,3,0,EULER,10.375,22.75,-2.625,ACC,-0.27,-0.01,-0.15,GRAV,3.79,0.41,9.03*78
$GPRMC,030009.4,A,4741.24125,N,12224.60561,W,004.71,029.4,020816,016.4,E,A*2F
$IIRMB,A,0.00,L,M,X,4741.777000,N,12224.575000,W,0.5,2,4.19,V*02
$GPGGA,030009.4,4741.24125,N,12224.60561,W,1,10,0.8,-1.4,M,-18.3,M,,*43
$GPVTG,029.4,T,012.9,M,004.71,N,0008.73,K,A*18
$DATA,env,P,968.94140625,T,23.95*76
$HCHDG,11.0,0.0,E,,*19
$YXXDR,A,5.4,D,PTCH,A,18.1,D,ROLL*64
$DATA,IMU,0,3,3,0,EULER,10.625,22.8125,-2.75,ACC,-0.29,-0.06,-0.34,GRAV,3.8,0.43,9.02*78
$GPRMC,030009.5,A,4741.24136,N,12224.60551,W,004.30,029.4,020816,016.4,E,A*2A
$IIRMB,A,0.00,L,M,X,4741.777000,N,12224.575000,W,0.5,2,3.82,V*07
$GPGGA,030009.5,4741.24136,N,12224.60551,W,1,10,0.8,-1.4,M,-18.3,M,,*43
$GPVTG,029.4,T,012.9,M,004.30,N,0007.96,K,A*19
$HCHDG,10.9,0.0,E,,*11
$YXXDR,A,5.2,D,PTCH,A,18.2,D,ROLL*61
$TIROT,49.9,A*0F
$DATA,IMU,0,3,3,0,EULER,10.875,22.75,-2.9375,ACC,-0.3,-0.03,-0.47,GRAV,3.79,0.46,9.03*7E
$GPRMC,030009.6,A,4741.24147,N,12224.60541,W,004.76,029.4,020816,016.4,E,A*2C
$IIRMB,A,0.00,L,M,X,4741.777000,N,12224.575000,W,0.5,2,4.23,V*0B
$GPGGA,030009.6,4741.24147,N,12224.60541,W,1,10,0.8,-1.4,M,-18.3,M,,*47
$GPVTG,029.4,T,012.9,M,004.76,N,0008.82,K,A*11
$HCHDG,11.0,0.0,E,,*19
$YXXDR,A,5.1,D,PTCH,A,18.3,D,ROLL*63
$DATA,IMU,0,3,3,0,EULER,11,22.6875,-3.1875,ACC,-0.42,-0.11,-0.52,GRAV,3.78,0.5,9.03*63
$GPRMC,030009.7,A,4741.24157,N,12224.60531,W,004.60,029.4,020816,016.4,E,A*2C
$IIRMB,A,0.00,L,M,X,4741.777000,N,12224.575000,W,0.5,2,4.09,V*03
$GPGGA,030009.7,4741.24157,N,12224.60531,W,1,10,0.8,-1.4,M,-18.3,M,,*40
$GPVTG,029.4,T,012.9,M,004.60,N,0008.53,K,A*1A
$HCHDG,11.0,0.0,E,,*19
$YXXDR,A,5.0,D,PTCH,A,18.2,D,ROLL*63
$DATA,IMU,0,3,3,0,EULER,11.0625,22.625,-3.4375,ACC,-0.29,-0.09,-0.58,GRAV,3.77,0.54,9.03*4A
$GPRMC,030009.8,A,4741.24169,N,12224.60522,W,005.09,029.4,020816,016.4,E,A*22
$IIRMB,A,0.00,L,M,X,4741.777000,N,12224.575000,W,0.5,2,4.53,V*0C
$GPGGA,030009.8,4741.24169,N,12224.60522,W,1,10,0.8,-1.4,M,-18.3,M,,*40
$GPVTG,029.4,T,012.9,M,005.09,N,0009.42,K,A*15
$HCHDG,10.8,0.0,E,,*10
$YXXDR,A,4.9,D,PTCH,A,18.1,D,ROLL*68
$DATA,IMU,0,3,3,0,EULER,11.0625,22.5625,-3.625,ACC,0.64,0.04,-1.06,GRAV,3.77,0.58,9.03*49
$GPRMC,030009.9,A,4741.24181,N,12224.60512,W,004.93,029.4,020816,016.4,E,A*24
$IIRMB,A,0.00,L,M,X,4741.777000,N,12224.575000,W,0.5,2,4.38,V*01
$IIRMB,A,0.00,L,,X   ,,,,,000.5,002,,V,A*38
$GPGGA,030009.9,4741.24181,N,12224.60512,W,1,10,0.8,-1.4,M,-18.3,M,,*44
$HCHDG,10.6,0.0,E,,*1E
$GPVTG,029.4,T,012.9,M,004.93,N,0009.13,K,A*13
$YXXDR,A,5.1,D,PTCH,A,17.8,D,ROLL*67
$DATA,IMU,0,3,3,0,EULER,11,22.5625,-3.875,ACC,0,0.08,-0.47,GRAV,3.76,0.61,9.03*42
$GPRMC,030010.0,A,4741.24192,N,12224.60500,W,004.76,029.4,020816,016.4,E,A*2F
$IIRMB,A,0.00,L,M,X,4741.777000,N,12224.575000,W,0.5,2,4.23,V*0B
$GPGGA,030010.0,4741.24192,N,12224.60500,W,1,10,0.8,-1.4,M,-18.3,M,,*44
$HCHDG,10.3,0.0,E,,*1B
$GPVTG,029.4,T,012.9,M,004.76,N,0008.82,K,A*11
$GPGSA,A,3,21,20,18,15,16,13,10,27,08,32,,,1.3,0.8,1.0*3D
$YXXDR,A,4.7,D,PTCH,A,17.7,D,ROLL*6F
$IIVHW,,,,,05.4,N,,*18
$GPRMC,030010.1,A,4741.24197,N,12224.60496,W,004.81,029.4,020816,016.4,E,A*2D
$IIRMB,A,0.00,L,M,X,4741.777000,N,12224.575000,W,0.5,2,4.28,V*00
$DATA,IMU,0,3,3,0,EULER,10.8125,22.5,-3.9375,ACC,0.13,-0.26,-0.34,GRAV,3.75,0.63,9.03*68
$GPGGA,030010.1,4741.24197,N,12224.60496,W,1,10,0.8,-1.4,M,-18.3,M,,*4E
$HCHDG,10.0,0.0,E,,*18
$GPVTG,029.4,T,012.9,M,004.81,N,0008.91,K,A*1B
$IIVLW,07569,N,010.7,N*58
$GPGSV,3,1,11,21,52,113,46,20,16,069,39,14,04,194,33,18,74,059,44*75
$YXXDR,A,4.9,D,PTCH,A,17.4,D,ROLL*62
$GPGSV,3,2,11,15,28,051,49,16,10,251,32,13,05,031,37,10,66,257,43*79
$GPGSV,3,3,11,27,51,282,35,08,25,315,33,32,21,188,34*4A
$IIVWR,017,L,20.0,N,,,,*7B
$DATA,IMU,0,3,3,0,EULER,10.625,22.5625,-4,ACC,0.64,-0.05,-0.18,GRAV,3.76,0.63,9.03*4B
$GPRMC,030010.2,A,4741.24215,N,12224.60479,W,004.92,029.4,020816,016.4,E,A*24
$IIRMB,A,0.00,L,M,X,4741.777000,N,12224.575000,W,0.5,2,4.37,V*0E
$GPGGA,030010.2,4741.24215,N,12224.60479,W,1,10,0.8,-1.4,M,-18.3,M,,*45
$HCHDG,9.7,0.0,E,,*27
$GPVTG,029.4,T,012.9,M,004.92,N,0009.12,K,A*13
$YXXDR,A,5.2,D,PTCH,A,17.3,D,ROLL*6F
$GPRMC,030010.3,A,4741.24220,N,12224.60473,W,005.00,030.4,020816,016.4,E,A*2B
$IIRMB,A,0.00,L,M,X,4741.777000,N,12224.575000,W,0.5,2,4.40,V*0E
$DATA,IMU,0,3,3,0,EULER,10.375,22.5625,-3.9375,ACC,0.26,0.1,-0.14,GRAV,3.76,0.62,9.03*78
$GPGGA,030010.3,4741.24220,N,12224.60473,W,1,10,0.8,-1.4,M,-18.3,M,,*48
$HCHDG,9.6,0.0,E,,*26
$GPVTG,030.4,T,014.0,M,005.00,N,0009.26,K,A*19
$IIMTW,+12.5,C*3E
$YXXDR,A,5.3,D,PTCH,A,17.5,D,ROLL*68
$IIMWV,343,R,20.0,N,A*15
$GPRMC,030010.4,A,4741.24238,N,12224.60455,W,004.65,031.1,020816,016.4,E,A*27
$IIRMB,A,0.00,L,M,X,4741.777000,N,12224.575000,W,0.5,2,4.07,V*0D
$DATA,IMU,0,3,3,0,EULER,10.1875,22.5,-3.875,ACC,-0.15,-0.01,-0.19,GRAV,3.75,0.61,9.03*7C
$GPGGA,030010.4,4741.24238,N,12224.60455,W,1,10,0.8,-1.3,M,-18.3,M,,*45
$HCHDG,9.5,0.0,E,,*25
$DATA,env,P,968.765625,T,23.95*7A
$GPVTG,031.1,T,014.7,M,004.65,N,0008.62,K,A*19
$YXXDR,A,4.9,D,PTCH,A,17.7,D,ROLL*61
$GPRMC,030010.5,A,4741.24249,N,12224.60444,W,005.05,032.3,020816,016.4,E,A*26
$IIRMB,A,0.00,L,M,X,4741.777000,N,12224.575000,W,0.5,2,4.37,V*0E
$DATA,IMU,0,3,3,0,EULER,10,22.4375,-3.875,ACC,0.11,0,-0.12,GRAV,3.74,0.61,9.04*4F
$GPGGA,030010.5,4741.24249,N,12224.60444,W,1,10,0.8,-1.3,M,-18.3,M,,*42
$HCHDG,9.5,0.0,E,,*25
$GPVTG,032.3,T,015.8,M,005.05,N,0009.34,K,A*13
$YXXDR,A,4.6,D,PTCH,A,17.9,D,ROLL*60
$TIROT,-106.4,A*15
$GPRMC,030010.6,A,4741.24260,N,12224.60431,W,005.46,034.1,020816,016.4,E,A*2F
$IIRMB,A,0.00,L,M,X,4741.777000,N,12224.575000,W,0.5,2,4.63,V*0F
$GPGGA,030010.6,4741.24260,N,12224.60431,W,1,10,0.8,-1.4,M,-18.3,M,,*4F
$DATA,IMU,0,3,3,0,EULER,9.875,22.375,-3.8125,ACC,-0.21,0,0.04,GRAV,3.73,0.61,9.04*60
$HCHDG,9.6,0.0,E,,*26
$GPVTG,034.1,T,017.7,M,005.46,N,0010.11,K,A*12
$YXXDR,A,4.5,D,PTCH,A,18.2,D,ROLL*67
$GPRMC,030010.7,A,4741.24272,N,12224.60419,W,004.99,035.1,020816,016.4,E,A*25
$IIRMB,A,0.00,L,M,X,4741.777000,N,12224.575000,W,0.5,2,4.19,V*02
$GPGGA,030010.7,4741.24272,N,12224.60419,W,1,10,0.8,-1.4,M,-18.3,M,,*47
$DATA,IMU,0,3,3,0,EULER,9.75,22.25,-3.8125,ACC,-0.16,0.01,0.19,GRAV,3.71,0.6,9.05*7B
$HCHDG,9.6,0.0,E,,*26
$GPVTG,035.1,T,018.6,M,004.99,N,0009.25,K,A*11
$YXXDR,A,4.6,D,PTCH,A,18.5,D,ROLL*63
$GPRMC,030010.8,A,4741.24285,N,12224.60409,W,005.07,035.1,020816,016.4,E,A*25
$IIRMB,A,0.00,L,M,X,4741.777000,N,12224.575000,W,0.5,2,4.25,V*0D
$GPGGA,030010.8,4741.24285,N,12224.60409,W,1,10,0.8,-1.4,M,-18.3,M,,*41
$HCHDG,10.1,0.0,E,,*19
$DATA,IMU,0,3,3,0,EULER,9.6875,22.125,-3.75,ACC,-0.06,-0.03,0.09,GRAV,3.69,0.59,9.06*57
$GPVTG,035.1,T,018.7,M,005.07,N,0009.39,K,A*1B
$YXXDR,A,5.0,D,PTCH,A,18.7,D,ROLL*66
$IIMWV,337,T,14.9,N,A*1E
$GPRMC,030010.9,A,4741.24297,N,12224.60398,W,004.81,035.1,020816,016.4,E,A*27
$IIRMB,A,0.00,L,M,X,4741.777000,N,12224.575000,W,0.5,2,4.03,V*09
$GPGGA,030010.9,4741.24297,N,12224.60398,W,1,10,0.8,-1.4,M,-18.3,M,,*4C
$HCHDG,10.2,0.0,E,,*1A
$DATA,IMU,0,3,3,0,EULER,9.625,22,-3.625,ACC,-0.16,0,0.12,GRAV,3.68,0.57,9.07*44
$GPVTG,035.1,T,018.7,M,004.81,N,0008.90,K,A*16
$YXXDR,A,5.2,D,PTCH,A,18.8,D,ROLL*6B
$IIRMB,A,0.00,L,,X   ,,,,,000.5,002,,V,A*38
$GPRMC,030011.0,A,4741.24308,N,12224.60387,W,004.87,035.6,020816,016.4,E,A*27
$IIRMB,A,0.00,L,M,X,4741.777000,N,12224.575000,W,0.5,2,4.06,V*0C
$GPGGA,030011.0,4741.24308,N,12224.60387,W,1,10,0.8,-1.4,M,-18.3,M,,*4D
$HCHDG,10.2,0.0,E,,*1A
$GPVTG,035.6,T,019.2,M,004.87,N,0009.02,K,A*19
$DATA,IMU,0,3,3,0,EULER,9.6875,22,-3.4375,ACC,-0.07,0.07,-0.01,GRAV,3.67,0.54,9.07*47
$YXXDR,A,5.5,D,PTCH,A,18.9,D,ROLL*6D
$GPGSA,A,3,21,20,18,15,16,13,10,27,08,32,,,1.3,0.8,1.0*3D
$GPRMC,030011.1,A,4741.24316,N,12224.60383,W,004.93,035.0,020816,016.4,E,A*2E
$IIRMB,A,0.00,L,M,X,4741.777000,N,12224.575000,W,0.5,2,4.14,V*0F
$GPGGA,030011.1,4741.24316,N,12224.60383,W,1,10,0.8,-1.3,M,-18.3,M,,*40
$HCHDG,10.4,0.0,E,,*1C
$GPVTG,035.0,T,018.6,M,004.93,N,0009.14,K,A*18
$IIVHW,,,,,05.3,N,,*1F
$DATA,IMU,0,3,3,0,EULER,9.6875,21.9375,-3.1875,ACC,-0.19,0.04,-0.15,GRAV,3.66,0.5,9.08*5F
$YXXDR,A,5.6,D,PTCH,A,18.9,D,ROLL*6E
$GPGSV,3,1,11,21,52,113,47,20,16,069,39,14,04,194,35,18,74,059,44*72
$GPGSV,3,2,11,15,28,051,49,16,10,251,32,13,05,031,35,10,66,257,44*7C
$GPGSV,3,3,11,27,51,282,35,08,25,315,33,32,21,188,34*4A
$IIVLW,07569,N,010.7,N*58
$GPRMC,030011.2,A,4741.24337,N,12224.60368,W,005.02,035.2,020816,016.4,E,A*20
$IIRMB,A,0.00,L,M,X,4741.777000,N,12224.575000,W,0.5,2,4.20,V*08
$HCHDG,10.5,0.0,E,,*1D
$GPGGA,030011.2,4741.24337,N,12224.60368,W,1,10,0.8,-1.3,M,-18.3,M,,*45
$GPVTG,035.2,T,018.8,M,005.02,N,0009.30,K,A*1B
$YXXDR,A,5.7,D,PTCH,A,18.9,D,ROLL*6F
$DATA,IMU,0,3,3,0,EULER,9.8125,21.875,-2.9375,ACC,-0.31,0.02,-0.15,GRAV,3.65,0.45,9.08*56
$IIVWR,017,L,20.1,N,,,,*7A
$GPRMC,030011.3,A,4741.24343,N,12224.60363,W,005.08,034.0,020816,016.4,E,A*20
$IIRMB,A,0.00,L,M,X,4741.777000,N,12224.575000,W,0.5,2,4.31,V*08
$GPGGA,030011.3,4741.24343,N,12224.60363,W,1,10,0.8,-1.3,M,-18.3,M,,*4C
$HCHDG,10.5,0.0,E,,*1D
$GPVTG,034.0,T,017.5,M,005.08,N,0009.41,K,A*16
$YXXDR,A,6.0,D,PTCH,A,18.8,D,ROLL*6A
$DATA,IMU,0,3,3,0,EULER,9.875,21.8125,-2.625,ACC,-0.43,0.01,-0.24,GRAV,3.64,0.41,9.09*6F
$IIMTW,+12.5,C*3E
$GPRMC,030011.4,A,4741.24350,N,12224.60358,W,005.12,031.8,020816,016.4,E,A*2B
$IIRMB,A,0.00,L,M,X,4741.777000,N,12224.575000,W,0.5,2,4.45,V*0B
$GPGGA,030011.4,4741.24350,N,12224.60358,W,1,10,0.8,-1.3,M,-18.3,M,,*41
$HCHDG,10.7,0.0,E,,*1F
$DATA,env,P,968.94140625,T,23.95*76
$GPVTG,031.8,T,015.4,M,005.12,N,0009.49,K,A*1B
$YXXDR,A,5.8,D,PTCH,A,18.7,D,ROLL*6E
$DATA,IMU,0,3,3,0,EULER,9.9375,21.75,-2.3125,ACC,-0.34,0.02,-0.29,GRAV,3.64,0.36,9.09*6B
$GPRMC,030011.5,A,4741.24375,N,12224.60338,W,005.11,031.5,020816,016.4,E,A*25
$IIRMB,A,0.00,L,M,X,4741.777000,N,12224.575000,W,0.5,2,4.45,V*0B
$GPGGA,030011.5,4741.24375,N,12224.60338,W,1,10,0.8,-1.3,M,-18.3,M,,*41
$HCHDG,10.9,0.0,E,,*11
$GPVTG,031.5,T,015.1,M,005.11,N,0009.46,K,A*1F
$YXXDR,A,5.7,D,PTCH,A,18.7,D,ROLL*61
$TIROT,35.3,A*0E
$DATA,IMU,0,3,3,0,EULER,10.0625,21.8125,-2.125,ACC,-0.32,-0.01,-0.3,GRAV,3.64,0.34,9.09*77
$GPRMC,030011.6,A,4741.24388,N,12224.60327,W,005.18,029.6,020816,016.4,E,A*29
$IIRMB,A,0.00,L,M,X,4741.777000,N,12224.575000,W,0.5,2,4.59,V*06
$GPGGA,030011.6,4741.24388,N,12224.60327,W,1,10,0.8,-1.3,M,-18.3,M,,*4E
$HCHDG,10.9,0.0,E,,*11
$GPVTG,029.6,T,013.2,M,005.18,N,0009.60,K,A*1D
$YXXDR,A,5.4,D,PTCH,A,18.0,D,ROLL*65
$DATA,IMU,0,3,3,0,EULER,10.125,21.875,-2.125,ACC,-0.36,0,-0.38,GRAV,3.66,0.33,9.09*4F
$GPRMC,030011.7,A,4741.24400,N,12224.60317,W,004.75,029.6,020816,016.4,E,A*26
$IIRMB,A,0.00,L,M,X,4741.777000,N,12224.575000,W,0.5,2,4.21,V*09
$GPGGA,030011.7,4741.24400,N,12224.60317,W,1,10,0.8,-1.3,M,-18.3,M,,*4B
$HCHDG,10.7,0.0,E,,*1F
$GPVTG,029.6,T,013.2,M,004.75,N,0008.79,K,A*1E
$YXXDR,A,5.4,D,PTCH,A,18.0,D,ROLL*65
$DATA,IMU,0,3,3,0,EULER,10.25,22,-2.1875,ACC,-0.36,0.03,-0.41,GRAV,3.68,0.35,9.08*7E
$GPRMC,030011.8,A,4741.24411,N,12224.60305,W,005.35,028.7,020816,016.4,E,A*2F
$IIRMB,A,0.00,L,M,X,4741.777000,N,12224.575000,W,0.5,2,4.78,V*05
$GPGGA,030011.8,4741.24411,N,12224.60305,W,1,10,0.8,-1.3,M,-18.3,M,,*47
$HCHDG,10.6,0.0,E,,*1E
$GPVTG,028.7,T,012.3,M,005.35,N,0009.90,K,A*1D
$YXXDR,A,5.5,D,PTCH,A,17.8,D,ROLL*63
$IIMWV,343,R,20.2,N,A*17
$DATA,IMU,0,3,3,0,EULER,10.25,22.125,-2.4375,ACC,-0.38,-0.02,-0.52,GRAV,3.7,0.39,9.07*72
$GPRMC,030011.9,A,4741.24424,N,12224.60294,W,005.27,029.6,020816,016.4,E,A*22
$IIRMB,A,0.00,L,M,X,4741.777000,N,12224.575000,W,0.5,2,4.67,V*0B
$IIMWV,337,T,15.0,N,A*16
$GPGGA,030011.9,4741.24424,N,12224.60294,W,1,10,0.8,-1.3,M,-18.3,M,,*49
$HCHDG,10.3,0.0,E,,*1B
$GPVTG,029.6,T,013.1,M,005.27,N,0009.75,K,A*16
$YXXDR,A,5.4,D,PTCH,A,17.7,D,ROLL*6D
$DATA,IMU,0,3,3,0,EULER,10.1875,22.25,-2.6875,ACC,-0.3,0.02,-0.43,GRAV,3.72,0.43,9.06*6D
$IIRMB,A,0.00,L,,X   ,,,,,000.5,002,,V,A*38
$GPRMC,030012.0,A,4741.24436,N,12224.60283,W,005.51,028.8,020816,016.4,E,A*23
$IIRMB,A,0.00,L,M,X,4741.777000,N,12224.575000,W,0.5,2,4.92,V*01
$GPGGA,030012.0,4741.24436,N,12224.60283,W,1,10,0.8,-1.3,M,-18.3,M,,*46
$HCHDG,10.1,0.0,E,,*19
$YXXDR,A,5.3,D,PTCH,A,17.5,D,ROLL*68
$GPVTG,028.8,T,012.3,M,005.51,N,0010.19,K,A*19
$GPGSA,A,3,21,20,18,15,16,13,10,27,08,32,,,1.3,0.8,1.0*3D
$DATA,IMU,0,3,3,0,EULER,10.1875,22.375,-3,ACC,-0.33,0.04,-0.37,GRAV,3.73,0.48,9.05*47
$GPRMC,030012.1,A,4741.24456,N,12224.60274,W,005.11,029.3,020816,016.4,E,A*22
$IIRMB,A,0.00,L,M,X,4741.777000,N,12224.575000,W,0.5,2,4.54,V*0B
$HCHDG,9.8,0.0,E,,*28
$GPGGA,030012.1,4741.24456,N,12224.60274,W,1,10,0.8,-1.2,M,-18.3,M,,*48
$GPVTG,029.3,T,012.8,M,005.11,N,0009.46,K,A*1E
$YXXDR,A,5.1,D,PTCH,A,17.3,D,ROLL*6C
$GPGSV,3,1,11,21,52,113,47,20,16,069,38,14,04,194,35,18,74,059,44*73
$DATA,IMU,0,3,3,0,EULER,10.125,22.5,-3.25,ACC,-0.18,0.11,-0.33,GRAV,3.75,0.52,9.04*52
$GPGSV,3,2,11,15,28,051,49,16,10,251,32,13,05,031,37,10,66,257,44*7E
$IIVHW,,,,,05.3,N,,*1F
$GPGSV,3,3,11,27,51,282,35,08,25,315,32,32,21,188,34*4B
$GPRMC,030012.2,A,4741.24469,N,12224.60263,W,005.19,029.2,020816,016.4,E,A*22
$IIRMB,A,0.00,L,M,X,4741.777000,N,12224.575000,W,0.5,2,4.62,V*0E
$GPGGA,030012.2,4741.24469,N,12224.60263,W,1,10,0.8,-1.2,M,-18.3,M,,*41
$GPVTG,029.2,T,012.7,M,005.19,N,0009.62,K,A*1E
$GPRMC,030012.3,A,4741.24481,N,12224.60251,W,004.96,029.1,020816,016.4,E,A*21
$IIRMB,A,0.00,L,M,X,4741.777000,N,12224.575000,W,0.5,2,4.42,V*0C
$IIVLW,07569,N,010.7,N*58
$IIVWR,017,L,20.2,N,,,,*79
$HCHDG,9.6,0.0,E,,*26
$YXXDR,A,5.3,D,PTCH,A,17.1,D,ROLL*6C
$HCHDG,9.6,0.0,E,,*26
$YXXDR,A,5.5,D,PTCH,A,17.2,D,ROLL*69
$GPGGA,030012.3,4741.24481,N,12224.60251,W,1,10,0.8,-1.2,M,-18.3,M,,*47
$GPVTG,029.1,T,012.7,M,004.96,N,0009.18,K,A*16
$DATA,IMU,0,3,3,0,EULER,10,22.625,-3.4375,ACC,-0.1,0.19,-0.03,GRAV,3.78,0.54,9.03*73
$GPRMC,030012.4,A,4741.24493,N,12224.60240,W,005.58,029.2,020816,016.4,E,A*25
$IIRMB,A,0.00,L,M,X,4741.777000,N,12224.575000,W,0.5,2,4.96,V*05
$DATA,IMU,0,3,3,0,EULER,9.9375,22.75,-3.4375,ACC,0,0.19,0.04,GRAV,3.79,0.54,9.02*46
$HCHDG,9.5,0.0,E,,*25
$GPGGA,030012.4,4741.24493,N,12224.60240,W,1,10,0.8,-1.2,M,-18.3,M,,*43
$DATA,env,P,968.55859375,T,23.96*79
$GPVTG,029.2,T,012.7,M,005.58,N,0010.34,K,A*10
$YXXDR,A,5.5,D,PTCH,A,17.3,D,ROLL*68
$GPRMC,030012.5,A,4741.24500,N,12224.60234,W,005.57,029.1,020816,016.4,E,A*20
$IIRMB,A,0.00,L,M,X,4741.777000,N,12224.575000,W,0.5,2,4.96,V*05
$DATA,IMU,0,3,3,0,EULER,9.875,22.8125,-3.25,ACC,0.05,0.19,0.11,GRAV,3.8,0.51,9.02*66
$HCHDG,9.5,0.0,E,,*25
$GPGGA,030012.5,4741.24500,N,12224.60234,W,1,10,0.8,-1.2,M,-18.3,M,,*4A
$GPVTG,029.1,T,012.7,M,005.57,N,0010.31,K,A*19
$YXXDR,A,5.5,D,PTCH,A,17.3,D,ROLL*68
$TIROT,-22.7,A*21
$DATA,IMU,0,3,3,0,EULER,9.8125,22.875,-2.9375,ACC,0.01,0.13,0.19,GRAV,3.81,0.45,9.02*5A
$GPRMC,030012.6,A,4741.24519,N,12224.60217,W,005.47,029.2,020816,016.4,E,A*28
$IIRMB,A,0.00,L,M,X,4741.777000,N,12224.575000,W,0.5,2,4.86,V*04
$HCHDG,9.5,0.0,E,,*25
$GPGGA,030012.6,4741.24519,N,12224.60217,W,1,10,0.8,-1.2,M,-18.3,M,,*40
$YXXDR,A,5.5,D,PTCH,A,17.5,D,ROLL*6E
$GPVTG,029.2,T,012.7,M,005.47,N,0010.13,K,A*1B
$DATA,IMU,0,3,3,0,EULER,9.8125,22.875,-2.5,ACC,0,0.2,0.15,GRAV,3.81,0.39,9.02*7F
$GPRMC,030012.7,A,4741.24532,N,12224.60206,W,005.51,029.1,020816,016.4,E,A*24
$IIRMB,A,0.00,L,M,X,4741.777000,N,12224.575000,W,0.5,2,4.90,V*03
$HCHDG,9.8,0.0,E,,*28
$GPGGA,030012.7,4741.24532,N,12224.60206,W,1,10,0.8,-1.2,M,-18.3,M,,*48
$YXXDR,A,5.5,D,PTCH,A,17.8,D,ROLL*63
$GPVTG,029.1,T,012.7,M,005.51,N,0010.20,K,A*1F
$GPRMC,030012.8,A,4741.24546,N,12224.60196,W,005.48,029.1,020816,016.4,E,A*2A
$IIRMB,A,0.00,L,M,X,4741.777000,N,12224.575000,W,0.5,2,4.88,V*0A
$DATA,IMU,0,3,3,0,EULER,9.9375,22.8125,-2.125,ACC,-0.06,-0.02,0.31,GRAV,3.8,0.33,9.03*6A
$GPGGA,030012.8,4741.24546,N,12224.60196,W,1,10,0.8,-1.2,M,-18.3,M,,*4E
$HCHDG,9.7,0.0,E,,*27
$IIMTW,+12.5,C*3E
$GPVTG,029.1,T,012.7,M,005.48,N,0010.14,K,A*10
$YXXDR,A,5.6,D,PTCH,A,18.0,D,ROLL*67
$IIMWV,344,R,20.1,N,A*13
$GPRMC,030012.9,A,4741.24558,N,12224.60185,W,004.91,029.1,020816,016.4,E,A*23
$IIRMB,A,0.00,L,M,X,4741.777000,N,12224.575000,W,0.5,2,4.37,V*0E
$DATA,IMU,0,3,3,0,EULER,10,22.75,-1.75,ACC,-0.2,0.09,0.07,GRAV,3.79,0.28,9.03*64
$HCHDG,10.1,0.0,E,,*19
$GPGGA,030012.9,4741.24558,N,12224.60185,W,1,10,0.8,-1.2,M,-18.3,M,,*42
$YXXDR,A,5.9,D,PTCH,A,18.3,D,ROLL*6B
$GPVTG,029.1,T,012.7,M,004.91,N,0009.10,K,A*19
$IIMWV,337,T,15.0,N,A*16
$GPRMC,030013.0,A,4741.24570,N,12224.60175,W,005.02,029.1,020816,016.4,E,A*25
