$HCHDG,274.2,0.0,E,,*2A
$YXXDR,A,5.8,D,PTCH,A,4.5,D,ROLL*51
$GPRMC,230000.0,A,4741.20143,N,12224.26454,W,000.14,080.1,070816,016.4,E,A*25
$IIRMB,A,0.00,R,Gh,X,4720.300000,N,12232.734000,W,21.7,195,-0.06,V*64
$GPGGA,230000.0,4741.20143,N,12224.26454,W,1,10,0.8,-3.6,M,-18.2,M,,*4C
$GPVTG,080.1,T,063.6,M,000.14,N,0000.26,K,A*18
$DATA,IMU,0,3,1,0,EULER,56.125,1.5625,-2.6875,ACC,-0.07,-0.01,-0.14,GRAV,0.27,0.46,9.79*74
$GPGSA,A,3,26,05,21,25,29,18,31,12,20,02,,,1.4,0.8,1.1*39
$HCHDG,274.3,0.0,E,,*2B
$YXXDR,A,5.8,D,PTCH,A,4.5,D,ROLL*51
$GPRMC,230000.1,A,4741.20143,N,12224.26454,W,000.15,080.1,070816,016.4,E,A*25
$IIRMB,A,0.00,R,Gh,X,4720.300000,N,12232.734000,W,21.7,195,-0.06,V*64
$GPGGA,230000.1,4741.20143,N,12224.26454,W,1,10,0.8,-3.6,M,-18.2,M,,*4D
$DATA,IMU,0,3,1,0,EULER,56.125,1.5625,-2.6875,ACC,-0.03,0,-0.05,GRAV,0.27,0.46,9.79*72
$GPVTG,080.1,T,063.6,M,000.15,N,0000.27,K,A*18
$GPGSV,3,1,10,26,24,314,42,05,50,071,31,21,41,258,41,25,35,195,29*77
$GPGSV,3,2,10,29,84,071,41,18,09,203,32,31,08,272,31,12,09,169,36*73
$HCHDG,274.2,0.0,E,,*2A
$GPGSV,3,3,10,20,54,170,39,02,18,070,33*7B
$YXXDR,A,5.8,D,PTCH,A,4.5,D,ROLL*51
$GPRMC,230000.2,A,4741.20143,N,12224.26454,W,000.13,080.1,070816,016.4,E,A*20
$IIRMB,A,0.00,R,Gh,X,4720.300000,N,12232.734000,W,21.7,195,-0.06,V*64
$DATA,IMU,0,3,1,0,EULER,56.125,1.5625,-2.6875,ACC,-0.05,-0.01,-0.03,GRAV,0.27,0.46,9.79*70
$GPGGA,230000.2,4741.20143,N,12224.26454,W,1,10,0.8,-3.6,M,-18.2,M,,*4E
$GPVTG,080.1,T,063.6,M,000.13,N,0000.24,K,A*1D
$PGRMT,GPS19x-HVS Software Version 2.20,,,,,,,,*6F
$HCHDG,274.3,0.0,E,,*2B
$YXXDR,A,5.8,D,PTCH,A,4.5,D,ROLL*51
$TIROT,4.4,A*3B
$GPRMC,230000.3,A,4741.20143,N,12224.26454,W,000.13,080.1,070816,016.4,E,A*21
$IIRMB,A,0.00,R,Gh,X,4720.300000,N,12232.734000,W,21.7,195,-0.06,V*64
$DATA,env,P,968.9453125,T,24.6*7F
$GPGGA,230000.3,4741.20143,N,12224.26454,W,1,10,0.8,-3.6,M,-18.2,M,,*4F
$GPVTG,080.1,T,063.6,M,000.13,N,0000.23,K,A*1A
$DATA,IMU,0,3,1,0,EULER,56.125,1.5625,-2.6875,ACC,-0.05,0,-0.05,GRAV,0.27,0.46,9.79*74
$HCHDG,274.3,0.0,E,,*2B
$YXXDR,A,5.8,D,PTCH,A,4.5,D,ROLL*51
$GPRMC,230000.4,A,4741.20143,N,12224.26454,W,000.12,080.1,070816,016.4,E,A*27
$IIRMB,A,0.00,R,Gh,X,4720.300000,N,12232.734000,W,21.7,195,-0.05,V*67
$GPGGA,230000.4,4741.20143,N,12224.26454,W,1,10,0.8,-3.6,M,-18.2,M,,*48
$DATA,IMU,0,3,1,0,EULER,56.125,1.5625,-2.6875,ACC,-0.04,-0.01,-0.13,GRAV,0.27,0.46,9.79*70
$GPVTG,080.1,T,063.6,M,000.12,N,0000.22,K,A*1A
$HCHDG,274.3,0.0,E,,*2B
$YXXDR,A,5.8,D,PTCH,A,4.5,D,ROLL*51
$GPRMC,230000.5,A,4741.20143,N,12224.26454,W,000.12,080.1,070816,016.4,E,A*26
$IIRMB,A,0.00,R,Gh,X,4720.300000,N,12232.734000,W,21.7,195,-0.05,V*67
$GPGGA,230000.5,4741.20143,N,12224.26454,W,1,10,0.8,-3.6,M,-18.2,M,,*49
$DATA,IMU,0,3,1,0,EULER,56.125,1.5625,-2.6875,ACC,-0.02,-0.01,-0.12,GRAV,0.27,0.46,9.79*77
$GPVTG,080.1,T,063.6,M,000.12,N,0000.22,K,A*1A
$HCHDG,274.3,0.0,E,,*2B
$YXXDR,A,5.8,D,PTCH,A,4.4,D,ROLL*50
$GPRMC,230000.6,A,4741.20143,N,12224.26454,W,000.11,080.1,070816,016.4,E,A*26
$IIRMB,A,0.00,R,Gh,X,4720.300000,N,12232.734000,W,21.7,195,-0.05,V*67
$GPGGA,230000.6,4741.20143,N,12224.26454,W,1,10,0.8,-3.6,M,-18.2,M,,*4A
$DATA,IMU,0,3,1,0,EULER,56.125,1.5625,-2.6875,ACC,-0.02,0,-0.12,GRAV,0.27,0.46,9.79*75
$GPVTG,080.1,T,063.6,M,000.11,N,0000.21,K,A*1A
$HCHDG,274.3,0.0,E,,*2B
$YXXDR,A,5.8,D,PTCH,A,4.4,D,ROLL*50
$GPRMC,230000.7,A,4741.20143,N,12224.26454,W,000.10,080.1,070816,016.4,E,A*26
$IIRMB,A,0.00,R,Gh,X,4720.300000,N,12232.734000,W,21.7,195,-0.04,V*66
$GPGGA,230000.7,4741.20143,N,12224.26454,W,1,10,0.8,-3.6,M,-18.2,M,,*4B
$GPVTG,080.1,T,063.6,M,000.10,N,0000.19,K,A*10
$DATA,IMU,0,3,1,0,EULER,56.125,1.5625,-2.6875,ACC,-0.01,0,-0.14,GRAV,0.27,0.46,9.79*70
$HCHDG,274.4,0.0,E,,*2C
$YXXDR,A,5.8,D,PTCH,A,4.4,D,ROLL*50
$GPRMC,230000.8,A,4741.20143,N,12224.26458,W,000.10,080.1,070816,016.4,E,A*25
$IIRMB,A,0.00,R,Gh,X,4720.300000,N,12232.734000,W,21.7,195,-0.04,V*66
$GPGGA,230000.8,4741.20143,N,12224.26458,W,1,10,0.8,-3.6,M,-18.2,M,,*48
$GPVTG,080.1,T,063.6,M,000.10,N,0000.19,K,A*10
$DATA,IMU,0,3,1,0,EULER,56.125,1.5625,-2.6875,ACC,0,0.01,-0.09,GRAV,0.27,0.46,9.79*51
$HCHDG,274.4,0.0,E,,*2C
$YXXDR,A,5.8,D,PTCH,A,4.4,D,ROLL*50
$GPRMC,230000.9,A,4741.20143,N,12224.26458,W,000.09,080.1,070816,016.4,E,A*2C
$IIRMB,A,0.00,R,Gh,X,4720.300000,N,12232.734000,W,21.7,195,-0.04,V*66
$GPGGA,230000.9,4741.20143,N,12224.26458,W,1,10,0.8,-3.7,M,-18.2,M,,*48
$DATA,IMU,0,3,1,0,EULER,56.125,1.5625,-2.6875,ACC,0.03,0,-0.06,GRAV,0.27,0.46,9.79*5C
$GPVTG,080.1,T,063.6,M,000.09,N,0000.17,K,A*16
$HCHDG,274.4,0.0,E,,*2C
$YXXDR,A,5.8,D,PTCH,A,4.5,D,ROLL*51
$GPRMC,230001.0,A,4741.20143,N,12224.26458,W,000.09,080.1,070816,016.4,E,A*24
$IIRMB,A,0.00,R,Gh,X,4720.300000,N,12232.734000,W,21.7,195,-0.04,V*66
$GPGGA,230001.0,4741.20143,N,12224.26458,W,1,10,0.8,-3.7,M,-18.2,M,,*40
$GPVTG,080.1,T,063.6,M,000.09,N,0000.16,K,A*17
$DATA,IMU,0,3,1,0,EULER,56.125,1.5625,-2.6875,ACC,0.02,0,-0.1,GRAV,0.27,0.46,9.79*6A
$GPGSA,A,3,26,05,21,25,29,18,31,12,20,02,,,1.4,0.8,1.1*39
$HCHDG,274.4,0.0,E,,*2C
$YXXDR,A,5.8,D,PTCH,A,4.5,D,ROLL*51
$GPRMC,230001.1,A,4741.20143,N,12224.26458,W,000.10,080.1,070816,016.4,E,A*2D
$IIRMB,A,0.00,R,Gh,X,4720.300000,N,12232.734000,W,21.7,195,-0.04,V*66
$GPGGA,230001.1,4741.20143,N,12224.26458,W,1,10,0.8,-3.7,M,-18.2,M,,*41
$GPVTG,080.1,T,063.6,M,000.10,N,0000.18,K,A*11
$DATA,IMU,0,3,1,0,EULER,56.125,1.5625,-2.6875,ACC,0,-0.02,-0.07,GRAV,0.27,0.46,9.79*71
$GPGSV,3,1,10,26,24,314,42,05,50,071,31,21,41,258,42,25,35,195,28*75
$HCHDG,274.5,0.0,E,,*2D
$GPGSV,3,2,10,29,84,071,40,18,09,203,33,31,08,272,30,12,09,169,36*72
$GPGSV,3,3,10,20,54,170,39,02,18,070,34*7C
$YXXDR,A,5.8,D,PTCH,A,4.5,D,ROLL*51
$GPRMC,230001.2,A,4741.20143,N,12224.26458,W,000.10,080.1,070816,016.4,E,A*2E
$IIRMB,A,0.00,R,Gh,X,4720.300000,N,12232.734000,W,21.7,195,-0.04,V*66
$GPGGA,230001.2,4741.20143,N,12224.26458,W,1,10,0.8,-3.7,M,-18.2,M,,*42
$GPVTG,080.1,T,063.6,M,000.10,N,0000.19,K,A*10
$DATA,IMU,0,3,1,0,EULER,56.125,1.5625,-2.6875,ACC,0.01,0,-0.08,GRAV,0.27,0.46,9.79*50
$HCHDG,274.5,0.0,E,,*2D
$YXXDR,A,5.8,D,PTCH,A,4.6,D,ROLL*52
$TIROT,13.2,A*0B
$GPRMC,230001.3,A,4741.20143,N,12224.26458,W,000.11,080.1,070816,016.4,E,A*2E
$IIRMB,A,0.00,R,Gh,X,4720.300000,N,12232.734000,W,21.7,195,-0.05,V*67
$DATA,env,P,968.8515625,T,24.6*7A
$GPGGA,230001.3,4741.20143,N,12224.26458,W,1,10,0.8,-3.7,M,-18.2,M,,*43
$GPVTG,080.1,T,063.6,M,000.11,N,0000.20,K,A*1B
$DATA,IMU,0,3,1,0,EULER,56.125,1.5625,-2.6875,ACC,0,-0.01,-0.08,GRAV,0.27,0.46,9.79*7D
$HCHDG,274.5,0.0,E,,*2D
$YXXDR,A,5.7,D,PTCH,A,4.8,D,ROLL*53
$GPRMC,230001.4,A,4741.20143,N,12224.26458,W,000.11,080.1,070816,016.4,E,A*29
$IIRMB,A,0.00,R,Gh,X,4720.300000,N,12232.734000,W,21.7,195,-0.05,V*67
$GPGGA,230001.4,4741.20143,N,12224.26458,W,1,10,0.8,-3.7,M,-18.2,M,,*44
$GPVTG,080.1,T,063.6,M,000.11,N,0000.20,K,A*1B
$DATA,IMU,0,3,1,0,EULER,56.125,1.5625,-2.6875,ACC,0,0.01,-0.08,GRAV,0.27,0.46,9.79*50
$HCHDG,274.5,0.0,E,,*2D
$YXXDR,A,5.7,D,PTCH,A,4.8,D,ROLL*53
$GPRMC,230001.5,A,4741.20143,N,12224.26458,W,000.09,080.1,070816,016.4,E,A*21
$IIRMB,A,0.00,R,Gh,X,4720.300000,N,12232.734000,W,21.7,195,-0.04,V*66
$GPGGA,230001.5,4741.20143,N,12224.26458,W,1,10,0.8,-3.7,M,-18.2,M,,*45
$GPVTG,080.1,T,063.6,M,000.09,N,0000.17,K,A*16
$DATA,IMU,0,3,1,0,EULER,56.125,1.5625,-2.6875,ACC,-0.04,-0.01,-0.09,GRAV,0.27,0.46,9.79*7B
$HCHDG,274.5,0.0,E,,*2D
$YXXDR,A,5.8,D,PTCH,A,4.8,D,ROLL*5C
$GPRMC,230001.6,A,4741.20143,N,12224.26458,W,000.10,080.1,070816,016.4,E,A*2A
$IIRMB,A,0.00,R,Gh,X,4720.300000,N,12232.734000,W,21.7,195,-0.04,V*66
$GPGGA,230001.6,4741.20143,N,12224.26458,W,1,10,0.8,-3.7,M,-18.2,M,,*46
$GPVTG,080.1,T,063.6,M,000.10,N,0000.18,K,A*11
$DATA,IMU,0,3,1,0,EULER,56.125,1.5625,-2.6875,ACC,0,0,-0.06,GRAV,0.27,0.46,9.79*71
$HCHDG,274.5,0.0,E,,*2D
$YXXDR,A,5.8,D,PTCH,A,4.8,D,ROLL*5C
$GPRMC,230001.7,A,4741.20143,N,12224.26458,W,000.10,080.1,070816,016.4,E,A*2B
$IIRMB,A,0.00,R,Gh,X,4720.300000,N,12232.734000,W,21.7,195,-0.04,V*66
$GPGGA,230001.7,4741.20143,N,12224.26458,W,1,10,0.8,-3.7,M,-18.2,M,,*47
$GPVTG,080.1,T,063.6,M,000.10,N,0000.18,K,A*11
$DATA,IMU,0,3,1,0,EULER,56.125,1.5625,-2.6875,ACC,-0.02,-0.04,-0.06,GRAV,0.27,0.46,9.79*77
$HCHDG,274.5,0.0,E,,*2D
$YXXDR,A,5.7,D,PTCH,A,4.8,D,ROLL*53
$GPRMC,230001.8,A,4741.20144,N,12224.26461,W,000.09,080.1,070816,016.4,E,A*21
$IIRMB,A,0.00,R,Gh,X,4720.300000,N,12232.734000,W,21.7,195,-0.04,V*66
$GPGGA,230001.8,4741.20144,N,12224.26461,W,1,10,0.8,-3.7,M,-18.2,M,,*45
$GPVTG,080.1,T,063.6,M,000.09,N,0000.16,K,A*17
$HCHDG,274.5,0.0,E,,*2D
$DATA,IMU,0,3,1,0,EULER,56.125,1.5625,-2.6875,ACC,-0.03,-0.01,-0.12,GRAV,0.27,0.46,9.79*76
$YXXDR,A,5.8,D,PTCH,A,4.8,D,ROLL*5C
$GPRMC,230001.9,A,4741.20144,N,12224.26461,W,000.08,080.1,070816,016.4,E,A*21
$IIRMB,A,0.00,R,Gh,X,4720.300000,N,12232.734000,W,21.7,195,-0.03,V*61
$GPGGA,230001.9,4741.20144,N,12224.26461,W,1,10,0.8,-3.7,M,-18.2,M,,*44
$GPVTG,080.1,T,063.6,M,000.08,N,0000.15,K,A*15
$HCHDG,274.4,0.0,E,,*2C
$DATA,IMU,0,3,1,0,EULER,56.125,1.5625,-2.6875,ACC,-0.02,-0.03,-0.08,GRAV,0.27,0.46,9.79*7E
$YXXDR,A,5.8,D,PTCH,A,4.8,D,ROLL*5C
$GPRMC,230002.0,A,4741.20144,N,12224.26461,W,000.08,080.1,070816,016.4,E,A*2B
$IIRMB,A,0.00,R,Gh,X,4720.300000,N,12232.734000,W,21.7,195,-0.03,V*61
$GPGGA,230002.0,4741.20144,N,12224.26461,W,1,10,0.8,-3.7,M,-18.2,M,,*4E
$GPVTG,080.1,T,063.6,M,000.08,N,0000.15,K,A*15
$GPGSA,A,3,26,05,21,25,29,18,31,12,20,02,,,1.4,0.8,1.1*39
$HCHDG,274.5,0.0,E,,*2D
$DATA,IMU,0,3,1,0,EULER,56.125,1.5625,-2.6875,ACC,-0.04,0,-0.12,GRAV,0.27,0.46,9.79*73
$YXXDR,A,5.8,D,PTCH,A,4.8,D,ROLL*5C
$GPRMC,230002.1,A,4741.20144,N,12224.26461,W,000.08,080.1,070816,016.4,E,A*2A
$IIRMB,A,0.00,R,Gh,X,4720.300000,N,12232.734000,W,21.7,195,-0.03,V*61
$GPGGA,230002.1,4741.20144,N,12224.26461,W,1,10,0.8,-3.7,M,-18.2,M,,*4F
$GPVTG,080.1,T,063.6,M,000.08,N,0000.15,K,A*15
$GPGSV,3,1,10,26,24,314,42,05,50,071,29,21,41,258,42,25,35,195,27*73
$HCHDG,274.5,0.0,E,,*2D
$GPGSV,3,2,10,29,84,071,40,18,09,203,34,31,08,272,30,12,09,169,36*75
$YXXDR,A,5.8,D,PTCH,A,4.7,D,ROLL*53
$DATA,IMU,0,3,1,0,EULER,56.125,1.5625,-2.6875,ACC,-0.07,-0.01,-0.11,GRAV,0.27,0.46,9.79*71
$GPGSV,3,3,10,20,54,170,39,02,18,070,35*7D
$GPRMC,230002.2,A,4741.20144,N,12224.26461,W,000.08,080.1,070816,016.4,E,A*29
$IIRMB,A,0.00,R,Gh,X,4720.300000,N,12232.734000,W,21.7,195,-0.03,V*61
$GPGGA,230002.2,4741.20144,N,12224.26461,W,1,10,0.8,-3.7,M,-18.2,M,,*4C
$GPVTG,080.1,T,063.6,M,000.08,N,0000.15,K,A*15
$HCHDG,274.5,0.0,E,,*2D
$DATA,IMU,0,3,1,0,EULER,56.125,1.5625,-2.6875,ACC,-0.06,-0.02,-0.2,GRAV,0.27,0.46,9.79*41
$YXXDR,A,5.8,D,PTCH,A,4.7,D,ROLL*53
$TIROT,14.5,A*0B
$GPRMC,230002.3,A,4741.20144,N,12224.26461,W,000.10,080.1,070816,016.4,E,A*21
$IIRMB,A,0.00,R,Gh,X,4720.300000,N,12232.734000,W,21.7,195,-0.04,V*66
$DATA,env,P,967.83984375,T,24.6*42
$GPGGA,230002.3,4741.20144,N,12224.26461,W,1,10,0.8,-3.7,M,-18.2,M,,*4D
$GPVTG,080.1,T,063.6,M,000.10,N,0000.19,K,A*10
$HCHDG,274.5,0.0,E,,*2D
$DATA,IMU,0,3,1,0,EULER,56.125,1.5625,-2.6875,ACC,-0.09,-0.04,-0.18,GRAV,0.27,0.46,9.79*73
$YXXDR,A,5.8,D,PTCH,A,4.7,D,ROLL*53
$GPRMC,230002.4,A,4741.20144,N,12224.26461,W,000.10,080.1,070816,016.4,E,A*26
$IIRMB,A,0.00,R,Gh,X,4720.300000,N,12232.734000,W,21.7,195,-0.04,V*66
$GPGGA,230002.4,4741.20144,N,12224.26461,W,1,10,0.8,-3.7,M,-18.2,M,,*4A
$GPVTG,080.1,T,063.6,M,000.10,N,0000.19,K,A*10
$HCHDG,274.6,0.0,E,,*2E
$DATA,IMU,0,3,1,0,EULER,56.125,1.5625,-2.6875,ACC,-0.06,0,-0.18,GRAV,0.27,0.46,9.79*7B
$YXXDR,A,5.8,D,PTCH,A,4.5,D,ROLL*51
$GPRMC,230002.5,A,4741.20144,N,12224.26461,W,000.12,080.1,070816,016.4,E,A*25
$IIRMB,A,0.00,R,Gh,X,4720.300000,N,12232.734000,W,21.7,195,-0.05,V*67
$GPGGA,230002.5,4741.20144,N,12224.26461,W,1,10,0.8,-3.7,M,-18.2,M,,*4B
$GPVTG,080.1,T,063.6,M,000.12,N,0000.23,K,A*1B
$HCHDG,274.6,0.0,E,,*2E
$YXXDR,A,5.8,D,PTCH,A,4.5,D,ROLL*51
$DATA,IMU,0,3,1,0,EULER,56.125,1.5625,-2.6875,ACC,-0.06,-0.02,-0.15,GRAV,0.27,0.46,9.79*77
$GPRMC,230002.6,A,4741.20144,N,12224.26461,W,000.13,080.1,070816,016.4,E,A*27
$IIRMB,A,0.00,R,Gh,X,4720.300000,N,12232.734000,W,21.7,195,-0.06,V*64
$GPGGA,230002.6,4741.20144,N,12224.26461,W,1,10,0.8,-3.7,M,-18.2,M,,*48
$GPVTG,080.1,T,063.6,M,000.13,N,0000.23,K,A*1A
$HCHDG,274.5,0.0,E,,*2D
$YXXDR,A,5.8,D,PTCH,A,4.5,D,ROLL*51
$DATA,IMU,0,3,1,0,EULER,56.125,1.5625,-2.6875,ACC,-0.07,0,-0.16,GRAV,0.27,0.46,9.79*74
$GPRMC,230002.7,A,4741.20144,N,12224.26461,W,000.12,080.1,070816,016.4,E,A*27
$IIRMB,A,0.00,R,Gh,X,4720.300000,N,12232.734000,W,21.7,195,-0.05,V*67
$GPGGA,230002.7,4741.20144,N,12224.26461,W,1,10,0.8,-3.7,M,-18.2,M,,*49
$GPVTG,080.1,T,063.6,M,000.12,N,0000.22,K,A*1A
$HCHDG,274.6,0.0,E,,*2E
$YXXDR,A,5.8,D,PTCH,A,4.5,D,ROLL*51
$DATA,IMU,0,3,1,0,EULER,56.125,1.5625,-2.6875,ACC,-0.08,0,-0.09,GRAV,0.27,0.46,9.79*75
$GPRMC,230002.8,A,4741.20146,N,12224.26463,W,000.11,080.1,070816,016.4,E,A*2B
$IIRMB,A,0.00,R,Gh,X,4720.300000,N,12232.734000,W,21.7,195,-0.05,V*67
$GPGGA,230002.8,4741.20146,N,12224.26463,W,1,10,0.8,-3.7,M,-18.2,M,,*46
$GPVTG,080.1,T,063.6,M,000.11,N,0000.21,K,A*1A
$HCHDG,274.6,0.0,E,,*2E
$YXXDR,A,5.8,D,PTCH,A,4.5,D,ROLL*51
$DATA,IMU,0,3,1,0,EULER,56.125,1.5625,-2.6875,ACC,-0.07,0,-0.09,GRAV,0.27,0.46,9.79*7A
$GPRMC,230002.9,A,4741.20146,N,12224.26463,W,000.14,080.1,070816,016.4,E,A*2F
$IIRMB,A,0.00,R,Gh,X,4720.300000,N,12232.734000,W,21.7,195,-0.06,V*64
$GPGGA,230002.9,4741.20146,N,12224.26463,W,1,10,0.8,-3.7,M,-18.2,M,,*47
$GPVTG,080.1,T,063.6,M,000.14,N,0000.26,K,A*18
$HCHDG,274.6,0.0,E,,*2E
$YXXDR,A,5.8,D,PTCH,A,4.3,D,ROLL*57
$DATA,IMU,0,3,1,0,EULER,56.125,1.5625,-2.6875,ACC,-0.05,0,-0.1,GRAV,0.27,0.46,9.79*40
$GPRMC,230003.0,A,4741.20146,N,12224.26463,W,000.13,080.1,070816,016.4,E,A*20
$IIRMB,A,0.00,R,Gh,X,4720.300000,N,12232.734000,W,21.7,195,-0.06,V*64
$GPGGA,230003.0,4741.20146,N,12224.26463,W,1,10,0.8,-3.7,M,-18.2,M,,*4F
$GPVTG,080.1,T,063.6,M,000.13,N,0000.25,K,A*1C
$GPGSA,A,3,26,05,21,25,29,18,31,12,20,02,,,1.4,0.8,1.1*39
$HCHDG,274.8,0.0,E,,*20
$YXXDR,A,5.8,D,PTCH,A,4.3,D,ROLL*57
$DATA,IMU,0,3,1,0,EULER,56.125,1.5625,-2.6875,ACC,-0.08,0.01,-0.09,GRAV,0.27,0.46,9.79*5A
$GPRMC,230003.1,A,4741.20146,N,12224.26463,W,000.13,080.1,070816,016.4,E,A*21
$IIRMB,A,0.00,R,Gh,X,4720.300000,N,12232.734000,W,21.7,195,-0.06,V*64
$GPGGA,230003.1,4741.20146,N,12224.26463,W,1,10,0.8,-3.7,M,-18.2,M,,*4E
$GPVTG,080.1,T,063.6,M,000.13,N,0000.23,K,A*1A
$GPGSV,3,1,10,26,24,314,42,05,50,071,28,21,41,258,43,25,35,195,23*77
$HCHDG,274.7,0.0,E,,*2F
$GPGSV,3,2,10,29,84,075,40,18,09,203,35,31,08,272,30,12,09,169,35*73
$YXXDR,A,5.8,D,PTCH,A,4.3,D,ROLL*57
$GPGSV,3,3,10,20,54,170,39,02,18,070,36*7E
$DATA,IMU,0,3,1,0,EULER,56.125,1.5625,-2.6875,ACC,-0.1,0.01,-0.06,GRAV,0.27,0.46,9.79*6C
$GPRMC,230003.2,A,4741.20146,N,12224.26463,W,000.14,080.1,070816,016.4,E,A*25
$IIRMB,A,0.00,R,Gh,X,4720.300000,N,12232.734000,W,21.7,195,-0.06,V*64
$GPGGA,230003.2,4741.20146,N,12224.26463,W,1,10,0.8,-3.7,M,-18.2,M,,*4D
$GPVTG,080.1,T,063.6,M,000.14,N,0000.26,K,A*18
$HCHDG,274.8,0.0,E,,*20
$YXXDR,A,5.8,D,PTCH,A,4.3,D,ROLL*57
$TIROT,16.1,A*0D
$DATA,IMU,0,3,1,0,EULER,56.125,1.5625,-2.6875,ACC,-0.07,-0.01,-0.05,GRAV,0.27,0.46,9.79*74
$GPRMC,230003.3,A,4741.20146,N,12224.26463,W,000.15,080.1,070816,016.4,E,A*25
$IIRMB,A,0.00,R,Gh,X,4720.300000,N,12232.734000,W,21.7,195,-0.06,V*64
$DATA,env,P,968.5859375,T,24.59*48
$GPGGA,230003.3,4741.20146,N,12224.26463,W,1,10,0.8,-3.7,M,-18.2,M,,*4C
$GPVTG,080.1,T,063.6,M,000.15,N,0000.27,K,A*18
$HCHDG,274.8,0.0,E,,*20
$YXXDR,A,5.7,D,PTCH,A,4.2,D,ROLL*59
$DATA,IMU,0,3,1,0,EULER,56.125,1.5625,-2.6875,ACC,-0.06,0,-0.04,GRAV,0.27,0.46,9.79*76
$GPRMC,230003.4,A,4741.20146,N,12224.26463,W,000.14,080.1,070816,016.4,E,A*23
$IIRMB,A,0.00,R,Gh,X,4720.300000,N,12232.734000,W,21.7,195,-0.06,V*64
$GPGGA,230003.4,4741.20146,N,12224.26463,W,1,10,0.8,-3.7,M,-18.2,M,,*4B
$GPVTG,080.1,T,063.6,M,000.14,N,0000.27,K,A*19
$HCHDG,274.7,0.0,E,,*2F
$YXXDR,A,5.7,D,PTCH,A,4.2,D,ROLL*59
$DATA,IMU,0,3,1,0,EULER,56.125,1.5625,-2.6875,ACC,-0.06,0.01,-0.06,GRAV,0.27,0.46,9.79*5B
$GPRMC,230003.5,A,4741.20146,N,12224.26463,W,000.15,080.1,070816,016.4,E,A*23
$IIRMB,A,0.00,R,Gh,X,4720.300000,N,12232.734000,W,21.7,195,-0.06,V*64
$GPGGA,230003.5,4741.20146,N,12224.26463,W,1,10,0.8,-3.7,M,-18.2,M,,*4A
$GPVTG,080.1,T,063.6,M,000.15,N,0000.28,K,A*17
$HCHDG,274.8,0.0,E,,*20
$YXXDR,A,5.7,D,PTCH,A,4.2,D,ROLL*59
$DATA,IMU,0,3,1,0,EULER,56.125,1.5625,-2.6875,ACC,-0.04,0,-0.02,GRAV,0.27,0.46,9.79*72
$GPRMC,230003.6,A,4741.20146,N,12224.26463,W,000.14,080.1,070816,016.4,E,A*21
$IIRMB,A,0.00,R,Gh,X,4720.300000,N,12232.734000,W,21.7,195,-0.06,V*64
$GPGGA,230003.6,4741.20146,N,12224.26463,W,1,10,0.8,-3.7,M,-18.2,M,,*49
$GPVTG,080.1,T,063.6,M,000.14,N,0000.27,K,A*19
$HCHDG,275.0,0.0,E,,*29
$YXXDR,A,5.8,D,PTCH,A,4.3,D,ROLL*57
$DATA,IMU,0,3,1,0,EULER,56.125,1.5625,-2.6875,ACC,-0.05,0.01,-0.05,GRAV,0.27,0.46,9.79*5B
$GPRMC,230003.7,A,4741.20146,N,12224.26463,W,000.15,080.1,070816,016.4,E,A*21
$IIRMB,A,0.00,R,Gh,X,4720.300000,N,12232.734000,W,21.7,195,-0.06,V*64
$GPGGA,230003.7,4741.20146,N,12224.26463,W,1,10,0.8,-3.7,M,-18.2,M,,*48
$GPVTG,080.1,T,063.6,M,000.15,N,0000.28,K,A*17
$HCHDG,275.0,0.0,E,,*29
$YXXDR,A,5.8,D,PTCH,A,4.3,D,ROLL*57
$GPRMC,230003.8,A,4741.20146,N,12224.26462,W,000.13,080.1,070816,016.4,E,A*29
$IIRMB,A,0.00,R,Gh,X,4720.300000,N,12232.734000,W,21.7,195,-0.06,V*64
$DATA,IMU,0,3,1,0,EULER,56.125,1.5625,-2.6875,ACC,-0.03,0,0,GRAV,0.27,0.46,9.79*74
$GPGGA,230003.8,4741.20146,N,12224.26462,W,1,10,0.8,-3.7,M,-18.2,M,,*46
$GPVTG,080.1,T,063.6,M,000.13,N,0000.24,K,A*1D
$HCHDG,275.0,0.0,E,,*29
$YXXDR,A,5.8,D,PTCH,A,4.3,D,ROLL*57
$DATA,IMU,0,3,1,0,EULER,56.125,1.5625,-2.6875,ACC,-0.01,-0.01,-0.12,GRAV,0.27,0.46,9.79*74
$GPRMC,230003.9,A,4741.20146,N,12224.26462,W,000.13,080.1,070816,016.4,E,A*28
$IIRMB,A,0.00,R,Gh,X,4720.300000,N,12232.734000,W,21.7,195,-0.06,V*64
$GPGGA,230003.9,4741.20146,N,12224.26462,W,1,10,0.8,-3.7,M,-18.2,M,,*47
$GPVTG,080.1,T,063.6,M,000.13,N,0000.24,K,A*1D
$HCHDG,275.1,0.0,E,,*28
$YXXDR,A,5.8,D,PTCH,A,4.3,D,ROLL*57
$DATA,IMU,0,3,1,0,EULER,56.125,1.5625,-2.6875,ACC,-0.01,-0.02,-0.12,GRAV,0.27,0.46,9.79*77
$GPRMC,230004.0,A,4741.20146,N,12224.26462,W,000.14,080.1,070816,016.4,E,A*21
$IIRMB,A,0.00,R,Gh,X,4720.300000,N,12232.734000,W,21.7,195,-0.06,V*64
$GPGGA,230004.0,4741.20146,N,12224.26462,W,1,10,0.8,-3.7,M,-18.2,M,,*49
$GPVTG,080.1,T,063.6,M,000.14,N,0000.27,K,A*19
$HCHDG,275.0,0.0,E,,*29
$GPGSA,A,3,26,05,21,25,29,18,31,12,20,02,,,1.4,0.8,1.1*39
$YXXDR,A,5.8,D,PTCH,A,4.3,D,ROLL*57
$GPRMC,230004.1,A,4741.20146,N,12224.26462,W,000.13,080.1,070816,016.4,E,A*27
$IIRMB,A,0.00,R,Gh,X,4720.300000,N,12232.734000,W,21.7,195,-0.06,V*64
$DATA,IMU,0,3,1,0,EULER,56.125,1.5625,-2.6875,ACC,0.01,-0.03,-0.11,GRAV,0.27,0.46,9.79*58
$GPGGA,230004.1,4741.20146,N,12224.26462,W,1,10,0.8,-3.7,M,-18.2,M,,*48
$GPVTG,080.1,T,063.6,M,000.13,N,0000.24,K,A*1D
$HCHDG,275.1,0.0,E,,*28
$GPGSV,3,1,10,26,24,314,41,05,50,071,28,21,41,258,43,25,35,195,30*76
$YXXDR,A,5.8,D,PTCH,A,4.3,D,ROLL*57
$GPGSV,3,2,10,29,84,075,40,18,09,203,36,31,08,272,23,12,09,169,35*72
$GPGSV,3,3,10,20,54,170,39,02,18,070,36*7E
$GPRMC,230004.2,A,4741.20146,N,12224.26462,W,000.12,080.1,070816,016.4,E,A*25
$IIRMB,A,0.00,R,Gh,X,4720.300000,N,12232.734000,W,21.7,195,-0.05,V*67
$GPGGA,230004.2,4741.20146,N,12224.26462,W,1,10,0.8,-3.7,M,-18.2,M,,*4B
$GPVTG,080.1,T,063.6,M,000.12,N,0000.22,K,A*1A
$HCHDG,275.1,0.0,E,,*28
$YXXDR,A,5.8,D,PTCH,A,4.4,D,ROLL*50
$TIROT,1.4,A*3E
$DATA,IMU,0,3,1,0,EULER,56.125,1.5625,-2.6875,ACC,0.05,-0.03,-0.05,GRAV,0.27,0.46,9.79*59
$GPRMC,230004.3,A,4741.20146,N,12224.26462,W,000.12,080.1,070816,016.4,E,A*24
$IIRMB,A,0.00,R,Gh,X,4720.300000,N,12232.734000,W,21.7,195,-0.05,V*67
$DATA,env,P,968.9453125,T,24.6*7F
$GPGGA,230004.3,4741.20146,N,12224.26462,W,1,10,0.8,-3.7,M,-18.2,M,,*4A
$GPVTG,080.1,T,063.6,M,000.12,N,0000.23,K,A*1B
$HCHDG,275.1,0.0,E,,*28
$DATA,IMU,0,3,1,0,EULER,56.125,1.5625,-2.6875,ACC,0.04,-0.02,-0.13,GRAV,0.27,0.46,9.79*5E
$YXXDR,A,5.8,D,PTCH,A,4.4,D,ROLL*50
$GPRMC,230004.4,A,4741.20146,N,12224.26462,W,000.11,080.1,070816,016.4,E,A*20
$IIRMB,A,0.00,R,Gh,X,4720.300000,N,12232.734000,W,21.7,195,-0.05,V*67
$GPGGA,230004.4,4741.20146,N,12224.26462,W,1,10,0.8,-3.7,M,-18.2,M,,*4D
$DATA,IMU,0,3,1,0,EULER,56.125,1.5625,-2.6875,ACC,-0.01,-0.04,-0.01,GRAV,0.27,0.46,9.79*73
$GPVTG,080.1,T,063.6,M,000.11,N,0000.20,K,A*1B
$HCHDG,275.1,0.0,E,,*28
$YXXDR,A,5.8,D,PTCH,A,4.5,D,ROLL*51
$GPRMC,230004.5,A,4741.20146,N,12224.26462,W,000.11,080.1,070816,016.4,E,A*21
$IIRMB,A,0.00,R,Gh,X,4720.300000,N,12232.734000,W,21.7,195,-0.05,V*67
$GPGGA,230004.5,4741.20146,N,12224.26462,W,1,10,0.8,-3.7,M,-18.2,M,,*4C
$GPVTG,080.1,T,063.6,M,000.11,N,0000.20,K,A*1B
$DATA,IMU,0,3,1,0,EULER,56.125,1.5,-2.6875,ACC,-0.06,-0.02,-0.01,GRAV,0.26,0.46,9.79*42
$HCHDG,275.2,0.0,E,,*2B
$YXXDR,A,5.8,D,PTCH,A,4.4,D,ROLL*50
$GPRMC,230004.6,A,4741.20146,N,12224.26462,W,000.13,080.1,070816,016.4,E,A*20
$IIRMB,A,0.00,R,Gh,X,4720.300000,N,12232.734000,W,21.7,195,-0.06,V*64
$GPGGA,230004.6,4741.20146,N,12224.26462,W,1,10,0.8,-3.7,M,-18.2,M,,*4F
$GPVTG,080.1,T,063.6,M,000.13,N,0000.24,K,A*1D
$DATA,IMU,0,3,1,0,EULER,56.125,1.4375,-2.6875,ACC,-0.09,-0.02,-0.03,GRAV,0.25,0.46,9.79*7C
$HCHDG,275.2,0.0,E,,*2B
$GPRMC,230004.7,A,4741.20146,N,12224.26462,W,000.15,080.1,070816,016.4,E,A*27
$IIRMB,A,0.00,R,Gh,X,4720.300000,N,12232.734000,W,21.7,195,-0.06,V*64
$YXXDR,A,5.8,D,PTCH,A,4.5,D,ROLL*51
$GPGGA,230004.7,4741.20146,N,12224.26462,W,1,10,0.8,-3.7,M,-18.2,M,,*4E
$GPVTG,080.1,T,063.6,M,000.15,N,0000.27,K,A*18
$HCHDG,275.1,0.0,E,,*28
$DATA,IMU,0,3,1,0,EULER,56.125,1.4375,-2.6875,ACC,-0.09,-0.01,-0.07,GRAV,0.24,0.46,9.79*7A
$GPRMC,230004.8,A,4741.20146,N,12224.26462,W,000.17,080.1,070816,016.4,E,A*2A
$IIRMB,A,0.00,R,Gh,X,4720.300000,N,12232.734000,W,21.7,195,-0.07,V*65
$YXXDR,A,5.8,D,PTCH,A,4.5,D,ROLL*51
$GPGGA,230004.8,4741.20146,N,12224.26462,W,1,10,0.8,-3.7,M,-18.2,M,,*41
$GPVTG,080.1,T,063.6,M,000.17,N,0000.31,K,A*1D
$HCHDG,275.1,0.0,E,,*28
$DATA,IMU,0,3,1,0,EULER,56.125,1.4375,-2.6875,ACC,-0.05,-0.01,-0.08,GRAV,0.24,0.46,9.79*79
$GPRMC,230004.9,A,4741.20147,N,12224.26462,W,000.17,080.1,070816,016.4,E,A*2A
$IIRMB,A,0.00,R,Gh,X,4720.300000,N,12232.734000,W,21.7,195,-0.07,V*65
$YXXDR,A,5.8,D,PTCH,A,4.5,D,ROLL*51
$GPGGA,230004.9,4741.20147,N,12224.26462,W,1,10,0.8,-3.7,M,-18.2,M,,*41
$GPVTG,080.1,T,063.6,M,000.17,N,0000.32,K,A*1E
$HCHDG,275.2,0.0,E,,*2B
$DATA,IMU,0,3,1,0,EULER,56.125,1.4375,-2.6875,ACC,-0.04,-0.03,-0.09,GRAV,0.24,0.46,9.79*7B
$GPRMC,230005.0,A,4741.20147,N,12224.26462,W,000.18,080.1,070816,016.4,E,A*2D
$IIRMB,A,0.00,R,Gh,X,4720.300000,N,12232.734000,W,21.7,195,-0.08,V*6A
$YXXDR,A,5.8,D,PTCH,A,4.5,D,ROLL*51
$GPGGA,230005.0,4741.20147,N,12224.26462,W,1,10,0.8,-3.7,M,-18.2,M,,*49
$GPVTG,080.1,T,063.6,M,000.18,N,0000.34,K,A*17
$GPGSA,A,3,26,05,21,25,29,18,31,12,20,02,,,1.4,0.8,1.1*39
$HCHDG,275.2,0.0,E,,*2B
$GPRMC,230005.1,A,4741.20147,N,12224.26462,W,000.19,080.1,070816,016.4,E,A*2D
$IIRMB,A,0.00,R,Gh,X,4720.300000,N,12232.734000,W,21.7,195,-0.08,V*6A
$DATA,IMU,0,3,1,0,EULER,56.125,1.4375,-2.6875,ACC,-0.05,-0.03,-0.17,GRAV,0.24,0.46,9.79*75
$YXXDR,A,5.8,D,PTCH,A,4.3,D,ROLL*57
$GPGGA,230005.1,4741.20147,N,12224.26462,W,1,10,0.8,-3.7,M,-18.2,M,,*48
$GPVTG,080.1,T,063.6,M,000.19,N,0000.34,K,A*16
$GPGSV,3,1,10,26,24,314,41,05,50,071,31,21,41,258,44,25,35,195,32*7B
$GPGSV,3,2,10,29,84,075,40,18,09,203,36,31,08,272,23,12,09,169,35*72
$GPGSV,3,3,10,20,54,170,39,02,18,070,36*7E
$HCHDG,275.2,0.0,E,,*2B
$DATA,IMU,0,3,1,0,EULER,56.125,1.4375,-2.6875,ACC,-0.06,-0.01,-0.16,GRAV,0.24,0.46,9.79*75
$YXXDR,A,5.9,D,PTCH,A,4.2,D,ROLL*57
$GPRMC,230005.2,A,4741.20147,N,12224.26462,W,000.17,080.1,070816,016.4,E,A*20
$IIRMB,A,0.00,R,Gh,X,4720.300000,N,12232.734000,W,21.7,195,-0.07,V*65
$GPGGA,230005.2,4741.20147,N,12224.26462,W,1,10,0.8,-3.7,M,-18.2,M,,*4B
$GPVTG,080.1,T,063.6,M,000.17,N,0000.32,K,A*1E
$HCHDG,275.2,0.0,E,,*2B
$GPRMC,230005.3,A,4741.20147,N,12224.26462,W,000.17,080.1,070816,016.4,E,A*21
$IIRMB,A,0.00,R,Gh,X,4720.300000,N,12232.734000,W,21.7,195,-0.07,V*65
$DATA,IMU,0,3,1,0,EULER,56.125,1.4375,-2.75,ACC,-0.05,-0.01,-0.16,GRAV,0.24,0.47,9.79*79
$YXXDR,A,5.9,D,PTCH,A,4.2,D,ROLL*57
$TIROT,20.8,A*01
$GPGGA,230005.3,4741.20147,N,12224.26462,W,1,10,0.8,-3.7,M,-18.2,M,,*4A
$GPVTG,080.1,T,063.6,M,000.17,N,0000.31,K,A*1D
$DATA,env,P,968.9453125,T,24.6*7F
$HCHDG,275.3,0.0,E,,*2A
$GPRMC,230005.4,A,4741.20147,N,12224.26462,W,000.21,080.1,070816,016.4,E,A*23
$IIRMB,A,0.00,R,Gh,X,4720.300000,N,12232.734000,W,21.7,195,-0.09,V*6B
$DATA,IMU,0,3,1,0,EULER,56.125,1.4375,-2.75,ACC,-0.05,0,-0.17,GRAV,0.24,0.47,9.79*7A
$YXXDR,A,5.9,D,PTCH,A,4.2,D,ROLL*57
$GPGGA,230005.4,4741.20147,N,12224.26462,W,1,10,0.8,-3.7,M,-18.2,M,,*4D
$GPVTG,080.1,T,063.6,M,000.21,N,0000.39,K,A*10
$HCHDG,275.3,0.0,E,,*2A
$GPRMC,230005.5,A,4741.20147,N,12224.26462,W,000.22,080.1,070816,016.4,E,A*21
$IIRMB,A,0.00,R,Gh,X,4720.300000,N,12232.734000,W,21.7,195,-0.09,V*6B
$YXXDR,A,5.9,D,PTCH,A,4.2,D,ROLL*57
$GPGGA,230005.5,4741.20147,N,12224.26462,W,1,10,0.8,-3.7,M,-18.2,M,,*4C
$DATA,IMU,0,3,1,0,EULER,56.125,1.4375,-2.75,ACC,-0.04,-0.02,-0.11,GRAV,0.24,0.47,9.79*7C
$GPVTG,080.1,T,063.6,M,000.22,N,0000.41,K,A*1C
$HCHDG,275.3,0.0,E,,*2A
$GPRMC,230005.6,A,4741.20147,N,12224.26462,W,000.19,079.9,070816,016.4,E,A*24
$IIRMB,A,0.00,R,Gh,X,4720.300000,N,12232.734000,W,21.7,195,-0.08,V*6A
$YXXDR,A,5.9,D,PTCH,A,4.2,D,ROLL*57
$GPGGA,230005.6,4741.20147,N,12224.26462,W,1,10,0.8,-3.7,M,-18.2,M,,*4F
$DATA,IMU,0,3,1,0,EULER,56.125,1.4375,-2.75,ACC,-0.06,0,-0.11,GRAV,0.25,0.47,9.79*7E
$GPVTG,079.9,T,063.4,M,000.19,N,0000.35,K,A*1B
$HCHDG,275.4,0.0,E,,*2D
$GPRMC,230005.7,A,4741.20147,N,12224.26462,W,000.18,079.9,070816,016.4,E,A*24
$IIRMB,A,0.00,R,Gh,X,4720.300000,N,12232.734000,W,21.7,195,-0.08,V*6A
$YXXDR,A,5.9,D,PTCH,A,4.3,D,ROLL*56
$GPGGA,230005.7,4741.20147,N,12224.26462,W,1,10,0.8,-3.7,M,-18.2,M,,*4E
$DATA,IMU,0,3,1,0,EULER,56.125,1.4375,-2.75,ACC,-0.07,0,-0.07,GRAV,0.25,0.47,9.79*78
$GPVTG,079.9,T,063.4,M,000.18,N,0000.34,K,A*1B
$HCHDG,275.3,0.0,E,,*2A
$GPRMC,230005.8,A,4741.20147,N,12224.26462,W,000.18,079.9,070816,016.4,E,A*2B
$IIRMB,A,0.00,R,Gh,X,4720.300000,N,12232.734000,W,21.7,195,-0.08,V*6A
$YXXDR,A,5.9,D,PTCH,A,4.3,D,ROLL*56
$GPGGA,230005.8,4741.20147,N,12224.26462,W,1,10,0.8,-3.7,M,-18.2,M,,*41
$DATA,IMU,0,3,1,0,EULER,56.125,1.4375,-2.75,ACC,-0.04,0,-0.08,GRAV,0.25,0.47,9.79*74
$GPVTG,079.9,T,063.4,M,000.18,N,0000.34,K,A*1B
$HCHDG,275.4,0.0,E,,*2D
$YXXDR,A,5.9,D,PTCH,A,4.3,D,ROLL*56
$GPRMC,230005.9,A,4741.20147,N,12224.26461,W,000.19,079.9,070816,016.4,E,A*28
$IIRMB,A,0.00,R,Gh,X,4720.300000,N,12232.734000,W,21.7,195,-0.08,V*6A
$GPGGA,230005.9,4741.20147,N,12224.26461,W,1,10,0.8,-3.7,M,-18.2,M,,*43
$DATA,IMU,0,3,1,0,EULER,56.125,1.4375,-2.75,ACC,-0.08,0,-0.06,GRAV,0.25,0.47,9.79*76
$GPVTG,079.9,T,063.4,M,000.19,N,0000.35,K,A*1B
$HCHDG,275.5,0.0,E,,*2C
$YXXDR,A,5.8,D,PTCH,A,4.3,D,ROLL*57
$GPRMC,230006.0,A,4741.20147,N,12224.26461,W,000.20,079.9,070816,016.4,E,A*28
$IIRMB,A,0.00,R,Gh,X,4720.300000,N,12232.734000,W,21.7,195,-0.09,V*6B
$GPGGA,230006.0,4741.20147,N,12224.26461,W,1,10,0.8,-3.7,M,-18.2,M,,*49
$DATA,IMU,0,3,1,0,EULER,56.125,1.4375,-2.75,ACC,-0.02,0,-0.07,GRAV,0.25,0.47,9.79*7D
$GPVTG,079.9,T,063.4,M,000.20,N,0000.37,K,A*13
$GPGSA,A,3,26,05,21,25,29,18,31,12,20,02,,,1.4,0.8,1.1*39
$HCHDG,275.5,0.0,E,,*2C
$GPRMC,230006.1,A,4741.20147,N,12224.26461,W,000.21,079.9,070816,016.4,E,A*28
$IIRMB,A,0.00,R,Gh,X,4720.300000,N,12232.734000,W,21.7,195,-0.09,V*6B
$YXXDR,A,5.7,D,PTCH,A,4.2,D,ROLL*59
$GPGGA,230006.1,4741.20147,N,12224.26461,W,1,10,0.8,-3.7,M,-18.2,M,,*48
$DATA,IMU,0,3,1,0,EULER,56.125,1.4375,-2.75,ACC,0,0,-0.05,GRAV,0.25,0.47,9.79*7E
$GPVTG,079.9,T,063.4,M,000.21,N,0000.40,K,A*12
$GPGSV,3,1,10,26,24,314,41,05,50,071,32,21,41,258,44,25,35,195,34*7E
$GPGSV,3,2,10,29,84,075,40,18,09,203,37,31,08,272,23,12,09,169,35*73
$HCHDG,275.7,0.0,E,,*2E
$GPGSV,3,3,10,20,54,170,39,02,18,070,35*7D
$YXXDR,A,5.7,D,PTCH,A,4.2,D,ROLL*59
$GPRMC,230006.2,A,4741.20147,N,12224.26461,W,000.24,079.9,070816,016.4,E,A*2E
$IIRMB,A,0.00,R,Gh,X,4720.300000,N,12232.734000,W,21.7,195,-0.10,V*63
$GPGGA,230006.2,4741.20147,N,12224.26461,W,1,10,0.8,-3.7,M,-18.2,M,,*4B
$DATA,IMU,0,3,1,0,EULER,56.125,1.4375,-2.75,ACC,0.02,-0.01,-0.02,GRAV,0.25,0.47,9.79*57
$GPVTG,079.9,T,063.4,M,000.24,N,0000.45,K,A*12
$HCHDG,275.7,0.0,E,,*2E
$YXXDR,A,5.7,D,PTCH,A,4.2,D,ROLL*59
$TIROT,36.5,A*0B
$GPRMC,230006.3,A,4741.20147,N,12224.26461,W,000.25,079.9,070816,016.4,E,A*2E
$IIRMB,A,0.00,R,Gh,X,4720.300000,N,12232.734000,W,21.7,195,-0.11,V*62
$GPGGA,230006.3,4741.20147,N,12224.26461,W,1,10,0.8,-3.7,M,-18.2,M,,*4A
$GPVTG,079.9,T,063.4,M,000.25,N,0000.47,K,A*11
$DATA,IMU,0,3,1,0,EULER,56.125,1.4375,-2.75,ACC,0.02,-0.02,-0.04,GRAV,0.25,0.47,9.79*52
$DATA,env,P,968.9453125,T,24.6*7F
$HCHDG,275.7,0.0,E,,*2E
$YXXDR,A,5.7,D,PTCH,A,4.2,D,ROLL*59
$GPRMC,230006.4,A,4741.20147,N,12224.26461,W,000.24,079.9,070816,016.4,E,A*28
$IIRMB,A,0.00,R,Gh,X,4720.300000,N,12232.734000,W,21.7,195,-0.10,V*63
$GPGGA,230006.4,4741.20147,N,12224.26461,W,1,10,0.8,-3.7,M,-18.2,M,,*4D
$GPVTG,079.9,T,063.4,M,000.24,N,0000.45,K,A*12
$DATA,IMU,0,3,1,0,EULER,56.125,1.4375,-2.75,ACC,-0.01,-0.02,-0.15,GRAV,0.25,0.47,9.79*7C
$HCHDG,275.9,0.0,E,,*20
$YXXDR,A,5.8,D,PTCH,A,4.3,D,ROLL*57
$GPRMC,230006.5,A,4741.20147,N,12224.26461,W,000.22,079.9,070816,016.4,E,A*2F
$IIRMB,A,0.00,R,Gh,X,4720.300000,N,12232.734000,W,21.7,195,-0.09,V*6B
$GPGGA,230006.5,4741.20147,N,12224.26461,W,1,10,0.8,-3.7,M,-18.2,M,,*4C
$GPVTG,079.9,T,063.4,M,000.22,N,0000.41,K,A*10
$DATA,IMU,0,3,1,0,EULER,56.125,1.4375,-2.75,ACC,-0.05,-0.01,-0.13,GRAV,0.25,0.47,9.79*7D
$HCHDG,276.0,0.0,E,,*2A
$YXXDR,A,5.8,D,PTCH,A,4.4,D,ROLL*50
$GPRMC,230006.6,A,4741.20147,N,12224.26461,W,000.21,079.9,070816,016.4,E,A*2F
$IIRMB,A,0.00,R,Gh,X,4720.300000,N,12232.734000,W,21.7,195,-0.09,V*6B
$GPGGA,230006.6,4741.20147,N,12224.26461,W,1,10,0.8,-3.7,M,-18.2,M,,*4F
$GPVTG,079.9,T,063.4,M,000.21,N,0000.39,K,A*1C
$DATA,IMU,0,3,1,0,EULER,56.125,1.375,-2.75,ACC,-0.07,0,-0.14,GRAV,0.24,0.47,9.79*4F
$HCHDG,275.9,0.0,E,,*20
$YXXDR,A,5.8,D,PTCH,A,4.5,D,ROLL*51
$GPRMC,230006.7,A,4741.20147,N,12224.26461,W,000.20,079.9,070816,016.4,E,A*2F
$IIRMB,A,0.00,R,Gh,X,4720.300000,N,12232.734000,W,21.7,195,-0.09,V*6B
$GPGGA,230006.7,4741.20147,N,12224.26461,W,1,10,0.8,-3.7,M,-18.2,M,,*4E
$GPVTG,079.9,T,063.4,M,000.20,N,0000.36,K,A*12
$DATA,IMU,0,3,1,0,EULER,56.125,1.375,-2.75,ACC,-0.11,0,-0.07,GRAV,0.24,0.47,9.79*4A
$HCHDG,276.0,0.0,E,,*2A
$YXXDR,A,5.8,D,PTCH,A,4.5,D,ROLL*51
$GPRMC,230006.8,A,4741.20147,N,12224.26461,W,000.19,079.9,070816,016.4,E,A*2A
$IIRMB,A,0.00,R,Gh,X,4720.300000,N,12232.734000,W,21.7,195,-0.08,V*6A
$GPGGA,230006.8,4741.20147,N,12224.26461,W,1,10,0.8,-3.7,M,-18.2,M,,*41
$GPVTG,079.9,T,063.4,M,000.19,N,0000.36,K,A*18
$DATA,IMU,0,3,1,0,EULER,56.125,1.375,-2.75,ACC,-0.08,0.01,-0.1,GRAV,0.24,0.47,9.79*5B
$HCHDG,275.9,0.0,E,,*20
$YXXDR,A,5.8,D,PTCH,A,4.3,D,ROLL*57
$GPRMC,230006.9,A,4741.20148,N,12224.26461,W,000.19,079.9,070816,016.4,E,A*24
$IIRMB,A,0.00,R,Gh,X,4720.300000,N,12232.734000,W,21.7,195,-0.08,V*6A
$GPGGA,230006.9,4741.20148,N,12224.26461,W,1,10,0.8,-3.6,M,-18.2,M,,*4E
$GPVTG,079.9,T,063.4,M,000.19,N,0000.35,K,A*1B
$DATA,IMU,0,3,1,0,EULER,56.125,1.375,-2.75,ACC,-0.06,-0.01,-0.09,GRAV,0.24,0.47,9.79*40
$HCHDG,275.9,0.0,E,,*20
$YXXDR,A,5.7,D,PTCH,A,4.2,D,ROLL*59
$GPRMC,230007.0,A,4741.20148,N,12224.26461,W,000.16,079.9,070816,016.4,E,A*23
$IIRMB,A,0.00,R,Gh,X,4720.300000,N,12232.734000,W,21.7,195,-0.07,V*65
$GPGGA,230007.0,4741.20148,N,12224.26461,W,1,10,0.8,-3.6,M,-18.2,M,,*46
$GPVTG,079.9,T,063.4,M,000.16,N,0000.31,K,A*10
$GPGSA,A,3,26,05,21,25,29,18,31,12,20,02,,,1.4,0.8,1.1*39
$DATA,IMU,0,3,1,0,EULER,56.125,1.375,-2.75,ACC,-0.07,-0.01,-0.08,GRAV,0.24,0.47,9.79*40
$HCHDG,276.0,0.0,E,,*2A
$YXXDR,A,5.7,D,PTCH,A,4.2,D,ROLL*59
$GPRMC,230007.1,A,4741.20148,N,12224.26461,W,000.15,079.9,070816,016.4,E,A*21
$IIRMB,A,0.00,R,Gh,X,4720.300000,N,12232.734000,W,21.7,195,-0.06,V*64
$GPGGA,230007.1,4741.20148,N,12224.26461,W,1,10,0.8,-3.6,M,-18.2,M,,*47
$GPVTG,079.9,T,063.4,M,000.15,N,0000.28,K,A*1B
$GPGSV,3,1,10,26,24,314,41,05,50,071,33,21,41,258,44,25,35,195,36*7D
$DATA,IMU,0,3,1,0,EULER,56.125,1.375,-2.75,ACC,-0.08,-0.03,-0.08,GRAV,0.24,0.47,9.79*4D
$GPGSV,3,2,10,29,84,075,39,18,09,203,37,31,07,271,23,12,09,169,34*70
$HCHDG,276.0,0.0,E,,*2A
$GPGSV,3,3,10,20,54,170,40,02,18,070,35*73
$YXXDR,A,5.8,D,PTCH,A,3.9,D,ROLL*5A
$GPRMC,230007.2,A,4741.20148,N,12224.26461,W,000.14,079.9,070816,016.4,E,A*23
$IIRMB,A,0.00,R,Gh,X,4720.300000,N,12232.734000,W,21.7,195,-0.06,V*64
$GPGGA,230007.2,4741.20148,N,12224.26461,W,1,10,0.8,-3.6,M,-18.2,M,,*44
$GPVTG,079.9,T,063.4,M,000.14,N,0000.26,K,A*14
$DATA,IMU,0,3,1,0,EULER,56.125,1.375,-2.75,ACC,-0.03,0,-0.07,GRAV,0.24,0.47,9.79*49
$HCHDG,276.0,0.0,E,,*2A
$YXXDR,A,5.8,D,PTCH,A,3.9,D,ROLL*5A
$TIROT,5.8,A*36
$GPRMC,230007.3,A,4741.20148,N,12224.26461,W,000.13,079.9,070816,016.4,E,A*25
$IIRMB,A,0.00,R,Gh,X,4720.300000,N,12232.734000,W,21.7,195,-0.06,V*64
$GPGGA,230007.3,4741.20148,N,12224.26461,W,1,10,0.8,-3.6,M,-18.2,M,,*45
$GPVTG,079.9,T,063.4,M,000.13,N,0000.23,K,A*16
$DATA,IMU,0,3,1,0,EULER,56.125,1.375,-2.75,ACC,0.02,-0.08,-0.13,GRAV,0.24,0.47,9.79*6B
$DATA,env,P,968.8515625,T,24.6*7A
$HCHDG,275.9,0.0,E,,*20
$YXXDR,A,5.8,D,PTCH,A,3.9,D,ROLL*5A
$GPRMC,230007.4,A,4741.20148,N,12224.26461,W,000.14,079.9,070816,016.4,E,A*25
$IIRMB,A,0.00,R,Gh,X,4720.300000,N,12232.734000,W,21.7,195,-0.06,V*64
$GPGGA,230007.4,4741.20148,N,12224.26461,W,1,10,0.8,-3.6,M,-18.2,M,,*42
$GPVTG,079.9,T,063.4,M,000.14,N,0000.26,K,A*14
$DATA,IMU,0,3,1,0,EULER,56.125,1.375,-2.75,ACC,0.03,-0.04,-0.12,GRAV,0.24,0.47,9.79*67
$HCHDG,276.0,0.0,E,,*2A
$YXXDR,A,5.7,D,PTCH,A,4.1,D,ROLL*5A
$GPRMC,230007.5,A,4741.20148,N,12224.26461,W,000.13,079.9,070816,016.4,E,A*23
$IIRMB,A,0.00,R,Gh,X,4720.300000,N,12232.734000,W,21.7,195,-0.06,V*64
$GPGGA,230007.5,4741.20148,N,12224.26461,W,1,10,0.8,-3.6,M,-18.2,M,,*43
$GPVTG,079.9,T,063.4,M,000.13,N,0000.24,K,A*11
$DATA,IMU,0,3,1,0,EULER,56.125,1.375,-2.75,ACC,0.04,-0.06,0.01,GRAV,0.24,0.47,9.79*4D
$HCHDG,276.1,0.0,E,,*2B
$YXXDR,A,5.7,D,PTCH,A,4.2,D,ROLL*59
$GPRMC,230007.6,A,4741.20148,N,12224.26461,W,000.12,079.9,070816,016.4,E,A*21
$IIRMB,A,0.00,R,Gh,X,4720.300000,N,12232.734000,W,21.7,195,-0.05,V*67
$GPGGA,230007.6,4741.20148,N,12224.26461,W,1,10,0.8,-3.6,M,-18.2,M,,*40
$GPVTG,079.9,T,063.4,M,000.12,N,0000.23,K,A*17
$DATA,IMU,0,3,1,0,EULER,56.125,1.375,-2.75,ACC,0.01,-0.04,0,GRAV,0.24,0.47,9.79*65
$HCHDG,276.1,0.0,E,,*2B
$YXXDR,A,5.8,D,PTCH,A,4.3,D,ROLL*57
$GPRMC,230007.7,A,4741.20148,N,12224.26461,W,000.12,079.9,070816,016.4,E,A*20
$IIRMB,A,0.00,R,Gh,X,4720.300000,N,12232.734000,W,21.7,195,-0.05,V*67
$GPGGA,230007.7,4741.20148,N,12224.26461,W,1,10,0.8,-3.6,M,-18.2,M,,*41
$GPVTG,079.9,T,063.4,M,000.12,N,0000.23,K,A*17
$DATA,IMU,0,3,1,0,EULER,56.125,1.375,-2.75,ACC,-0.04,-0.05,0,GRAV,0.24,0.47,9.79*4C
$HCHDG,276.1,0.0,E,,*2B
$YXXDR,A,6.0,D,PTCH,A,4.7,D,ROLL*58
$GPRMC,230007.8,A,4741.20148,N,12224.26461,W,000.13,079.9,070816,016.4,E,A*2E
$IIRMB,A,0.00,R,Gh,X,4720.300000,N,12232.734000,W,21.7,195,-0.06,V*64
$GPGGA,230007.8,4741.20148,N,12224.26461,W,1,10,0.8,-3.6,M,-18.2,M,,*4E
$GPVTG,079.9,T,063.4,M,000.13,N,0000.24,K,A*11
$DATA,IMU,0,3,1,0,EULER,56.125,1.375,-2.75,ACC,-0.04,0,-0.03,GRAV,0.24,0.47,9.79*4A
$HCHDG,276.2,0.0,E,,*28
$YXXDR,A,6.0,D,PTCH,A,4.7,D,ROLL*58
$GPRMC,230007.9,A,4741.20147,N,12224.26461,W,000.13,079.9,070816,016.4,E,A*20
$IIRMB,A,0.00,R,Gh,X,4720.300000,N,12232.734000,W,21.7,195,-0.06,V*64
$GPGGA,230007.9,4741.20147,N,12224.26461,W,1,10,0.8,-3.6,M,-18.2,M,,*40
$GPVTG,079.9,T,063.4,M,000.13,N,0000.24,K,A*11
$DATA,IMU,0,3,1,0,EULER,56.125,1.375,-2.75,ACC,-0.09,-0.07,0.19,GRAV,0.24,0.47,9.79*65
$HCHDG,276.1,0.0,E,,*2B
$YXXDR,A,6.0,D,PTCH,A,4.8,D,ROLL*57
$GPRMC,230008.0,A,4741.20147,N,12224.26461,W,000.13,079.9,070816,016.4,E,A*26
$IIRMB,A,0.00,R,Gh,X,4720.300000,N,12232.734000,W,21.7,195,-0.06,V*64
$GPGGA,230008.0,4741.20147,N,12224.26461,W,1,10,0.8,-3.6,M,-18.2,M,,*46
$GPVTG,079.9,T,063.4,M,000.13,N,0000.23,K,A*16
$GPGSA,A,3,26,05,21,25,29,18,31,12,20,02,,,1.4,0.8,1.1*39
$DATA,IMU,0,3,1,0,EULER,56.125,1.3125,-2.75,ACC,-0.08,0.01,0,GRAV,0.23,0.47,9.79*5A
$HCHDG,276.1,0.0,E,,*2B
$YXXDR,A,6.1,D,PTCH,A,4.6,D,ROLL*58
$GPRMC,230008.1,A,4741.20147,N,12224.26461,W,000.13,079.9,070816,016.4,E,A*27
$IIRMB,A,0.00,R,Gh,X,4720.300000,N,12232.734000,W,21.7,195,-0.06,V*64
$GPGGA,230008.1,4741.20147,N,12224.26461,W,1,10,0.8,-3.6,M,-18.2,M,,*47
$GPVTG,079.9,T,063.4,M,000.13,N,0000.24,K,A*11
$GPGSV,3,1,10,26,24,314,41,05,50,071,34,21,41,258,43,25,35,195,37*7C
$GPGSV,3,2,10,29,84,075,39,18,09,203,36,31,07,271,22,12,09,169,33*77
$HCHDG,276.3,0.0,E,,*29
$DATA,IMU,0,3,1,0,EULER,56.125,1.3125,-2.75,ACC,-0.08,0,-0.07,GRAV,0.22,0.47,9.79*70
$GPGSV,3,3,10,20,54,170,40,02,18,070,34*72
$YXXDR,A,5.9,D,PTCH,A,4.6,D,ROLL*53
$GPRMC,230008.2,A,4741.20147,N,12224.26461,W,000.13,079.9,070816,016.4,E,A*24
$IIRMB,A,0.00,R,Gh,X,4720.300000,N,12232.734000,W,21.7,195,-0.06,V*64
$GPGGA,230008.2,4741.20147,N,12224.26461,W,1,10,0.8,-3.6,M,-18.2,M,,*44
$GPVTG,079.9,T,063.4,M,000.13,N,0000.24,K,A*11
$HCHDG,276.3,0.0,E,,*29
$DATA,IMU,0,3,1,0,EULER,56.125,1.25,-2.75,ACC,0.04,0.02,-0.06,GRAV,0.21,0.47,9.79*7D
$YXXDR,A,6.0,D,PTCH,A,4.5,D,ROLL*5A
$TIROT,11.7,A*0C
$GPRMC,230008.3,A,4741.20147,N,12224.26461,W,000.12,079.9,070816,016.4,E,A*24
$IIRMB,A,0.00,R,Gh,X,4720.300000,N,12232.734000,W,21.7,195,-0.05,V*67
$GPGGA,230008.3,4741.20147,N,12224.26461,W,1,10,0.8,-3.6,M,-18.2,M,,*45
$GPVTG,079.9,T,063.4,M,000.12,N,0000.22,K,A*16
$DATA,env,P,968.9609375,T,24.6*75
$HCHDG,276.4,0.0,E,,*2E
$DATA,IMU,0,3,1,0,EULER,56.125,1.25,-2.75,ACC,0.02,-0.02,0.02,GRAV,0.21,0.47,9.79*7F
$YXXDR,A,5.9,D,PTCH,A,4.3,D,ROLL*56
$GPRMC,230008.4,A,4741.20147,N,12224.26461,W,000.13,079.9,070816,016.4,E,A*22
$IIRMB,A,0.00,R,Gh,X,4720.300000,N,12232.734000,W,21.7,195,-0.06,V*64
$GPGGA,230008.4,4741.20147,N,12224.26461,W,1,10,0.8,-3.6,M,-18.2,M,,*42
$GPVTG,079.9,T,063.4,M,000.13,N,0000.23,K,A*16
$HCHDG,276.2,0.0,E,,*28
$DATA,IMU,0,3,1,0,EULER,56.125,1.1875,-2.75,ACC,-0.05,0,-0.11,GRAV,0.2,0.47,9.79*46
$YXXDR,A,5.9,D,PTCH,A,4.3,D,ROLL*56
$GPRMC,230008.5,A,4741.20147,N,12224.26461,W,000.15,079.9,070816,016.4,E,A*25
$IIRMB,A,0.00,R,Gh,X,4720.300000,N,12232.734000,W,21.7,195,-0.06,V*64
$GPGGA,230008.5,4741.20147,N,12224.26461,W,1,10,0.8,-3.6,M,-18.2,M,,*43
$GPVTG,079.9,T,063.4,M,000.15,N,0000.27,K,A*14
$HCHDG,276.2,0.0,E,,*28
$DATA,IMU,0,3,1,0,EULER,56.125,1.125,-2.75,ACC,-0.01,-0.04,-0.05,GRAV,0.19,0.47,9.79*47
$YXXDR,A,5.7,D,PTCH,A,4.2,D,ROLL*59
$GPRMC,230008.6,A,4741.20147,N,12224.26461,W,000.14,079.9,070816,016.4,E,A*27
$IIRMB,A,0.00,R,Gh,X,4720.300000,N,12232.734000,W,21.7,195,-0.06,V*64
$GPGGA,230008.6,4741.20147,N,12224.26461,W,1,10,0.8,-3.6,M,-18.2,M,,*40
$GPVTG,079.9,T,063.4,M,000.14,N,0000.26,K,A*14
$DATA,IMU:CAL,[-7,2,46,0,0,0,2,3,-6,1000,829]*01
$HCHDG,276.1,0.0,E,,*2B
$YXXDR,A,5.6,D,PTCH,A,4.1,D,ROLL*5B
$DATA,IMU,0,3,1,0,EULER,0,0,0,ACC,0,0,0,GRAV,0,0,0*57
$GPRMC,230008.7,A,4741.20147,N,12224.26461,W,000.13,079.9,070816,016.4,E,A*21
$IIRMB,A,0.00,R,Gh,X,4720.300000,N,12232.734000,W,21.7,195,-0.06,V*64
$GPGGA,230008.7,4741.20147,N,12224.26461,W,1,10,0.8,-3.6,M,-18.2,M,,*41
$GPVTG,079.9,T,063.4,M,000.13,N,0000.23,K,A*16
$HCHDG,276.1,0.0,E,,*2B
$YXXDR,A,5.6,D,PTCH,A,4.1,D,ROLL*5B
$DATA,IMU,0,3,1,0,EULER,56.125,1,-2.75,ACC,-0.07,0,-0.16,GRAV,0.17,0.47,9.79*52
$GPRMC,230008.8,A,4741.20147,N,12224.26461,W,000.13,079.9,070816,016.4,E,A*2E
$IIRMB,A,0.00,R,Gh,X,4720.300000,N,12232.734000,W,21.7,195,-0.06,V*64
$GPGGA,230008.8,4741.20147,N,12224.26461,W,1,10,0.8,-3.6,M,-18.2,M,,*4E
$GPVTG,079.9,T,063.4,M,000.13,N,0000.24,K,A*11
$HCHDG,276.2,0.0,E,,*28
$YXXDR,A,5.6,D,PTCH,A,4.0,D,ROLL*5A
$DATA,IMU,0,3,1,0,EULER,56.125,0.9375,-2.75,ACC,-0.05,0,-0.09,GRAV,0.16,0.47,9.79*78
$GPRMC,230008.9,A,4741.20144,N,12224.26461,W,000.14,079.9,070816,016.4,E,A*2B
$IIRMB,A,0.00,R,Gh,X,4720.300000,N,12232.734000,W,21.7,195,-0.06,V*64
$GPGGA,230008.9,4741.20144,N,12224.26461,W,1,10,0.8,-3.7,M,-18.2,M,,*4D
$GPVTG,079.9,T,063.4,M,000.14,N,0000.25,K,A*17
$HCHDG,276.2,0.0,E,,*28
$YXXDR,A,5.8,D,PTCH,A,3.9,D,ROLL*5A
$GPRMC,230009.0,A,4741.20144,N,12224.26461,W,000.14,079.9,070816,016.4,E,A*23
$IIRMB,A,0.00,R,Gh,X,4720.300000,N,12232.734000,W,21.7,195,-0.06,V*64
$DATA,IMU,0,3,1,0,EULER,56.125,0.875,-2.75,ACC,-0.08,-0.02,-0.08,GRAV,0.15,0.47,9.79*44
$GPGGA,230009.0,4741.20144,N,12224.26461,W,1,10,0.8,-3.7,M,-18.2,M,,*45
$GPVTG,079.9,T,063.4,M,000.14,N,0000.25,K,A*17
$GPGSA,A,3,26,05,21,25,29,18,31,12,20,02,,,1.4,0.8,1.1*39
$HCHDG,276.2,0.0,E,,*28
$YXXDR,A,5.8,D,PTCH,A,3.9,D,ROLL*5A
$GPRMC,230009.1,A,4741.20144,N,12224.26461,W,000.13,079.9,070816,016.4,E,A*25
$IIRMB,A,0.00,R,Gh,X,4720.300000,N,12232.734000,W,21.7,195,-0.06,V*64
$DATA,IMU,0,3,1,0,EULER,56.125,0.875,-2.75,ACC,-0.11,-0.01,-0.08,GRAV,0.15,0.47,9.79*4F
$GPGGA,230009.1,4741.20144,N,12224.26461,W,1,10,0.8,-3.7,M,-18.2,M,,*44
$GPVTG,079.9,T,063.4,M,000.13,N,0000.23,K,A*16
$GPGSV,3,1,10,26,24,314,41,05,50,071,34,21,41,258,42,25,35,195,38*72
$HCHDG,276.2,0.0,E,,*28
$GPGSV,3,2,10,29,84,075,40,18,09,203,36,31,07,271,24,12,09,169,32*7E
$GPGSV,3,3,10,20,54,170,40,02,18,070,34*72
$YXXDR,A,5.7,D,PTCH,A,3.8,D,ROLL*54
$GPRMC,230009.2,A,4741.20144,N,12224.26461,W,000.13,079.9,070816,016.4,E,A*26
$IIRMB,A,0.00,R,Gh,X,4720.300000,N,12232.734000,W,21.7,195,-0.06,V*64
$DATA,IMU,0,3,1,0,EULER,56.125,0.875,-2.75,ACC,-0.1,-0.02,-0.05,GRAV,0.14,0.47,9.79*71
$GPGGA,230009.2,4741.20144,N,12224.26461,W,1,10,0.8,-3.7,M,-18.2,M,,*47
$GPVTG,079.9,T,063.4,M,000.13,N,0000.25,K,A*10
$HCHDG,276.2,0.0,E,,*28
$YXXDR,A,5.8,D,PTCH,A,3.6,D,ROLL*55
$TIROT,0.0,A*3B
$GPRMC,230009.3,A,4741.20144,N,12224.26461,W,000.12,079.9,070816,016.4,E,A*26
$IIRMB,A,0.00,R,Gh,X,4720.300000,N,12232.734000,W,21.7,195,-0.05,V*67
$DATA,IMU,0,3,1,0,EULER,56.125,0.875,-2.75,ACC,-0.11,0,-0.04,GRAV,0.14,0.47,9.79*40
$GPGGA,230009.3,4741.20144,N,12224.26461,W,1,10,0.8,-3.7,M,-18.2,M,,*46
$GPVTG,079.9,T,063.4,M,000.12,N,0000.23,K,A*17
$DATA,env,P,968.5859375,T,24.59*48
$HCHDG,276.2,0.0,E,,*28
$YXXDR,A,5.8,D,PTCH,A,3.6,D,ROLL*55
$GPRMC,230009.4,A,4741.20144,N,12224.26461,W,000.14,079.9,070816,016.4,E,A*27
$IIRMB,A,0.00,R,Gh,X,4720.300000,N,12232.734000,W,21.7,195,-0.06,V*64
$DATA,IMU,0,3,1,0,EULER,56.125,0.875,-2.75,ACC,-0.15,-0.02,-0.01,GRAV,0.14,0.47,9.79*40
$GPGGA,230009.4,4741.20144,N,12224.26461,W,1,10,0.8,-3.7,M,-18.2,M,,*41
$GPVTG,079.9,T,063.4,M,000.14,N,0000.25,K,A*17
$HCHDG,276.3,0.0,E,,*29
$YXXDR,A,5.7,D,PTCH,A,3.5,D,ROLL*59
$GPRMC,230009.5,A,4741.20144,N,12224.26461,W,000.13,079.9,070816,016.4,E,A*21
$IIRMB,A,0.00,R,Gh,X,4720.300000,N,12232.734000,W,21.7,195,-0.06,V*64
$GPGGA,230009.5,4741.20144,N,12224.26461,W,1,10,0.8,-3.7,M,-18.2,M,,*40
$DATA,IMU,0,3,1,0,EULER,56.125,0.875,-2.75,ACC,-0.15,0.01,-0.04,GRAV,0.14,0.47,9.79*6B
$GPVTG,079.9,T,063.4,M,000.13,N,0000.23,K,A*16
$HCHDG,276.3,0.0,E,,*29
$YXXDR,A,5.7,D,PTCH,A,3.4,D,ROLL*58
$GPRMC,230009.6,A,4741.20144,N,12224.26461,W,000.12,079.9,070816,016.4,E,A*23
$IIRMB,A,0.00,R,Gh,X,4720.300000,N,12232.734000,W,21.7,195,-0.05,V*67
$GPGGA,230009.6,4741.20144,N,12224.26461,W,1,10,0.8,-3.7,M,-18.2,M,,*43
$DATA,IMU,0,3,1,0,EULER,56.125,0.875,-2.75,ACC,-0.14,0,-0.02,GRAV,0.14,0.47,9.79*43
$GPVTG,079.9,T,063.4,M,000.12,N,0000.22,K,A*16
$HCHDG,276.3,0.0,E,,*29
$YXXDR,A,5.7,D,PTCH,A,3.5,D,ROLL*59
$GPRMC,230009.7,A,4741.20144,N,12224.26461,W,000.11,079.9,070816,016.4,E,A*21
$IIRMB,A,0.00,R,Gh,X,4720.300000,N,12232.734000,W,21.7,195,-0.05,V*67
$GPGGA,230009.7,4741.20144,N,12224.26461,W,1,10,0.8,-3.7,M,-18.2,M,,*42
$DATA,IMU,0,3,1,0,EULER,56.125,0.875,-2.75,ACC,-0.17,0.01,-0.07,GRAV,0.14,0.47,9.79*6A
$GPVTG,079.9,T,063.4,M,000.11,N,0000.20,K,A*17
$HCHDG,276.3,0.0,E,,*29
$YXXDR,A,5.7,D,PTCH,A,3.4,D,ROLL*58
$GPRMC,230009.8,A,4741.20144,N,12224.26461,W,000.10,079.9,070816,016.4,E,A*2F
$IIRMB,A,0.00,R,Gh,X,4720.300000,N,12232.734000,W,21.7,195,-0.04,V*66
$GPGGA,230009.8,4741.20144,N,12224.26461,W,1,10,0.8,-3.7,M,-18.2,M,,*4D
$DATA,IMU,0,3,1,0,EULER,56.125,0.875,-2.75,ACC,-0.13,-0.02,-0.06,GRAV,0.14,0.47,9.79*41
$GPVTG,079.9,T,063.4,M,000.10,N,0000.19,K,A*1C
$HCHDG,276.3,0.0,E,,*29
$YXXDR,A,5.8,D,PTCH,A,3.0,D,ROLL*53
$GPRMC,230009.9,A,4741.20143,N,12224.26461,W,000.10,079.9,070816,016.4,E,A*29
$IIRMB,A,0.00,R,Gh,X,4720.300000,N,12232.734000,W,21.7,195,-0.04,V*66
$GPGGA,230009.9,4741.20143,N,12224.26461,W,1,10,0.8,-3.8,M,-18.2,M,,*44
$DATA,IMU,0,3,1,0,EULER,56.125,0.875,-2.75,ACC,-0.13,-0.01,-0.14,GRAV,0.14,0.47,9.79*41
$GPVTG,079.9,T,063.4,M,000.10,N,0000.18,K,A*1D
$HCHDG,276.3,0.0,E,,*29
$YXXDR,A,5.8,D,PTCH,A,3.0,D,ROLL*53
$GPRMC,230010.0,A,4741.20143,N,12224.26461,W,000.09,079.9,070816,016.4,E,A*20
$IIRMB,A,0.00,R,Gh,X,4720.300000,N,12232.734000,W,21.7,195,-0.04,V*66
$GPGGA,230010.0,4741.20143,N,12224.26461,W,1,10,0.8,-3.8,M,-18.2,M,,*45
$GPVTG,079.9,T,063.4,M,000.09,N,0000.18,K,A*15
$DATA,IMU,0,3,1,0,EULER,56.125,0.875,-2.75,ACC,-0.14,-0.01,-0.13,GRAV,0.15,0.47,9.79*40
$GPGSA,A,3,26,05,21,25,29,18,31,12,20,02,,,1.4,0.8,1.1*39
$HCHDG,276.3,0.0,E,,*29
$YXXDR,A,5.8,D,PTCH,A,3.0,D,ROLL*53
$GPRMC,230010.1,A,4741.20143,N,12224.26461,W,000.09,079.9,070816,016.4,E,A*21
$IIRMB,A,0.00,R,Gh,X,4720.300000,N,12232.734000,W,21.7,195,-0.04,V*66
$GPGGA,230010.1,4741.20143,N,12224.26461,W,1,10,0.8,-3.8,M,-18.2,M,,*44
$GPVTG,079.9,T,063.4,M,000.09,N,0000.17,K,A*1A
$DATA,IMU,0,3,1,0,EULER,56.125,0.875,-2.75,ACC,-0.12,-0.01,-0.13,GRAV,0.16,0.47,9.79*45
$GPGSV,3,1,10,26,24,314,42,05,50,071,34,21,41,258,42,25,35,195,37*7E
$HCHDG,276.4,0.0,E,,*2E
$GPGSV,3,2,10,29,84,075,40,18,09,203,35,31,07,271,27,12,09,169,30*7C
$YXXDR,A,5.8,D,PTCH,A,3.0,D,ROLL*53
$GPGSV,3,3,10,20,54,170,39,02,18,070,33*7B
$GPRMC,230010.2,A,4741.20143,N,12224.26461,W,000.09,079.9,070816,016.4,E,A*22
$IIRMB,A,0.00,R,Gh,X,4720.300000,N,12232.734000,W,21.7,195,-0.04,V*66
$GPGGA,230010.2,4741.20143,N,12224.26461,W,1,10,0.8,-3.8,M,-18.2,M,,*47
$DATA,IMU,0,3,1,0,EULER,56.125,1,-2.75,ACC,-0.11,-0.04,-0.09,GRAV,0.17,0.47,9.79*5C
$GPVTG,079.9,T,063.4,M,000.09,N,0000.17,K,A*1A
$HCHDG,276.4,0.0,E,,*2E
$YXXDR,A,5.8,D,PTCH,A,3.0,D,ROLL*53
$TIROT,-1.0,A*17
$GPRMC,230010.3,A,4741.20143,N,12224.26461,W,000.10,079.9,070816,016.4,E,A*2B
$IIRMB,A,0.00,R,Gh,X,4720.300000,N,12232.734000,W,21.7,195,-0.04,V*66
$GPGGA,230010.3,4741.20143,N,12224.26461,W,1,10,0.8,-3.8,M,-18.2,M,,*46
$GPVTG,079.9,T,063.4,M,000.10,N,0000.19,K,A*1C
$DATA,IMU,0,3,1,0,EULER,56.125,1,-2.75,ACC,-0.13,-0.01,-0.1,GRAV,0.17,0.47,9.79*63
$DATA,env,P,968.5859375,T,24.59*48
$HCHDG,276.4,0.0,E,,*2E
$YXXDR,A,5.8,D,PTCH,A,3.0,D,ROLL*53
$GPRMC,230010.4,A,4741.20143,N,12224.26461,W,000.09,079.9,070816,016.4,E,A*24
$IIRMB,A,0.00,R,Gh,X,4720.300000,N,12232.734000,W,21.7,195,-0.04,V*66
$GPGGA,230010.4,4741.20143,N,12224.26461,W,1,10,0.8,-3.8,M,-18.2,M,,*41
$GPVTG,079.9,T,063.4,M,000.09,N,0000.17,K,A*1A
$DATA,IMU,0,3,1,0,EULER,56.125,1.0625,-2.75,ACC,-0.16,-0.04,-0.09,GRAV,0.19,0.47,9.79*7A
$HCHDG,276.4,0.0,E,,*2E
$YXXDR,A,5.8,D,PTCH,A,3.0,D,ROLL*53
$GPRMC,230010.5,A,4741.20143,N,12224.26461,W,000.10,079.9,070816,016.4,E,A*2D
$IIRMB,A,0.00,R,Gh,X,4720.300000,N,12232.734000,W,21.7,195,-0.04,V*66
$GPGGA,230010.5,4741.20143,N,12224.26461,W,1,10,0.8,-3.8,M,-18.2,M,,*40
$GPVTG,079.9,T,063.4,M,000.10,N,0000.18,K,A*1D
$DATA,IMU,0,3,1,0,EULER,56.125,1.125,-2.75,ACC,-0.2,-0.03,-0.12,GRAV,0.2,0.47,9.79*4F
$HCHDG,276.4,0.0,E,,*2E
$YXXDR,A,5.8,D,PTCH,A,3.2,D,ROLL*51
$GPRMC,230010.6,A,4741.20143,N,12224.26461,W,000.10,079.9,070816,016.4,E,A*2E
$IIRMB,A,0.00,R,Gh,X,4720.300000,N,12232.734000,W,21.7,195,-0.04,V*66
$GPGGA,230010.6,4741.20143,N,12224.26461,W,1,10,0.8,-3.8,M,-18.2,M,,*43
$GPVTG,079.9,T,063.4,M,000.10,N,0000.19,K,A*1C
$DATA,IMU,0,3,1,0,EULER,56.125,1.25,-2.75,ACC,-0.26,-0.04,-0.03,GRAV,0.22,0.47,9.79*7D
$HCHDG,276.5,0.0,E,,*2F
$YXXDR,A,5.8,D,PTCH,A,3.2,D,ROLL*51
$GPRMC,230010.7,A,4741.20143,N,12224.26461,W,000.11,079.9,070816,016.4,E,A*2E
$IIRMB,A,0.00,R,Gh,X,4720.300000,N,12232.734000,W,21.7,195,-0.05,V*67
$GPGGA,230010.7,4741.20143,N,12224.26461,W,1,10,0.8,-3.8,M,-18.2,M,,*42
$GPVTG,079.9,T,063.4,M,000.11,N,0000.21,K,A*16
$HCHDG,276.4,0.0,E,,*2E
$DATA,IMU,0,3,1,0,EULER,56.125,1.375,-2.75,ACC,-0.2,-0.04,-0.03,GRAV,0.24,0.47,9.79*7B
$YXXDR,A,5.8,D,PTCH,A,3.4,D,ROLL*57
$GPRMC,230010.8,A,4741.20143,N,12224.26461,W,000.11,079.9,070816,016.4,E,A*21
$IIRMB,A,0.00,R,Gh,X,4720.300000,N,12232.734000,W,21.7,195,-0.05,V*67
$GPGGA,230010.8,4741.20143,N,12224.26461,W,1,10,0.8,-3.8,M,-18.2,M,,*4D
$GPVTG,079.9,T,063.4,M,000.11,N,0000.20,K,A*17
$HCHDG,276.4,0.0,E,,*2E
$DATA,IMU,0,3,1,0,EULER,56.125,1.5,-2.75,ACC,-0.14,-0.01,-0.02,GRAV,0.26,0.47,9.79*4E
$YXXDR,A,5.8,D,PTCH,A,3.4,D,ROLL*57
$GPRMC,230010.9,A,4741.20143,N,12224.26458,W,000.12,079.9,070816,016.4,E,A*29
$IIRMB,A,0.00,R,Gh,X,4720.300000,N,12232.734000,W,21.7,195,-0.05,V*67
$GPGGA,230010.9,4741.20143,N,12224.26458,W,1,10,0.8,-3.7,M,-18.2,M,,*49
$GPVTG,079.9,T,063.4,M,000.12,N,0000.22,K,A*16
$HCHDG,276.4,0.0,E,,*2E
$DATA,IMU,0,3,1,0,EULER,56.125,1.625,-2.75,ACC,-0.1,-0.01,-0.04,GRAV,0.28,0.47,9.79*76
$YXXDR,A,5.8,D,PTCH,A,3.4,D,ROLL*57
$GPRMC,230011.0,A,4741.20143,N,12224.26458,W,000.11,079.9,070816,016.4,E,A*22
$IIRMB,A,0.00,R,Gh,X,4720.300000,N,12232.734000,W,21.7,195,-0.05,V*67
$GPGGA,230011.0,4741.20143,N,12224.26458,W,1,10,0.8,-3.7,M,-18.2,M,,*41
$GPVTG,079.9,T,063.4,M,000.11,N,0000.21,K,A*16
$GPGSA,A,3,26,05,21,25,29,18,31,12,20,02,,,1.4,0.8,1.1*39
$HCHDG,276.6,0.0,E,,*2C
$DATA,IMU,0,3,1,0,EULER,56.125,1.6875,-2.75,ACC,-0.08,-0.01,-0.02,GRAV,0.29,0.47,9.79*75
$YXXDR,A,5.8,D,PTCH,A,3.4,D,ROLL*57
$GPRMC,230011.1,A,4741.20143,N,12224.26458,W,000.10,079.9,070816,016.4,E,A*22
$IIRMB,A,0.00,R,Gh,X,4720.300000,N,12232.734000,W,21.7,195,-0.04,V*66
$GPGGA,230011.1,4741.20143,N,12224.26458,W,1,10,0.8,-3.7,M,-18.2,M,,*40
$GPVTG,079.9,T,063.4,M,000.10,N,0000.19,K,A*1C
$HCHDG,276.7,0.0,E,,*2D
$GPGSV,3,1,10,26,24,314,42,05,50,071,34,21,41,258,42,25,35,195,37*7E
$GPGSV,3,2,10,29,84,075,39,18,09,203,35,31,07,271,28,12,09,169,30*7D
$YXXDR,A,5.8,D,PTCH,A,3.3,D,ROLL*50
$DATA,IMU,0,3,1,0,EULER,56.125,1.6875,-2.75,ACC,-0.07,-0.02,-0.05,GRAV,0.29,0.47,9.79*7E
$GPGSV,3,3,10,20,54,170,39,02,18,070,31*79
$GPRMC,230011.2,A,4741.20143,N,12224.26458,W,000.10,079.9,070816,016.4,E,A*21
$IIRMB,A,0.00,R,Gh,X,4720.300000,N,12232.734000,W,21.7,195,-0.04,V*66
$GPGGA,230011.2,4741.20143,N,12224.26458,W,1,10,0.8,-3.7,M,-18.2,M,,*43
$GPVTG,079.9,T,063.4,M,000.10,N,0000.18,K,A*1D
$HCHDG,276.7,0.0,E,,*2D
$YXXDR,A,5.8,D,PTCH,A,3.4,D,ROLL*57
$TIROT,-1.1,A*16
$DATA,IMU,0,3,1,0,EULER,56.125,1.6875,-2.75,ACC,-0.08,0,-0.03,GRAV,0.29,0.47,9.79*76
$GPRMC,230011.3,A,4741.20143,N,12224.26458,W,000.10,079.9,070816,016.4,E,A*20
$IIRMB,A,0.00,R,Gh,X,4720.300000,N,12232.734000,W,21.7,195,-0.04,V*66
$GPGGA,230011.3,4741.20143,N,12224.26458,W,1,10,0.8,-3.7,M,-18.2,M,,*42
$GPVTG,079.9,T,063.4,M,000.10,N,0000.18,K,A*1D
$HCHDG,276.7,0.0,E,,*2D
$DATA,env,P,968.9609375,T,24.6*75
$YXXDR,A,5.9,D,PTCH,A,3.7,D,ROLL*55
$DATA,IMU,0,3,1,0,EULER,56.125,1.6875,-2.75,ACC,-0.1,-0.01,-0.17,GRAV,0.29,0.47,9.79*48
$GPRMC,230011.4,A,4741.20143,N,12224.26458,W,000.09,079.9,070816,016.4,E,A*2F
$IIRMB,A,0.00,R,Gh,X,4720.300000,N,12232.734000,W,21.7,195,-0.04,V*66
$PTAK,FFP1,HEEL,###@*24
$PTAK,FFP2,TGTSPD,kts*2C
$PTAK,FFP3,TGTTWA,###@*27
$GPGGA,230011.4,4741.20143,N,12224.26458,W,1,10,0.8,-3.7,M,-18.2,M,,*45
$GPVTG,079.9,T,063.4,M,000.09,N,0000.18,K,A*15
$HCHDG,276.8,0.0,E,,*22
$YXXDR,A,5.8,D,PTCH,A,3.9,D,ROLL*5A
$DATA,IMU,0,3,1,0,EULER,56.125,1.6875,-2.75,ACC,-0.14,-0.02,-0.14,GRAV,0.29,0.47,9.79*7C
$GPRMC,230011.5,A,4741.20143,N,12224.26458,W,000.09,079.9,070816,016.4,E,A*2E
$IIRMB,A,0.00,R,Gh,X,4720.300000,N,12232.734000,W,21.7,195,-0.04,V*66
$GPGGA,230011.5,4741.20143,N,12224.26458,W,1,10,0.8,-3.7,M,-18.2,M,,*44
$GPVTG,079.9,T,063.4,M,000.09,N,0000.16,K,A*1B
$HCHDG,276.7,0.0,E,,*2D
$YXXDR,A,5.8,D,PTCH,A,4.0,D,ROLL*54
$DATA,IMU,0,3,1,0,EULER,56.125,1.625,-2.75,ACC,-0.19,-0.04,-0.16,GRAV,0.27,0.47,9.79*46
$GPRMC,230011.6,A,4741.20143,N,12224.26458,W,000.09,079.9,070816,016.4,E,A*2D
$IIRMB,A,0.00,R,Gh,X,4720.300000,N,12232.734000,W,21.7,195,-0.04,V*66
$GPGGA,230011.6,4741.20143,N,12224.26458,W,1,10,0.8,-3.7,M,-18.2,M,,*47
$GPVTG,079.9,T,063.4,M,000.09,N,0000.16,K,A*1B
$HCHDG,276.7,0.0,E,,*2D
$YXXDR,A,5.9,D,PTCH,A,4.2,D,ROLL*57
$DATA,IMU,0,3,1,0,EULER,56.125,1.5625,-2.75,ACC,-0.21,-0.05,-0.11,GRAV,0.27,0.47,9.79*7E
$GPRMC,230011.7,A,4741.20143,N,12224.26458,W,000.09,079.9,070816,016.4,E,A*2C
$IIRMB,A,0.00,R,Gh,X,4720.300000,N,12232.734000,W,21.7,195,-0.04,V*66
$GPGGA,230011.7,4741.20143,N,12224.26458,W,1,10,0.8,-3.7,M,-18.2,M,,*46
$GPVTG,079.9,T,063.4,M,000.09,N,0000.16,K,A*1B
$HCHDG,276.7,0.0,E,,*2D
$YXXDR,A,5.8,D,PTCH,A,4.1,D,ROLL*55
$DATA,IMU,0,3,1,0,EULER,56.125,1.5625,-2.75,ACC,-0.16,-0.04,-0.1,GRAV,0.26,0.47,9.79*4B
$GPRMC,230011.8,A,4741.20143,N,12224.26458,W,000.08,079.9,070816,016.4,E,A*22
$IIRMB,A,0.00,R,Gh,X,4720.300000,N,12232.734000,W,21.7,195,-0.03,V*61
$GPGGA,230011.8,4741.20143,N,12224.26458,W,1,10,0.8,-3.7,M,-18.2,M,,*49
$GPVTG,079.9,T,063.4,M,000.08,N,0000.15,K,A*19
$HCHDG,276.7,0.0,E,,*2D
$YXXDR,A,5.8,D,PTCH,A,4.1,D,ROLL*55
$DATA,IMU,0,3,1,0,EULER,56.125,1.5625,-2.75,ACC,-0.09,-0.02,-0.06,GRAV,0.26,0.47,9.79*74
$GPRMC,230011.9,A,4741.20148,N,12224.26454,W,000.10,079.9,070816,016.4,E,A*2D
$IIRMB,A,0.00,R,Gh,X,4720.300000,N,12232.734000,W,21.7,195,-0.04,V*66
$GPGGA,230011.9,4741.20148,N,12224.26454,W,1,10,0.8,-3.7,M,-18.2,M,,*4F
$GPVTG,079.9,T,063.4,M,000.10,N,0000.19,K,A*1C
$HCHDG,276.7,0.0,E,,*2D
$YXXDR,A,5.8,D,PTCH,A,4.0,D,ROLL*54
$DATA,IMU,0,3,1,0,EULER,56.125,1.5625,-2.75,ACC,-0.08,-0.01,-0.06,GRAV,0.26,0.47,9.79*76
$GPRMC,230012.0,A,4741.20148,N,12224.26454,W,000.09,079.9,070816,016.4,E,A*2F
$IIRMB,A,0.00,R,Gh,X,4720.300000,N,12232.734000,W,21.7,195,-0.04,V*66
$GPGGA,230012.0,4741.20148,N,12224.26454,W,1,10,0.8,-3.7,M,-18.2,M,,*45
$GPVTG,079.9,T,063.4,M,000.09,N,0000.17,K,A*1A
$HCHDG,276.7,0.0,E,,*2D
$GPGSA,A,3,26,05,21,25,29,18,31,12,20,02,,,1.4,0.8,1.1*39
$YXXDR,A,5.8,D,PTCH,A,3.9,D,ROLL*5A
$DATA,IMU,0,3,1,0,EULER,56.125,1.5625,-2.75,ACC,-0.1,-0.03,-0.06,GRAV,0.26,0.47,9.79*4D
$GPRMC,230012.1,A,4741.20148,N,12224.26454,W,000.11,079.9,070816,016.4,E,A*27
$IIRMB,A,0.00,R,Gh,X,4720.300000,N,12232.734000,W,21.7,195,-0.05,V*67
$GPGGA,230012.1,4741.20148,N,12224.26454,W,1,10,0.8,-3.7,M,-18.2,M,,*44
$GPVTG,079.9,T,063.4,M,000.11,N,0000.21,K,A*16
$HCHDG,276.8,0.0,E,,*22
$GPGSV,3,1,10,26,24,314,43,05,50,071,34,21,41,258,42,25,35,195,38*70
$YXXDR,A,5.9,D,PTCH,A,3.7,D,ROLL*55
$GPGSV,3,2,10,29,84,075,39,18,09,203,34,31,07,271,29,12,09,169,31*7C
$GPGSV,3,3,10,20,54,170,39,02,18,070,30*78
$DATA,IMU,0,3,1,0,EULER,56.125,1.5625,-2.75,ACC,-0.15,-0.02,-0.06,GRAV,0.26,0.47,9.79*79
$GPRMC,230012.2,A,4741.20148,N,12224.26454,W,000.10,079.9,070816,016.4,E,A*25
$IIRMB,A,0.00,R,Gh,X,4720.300000,N,12232.734000,W,21.7,195,-0.04,V*66
$GPGGA,230012.2,4741.20148,N,12224.26454,W,1,10,0.8,-3.7,M,-18.2,M,,*47
$GPVTG,079.9,T,063.4,M,000.10,N,0000.19,K,A*1C
$HCHDG,276.8,0.0,E,,*22
$YXXDR,A,6.0,D,PTCH,A,3.8,D,ROLL*50
$TIROT,-17.5,A*25
$DATA,IMU,0,3,1,0,EULER,56.125,1.5625,-2.75,ACC,-0.17,-0.01,-0.05,GRAV,0.26,0.47,9.79*7B
$GPRMC,230012.3,A,4741.20148,N,12224.26454,W,000.13,079.9,070816,016.4,E,A*27
$IIRMB,A,0.00,R,Gh,X,4720.300000,N,12232.734000,W,21.7,195,-0.06,V*64
$GPGGA,230012.3,4741.20148,N,12224.26454,W,1,10,0.8,-3.7,M,-18.2,M,,*46
$GPVTG,079.9,T,063.4,M,000.13,N,0000.23,K,A*16
$DATA,env,P,968.9609375,T,24.6*75
$HCHDG,276.7,0.0,E,,*2D
$YXXDR,A,6.0,D,PTCH,A,4.0,D,ROLL*5F
$DATA,IMU,0,3,1,0,EULER,56.125,1.5625,-2.75,ACC,-0.17,-0.03,-0.04,GRAV,0.26,0.47,9.79*78
$GPRMC,230012.4,A,4741.20148,N,12224.26454,W,000.12,079.9,070816,016.4,E,A*21
$IIRMB,A,0.00,R,Gh,X,4720.300000,N,12232.734000,W,21.7,195,-0.05,V*67
$GPGGA,230012.4,4741.20148,N,12224.26454,W,1,10,0.8,-3.7,M,-18.2,M,,*41
$GPVTG,079.9,T,063.4,M,000.12,N,0000.22,K,A*16
$HCHDG,276.7,0.0,E,,*2D
$YXXDR,A,6.0,D,PTCH,A,4.1,D,ROLL*5E
$DATA,IMU,0,3,1,0,EULER,56.125,1.5625,-2.75,ACC,-0.18,-0.01,-0.03,GRAV,0.26,0.47,9.79*72
$GPRMC,230012.5,A,4741.20148,N,12224.26454,W,000.13,079.9,070816,016.4,E,A*21
$IIRMB,A,0.00,R,Gh,X,4720.300000,N,12232.734000,W,21.7,195,-0.06,V*64
$GPGGA,230012.5,4741.20148,N,12224.26454,W,1,10,0.8,-3.7,M,-18.2,M,,*40
$GPVTG,079.9,T,063.4,M,000.13,N,0000.25,K,A*10
$HCHDG,276.7,0.0,E,,*2D
$GPRMC,230012.6,A,4741.20148,N,12224.26454,W,000.12,079.9,070816,016.4,E,A*23
$IIRMB,A,0.00,R,Gh,X,4720.300000,N,12232.734000,W,21.7,195,-0.05,V*67
$YXXDR,A,6.0,D,PTCH,A,4.0,D,ROLL*5F
$GPGGA,230012.6,4741.20148,N,12224.26454,W,1,10,0.8,-3.7,M,-18.2,M,,*43
$GPVTG,079.9,T,063.4,M,000.12,N,0000.23,K,A*17
$DATA,IMU,0,3,1,0,EULER,56.125,1.5625,-2.75,ACC,-0.2,-0.01,-0.04,GRAV,0.26,0.47,9.79*4E
$HCHDG,276.7,0.0,E,,*2D
$GPRMC,230012.7,A,4741.20148,N,12224.26454,W,000.15,079.9,070816,016.4,E,A*25
$IIRMB,A,0.00,R,Gh,X,4720.300000,N,12232.734000,W,21.7,195,-0.06,V*64
$YXXDR,A,5.8,D,PTCH,A,3.9,D,ROLL*5A
$GPGGA,230012.7,4741.20148,N,12224.26454,W,1,10,0.8,-3.7,M,-18.2,M,,*42
$GPVTG,079.9,T,063.4,M,000.15,N,0000.27,K,A*14
$DATA,IMU,0,3,1,0,EULER,56.125,1.5625,-2.75,ACC,-0.22,-0.01,-0.05,GRAV,0.26,0.47,9.79*7D
$HCHDG,276.8,0.0,E,,*22
$GPRMC,230012.8,A,4741.20148,N,12224.26454,W,000.13,079.9,070816,016.4,E,A*2C
$IIRMB,A,0.00,R,Gh,X,4720.300000,N,12232.734000,W,21.7,195,-0.06,V*64
$YXXDR,A,5.8,D,PTCH,A,3.9,D,ROLL*5A
$GPGGA,230012.8,4741.20148,N,12224.26454,W,1,10,0.8,-3.7,M,-18.2,M,,*4D
$GPVTG,079.9,T,063.4,M,000.13,N,0000.24,K,A*11
$DATA,IMU,0,3,1,0,EULER,56.125,1.5625,-2.75,ACC,-0.19,-0.02,-0.08,GRAV,0.26,0.47,9.79*7B
$HCHDG,276.8,0.0,E,,*22
$GPRMC,230012.9,A,4741.20148,N,12224.26454,W,000.13,079.9,070816,016.4,E,A*2D
$IIRMB,A,0.00,R,Gh,X,4720.300000,N,12232.734000,W,21.7,195,-0.06,V*64
$YXXDR,A,5.8,D,PTCH,A,3.5,D,ROLL*56
$GPGGA,230012.9,4741.20148,N,12224.26454,W,1,10,0.8,-3.8,M,-18.2,M,,*43
$GPVTG,079.9,T,063.4,M,000.13,N,0000.24,K,A*11
$DATA,IMU,0,3,1,0,EULER,56.125,1.5625,-2.75,ACC,0.05,-0.04,0.1,GRAV,0.26,0.47,9.79*49
$HCHDG,276.8,0.0,E,,*22
$GPRMC,230013.0,A,4741.20150,N,12224.26453,W,000.11,079.9,070816,016.4,E,A*29
$IIRMB,A,0.00,R,Gh,X,4720.300000,N,12232.734000,W,21.7,195,-0.05,V*67
$YXXDR,A,5.7,D,PTCH,A,3.5,D,ROLL*59
$GPGGA,230013.0,4741.20150,N,12224.26453,W,1,10,0.8,-3.8,M,-18.2,M,,*45
$GPVTG,079.9,T,063.4,M,000.11,N,0000.21,K,A*16
$GPGSA,A,3,26,05,21,25,29,18,31,12,20,02,,,1.4,0.8,1.1*39
$DATA,IMU,0,3,1,0,EULER,56.125,1.5625,-2.75,ACC,-0.21,-0.01,-0.12,GRAV,0.26,0.47,9.79*78
$HCHDG,276.8,0.0,E,,*22
$GPRMC,230013.1,A,4741.20150,N,12224.26453,W,000.10,079.9,070816,016.4,E,A*29
$IIRMB,A,0.00,R,Gh,X,4720.300000,N,12232.734000,W,21.7,195,-0.04,V*66
$YXXDR,A,5.7,D,PTCH,A,3.5,D,ROLL*59
$GPGGA,230013.1,4741.20150,N,12224.26453,W,1,10,0.8,-3.8,M,-18.2,M,,*44
$GPVTG,079.9,T,063.4,M,000.10,N,0000.19,K,A*1C
$GPGSV,3,1,10,26,24,314,43,05,50,071,33,21,41,258,41,25,35,195,38*74
$DATA,IMU,0,3,1,0,EULER,56.125,1.5625,-2.75,ACC,-0.17,0,-0.13,GRAV,0.26,0.47,9.79*7E
$GPGSV,3,2,10,29,84,075,39,18,09,203,34,31,07,271,29,12,09,169,31*7C
$GPGSV,3,3,10,20,54,170,39,02,17,070,30*77
$HCHDG,276.7,0.0,E,,*2D
$GPRMC,230013.2,A,4741.20150,N,12224.26453,W,000.09,079.9,070816,016.4,E,A*22
$IIRMB,A,0.00,R,Gh,X,4720.300000,N,12232.734000,W,21.7,195,-0.04,V*66
$YXXDR,A,5.7,D,PTCH,A,3.5,D,ROLL*59
$GPGGA,230013.2,4741.20150,N,12224.26453,W,1,10,0.8,-3.8,M,-18.2,M,,*47
$GPVTG,079.9,T,063.4,M,000.09,N,0000.17,K,A*1A
$DATA,IMU,0,3,1,0,EULER,56.125,1.5625,-2.75,ACC,-0.21,0,-0.12,GRAV,0.26,0.47,9.79*7A
$HCHDG,276.7,0.0,E,,*2D
