$GPRMC,030000.7,A,4741.25050,N,12224.28066,W,003.05,184.0,090816,016.4,E,A*24
$IIRMB,A,0.00,R,Gh,X,4720.300000,N,12232.734000,W,21.7,195,2.99,V*4D
$GPGGA,030000.7,4741.25050,N,12224.28066,W,1,10,0.9,-7.6,M,-18.2,M,,*41
$GPVTG,184.0,T,167.5,M,003.05,N,0005.64,K,A*1A
$HCHDG,169.3,0.0,E,,*24
$YXXDR,A,5.3,D,PTCH,A,-0.4,D,ROLL*72
$DATA,IMU,0,3,1,0,EULER,68,-4.125,-2.125,ACC,0.15,0.2,0.35,GRAV,-0.7,0.37,9.77*48
$GPRMC,030000.8,A,4741.25036,N,12224.28065,W,003.13,184.2,090816,016.4,E,A*2D
$IIRMB,A,0.00,R,Gh,X,4720.300000,N,12232.734000,W,21.7,195,3.07,V*4B
$HCHDG,169.2,0.0,E,,*25
$GPGGA,030000.8,4741.25036,N,12224.28065,W,1,10,0.9,-7.6,M,-18.2,M,,*4D
$YXXDR,A,5.1,D,PTCH,A,-0.3,D,ROLL*77
$GPVTG,184.2,T,167.7,M,003.13,N,0005.79,K,A*11
$DATA,IMU,0,3,1,0,EULER,68,-3.875,-2.1875,ACC,-0.07,0,0.26,GRAV,-0.66,0.37,9.77*79
$GPRMC,030000.9,A,4741.25027,N,12224.28066,W,003.16,184.2,090816,016.4,E,A*2A
$IIRMB,A,0.00,R,Gh,X,4720.300000,N,12232.734000,W,21.7,195,3.10,V*4D
$HCHDG,169.3,0.0,E,,*24
$GPGGA,030000.9,4741.25027,N,12224.28066,W,1,10,0.9,-7.6,M,-18.2,M,,*4F
$YXXDR,A,5.3,D,PTCH,A,-0.3,D,ROLL*75
$GPVTG,184.2,T,167.8,M,003.16,N,0005.84,K,A*19
$DATA,IMU,0,3,1,0,EULER,67.9375,-3.625,-2.1875,ACC,0.33,0.09,0.29,GRAV,-0.62,0.38,9.77*52
$GPRMC,030001.0,A,4741.25018,N,12224.28067,W,003.24,184.4,090816,016.4,E,A*28
$IIRMB,A,0.00,R,Gh,X,4720.300000,N,12232.734000,W,21.7,195,3.18,V*45
$HCHDG,169.4,0.0,E,,*23
$GPGGA,030001.0,4741.25018,N,12224.28067,W,1,10,0.9,-7.6,M,-18.2,M,,*4A
$YXXDR,A,5.4,D,PTCH,A,-0.1,D,ROLL*70
$GPVTG,184.4,T,168.0,M,003.24,N,0005.99,K,A*15
$DATA,env,P,968.484375,T,23.84*76
$GPGSA,A,3,18,21,16,10,27,15,08,32,24,14,,,1.4,0.9,1.1*39
$IIMWV,187,R,06.8,N,A*13
$DATA,IMU,0,3,1,0,EULER,67.9375,-3.375,-2.25,ACC,0.33,0.14,0.31,GRAV,-0.58,0.38,9.78*5D
$GPRMC,030001.1,A,4741.25008,N,12224.28069,W,003.25,184.6,090816,016.4,E,A*25
$IIRMB,A,0.00,R,Gh,X,4720.300000,N,12232.734000,W,21.7,195,3.19,V*44
$IIMWV,188,T,10.5,N,A*10
$HCHDG,169.1,0.0,E,,*26
$YXXDR,A,5.3,D,PTCH,A,0.0,D,ROLL*5B
$GPGGA,030001.1,4741.25008,N,12224.28069,W,1,10,0.9,-7.6,M,-18.2,M,,*44
$GPVTG,184.6,T,168.2,M,003.25,N,0006.02,K,A*15
$GPGSV,3,1,10,18,62,064,32,21,40,121,42,16,01,242,28,10,77,284,39*7A
$GPGSV,3,2,10,27,51,260,34,15,18,045,28,08,33,306,39,32,35,188,42*7A
$DATA,IMU,0,3,1,0,EULER,67.9375,-3.125,-2.25,ACC,-0.01,0.15,0.41,GRAV,-0.54,0.39,9.78*7D
$GPGSV,3,3,10,24,18,081,32,14,15,195,33*73
$IIRMB,A,0.00,L,,X   ,,,,,021.7,195,,V,A*36
$GPRMC,030001.2,A,4741.25004,N,12224.28069,W,003.27,185.0,090816,016.4,E,A*2F
$IIRMB,A,0.00,R,Gh,X,4720.300000,N,12232.734000,W,21.7,195,3.22,V*4C
$HCHDG,169.2,0.0,E,,*25
$YXXDR,A,5.4,D,PTCH,A,0.0,D,ROLL*5C
$GPGGA,030001.2,4741.25004,N,12224.28069,W,1,10,0.9,-7.6,M,-18.2,M,,*4B
$GPVTG,185.0,T,168.5,M,003.27,N,0006.06,K,A*13
$DATA,IMU,0,3,1,0,EULER,67.9375,-3,-2.25,ACC,0.18,-0.07,0.28,GRAV,-0.51,0.39,9.78*64
$GPRMC,030001.3,A,4741.24990,N,12224.28071,W,003.26,184.8,090816,016.4,E,A*2A
$IIRMB,A,0.00,R,Gh,X,4720.300000,N,12232.734000,W,21.7,195,3.21,V*4F
$HCHDG,169.1,0.0,E,,*26
$GPGGA,030001.3,4741.24990,N,12224.28071,W,1,10,0.9,-7.5,M,-18.2,M,,*45
$YXXDR,A,5.4,D,PTCH,A,0.2,D,ROLL*5E
$GPVTG,184.8,T,168.4,M,003.26,N,0006.04,K,A*18
$IIVHW,,,,,03.7,N,,*1D
$DATA,IMU,0,3,1,0,EULER,67.9375,-2.875,-2.25,ACC,1,0.09,0.21,GRAV,-0.49,0.39,9.78*74
$GPRMC,030001.4,A,4741.24981,N,12224.28072,W,003.29,184.4,090816,016.4,E,A*2D
$IIRMB,A,0.00,R,Gh,X,4720.300000,N,12232.734000,W,21.7,195,3.23,V*4D
$HCHDG,169.1,0.0,E,,*26
$YXXDR,A,5.3,D,PTCH,A,0.3,D,ROLL*58
$GPGGA,030001.4,4741.24981,N,12224.28072,W,1,10,0.9,-7.5,M,-18.2,M,,*41
$GPVTG,184.4,T,168.0,M,003.29,N,0006.09,K,A*12
$IIVLW,07635,N,008.0,N*5C
$DATA,IMU,0,3,1,0,EULER,67.9375,-2.8125,-2.25,ACC,0.93,0,0.21,GRAV,-0.49,0.39,9.78*42
$IIVWR,173,L,06.8,N,,,,*74
$HCHDG,169.0,0.0,E,,*27
$GPRMC,030001.5,A,4741.24976,N,12224.28072,W,003.30,184.3,090816,016.4,E,A*2B
$IIRMB,A,0.00,R,Gh,X,4720.300000,N,12232.734000,W,21.7,195,3.24,V*4A
$GPGGA,030001.5,4741.24976,N,12224.28072,W,1,10,0.9,-7.5,M,-18.2,M,,*48
$YXXDR,A,5.4,D,PTCH,A,0.5,D,ROLL*59
$GPVTG,184.3,T,167.8,M,003.30,N,0006.12,K,A*10
$DATA,IMU,0,3,1,0,EULER,67.9375,-2.8125,-2.25,ACC,0,0.06,0.29,GRAV,-0.48,0.39,9.78*47
$HCHDG,169.0,0.0,E,,*27
$GPRMC,030001.6,A,4741.24962,N,12224.28073,W,003.34,184.4,090816,016.4,E,A*2F
$IIRMB,A,0.00,R,Gh,X,4720.300000,N,12232.734000,W,21.7,195,3.28,V*46
$GPGGA,030001.6,4741.24962,N,12224.28073,W,1,10,0.9,-7.5,M,-18.2,M,,*4F
$YXXDR,A,5.6,D,PTCH,A,0.8,D,ROLL*56
$TIROT,24.2,A*0F
$GPVTG,184.4,T,168.0,M,003.34,N,0006.18,K,A*1E
$DATA,IMU,0,3,1,0,EULER,67.9375,-2.8125,-2.3125,ACC,0.07,0.04,0.01,GRAV,-0.48,0.39,9.78*64
$HCHDG,169.0,0.0,E,,*27
$GPRMC,030001.7,A,4741.24953,N,12224.28074,W,003.33,184.0,090816,016.4,E,A*28
$IIRMB,A,0.00,R,Gh,X,4720.300000,N,12232.734000,W,21.7,195,3.27,V*49
$GPGGA,030001.7,4741.24953,N,12224.28074,W,1,10,0.9,-7.5,M,-18.2,M,,*4B
$YXXDR,A,5.5,D,PTCH,A,1.0,D,ROLL*5C
$GPVTG,184.0,T,167.5,M,003.33,N,0006.17,K,A*18
$DATA,IMU,0,3,1,0,EULER,67.9375,-2.8125,-2.3125,ACC,0.14,0.13,0.13,GRAV,-0.48,0.39,9.78*63
$HCHDG,169.0,0.0,E,,*27
$GPRMC,030001.8,A,4741.24948,N,12224.28073,W,003.30,183.2,090816,016.4,E,A*2C
$IIRMB,A,0.00,R,Gh,X,4720.300000,N,12232.734000,W,21.7,195,3.23,V*4D
$YXXDR,A,5.6,D,PTCH,A,2.0,D,ROLL*5C
$GPGGA,030001.8,4741.24948,N,12224.28073,W,1,10,0.9,-7.5,M,-18.2,M,,*49
$GPVTG,183.2,T,166.8,M,003.30,N,0006.12,K,A*17
$DATA,IMU,0,3,1,0,EULER,68,-2.8125,-2.3125,ACC,-0.83,0.05,0.28,GRAV,-0.48,0.39,9.78*66
$HCHDG,169.1,0.0,E,,*26
$GPRMC,030001.9,A,4741.24934,N,12224.28072,W,003.33,182.6,090816,016.4,E,A*21
$IIRMB,A,0.00,R,Gh,X,4720.300000,N,12232.734000,W,21.7,195,3.25,V*4B
$YXXDR,A,5.6,D,PTCH,A,1.8,D,ROLL*57
$GPGGA,030001.9,4741.24934,N,12224.28072,W,1,10,0.9,-7.5,M,-18.2,M,,*42
$GPVTG,182.6,T,166.2,M,003.33,N,0006.16,K,A*1F
$GPRMC,030002.0,A,4741.24925,N,12224.28073,W,003.30,182.8,090816,016.4,E,A*27
$IIRMB,A,0.00,R,Gh,X,4720.300000,N,12232.734000,W,21.7,195,3.22,V*4C
$GPGGA,030002.0,4741.24925,N,12224.28073,W,1,10,0.9,-7.5,M,-18.2,M,,*49
$GPVTG,182.8,T,166.3,M,003.30,N,0006.11,K,A*14
$HCHDG,169.0,0.0,E,,*27
$DATA,IMU,0,3,1,0,EULER,68,-2.8125,-2.3125,ACC,0.14,0.2,0.14,GRAV,-0.49,0.39,9.78*7C
$GPGSA,A,3,18,21,16,10,27,15,08,32,24,14,,,1.4,0.9,1.1*39
$YXXDR,A,5.4,D,PTCH,A,1.8,D,ROLL*55
$DATA,env,P,968.484375,T,23.84*76
$GPRMC,030002.1,A,4741.24920,N,12224.28074,W,003.29,182.6,090816,016.4,E,A*22
$IIRMB,A,0.00,R,Gh,X,4720.300000,N,12232.734000,W,21.7,195,3.21,V*4F
$GPGGA,030002.1,4741.24920,N,12224.28074,W,1,10,0.9,-7.4,M,-18.2,M,,*4B
$GPVTG,182.6,T,166.2,M,003.29,N,0006.10,K,A*12
$DATA,IMU,0,3,1,0,EULER,68.0625,-2.875,-2.3125,ACC,-0.01,0.07,0.14,GRAV,-0.49,0.39,9.78*7B
$GPGSV,3,1,10,18,62,064,32,21,40,121,43,16,01,242,29,10,77,284,38*7B
$HCHDG,169.1,0.0,E,,*26
$GPGSV,3,2,10,27,51,260,36,15,18,045,33,08,33,306,38,32,35,188,43*72
$IIMTW,+12.0,C*3B
$YXXDR,A,5.4,D,PTCH,A,1.7,D,ROLL*5A
$GPGSV,3,3,10,24,18,081,33,14,15,195,35*74
$GPRMC,030002.2,A,4741.24916,N,12224.28074,W,003.30,183.1,090816,016.4,E,A*2A
$IIRMB,A,0.00,R,Gh,X,4720.300000,N,12232.734000,W,21.7,195,3.23,V*4D
$GPGGA,030002.2,4741.24916,N,12224.28074,W,1,10,0.9,-7.4,M,-18.2,M,,*4D
$IIMWV,185,R,06.8,N,A*11
$GPVTG,183.1,T,166.7,M,003.30,N,0006.11,K,A*18
$HCHDG,169.1,0.0,E,,*26
$DATA,IMU,0,3,1,0,EULER,68.125,-2.9375,-2.3125,ACC,0.12,-0.02,0.31,GRAV,-0.5,0.39,9.78*46
$YXXDR,A,5.6,D,PTCH,A,1.5,D,ROLL*5A
$IIMWV,185,T,10.4,N,A*1C
$GPRMC,030002.3,A,4741.24911,N,12224.28075,W,003.29,183.2,090816,016.4,E,A*26
$IIRMB,A,0.00,R,Gh,X,4720.300000,N,12232.734000,W,21.7,195,3.22,V*4C
$GPGGA,030002.3,4741.24911,N,12224.28075,W,1,10,0.9,-7.4,M,-18.2,M,,*4A
$GPVTG,183.2,T,166.8,M,003.29,N,0006.10,K,A*1D
$HCHDG,169.4,0.0,E,,*23
$DATA,IMU,0,3,1,0,EULER,68.1875,-3,-2.3125,ACC,0.19,-0.04,0.19,GRAV,-0.52,0.4,9.78*57
$YXXDR,A,5.5,D,PTCH,A,1.3,D,ROLL*5F
$IIRMB,A,0.00,L,,X   ,,,,,021.7,195,,V,A*36
$GPRMC,030002.4,A,4741.24907,N,12224.28075,W,003.28,182.9,090816,016.4,E,A*2D
$IIRMB,A,0.00,R,Gh,X,4720.300000,N,12232.734000,W,21.7,195,3.20,V*4E
$GPGGA,030002.4,4741.24907,N,12224.28075,W,1,10,0.9,-7.4,M,-18.2,M,,*4A
$GPVTG,182.9,T,166.5,M,003.28,N,0006.07,K,A*1D
$HCHDG,169.3,0.0,E,,*24
$DATA,IMU,0,3,1,0,EULER,68.25,-3.1875,-2.3125,ACC,0.08,0.08,0.27,GRAV,-0.54,0.4,9.78*54
$YXXDR,A,5.5,D,PTCH,A,1.2,D,ROLL*5E
$GPRMC,030002.5,A,4741.24880,N,12224.28077,W,003.22,182.6,090816,016.4,E,A*25
$IIRMB,A,0.00,R,Gh,X,4720.300000,N,12232.734000,W,21.7,195,3.14,V*49
$GPGGA,030002.5,4741.24880,N,12224.28077,W,1,10,0.9,-7.4,M,-18.2,M,,*47
$GPVTG,182.6,T,166.1,M,003.22,N,0005.96,K,A*17
$HCHDG,169.2,0.0,E,,*25
$IIVHW,,,,,03.6,N,,*1C
$YXXDR,A,5.6,D,PTCH,A,1.2,D,ROLL*5D
$DATA,IMU,0,3,1,0,EULER,68.3125,-3.3125,-2.3125,ACC,-0.11,0.09,0.42,GRAV,-0.57,0.4,9.78*7C
$GPRMC,030002.6,A,4741.24871,N,12224.28077,W,003.22,182.8,090816,016.4,E,A*26
$IIRMB,A,0.00,R,Gh,X,4720.300000,N,12232.734000,W,21.7,195,3.14,V*49
$IIVLW,07635,N,008.0,N*5C
$GPGGA,030002.6,4741.24871,N,12224.28077,W,1,10,0.9,-7.4,M,-18.2,M,,*4A
$GPVTG,182.8,T,166.4,M,003.22,N,0005.96,K,A*1C
$HCHDG,169.5,0.0,E,,*22
$DATA,IMU,0,3,1,0,EULER,68.4375,-3.5,-2.3125,ACC,-0.14,0.1,0.2,GRAV,-0.61,0.4,9.77*4F
$YXXDR,A,5.4,D,PTCH,A,1.2,D,ROLL*5F
$TIROT,38.8,A*08
$GPRMC,030002.7,A,4741.24863,N,12224.28078,W,003.17,182.6,090816,016.4,E,A*23
$IIRMB,A,0.00,R,Gh,X,4720.300000,N,12232.734000,W,21.7,195,3.09,V*45
$GPGGA,030002.7,4741.24863,N,12224.28078,W,1,10,0.9,-7.4,M,-18.2,M,,*47
$GPVTG,182.6,T,166.1,M,003.17,N,0005.87,K,A*11
$HCHDG,169.2,0.0,E,,*25
$DATA,IMU,0,3,1,0,EULER,68.5,-3.6875,-2.3125,ACC,0.1,0.03,0.33,GRAV,-0.64,0.4,9.77*5A
$YXXDR,A,5.6,D,PTCH,A,1.2,D,ROLL*5D
$GPRMC,030002.8,A,4741.24856,N,12224.28076,W,003.18,182.9,090816,016.4,E,A*24
$IIRMB,A,0.00,R,Gh,X,4720.300000,N,12232.734000,W,21.7,195,3.11,V*4C
$GPGGA,030002.8,4741.24856,N,12224.28076,W,1,10,0.9,-7.4,M,-18.2,M,,*40
$GPVTG,182.9,T,166.4,M,003.18,N,0005.89,K,A*1A
$HCHDG,169.4,0.0,E,,*23
$YXXDR,A,5.5,D,PTCH,A,1.0,D,ROLL*5C
$DATA,IMU,0,3,1,0,EULER,68.5,-3.875,-2.3125,ACC,1.19,-0.06,0.15,GRAV,-0.66,0.4,9.77*7A
$GPRMC,030002.9,A,4741.24847,N,12224.28076,W,003.21,182.2,090816,016.4,E,A*24
$IIRMB,A,0.00,R,Gh,X,4720.300000,N,12232.734000,W,21.7,195,3.13,V*4E
$GPGGA,030002.9,4741.24847,N,12224.28076,W,1,10,0.9,-7.4,M,-18.2,M,,*41
$GPVTG,182.2,T,165.8,M,003.21,N,0005.95,K,A*19
$HCHDG,169.5,0.0,E,,*22
$YXXDR,A,5.5,D,PTCH,A,0.8,D,ROLL*55
$DATA,IMU,0,3,1,0,EULER,68.5,-4.0625,-2.3125,ACC,0.04,0.13,0.42,GRAV,-0.69,0.4,9.77*6F
$GPRMC,030003.0,A,4741.24843,N,12224.28076,W,003.24,181.7,090816,016.4,E,A*2B
$IIRMB,A,0.00,R,Gh,X,4720.300000,N,12232.734000,W,21.7,195,3.15,V*48
$GPGGA,030003.0,4741.24843,N,12224.28076,W,1,10,0.9,-7.4,M,-18.2,M,,*4D
$GPVTG,181.7,T,165.3,M,003.24,N,0006.00,K,A*1E
$HCHDG,169.5,0.0,E,,*22
$GPGSA,A,3,18,21,16,10,27,15,08,32,24,14,,,1.4,0.9,1.1*39
$YXXDR,A,5.4,D,PTCH,A,0.5,D,ROLL*59
$DATA,IMU,0,3,1,0,EULER,68.5,-4.25,-2.3125,ACC,0.23,0.1,0.15,GRAV,-0.73,0.4,9.77*56
$DATA,env,P,968.71875,T,23.82*45
$IIVWR,174,L,07.0,N,,,,*7A
$GPRMC,030003.1,A,4741.24829,N,12224.28077,W,003.21,181.9,090816,016.4,E,A*2C
$IIRMB,A,0.00,R,Gh,X,4720.300000,N,12232.734000,W,21.7,195,3.12,V*4F
$GPGGA,030003.1,4741.24829,N,12224.28077,W,1,10,0.9,-7.4,M,-18.2,M,,*41
$GPVTG,181.9,T,165.5,M,003.21,N,0005.94,K,A*1D
$HCHDG,169.6,0.0,E,,*21
$GPGSV,3,1,10,18,62,064,33,21,40,121,44,16,01,242,29,10,77,284,37*72
$YXXDR,A,5.4,D,PTCH,A,0.4,D,ROLL*58
$GPGSV,3,2,10,27,51,260,36,15,18,045,34,08,33,306,37,32,35,188,43*7A
$GPGSV,3,3,10,24,18,081,33,14,15,195,35*74
$DATA,IMU,0,3,1,0,EULER,68.5,-4.375,-2.3125,ACC,0.49,0.11,0.33,GRAV,-0.75,0.4,9.76*5E
$GPRMC,030003.2,A,4741.24825,N,12224.28077,W,003.19,181.7,090816,016.4,E,A*26
$IIRMB,A,0.00,R,Gh,X,4720.300000,N,12232.734000,W,21.7,195,3.10,V*4D
$GPGGA,030003.2,4741.24825,N,12224.28077,W,1,10,0.9,-7.4,M,-18.2,M,,*4E
$GPVTG,181.7,T,165.3,M,003.19,N,0005.90,K,A*1A
$HCHDG,169.9,0.0,E,,*2E
$YXXDR,A,5.4,D,PTCH,A,0.2,D,ROLL*5E
$IIMTW,+12.0,C*3B
$DATA,IMU,0,3,1,0,EULER,68.5625,-4.5,-2.3125,ACC,-0.01,0.12,0.32,GRAV,-0.78,0.4,9.76*45
$GPRMC,030003.3,A,4741.24821,N,12224.28078,W,003.15,181.4,090816,016.4,E,A*23
$IIRMB,A,0.00,R,Gh,X,4720.300000,N,12232.734000,W,21.7,195,3.06,V*4A
$IIMWV,186,R,07.0,N,A*1B
$GPGGA,030003.3,4741.24821,N,12224.28078,W,1,10,0.9,-7.4,M,-18.2,M,,*44
$GPVTG,181.4,T,164.9,M,003.15,N,0005.84,K,A*1B
$HCHDG,169.9,0.0,E,,*2E
$YXXDR,A,5.3,D,PTCH,A,0.1,D,ROLL*5A
$IIMWV,183,T,10.5,N,A*1B
$DATA,IMU,0,3,1,0,EULER,68.625,-4.625,-2.3125,ACC,-0.01,0.09,0.04,GRAV,-0.8,0.4,9.76*4C
$GPRMC,030003.4,A,4741.24816,N,12224.28078,W,003.14,181.9,090816,016.4,E,A*2C
$IIRMB,A,0.00,R,Gh,X,4720.300000,N,12232.734000,W,21.7,195,3.05,V*49
$GPGGA,030003.4,4741.24816,N,12224.28078,W,1,10,0.9,-7.4,M,-18.2,M,,*47
$GPVTG,181.9,T,165.4,M,003.14,N,0005.82,K,A*1D
$HCHDG,170.0,0.0,E,,*2F
$YXXDR,A,5.4,D,PTCH,A,0.0,D,ROLL*5C
$IIRMB,A,0.00,L,,X   ,,,,,021.7,195,,V,A*36
$DATA,IMU,0,3,1,0,EULER,68.6875,-4.75,-2.3125,ACC,0.27,0.11,0.1,GRAV,-0.81,0.4,9.76*66
$GPRMC,030003.5,A,4741.24812,N,12224.28078,W,003.12,181.6,090816,016.4,E,A*20
$IIRMB,A,0.00,R,Gh,X,4720.300000,N,12232.734000,W,21.7,195,3.03,V*4F
$GPGGA,030003.5,4741.24812,N,12224.28078,W,1,10,0.9,-7.4,M,-18.2,M,,*42
$GPVTG,181.6,T,165.2,M,003.12,N,0005.78,K,A*17
$HCHDG,170.0,0.0,E,,*2F
$YXXDR,A,5.4,D,PTCH,A,0.0,D,ROLL*5C
$DATA,IMU,0,3,1,0,EULER,68.75,-4.875,-2.3125,ACC,0.09,-0.08,0.25,GRAV,-0.83,0.4,9.76*4D
$GPRMC,030003.6,A,4741.24804,N,12224.28078,W,003.12,182.1,090816,016.4,E,A*20
$IIRMB,A,0.00,R,Gh,X,4720.300000,N,12232.734000,W,21.7,195,3.04,V*48
$GPGGA,030003.6,4741.24804,N,12224.28078,W,1,10,0.9,-7.4,M,-18.2,M,,*46
$GPVTG,182.1,T,165.6,M,003.12,N,0005.77,K,A*18
$HCHDG,169.9,0.0,E,,*2E
$YXXDR,A,5.5,D,PTCH,A,0.0,D,ROLL*5D
$TIROT,52.9,A*05
$DATA,IMU,0,3,1,0,EULER,68.8125,-4.9375,-2.3125,ACC,-0.08,0.18,0.27,GRAV,-0.84,0.4,9.76*76
$GPRMC,030003.7,A,4741.24795,N,12224.28079,W,003.12,181.9,090816,016.4,E,A*2C
$IIRMB,A,0.00,R,Gh,X,4720.300000,N,12232.734000,W,21.7,195,3.04,V*48
$GPGGA,030003.7,4741.24795,N,12224.28079,W,1,10,0.9,-7.4,M,-18.2,M,,*41
$GPVTG,181.9,T,165.4,M,003.12,N,0005.78,K,A*1E
$HCHDG,169.8,0.0,E,,*2F
$YXXDR,A,5.6,D,PTCH,A,0.0,D,ROLL*5E
$DATA,IMU,0,3,1,0,EULER,68.875,-5,-2.3125,ACC,0.01,0.1,0.27,GRAV,-0.86,0.4,9.76*7B
$GPRMC,030003.8,A,4741.24785,N,12224.28078,W,003.13,182.1,090816,016.4,E,A*29
$IIRMB,A,0.00,R,Gh,X,4720.300000,N,12232.734000,W,21.7,195,3.05,V*49
$GPGGA,030003.8,4741.24785,N,12224.28078,W,1,10,0.9,-7.5,M,-18.2,M,,*4F
$GPVTG,182.1,T,165.6,M,003.13,N,0005.79,K,A*17
$HCHDG,169.9,0.0,E,,*2E
$YXXDR,A,5.6,D,PTCH,A,0.0,D,ROLL*5E
$DATA,IMU,0,3,1,0,EULER,68.875,-5.0625,-2.3125,ACC,0.01,0.09,0.43,GRAV,-0.86,0.4,9.75*6D
$GPRMC,030003.9,A,4741.24775,N,12224.28078,W,003.11,182.0,090816,016.4,E,A*24
$IIRMB,A,0.00,R,Gh,X,4720.300000,N,12232.734000,W,21.7,195,3.03,V*4F
$GPGGA,030003.9,4741.24775,N,12224.28078,W,1,10,0.9,-7.5,M,-18.2,M,,*41
$GPVTG,182.0,T,165.5,M,003.11,N,0005.76,K,A*18
$HCHDG,170.1,0.0,E,,*2E
$YXXDR,A,5.5,D,PTCH,A,-0.2,D,ROLL*72
$DATA,IMU,0,3,1,0,EULER,68.9375,-5.0625,-2.3125,ACC,-0.43,0.14,0.06,GRAV,-0.86,0.4,9.75*79
$GPRMC,030004.0,A,4741.24745,N,12224.28077,W,003.13,181.7,090816,016.4,E,A*20
$IIRMB,A,0.00,R,Gh,X,4720.300000,N,12232.734000,W,21.7,195,3.04,V*48
$GPGGA,030004.0,4741.24745,N,12224.28077,W,1,10,0.9,-7.5,M,-18.2,M,,*43
$GPVTG,181.7,T,165.2,M,003.13,N,0005.79,K,A*16
$HCHDG,169.9,0.0,E,,*2E
$GPGSA,A,3,18,21,16,10,27,15,08,32,24,14,,,1.4,0.9,1.1*39
$YXXDR,A,5.4,D,PTCH,A,-0.2,D,ROLL*73
$IIVHW,,,,,03.6,N,,*1C
$DATA,env,P,968.58984375,T,23.83*71
$DATA,IMU,0,3,1,0,EULER,69,-5.0625,-2.3125,ACC,-0.22,0.19,0.41,GRAV,-0.86,0.4,9.75*57
$GPRMC,030004.1,A,4741.24737,N,12224.28078,W,003.11,181.9,090816,016.4,E,A*27
$IIRMB,A,0.00,R,Gh,X,4720.300000,N,12232.734000,W,21.7,195,3.03,V*4F
$GPGGA,030004.1,4741.24737,N,12224.28078,W,1,10,0.9,-7.5,M,-18.2,M,,*48
$IIVLW,07635,N,008.0,N*5C
$GPVTG,181.9,T,165.5,M,003.11,N,0005.77,K,A*13
$HCHDG,170.1,0.0,E,,*2E
$GPGSV,3,1,10,18,62,064,34,21,40,121,44,16,01,242,27,10,77,284,39*75
$YXXDR,A,5.4,D,PTCH,A,-0.3,D,ROLL*72
$GPGSV,3,2,10,27,51,260,37,15,18,045,33,08,33,306,36,32,35,188,43*7D
$GPGSV,3,3,10,24,18,081,34,14,15,195,35*73
$IIVWR,173,L,06.9,N,,,,*75
$DATA,IMU,0,3,1,0,EULER,69.0625,-5.0625,-2.3125,ACC,-0.96,0,0.38,GRAV,-0.87,0.4,9.75*5E
$GPRMC,030004.2,A,4741.24732,N,12224.28078,W,003.10,182.3,090816,016.4,E,A*29
$IIRMB,A,0.00,R,Gh,X,4720.300000,N,12232.734000,W,21.7,195,3.02,V*4E
$GPGGA,030004.2,4741.24732,N,12224.28078,W,1,10,0.9,-7.5,M,-18.2,M,,*4E
$GPVTG,182.3,T,165.8,M,003.10,N,0005.74,K,A*15
$HCHDG,170.0,0.0,E,,*2F
$YXXDR,A,5.4,D,PTCH,A,-0.4,D,ROLL*75
$GPRMC,030004.3,A,4741.24719,N,12224.28079,W,003.13,182.1,090816,016.4,E,A*21
$IIRMB,A,0.00,R,Gh,X,4720.300000,N,12232.734000,W,21.7,195,3.05,V*49
$DATA,IMU,0,3,1,0,EULER,69.125,-5.0625,-2.3125,ACC,-0.22,0.16,0.21,GRAV,-0.87,0.4,9.75*47
$GPGGA,030004.3,4741.24719,N,12224.28079,W,1,10,0.9,-7.5,M,-18.2,M,,*47
$GPVTG,182.1,T,165.7,M,003.13,N,0005.80,K,A*10
$HCHDG,170.1,0.0,E,,*2E
$YXXDR,A,5.6,D,PTCH,A,-0.4,D,ROLL*77
$IIMTW,+12.0,C*3B
$GPRMC,030004.4,A,4741.24711,N,12224.28079,W,002.84,181.9,090816,016.4,E,A*2A
$IIRMB,A,0.00,R,Gh,X,4720.300000,N,12232.734000,W,21.7,195,2.76,V*4C
$DATA,IMU,0,3,1,0,EULER,69.125,-5.0625,-2.3125,ACC,0.39,0.14,0.14,GRAV,-0.86,0.4,9.75*65
$IIMWV,187,R,06.9,N,A*12
$GPGGA,030004.4,4741.24711,N,12224.28079,W,1,10,0.9,-7.5,M,-18.2,M,,*48
$IIMWV,184,T,10.5,N,A*1C
$GPVTG,181.9,T,165.5,M,002.84,N,0005.26,K,A*1A
$GPRMC,030004.5,A,4741.24703,N,12224.28080,W,003.25,182.3,090816,016.4,E,A*2D
$IIRMB,A,0.00,R,Gh,X,4720.300000,N,12232.734000,W,21.7,195,3.17,V*4A
$HCHDG,170.1,0.0,E,,*2E
$YXXDR,A,5.4,D,PTCH,A,-0.5,D,ROLL*74
$GPGGA,030004.5,4741.24703,N,12224.28080,W,1,10,0.9,-7.5,M,-18.2,M,,*4C
$GPVTG,182.3,T,165.8,M,003.25,N,0006.01,K,A*12
$HCHDG,170.1,0.0,E,,*2E
$YXXDR,A,5.4,D,PTCH,A,-0.7,D,ROLL*76
$DATA,IMU,0,3,1,0,EULER,69.25,-5,-2.3125,ACC,0.01,0.05,0.32,GRAV,-0.85,0.4,9.76*74
$IIRMB,A,0.00,L,,X   ,,,,,021.7,195,,V,A*36
$GPRMC,030004.6,A,4741.24694,N,12224.28081,W,002.81,182.1,090816,016.4,E,A*2D
$IIRMB,A,0.00,R,Gh,X,4720.300000,N,12232.734000,W,21.7,195,2.74,V*4E
$DATA,IMU,0,3,1,0,EULER,69.25,-4.9375,-2.3125,ACC,-0.57,0,0.23,GRAV,-0.84,0.4,9.76*57
$GPGGA,030004.6,4741.24694,N,12224.28081,W,1,10,0.9,-7.5,M,-18.2,M,,*41
$GPVTG,182.1,T,165.7,M,002.81,N,0005.20,K,A*10
$HCHDG,170.0,0.0,E,,*2F
$YXXDR,A,5.5,D,PTCH,A,-0.8,D,ROLL*78
$TIROT,35.0,A*0D
$GPRMC,030004.7,A,4741.24686,N,12224.28081,W,003.20,182.5,090816,016.4,E,A*21
$IIRMB,A,0.00,R,Gh,X,4720.300000,N,12232.734000,W,21.7,195,3.12,V*4F
$GPGGA,030004.7,4741.24686,N,12224.28081,W,1,10,0.9,-7.5,M,-18.2,M,,*43
$DATA,IMU,0,3,1,0,EULER,69.25,-4.875,-2.3125,ACC,0.43,0.02,0.04,GRAV,-0.83,0.4,9.76*63
$GPVTG,182.5,T,166.1,M,003.20,N,0005.93,K,A*13
$HCHDG,170.1,0.0,E,,*2E
$YXXDR,A,5.6,D,PTCH,A,-0.7,D,ROLL*74
$GPRMC,030004.8,A,4741.24684,N,12224.28080,W,003.19,183.0,090816,016.4,E,A*23
$IIRMB,A,0.00,R,Gh,X,4720.300000,N,12232.734000,W,21.7,195,3.12,V*4F
$DATA,IMU,0,3,1,0,EULER,69.25,-4.75,-2.3125,ACC,0.26,0.11,0.05,GRAV,-0.81,0.4,9.76*59
$GPGGA,030004.8,4741.24684,N,12224.28080,W,1,10,0.9,-7.4,M,-18.2,M,,*4E
$HCHDG,170.1,0.0,E,,*2E
$GPVTG,183.0,T,166.6,M,003.19,N,0005.91,K,A*18
$YXXDR,A,5.5,D,PTCH,A,-0.8,D,ROLL*78
$GPRMC,030004.9,A,4741.24672,N,12224.28079,W,003.21,183.4,090816,016.4,E,A*22
$IIRMB,A,0.00,R,Gh,X,4720.300000,N,12232.734000,W,21.7,195,3.14,V*49
$GPGGA,030004.9,4741.24672,N,12224.28079,W,1,10,0.9,-7.4,M,-18.2,M,,*40
$HCHDG,170.3,0.0,E,,*2C
$DATA,IMU,0,3,1,0,EULER,69.25,-4.6875,-2.3125,ACC,-0.23,0.03,0.13,GRAV,-0.8,0.4,9.76*4A
$GPVTG,183.4,T,167.0,M,003.21,N,0005.94,K,A*15
$YXXDR,A,5.5,D,PTCH,A,-0.8,D,ROLL*78
$GPRMC,030005.0,A,4741.24664,N,12224.28080,W,003.15,183.4,090816,016.4,E,A*2C
$IIRMB,A,0.00,R,Gh,X,4720.300000,N,12232.734000,W,21.7,195,3.08,V*44
$GPGGA,030005.0,4741.24664,N,12224.28080,W,1,10,0.9,-7.4,M,-18.2,M,,*49
$HCHDG,170.1,0.0,E,,*2E
$GPVTG,183.4,T,166.9,M,003.15,N,0005.83,K,A*1C
$DATA,IMU,0,3,1,0,EULER,69.25,-4.5625,-2.3125,ACC,0.33,-0.04,0.27,GRAV,-0.77,0.4,9.76*7B
$GPGSA,A,3,18,21,16,10,27,15,08,32,24,14,,,1.4,0.9,1.1*39
$YXXDR,A,5.5,D,PTCH,A,-0.8,D,ROLL*78
$DATA,env,P,968.67578125,T,23.83*75
$GPRMC,030005.1,A,4741.24656,N,12224.28082,W,003.14,184.1,090816,016.4,E,A*2D
$IIRMB,A,0.00,R,Gh,X,4720.300000,N,12232.734000,W,21.7,195,3.08,V*44
$GPGGA,030005.1,4741.24656,N,12224.28082,W,1,10,0.9,-7.4,M,-18.2,M,,*4B
$HCHDG,170.3,0.0,E,,*2C
$GPVTG,184.1,T,167.7,M,003.14,N,0005.81,K,A*12
$GPGSV,3,1,10,18,62,064,34,21,40,121,44,16,01,242,26,10,77,284,39*74
$YXXDR,A,5.6,D,PTCH,A,-0.7,D,ROLL*74
$DATA,IMU,0,3,1,0,EULER,69.25,-4.4375,-2.3125,ACC,0.24,0.05,0.25,GRAV,-0.75,0.4,9.76*50
$GPGSV,3,2,10,27,51,260,36,15,18,045,32,08,33,306,36,32,35,188,44*7A
$GPGSV,3,3,10,24,18,081,37,14,15,195,34*71
$GPRMC,030005.2,A,4741.24647,N,12224.28082,W,003.16,183.6,090816,016.4,E,A*2C
$IIRMB,A,0.00,R,Gh,X,4720.300000,N,12232.734000,W,21.7,195,3.09,V*45
$IIVHW,,,198,M,03.4,N,,*63
$GPGGA,030005.2,4741.24647,N,12224.28082,W,1,10,0.9,-7.4,M,-18.2,M,,*48
$HCHDG,170.4,0.0,E,,*2B
$GPVTG,183.6,T,167.1,M,003.16,N,0005.85,K,A*12
$YXXDR,A,5.4,D,PTCH,A,-0.5,D,ROLL*74
$DATA,IMU,0,3,1,0,EULER,69.25,-4.3125,-2.375,ACC,-0.46,0.08,0.37,GRAV,-0.73,0.4,9.77*44
$IIVLW,07635,N,008.0,N*5C
$GPRMC,030005.3,A,4741.24642,N,12224.28083,W,003.17,184.5,090816,016.4,E,A*2C
$IIRMB,A,0.00,R,Gh,X,4720.300000,N,12232.734000,W,21.7,195,3.11,V*4C
$GPGGA,030005.3,4741.24642,N,12224.28083,W,1,10,0.9,-7.4,M,-18.2,M,,*4D
$IIVWR,175,L,07.1,N,,,,*7A
$HCHDG,170.3,0.0,E,,*2C
$GPVTG,184.5,T,168.0,M,003.17,N,0005.88,K,A*14
$YXXDR,A,5.4,D,PTCH,A,-0.4,D,ROLL*75
$DATA,IMU,0,3,1,0,EULER,69.25,-4.1875,-2.375,ACC,0.17,0.03,0.29,GRAV,-0.72,0.4,9.77*66
$GPRMC,030005.4,A,4741.24630,N,12224.28084,W,002.74,183.7,090816,016.4,E,A*28
$IIRMB,A,0.00,R,Gh,X,4720.300000,N,12232.734000,W,21.7,195,2.68,V*43
$GPGGA,030005.4,4741.24630,N,12224.28084,W,1,10,0.9,-7.4,M,-18.2,M,,*48
$HCHDG,170.3,0.0,E,,*2C
$GPVTG,183.7,T,167.2,M,002.74,N,0005.07,K,A*1F
$YXXDR,A,5.5,D,PTCH,A,-0.2,D,ROLL*72
$DATA,IMU,0,3,1,0,EULER,69.25,-4.125,-2.375,ACC,0.38,0.07,0.22,GRAV,-0.7,0.4,9.77*6B
$GPRMC,030005.5,A,4741.24622,N,12224.28084,W,002.81,184.2,090816,016.4,E,A*22
$IIRMB,A,0.00,R,Gh,X,4720.300000,N,12232.734000,W,21.7,195,2.76,V*4C
$GPGGA,030005.5,4741.24622,N,12224.28084,W,1,10,0.9,-7.4,M,-18.2,M,,*4A
$GPVTG,184.2,T,167.8,M,002.81,N,0005.21,K,A*19
$HCHDG,170.4,0.0,E,,*2B
$IIMTW,+12.0,C*3B
$YXXDR,A,5.5,D,PTCH,A,-0.1,D,ROLL*71
$DATA,IMU,0,3,1,0,EULER,69.25,-4.0625,-2.375,ACC,0.5,0.09,0.37,GRAV,-0.69,0.4,9.77*50
$GPRMC,030005.6,A,4741.24613,N,12224.28086,W,002.84,184.3,090816,016.4,E,A*25
$IIRMB,A,0.00,R,Gh,X,4720.300000,N,12232.734000,W,21.7,195,2.79,V*43
$IIMWV,185,R,07.1,N,A*19
$GPGGA,030005.6,4741.24613,N,12224.28086,W,1,10,0.9,-7.4,M,-18.2,M,,*49
$HCHDG,170.1,0.0,E,,*2E
$GPVTG,184.3,T,167.9,M,002.84,N,0005.26,K,A*1B
$YXXDR,A,5.6,D,PTCH,A,0.0,D,ROLL*5E
$TIROT,11.6,A*0D
$DATA,IMU,0,3,1,0,EULER,69.25,-3.9375,-2.375,ACC,-0.66,0.01,0.14,GRAV,-0.68,0.4,9.77*4E
$GPRMC,030005.7,A,4741.24605,N,12224.28087,W,002.88,184.6,090816,016.4,E,A*2B
$IIRMB,A,0.00,R,Gh,X,4720.300000,N,12232.734000,W,21.7,195,2.83,V*46
$GPGGA,030005.7,4741.24605,N,12224.28087,W,1,10,0.9,-7.4,M,-18.2,M,,*4E
$HCHDG,170.2,0.0,E,,*2D
$GPVTG,184.6,T,168.2,M,002.88,N,0005.34,K,A*15
$YXXDR,A,5.5,D,PTCH,A,0.0,D,ROLL*5D
$DATA,IMU,0,3,1,0,EULER,69.25,-3.875,-2.375,ACC,-0.02,0.12,0.08,GRAV,-0.67,0.41,9.77*4F
$GPRMC,030005.8,A,4741.24596,N,12224.28082,W,002.83,184.9,090816,016.4,E,A*2C
$IIRMB,A,0.00,R,Gh,X,4720.300000,N,12232.734000,W,21.7,195,2.78,V*42
$GPGGA,030005.8,4741.24596,N,12224.28082,W,1,10,0.9,-7.4,M,-18.2,M,,*4D
$HCHDG,170.3,0.0,E,,*2C
$GPVTG,184.9,T,168.4,M,002.83,N,0005.24,K,A*16
$YXXDR,A,5.5,D,PTCH,A,0.0,D,ROLL*5D
$DATA,IMU,0,3,1,0,EULER,69.25,-3.875,-2.375,ACC,-0.06,-0.01,0.14,GRAV,-0.66,0.41,9.77*68
$GPRMC,030005.9,A,4741.24592,N,12224.28083,W,002.79,184.5,090816,016.4,E,A*21
$IIRMB,A,0.00,R,Gh,X,4720.300000,N,12232.734000,W,21.7,195,2.74,V*4E
$GPGGA,030005.9,4741.24592,N,12224.28083,W,1,10,0.9,-7.4,M,-18.2,M,,*49
$HCHDG,170.3,0.0,E,,*2C
$GPVTG,184.5,T,168.0,M,002.79,N,0005.17,K,A*1B
$YXXDR,A,5.5,D,PTCH,A,0.0,D,ROLL*5D
$DATA,IMU,0,3,1,0,EULER,69.25,-3.8125,-2.375,ACC,-0.07,-0.11,0.28,GRAV,-0.66,0.41,9.77*53
$GPRMC,030006.0,A,4741.24581,N,12224.28084,W,003.10,184.8,090816,016.4,E,A*2D
$IIRMB,A,0.00,R,Gh,X,4720.300000,N,12232.734000,W,21.7,195,3.05,V*49
$GPGGA,030006.0,4741.24581,N,12224.28084,W,1,10,0.9,-7.4,M,-18.2,M,,*46
$HCHDG,170.1,0.0,E,,*2E
$GPVTG,184.8,T,168.4,M,003.10,N,0005.73,K,A*1E
$GPGSA,A,3,18,21,16,10,27,15,08,32,24,14,,,1.4,0.9,1.1*39
$YXXDR,A,5.6,D,PTCH,A,0.2,D,ROLL*5C
$IIMWV,183,T,10.6,N,A*18
$DATA,env,P,968.58984375,T,23.83*71
$DATA,IMU,0,3,1,0,EULER,69.25,-3.8125,-2.375,ACC,0.29,0.11,0.24,GRAV,-0.65,0.41,9.77*50
$GPRMC,030006.1,A,4741.24573,N,12224.28086,W,003.02,185.6,090816,016.4,E,A*2F
$IIRMB,A,0.00,R,Gh,X,4720.300000,N,12232.734000,W,21.7,195,2.98,V*4C
$GPGGA,030006.1,4741.24573,N,12224.28086,W,1,10,0.9,-7.4,M,-18.2,M,,*48
$HCHDG,170.3,0.0,E,,*2C
$GPVTG,185.6,T,169.2,M,003.02,N,0005.59,K,A*1D
$YXXDR,A,5.6,D,PTCH,A,0.3,D,ROLL*5D
$GPGSV,3,1,10,18,62,064,35,21,40,121,44,16,01,242,25,10,77,284,35*7A
$IIRMB,A,0.00,L,,X   ,,,,,021.7,195,,V,A*36
$GPGSV,3,2,10,27,51,260,36,15,18,045,33,08,33,306,35,32,35,188,44*78
$GPGSV,3,3,10,24,18,081,37,14,15,195,33*76
$DATA,IMU,0,3,1,0,EULER,69.25,-3.75,-2.375,ACC,1.01,-0.07,0.09,GRAV,-0.64,0.41,9.77*73
$GPRMC,030006.2,A,4741.24565,N,12224.28087,W,003.03,185.0,090816,016.4,E,A*2D
$IIRMB,A,0.00,R,Gh,X,4720.300000,N,12232.734000,W,21.7,195,2.98,V*4C
$GPGGA,030006.2,4741.24565,N,12224.28087,W,1,10,0.9,-7.4,M,-18.2,M,,*4D
$HCHDG,170.1,0.0,E,,*2E
$GPVTG,185.0,T,168.5,M,003.03,N,0005.61,K,A*17
$YXXDR,A,5.6,D,PTCH,A,0.3,D,ROLL*5D
$DATA,IMU,0,3,1,0,EULER,69.25,-3.75,-2.375,ACC,-0.03,0.05,0.35,GRAV,-0.64,0.41,9.77*7D
$GPRMC,030006.3,A,4741.24560,N,12224.28087,W,003.02,186.0,090816,016.4,E,A*2B
$IIRMB,A,0.00,R,Gh,X,4720.300000,N,12232.734000,W,21.7,195,2.98,V*4C
$GPGGA,030006.3,4741.24560,N,12224.28087,W,1,10,0.9,-7.4,M,-18.2,M,,*49
$HCHDG,170.3,0.0,E,,*2C
$GPVTG,186.0,T,169.6,M,003.02,N,0005.60,K,A*16
$YXXDR,A,5.8,D,PTCH,A,0.4,D,ROLL*54
$IIVHW,,,198,M,03.4,N,,*63
$DATA,IMU,0,3,1,0,EULER,69.25,-3.75,-2.4375,ACC,-0.3,0.09,0,GRAV,-0.64,0.41,9.77*5D
$GPRMC,030006.4,A,4741.24548,N,12224.28089,W,002.99,185.0,090816,016.4,E,A*28
$IIRMB,A,0.00,R,Gh,X,4720.300000,N,12232.734000,W,21.7,195,2.94,V*40
$IIVLW,07635,N,008.0,N*5C
$GPGGA,030006.4,4741.24548,N,12224.28089,W,1,10,0.9,-7.4,M,-18.2,M,,*4A
$HCHDG,170.4,0.0,E,,*2B
$GPVTG,185.0,T,168.6,M,002.99,N,0005.54,K,A*10
$YXXDR,A,5.8,D,PTCH,A,0.8,D,ROLL*58
$IIVWR,176,L,07.5,N,,,,*7D
$DATA,IMU,0,3,1,0,EULER,69.25,-3.6875,-2.4375,ACC,-0.21,0.05,0.43,GRAV,-0.64,0.41,9.77*46
$GPRMC,030006.5,A,4741.24540,N,12224.28090,W,003.01,185.8,090816,016.4,E,A*21
$IIRMB,A,0.00,R,Gh,X,4720.300000,N,12232.734000,W,21.7,195,2.97,V*43
$GPGGA,030006.5,4741.24540,N,12224.28090,W,1,10,0.9,-7.4,M,-18.2,M,,*4B
$HCHDG,170.6,0.0,E,,*29
$GPVTG,185.8,T,169.3,M,003.01,N,0005.57,K,A*1F
$YXXDR,A,5.6,D,PTCH,A,0.8,D,ROLL*56
$DATA,IMU,0,3,1,0,EULER,69.25,-3.6875,-2.4375,ACC,0.56,0,0.01,GRAV,-0.63,0.41,9.77*41
$GPRMC,030006.6,A,4741.24532,N,12224.28091,W,002.97,185.0,090816,016.4,E,A*20
$IIRMB,A,0.00,R,Gh,X,4720.300000,N,12232.734000,W,21.7,195,2.92,V*46
$GPGGA,030006.6,4741.24532,N,12224.28091,W,1,10,0.9,-7.4,M,-18.2,M,,*4C
$HCHDG,170.4,0.0,E,,*2B
$GPVTG,185.0,T,168.6,M,002.97,N,0005.49,K,A*12
$YXXDR,A,5.8,D,PTCH,A,0.8,D,ROLL*58
$TIROT,18.8,A*0A
$DATA,IMU,0,3,1,0,EULER,69.25,-3.6875,-2.4375,ACC,0.5,0.08,0.36,GRAV,-0.63,0.41,9.77*55
$GPRMC,030006.7,A,4741.24524,N,12224.28092,W,002.98,184.6,090816,016.4,E,A*2D
$IIRMB,A,0.00,R,Gh,X,4720.300000,N,12232.734000,W,21.7,195,2.93,V*47
$GPGGA,030006.7,4741.24524,N,12224.28092,W,1,10,0.9,-7.4,M,-18.2,M,,*49
$HCHDG,170.5,0.0,E,,*2A
$GPVTG,184.6,T,168.1,M,002.98,N,0005.51,K,A*14
$YXXDR,A,5.5,D,PTCH,A,0.9,D,ROLL*54
$DATA,IMU,0,3,1,0,EULER,69.25,-3.6875,-2.4375,ACC,0.42,0.02,0,GRAV,-0.64,0.41,9.77*40
$GPRMC,030006.8,A,4741.24519,N,12224.28091,W,002.98,185.3,090816,016.4,E,A*2B
$IIRMB,A,0.00,R,Gh,X,4720.300000,N,12232.734000,W,21.7,195,2.93,V*47
$GPGGA,030006.8,4741.24519,N,12224.28091,W,1,10,0.9,-7.5,M,-18.2,M,,*4A
$HCHDG,170.4,0.0,E,,*2B
$GPVTG,185.3,T,168.8,M,002.98,N,0005.51,K,A*19
$YXXDR,A,5.5,D,PTCH,A,0.9,D,ROLL*54
$DATA,IMU,0,3,1,0,EULER,69.25,-3.75,-2.4375,ACC,0.51,0.11,0.15,GRAV,-0.64,0.41,9.77*64
$GPRMC,030006.9,A,4741.24515,N,12224.28091,W,002.98,184.0,090816,016.4,E,A*24
$IIRMB,A,0.00,R,Gh,X,4720.300000,N,12232.734000,W,21.7,195,2.92,V*46
$GPGGA,030006.9,4741.24515,N,12224.28091,W,1,10,0.9,-7.5,M,-18.2,M,,*47
$HCHDG,170.5,0.0,E,,*2A
$GPVTG,184.0,T,167.6,M,002.98,N,0005.52,K,A*19
$YXXDR,A,5.5,D,PTCH,A,0.9,D,ROLL*54
$DATA,IMU,0,3,1,0,EULER,69.25,-3.75,-2.4375,ACC,-0.96,-0.05,0.11,GRAV,-0.65,0.42,9.77*6C
$GPRMC,030007.0,A,4741.24498,N,12224.28092,W,002.96,184.5,090816,016.4,E,A*20
$IIRMB,A,0.00,R,Gh,X,4720.300000,N,12232.734000,W,21.7,195,2.91,V*45
$GPGGA,030007.0,4741.24498,N,12224.28092,W,1,10,0.9,-7.5,M,-18.2,M,,*48
$HCHDG,170.4,0.0,E,,*2B
$GPVTG,184.5,T,168.0,M,002.96,N,0005.48,K,A*10
$YXXDR,A,5.5,D,PTCH,A,0.9,D,ROLL*54
$GPGSA,A,3,18,21,16,10,27,15,08,32,24,14,,,1.4,0.9,1.1*39
$DATA,env,P,968.58984375,T,23.83*71
$IIMTW,+12.0,C*3B
$GPRMC,030007.1,A,4741.24490,N,12224.28094,W,002.96,185.0,090816,016.4,E,A*2B
$IIRMB,A,0.00,R,Gh,X,4720.300000,N,12232.734000,W,21.7,195,2.91,V*45
$DATA,IMU,0,3,1,0,EULER,69.25,-3.8125,-2.4375,ACC,-0.57,0,0.21,GRAV,-0.65,0.42,9.77*68
$GPGGA,030007.1,4741.24490,N,12224.28094,W,1,10,0.9,-7.5,M,-18.2,M,,*47
$HCHDG,170.6,0.0,E,,*29
$GPVTG,185.0,T,168.5,M,002.96,N,0005.49,K,A*10
$IIMWV,181,R,07.5,N,A*19
$YXXDR,A,5.4,D,PTCH,A,0.8,D,ROLL*54
$GPGSV,3,1,10,18,62,064,34,21,40,121,44,16,01,242,25,10,77,284,33*7D
$GPGSV,3,2,10,27,51,260,34,15,18,045,34,08,33,306,34,32,35,188,45*7D
$GPGSV,3,3,10,24,18,081,36,14,15,195,32*76
$IIMWV,183,T,10.9,N,A*17
$GPRMC,030007.2,A,4741.24483,N,12224.28095,W,002.89,185.0,090816,016.4,E,A*25
$IIRMB,A,0.00,R,Gh,X,4720.300000,N,12232.734000,W,21.7,195,2.84,V*41
$GPGGA,030007.2,4741.24483,N,12224.28095,W,1,10,0.9,-7.4,M,-18.2,M,,*46
$HCHDG,170.6,0.0,E,,*29
$DATA,IMU,0,3,1,0,EULER,69.25,-3.875,-2.4375,ACC,0.35,0.07,0.15,GRAV,-0.66,0.42,9.77*58
$YXXDR,A,5.3,D,PTCH,A,0.7,D,ROLL*5C
$GPVTG,185.0,T,168.6,M,002.89,N,0005.36,K,A*15
$IIRMB,A,0.00,L,,X   ,,,,,021.7,195,,V,A*36
$GPRMC,030007.3,A,4741.24475,N,12224.28096,W,002.91,185.0,090816,016.4,E,A*27
$IIRMB,A,0.00,R,Gh,X,4720.300000,N,12232.734000,W,21.7,195,2.86,V*43
$HCHDG,170.6,0.0,E,,*29
$GPGGA,030007.3,4741.24475,N,12224.28096,W,1,10,0.9,-7.4,M,-18.2,M,,*4D
$DATA,IMU,0,3,1,0,EULER,69.25,-3.9375,-2.4375,ACC,0.5,0.16,0.23,GRAV,-0.67,0.42,9.77*5D
$GPVTG,185.0,T,168.6,M,002.91,N,0005.38,K,A*12
$YXXDR,A,5.4,D,PTCH,A,0.5,D,ROLL*59
$GPRMC,030007.4,A,4741.24471,N,12224.28097,W,002.90,185.6,090816,016.4,E,A*22
$IIRMB,A,0.00,R,Gh,X,4720.300000,N,12232.734000,W,21.7,195,2.86,V*43
$HCHDG,170.7,0.0,E,,*28
$GPGGA,030007.4,4741.24471,N,12224.28097,W,1,10,0.9,-7.4,M,-18.2,M,,*4F
$GPVTG,185.6,T,169.1,M,002.90,N,0005.36,K,A*1D
$DATA,IMU,0,3,1,0,EULER,69.25,-4,-2.5,ACC,0.23,-0.05,0.36,GRAV,-0.69,0.43,9.77*5C
$YXXDR,A,5.4,D,PTCH,A,0.5,D,ROLL*59
$IIVHW,,,198,M,03.3,N,,*64
$GPRMC,030007.5,A,4741.24459,N,12224.28099,W,002.91,185.6,090816,016.4,E,A*26
$IIRMB,A,0.00,R,Gh,X,4720.300000,N,12232.734000,W,21.7,195,2.87,V*42
$HCHDG,170.5,0.0,E,,*2A
$GPGGA,030007.5,4741.24459,N,12224.28099,W,1,10,0.9,-7.4,M,-18.2,M,,*4A
$GPVTG,185.6,T,169.1,M,002.91,N,0005.39,K,A*13
$YXXDR,A,5.3,D,PTCH,A,0.3,D,ROLL*58
$IIVLW,07635,N,008.0,N*5C
$DATA,IMU,0,3,1,0,EULER,69.1875,-4.0625,-2.5,ACC,0.41,0.17,0.15,GRAV,-0.7,0.43,9.77*6C
$IIVWR,179,L,07.5,N,,,,*72
$GPRMC,030007.6,A,4741.24451,N,12224.28101,W,002.97,186.1,090816,016.4,E,A*2F
$IIRMB,A,0.00,R,Gh,X,4720.300000,N,12232.734000,W,21.7,195,2.93,V*47
$HCHDG,170.6,0.0,E,,*29
$GPGGA,030007.6,4741.24451,N,12224.28101,W,1,10,0.9,-7.4,M,-18.2,M,,*41
$GPVTG,186.1,T,169.7,M,002.97,N,0005.49,K,A*10
$YXXDR,A,5.1,D,PTCH,A,0.4,D,ROLL*5D
$TIROT,-6.6,A*16
$DATA,IMU,0,3,1,0,EULER,69.1875,-4.25,-2.5,ACC,0.7,-0.06,0.04,GRAV,-0.73,0.43,9.76*47
$GPRMC,030007.7,A,4741.24442,N,12224.28102,W,002.67,185.6,090816,016.4,E,A*24
$IIRMB,A,0.00,R,Gh,X,4720.300000,N,12232.734000,W,21.7,195,2.63,V*48
$HCHDG,170.3,0.0,E,,*2C
$GPGGA,030007.7,4741.24442,N,12224.28102,W,1,10,0.9,-7.4,M,-18.2,M,,*41
$GPVTG,185.6,T,169.2,M,002.67,N,0004.94,K,A*1F
$YXXDR,A,5.2,D,PTCH,A,0.5,D,ROLL*5F
$DATA,IMU,0,3,1,0,EULER,69.1875,-4.375,-2.5,ACC,0.14,0.02,0.14,GRAV,-0.75,0.43,9.76*6D
$GPRMC,030007.8,A,4741.24436,N,12224.28098,W,002.72,185.8,090816,016.4,E,A*20
$IIRMB,A,0.00,R,Gh,X,4720.300000,N,12232.734000,W,21.7,195,2.68,V*43
$HCHDG,170.3,0.0,E,,*2C
$GPGGA,030007.8,4741.24436,N,12224.28098,W,1,10,0.9,-7.5,M,-18.2,M,,*4E
$YXXDR,A,5.4,D,PTCH,A,0.5,D,ROLL*59
$GPVTG,185.8,T,169.3,M,002.72,N,0005.03,K,A*1B
$DATA,IMU,0,3,1,0,EULER,69.1875,-4.5,-2.5,ACC,-0.39,0.07,0.04,GRAV,-0.77,0.43,9.76*4D
$GPRMC,030007.9,A,4741.24432,N,12224.28098,W,002.78,186.3,090816,016.4,E,A*27
$IIRMB,A,0.00,R,Gh,X,4720.300000,N,12232.734000,W,21.7,195,2.75,V*4F
$HCHDG,170.3,0.0,E,,*2C
$GPGGA,030007.9,4741.24432,N,12224.28098,W,1,10,0.9,-7.5,M,-18.2,M,,*4B
$YXXDR,A,5.4,D,PTCH,A,0.5,D,ROLL*59
$GPVTG,186.3,T,169.9,M,002.78,N,0005.14,K,A*15
$DATA,IMU,0,3,1,0,EULER,69.1875,-4.625,-2.5,ACC,0.33,0.08,0.35,GRAV,-0.79,0.43,9.76*6D
$GPRMC,030008.0,A,4741.24428,N,12224.28099,W,002.80,185.9,090816,016.4,E,A*25
$IIRMB,A,0.00,R,Gh,X,4720.300000,N,12232.734000,W,21.7,195,2.76,V*4C
$HCHDG,170.3,0.0,E,,*2C
$GPGGA,030008.0,4741.24428,N,12224.28099,W,1,10,0.9,-7.4,M,-18.2,M,,*46
$YXXDR,A,5.4,D,PTCH,A,0.5,D,ROLL*59
$GPVTG,185.9,T,169.4,M,002.80,N,0005.19,K,A*1B
$GPGSA,A,3,18,21,16,10,27,15,08,32,24,14,,,1.4,0.9,1.1*39
$DATA,IMU,0,3,1,0,EULER,69.1875,-4.75,-2.5,ACC,-0.36,0.06,0.39,GRAV,-0.82,0.43,9.76*70
$DATA,env,P,968.484375,T,23.84*76
$GPRMC,030008.1,A,4741.24424,N,12224.28099,W,002.83,186.0,090816,016.4,E,A*21
$IIRMB,A,0.00,R,Gh,X,4720.300000,N,12232.734000,W,21.7,195,2.79,V*43
$HCHDG,170.3,0.0,E,,*2C
$GPGGA,030008.1,4741.24424,N,12224.28099,W,1,10,0.9,-7.4,M,-18.2,M,,*4B
$YXXDR,A,5.5,D,PTCH,A,0.3,D,ROLL*5E
$GPVTG,186.0,T,169.5,M,002.83,N,0005.23,K,A*1A
$GPGSV,3,1,10,18,62,064,33,21,40,121,43,16,01,242,24,10,77,284,30*7F
$DATA,IMU,0,3,1,0,EULER,69.1875,-4.875,-2.5,ACC,0.07,0.09,0.23,GRAV,-0.83,0.43,9.76*62
$GPGSV,3,2,10,27,51,260,34,15,18,045,34,08,33,306,34,32,35,188,45*7D
$GPGSV,3,3,10,24,18,081,36,14,15,195,31*75
$GPRMC,030008.2,A,4741.24420,N,12224.28100,W,002.85,186.1,090816,016.4,E,A*20
$IIRMB,A,0.00,R,Gh,X,4720.300000,N,12232.734000,W,21.7,195,2.81,V*44
$HCHDG,170.2,0.0,E,,*2D
$GPGGA,030008.2,4741.24420,N,12224.28100,W,1,10,0.9,-7.4,M,-18.2,M,,*4D
$YXXDR,A,5.6,D,PTCH,A,0.3,D,ROLL*5D
$IIMTW,+12.0,C*3B
$GPVTG,186.1,T,169.7,M,002.85,N,0005.28,K,A*14
$DATA,IMU,0,3,1,0,EULER,69.1875,-5,-2.5,ACC,0.21,0.01,0.35,GRAV,-0.85,0.43,9.75*79
$IIMWV,179,R,07.5,N,A*1E
$GPRMC,030008.3,A,4741.24396,N,12224.28104,W,002.82,186.2,090816,016.4,E,A*2B
$IIRMB,A,0.00,R,Gh,X,4720.300000,N,12232.734000,W,21.7,195,2.78,V*42
$HCHDG,170.4,0.0,E,,*2B
$GPGGA,030008.3,4741.24396,N,12224.28104,W,1,10,0.9,-7.4,M,-18.2,M,,*42
$YXXDR,A,5.6,D,PTCH,A,0.0,D,ROLL*5E
$GPVTG,186.2,T,169.8,M,002.82,N,0005.23,K,A*14
$IIMWV,180,T,10.9,N,A*14
$DATA,IMU,0,3,1,0,EULER,69.1875,-5.0625,-2.5,ACC,-0.06,-0.01,0.25,GRAV,-0.86,0.43,9.75*51
$GPRMC,030008.4,A,4741.24389,N,12224.28106,W,002.83,186.4,090816,016.4,E,A*27
$IIRMB,A,0.00,R,Gh,X,4720.300000,N,12232.734000,W,21.7,195,2.80,V*45
$HCHDG,170.4,0.0,E,,*2B
$YXXDR,A,5.6,D,PTCH,A,0.0,D,ROLL*5E
$GPGGA,030008.4,4741.24389,N,12224.28106,W,1,10,0.9,-7.4,M,-18.2,M,,*49
$IIRMB,A,0.00,L,,X   ,,,,,021.7,195,,V,A*36
$GPVTG,186.4,T,170.0,M,002.83,N,0005.25,K,A*15
$DATA,IMU,0,3,1,0,EULER,69.1875,-5.125,-2.5,ACC,0.13,0.02,0.26,GRAV,-0.88,0.43,9.75*6C
$GPRMC,030008.5,A,4741.24385,N,12224.28107,W,002.83,185.9,090816,016.4,E,A*25
$IIRMB,A,0.00,R,Gh,X,4720.300000,N,12232.734000,W,21.7,195,2.79,V*43
$HCHDG,170.2,0.0,E,,*2D
$GPGGA,030008.5,4741.24385,N,12224.28107,W,1,10,0.9,-7.4,M,-18.2,M,,*45
$YXXDR,A,5.6,D,PTCH,A,0.0,D,ROLL*5E
$GPVTG,185.9,T,169.5,M,002.83,N,0005.23,K,A*10
$DATA,IMU,0,3,1,0,EULER,69.1875,-5.25,-2.5,ACC,0.64,0.07,-0.02,GRAV,-0.9,0.43,9.75*4A
$GPRMC,030008.6,A,4741.24381,N,12224.28107,W,002.83,185.8,090816,016.4,E,A*23
$IIRMB,A,0.00,R,Gh,X,4720.300000,N,12232.734000,W,21.7,195,2.79,V*43
$HCHDG,170.2,0.0,E,,*2D
$GPGGA,030008.6,4741.24381,N,12224.28107,W,1,10,0.9,-7.4,M,-18.2,M,,*42
$YXXDR,A,5.6,D,PTCH,A,-0.1,D,ROLL*72
$TIROT,-17.8,A*28
$GPVTG,185.8,T,169.4,M,002.83,N,0005.24,K,A*17
$DATA,IMU,0,3,1,0,EULER,69.1875,-5.375,-2.5,ACC,0.42,0,0.36,GRAV,-0.92,0.43,9.75*49
$GPRMC,030008.7,A,4741.24377,N,12224.28108,W,002.83,186.2,090816,016.4,E,A*2D
$IIRMB,A,0.00,R,Gh,X,4720.300000,N,12232.734000,W,21.7,195,2.79,V*43
$HCHDG,170.0,0.0,E,,*2F
$GPGGA,030008.7,4741.24377,N,12224.28108,W,1,10,0.9,-7.4,M,-18.2,M,,*45
$GPVTG,186.2,T,169.7,M,002.83,N,0005.24,K,A*1D
$YXXDR,A,5.7,D,PTCH,A,-0.1,D,ROLL*73
$DATA,IMU,0,3,1,0,EULER,69.1875,-5.5,-2.5,ACC,-0.12,0.04,0.12,GRAV,-0.94,0.43,9.75*4F
$GPRMC,030008.8,A,4741.24372,N,12224.28108,W,002.83,185.9,090816,016.4,E,A*2F
$IIRMB,A,0.00,R,Gh,X,4720.300000,N,12232.734000,W,21.7,195,2.79,V*43
$HCHDG,169.9,0.0,E,,*2E
$GPGGA,030008.8,4741.24372,N,12224.28108,W,1,10,0.9,-7.4,M,-18.2,M,,*4F
$YXXDR,A,5.7,D,PTCH,A,-0.1,D,ROLL*73
$GPVTG,185.9,T,169.5,M,002.83,N,0005.24,K,A*17
$DATA,IMU,0,3,1,0,EULER,69.1875,-5.5625,-2.5,ACC,-0.53,0,0.5,GRAV,-0.95,0.43,9.75*66
$GPRMC,030008.9,A,4741.24368,N,12224.28108,W,002.83,186.0,090816,016.4,E,A*2F
$IIRMB,A,0.00,R,Gh,X,4720.300000,N,12232.734000,W,21.7,195,2.79,V*43
$HCHDG,170.0,0.0,E,,*2F
$GPGGA,030008.9,4741.24368,N,12224.28108,W,1,10,0.9,-7.4,M,-18.2,M,,*45
$YXXDR,A,5.7,D,PTCH,A,-0.1,D,ROLL*73
$GPVTG,186.0,T,169.5,M,002.83,N,0005.24,K,A*1D
$DATA,IMU,0,3,1,0,EULER,69.1875,-5.625,-2.5,ACC,-0.52,-0.01,0.26,GRAV,-0.96,0.43,9.74*63
$GPRMC,030009.0,A,4741.24359,N,12224.28109,W,002.82,186.0,090816,016.4,E,A*25
$IIRMB,A,0.00,R,Gh,X,4720.300000,N,12232.734000,W,21.7,195,2.78,V*42
$GPGGA,030009.0,4741.24359,N,12224.28109,W,1,10,0.9,-7.4,M,-18.2,M,,*4E
$HCHDG,169.9,0.0,E,,*2E
$YXXDR,A,5.8,D,PTCH,A,-0.1,D,ROLL*7C
$GPVTG,186.0,T,169.6,M,002.82,N,0005.22,K,A*19
$GPGSA,A,3,18,21,16,10,27,15,08,32,24,14,,,1.4,0.9,1.1*39
$IIVHW,,,198,M,03.3,N,,*64
$DATA,env,P,968.67578125,T,23.83*75
$DATA,IMU,0,3,1,0,EULER,69.1875,-5.6875,-2.5625,ACC,-0.07,0.18,0.23,GRAV,-0.97,0.43,9.74*4E
$IIVLW,07635,N,008.0,N*5C
$IIVWR,180,R,07.5,N,,,,*6A
$GPRMC,030009.1,A,4741.24351,N,12224.28109,W,002.83,185.8,090816,016.4,E,A*26
$IIRMB,A,0.00,R,Gh,X,4720.300000,N,12232.734000,W,21.7,195,2.79,V*43
$GPGGA,030009.1,4741.24351,N,12224.28109,W,1,10,0.9,-7.4,M,-18.2,M,,*47
$GPVTG,185.8,T,169.4,M,002.83,N,0005.24,K,A*17
$GPGSV,3,1,10,18,62,064,34,21,40,121,43,16,01,242,25,10,77,284,32*7B
$HCHDG,169.8,0.0,E,,*2F
$YXXDR,A,5.7,D,PTCH,A,-0.4,D,ROLL*76
$GPGSV,3,2,10,27,51,260,34,15,18,045,34,08,33,306,34,32,35,188,45*7D
$GPGSV,3,3,10,24,18,081,36,14,15,195,31*75
$HCHDG,169.9,0.0,E,,*2E
$GPRMC,030009.2,A,4741.24322,N,12224.28113,W,002.81,185.6,090816,016.4,E,A*26
$IIRMB,A,0.00,R,Gh,X,4720.300000,N,12232.734000,W,21.7,195,2.77,V*4D
$GPGGA,030009.2,4741.24322,N,12224.28113,W,1,10,0.9,-7.4,M,-18.2,M,,*4B
$YXXDR,A,5.7,D,PTCH,A,-0.4,D,ROLL*76
$GPVTG,185.6,T,169.2,M,002.81,N,0005.21,K,A*18
$DATA,IMU,0,3,1,0,EULER,69.1875,-5.6875,-2.5625,ACC,0.04,-0.01,0.41,GRAV,-0.97,0.43,9.74*41
$GPRMC,030009.3,A,4741.24314,N,12224.28114,W,002.83,185.5,090816,016.4,E,A*24
$IIRMB,A,0.00,R,Gh,X,4720.300000,N,12232.734000,W,21.7,195,2.79,V*43
$HCHDG,170.0,0.0,E,,*2F
$GPGGA,030009.3,4741.24314,N,12224.28114,W,1,10,0.9,-7.4,M,-18.2,M,,*48
$YXXDR,A,5.5,D,PTCH,A,-0.4,D,ROLL*74
$GPVTG,185.5,T,169.1,M,002.83,N,0005.24,K,A*1F
$DATA,IMU,0,3,1,0,EULER,69.1875,-5.6875,-2.5625,ACC,0.16,0,0.09,GRAV,-0.97,0.43,9.74*4C
$IIMTW,+12.0,C*3B
$GPRMC,030009.4,A,4741.24310,N,12224.28114,W,002.82,185.1,090816,016.4,E,A*22
$IIRMB,A,0.00,R,Gh,X,4720.300000,N,12232.734000,W,21.7,195,2.78,V*42
$HCHDG,169.8,0.0,E,,*2F
$GPGGA,030009.4,4741.24310,N,12224.28114,W,1,10,0.9,-7.4,M,-18.2,M,,*4B
$YXXDR,A,5.6,D,PTCH,A,-0.4,D,ROLL*77
$GPVTG,185.1,T,168.7,M,002.82,N,0005.23,K,A*1A
$DATA,IMU,0,3,1,0,EULER,69.1875,-5.6875,-2.5625,ACC,-0.22,0.01,-0.01,GRAV,-0.97,0.43,9.74*6C
$IIMWV,180,R,07.5,N,A*18
$IIMWV,180,T,10.8,N,A*15
$HCHDG,169.6,0.0,E,,*21
$GPRMC,030009.5,A,4741.24306,N,12224.28115,W,002.83,185.6,090816,016.4,E,A*23
$IIRMB,A,0.00,R,Gh,X,4720.300000,N,12232.734000,W,21.7,195,2.79,V*43
$YXXDR,A,5.7,D,PTCH,A,-0.4,D,ROLL*76
$GPGGA,030009.5,4741.24306,N,12224.28115,W,1,10,0.9,-7.4,M,-18.2,M,,*4C
$GPVTG,185.6,T,169.2,M,002.83,N,0005.23,K,A*18
$DATA,IMU,0,3,1,0,EULER,69.1875,-5.6875,-2.5625,ACC,0.23,-0.07,0.27,GRAV,-0.97,0.43,9.74*42
$IIRMB,A,0.00,L,,X   ,,,,,021.7,195,,V,A*36
$GPRMC,030009.6,A,4741.24302,N,12224.28116,W,002.82,185.7,090816,016.4,E,A*27
$IIRMB,A,0.00,R,Gh,X,4720.300000,N,12232.734000,W,21.7,195,2.78,V*42
$HCHDG,169.4,0.0,E,,*23
$GPGGA,030009.6,4741.24302,N,12224.28116,W,1,10,0.9,-7.4,M,-18.2,M,,*48
$YXXDR,A,5.6,D,PTCH,A,-0.6,D,ROLL*75
$TIROT,-22.9,A*2F
$GPVTG,185.7,T,169.3,M,002.82,N,0005.23,K,A*19
$DATA,IMU,0,3,1,0,EULER,69.1875,-5.625,-2.5625,ACC,-0.01,0.08,0.33,GRAV,-0.97,0.43,9.74*75
$GPRMC,030009.7,A,4741.24299,N,12224.28116,W,002.81,185.9,090816,016.4,E,A*28
$IIRMB,A,0.00,R,Gh,X,4720.300000,N,12232.734000,W,21.7,195,2.77,V*4D
$HCHDG,169.3,0.0,E,,*24
$GPGGA,030009.7,4741.24299,N,12224.28116,W,1,10,0.9,-7.4,M,-18.2,M,,*4A
$YXXDR,A,5.6,D,PTCH,A,-0.5,D,ROLL*76
$GPVTG,185.9,T,169.5,M,002.81,N,0005.20,K,A*11
$DATA,IMU,0,3,1,0,EULER,69.1875,-5.625,-2.5625,ACC,-0.05,0.06,0.34,GRAV,-0.96,0.43,9.74*79
$HCHDG,169.3,0.0,E,,*24
$GPRMC,030009.8,A,4741.24294,N,12224.28118,W,002.79,185.8,090816,016.4,E,A*22
$IIRMB,A,0.00,R,Gh,X,4720.300000,N,12232.734000,W,21.7,195,2.75,V*4F
$YXXDR,A,5.6,D,PTCH,A,-0.4,D,ROLL*77
$GPGGA,030009.8,4741.24294,N,12224.28118,W,1,10,0.9,-7.4,M,-18.2,M,,*46
$GPVTG,185.8,T,169.4,M,002.79,N,0005.16,K,A*13
$DATA,IMU,0,3,1,0,EULER,69.1875,-5.625,-2.5625,ACC,0.4,0.12,0.17,GRAV,-0.97,0.43,9.74*60
$HCHDG,169.1,0.0,E,,*26
$GPRMC,030009.9,A,4741.24286,N,12224.28120,W,002.75,186.1,090816,016.4,E,A*2D
$IIRMB,A,0.00,R,Gh,X,4720.300000,N,12232.734000,W,21.7,195,2.71,V*4B
$YXXDR,A,5.6,D,PTCH,A,-0.4,D,ROLL*77
$GPGGA,030009.9,4741.24286,N,12224.28120,W,1,10,0.9,-7.4,M,-18.2,M,,*4F
$GPVTG,186.1,T,169.7,M,002.75,N,0005.10,K,A*10
$DATA,IMU,0,3,1,0,EULER,69.1875,-5.625,-2.5625,ACC,-0.09,0,0.28,GRAV,-0.96,0.44,9.74*57
$GPRMC,030010.0,A,4741.24257,N,12224.28127,W,002.77,186.7,090816,016.4,E,A*23
$IIRMB,A,0.00,R,Gh,X,4720.300000,N,12232.734000,W,21.7,195,2.74,V*4E
$GPGGA,030010.0,4741.24257,N,12224.28127,W,1,10,0.9,-7.4,M,-18.2,M,,*45
$GPVTG,186.7,T,170.3,M,002.77,N,0005.13,K,A*1B
$HCHDG,168.9,0.0,E,,*2F
$GPGSA,A,3,18,21,16,10,27,15,08,32,24,14,,,1.4,0.9,1.1*39
$YXXDR,A,5.7,D,PTCH,A,-0.4,D,ROLL*76
$DATA,IMU,0,3,1,0,EULER,69.1875,-5.625,-2.5625,ACC,0.48,-0.04,0.31,GRAV,-0.96,0.44,9.74*70
$GPRMC,030010.1,A,4741.24253,N,12224.28128,W,002.77,186.3,090816,016.4,E,A*2D
$IIRMB,A,0.00,R,Gh,X,4720.300000,N,12232.734000,W,21.7,195,2.74,V*4E
$DATA,env,P,968.61328125,T,23.82*71
$GPGGA,030010.1,4741.24253,N,12224.28128,W,1,10,0.9,-7.4,M,-18.2,M,,*4F
$GPVTG,186.3,T,169.9,M,002.77,N,0005.13,K,A*1D
$HCHDG,168.8,0.0,E,,*2E
$GPGSV,3,1,10,18,62,064,36,21,40,121,43,16,01,242,25,10,77,284,32*79
$GPGSV,3,2,10,27,51,260,34,15,18,045,32,08,33,306,34,32,35,188,44*7A
$YXXDR,A,5.7,D,PTCH,A,-0.4,D,ROLL*76
$GPGSV,3,3,10,24,18,081,35,14,15,195,29*7F
$GPRMC,030010.2,A,4741.24242,N,12224.28130,W,002.75,186.8,090816,016.4,E,A*2E
$IIRMB,A,0.00,R,Gh,X,4720.300000,N,12232.734000,W,21.7,195,2.72,V*48
$DATA,IMU,0,3,1,0,EULER,69.125,-5.625,-2.5625,ACC,0.09,0.06,0.33,GRAV,-0.96,0.44,9.74*65
$GPGGA,030010.2,4741.24242,N,12224.28130,W,1,10,0.9,-7.4,M,-18.2,M,,*45
$IIVHW,,,198,M,03.2,N,,*65
$GPVTG,186.8,T,170.3,M,002.75,N,0005.09,K,A*1D
$HCHDG,168.8,0.0,E,,*2E
$YXXDR,A,5.7,D,PTCH,A,-0.4,D,ROLL*76
$IIVLW,07635,N,008.0,N*5C
$GPRMC,030010.3,A,4741.24234,N,12224.28131,W,002.76,186.2,090816,016.4,E,A*26
$IIRMB,A,0.00,R,Gh,X,4720.300000,N,12232.734000,W,21.7,195,2.73,V*49
$DATA,IMU,0,3,1,0,EULER,69.125,-5.5625,-2.5625,ACC,0.18,-0.07,0.53,GRAV,-0.96,0.44,9.74*7A
$GPGGA,030010.3,4741.24234,N,12224.28131,W,1,10,0.9,-7.4,M,-18.2,M,,*44
$GPVTG,186.2,T,169.8,M,002.76,N,0005.12,K,A*1D
$IIVWR,178,L,07.4,N,,,,*72
$HCHDG,168.9,0.0,E,,*2F
$YXXDR,A,5.6,D,PTCH,A,-0.4,D,ROLL*77
$GPRMC,030010.4,A,4741.24230,N,12224.28131,W,002.76,186.5,090816,016.4,E,A*22
$IIRMB,A,0.00,R,Gh,X,4720.300000,N,12232.734000,W,21.7,195,2.73,V*49
$DATA,IMU,0,3,1,0,EULER,69.125,-5.5625,-2.5625,ACC,-0.3,0.01,0.1,GRAV,-0.95,0.44,9.75*73
$GPGGA,030010.4,4741.24230,N,12224.28131,W,1,10,0.9,-7.4,M,-18.2,M,,*47
$GPVTG,186.5,T,170.1,M,002.76,N,0005.11,K,A*18
$HCHDG,168.7,0.0,E,,*21
$YXXDR,A,5.6,D,PTCH,A,-0.5,D,ROLL*76
$GPRMC,030010.5,A,4741.24227,N,12224.28132,W,002.74,186.3,090816,016.4,E,A*22
$IIRMB,A,0.00,R,Gh,X,4720.300000,N,12232.734000,W,21.7,195,2.71,V*4B
$DATA,IMU,0,3,1,0,EULER,69.125,-5.5625,-2.5625,ACC,0.28,0.01,0.14,GRAV,-0.95,0.44,9.75*53
$GPGGA,030010.5,4741.24227,N,12224.28132,W,1,10,0.9,-7.4,M,-18.2,M,,*43
$GPVTG,186.3,T,169.9,M,002.74,N,0005.08,K,A*14
$HCHDG,168.6,0.0,E,,*20
$YXXDR,A,5.8,D,PTCH,A,-0.5,D,ROLL*78
$IIMTW,+12.0,C*3B
$GPRMC,030010.6,A,4741.24211,N,12224.28134,W,002.78,186.5,090816,016.4,E,A*28
$IIRMB,A,0.00,R,Gh,X,4720.300000,N,12232.734000,W,21.7,195,2.75,V*4F
$GPGGA,030010.6,4741.24211,N,12224.28134,W,1,10,0.9,-7.4,M,-18.2,M,,*43
$DATA,IMU,0,3,1,0,EULER,69.125,-5.5,-2.5625,ACC,-0.57,0,0.28,GRAV,-0.94,0.44,9.75*66
$IIMWV,182,R,07.4,N,A*1B
$GPVTG,186.5,T,170.0,M,002.78,N,0005.15,K,A*13
$HCHDG,168.7,0.0,E,,*21
$YXXDR,A,5.8,D,PTCH,A,-0.6,D,ROLL*7B
$TIROT,-5.6,A*15
$GPRMC,030010.7,A,4741.24204,N,12224.28135,W,002.78,186.2,090816,016.4,E,A*2B
$IIRMB,A,0.00,R,Gh,X,4720.300000,N,12232.734000,W,21.7,195,2.75,V*4F
$GPGGA,030010.7,4741.24204,N,12224.28135,W,1,10,0.9,-7.4,M,-18.2,M,,*47
$DATA,IMU,0,3,1,0,EULER,69.125,-5.4375,-2.5625,ACC,-0.35,0.11,0.3,GRAV,-0.93,0.44,9.75*42
$GPVTG,186.2,T,169.8,M,002.78,N,0005.16,K,A*17
$HCHDG,168.6,0.0,E,,*20
$YXXDR,A,5.8,D,PTCH,A,-0.6,D,ROLL*7B
$GPRMC,030010.8,A,4741.24197,N,12224.28134,W,002.77,186.4,090816,016.4,E,A*25
$IIRMB,A,0.00,R,Gh,X,4720.300000,N,12232.734000,W,21.7,195,2.74,V*4E
$DATA,IMU,0,3,1,0,EULER,69.125,-5.4375,-2.5625,ACC,-0.21,0,0.23,GRAV,-0.93,0.44,9.75*5B
$GPGGA,030010.8,4741.24197,N,12224.28134,W,1,10,0.9,-7.3,M,-18.2,M,,*47
$GPVTG,186.4,T,170.0,M,002.77,N,0005.13,K,A*1B
$HCHDG,168.5,0.0,E,,*23
$YXXDR,A,5.8,D,PTCH,A,-0.6,D,ROLL*7B
$GPRMC,030010.9,A,4741.24182,N,12224.28134,W,002.78,185.9,090816,016.4,E,A*21
$IIRMB,A,0.00,R,Gh,X,4720.300000,N,12232.734000,W,21.7,195,2.74,V*4E
$GPGGA,030010.9,4741.24182,N,12224.28134,W,1,10,0.9,-7.3,M,-18.2,M,,*42
$DATA,IMU,0,3,1,0,EULER,69.125,-5.4375,-2.5625,ACC,0.22,0.04,0.14,GRAV,-0.93,0.44,9.75*5B
$GPVTG,185.9,T,169.4,M,002.78,N,0005.15,K,A*10
$HCHDG,168.4,0.0,E,,*22
$YXXDR,A,5.6,D,PTCH,A,-0.5,D,ROLL*76
$GPRMC,030011.0,A,4741.24178,N,12224.28134,W,002.79,185.6,090816,016.4,E,A*22
$IIRMB,A,0.00,R,Gh,X,4720.300000,N,12232.734000,W,21.7,195,2.75,V*4F
$GPGGA,030011.0,4741.24178,N,12224.28134,W,1,10,0.9,-7.3,M,-18.2,M,,*4F
$DATA,IMU,0,3,1,0,EULER,69.125,-5.375,-2.5625,ACC,-0.49,0,0.41,GRAV,-0.92,0.44,9.75*64
$GPVTG,185.6,T,169.1,M,002.79,N,0005.16,K,A*18
$HCHDG,168.4,0.0,E,,*22
$GPGSA,A,3,18,21,16,10,27,15,08,32,24,14,,,1.4,0.9,1.1*39
$YXXDR,A,5.4,D,PTCH,A,-0.5,D,ROLL*74
$IIMWV,181,T,10.6,N,A*1A
$GPRMC,030011.1,A,4741.24167,N,12224.28136,W,002.76,185.7,090816,016.4,E,A*21
$IIRMB,A,0.00,R,Gh,X,4720.300000,N,12232.734000,W,21.7,195,2.72,V*48
$DATA,env,P,968.67578125,T,23.83*75
$GPGGA,030011.1,4741.24167,N,12224.28136,W,1,10,0.9,-7.3,M,-18.2,M,,*42
$GPVTG,185.7,T,169.2,M,002.76,N,0005.12,K,A*11
$DATA,IMU,0,3,1,0,EULER,69.125,-5.375,-2.5625,ACC,0.74,0.01,0.15,GRAV,-0.91,0.44,9.75*6A
$HCHDG,168.3,0.0,E,,*25
$GPGSV,3,1,10,18,62,064,38,21,40,121,42,16,01,242,24,10,77,284,32*77
$YXXDR,A,5.5,D,PTCH,A,-0.4,D,ROLL*74
$GPGSV,3,2,10,27,51,260,36,15,18,045,32,08,33,306,37,32,35,188,44*7B
$IIRMB,A,0.00,L,,X   ,,,,,021.7,195,,V,A*36
$GPGSV,3,3,10,24,18,081,35,14,15,195,30*77
$GPRMC,030011.2,A,4741.24159,N,12224.28137,W,002.80,185.6,090816,016.4,E,A*26
$IIRMB,A,0.00,R,Gh,X,4720.300000,N,12232.734000,W,21.7,195,2.76,V*4C
$GPGGA,030011.2,4741.24159,N,12224.28137,W,1,10,0.9,-7.3,M,-18.2,M,,*4D
$GPVTG,185.6,T,169.2,M,002.80,N,0005.19,K,A*12
$DATA,IMU,0,3,1,0,EULER,69.125,-5.3125,-2.5625,ACC,0.36,0.07,0.1,GRAV,-0.91,0.43,9.75*6C
$HCHDG,168.2,0.0,E,,*24
$YXXDR,A,5.5,D,PTCH,A,-0.4,D,ROLL*74
$GPRMC,030011.3,A,4741.24151,N,12224.28138,W,002.77,185.9,090816,016.4,E,A*27
$IIRMB,A,0.00,R,Gh,X,4720.300000,N,12232.734000,W,21.7,195,2.73,V*49
$GPGGA,030011.3,4741.24151,N,12224.28138,W,1,10,0.9,-7.3,M,-18.2,M,,*4B
$GPVTG,185.9,T,169.5,M,002.77,N,0005.13,K,A*18
$DATA,IMU,0,3,1,0,EULER,69.125,-5.3125,-2.5625,ACC,0.16,-0.03,0.24,GRAV,-0.91,0.43,9.75*70
$HCHDG,168.2,0.0,E,,*24
$YXXDR,A,5.4,D,PTCH,A,-0.2,D,ROLL*73
$IIVHW,,,198,M,03.1,N,,*66
$GPRMC,030011.4,A,4741.24144,N,12224.28139,W,002.80,185.6,090816,016.4,E,A*22
$IIRMB,A,0.00,R,Gh,X,4720.300000,N,12232.734000,W,21.7,195,2.76,V*4C
$GPGGA,030011.4,4741.24144,N,12224.28139,W,1,10,0.9,-7.3,M,-18.2,M,,*49
$IIVLW,07635,N,008.0,N*5C
$GPVTG,185.6,T,169.2,M,002.80,N,0005.19,K,A*12
$DATA,IMU,0,3,1,0,EULER,69.125,-5.3125,-2.5625,ACC,0.55,0.04,0.48,GRAV,-0.9,0.43,9.75*66
$HCHDG,168.1,0.0,E,,*27
$YXXDR,A,5.4,D,PTCH,A,-0.1,D,ROLL*70
$IIVWR,178,L,07.3,N,,,,*75
$GPRMC,030011.5,A,4741.24136,N,12224.28140,W,002.75,185.1,090816,016.4,E,A*25
$IIRMB,A,0.00,R,Gh,X,4720.300000,N,12232.734000,W,21.7,195,2.71,V*4B
$GPGGA,030011.5,4741.24136,N,12224.28140,W,1,10,0.9,-7.3,M,-18.2,M,,*43
$GPVTG,185.1,T,168.7,M,002.75,N,0005.09,K,A*1A
$DATA,IMU,0,3,1,0,EULER,69.125,-5.25,-2.5625,ACC,-0.2,0.05,0.31,GRAV,-0.9,0.43,9.75*74
$HCHDG,168.0,0.0,E,,*26
$YXXDR,A,5.4,D,PTCH,A,0.0,D,ROLL*5C
$GPRMC,030011.6,A,4741.24129,N,12224.28140,W,002.77,184.8,090816,016.4,E,A*22
$IIRMB,A,0.00,R,Gh,X,4720.300000,N,12232.734000,W,21.7,195,2.72,V*48
$GPGGA,030011.6,4741.24129,N,12224.28140,W,1,10,0.9,-7.3,M,-18.2,M,,*4E
$GPVTG,184.8,T,168.3,M,002.77,N,0005.14,K,A*18
$HCHDG,167.8,0.0,E,,*21
$DATA,IMU,0,3,1,0,EULER,69.125,-5.1875,-2.5625,ACC,-0.64,-0.01,0.36,GRAV,-0.89,0.43,9.75*5E
$YXXDR,A,5.4,D,PTCH,A,0.0,D,ROLL*5C
$TIROT,23.5,A*0F
$GPRMC,030011.7,A,4741.24121,N,12224.28141,W,002.72,184.5,090816,016.4,E,A*22
$IIRMB,A,0.00,R,Gh,X,4720.300000,N,12232.734000,W,21.7,195,2.67,V*4C
$GPGGA,030011.7,4741.24121,N,12224.28141,W,1,10,0.9,-7.3,M,-18.2,M,,*46
$GPVTG,184.5,T,168.1,M,002.72,N,0005.03,K,A*14
$HCHDG,167.8,0.0,E,,*21
$DATA,IMU,0,3,1,0,EULER,69.1875,-5.1875,-2.5625,ACC,0,0.09,0.27,GRAV,-0.89,0.43,9.75*47
$YXXDR,A,5.5,D,PTCH,A,0.0,D,ROLL*5D
$GPRMC,030011.8,A,4741.24111,N,12224.28133,W,002.97,184.6,090816,016.4,E,A*23
$IIRMB,A,0.00,R,Gh,X,4720.300000,N,12232.734000,W,21.7,195,2.92,V*46
$GPGGA,030011.8,4741.24111,N,12224.28133,W,1,10,0.9,-7.2,M,-18.2,M,,*4E
$GPVTG,184.6,T,168.1,M,002.97,N,0005.51,K,A*1B
$HCHDG,167.7,0.0,E,,*2E
$DATA,IMU,0,3,1,0,EULER,69.1875,-5.1875,-2.5625,ACC,0.56,-0.04,0.17,GRAV,-0.89,0.43,9.75*49
$YXXDR,A,5.6,D,PTCH,A,0.0,D,ROLL*5E
$GPRMC,030011.9,A,4741.24103,N,12224.28134,W,002.90,184.8,090816,016.4,E,A*2F
$IIRMB,A,0.00,R,Gh,X,4720.300000,N,12232.734000,W,21.7,195,2.85,V*40
$GPGGA,030011.9,4741.24103,N,12224.28134,W,1,10,0.9,-7.2,M,-18.2,M,,*4B
$GPVTG,184.8,T,168.3,M,002.90,N,0005.37,K,A*10
$HCHDG,167.8,0.0,E,,*21
$DATA,IMU,0,3,1,0,EULER,69.25,-5.1875,-2.5625,ACC,0.02,0.14,0.1,GRAV,-0.89,0.43,9.75*5F
$YXXDR,A,5.6,D,PTCH,A,0.0,D,ROLL*5E
$GPRMC,030012.0,A,4741.24100,N,12224.28135,W,002.85,184.4,090816,016.4,E,A*2F
$IIRMB,A,0.00,R,Gh,X,4720.300000,N,12232.734000,W,21.7,195,2.80,V*45
$GPGGA,030012.0,4741.24100,N,12224.28135,W,1,10,0.9,-7.2,M,-18.2,M,,*43
$GPVTG,184.4,T,167.9,M,002.85,N,0005.28,K,A*13
$HCHDG,167.8,0.0,E,,*21
$GPGSA,A,3,18,21,16,10,27,15,08,32,24,14,,,1.4,0.9,1.1*39
$YXXDR,A,5.6,D,PTCH,A,0.0,D,ROLL*5E
$IIMTW,+12.0,C*3B
$DATA,IMU,0,3,1,0,EULER,69.25,-5.1875,-2.5625,ACC,-0.06,-0.02,0.05,GRAV,-0.88,0.43,9.75*69
$GPRMC,030012.1,A,4741.24096,N,12224.28135,W,002.83,184.2,090816,016.4,E,A*20
$IIRMB,A,0.00,R,Gh,X,4720.300000,N,12232.734000,W,21.7,195,2.78,V*42
$DATA,env,P,968.265625,T,23.83*78
$IIMWV,182,R,07.2,N,A*1D
$GPGGA,030012.1,4741.24096,N,12224.28135,W,1,10,0.9,-7.2,M,-18.2,M,,*4C
$GPVTG,184.2,T,167.8,M,002.83,N,0005.24,K,A*1E
$HCHDG,167.9,0.0,E,,*20
$GPGSV,3,1,10,18,62,064,39,21,40,121,42,16,01,242,24,10,77,284,34*70
$YXXDR,A,5.6,D,PTCH,A,0.0,D,ROLL*5E
$IIMWV,181,T,10.5,N,A*19
$GPGSV,3,2,10,27,51,260,38,15,18,045,33,08,33,306,36,32,35,188,44*75
$DATA,IMU,0,3,1,0,EULER,69.25,-5.1875,-2.5625,ACC,0.07,0.13,0.32,GRAV,-0.88,0.43,9.75*6C
$GPGSV,3,3,10,24,18,081,35,14,15,195,31*76
$GPRMC,030012.2,A,4741.24092,N,12224.28136,W,002.80,183.8,090816,016.4,E,A*2A
$IIRMB,A,0.00,R,Gh,X,4720.300000,N,12232.734000,W,21.7,195,2.74,V*4E
$GPGGA,030012.2,4741.24092,N,12224.28136,W,1,10,0.9,-7.2,M,-18.2,M,,*48
$GPVTG,183.8,T,167.3,M,002.80,N,0005.19,K,A*15
$HCHDG,167.9,0.0,E,,*20
$YXXDR,A,5.6,D,PTCH,A,-0.1,D,ROLL*72
$IIRMB,A,0.00,L,,X   ,,,,,021.7,195,,V,A*36
$DATA,IMU,0,3,1,0,EULER,69.25,-5.1875,-2.5625,ACC,0.51,0.07,0.2,GRAV,-0.88,0.43,9.75*59
$GPRMC,030012.3,A,4741.24089,N,12224.28136,W,002.79,184.0,090816,016.4,E,A*28
$IIRMB,A,0.00,R,Gh,X,4720.300000,N,12232.734000,W,21.7,195,2.74,V*4E
$GPGGA,030012.3,4741.24089,N,12224.28136,W,1,10,0.9,-7.2,M,-18.2,M,,*43
$GPVTG,184.0,T,167.6,M,002.79,N,0005.16,K,A*16
$HCHDG,168.0,0.0,E,,*26
$YXXDR,A,5.5,D,PTCH,A,-0.2,D,ROLL*72
$DATA,IMU,0,3,1,0,EULER,69.25,-5.125,-2.5625,ACC,0.28,-0.05,0.21,GRAV,-0.88,0.43,9.75*74
$GPRMC,030012.4,A,4741.24085,N,12224.28136,W,002.77,183.8,090816,016.4,E,A*22
$IIRMB,A,0.00,R,Gh,X,4720.300000,N,12232.734000,W,21.7,195,2.71,V*4B
$GPGGA,030012.4,4741.24085,N,12224.28136,W,1,10,0.9,-7.2,M,-18.2,M,,*48
$GPVTG,183.8,T,167.3,M,002.77,N,0005.13,K,A*17
$HCHDG,167.9,0.0,E,,*20
$IIVHW,,,,,03.1,N,,*1B
$YXXDR,A,5.4,D,PTCH,A,-0.3,D,ROLL*72
$DATA,IMU,0,3,1,0,EULER,69.25,-5.125,-2.5625,ACC,-0.25,0,0.38,GRAV,-0.88,0.44,9.75*5D
$GPRMC,030012.5,A,4741.24077,N,12224.28137,W,002.77,184.2,090816,016.4,E,A*22
$IIRMB,A,0.00,R,Gh,X,4720.300000,N,12232.734000,W,21.7,195,2.72,V*48
$IIVLW,07635,N,008.0,N*5C
$GPGGA,030012.5,4741.24077,N,12224.28137,W,1,10,0.9,-7.2,M,-18.2,M,,*45
$HCHDG,168.1,0.0,E,,*27
$GPVTG,184.2,T,167.7,M,002.77,N,0005.13,K,A*1E
$YXXDR,A,5.4,D,PTCH,A,-0.4,D,ROLL*75
$IIVWR,178,L,07.2,N,,,,*74
$DATA,IMU,0,3,1,0,EULER,69.25,-5.1875,-2.5625,ACC,-0.39,0.09,0.39,GRAV,-0.88,0.44,9.75*4B
$GPRMC,030012.6,A,4741.24070,N,12224.28138,W,002.77,184.0,090816,016.4,E,A*2B
$IIRMB,A,0.00,R,Gh,X,4720.300000,N,12232.734000,W,21.7,195,2.72,V*48
$GPGGA,030012.6,4741.24070,N,12224.28138,W,1,10,0.9,-7.2,M,-18.2,M,,*4E
$HCHDG,168.1,0.0,E,,*27
$GPVTG,184.0,T,167.6,M,002.77,N,0005.12,K,A*1C
$YXXDR,A,5.4,D,PTCH,A,-0.5,D,ROLL*74
$TIROT,23.2,A*08
$DATA,IMU,0,3,1,0,EULER,69.25,-5.25,-2.5625,ACC,0.04,-0.04,0.34,GRAV,-0.89,0.44,9.75*48
$GPRMC,030012.7,A,4741.24062,N,12224.28139,W,002.77,184.4,090816,016.4,E,A*2C
$IIRMB,A,0.00,R,Gh,X,4720.300000,N,12232.734000,W,21.7,195,2.72,V*48
$GPGGA,030012.7,4741.24062,N,12224.28139,W,1,10,0.9,-7.2,M,-18.2,M,,*4D
$GPVTG,184.4,T,168.0,M,002.77,N,0005.14,K,A*17
$HCHDG,168.0,0.0,E,,*26
$YXXDR,A,5.4,D,PTCH,A,-0.4,D,ROLL*75
$DATA,IMU,0,3,1,0,EULER,69.25,-5.3125,-2.5625,ACC,-0.06,-0.02,0.26,GRAV,-0.9,0.44,9.75*58
$GPRMC,030012.8,A,4741.24054,N,12224.28139,W,002.79,184.6,090816,016.4,E,A*2A
$IIRMB,A,0.00,R,Gh,X,4720.300000,N,12232.734000,W,21.7,195,2.74,V*4E
$GPGGA,030012.8,4741.24054,N,12224.28139,W,1,10,0.9,-7.1,M,-18.2,M,,*44
$GPVTG,184.6,T,168.1,M,002.79,N,0005.17,K,A*19
$HCHDG,168.0,0.0,E,,*26
$YXXDR,A,5.4,D,PTCH,A,-0.4,D,ROLL*75
$DATA,IMU,0,3,1,0,EULER,69.25,-5.375,-2.5625,ACC,-0.86,-0.02,0.43,GRAV,-0.92,0.44,9.75*55
$GPRMC,030012.9,A,4741.24026,N,12224.28141,W,002.73,184.2,090816,016.4,E,A*2F
$IIRMB,A,0.00,R,Gh,X,4720.300000,N,12232.734000,W,21.7,195,2.68,V*43
$GPGGA,030012.9,4741.24026,N,12224.28141,W,1,10,0.9,-7.1,M,-18.2,M,,*4F
$HCHDG,168.0,0.0,E,,*26
$GPVTG,184.2,T,167.8,M,002.73,N,0005.06,K,A*11
$YXXDR,A,5.3,D,PTCH,A,-0.3,D,ROLL*75
$DATA,IMU,0,3,1,0,EULER,69.25,-5.4375,-2.5625,ACC,0.45,0.05,0.05,GRAV,-0.93,0.44,9.75*6A
$GPRMC,030013.0,A,4741.24018,N,12224.28142,W,002.73,184.6,090816,016.4,E,A*2D
$IIRMB,A,0.00,R,Gh,X,4720.300000,N,12232.734000,W,21.7,195,2.68,V*43
$GPGGA,030013.0,4741.24018,N,12224.28142,W,1,10,0.9,-7.1,M,-18.2,M,,*49
$HCHDG,168.1,0.0,E,,*27
$GPVTG,184.6,T,168.1,M,002.73,N,0005.06,K,A*13
$GPGSA,A,3,18,21,16,10,27,15,08,32,24,14,,,1.4,0.9,1.1*39
$YXXDR,A,5.1,D,PTCH,A,-0.3,D,ROLL*77
$DATA,IMU,0,3,1,0,EULER,69.25,-5.5625,-2.5625,ACC,0.38,0.02,0.31,GRAV,-0.95,0.44,9.74*66
$GPRMC,030013.1,A,4741.24011,N,12224.28143,W,002.70,184.7,090816,016.4,E,A*26
$IIRMB,A,0.00,R,Gh,X,4720.300000,N,12232.734000,W,21.7,195,2.65,V*4E
$DATA,env,P,968.58984375,T,23.83*71
$GPGGA,030013.1,4741.24011,N,12224.28143,W,1,10,0.9,-7.1,M,-18.2,M,,*40
$HCHDG,168.1,0.0,E,,*27
$GPVTG,184.7,T,168.3,M,002.70,N,0005.00,K,A*15
$YXXDR,A,5.4,D,PTCH,A,-0.3,D,ROLL*72
$GPGSV,3,1,10,18,62,064,40,21,40,121,42,16,01,242,24,10,77,284,35*7F
$IIMTW,+12.0,C*3B
$GPGSV,3,2,10,27,51,260,39,15,18,045,32,08,33,306,35,32,35,188,44*76
$GPGSV,3,3,10,24,18,081,35,14,15,195,31*76
$DATA,IMU,0,3,1,0,EULER,69.25,-5.625,-2.5625,ACC,0.22,0,0.13,GRAV,-0.97,0.44,9.74*76
$GPRMC,030013.2,A,4741.24007,N,12224.28143,W,002.68,185.3,090816,016.4,E,A*2E
$IIRMB,A,0.00,R,Gh,X,4720.300000,N,12232.734000,W,21.7,195,2.64,V*4F
$IIMWV,184,R,07.3,N,A*1A
$GPGGA,030013.2,4741.24007,N,12224.28143,W,1,10,0.9,-7.1,M,-18.2,M,,*44
$HCHDG,168.2,0.0,E,,*24
$GPVTG,185.3,T,168.9,M,002.68,N,0004.97,K,A*1C
$YXXDR,A,5.5,D,PTCH,A,-0.4,D,ROLL*74
$IIMWV,181,T,10.3,N,A*1F
$DATA,IMU,0,3,1,0,EULER,69.25,-5.75,-2.5625,ACC,0.56,0.09,0.25,GRAV,-0.98,0.44,9.74*6B
$GPRMC,030013.3,A,4741.23997,N,12224.28146,W,002.70,185.4,090816,016.4,E,A*23
$IIRMB,A,0.00,R,Gh,X,4720.300000,N,12232.734000,W,21.7,195,2.66,V*4D
$GPGGA,030013.3,4741.23997,N,12224.28146,W,1,10,0.9,-7.1,M,-18.2,M,,*47
$HCHDG,168.2,0.0,E,,*24
$GPVTG,185.4,T,168.9,M,002.70,N,0005.00,K,A*1D
$YXXDR,A,5.6,D,PTCH,A,-0.4,D,ROLL*77
$IIRMB,A,0.00,L,,X   ,,,,,021.7,195,,V,A*36
$DATA,IMU,0,3,1,0,EULER,69.1875,-5.8125,-2.5625,ACC,-0.7,-0.04,0.19,GRAV,-0.99,0.44,9.74*5C
$GPRMC,030013.4,A,4741.23993,N,12224.28146,W,002.72,185.9,090816,016.4,E,A*2F
$IIRMB,A,0.00,R,Gh,X,4720.300000,N,12232.734000,W,21.7,195,2.68,V*43
$GPGGA,030013.4,4741.23993,N,12224.28146,W,1,10,0.9,-7.1,M,-18.2,M,,*44
$HCHDG,168.4,0.0,E,,*22
$GPVTG,185.9,T,169.4,M,002.72,N,0005.04,K,A*1A
$YXXDR,A,5.5,D,PTCH,A,-0.7,D,ROLL*77
$GPRMC,030013.5,A,4741.23981,N,12224.28149,W,002.70,186.0,090816,016.4,E,A*2A
$IIRMB,A,0.00,R,Gh,X,4720.300000,N,12232.734000,W,21.7,195,2.66,V*4D
$DATA,IMU,0,3,1,0,EULER,69.125,-5.875,-2.5625,ACC,-0.54,-0.06,0.35,GRAV,-1,0.44,9.74*40
$GPGGA,030013.5,4741.23981,N,12224.28149,W,1,10,0.9,-7.1,M,-18.2,M,,*49
$GPVTG,186.0,T,169.6,M,002.70,N,0005.00,K,A*14
$HCHDG,168.3,0.0,E,,*25
$IIVHW,,,,,03.0,N,,*1A
$YXXDR,A,5.5,D,PTCH,A,-0.9,D,ROLL*79
$IIVLW,07635,N,008.0,N*5C
$GPRMC,030013.6,A,4741.23978,N,12224.28149,W,002.70,186.3,090816,016.4,E,A*2C
$IIRMB,A,0.00,R,Gh,X,4720.300000,N,12232.734000,W,21.7,195,2.67,V*4C
